{"data": {"bikes": [{"fusion_lat": 0.0, "name": "3cae2473cf613c68ea2a3eb4a2972fc9", "is_disabled": 0, "rental_uris": {"android": "https://dc.lft.to/lastmile_qr_scan", "ios": "https://dc.lft.to/lastmile_qr_scan"}, "fusion_lon": 0.0, "lat": 38.96236583333334, "bike_id": "3cae2473cf613c68ea2a3eb4a2972fc9", "type": "electric_bike", "is_reserved": 0, "lon": -76.92758283333333}, {"fusion_lat": 0.0, "name": "738c23b69d53d1f68a6cbcd80582415a", "is_disabled": 0, "rental_uris": {"android": "https://dc.lft.to/lastmile_qr_scan", "ios": "https://dc.lft.to/lastmile_qr_scan"}, "fusion_lon": 0.0, "lat": 38.897346666666664, "bike_id": "738c23b69d53d1f68a6cbcd80582415a", "type": "electric_scooter", "is_reserved": 0, "lon": -77.04857516666667}, {"fusion_lat": 0.0, "name": "7caf2c2e634ea1fd151b84140e7f459c", "is_disabled": 0, "rental_uris": {"android": "https://dc.lft.to/lastmile_qr_scan", "ios": "https://dc.lft.to/lastmile_qr_scan"}, "fusion_lon": 0.0, "lat": 38.910654, "bike_id": "7caf2c2e634ea1fd151b84140e7f459c", "type": "electric_scooter", "is_reserved": 0, "lon": -77.004688}, {"fusion_lat": 0.0, "name": "9041f64fc532210b57b25d2ce2044ea0", "is_disabled": 0, "rental_uris": {"android": "https://dc.lft.to/lastmile_qr_scan", "ios": "https://dc.lft.to/lastmile_qr_scan"}, "fusion_lon": 0.0, "lat": 38.9056195, "bike_id": "9041f64fc532210b57b25d2ce2044ea0", "type": "electric_scooter", "is_reserved": 0, "lon": -77.02197366666667}, {"fusion_lat": 0.0, "name": "357b783673a8784f358e1a0c9e55f260", "is_disabled": 0, "rental_uris": {"android": "https://dc.lft.to/lastmile_qr_scan", "ios": "https://dc.lft.to/lastmile_qr_scan"}, "fusion_lon": 0.0, "lat": 38.942031, "bike_id": "357b783673a8784f358e1a0c9e55f260", "type": "electric_scooter", "is_reserved": 0, "lon": -77.02590116666667}, {"fusion_lat": 0.0, "name": "73434bed74b9137988e877286b330845", "is_disabled": 0, "rental_uris": {"android": "https://dc.lft.to/lastmile_qr_scan", "ios": "https://dc.lft.to/lastmile_qr_scan"}, "fusion_lon": 0.0, "lat": 38.91797, "bike_id": "73434bed74b9137988e877286b330845", "type": "electric_scooter", "is_reserved": 0, "lon": -77.0343735}, {"fusion_lat": 0.0, "name": "3d868f66b90c9364447c8b07164708c1", "is_disabled": 0, "rental_uris": {"android": "https://dc.lft.to/lastmile_qr_scan", "ios": "https://dc.lft.to/lastmile_qr_scan"}, "fusion_lon": 0.0, "lat": 38.902035833333336, "bike_id": "3d868f66b90c9364447c8b07164708c1", "type": "electric_scooter", "is_reserved": 0, "lon": -77.02211933333334}, {"fusion_lat": 0.0, "name": "55d4d9622ea806574c73cba3f9d5b92a", "is_disabled": 0, "rental_uris": {"android": "https://dc.lft.to/lastmile_qr_scan", "ios": "https://dc.lft.to/lastmile_qr_scan"}, "fusion_lon": 0.0, "lat": 38.905431, "bike_id": "55d4d9622ea806574c73cba3f9d5b92a", "type": "electric_scooter", "is_reserved": 0, "lon": -77.03351933333333}, {"fusion_lat": 0.0, "name": "3d3236dfdb8c3b8f99c87c099e703afa", "is_disabled": 0, "rental_uris": {"android": "https://dc.lft.to/lastmile_qr_scan", "ios": "https://dc.lft.to/lastmile_qr_scan"}, "fusion_lon": 0.0, "lat": 38.917126333333336, "bike_id": "3d3236dfdb8c3b8f99c87c099e703afa", "type": "electric_scooter", "is_reserved": 0, "lon": -77.03868183333333}, {"fusion_lat": 0.0, "name": "874d1c78757ebf0c8cf432a669e76ce2", "is_disabled": 0, "rental_uris": {"android": "https://dc.lft.to/lastmile_qr_scan", "ios": "https://dc.lft.to/lastmile_qr_scan"}, "fusion_lon": 0.0, "lat": 38.94952116666666, "bike_id": "874d1c78757ebf0c8cf432a669e76ce2", "type": "electric_scooter", "is_reserved": 0, "lon": -77.02311833333333}, {"fusion_lat": 0.0, "name": "1f9228dc08cbe9f47f7ee429ffc5336c", "is_disabled": 0, "rental_uris": {"android": "https://dc.lft.to/lastmile_qr_scan", "ios": "https://dc.lft.to/lastmile_qr_scan"}, "fusion_lon": 0.0, "lat": 38.87949583333334, "bike_id": "1f9228dc08cbe9f47f7ee429ffc5336c", "type": "electric_scooter", "is_reserved": 0, "lon": -77.00837133333333}, {"fusion_lat": 0.0, "name": "1523c2bf7a2d3df97849b87d8f8d8702", "is_disabled": 0, "rental_uris": {"android": "https://dc.lft.to/lastmile_qr_scan", "ios": "https://dc.lft.to/lastmile_qr_scan"}, "fusion_lon": 0.0, "lat": 38.93303233333334, "bike_id": "1523c2bf7a2d3df97849b87d8f8d8702", "type": "electric_scooter", "is_reserved": 0, "lon": -77.02793516666667}, {"fusion_lat": 0.0, "name": "07ce36aef162a8938c4f58c1b8185ce8", "is_disabled": 0, "rental_uris": {"android": "https://dc.lft.to/lastmile_qr_scan", "ios": "https://dc.lft.to/lastmile_qr_scan"}, "fusion_lon": 0.0, "lat": 38.919445, "bike_id": "07ce36aef162a8938c4f58c1b8185ce8", "type": "electric_scooter", "is_reserved": 0, "lon": -77.03949433333334}, {"fusion_lat": 0.0, "name": "67f08d4ba4b2816e47f1259c9685c149", "is_disabled": 0, "rental_uris": {"android": "https://dc.lft.to/lastmile_qr_scan", "ios": "https://dc.lft.to/lastmile_qr_scan"}, "fusion_lon": 0.0, "lat": 38.9222155, "bike_id": "67f08d4ba4b2816e47f1259c9685c149", "type": "electric_scooter", "is_reserved": 0, "lon": -77.0433615}, {"fusion_lat": 0.0, "name": "ab79199735bba958b68213b0131d65bb", "is_disabled": 0, "rental_uris": {"android": "https://dc.lft.to/lastmile_qr_scan", "ios": "https://dc.lft.to/lastmile_qr_scan"}, "fusion_lon": 0.0, "lat": 38.92847016666666, "bike_id": "ab79199735bba958b68213b0131d65bb", "type": "electric_scooter", "is_reserved": 0, "lon": -77.032811}, {"fusion_lat": 0.0, "name": "4c2a8405fb94ceea643de411db175d7f", "is_disabled": 0, "rental_uris": {"android": "https://dc.lft.to/lastmile_qr_scan", "ios": "https://dc.lft.to/lastmile_qr_scan"}, "fusion_lon": 0.0, "lat": 38.90256133333333, "bike_id": "4c2a8405fb94ceea643de411db175d7f", "type": "electric_scooter", "is_reserved": 0, "lon": -77.03159216666667}, {"fusion_lat": 0.0, "name": "1b25a3cafdca427343539cd32d423eb8", "is_disabled": 0, "rental_uris": {"android": "https://dc.lft.to/lastmile_qr_scan", "ios": "https://dc.lft.to/lastmile_qr_scan"}, "fusion_lon": 0.0, "lat": 38.9061545, "bike_id": "1b25a3cafdca427343539cd32d423eb8", "type": "electric_scooter", "is_reserved": 0, "lon": -77.03319316666666}, {"fusion_lat": 0.0, "name": "e8c274dd88e7fdc5373b2f35122ddd5d", "is_disabled": 0, "rental_uris": {"android": "https://dc.lft.to/lastmile_qr_scan", "ios": "https://dc.lft.to/lastmile_qr_scan"}, "fusion_lon": 0.0, "lat": 38.923995833333336, "bike_id": "e8c274dd88e7fdc5373b2f35122ddd5d", "type": "electric_scooter", "is_reserved": 0, "lon": -77.022633}, {"fusion_lat": 0.0, "name": "ad8630ad6351fcdf67fbaa7c7a9eeba4", "is_disabled": 0, "rental_uris": {"android": "https://dc.lft.to/lastmile_qr_scan", "ios": "https://dc.lft.to/lastmile_qr_scan"}, "fusion_lon": 0.0, "lat": 38.95696233333334, "bike_id": "ad8630ad6351fcdf67fbaa7c7a9eeba4", "type": "electric_scooter", "is_reserved": 0, "lon": -77.03260133333333}, {"fusion_lat": 0.0, "name": "3cc7105d0da3007489abbb7129457003", "is_disabled": 0, "rental_uris": {"android": "https://dc.lft.to/lastmile_qr_scan", "ios": "https://dc.lft.to/lastmile_qr_scan"}, "fusion_lon": 0.0, "lat": 38.91696983333333, "bike_id": "3cc7105d0da3007489abbb7129457003", "type": "electric_scooter", "is_reserved": 0, "lon": -77.034763}, {"fusion_lat": 0.0, "name": "4131dc49b2efc488484ee7a309dc08c3", "is_disabled": 0, "rental_uris": {"android": "https://dc.lft.to/lastmile_qr_scan", "ios": "https://dc.lft.to/lastmile_qr_scan"}, "fusion_lon": 0.0, "lat": 38.86683166666667, "bike_id": "4131dc49b2efc488484ee7a309dc08c3", "type": "electric_bike", "is_reserved": 0, "lon": -76.98236583333333}, {"fusion_lat": 0.0, "name": "efe9dbcf13275a3091bb971aa8952db5", "is_disabled": 0, "rental_uris": {"android": "https://dc.lft.to/lastmile_qr_scan", "ios": "https://dc.lft.to/lastmile_qr_scan"}, "fusion_lon": 0.0, "lat": 38.892237333333334, "bike_id": "efe9dbcf13275a3091bb971aa8952db5", "type": "electric_scooter", "is_reserved": 0, "lon": -77.04685066666667}, {"fusion_lat": 0.0, "name": "ef9778c8f7b8c4a615966e83513723da", "is_disabled": 0, "rental_uris": {"android": "https://dc.lft.to/lastmile_qr_scan", "ios": "https://dc.lft.to/lastmile_qr_scan"}, "fusion_lon": 0.0, "lat": 38.9207615, "bike_id": "ef9778c8f7b8c4a615966e83513723da", "type": "electric_scooter", "is_reserved": 0, "lon": -77.02413033333333}, {"fusion_lat": 0.0, "name": "c311ba98cb9e2887833af0e6d5f8609e", "is_disabled": 0, "rental_uris": {"android": "https://dc.lft.to/lastmile_qr_scan", "ios": "https://dc.lft.to/lastmile_qr_scan"}, "fusion_lon": 0.0, "lat": 38.9184495, "bike_id": "c311ba98cb9e2887833af0e6d5f8609e", "type": "electric_scooter", "is_reserved": 0, "lon": -77.02428183333333}, {"fusion_lat": 0.0, "name": "243853bd599f3f90ea20cc54cbd3025e", "is_disabled": 0, "rental_uris": {"android": "https://dc.lft.to/lastmile_qr_scan", "ios": "https://dc.lft.to/lastmile_qr_scan"}, "fusion_lon": 0.0, "lat": 38.892371833333335, "bike_id": "243853bd599f3f90ea20cc54cbd3025e", "type": "electric_scooter", "is_reserved": 0, "lon": -77.00291816666666}, {"fusion_lat": 0.0, "name": "3d23baa5c3de2653ec57bcbbdf0b191a", "is_disabled": 0, "rental_uris": {"android": "https://dc.lft.to/lastmile_qr_scan", "ios": "https://dc.lft.to/lastmile_qr_scan"}, "fusion_lon": 0.0, "lat": 38.90237716666667, "bike_id": "3d23baa5c3de2653ec57bcbbdf0b191a", "type": "electric_scooter", "is_reserved": 0, "lon": -77.0347025}, {"fusion_lat": 0.0, "name": "0e781e82bc0a703b9550c0689417cb17", "is_disabled": 0, "rental_uris": {"android": "https://dc.lft.to/lastmile_qr_scan", "ios": "https://dc.lft.to/lastmile_qr_scan"}, "fusion_lon": 0.0, "lat": 38.916326166666664, "bike_id": "0e781e82bc0a703b9550c0689417cb17", "type": "electric_scooter", "is_reserved": 0, "lon": -77.00098383333334}, {"fusion_lat": 0.0, "name": "d73fae0fc17e0a230d11d8600b026f74", "is_disabled": 0, "rental_uris": {"android": "https://dc.lft.to/lastmile_qr_scan", "ios": "https://dc.lft.to/lastmile_qr_scan"}, "fusion_lon": 0.0, "lat": 38.93073833333333, "bike_id": "d73fae0fc17e0a230d11d8600b026f74", "type": "electric_scooter", "is_reserved": 0, "lon": -77.0217585}, {"fusion_lat": 0.0, "name": "e1add39c3aa30bdab421a9cbeb69d4aa", "is_disabled": 0, "rental_uris": {"android": "https://dc.lft.to/lastmile_qr_scan", "ios": "https://dc.lft.to/lastmile_qr_scan"}, "fusion_lon": 0.0, "lat": 38.90763966666667, "bike_id": "e1add39c3aa30bdab421a9cbeb69d4aa", "type": "electric_scooter", "is_reserved": 0, "lon": -77.05652933333333}, {"fusion_lat": 0.0, "name": "b6ff655edb24cdf0584204bb15d5e6bc", "is_disabled": 0, "rental_uris": {"android": "https://dc.lft.to/lastmile_qr_scan", "ios": "https://dc.lft.to/lastmile_qr_scan"}, "fusion_lon": 0.0, "lat": 38.8974425, "bike_id": "b6ff655edb24cdf0584204bb15d5e6bc", "type": "electric_scooter", "is_reserved": 0, "lon": -77.04640966666666}, {"fusion_lat": 0.0, "name": "1618849bedfa187753631630c848cce4", "is_disabled": 0, "rental_uris": {"android": "https://dc.lft.to/lastmile_qr_scan", "ios": "https://dc.lft.to/lastmile_qr_scan"}, "fusion_lon": 0.0, "lat": 38.93964783333333, "bike_id": "1618849bedfa187753631630c848cce4", "type": "electric_scooter", "is_reserved": 0, "lon": -77.03283283333333}, {"fusion_lat": 0.0, "name": "98d0041bf78aa91c30a5fc79fe046ce6", "is_disabled": 0, "rental_uris": {"android": "https://dc.lft.to/lastmile_qr_scan", "ios": "https://dc.lft.to/lastmile_qr_scan"}, "fusion_lon": 0.0, "lat": 38.911080166666665, "bike_id": "98d0041bf78aa91c30a5fc79fe046ce6", "type": "electric_scooter", "is_reserved": 0, "lon": -77.08133783333334}, {"fusion_lat": 0.0, "name": "19e53a621928faddbb1fdd21639427ba", "is_disabled": 0, "rental_uris": {"android": "https://dc.lft.to/lastmile_qr_scan", "ios": "https://dc.lft.to/lastmile_qr_scan"}, "fusion_lon": 0.0, "lat": 38.92154683333333, "bike_id": "19e53a621928faddbb1fdd21639427ba", "type": "electric_scooter", "is_reserved": 0, "lon": -77.0335945}, {"fusion_lat": 0.0, "name": "b61ee9f84f78fbb78ede1dadcf447312", "is_disabled": 0, "rental_uris": {"android": "https://dc.lft.to/lastmile_qr_scan", "ios": "https://dc.lft.to/lastmile_qr_scan"}, "fusion_lon": 0.0, "lat": 38.88331316666667, "bike_id": "b61ee9f84f78fbb78ede1dadcf447312", "type": "electric_bike", "is_reserved": 0, "lon": -76.96059883333334}, {"fusion_lat": 0.0, "name": "f060fd58f9f05d2fcaa2196582c44ed1", "is_disabled": 0, "rental_uris": {"android": "https://dc.lft.to/lastmile_qr_scan", "ios": "https://dc.lft.to/lastmile_qr_scan"}, "fusion_lon": 0.0, "lat": 38.9377455, "bike_id": "f060fd58f9f05d2fcaa2196582c44ed1", "type": "electric_scooter", "is_reserved": 0, "lon": -77.03265666666667}, {"fusion_lat": 0.0, "name": "d4cd02e2055bb03c02c791c49f510dae", "is_disabled": 0, "rental_uris": {"android": "https://dc.lft.to/lastmile_qr_scan", "ios": "https://dc.lft.to/lastmile_qr_scan"}, "fusion_lon": 0.0, "lat": 38.9148205, "bike_id": "d4cd02e2055bb03c02c791c49f510dae", "type": "electric_scooter", "is_reserved": 0, "lon": -77.04019716666667}, {"fusion_lat": 0.0, "name": "29447e1a63d4a42dd3419e846ee18a7e", "is_disabled": 0, "rental_uris": {"android": "https://dc.lft.to/lastmile_qr_scan", "ios": "https://dc.lft.to/lastmile_qr_scan"}, "fusion_lon": 0.0, "lat": 38.897115166666666, "bike_id": "29447e1a63d4a42dd3419e846ee18a7e", "type": "electric_scooter", "is_reserved": 0, "lon": -77.02289}, {"fusion_lat": 0.0, "name": "d126d8988b9027c46d2e28f81a5ff511", "is_disabled": 0, "rental_uris": {"android": "https://dc.lft.to/lastmile_qr_scan", "ios": "https://dc.lft.to/lastmile_qr_scan"}, "fusion_lon": 0.0, "lat": 38.92825833333333, "bike_id": "d126d8988b9027c46d2e28f81a5ff511", "type": "electric_scooter", "is_reserved": 0, "lon": -77.02258566666667}, {"fusion_lat": 0.0, "name": "ae9236d6fc4481fdcb6a34fb3c30708b", "is_disabled": 0, "rental_uris": {"android": "https://dc.lft.to/lastmile_qr_scan", "ios": "https://dc.lft.to/lastmile_qr_scan"}, "fusion_lon": 0.0, "lat": 38.82786816666667, "bike_id": "ae9236d6fc4481fdcb6a34fb3c30708b", "type": "electric_bike", "is_reserved": 0, "lon": -77.1249305}, {"fusion_lat": 0.0, "name": "da40f209e6f5e8790f5742a19910fa9c", "is_disabled": 0, "rental_uris": {"android": "https://dc.lft.to/lastmile_qr_scan", "ios": "https://dc.lft.to/lastmile_qr_scan"}, "fusion_lon": 0.0, "lat": 38.92223366666666, "bike_id": "da40f209e6f5e8790f5742a19910fa9c", "type": "electric_scooter", "is_reserved": 0, "lon": -77.02368483333333}, {"fusion_lat": 0.0, "name": "55b4994c992d9a9548cbd5389dec16d1", "is_disabled": 0, "rental_uris": {"android": "https://dc.lft.to/lastmile_qr_scan", "ios": "https://dc.lft.to/lastmile_qr_scan"}, "fusion_lon": 0.0, "lat": 38.89264166666667, "bike_id": "55b4994c992d9a9548cbd5389dec16d1", "type": "electric_bike", "is_reserved": 0, "lon": -76.95116616666667}, {"fusion_lat": 0.0, "name": "5f311d21f8e1538b4ee62f42e948edd8", "is_disabled": 0, "rental_uris": {"android": "https://dc.lft.to/lastmile_qr_scan", "ios": "https://dc.lft.to/lastmile_qr_scan"}, "fusion_lon": 0.0, "lat": 38.9073405, "bike_id": "5f311d21f8e1538b4ee62f42e948edd8", "type": "electric_scooter", "is_reserved": 0, "lon": -77.01091616666666}, {"fusion_lat": 0.0, "name": "30d92db9093909855a53ae0d26a6a65a", "is_disabled": 0, "rental_uris": {"android": "https://dc.lft.to/lastmile_qr_scan", "ios": "https://dc.lft.to/lastmile_qr_scan"}, "fusion_lon": 0.0, "lat": 38.905265666666665, "bike_id": "30d92db9093909855a53ae0d26a6a65a", "type": "electric_scooter", "is_reserved": 0, "lon": -77.0610065}, {"fusion_lat": 0.0, "name": "1acf45f73d4b70caa96d4cec33be30ed", "is_disabled": 0, "rental_uris": {"android": "https://dc.lft.to/lastmile_qr_scan", "ios": "https://dc.lft.to/lastmile_qr_scan"}, "fusion_lon": 0.0, "lat": 38.879425166666664, "bike_id": "1acf45f73d4b70caa96d4cec33be30ed", "type": "electric_scooter", "is_reserved": 0, "lon": -77.004204}, {"fusion_lat": 0.0, "name": "c094af76a985c2eaf1430e6257957109", "is_disabled": 0, "rental_uris": {"android": "https://dc.lft.to/lastmile_qr_scan", "ios": "https://dc.lft.to/lastmile_qr_scan"}, "fusion_lon": 0.0, "lat": 38.931878833333336, "bike_id": "c094af76a985c2eaf1430e6257957109", "type": "electric_scooter", "is_reserved": 0, "lon": -77.01963266666667}, {"fusion_lat": 0.0, "name": "dd4e6717836a17d985cbad8b88113f1e", "is_disabled": 0, "rental_uris": {"android": "https://dc.lft.to/lastmile_qr_scan", "ios": "https://dc.lft.to/lastmile_qr_scan"}, "fusion_lon": 0.0, "lat": 38.9525115, "bike_id": "dd4e6717836a17d985cbad8b88113f1e", "type": "electric_scooter", "is_reserved": 0, "lon": -77.02376883333334}, {"fusion_lat": 0.0, "name": "d50aaa535bbb5b39aea071c8d49e057c", "is_disabled": 0, "rental_uris": {"android": "https://dc.lft.to/lastmile_qr_scan", "ios": "https://dc.lft.to/lastmile_qr_scan"}, "fusion_lon": 0.0, "lat": 38.892264833333336, "bike_id": "d50aaa535bbb5b39aea071c8d49e057c", "type": "electric_scooter", "is_reserved": 0, "lon": -77.04506}, {"fusion_lat": 0.0, "name": "d7e0f7d230e54ce8f01ff55f078df1f4", "is_disabled": 0, "rental_uris": {"android": "https://dc.lft.to/lastmile_qr_scan", "ios": "https://dc.lft.to/lastmile_qr_scan"}, "fusion_lon": 0.0, "lat": 38.88507283333333, "bike_id": "d7e0f7d230e54ce8f01ff55f078df1f4", "type": "electric_scooter", "is_reserved": 0, "lon": -76.99759866666666}, {"fusion_lat": 0.0, "name": "c94633d8d24b3c81bb5c1b30d1b69f16", "is_disabled": 0, "rental_uris": {"android": "https://dc.lft.to/lastmile_qr_scan", "ios": "https://dc.lft.to/lastmile_qr_scan"}, "fusion_lon": 0.0, "lat": 38.926813333333335, "bike_id": "c94633d8d24b3c81bb5c1b30d1b69f16", "type": "electric_scooter", "is_reserved": 0, "lon": -77.03093866666667}, {"fusion_lat": 0.0, "name": "efe78a80f34c292791f1575df580789b", "is_disabled": 0, "rental_uris": {"android": "https://dc.lft.to/lastmile_qr_scan", "ios": "https://dc.lft.to/lastmile_qr_scan"}, "fusion_lon": 0.0, "lat": 38.91928166666667, "bike_id": "efe78a80f34c292791f1575df580789b", "type": "electric_scooter", "is_reserved": 0, "lon": -77.0261285}, {"fusion_lat": 0.0, "name": "e5a8e58829ebc12e9df91400285ae18a", "is_disabled": 0, "rental_uris": {"android": "https://dc.lft.to/lastmile_qr_scan", "ios": "https://dc.lft.to/lastmile_qr_scan"}, "fusion_lon": 0.0, "lat": 38.91387916666667, "bike_id": "e5a8e58829ebc12e9df91400285ae18a", "type": "electric_scooter", "is_reserved": 0, "lon": -77.0180715}, {"fusion_lat": 0.0, "name": "45c4274e83eb7d3418046fa0eb384c25", "is_disabled": 0, "rental_uris": {"android": "https://dc.lft.to/lastmile_qr_scan", "ios": "https://dc.lft.to/lastmile_qr_scan"}, "fusion_lon": 0.0, "lat": 38.929717333333336, "bike_id": "45c4274e83eb7d3418046fa0eb384c25", "type": "electric_scooter", "is_reserved": 0, "lon": -77.0419195}, {"fusion_lat": 0.0, "name": "017629ec2b3d51fa05c546ca6cd2e523", "is_disabled": 0, "rental_uris": {"android": "https://dc.lft.to/lastmile_qr_scan", "ios": "https://dc.lft.to/lastmile_qr_scan"}, "fusion_lon": 0.0, "lat": 38.906785166666666, "bike_id": "017629ec2b3d51fa05c546ca6cd2e523", "type": "electric_scooter", "is_reserved": 0, "lon": -77.03725283333333}, {"fusion_lat": 0.0, "name": "d3997197aad246d153f04ee39ca5857e", "is_disabled": 0, "rental_uris": {"android": "https://dc.lft.to/lastmile_qr_scan", "ios": "https://dc.lft.to/lastmile_qr_scan"}, "fusion_lon": 0.0, "lat": 38.924650666666665, "bike_id": "d3997197aad246d153f04ee39ca5857e", "type": "electric_scooter", "is_reserved": 0, "lon": -77.08027316666667}, {"fusion_lat": 0.0, "name": "0eb9a4386d8a6d6a88d66c8acfcbbbda", "is_disabled": 0, "rental_uris": {"android": "https://dc.lft.to/lastmile_qr_scan", "ios": "https://dc.lft.to/lastmile_qr_scan"}, "fusion_lon": 0.0, "lat": 38.907160833333336, "bike_id": "0eb9a4386d8a6d6a88d66c8acfcbbbda", "type": "electric_scooter", "is_reserved": 0, "lon": -77.04353833333333}, {"fusion_lat": 0.0, "name": "277d65dc6b5f023d0a2cf8e26fe8dbe1", "is_disabled": 0, "rental_uris": {"android": "https://dc.lft.to/lastmile_qr_scan", "ios": "https://dc.lft.to/lastmile_qr_scan"}, "fusion_lon": 0.0, "lat": 38.892204, "bike_id": "277d65dc6b5f023d0a2cf8e26fe8dbe1", "type": "electric_scooter", "is_reserved": 0, "lon": -77.02370816666667}, {"fusion_lat": 0.0, "name": "b30a56bda3211a24fb80f4a25386ef61", "is_disabled": 0, "rental_uris": {"android": "https://dc.lft.to/lastmile_qr_scan", "ios": "https://dc.lft.to/lastmile_qr_scan"}, "fusion_lon": 0.0, "lat": 38.89610616666667, "bike_id": "b30a56bda3211a24fb80f4a25386ef61", "type": "electric_scooter", "is_reserved": 0, "lon": -77.00926883333334}, {"fusion_lat": 0.0, "name": "405193c926814714a409a6ae2108f920", "is_disabled": 0, "rental_uris": {"android": "https://dc.lft.to/lastmile_qr_scan", "ios": "https://dc.lft.to/lastmile_qr_scan"}, "fusion_lon": 0.0, "lat": 38.918152166666665, "bike_id": "405193c926814714a409a6ae2108f920", "type": "electric_scooter", "is_reserved": 0, "lon": -77.003767}, {"fusion_lat": 0.0, "name": "dfc9de8a5f3d0aaa9f6e6739b4f59efc", "is_disabled": 0, "rental_uris": {"android": "https://dc.lft.to/lastmile_qr_scan", "ios": "https://dc.lft.to/lastmile_qr_scan"}, "fusion_lon": 0.0, "lat": 38.92871, "bike_id": "dfc9de8a5f3d0aaa9f6e6739b4f59efc", "type": "electric_scooter", "is_reserved": 0, "lon": -77.056559}, {"fusion_lat": 0.0, "name": "772ec42e94855e2fec9acd9562201043", "is_disabled": 0, "rental_uris": {"android": "https://dc.lft.to/lastmile_qr_scan", "ios": "https://dc.lft.to/lastmile_qr_scan"}, "fusion_lon": 0.0, "lat": 38.9140295, "bike_id": "772ec42e94855e2fec9acd9562201043", "type": "electric_scooter", "is_reserved": 0, "lon": -77.03219633333333}, {"fusion_lat": 0.0, "name": "14ac130f9a9059c71d654e39f0c267c1", "is_disabled": 0, "rental_uris": {"android": "https://dc.lft.to/lastmile_qr_scan", "ios": "https://dc.lft.to/lastmile_qr_scan"}, "fusion_lon": 0.0, "lat": 38.89741933333333, "bike_id": "14ac130f9a9059c71d654e39f0c267c1", "type": "electric_scooter", "is_reserved": 0, "lon": -77.01963516666666}, {"fusion_lat": 0.0, "name": "d26f98b09e93728a90ac9c687df1dac1", "is_disabled": 0, "rental_uris": {"android": "https://dc.lft.to/lastmile_qr_scan", "ios": "https://dc.lft.to/lastmile_qr_scan"}, "fusion_lon": 0.0, "lat": 38.88452433333333, "bike_id": "d26f98b09e93728a90ac9c687df1dac1", "type": "electric_scooter", "is_reserved": 0, "lon": -76.9939085}, {"fusion_lat": 0.0, "name": "5c239c72b4ae7905e50da61c8e94853d", "is_disabled": 0, "rental_uris": {"android": "https://dc.lft.to/lastmile_qr_scan", "ios": "https://dc.lft.to/lastmile_qr_scan"}, "fusion_lon": 0.0, "lat": 38.911275333333336, "bike_id": "5c239c72b4ae7905e50da61c8e94853d", "type": "electric_scooter", "is_reserved": 0, "lon": -77.02080866666667}, {"fusion_lat": 0.0, "name": "a78929bdec8be58014f5ea68e7942a56", "is_disabled": 0, "rental_uris": {"android": "https://dc.lft.to/lastmile_qr_scan", "ios": "https://dc.lft.to/lastmile_qr_scan"}, "fusion_lon": 0.0, "lat": 38.908486333333336, "bike_id": "a78929bdec8be58014f5ea68e7942a56", "type": "electric_scooter", "is_reserved": 0, "lon": -77.04746316666666}, {"fusion_lat": 0.0, "name": "ea50bb5523d7f1fe3e129372386b5b46", "is_disabled": 0, "rental_uris": {"android": "https://dc.lft.to/lastmile_qr_scan", "ios": "https://dc.lft.to/lastmile_qr_scan"}, "fusion_lon": 0.0, "lat": 38.906986833333335, "bike_id": "ea50bb5523d7f1fe3e129372386b5b46", "type": "electric_scooter", "is_reserved": 0, "lon": -77.05047683333333}, {"fusion_lat": 0.0, "name": "b94015936122e3d2063980b05fde0427", "is_disabled": 0, "rental_uris": {"android": "https://dc.lft.to/lastmile_qr_scan", "ios": "https://dc.lft.to/lastmile_qr_scan"}, "fusion_lon": 0.0, "lat": 38.9245935, "bike_id": "b94015936122e3d2063980b05fde0427", "type": "electric_scooter", "is_reserved": 0, "lon": -76.99913883333333}, {"fusion_lat": 0.0, "name": "e2eda88a27d7ec769d72335951516da6", "is_disabled": 0, "rental_uris": {"android": "https://dc.lft.to/lastmile_qr_scan", "ios": "https://dc.lft.to/lastmile_qr_scan"}, "fusion_lon": 0.0, "lat": 38.806798666666666, "bike_id": "e2eda88a27d7ec769d72335951516da6", "type": "electric_bike", "is_reserved": 0, "lon": -77.06913266666666}, {"fusion_lat": 0.0, "name": "12e7f39fea85b7c7e8ea843abeac7c57", "is_disabled": 0, "rental_uris": {"android": "https://dc.lft.to/lastmile_qr_scan", "ios": "https://dc.lft.to/lastmile_qr_scan"}, "fusion_lon": 0.0, "lat": 38.90025933333333, "bike_id": "12e7f39fea85b7c7e8ea843abeac7c57", "type": "electric_scooter", "is_reserved": 0, "lon": -77.01247933333333}, {"fusion_lat": 0.0, "name": "d56c714e880cb095db7791c18c4062e5", "is_disabled": 0, "rental_uris": {"android": "https://dc.lft.to/lastmile_qr_scan", "ios": "https://dc.lft.to/lastmile_qr_scan"}, "fusion_lon": 0.0, "lat": 38.936485833333336, "bike_id": "d56c714e880cb095db7791c18c4062e5", "type": "electric_scooter", "is_reserved": 0, "lon": -77.03054533333334}, {"fusion_lat": 0.0, "name": "919d2f31eb139cf5c717ac6854aa1a4c", "is_disabled": 0, "rental_uris": {"android": "https://dc.lft.to/lastmile_qr_scan", "ios": "https://dc.lft.to/lastmile_qr_scan"}, "fusion_lon": 0.0, "lat": 38.942259166666666, "bike_id": "919d2f31eb139cf5c717ac6854aa1a4c", "type": "electric_scooter", "is_reserved": 0, "lon": -77.01386216666667}, {"fusion_lat": 0.0, "name": "28e1c816b50ff5641380f3f6c09fb05e", "is_disabled": 0, "rental_uris": {"android": "https://dc.lft.to/lastmile_qr_scan", "ios": "https://dc.lft.to/lastmile_qr_scan"}, "fusion_lon": 0.0, "lat": 38.89738916666667, "bike_id": "28e1c816b50ff5641380f3f6c09fb05e", "type": "electric_scooter", "is_reserved": 0, "lon": -77.03342083333334}, {"fusion_lat": 0.0, "name": "b2bb484cd68a5fb54e564aad3ca1d2ca", "is_disabled": 0, "rental_uris": {"android": "https://dc.lft.to/lastmile_qr_scan", "ios": "https://dc.lft.to/lastmile_qr_scan"}, "fusion_lon": 0.0, "lat": 38.916669, "bike_id": "b2bb484cd68a5fb54e564aad3ca1d2ca", "type": "electric_scooter", "is_reserved": 0, "lon": -77.02961866666666}, {"fusion_lat": 0.0, "name": "efc6fc9eb12cf6f262e0ef414c451978", "is_disabled": 0, "rental_uris": {"android": "https://dc.lft.to/lastmile_qr_scan", "ios": "https://dc.lft.to/lastmile_qr_scan"}, "fusion_lon": 0.0, "lat": 38.89337416666667, "bike_id": "efc6fc9eb12cf6f262e0ef414c451978", "type": "electric_scooter", "is_reserved": 0, "lon": -77.02240783333333}, {"fusion_lat": 0.0, "name": "5122c206a93cd06724dc4b24c6078e37", "is_disabled": 0, "rental_uris": {"android": "https://dc.lft.to/lastmile_qr_scan", "ios": "https://dc.lft.to/lastmile_qr_scan"}, "fusion_lon": 0.0, "lat": 38.920809166666665, "bike_id": "5122c206a93cd06724dc4b24c6078e37", "type": "electric_bike", "is_reserved": 0, "lon": -76.98945183333333}, {"fusion_lat": 0.0, "name": "0a76ced51b119e5ab9462f675a3c30a7", "is_disabled": 0, "rental_uris": {"android": "https://dc.lft.to/lastmile_qr_scan", "ios": "https://dc.lft.to/lastmile_qr_scan"}, "fusion_lon": 0.0, "lat": 38.88512716666666, "bike_id": "0a76ced51b119e5ab9462f675a3c30a7", "type": "electric_scooter", "is_reserved": 0, "lon": -77.01521616666666}, {"fusion_lat": 0.0, "name": "3c88ed09e2bb0c8576c555b7260e5394", "is_disabled": 0, "rental_uris": {"android": "https://dc.lft.to/lastmile_qr_scan", "ios": "https://dc.lft.to/lastmile_qr_scan"}, "fusion_lon": 0.0, "lat": 38.91769583333333, "bike_id": "3c88ed09e2bb0c8576c555b7260e5394", "type": "electric_scooter", "is_reserved": 0, "lon": -77.01497316666666}, {"fusion_lat": 0.0, "name": "2d122cc7db73889a996cb129e2053b71", "is_disabled": 0, "rental_uris": {"android": "https://dc.lft.to/lastmile_qr_scan", "ios": "https://dc.lft.to/lastmile_qr_scan"}, "fusion_lon": 0.0, "lat": 38.88726833333333, "bike_id": "2d122cc7db73889a996cb129e2053b71", "type": "electric_scooter", "is_reserved": 0, "lon": -76.98355883333333}, {"fusion_lat": 0.0, "name": "fd9a02b95c03ca6a318761bdbc96084a", "is_disabled": 0, "rental_uris": {"android": "https://dc.lft.to/lastmile_qr_scan", "ios": "https://dc.lft.to/lastmile_qr_scan"}, "fusion_lon": 0.0, "lat": 38.899776333333335, "bike_id": "fd9a02b95c03ca6a318761bdbc96084a", "type": "electric_scooter", "is_reserved": 0, "lon": -76.98709066666666}, {"fusion_lat": 0.0, "name": "84af319df5954be2332d8c63e3dd7c3e", "is_disabled": 0, "rental_uris": {"android": "https://dc.lft.to/lastmile_qr_scan", "ios": "https://dc.lft.to/lastmile_qr_scan"}, "fusion_lon": 0.0, "lat": 38.9279315, "bike_id": "84af319df5954be2332d8c63e3dd7c3e", "type": "electric_scooter", "is_reserved": 0, "lon": -77.02719383333333}, {"fusion_lat": 0.0, "name": "8a1614a6e3c005e8cfdc392daec02630", "is_disabled": 0, "rental_uris": {"android": "https://dc.lft.to/lastmile_qr_scan", "ios": "https://dc.lft.to/lastmile_qr_scan"}, "fusion_lon": 0.0, "lat": 38.886116333333334, "bike_id": "8a1614a6e3c005e8cfdc392daec02630", "type": "electric_scooter", "is_reserved": 0, "lon": -77.01554016666667}, {"fusion_lat": 0.0, "name": "6702c18ea21f5056343c83360d1f2a9a", "is_disabled": 0, "rental_uris": {"android": "https://dc.lft.to/lastmile_qr_scan", "ios": "https://dc.lft.to/lastmile_qr_scan"}, "fusion_lon": 0.0, "lat": 38.920433833333334, "bike_id": "6702c18ea21f5056343c83360d1f2a9a", "type": "electric_scooter", "is_reserved": 0, "lon": -77.02375}, {"fusion_lat": 0.0, "name": "75b08743a2cd3133f52999f5ce0d71a9", "is_disabled": 0, "rental_uris": {"android": "https://dc.lft.to/lastmile_qr_scan", "ios": "https://dc.lft.to/lastmile_qr_scan"}, "fusion_lon": 0.0, "lat": 38.916701333333336, "bike_id": "75b08743a2cd3133f52999f5ce0d71a9", "type": "electric_scooter", "is_reserved": 0, "lon": -77.02954366666667}, {"fusion_lat": 0.0, "name": "9a18749bc4197f307c6aa7290c9fb556", "is_disabled": 0, "rental_uris": {"android": "https://dc.lft.to/lastmile_qr_scan", "ios": "https://dc.lft.to/lastmile_qr_scan"}, "fusion_lon": 0.0, "lat": 38.8988005, "bike_id": "9a18749bc4197f307c6aa7290c9fb556", "type": "electric_scooter", "is_reserved": 0, "lon": -76.9318515}, {"fusion_lat": 0.0, "name": "4e76963a62319150440cac254179c3ac", "is_disabled": 0, "rental_uris": {"android": "https://dc.lft.to/lastmile_qr_scan", "ios": "https://dc.lft.to/lastmile_qr_scan"}, "fusion_lon": 0.0, "lat": 38.8771425, "bike_id": "4e76963a62319150440cac254179c3ac", "type": "electric_scooter", "is_reserved": 0, "lon": -76.993832}, {"fusion_lat": 0.0, "name": "d30f890198d6b498adce812ae5201581", "is_disabled": 0, "rental_uris": {"android": "https://dc.lft.to/lastmile_qr_scan", "ios": "https://dc.lft.to/lastmile_qr_scan"}, "fusion_lon": 0.0, "lat": 38.907782833333336, "bike_id": "d30f890198d6b498adce812ae5201581", "type": "electric_scooter", "is_reserved": 0, "lon": -77.04280133333333}, {"fusion_lat": 0.0, "name": "695c094e71bd5848583b9637f504f7bf", "is_disabled": 0, "rental_uris": {"android": "https://dc.lft.to/lastmile_qr_scan", "ios": "https://dc.lft.to/lastmile_qr_scan"}, "fusion_lon": 0.0, "lat": 38.9181975, "bike_id": "695c094e71bd5848583b9637f504f7bf", "type": "electric_scooter", "is_reserved": 0, "lon": -77.02492566666666}, {"fusion_lat": 0.0, "name": "f12d263a95de8cf213e7d2252a4a6231", "is_disabled": 0, "rental_uris": {"android": "https://dc.lft.to/lastmile_qr_scan", "ios": "https://dc.lft.to/lastmile_qr_scan"}, "fusion_lon": 0.0, "lat": 38.912635, "bike_id": "f12d263a95de8cf213e7d2252a4a6231", "type": "electric_scooter", "is_reserved": 0, "lon": -77.03858466666667}, {"fusion_lat": 0.0, "name": "20a46985a3f0c6e71f23a196561f0138", "is_disabled": 0, "rental_uris": {"android": "https://dc.lft.to/lastmile_qr_scan", "ios": "https://dc.lft.to/lastmile_qr_scan"}, "fusion_lon": 0.0, "lat": 38.9340015, "bike_id": "20a46985a3f0c6e71f23a196561f0138", "type": "electric_scooter", "is_reserved": 0, "lon": -77.02849466666666}, {"fusion_lat": 0.0, "name": "394c3bda1061ab2459ccfb5393f61409", "is_disabled": 0, "rental_uris": {"android": "https://dc.lft.to/lastmile_qr_scan", "ios": "https://dc.lft.to/lastmile_qr_scan"}, "fusion_lon": 0.0, "lat": 38.90424766666667, "bike_id": "394c3bda1061ab2459ccfb5393f61409", "type": "electric_scooter", "is_reserved": 0, "lon": -77.02556783333333}, {"fusion_lat": 0.0, "name": "7c38abe26358a84482e009767ccdc7d1", "is_disabled": 0, "rental_uris": {"android": "https://dc.lft.to/lastmile_qr_scan", "ios": "https://dc.lft.to/lastmile_qr_scan"}, "fusion_lon": 0.0, "lat": 38.9160965, "bike_id": "7c38abe26358a84482e009767ccdc7d1", "type": "electric_scooter", "is_reserved": 0, "lon": -77.01724416666667}, {"fusion_lat": 0.0, "name": "26020bcc9f36c765381338266f866fa3", "is_disabled": 0, "rental_uris": {"android": "https://dc.lft.to/lastmile_qr_scan", "ios": "https://dc.lft.to/lastmile_qr_scan"}, "fusion_lon": 0.0, "lat": 38.90908, "bike_id": "26020bcc9f36c765381338266f866fa3", "type": "electric_scooter", "is_reserved": 0, "lon": -77.04419683333333}, {"fusion_lat": 0.0, "name": "02892904f741c7cd24da1525689d5069", "is_disabled": 0, "rental_uris": {"android": "https://dc.lft.to/lastmile_qr_scan", "ios": "https://dc.lft.to/lastmile_qr_scan"}, "fusion_lon": 0.0, "lat": 38.895232666666665, "bike_id": "02892904f741c7cd24da1525689d5069", "type": "electric_scooter", "is_reserved": 0, "lon": -77.01094633333334}, {"fusion_lat": 0.0, "name": "62311cba7fe06abac2d7e9273c886aaa", "is_disabled": 0, "rental_uris": {"android": "https://dc.lft.to/lastmile_qr_scan", "ios": "https://dc.lft.to/lastmile_qr_scan"}, "fusion_lon": 0.0, "lat": 38.94091733333333, "bike_id": "62311cba7fe06abac2d7e9273c886aaa", "type": "electric_scooter", "is_reserved": 0, "lon": -77.06183683333333}, {"fusion_lat": 0.0, "name": "7beb610598655e129923ab5dfd0e5c34", "is_disabled": 0, "rental_uris": {"android": "https://dc.lft.to/lastmile_qr_scan", "ios": "https://dc.lft.to/lastmile_qr_scan"}, "fusion_lon": 0.0, "lat": 38.90955133333333, "bike_id": "7beb610598655e129923ab5dfd0e5c34", "type": "electric_scooter", "is_reserved": 0, "lon": -77.02718133333333}, {"fusion_lat": 0.0, "name": "4795c6684a75e1ffd4a1817c319e6d89", "is_disabled": 0, "rental_uris": {"android": "https://dc.lft.to/lastmile_qr_scan", "ios": "https://dc.lft.to/lastmile_qr_scan"}, "fusion_lon": 0.0, "lat": 38.917733, "bike_id": "4795c6684a75e1ffd4a1817c319e6d89", "type": "electric_scooter", "is_reserved": 0, "lon": -77.02316633333334}, {"fusion_lat": 0.0, "name": "4f8a905bbef712ec432e074cff7f677e", "is_disabled": 0, "rental_uris": {"android": "https://dc.lft.to/lastmile_qr_scan", "ios": "https://dc.lft.to/lastmile_qr_scan"}, "fusion_lon": 0.0, "lat": 38.9112505, "bike_id": "4f8a905bbef712ec432e074cff7f677e", "type": "electric_scooter", "is_reserved": 0, "lon": -77.03731183333333}, {"fusion_lat": 0.0, "name": "dce7c54f39cf36cf3682040912895ce6", "is_disabled": 0, "rental_uris": {"android": "https://dc.lft.to/lastmile_qr_scan", "ios": "https://dc.lft.to/lastmile_qr_scan"}, "fusion_lon": 0.0, "lat": 38.90769233333333, "bike_id": "dce7c54f39cf36cf3682040912895ce6", "type": "electric_scooter", "is_reserved": 0, "lon": -77.03194966666666}, {"fusion_lat": 0.0, "name": "3479b00b080d2658e14f593dc512cded", "is_disabled": 0, "rental_uris": {"android": "https://dc.lft.to/lastmile_qr_scan", "ios": "https://dc.lft.to/lastmile_qr_scan"}, "fusion_lon": 0.0, "lat": 38.89815733333333, "bike_id": "3479b00b080d2658e14f593dc512cded", "type": "electric_scooter", "is_reserved": 0, "lon": -77.027192}, {"fusion_lat": 0.0, "name": "8de778f3027b6fd88c3a1ea35c789031", "is_disabled": 0, "rental_uris": {"android": "https://dc.lft.to/lastmile_qr_scan", "ios": "https://dc.lft.to/lastmile_qr_scan"}, "fusion_lon": 0.0, "lat": 38.8839625, "bike_id": "8de778f3027b6fd88c3a1ea35c789031", "type": "electric_scooter", "is_reserved": 0, "lon": -76.93048966666667}, {"fusion_lat": 0.0, "name": "3148aea1519d0a9eb0c1e749bec668dc", "is_disabled": 0, "rental_uris": {"android": "https://dc.lft.to/lastmile_qr_scan", "ios": "https://dc.lft.to/lastmile_qr_scan"}, "fusion_lon": 0.0, "lat": 38.9382935, "bike_id": "3148aea1519d0a9eb0c1e749bec668dc", "type": "electric_scooter", "is_reserved": 0, "lon": -77.06154983333333}, {"fusion_lat": 0.0, "name": "d2e0803b465ed97003495dd92971940d", "is_disabled": 0, "rental_uris": {"android": "https://dc.lft.to/lastmile_qr_scan", "ios": "https://dc.lft.to/lastmile_qr_scan"}, "fusion_lon": 0.0, "lat": 38.85771866666666, "bike_id": "d2e0803b465ed97003495dd92971940d", "type": "electric_bike", "is_reserved": 0, "lon": -76.98771216666667}, {"fusion_lat": 0.0, "name": "190ba863e12580a1662196a33763693f", "is_disabled": 0, "rental_uris": {"android": "https://dc.lft.to/lastmile_qr_scan", "ios": "https://dc.lft.to/lastmile_qr_scan"}, "fusion_lon": 0.0, "lat": 38.90678583333333, "bike_id": "190ba863e12580a1662196a33763693f", "type": "electric_scooter", "is_reserved": 0, "lon": -77.02176466666667}, {"fusion_lat": 0.0, "name": "6c0c2a055f4cf656cfd424a5bb1e6b51", "is_disabled": 0, "rental_uris": {"android": "https://dc.lft.to/lastmile_qr_scan", "ios": "https://dc.lft.to/lastmile_qr_scan"}, "fusion_lon": 0.0, "lat": 38.92873783333334, "bike_id": "6c0c2a055f4cf656cfd424a5bb1e6b51", "type": "electric_scooter", "is_reserved": 0, "lon": -77.034984}, {"fusion_lat": 0.0, "name": "20311e91457a0e91b20d370f247ccd88", "is_disabled": 0, "rental_uris": {"android": "https://dc.lft.to/lastmile_qr_scan", "ios": "https://dc.lft.to/lastmile_qr_scan"}, "fusion_lon": 0.0, "lat": 38.90555666666667, "bike_id": "20311e91457a0e91b20d370f247ccd88", "type": "electric_scooter", "is_reserved": 0, "lon": -77.004854}, {"fusion_lat": 0.0, "name": "a85e44eda25e42cecb346b01c1890d25", "is_disabled": 0, "rental_uris": {"android": "https://dc.lft.to/lastmile_qr_scan", "ios": "https://dc.lft.to/lastmile_qr_scan"}, "fusion_lon": 0.0, "lat": 38.8861615, "bike_id": "a85e44eda25e42cecb346b01c1890d25", "type": "electric_scooter", "is_reserved": 0, "lon": -77.01800766666666}, {"fusion_lat": 0.0, "name": "b1c1d3782834a8195a9c3a64365504b3", "is_disabled": 0, "rental_uris": {"android": "https://dc.lft.to/lastmile_qr_scan", "ios": "https://dc.lft.to/lastmile_qr_scan"}, "fusion_lon": 0.0, "lat": 38.93901483333333, "bike_id": "b1c1d3782834a8195a9c3a64365504b3", "type": "electric_scooter", "is_reserved": 0, "lon": -77.032594}, {"fusion_lat": 0.0, "name": "d4f6c021c203e668f9153f75389c9adc", "is_disabled": 0, "rental_uris": {"android": "https://dc.lft.to/lastmile_qr_scan", "ios": "https://dc.lft.to/lastmile_qr_scan"}, "fusion_lon": 0.0, "lat": 38.900809, "bike_id": "d4f6c021c203e668f9153f75389c9adc", "type": "electric_scooter", "is_reserved": 0, "lon": -77.04962166666667}, {"fusion_lat": 0.0, "name": "2b894aee728b2ad5260331109116924e", "is_disabled": 0, "rental_uris": {"android": "https://dc.lft.to/lastmile_qr_scan", "ios": "https://dc.lft.to/lastmile_qr_scan"}, "fusion_lon": 0.0, "lat": 38.92469, "bike_id": "2b894aee728b2ad5260331109116924e", "type": "electric_scooter", "is_reserved": 0, "lon": -77.02071666666667}, {"fusion_lat": 0.0, "name": "9e78dfd9a2b570a7128db4f48537b9cc", "is_disabled": 0, "rental_uris": {"android": "https://dc.lft.to/lastmile_qr_scan", "ios": "https://dc.lft.to/lastmile_qr_scan"}, "fusion_lon": 0.0, "lat": 38.8922645, "bike_id": "9e78dfd9a2b570a7128db4f48537b9cc", "type": "electric_scooter", "is_reserved": 0, "lon": -77.03218366666667}, {"fusion_lat": 0.0, "name": "6f358bb3c13778f7d1093dc4f36e2437", "is_disabled": 0, "rental_uris": {"android": "https://dc.lft.to/lastmile_qr_scan", "ios": "https://dc.lft.to/lastmile_qr_scan"}, "fusion_lon": 0.0, "lat": 38.92075833333333, "bike_id": "6f358bb3c13778f7d1093dc4f36e2437", "type": "electric_scooter", "is_reserved": 0, "lon": -77.02415916666666}, {"fusion_lat": 0.0, "name": "7fe27d36a37e92b6e6aa448bd1331499", "is_disabled": 0, "rental_uris": {"android": "https://dc.lft.to/lastmile_qr_scan", "ios": "https://dc.lft.to/lastmile_qr_scan"}, "fusion_lon": 0.0, "lat": 38.89877533333333, "bike_id": "7fe27d36a37e92b6e6aa448bd1331499", "type": "electric_scooter", "is_reserved": 0, "lon": -76.931851}, {"fusion_lat": 0.0, "name": "d05fe3d4e127369331fa465cb1cff4ab", "is_disabled": 0, "rental_uris": {"android": "https://dc.lft.to/lastmile_qr_scan", "ios": "https://dc.lft.to/lastmile_qr_scan"}, "fusion_lon": 0.0, "lat": 38.93529366666667, "bike_id": "d05fe3d4e127369331fa465cb1cff4ab", "type": "electric_scooter", "is_reserved": 0, "lon": -77.02846016666666}, {"fusion_lat": 0.0, "name": "4d5613ab3fb9dd63ff1f448822a2515c", "is_disabled": 0, "rental_uris": {"android": "https://dc.lft.to/lastmile_qr_scan", "ios": "https://dc.lft.to/lastmile_qr_scan"}, "fusion_lon": 0.0, "lat": 38.9072085, "bike_id": "4d5613ab3fb9dd63ff1f448822a2515c", "type": "electric_scooter", "is_reserved": 0, "lon": -77.04761466666666}, {"fusion_lat": 0.0, "name": "492b78ebd29e2a507a7c5c63c6f9c501", "is_disabled": 0, "rental_uris": {"android": "https://dc.lft.to/lastmile_qr_scan", "ios": "https://dc.lft.to/lastmile_qr_scan"}, "fusion_lon": 0.0, "lat": 38.891980833333335, "bike_id": "492b78ebd29e2a507a7c5c63c6f9c501", "type": "electric_scooter", "is_reserved": 0, "lon": -77.022308}, {"fusion_lat": 0.0, "name": "d9501ddf190b845c139d4e576e6297fe", "is_disabled": 0, "rental_uris": {"android": "https://dc.lft.to/lastmile_qr_scan", "ios": "https://dc.lft.to/lastmile_qr_scan"}, "fusion_lon": 0.0, "lat": 38.9294185, "bike_id": "d9501ddf190b845c139d4e576e6297fe", "type": "electric_scooter", "is_reserved": 0, "lon": -77.02337533333333}, {"fusion_lat": 0.0, "name": "0097dd7929bbc569ad26fb779387a891", "is_disabled": 0, "rental_uris": {"android": "https://dc.lft.to/lastmile_qr_scan", "ios": "https://dc.lft.to/lastmile_qr_scan"}, "fusion_lon": 0.0, "lat": 38.92318316666667, "bike_id": "0097dd7929bbc569ad26fb779387a891", "type": "electric_scooter", "is_reserved": 0, "lon": -77.04374433333334}, {"fusion_lat": 0.0, "name": "0e8210a3ce19e6ad1002516dafea508f", "is_disabled": 0, "rental_uris": {"android": "https://dc.lft.to/lastmile_qr_scan", "ios": "https://dc.lft.to/lastmile_qr_scan"}, "fusion_lon": 0.0, "lat": 38.89553316666667, "bike_id": "0e8210a3ce19e6ad1002516dafea508f", "type": "electric_scooter", "is_reserved": 0, "lon": -76.99842183333334}, {"fusion_lat": 0.0, "name": "3be5a14cb46e48fd06153023641fecf7", "is_disabled": 0, "rental_uris": {"android": "https://dc.lft.to/lastmile_qr_scan", "ios": "https://dc.lft.to/lastmile_qr_scan"}, "fusion_lon": 0.0, "lat": 38.91920833333333, "bike_id": "3be5a14cb46e48fd06153023641fecf7", "type": "electric_scooter", "is_reserved": 0, "lon": -77.0144985}, {"fusion_lat": 0.0, "name": "fc96b4dfaec520c1f78e49a5e6c13f20", "is_disabled": 0, "rental_uris": {"android": "https://dc.lft.to/lastmile_qr_scan", "ios": "https://dc.lft.to/lastmile_qr_scan"}, "fusion_lon": 0.0, "lat": 38.8450955, "bike_id": "fc96b4dfaec520c1f78e49a5e6c13f20", "type": "electric_bike", "is_reserved": 0, "lon": -76.99354316666667}, {"fusion_lat": 0.0, "name": "65479aa37ece3d57a612e236cddb64f3", "is_disabled": 0, "rental_uris": {"android": "https://dc.lft.to/lastmile_qr_scan", "ios": "https://dc.lft.to/lastmile_qr_scan"}, "fusion_lon": 0.0, "lat": 38.9096565, "bike_id": "65479aa37ece3d57a612e236cddb64f3", "type": "electric_scooter", "is_reserved": 0, "lon": -77.03941483333334}, {"fusion_lat": 0.0, "name": "6501cfd39ee2ef2ceaee7d670563592c", "is_disabled": 0, "rental_uris": {"android": "https://dc.lft.to/lastmile_qr_scan", "ios": "https://dc.lft.to/lastmile_qr_scan"}, "fusion_lon": 0.0, "lat": 38.904895, "bike_id": "6501cfd39ee2ef2ceaee7d670563592c", "type": "electric_scooter", "is_reserved": 0, "lon": -77.02595983333333}, {"fusion_lat": 0.0, "name": "901ce0444edd27950ba786125012d77a", "is_disabled": 0, "rental_uris": {"android": "https://dc.lft.to/lastmile_qr_scan", "ios": "https://dc.lft.to/lastmile_qr_scan"}, "fusion_lon": 0.0, "lat": 38.93227616666667, "bike_id": "901ce0444edd27950ba786125012d77a", "type": "electric_scooter", "is_reserved": 0, "lon": -77.04411316666666}, {"fusion_lat": 0.0, "name": "5cb6427cfdc546ea1831061ddc30a031", "is_disabled": 0, "rental_uris": {"android": "https://dc.lft.to/lastmile_qr_scan", "ios": "https://dc.lft.to/lastmile_qr_scan"}, "fusion_lon": 0.0, "lat": 38.8995075, "bike_id": "5cb6427cfdc546ea1831061ddc30a031", "type": "electric_scooter", "is_reserved": 0, "lon": -77.04051133333333}, {"fusion_lat": 0.0, "name": "e819fdd5586abdfff3c154f62c743437", "is_disabled": 0, "rental_uris": {"android": "https://dc.lft.to/lastmile_qr_scan", "ios": "https://dc.lft.to/lastmile_qr_scan"}, "fusion_lon": 0.0, "lat": 38.9097175, "bike_id": "e819fdd5586abdfff3c154f62c743437", "type": "electric_scooter", "is_reserved": 0, "lon": -77.03436783333333}, {"fusion_lat": 0.0, "name": "7e258134af690eb458645f9b55d1a0a3", "is_disabled": 0, "rental_uris": {"android": "https://dc.lft.to/lastmile_qr_scan", "ios": "https://dc.lft.to/lastmile_qr_scan"}, "fusion_lon": 0.0, "lat": 38.890117833333335, "bike_id": "7e258134af690eb458645f9b55d1a0a3", "type": "electric_scooter", "is_reserved": 0, "lon": -76.93739083333334}, {"fusion_lat": 0.0, "name": "50ded4588e30e01c0dac39f82e8c8db0", "is_disabled": 0, "rental_uris": {"android": "https://dc.lft.to/lastmile_qr_scan", "ios": "https://dc.lft.to/lastmile_qr_scan"}, "fusion_lon": 0.0, "lat": 38.92084416666667, "bike_id": "50ded4588e30e01c0dac39f82e8c8db0", "type": "electric_scooter", "is_reserved": 0, "lon": -76.99486216666666}, {"fusion_lat": 0.0, "name": "b0436a2c93c04bbe8d0534d4ca49c5d7", "is_disabled": 0, "rental_uris": {"android": "https://dc.lft.to/lastmile_qr_scan", "ios": "https://dc.lft.to/lastmile_qr_scan"}, "fusion_lon": 0.0, "lat": 38.91632633333333, "bike_id": "b0436a2c93c04bbe8d0534d4ca49c5d7", "type": "electric_scooter", "is_reserved": 0, "lon": -77.0218265}, {"fusion_lat": 0.0, "name": "7027957c3dcccac1719b73a3acc20885", "is_disabled": 0, "rental_uris": {"android": "https://dc.lft.to/lastmile_qr_scan", "ios": "https://dc.lft.to/lastmile_qr_scan"}, "fusion_lon": 0.0, "lat": 38.89609033333333, "bike_id": "7027957c3dcccac1719b73a3acc20885", "type": "electric_scooter", "is_reserved": 0, "lon": -76.98108533333334}, {"fusion_lat": 0.0, "name": "913decaaf167ed0dfe704f9483277eb3", "is_disabled": 0, "rental_uris": {"android": "https://dc.lft.to/lastmile_qr_scan", "ios": "https://dc.lft.to/lastmile_qr_scan"}, "fusion_lon": 0.0, "lat": 38.924832, "bike_id": "913decaaf167ed0dfe704f9483277eb3", "type": "electric_scooter", "is_reserved": 0, "lon": -77.02547566666667}, {"fusion_lat": 0.0, "name": "9300538fd185cb67f2e925290ef0f101", "is_disabled": 0, "rental_uris": {"android": "https://dc.lft.to/lastmile_qr_scan", "ios": "https://dc.lft.to/lastmile_qr_scan"}, "fusion_lon": 0.0, "lat": 38.897107, "bike_id": "9300538fd185cb67f2e925290ef0f101", "type": "electric_scooter", "is_reserved": 0, "lon": -77.02760483333333}, {"fusion_lat": 0.0, "name": "84e7a1ded5a083cb49e31419476572ce", "is_disabled": 0, "rental_uris": {"android": "https://dc.lft.to/lastmile_qr_scan", "ios": "https://dc.lft.to/lastmile_qr_scan"}, "fusion_lon": 0.0, "lat": 38.9084825, "bike_id": "84e7a1ded5a083cb49e31419476572ce", "type": "electric_scooter", "is_reserved": 0, "lon": -77.00094716666666}, {"fusion_lat": 0.0, "name": "f14c9f3e4539b37f22fdfeb80e3c0c03", "is_disabled": 0, "rental_uris": {"android": "https://dc.lft.to/lastmile_qr_scan", "ios": "https://dc.lft.to/lastmile_qr_scan"}, "fusion_lon": 0.0, "lat": 38.893628166666666, "bike_id": "f14c9f3e4539b37f22fdfeb80e3c0c03", "type": "electric_scooter", "is_reserved": 0, "lon": -77.02257866666666}, {"fusion_lat": 0.0, "name": "13da9dc943f7138180aee2556f32544e", "is_disabled": 0, "rental_uris": {"android": "https://dc.lft.to/lastmile_qr_scan", "ios": "https://dc.lft.to/lastmile_qr_scan"}, "fusion_lon": 0.0, "lat": 38.8961895, "bike_id": "13da9dc943f7138180aee2556f32544e", "type": "electric_scooter", "is_reserved": 0, "lon": -77.0227765}, {"fusion_lat": 0.0, "name": "3e5403cfd425b8cc687f832a09cb87c5", "is_disabled": 0, "rental_uris": {"android": "https://dc.lft.to/lastmile_qr_scan", "ios": "https://dc.lft.to/lastmile_qr_scan"}, "fusion_lon": 0.0, "lat": 38.93980166666667, "bike_id": "3e5403cfd425b8cc687f832a09cb87c5", "type": "electric_scooter", "is_reserved": 0, "lon": -77.02874683333333}, {"fusion_lat": 0.0, "name": "82336fadf130b2c2086d48f9904c7f5a", "is_disabled": 0, "rental_uris": {"android": "https://dc.lft.to/lastmile_qr_scan", "ios": "https://dc.lft.to/lastmile_qr_scan"}, "fusion_lon": 0.0, "lat": 38.88739183333333, "bike_id": "82336fadf130b2c2086d48f9904c7f5a", "type": "electric_bike", "is_reserved": 0, "lon": -77.015297}, {"fusion_lat": 0.0, "name": "0a27890521d34a70756026a2c0cc34f7", "is_disabled": 0, "rental_uris": {"android": "https://dc.lft.to/lastmile_qr_scan", "ios": "https://dc.lft.to/lastmile_qr_scan"}, "fusion_lon": 0.0, "lat": 38.907333666666666, "bike_id": "0a27890521d34a70756026a2c0cc34f7", "type": "electric_scooter", "is_reserved": 0, "lon": -77.04770333333333}, {"fusion_lat": 0.0, "name": "538cf9c97079c10577d356af8a0ea756", "is_disabled": 0, "rental_uris": {"android": "https://dc.lft.to/lastmile_qr_scan", "ios": "https://dc.lft.to/lastmile_qr_scan"}, "fusion_lon": 0.0, "lat": 38.900028666666664, "bike_id": "538cf9c97079c10577d356af8a0ea756", "type": "electric_scooter", "is_reserved": 0, "lon": -76.9985835}, {"fusion_lat": 0.0, "name": "9047da9e012cc82bc3aba09cf9af0b6c", "is_disabled": 0, "rental_uris": {"android": "https://dc.lft.to/lastmile_qr_scan", "ios": "https://dc.lft.to/lastmile_qr_scan"}, "fusion_lon": 0.0, "lat": 38.89907066666667, "bike_id": "9047da9e012cc82bc3aba09cf9af0b6c", "type": "electric_scooter", "is_reserved": 0, "lon": -76.94590233333334}, {"fusion_lat": 0.0, "name": "51168a3a217a8dfd8688f41407dc2b2d", "is_disabled": 0, "rental_uris": {"android": "https://dc.lft.to/lastmile_qr_scan", "ios": "https://dc.lft.to/lastmile_qr_scan"}, "fusion_lon": 0.0, "lat": 38.887374333333334, "bike_id": "51168a3a217a8dfd8688f41407dc2b2d", "type": "electric_scooter", "is_reserved": 0, "lon": -76.99492566666666}, {"fusion_lat": 0.0, "name": "3c81943661d28afbaee55300eccdade1", "is_disabled": 0, "rental_uris": {"android": "https://dc.lft.to/lastmile_qr_scan", "ios": "https://dc.lft.to/lastmile_qr_scan"}, "fusion_lon": 0.0, "lat": 38.88530383333333, "bike_id": "3c81943661d28afbaee55300eccdade1", "type": "electric_scooter", "is_reserved": 0, "lon": -76.92916033333333}, {"fusion_lat": 0.0, "name": "7fef0ba0aefc0010246b19311d6faa22", "is_disabled": 0, "rental_uris": {"android": "https://dc.lft.to/lastmile_qr_scan", "ios": "https://dc.lft.to/lastmile_qr_scan"}, "fusion_lon": 0.0, "lat": 38.87578516666667, "bike_id": "7fef0ba0aefc0010246b19311d6faa22", "type": "electric_bike", "is_reserved": 0, "lon": -77.2340785}, {"fusion_lat": 0.0, "name": "0ae67baf61819103229d63e5fa7b25c2", "is_disabled": 0, "rental_uris": {"android": "https://dc.lft.to/lastmile_qr_scan", "ios": "https://dc.lft.to/lastmile_qr_scan"}, "fusion_lon": 0.0, "lat": 38.899019833333334, "bike_id": "0ae67baf61819103229d63e5fa7b25c2", "type": "electric_scooter", "is_reserved": 0, "lon": -76.93357266666666}, {"fusion_lat": 0.0, "name": "0a8721149487ac968d71591736ab411f", "is_disabled": 0, "rental_uris": {"android": "https://dc.lft.to/lastmile_qr_scan", "ios": "https://dc.lft.to/lastmile_qr_scan"}, "fusion_lon": 0.0, "lat": 38.893253, "bike_id": "0a8721149487ac968d71591736ab411f", "type": "electric_scooter", "is_reserved": 0, "lon": -77.039562}, {"fusion_lat": 0.0, "name": "7bdff7504e4b4c2ff57413bce5ca510d", "is_disabled": 0, "rental_uris": {"android": "https://dc.lft.to/lastmile_qr_scan", "ios": "https://dc.lft.to/lastmile_qr_scan"}, "fusion_lon": 0.0, "lat": 38.9001355, "bike_id": "7bdff7504e4b4c2ff57413bce5ca510d", "type": "electric_scooter", "is_reserved": 0, "lon": -77.0162345}, {"fusion_lat": 0.0, "name": "f2b90ee3114f7e40f80c21e4722da7c9", "is_disabled": 0, "rental_uris": {"android": "https://dc.lft.to/lastmile_qr_scan", "ios": "https://dc.lft.to/lastmile_qr_scan"}, "fusion_lon": 0.0, "lat": 38.930922333333335, "bike_id": "f2b90ee3114f7e40f80c21e4722da7c9", "type": "electric_scooter", "is_reserved": 0, "lon": -77.02553066666667}, {"fusion_lat": 0.0, "name": "65df44f96cecc3c2ae2c772d55ae493e", "is_disabled": 0, "rental_uris": {"android": "https://dc.lft.to/lastmile_qr_scan", "ios": "https://dc.lft.to/lastmile_qr_scan"}, "fusion_lon": 0.0, "lat": 38.91621516666667, "bike_id": "65df44f96cecc3c2ae2c772d55ae493e", "type": "electric_scooter", "is_reserved": 0, "lon": -77.0033}, {"fusion_lat": 0.0, "name": "837494fa2c4251bd0d7e47a451adf80a", "is_disabled": 0, "rental_uris": {"android": "https://dc.lft.to/lastmile_qr_scan", "ios": "https://dc.lft.to/lastmile_qr_scan"}, "fusion_lon": 0.0, "lat": 38.963136166666665, "bike_id": "837494fa2c4251bd0d7e47a451adf80a", "type": "electric_scooter", "is_reserved": 0, "lon": -77.07494966666667}, {"fusion_lat": 0.0, "name": "05aaa51e491df750bfcfe923a526faf1", "is_disabled": 0, "rental_uris": {"android": "https://dc.lft.to/lastmile_qr_scan", "ios": "https://dc.lft.to/lastmile_qr_scan"}, "fusion_lon": 0.0, "lat": 38.93533433333333, "bike_id": "05aaa51e491df750bfcfe923a526faf1", "type": "electric_scooter", "is_reserved": 0, "lon": -77.02357866666667}, {"fusion_lat": 0.0, "name": "bcf212f09167e5e699a2397844024658", "is_disabled": 0, "rental_uris": {"android": "https://dc.lft.to/lastmile_qr_scan", "ios": "https://dc.lft.to/lastmile_qr_scan"}, "fusion_lon": 0.0, "lat": 38.9184175, "bike_id": "bcf212f09167e5e699a2397844024658", "type": "electric_scooter", "is_reserved": 0, "lon": -77.0242455}, {"fusion_lat": 0.0, "name": "9ac139ca7dd00e0f27b7a2029f490f70", "is_disabled": 0, "rental_uris": {"android": "https://dc.lft.to/lastmile_qr_scan", "ios": "https://dc.lft.to/lastmile_qr_scan"}, "fusion_lon": 0.0, "lat": 38.928413166666665, "bike_id": "9ac139ca7dd00e0f27b7a2029f490f70", "type": "electric_scooter", "is_reserved": 0, "lon": -77.01592183333334}, {"fusion_lat": 0.0, "name": "7f78799e5a343c4c711b55a763bdbf19", "is_disabled": 0, "rental_uris": {"android": "https://dc.lft.to/lastmile_qr_scan", "ios": "https://dc.lft.to/lastmile_qr_scan"}, "fusion_lon": 0.0, "lat": 38.9737985, "bike_id": "7f78799e5a343c4c711b55a763bdbf19", "type": "electric_scooter", "is_reserved": 0, "lon": -77.0128355}, {"fusion_lat": 0.0, "name": "298c7b800f9fdc8b1dcdefd73467e160", "is_disabled": 0, "rental_uris": {"android": "https://dc.lft.to/lastmile_qr_scan", "ios": "https://dc.lft.to/lastmile_qr_scan"}, "fusion_lon": 0.0, "lat": 38.891192833333335, "bike_id": "298c7b800f9fdc8b1dcdefd73467e160", "type": "electric_scooter", "is_reserved": 0, "lon": -76.94381083333333}, {"fusion_lat": 0.0, "name": "0f6cbf1210bb8eccb9b937729e1c9168", "is_disabled": 0, "rental_uris": {"android": "https://dc.lft.to/lastmile_qr_scan", "ios": "https://dc.lft.to/lastmile_qr_scan"}, "fusion_lon": 0.0, "lat": 38.892435166666665, "bike_id": "0f6cbf1210bb8eccb9b937729e1c9168", "type": "electric_scooter", "is_reserved": 0, "lon": -77.03350983333333}, {"fusion_lat": 0.0, "name": "a9b21db130ca000c1a80d0b384ab09c7", "is_disabled": 0, "rental_uris": {"android": "https://dc.lft.to/lastmile_qr_scan", "ios": "https://dc.lft.to/lastmile_qr_scan"}, "fusion_lon": 0.0, "lat": 38.91201566666667, "bike_id": "a9b21db130ca000c1a80d0b384ab09c7", "type": "electric_scooter", "is_reserved": 0, "lon": -77.01200433333334}, {"fusion_lat": 0.0, "name": "db212ecc87e21d70dc8275cc0fc65e5a", "is_disabled": 0, "rental_uris": {"android": "https://dc.lft.to/lastmile_qr_scan", "ios": "https://dc.lft.to/lastmile_qr_scan"}, "fusion_lon": 0.0, "lat": 38.90222633333333, "bike_id": "db212ecc87e21d70dc8275cc0fc65e5a", "type": "electric_scooter", "is_reserved": 0, "lon": -77.0366865}, {"fusion_lat": 0.0, "name": "5cf6c5654b13112ef81729fd708daf26", "is_disabled": 0, "rental_uris": {"android": "https://dc.lft.to/lastmile_qr_scan", "ios": "https://dc.lft.to/lastmile_qr_scan"}, "fusion_lon": 0.0, "lat": 38.9698825, "bike_id": "5cf6c5654b13112ef81729fd708daf26", "type": "electric_scooter", "is_reserved": 0, "lon": -77.01160266666666}, {"fusion_lat": 0.0, "name": "363406646b98a5562134a3b0637df65d", "is_disabled": 0, "rental_uris": {"android": "https://dc.lft.to/lastmile_qr_scan", "ios": "https://dc.lft.to/lastmile_qr_scan"}, "fusion_lon": 0.0, "lat": 38.915704833333336, "bike_id": "363406646b98a5562134a3b0637df65d", "type": "electric_scooter", "is_reserved": 0, "lon": -77.0384985}, {"fusion_lat": 0.0, "name": "a712f85030956543e2a21224521aa07c", "is_disabled": 0, "rental_uris": {"android": "https://dc.lft.to/lastmile_qr_scan", "ios": "https://dc.lft.to/lastmile_qr_scan"}, "fusion_lon": 0.0, "lat": 38.904652666666664, "bike_id": "a712f85030956543e2a21224521aa07c", "type": "electric_scooter", "is_reserved": 0, "lon": -77.048715}, {"fusion_lat": 0.0, "name": "afded6c32440a3e797deaf53964d656f", "is_disabled": 0, "rental_uris": {"android": "https://dc.lft.to/lastmile_qr_scan", "ios": "https://dc.lft.to/lastmile_qr_scan"}, "fusion_lon": 0.0, "lat": 38.961866666666666, "bike_id": "afded6c32440a3e797deaf53964d656f", "type": "electric_bike", "is_reserved": 0, "lon": -77.052683}, {"fusion_lat": 0.0, "name": "ad6ece2eb27f95639a53b28d51830160", "is_disabled": 0, "rental_uris": {"android": "https://dc.lft.to/lastmile_qr_scan", "ios": "https://dc.lft.to/lastmile_qr_scan"}, "fusion_lon": 0.0, "lat": 38.911178166666666, "bike_id": "ad6ece2eb27f95639a53b28d51830160", "type": "electric_scooter", "is_reserved": 0, "lon": -77.02925516666667}, {"fusion_lat": 0.0, "name": "4d17d7c38bb9acf086e27637a36b95cb", "is_disabled": 0, "rental_uris": {"android": "https://dc.lft.to/lastmile_qr_scan", "ios": "https://dc.lft.to/lastmile_qr_scan"}, "fusion_lon": 0.0, "lat": 38.89744666666667, "bike_id": "4d17d7c38bb9acf086e27637a36b95cb", "type": "electric_scooter", "is_reserved": 0, "lon": -77.02503633333333}, {"fusion_lat": 0.0, "name": "eca270891c1fdc9b560358bb5d2d5f00", "is_disabled": 0, "rental_uris": {"android": "https://dc.lft.to/lastmile_qr_scan", "ios": "https://dc.lft.to/lastmile_qr_scan"}, "fusion_lon": 0.0, "lat": 38.930674333333336, "bike_id": "eca270891c1fdc9b560358bb5d2d5f00", "type": "electric_scooter", "is_reserved": 0, "lon": -77.04058866666666}, {"fusion_lat": 0.0, "name": "c413503a15da167b85c87ce86dabf1cc", "is_disabled": 0, "rental_uris": {"android": "https://dc.lft.to/lastmile_qr_scan", "ios": "https://dc.lft.to/lastmile_qr_scan"}, "fusion_lon": 0.0, "lat": 38.924398333333336, "bike_id": "c413503a15da167b85c87ce86dabf1cc", "type": "electric_scooter", "is_reserved": 0, "lon": -77.04471666666667}, {"fusion_lat": 0.0, "name": "1fa15e43dd4073a7aed437cf76927a8e", "is_disabled": 0, "rental_uris": {"android": "https://dc.lft.to/lastmile_qr_scan", "ios": "https://dc.lft.to/lastmile_qr_scan"}, "fusion_lon": 0.0, "lat": 38.90418966666667, "bike_id": "1fa15e43dd4073a7aed437cf76927a8e", "type": "electric_scooter", "is_reserved": 0, "lon": -77.018835}, {"fusion_lat": 0.0, "name": "939c309c02468e2a1c8fa6e246937c59", "is_disabled": 0, "rental_uris": {"android": "https://dc.lft.to/lastmile_qr_scan", "ios": "https://dc.lft.to/lastmile_qr_scan"}, "fusion_lon": 0.0, "lat": 38.886121833333334, "bike_id": "939c309c02468e2a1c8fa6e246937c59", "type": "electric_scooter", "is_reserved": 0, "lon": -77.01250466666667}, {"fusion_lat": 0.0, "name": "9daa575b8f5d5df06e8bbc069ba6d9fd", "is_disabled": 0, "rental_uris": {"android": "https://dc.lft.to/lastmile_qr_scan", "ios": "https://dc.lft.to/lastmile_qr_scan"}, "fusion_lon": 0.0, "lat": 38.934987, "bike_id": "9daa575b8f5d5df06e8bbc069ba6d9fd", "type": "electric_scooter", "is_reserved": 0, "lon": -77.03629866666667}, {"fusion_lat": 0.0, "name": "de215a7e252f62489870068507f3bb89", "is_disabled": 0, "rental_uris": {"android": "https://dc.lft.to/lastmile_qr_scan", "ios": "https://dc.lft.to/lastmile_qr_scan"}, "fusion_lon": 0.0, "lat": 38.89235633333333, "bike_id": "de215a7e252f62489870068507f3bb89", "type": "electric_scooter", "is_reserved": 0, "lon": -77.04658716666667}, {"fusion_lat": 0.0, "name": "68fb53814f3d3e474739ebd3f7592634", "is_disabled": 0, "rental_uris": {"android": "https://dc.lft.to/lastmile_qr_scan", "ios": "https://dc.lft.to/lastmile_qr_scan"}, "fusion_lon": 0.0, "lat": 38.916576666666664, "bike_id": "68fb53814f3d3e474739ebd3f7592634", "type": "electric_scooter", "is_reserved": 0, "lon": -77.028114}, {"fusion_lat": 0.0, "name": "647febd6b1feab8b50009a9a54dc4aff", "is_disabled": 0, "rental_uris": {"android": "https://dc.lft.to/lastmile_qr_scan", "ios": "https://dc.lft.to/lastmile_qr_scan"}, "fusion_lon": 0.0, "lat": 38.91323383333334, "bike_id": "647febd6b1feab8b50009a9a54dc4aff", "type": "electric_scooter", "is_reserved": 0, "lon": -77.045439}, {"fusion_lat": 0.0, "name": "2778a8a6221e9e5aef5fa4528cc00e5e", "is_disabled": 0, "rental_uris": {"android": "https://dc.lft.to/lastmile_qr_scan", "ios": "https://dc.lft.to/lastmile_qr_scan"}, "fusion_lon": 0.0, "lat": 38.913477666666665, "bike_id": "2778a8a6221e9e5aef5fa4528cc00e5e", "type": "electric_scooter", "is_reserved": 0, "lon": -77.0220145}, {"fusion_lat": 0.0, "name": "41cfc137051e72285b8e3b5f0b79a8d7", "is_disabled": 0, "rental_uris": {"android": "https://dc.lft.to/lastmile_qr_scan", "ios": "https://dc.lft.to/lastmile_qr_scan"}, "fusion_lon": 0.0, "lat": 38.902438833333335, "bike_id": "41cfc137051e72285b8e3b5f0b79a8d7", "type": "electric_scooter", "is_reserved": 0, "lon": -77.05335366666667}, {"fusion_lat": 0.0, "name": "64265977eb543728d4430e5421f6ad05", "is_disabled": 0, "rental_uris": {"android": "https://dc.lft.to/lastmile_qr_scan", "ios": "https://dc.lft.to/lastmile_qr_scan"}, "fusion_lon": 0.0, "lat": 38.90521716666667, "bike_id": "64265977eb543728d4430e5421f6ad05", "type": "electric_scooter", "is_reserved": 0, "lon": -77.05146516666667}, {"fusion_lat": 0.0, "name": "dda8c44ff5a25b6c89769ec4ffd59f01", "is_disabled": 0, "rental_uris": {"android": "https://dc.lft.to/lastmile_qr_scan", "ios": "https://dc.lft.to/lastmile_qr_scan"}, "fusion_lon": 0.0, "lat": 38.92859166666667, "bike_id": "dda8c44ff5a25b6c89769ec4ffd59f01", "type": "electric_scooter", "is_reserved": 0, "lon": -77.01355066666666}, {"fusion_lat": 0.0, "name": "9ca36c62d3109d0d36e44a8804dc3051", "is_disabled": 0, "rental_uris": {"android": "https://dc.lft.to/lastmile_qr_scan", "ios": "https://dc.lft.to/lastmile_qr_scan"}, "fusion_lon": 0.0, "lat": 38.91618283333333, "bike_id": "9ca36c62d3109d0d36e44a8804dc3051", "type": "electric_scooter", "is_reserved": 0, "lon": -77.03142866666667}, {"fusion_lat": 0.0, "name": "a45b8ed1125139e20d640bae9d77196f", "is_disabled": 0, "rental_uris": {"android": "https://dc.lft.to/lastmile_qr_scan", "ios": "https://dc.lft.to/lastmile_qr_scan"}, "fusion_lon": 0.0, "lat": 38.901994, "bike_id": "a45b8ed1125139e20d640bae9d77196f", "type": "electric_scooter", "is_reserved": 0, "lon": -76.978583}, {"fusion_lat": 0.0, "name": "a9f7da82020b0c279aaf3780c11fa794", "is_disabled": 0, "rental_uris": {"android": "https://dc.lft.to/lastmile_qr_scan", "ios": "https://dc.lft.to/lastmile_qr_scan"}, "fusion_lon": 0.0, "lat": 38.933202666666666, "bike_id": "a9f7da82020b0c279aaf3780c11fa794", "type": "electric_scooter", "is_reserved": 0, "lon": -77.027502}, {"fusion_lat": 0.0, "name": "166d3b23ee6bc33d50c5b23db9e9d666", "is_disabled": 0, "rental_uris": {"android": "https://dc.lft.to/lastmile_qr_scan", "ios": "https://dc.lft.to/lastmile_qr_scan"}, "fusion_lon": 0.0, "lat": 38.8864775, "bike_id": "166d3b23ee6bc33d50c5b23db9e9d666", "type": "electric_scooter", "is_reserved": 0, "lon": -77.019536}, {"fusion_lat": 0.0, "name": "4719096359eb8e78bd2c271c2b34bc24", "is_disabled": 0, "rental_uris": {"android": "https://dc.lft.to/lastmile_qr_scan", "ios": "https://dc.lft.to/lastmile_qr_scan"}, "fusion_lon": 0.0, "lat": 38.904901833333334, "bike_id": "4719096359eb8e78bd2c271c2b34bc24", "type": "electric_scooter", "is_reserved": 0, "lon": -76.94959033333333}, {"fusion_lat": 0.0, "name": "feaa7aaba812831b258d3931b9e122c3", "is_disabled": 0, "rental_uris": {"android": "https://dc.lft.to/lastmile_qr_scan", "ios": "https://dc.lft.to/lastmile_qr_scan"}, "fusion_lon": 0.0, "lat": 38.9279765, "bike_id": "feaa7aaba812831b258d3931b9e122c3", "type": "electric_scooter", "is_reserved": 0, "lon": -76.95556933333333}, {"fusion_lat": 0.0, "name": "892742219ed633cb8b8546426f5d6fef", "is_disabled": 0, "rental_uris": {"android": "https://dc.lft.to/lastmile_qr_scan", "ios": "https://dc.lft.to/lastmile_qr_scan"}, "fusion_lon": 0.0, "lat": 38.949197, "bike_id": "892742219ed633cb8b8546426f5d6fef", "type": "electric_scooter", "is_reserved": 0, "lon": -77.01858433333334}, {"fusion_lat": 0.0, "name": "ac9be98bffbd9ad747f6b843bc14c20c", "is_disabled": 0, "rental_uris": {"android": "https://dc.lft.to/lastmile_qr_scan", "ios": "https://dc.lft.to/lastmile_qr_scan"}, "fusion_lon": 0.0, "lat": 38.923988, "bike_id": "ac9be98bffbd9ad747f6b843bc14c20c", "type": "electric_scooter", "is_reserved": 0, "lon": -77.04271966666667}, {"fusion_lat": 0.0, "name": "85d951a4cfdec79ceea37b65282ae39b", "is_disabled": 0, "rental_uris": {"android": "https://dc.lft.to/lastmile_qr_scan", "ios": "https://dc.lft.to/lastmile_qr_scan"}, "fusion_lon": 0.0, "lat": 38.907563333333336, "bike_id": "85d951a4cfdec79ceea37b65282ae39b", "type": "electric_scooter", "is_reserved": 0, "lon": -77.0623585}, {"fusion_lat": 0.0, "name": "5c8a5b3e0f6a7c6b087850de046e54f0", "is_disabled": 0, "rental_uris": {"android": "https://dc.lft.to/lastmile_qr_scan", "ios": "https://dc.lft.to/lastmile_qr_scan"}, "fusion_lon": 0.0, "lat": 38.930591666666665, "bike_id": "5c8a5b3e0f6a7c6b087850de046e54f0", "type": "electric_scooter", "is_reserved": 0, "lon": -77.039454}, {"fusion_lat": 0.0, "name": "fbf9b341400a79121d5668f54dfb354f", "is_disabled": 0, "rental_uris": {"android": "https://dc.lft.to/lastmile_qr_scan", "ios": "https://dc.lft.to/lastmile_qr_scan"}, "fusion_lon": 0.0, "lat": 38.916303, "bike_id": "fbf9b341400a79121d5668f54dfb354f", "type": "electric_scooter", "is_reserved": 0, "lon": -77.03849966666667}, {"fusion_lat": 0.0, "name": "00f671b7456ccfbdb2f60e2e534cd31e", "is_disabled": 0, "rental_uris": {"android": "https://dc.lft.to/lastmile_qr_scan", "ios": "https://dc.lft.to/lastmile_qr_scan"}, "fusion_lon": 0.0, "lat": 38.988188666666666, "bike_id": "00f671b7456ccfbdb2f60e2e534cd31e", "type": "electric_bike", "is_reserved": 0, "lon": -77.02650683333333}, {"fusion_lat": 0.0, "name": "88c72980c8f659bade479efa3526721f", "is_disabled": 0, "rental_uris": {"android": "https://dc.lft.to/lastmile_qr_scan", "ios": "https://dc.lft.to/lastmile_qr_scan"}, "fusion_lon": 0.0, "lat": 38.89611283333333, "bike_id": "88c72980c8f659bade479efa3526721f", "type": "electric_scooter", "is_reserved": 0, "lon": -77.0228135}, {"fusion_lat": 0.0, "name": "5e71c1e9695c2f5a4fcd31b18af35f8d", "is_disabled": 0, "rental_uris": {"android": "https://dc.lft.to/lastmile_qr_scan", "ios": "https://dc.lft.to/lastmile_qr_scan"}, "fusion_lon": 0.0, "lat": 38.9181985, "bike_id": "5e71c1e9695c2f5a4fcd31b18af35f8d", "type": "electric_scooter", "is_reserved": 0, "lon": -77.02494133333333}, {"fusion_lat": 0.0, "name": "a20c29002481f5ec9756d64b6954bbc8", "is_disabled": 0, "rental_uris": {"android": "https://dc.lft.to/lastmile_qr_scan", "ios": "https://dc.lft.to/lastmile_qr_scan"}, "fusion_lon": 0.0, "lat": 38.87835833333333, "bike_id": "a20c29002481f5ec9756d64b6954bbc8", "type": "electric_scooter", "is_reserved": 0, "lon": -77.00448916666667}, {"fusion_lat": 0.0, "name": "b5b8d94c78ac2d548c9237b03af03426", "is_disabled": 0, "rental_uris": {"android": "https://dc.lft.to/lastmile_qr_scan", "ios": "https://dc.lft.to/lastmile_qr_scan"}, "fusion_lon": 0.0, "lat": 38.92479383333333, "bike_id": "b5b8d94c78ac2d548c9237b03af03426", "type": "electric_scooter", "is_reserved": 0, "lon": -77.0266765}, {"fusion_lat": 0.0, "name": "e7dc8a497ab34fc1de3fcbad9c572377", "is_disabled": 0, "rental_uris": {"android": "https://dc.lft.to/lastmile_qr_scan", "ios": "https://dc.lft.to/lastmile_qr_scan"}, "fusion_lon": 0.0, "lat": 38.92161616666667, "bike_id": "e7dc8a497ab34fc1de3fcbad9c572377", "type": "electric_scooter", "is_reserved": 0, "lon": -77.03377}, {"fusion_lat": 0.0, "name": "9b0b3db130905b6930543862352a1e46", "is_disabled": 0, "rental_uris": {"android": "https://dc.lft.to/lastmile_qr_scan", "ios": "https://dc.lft.to/lastmile_qr_scan"}, "fusion_lon": 0.0, "lat": 38.928506, "bike_id": "9b0b3db130905b6930543862352a1e46", "type": "electric_scooter", "is_reserved": 0, "lon": -77.02439883333334}, {"fusion_lat": 0.0, "name": "c6d7418b7043680905699aa774192341", "is_disabled": 0, "rental_uris": {"android": "https://dc.lft.to/lastmile_qr_scan", "ios": "https://dc.lft.to/lastmile_qr_scan"}, "fusion_lon": 0.0, "lat": 38.92657533333333, "bike_id": "c6d7418b7043680905699aa774192341", "type": "electric_scooter", "is_reserved": 0, "lon": -77.02424433333333}, {"fusion_lat": 0.0, "name": "afda23fe5cca15d20dfdfe15c3abc478", "is_disabled": 0, "rental_uris": {"android": "https://dc.lft.to/lastmile_qr_scan", "ios": "https://dc.lft.to/lastmile_qr_scan"}, "fusion_lon": 0.0, "lat": 38.909639, "bike_id": "afda23fe5cca15d20dfdfe15c3abc478", "type": "electric_scooter", "is_reserved": 0, "lon": -77.00906816666667}, {"fusion_lat": 0.0, "name": "233588f4ad163084e2bbaed71b7b2f6c", "is_disabled": 0, "rental_uris": {"android": "https://dc.lft.to/lastmile_qr_scan", "ios": "https://dc.lft.to/lastmile_qr_scan"}, "fusion_lon": 0.0, "lat": 38.9008435, "bike_id": "233588f4ad163084e2bbaed71b7b2f6c", "type": "electric_scooter", "is_reserved": 0, "lon": -77.02616116666667}, {"fusion_lat": 0.0, "name": "d4f184fe3ab2cb8fbd36b0f19d856647", "is_disabled": 0, "rental_uris": {"android": "https://dc.lft.to/lastmile_qr_scan", "ios": "https://dc.lft.to/lastmile_qr_scan"}, "fusion_lon": 0.0, "lat": 38.9169185, "bike_id": "d4f184fe3ab2cb8fbd36b0f19d856647", "type": "electric_scooter", "is_reserved": 0, "lon": -77.034738}, {"fusion_lat": 0.0, "name": "2d3eb5921dc346e6f211fa846363726b", "is_disabled": 0, "rental_uris": {"android": "https://dc.lft.to/lastmile_qr_scan", "ios": "https://dc.lft.to/lastmile_qr_scan"}, "fusion_lon": 0.0, "lat": 38.92741866666667, "bike_id": "2d3eb5921dc346e6f211fa846363726b", "type": "electric_scooter", "is_reserved": 0, "lon": -77.02533816666667}, {"fusion_lat": 0.0, "name": "7f0889c738a35fa2db4237b8d3a0cca0", "is_disabled": 0, "rental_uris": {"android": "https://dc.lft.to/lastmile_qr_scan", "ios": "https://dc.lft.to/lastmile_qr_scan"}, "fusion_lon": 0.0, "lat": 38.8877165, "bike_id": "7f0889c738a35fa2db4237b8d3a0cca0", "type": "electric_scooter", "is_reserved": 0, "lon": -76.97747783333334}, {"fusion_lat": 0.0, "name": "c62ca27f6f6580e1c2dabfb32d1c6dbd", "is_disabled": 0, "rental_uris": {"android": "https://dc.lft.to/lastmile_qr_scan", "ios": "https://dc.lft.to/lastmile_qr_scan"}, "fusion_lon": 0.0, "lat": 38.89247233333333, "bike_id": "c62ca27f6f6580e1c2dabfb32d1c6dbd", "type": "electric_scooter", "is_reserved": 0, "lon": -77.0334155}, {"fusion_lat": 0.0, "name": "b8d2846d550c2252fbf7bc35493ddb11", "is_disabled": 0, "rental_uris": {"android": "https://dc.lft.to/lastmile_qr_scan", "ios": "https://dc.lft.to/lastmile_qr_scan"}, "fusion_lon": 0.0, "lat": 38.854588666666665, "bike_id": "b8d2846d550c2252fbf7bc35493ddb11", "type": "electric_scooter", "is_reserved": 0, "lon": -76.97229666666667}, {"fusion_lat": 0.0, "name": "f1cc3ecb486569eea82b05ecb083a235", "is_disabled": 0, "rental_uris": {"android": "https://dc.lft.to/lastmile_qr_scan", "ios": "https://dc.lft.to/lastmile_qr_scan"}, "fusion_lon": 0.0, "lat": 38.9364005, "bike_id": "f1cc3ecb486569eea82b05ecb083a235", "type": "electric_scooter", "is_reserved": 0, "lon": -77.036579}, {"fusion_lat": 0.0, "name": "f889fd751766a5b37fc82d0047bdc4fc", "is_disabled": 0, "rental_uris": {"android": "https://dc.lft.to/lastmile_qr_scan", "ios": "https://dc.lft.to/lastmile_qr_scan"}, "fusion_lon": 0.0, "lat": 38.90576683333333, "bike_id": "f889fd751766a5b37fc82d0047bdc4fc", "type": "electric_scooter", "is_reserved": 0, "lon": -77.03467883333333}, {"fusion_lat": 0.0, "name": "cf6f8cb0769adf47eaa2df1087728397", "is_disabled": 0, "rental_uris": {"android": "https://dc.lft.to/lastmile_qr_scan", "ios": "https://dc.lft.to/lastmile_qr_scan"}, "fusion_lon": 0.0, "lat": 38.87882233333333, "bike_id": "cf6f8cb0769adf47eaa2df1087728397", "type": "electric_scooter", "is_reserved": 0, "lon": -77.00819183333333}, {"fusion_lat": 0.0, "name": "11c848ec9735e173efdbc2ffbce60f22", "is_disabled": 0, "rental_uris": {"android": "https://dc.lft.to/lastmile_qr_scan", "ios": "https://dc.lft.to/lastmile_qr_scan"}, "fusion_lon": 0.0, "lat": 38.92728683333333, "bike_id": "11c848ec9735e173efdbc2ffbce60f22", "type": "electric_scooter", "is_reserved": 0, "lon": -77.0231005}, {"fusion_lat": 0.0, "name": "b6e6d15caf1c908b0c6eccb71b0b508e", "is_disabled": 0, "rental_uris": {"android": "https://dc.lft.to/lastmile_qr_scan", "ios": "https://dc.lft.to/lastmile_qr_scan"}, "fusion_lon": 0.0, "lat": 38.892339666666665, "bike_id": "b6e6d15caf1c908b0c6eccb71b0b508e", "type": "electric_scooter", "is_reserved": 0, "lon": -77.017135}, {"fusion_lat": 0.0, "name": "02a60210ecf06b8cd170750674faf30c", "is_disabled": 0, "rental_uris": {"android": "https://dc.lft.to/lastmile_qr_scan", "ios": "https://dc.lft.to/lastmile_qr_scan"}, "fusion_lon": 0.0, "lat": 38.923423666666665, "bike_id": "02a60210ecf06b8cd170750674faf30c", "type": "electric_scooter", "is_reserved": 0, "lon": -77.001901}, {"fusion_lat": 0.0, "name": "7b92458df0fcde6d60215e97b5bedd2c", "is_disabled": 0, "rental_uris": {"android": "https://dc.lft.to/lastmile_qr_scan", "ios": "https://dc.lft.to/lastmile_qr_scan"}, "fusion_lon": 0.0, "lat": 38.905497833333335, "bike_id": "7b92458df0fcde6d60215e97b5bedd2c", "type": "electric_scooter", "is_reserved": 0, "lon": -77.0060995}, {"fusion_lat": 0.0, "name": "c8d8717a725de9503730ff66dc8cdc2e", "is_disabled": 0, "rental_uris": {"android": "https://dc.lft.to/lastmile_qr_scan", "ios": "https://dc.lft.to/lastmile_qr_scan"}, "fusion_lon": 0.0, "lat": 38.93917066666667, "bike_id": "c8d8717a725de9503730ff66dc8cdc2e", "type": "electric_scooter", "is_reserved": 0, "lon": -77.0279465}, {"fusion_lat": 0.0, "name": "f041cfebf71ba8e1ef030e847ddf2c23", "is_disabled": 0, "rental_uris": {"android": "https://dc.lft.to/lastmile_qr_scan", "ios": "https://dc.lft.to/lastmile_qr_scan"}, "fusion_lon": 0.0, "lat": 38.91034833333333, "bike_id": "f041cfebf71ba8e1ef030e847ddf2c23", "type": "electric_scooter", "is_reserved": 0, "lon": -77.0075735}, {"fusion_lat": 0.0, "name": "62264ac0a3fc2c7f44517214a627d1bf", "is_disabled": 0, "rental_uris": {"android": "https://dc.lft.to/lastmile_qr_scan", "ios": "https://dc.lft.to/lastmile_qr_scan"}, "fusion_lon": 0.0, "lat": 38.88416633333333, "bike_id": "62264ac0a3fc2c7f44517214a627d1bf", "type": "electric_scooter", "is_reserved": 0, "lon": -77.019892}, {"fusion_lat": 0.0, "name": "c456728550b49d9ad956efc0ad57bcf3", "is_disabled": 0, "rental_uris": {"android": "https://dc.lft.to/lastmile_qr_scan", "ios": "https://dc.lft.to/lastmile_qr_scan"}, "fusion_lon": 0.0, "lat": 38.90675066666667, "bike_id": "c456728550b49d9ad956efc0ad57bcf3", "type": "electric_scooter", "is_reserved": 0, "lon": -77.02201733333334}, {"fusion_lat": 0.0, "name": "06fb4ec29d52a89194a47923b6e1e0ea", "is_disabled": 0, "rental_uris": {"android": "https://dc.lft.to/lastmile_qr_scan", "ios": "https://dc.lft.to/lastmile_qr_scan"}, "fusion_lon": 0.0, "lat": 38.961429333333335, "bike_id": "06fb4ec29d52a89194a47923b6e1e0ea", "type": "electric_bike", "is_reserved": 0, "lon": -77.03241416666667}, {"fusion_lat": 0.0, "name": "e2d6d7eb19bfc0dcca2d17b0830a7116", "is_disabled": 0, "rental_uris": {"android": "https://dc.lft.to/lastmile_qr_scan", "ios": "https://dc.lft.to/lastmile_qr_scan"}, "fusion_lon": 0.0, "lat": 38.900343, "bike_id": "e2d6d7eb19bfc0dcca2d17b0830a7116", "type": "electric_scooter", "is_reserved": 0, "lon": -76.99136316666667}, {"fusion_lat": 0.0, "name": "97e1e6e27a2a613ff438293107446f6b", "is_disabled": 0, "rental_uris": {"android": "https://dc.lft.to/lastmile_qr_scan", "ios": "https://dc.lft.to/lastmile_qr_scan"}, "fusion_lon": 0.0, "lat": 38.89940566666667, "bike_id": "97e1e6e27a2a613ff438293107446f6b", "type": "electric_scooter", "is_reserved": 0, "lon": -77.00368033333334}, {"fusion_lat": 0.0, "name": "83be3c8f1385fe232f8d9cd9edf9658c", "is_disabled": 0, "rental_uris": {"android": "https://dc.lft.to/lastmile_qr_scan", "ios": "https://dc.lft.to/lastmile_qr_scan"}, "fusion_lon": 0.0, "lat": 38.92065733333333, "bike_id": "83be3c8f1385fe232f8d9cd9edf9658c", "type": "electric_scooter", "is_reserved": 0, "lon": -76.998634}, {"fusion_lat": 0.0, "name": "c8f5639b2b74ef3a6940153a4aa97cb3", "is_disabled": 0, "rental_uris": {"android": "https://dc.lft.to/lastmile_qr_scan", "ios": "https://dc.lft.to/lastmile_qr_scan"}, "fusion_lon": 0.0, "lat": 38.938650833333334, "bike_id": "c8f5639b2b74ef3a6940153a4aa97cb3", "type": "electric_scooter", "is_reserved": 0, "lon": -77.0320595}, {"fusion_lat": 0.0, "name": "ec36215432e8aa77a65c1735ca42eed9", "is_disabled": 0, "rental_uris": {"android": "https://dc.lft.to/lastmile_qr_scan", "ios": "https://dc.lft.to/lastmile_qr_scan"}, "fusion_lon": 0.0, "lat": 39.034235333333335, "bike_id": "ec36215432e8aa77a65c1735ca42eed9", "type": "electric_bike", "is_reserved": 0, "lon": -77.0430725}, {"fusion_lat": 0.0, "name": "3ddc17614c2450f1881cf9a7ca0530d6", "is_disabled": 0, "rental_uris": {"android": "https://dc.lft.to/lastmile_qr_scan", "ios": "https://dc.lft.to/lastmile_qr_scan"}, "fusion_lon": 0.0, "lat": 38.90037183333333, "bike_id": "3ddc17614c2450f1881cf9a7ca0530d6", "type": "electric_scooter", "is_reserved": 0, "lon": -77.04483733333333}, {"fusion_lat": 0.0, "name": "3a0cec861bc01022ac7908752500a8ea", "is_disabled": 0, "rental_uris": {"android": "https://dc.lft.to/lastmile_qr_scan", "ios": "https://dc.lft.to/lastmile_qr_scan"}, "fusion_lon": 0.0, "lat": 38.87830016666667, "bike_id": "3a0cec861bc01022ac7908752500a8ea", "type": "electric_scooter", "is_reserved": 0, "lon": -76.99017416666666}, {"fusion_lat": 0.0, "name": "ffebff96a9838c51352f4c0c0712420c", "is_disabled": 0, "rental_uris": {"android": "https://dc.lft.to/lastmile_qr_scan", "ios": "https://dc.lft.to/lastmile_qr_scan"}, "fusion_lon": 0.0, "lat": 38.92116683333333, "bike_id": "ffebff96a9838c51352f4c0c0712420c", "type": "electric_scooter", "is_reserved": 0, "lon": -77.03176283333333}, {"fusion_lat": 0.0, "name": "a2483700a9d0fa6635190f2cb3bcbb40", "is_disabled": 0, "rental_uris": {"android": "https://dc.lft.to/lastmile_qr_scan", "ios": "https://dc.lft.to/lastmile_qr_scan"}, "fusion_lon": 0.0, "lat": 38.930127, "bike_id": "a2483700a9d0fa6635190f2cb3bcbb40", "type": "electric_scooter", "is_reserved": 0, "lon": -77.020788}, {"fusion_lat": 0.0, "name": "f5fec3d36b5e3aba6b1bc2084713a95f", "is_disabled": 0, "rental_uris": {"android": "https://dc.lft.to/lastmile_qr_scan", "ios": "https://dc.lft.to/lastmile_qr_scan"}, "fusion_lon": 0.0, "lat": 38.900134666666666, "bike_id": "f5fec3d36b5e3aba6b1bc2084713a95f", "type": "electric_scooter", "is_reserved": 0, "lon": -76.99743566666666}, {"fusion_lat": 0.0, "name": "9411a3af6bad7d0db2ab60db45134ec1", "is_disabled": 0, "rental_uris": {"android": "https://dc.lft.to/lastmile_qr_scan", "ios": "https://dc.lft.to/lastmile_qr_scan"}, "fusion_lon": 0.0, "lat": 38.918003, "bike_id": "9411a3af6bad7d0db2ab60db45134ec1", "type": "electric_scooter", "is_reserved": 0, "lon": -77.027095}, {"fusion_lat": 0.0, "name": "5c29f02194ca02ade9444edfdac106a2", "is_disabled": 0, "rental_uris": {"android": "https://dc.lft.to/lastmile_qr_scan", "ios": "https://dc.lft.to/lastmile_qr_scan"}, "fusion_lon": 0.0, "lat": 38.9248355, "bike_id": "5c29f02194ca02ade9444edfdac106a2", "type": "electric_scooter", "is_reserved": 0, "lon": -77.02716366666667}, {"fusion_lat": 0.0, "name": "6136ec4e482e62668f6d959bea6e6e63", "is_disabled": 0, "rental_uris": {"android": "https://dc.lft.to/lastmile_qr_scan", "ios": "https://dc.lft.to/lastmile_qr_scan"}, "fusion_lon": 0.0, "lat": 38.90949533333333, "bike_id": "6136ec4e482e62668f6d959bea6e6e63", "type": "electric_scooter", "is_reserved": 0, "lon": -77.04730866666667}, {"fusion_lat": 0.0, "name": "7b78b77b315d0aafebe79b81f65c4cf1", "is_disabled": 0, "rental_uris": {"android": "https://dc.lft.to/lastmile_qr_scan", "ios": "https://dc.lft.to/lastmile_qr_scan"}, "fusion_lon": 0.0, "lat": 38.900062, "bike_id": "7b78b77b315d0aafebe79b81f65c4cf1", "type": "electric_scooter", "is_reserved": 0, "lon": -76.9985515}, {"fusion_lat": 0.0, "name": "dad5afc4d9ad7d51a1b66c1f4170e262", "is_disabled": 0, "rental_uris": {"android": "https://dc.lft.to/lastmile_qr_scan", "ios": "https://dc.lft.to/lastmile_qr_scan"}, "fusion_lon": 0.0, "lat": 38.85387333333333, "bike_id": "dad5afc4d9ad7d51a1b66c1f4170e262", "type": "electric_bike", "is_reserved": 0, "lon": -77.11473066666667}, {"fusion_lat": 0.0, "name": "98c1fba4185aff1680e75fa09f37e064", "is_disabled": 0, "rental_uris": {"android": "https://dc.lft.to/lastmile_qr_scan", "ios": "https://dc.lft.to/lastmile_qr_scan"}, "fusion_lon": 0.0, "lat": 38.9073375, "bike_id": "98c1fba4185aff1680e75fa09f37e064", "type": "electric_scooter", "is_reserved": 0, "lon": -77.02604433333333}, {"fusion_lat": 0.0, "name": "58b080f75325df6f9a4fa69d29b189a8", "is_disabled": 0, "rental_uris": {"android": "https://dc.lft.to/lastmile_qr_scan", "ios": "https://dc.lft.to/lastmile_qr_scan"}, "fusion_lon": 0.0, "lat": 38.9275435, "bike_id": "58b080f75325df6f9a4fa69d29b189a8", "type": "electric_scooter", "is_reserved": 0, "lon": -77.03290516666667}, {"fusion_lat": 0.0, "name": "8b3e453aa820bd42ed013dcfc1af014f", "is_disabled": 0, "rental_uris": {"android": "https://dc.lft.to/lastmile_qr_scan", "ios": "https://dc.lft.to/lastmile_qr_scan"}, "fusion_lon": 0.0, "lat": 38.93588866666666, "bike_id": "8b3e453aa820bd42ed013dcfc1af014f", "type": "electric_scooter", "is_reserved": 0, "lon": -77.02361616666667}, {"fusion_lat": 0.0, "name": "98f4d6c050a7e42b9f38bac726fce9df", "is_disabled": 0, "rental_uris": {"android": "https://dc.lft.to/lastmile_qr_scan", "ios": "https://dc.lft.to/lastmile_qr_scan"}, "fusion_lon": 0.0, "lat": 38.94681516666667, "bike_id": "98f4d6c050a7e42b9f38bac726fce9df", "type": "electric_scooter", "is_reserved": 0, "lon": -77.0308975}, {"fusion_lat": 0.0, "name": "46fcbd00b25b77dc99866b47355fec56", "is_disabled": 0, "rental_uris": {"android": "https://dc.lft.to/lastmile_qr_scan", "ios": "https://dc.lft.to/lastmile_qr_scan"}, "fusion_lon": 0.0, "lat": 38.930997, "bike_id": "46fcbd00b25b77dc99866b47355fec56", "type": "electric_scooter", "is_reserved": 0, "lon": -77.02666766666667}, {"fusion_lat": 0.0, "name": "36b43f478cdf925cec926f73e1c5f453", "is_disabled": 0, "rental_uris": {"android": "https://dc.lft.to/lastmile_qr_scan", "ios": "https://dc.lft.to/lastmile_qr_scan"}, "fusion_lon": 0.0, "lat": 38.90391916666667, "bike_id": "36b43f478cdf925cec926f73e1c5f453", "type": "electric_scooter", "is_reserved": 0, "lon": -77.03205433333333}, {"fusion_lat": 0.0, "name": "399e826b3bac773c9b2dd9956040089f", "is_disabled": 0, "rental_uris": {"android": "https://dc.lft.to/lastmile_qr_scan", "ios": "https://dc.lft.to/lastmile_qr_scan"}, "fusion_lon": 0.0, "lat": 38.94838983333333, "bike_id": "399e826b3bac773c9b2dd9956040089f", "type": "electric_scooter", "is_reserved": 0, "lon": -77.02569566666666}, {"fusion_lat": 0.0, "name": "9cbe02105441a818be6e0e1484ab0c49", "is_disabled": 0, "rental_uris": {"android": "https://dc.lft.to/lastmile_qr_scan", "ios": "https://dc.lft.to/lastmile_qr_scan"}, "fusion_lon": 0.0, "lat": 38.9078535, "bike_id": "9cbe02105441a818be6e0e1484ab0c49", "type": "electric_scooter", "is_reserved": 0, "lon": -77.04355833333334}, {"fusion_lat": 0.0, "name": "a6bb6c54d624507fa2186c30860d9145", "is_disabled": 0, "rental_uris": {"android": "https://dc.lft.to/lastmile_qr_scan", "ios": "https://dc.lft.to/lastmile_qr_scan"}, "fusion_lon": 0.0, "lat": 38.91107683333333, "bike_id": "a6bb6c54d624507fa2186c30860d9145", "type": "electric_scooter", "is_reserved": 0, "lon": -77.01150333333334}, {"fusion_lat": 0.0, "name": "c001b390c57f5848c054561403356fe6", "is_disabled": 0, "rental_uris": {"android": "https://dc.lft.to/lastmile_qr_scan", "ios": "https://dc.lft.to/lastmile_qr_scan"}, "fusion_lon": 0.0, "lat": 38.957097166666664, "bike_id": "c001b390c57f5848c054561403356fe6", "type": "electric_scooter", "is_reserved": 0, "lon": -77.02402166666667}, {"fusion_lat": 0.0, "name": "a721b89cc2d8407153839ce1a2f6f656", "is_disabled": 0, "rental_uris": {"android": "https://dc.lft.to/lastmile_qr_scan", "ios": "https://dc.lft.to/lastmile_qr_scan"}, "fusion_lon": 0.0, "lat": 38.93171266666667, "bike_id": "a721b89cc2d8407153839ce1a2f6f656", "type": "electric_scooter", "is_reserved": 0, "lon": -77.0429885}, {"fusion_lat": 0.0, "name": "04459f1d035ccc76b257800127a249f5", "is_disabled": 0, "rental_uris": {"android": "https://dc.lft.to/lastmile_qr_scan", "ios": "https://dc.lft.to/lastmile_qr_scan"}, "fusion_lon": 0.0, "lat": 38.884571666666666, "bike_id": "04459f1d035ccc76b257800127a249f5", "type": "electric_scooter", "is_reserved": 0, "lon": -76.998361}, {"fusion_lat": 0.0, "name": "a8322129588abc0fdab56ae7d8d94d98", "is_disabled": 0, "rental_uris": {"android": "https://dc.lft.to/lastmile_qr_scan", "ios": "https://dc.lft.to/lastmile_qr_scan"}, "fusion_lon": 0.0, "lat": 38.9003365, "bike_id": "a8322129588abc0fdab56ae7d8d94d98", "type": "electric_scooter", "is_reserved": 0, "lon": -76.991353}, {"fusion_lat": 0.0, "name": "fbfbe674e51e15eebbd5ad7fd7538ba5", "is_disabled": 0, "rental_uris": {"android": "https://dc.lft.to/lastmile_qr_scan", "ios": "https://dc.lft.to/lastmile_qr_scan"}, "fusion_lon": 0.0, "lat": 38.884820833333336, "bike_id": "fbfbe674e51e15eebbd5ad7fd7538ba5", "type": "electric_scooter", "is_reserved": 0, "lon": -76.92966366666667}, {"fusion_lat": 0.0, "name": "7175b748c617166661f4b3ab15985bcb", "is_disabled": 0, "rental_uris": {"android": "https://dc.lft.to/lastmile_qr_scan", "ios": "https://dc.lft.to/lastmile_qr_scan"}, "fusion_lon": 0.0, "lat": 38.920614, "bike_id": "7175b748c617166661f4b3ab15985bcb", "type": "electric_scooter", "is_reserved": 0, "lon": -77.03190083333334}, {"fusion_lat": 0.0, "name": "01c33bb834b3f937f55b21a98ab0d0dd", "is_disabled": 0, "rental_uris": {"android": "https://dc.lft.to/lastmile_qr_scan", "ios": "https://dc.lft.to/lastmile_qr_scan"}, "fusion_lon": 0.0, "lat": 38.929974, "bike_id": "01c33bb834b3f937f55b21a98ab0d0dd", "type": "electric_scooter", "is_reserved": 0, "lon": -77.03238616666667}, {"fusion_lat": 0.0, "name": "35bb6aa6fbeec5569b2f1715607abcf5", "is_disabled": 0, "rental_uris": {"android": "https://dc.lft.to/lastmile_qr_scan", "ios": "https://dc.lft.to/lastmile_qr_scan"}, "fusion_lon": 0.0, "lat": 38.94705366666667, "bike_id": "35bb6aa6fbeec5569b2f1715607abcf5", "type": "electric_scooter", "is_reserved": 0, "lon": -77.01944266666666}, {"fusion_lat": 0.0, "name": "7ba654a419ba0c1ae66faa7127bf4c17", "is_disabled": 0, "rental_uris": {"android": "https://dc.lft.to/lastmile_qr_scan", "ios": "https://dc.lft.to/lastmile_qr_scan"}, "fusion_lon": 0.0, "lat": 38.92444316666667, "bike_id": "7ba654a419ba0c1ae66faa7127bf4c17", "type": "electric_scooter", "is_reserved": 0, "lon": -77.033575}, {"fusion_lat": 0.0, "name": "e837e47623bf2a863a377b754aa2759f", "is_disabled": 0, "rental_uris": {"android": "https://dc.lft.to/lastmile_qr_scan", "ios": "https://dc.lft.to/lastmile_qr_scan"}, "fusion_lon": 0.0, "lat": 38.900786333333336, "bike_id": "e837e47623bf2a863a377b754aa2759f", "type": "electric_scooter", "is_reserved": 0, "lon": -77.0246505}, {"fusion_lat": 0.0, "name": "6595bb55ab0e7291914010ee4f0d0b7c", "is_disabled": 0, "rental_uris": {"android": "https://dc.lft.to/lastmile_qr_scan", "ios": "https://dc.lft.to/lastmile_qr_scan"}, "fusion_lon": 0.0, "lat": 38.924829833333334, "bike_id": "6595bb55ab0e7291914010ee4f0d0b7c", "type": "electric_scooter", "is_reserved": 0, "lon": -77.0283135}, {"fusion_lat": 0.0, "name": "d2d0bf74a64fa5c1c5ef5e56c2ad98e3", "is_disabled": 0, "rental_uris": {"android": "https://dc.lft.to/lastmile_qr_scan", "ios": "https://dc.lft.to/lastmile_qr_scan"}, "fusion_lon": 0.0, "lat": 38.901302, "bike_id": "d2d0bf74a64fa5c1c5ef5e56c2ad98e3", "type": "electric_scooter", "is_reserved": 0, "lon": -77.0028435}, {"fusion_lat": 0.0, "name": "ed242bd25d2ecac4b942f002bc6dd9eb", "is_disabled": 0, "rental_uris": {"android": "https://dc.lft.to/lastmile_qr_scan", "ios": "https://dc.lft.to/lastmile_qr_scan"}, "fusion_lon": 0.0, "lat": 38.899916, "bike_id": "ed242bd25d2ecac4b942f002bc6dd9eb", "type": "electric_scooter", "is_reserved": 0, "lon": -76.99759416666667}, {"fusion_lat": 0.0, "name": "6e04a50e6a9146e13e15f59301bd2c35", "is_disabled": 0, "rental_uris": {"android": "https://dc.lft.to/lastmile_qr_scan", "ios": "https://dc.lft.to/lastmile_qr_scan"}, "fusion_lon": 0.0, "lat": 38.93469916666667, "bike_id": "6e04a50e6a9146e13e15f59301bd2c35", "type": "electric_scooter", "is_reserved": 0, "lon": -77.02339866666667}, {"fusion_lat": 0.0, "name": "a9be6efccfcea9e34e4cc0d1f156cb0b", "is_disabled": 0, "rental_uris": {"android": "https://dc.lft.to/lastmile_qr_scan", "ios": "https://dc.lft.to/lastmile_qr_scan"}, "fusion_lon": 0.0, "lat": 38.91356966666667, "bike_id": "a9be6efccfcea9e34e4cc0d1f156cb0b", "type": "electric_scooter", "is_reserved": 0, "lon": -77.033326}, {"fusion_lat": 0.0, "name": "0feca1e202f957b9c1df24e6f05fba57", "is_disabled": 0, "rental_uris": {"android": "https://dc.lft.to/lastmile_qr_scan", "ios": "https://dc.lft.to/lastmile_qr_scan"}, "fusion_lon": 0.0, "lat": 38.901611833333334, "bike_id": "0feca1e202f957b9c1df24e6f05fba57", "type": "electric_scooter", "is_reserved": 0, "lon": -77.02565316666667}, {"fusion_lat": 0.0, "name": "8f25535586257c726e2257b49ab95fe8", "is_disabled": 0, "rental_uris": {"android": "https://dc.lft.to/lastmile_qr_scan", "ios": "https://dc.lft.to/lastmile_qr_scan"}, "fusion_lon": 0.0, "lat": 38.984754333333335, "bike_id": "8f25535586257c726e2257b49ab95fe8", "type": "electric_scooter", "is_reserved": 0, "lon": -77.02640583333333}, {"fusion_lat": 0.0, "name": "d9ae6ea431a21960071b1ad47c2248b2", "is_disabled": 0, "rental_uris": {"android": "https://dc.lft.to/lastmile_qr_scan", "ios": "https://dc.lft.to/lastmile_qr_scan"}, "fusion_lon": 0.0, "lat": 38.92141816666667, "bike_id": "d9ae6ea431a21960071b1ad47c2248b2", "type": "electric_scooter", "is_reserved": 0, "lon": -77.0180195}, {"fusion_lat": 0.0, "name": "d1b4275c209ac49edbcb0c8282e7ad80", "is_disabled": 0, "rental_uris": {"android": "https://dc.lft.to/lastmile_qr_scan", "ios": "https://dc.lft.to/lastmile_qr_scan"}, "fusion_lon": 0.0, "lat": 38.91662633333333, "bike_id": "d1b4275c209ac49edbcb0c8282e7ad80", "type": "electric_scooter", "is_reserved": 0, "lon": -77.02817516666667}, {"fusion_lat": 0.0, "name": "040833e6ea1384dc502574af07b1f72c", "is_disabled": 0, "rental_uris": {"android": "https://dc.lft.to/lastmile_qr_scan", "ios": "https://dc.lft.to/lastmile_qr_scan"}, "fusion_lon": 0.0, "lat": 38.88764, "bike_id": "040833e6ea1384dc502574af07b1f72c", "type": "electric_scooter", "is_reserved": 0, "lon": -76.99468883333333}, {"fusion_lat": 0.0, "name": "935c3e7b82c87ced83fd8571647a8001", "is_disabled": 0, "rental_uris": {"android": "https://dc.lft.to/lastmile_qr_scan", "ios": "https://dc.lft.to/lastmile_qr_scan"}, "fusion_lon": 0.0, "lat": 38.926568333333336, "bike_id": "935c3e7b82c87ced83fd8571647a8001", "type": "electric_scooter", "is_reserved": 0, "lon": -77.037091}, {"fusion_lat": 0.0, "name": "952dad681a593dad485fb8ae415f0784", "is_disabled": 0, "rental_uris": {"android": "https://dc.lft.to/lastmile_qr_scan", "ios": "https://dc.lft.to/lastmile_qr_scan"}, "fusion_lon": 0.0, "lat": 38.918420833333336, "bike_id": "952dad681a593dad485fb8ae415f0784", "type": "electric_scooter", "is_reserved": 0, "lon": -76.965432}, {"fusion_lat": 0.0, "name": "a3948fbedcbcf00ecd433cdb3a4a49ab", "is_disabled": 0, "rental_uris": {"android": "https://dc.lft.to/lastmile_qr_scan", "ios": "https://dc.lft.to/lastmile_qr_scan"}, "fusion_lon": 0.0, "lat": 38.92162916666667, "bike_id": "a3948fbedcbcf00ecd433cdb3a4a49ab", "type": "electric_scooter", "is_reserved": 0, "lon": -77.036456}, {"fusion_lat": 0.0, "name": "86b9ee856474868b1f55927d9540d6a1", "is_disabled": 0, "rental_uris": {"android": "https://dc.lft.to/lastmile_qr_scan", "ios": "https://dc.lft.to/lastmile_qr_scan"}, "fusion_lon": 0.0, "lat": 38.90269683333333, "bike_id": "86b9ee856474868b1f55927d9540d6a1", "type": "electric_scooter", "is_reserved": 0, "lon": -77.0186175}, {"fusion_lat": 0.0, "name": "330f30f02e5c748c1045d1f6fc3736f0", "is_disabled": 0, "rental_uris": {"android": "https://dc.lft.to/lastmile_qr_scan", "ios": "https://dc.lft.to/lastmile_qr_scan"}, "fusion_lon": 0.0, "lat": 38.922932, "bike_id": "330f30f02e5c748c1045d1f6fc3736f0", "type": "electric_scooter", "is_reserved": 0, "lon": -77.02525983333334}, {"fusion_lat": 0.0, "name": "e0b582ba5c144adefdcb5a1f124c78f8", "is_disabled": 0, "rental_uris": {"android": "https://dc.lft.to/lastmile_qr_scan", "ios": "https://dc.lft.to/lastmile_qr_scan"}, "fusion_lon": 0.0, "lat": 38.91922266666667, "bike_id": "e0b582ba5c144adefdcb5a1f124c78f8", "type": "electric_scooter", "is_reserved": 0, "lon": -77.032609}, {"fusion_lat": 0.0, "name": "4f6c1364708a452a6fa8b7a2db6a94af", "is_disabled": 0, "rental_uris": {"android": "https://dc.lft.to/lastmile_qr_scan", "ios": "https://dc.lft.to/lastmile_qr_scan"}, "fusion_lon": 0.0, "lat": 38.87905, "bike_id": "4f6c1364708a452a6fa8b7a2db6a94af", "type": "electric_scooter", "is_reserved": 0, "lon": -77.013604}, {"fusion_lat": 0.0, "name": "8bab6ea7dc5a93d0b51de0919a3a7230", "is_disabled": 0, "rental_uris": {"android": "https://dc.lft.to/lastmile_qr_scan", "ios": "https://dc.lft.to/lastmile_qr_scan"}, "fusion_lon": 0.0, "lat": 38.91269233333333, "bike_id": "8bab6ea7dc5a93d0b51de0919a3a7230", "type": "electric_scooter", "is_reserved": 0, "lon": -77.02258066666667}, {"fusion_lat": 0.0, "name": "9b758a6792662b403ba4bc5e594a99ac", "is_disabled": 0, "rental_uris": {"android": "https://dc.lft.to/lastmile_qr_scan", "ios": "https://dc.lft.to/lastmile_qr_scan"}, "fusion_lon": 0.0, "lat": 38.90362616666667, "bike_id": "9b758a6792662b403ba4bc5e594a99ac", "type": "electric_scooter", "is_reserved": 0, "lon": -77.04504083333333}, {"fusion_lat": 0.0, "name": "d2bd957e5b1a8182fbde0ae82ba38a1d", "is_disabled": 0, "rental_uris": {"android": "https://dc.lft.to/lastmile_qr_scan", "ios": "https://dc.lft.to/lastmile_qr_scan"}, "fusion_lon": 0.0, "lat": 38.9193085, "bike_id": "d2bd957e5b1a8182fbde0ae82ba38a1d", "type": "electric_scooter", "is_reserved": 0, "lon": -77.07075066666667}, {"fusion_lat": 0.0, "name": "62f85673ca7cd7234bc94720738d3e07", "is_disabled": 0, "rental_uris": {"android": "https://dc.lft.to/lastmile_qr_scan", "ios": "https://dc.lft.to/lastmile_qr_scan"}, "fusion_lon": 0.0, "lat": 38.89532483333333, "bike_id": "62f85673ca7cd7234bc94720738d3e07", "type": "electric_scooter", "is_reserved": 0, "lon": -76.9340885}, {"fusion_lat": 0.0, "name": "8375a20bb3173dd59c0b59fb499f3247", "is_disabled": 0, "rental_uris": {"android": "https://dc.lft.to/lastmile_qr_scan", "ios": "https://dc.lft.to/lastmile_qr_scan"}, "fusion_lon": 0.0, "lat": 38.906522, "bike_id": "8375a20bb3173dd59c0b59fb499f3247", "type": "electric_scooter", "is_reserved": 0, "lon": -77.05319283333333}, {"fusion_lat": 0.0, "name": "4e4e0cdc9bdbcada7940cc6fbbacf9e5", "is_disabled": 0, "rental_uris": {"android": "https://dc.lft.to/lastmile_qr_scan", "ios": "https://dc.lft.to/lastmile_qr_scan"}, "fusion_lon": 0.0, "lat": 38.92801983333333, "bike_id": "4e4e0cdc9bdbcada7940cc6fbbacf9e5", "type": "electric_scooter", "is_reserved": 0, "lon": -77.0140495}, {"fusion_lat": 0.0, "name": "862212d0f23d7bd5d995d4f7daf6a61e", "is_disabled": 0, "rental_uris": {"android": "https://dc.lft.to/lastmile_qr_scan", "ios": "https://dc.lft.to/lastmile_qr_scan"}, "fusion_lon": 0.0, "lat": 38.9072465, "bike_id": "862212d0f23d7bd5d995d4f7daf6a61e", "type": "electric_scooter", "is_reserved": 0, "lon": -77.047307}, {"fusion_lat": 0.0, "name": "4ddc43d892e3d35d51d68aec3c716009", "is_disabled": 0, "rental_uris": {"android": "https://dc.lft.to/lastmile_qr_scan", "ios": "https://dc.lft.to/lastmile_qr_scan"}, "fusion_lon": 0.0, "lat": 38.909670166666665, "bike_id": "4ddc43d892e3d35d51d68aec3c716009", "type": "electric_scooter", "is_reserved": 0, "lon": -77.03447516666667}, {"fusion_lat": 0.0, "name": "19b47e0ddc2de1fcc8544451a88aecd5", "is_disabled": 0, "rental_uris": {"android": "https://dc.lft.to/lastmile_qr_scan", "ios": "https://dc.lft.to/lastmile_qr_scan"}, "fusion_lon": 0.0, "lat": 38.90850966666667, "bike_id": "19b47e0ddc2de1fcc8544451a88aecd5", "type": "electric_scooter", "is_reserved": 0, "lon": -77.02356116666667}, {"fusion_lat": 0.0, "name": "a223c5a50feefcee0096dff4f9a54134", "is_disabled": 0, "rental_uris": {"android": "https://dc.lft.to/lastmile_qr_scan", "ios": "https://dc.lft.to/lastmile_qr_scan"}, "fusion_lon": 0.0, "lat": 38.919237833333334, "bike_id": "a223c5a50feefcee0096dff4f9a54134", "type": "electric_scooter", "is_reserved": 0, "lon": -77.03262233333334}, {"fusion_lat": 0.0, "name": "b41ffc897efc9cf988a125e74ecfd6e1", "is_disabled": 0, "rental_uris": {"android": "https://dc.lft.to/lastmile_qr_scan", "ios": "https://dc.lft.to/lastmile_qr_scan"}, "fusion_lon": 0.0, "lat": 38.91930266666667, "bike_id": "b41ffc897efc9cf988a125e74ecfd6e1", "type": "electric_scooter", "is_reserved": 0, "lon": -77.03173866666667}, {"fusion_lat": 0.0, "name": "3b032ba137286dd55c346b4251d631e0", "is_disabled": 0, "rental_uris": {"android": "https://dc.lft.to/lastmile_qr_scan", "ios": "https://dc.lft.to/lastmile_qr_scan"}, "fusion_lon": 0.0, "lat": 38.93860266666667, "bike_id": "3b032ba137286dd55c346b4251d631e0", "type": "electric_scooter", "is_reserved": 0, "lon": -77.02454266666666}, {"fusion_lat": 0.0, "name": "d986a299750909c245cda2d0185fc1c8", "is_disabled": 0, "rental_uris": {"android": "https://dc.lft.to/lastmile_qr_scan", "ios": "https://dc.lft.to/lastmile_qr_scan"}, "fusion_lon": 0.0, "lat": 38.8986405, "bike_id": "d986a299750909c245cda2d0185fc1c8", "type": "electric_scooter", "is_reserved": 0, "lon": -77.02025816666666}, {"fusion_lat": 0.0, "name": "c55376f5baacdc3bb95b917f2a64cbbf", "is_disabled": 0, "rental_uris": {"android": "https://dc.lft.to/lastmile_qr_scan", "ios": "https://dc.lft.to/lastmile_qr_scan"}, "fusion_lon": 0.0, "lat": 38.9193875, "bike_id": "c55376f5baacdc3bb95b917f2a64cbbf", "type": "electric_scooter", "is_reserved": 0, "lon": -77.0449805}, {"fusion_lat": 0.0, "name": "afbb93d115f674acecfc53887d4cba9a", "is_disabled": 0, "rental_uris": {"android": "https://dc.lft.to/lastmile_qr_scan", "ios": "https://dc.lft.to/lastmile_qr_scan"}, "fusion_lon": 0.0, "lat": 38.9287535, "bike_id": "afbb93d115f674acecfc53887d4cba9a", "type": "electric_scooter", "is_reserved": 0, "lon": -77.0348155}, {"fusion_lat": 0.0, "name": "8cad5e37294830b3ef3552d7c27d2f8b", "is_disabled": 0, "rental_uris": {"android": "https://dc.lft.to/lastmile_qr_scan", "ios": "https://dc.lft.to/lastmile_qr_scan"}, "fusion_lon": 0.0, "lat": 38.90673916666667, "bike_id": "8cad5e37294830b3ef3552d7c27d2f8b", "type": "electric_scooter", "is_reserved": 0, "lon": -77.02713383333334}, {"fusion_lat": 0.0, "name": "48c791e935bf7a461f5c29ee64a810b5", "is_disabled": 0, "rental_uris": {"android": "https://dc.lft.to/lastmile_qr_scan", "ios": "https://dc.lft.to/lastmile_qr_scan"}, "fusion_lon": 0.0, "lat": 38.87384683333333, "bike_id": "48c791e935bf7a461f5c29ee64a810b5", "type": "electric_scooter", "is_reserved": 0, "lon": -77.00158133333333}, {"fusion_lat": 0.0, "name": "c071ea19519c7a96bef3d278cc00504d", "is_disabled": 0, "rental_uris": {"android": "https://dc.lft.to/lastmile_qr_scan", "ios": "https://dc.lft.to/lastmile_qr_scan"}, "fusion_lon": 0.0, "lat": 38.90058233333333, "bike_id": "c071ea19519c7a96bef3d278cc00504d", "type": "electric_scooter", "is_reserved": 0, "lon": -77.00373666666667}, {"fusion_lat": 0.0, "name": "319559d5b083ea0066bc4ade3ec4087a", "is_disabled": 0, "rental_uris": {"android": "https://dc.lft.to/lastmile_qr_scan", "ios": "https://dc.lft.to/lastmile_qr_scan"}, "fusion_lon": 0.0, "lat": 38.909448166666664, "bike_id": "319559d5b083ea0066bc4ade3ec4087a", "type": "electric_scooter", "is_reserved": 0, "lon": -77.02183366666667}, {"fusion_lat": 0.0, "name": "600a4e612671c3834fd71ff17db4d533", "is_disabled": 0, "rental_uris": {"android": "https://dc.lft.to/lastmile_qr_scan", "ios": "https://dc.lft.to/lastmile_qr_scan"}, "fusion_lon": 0.0, "lat": 38.91467766666667, "bike_id": "600a4e612671c3834fd71ff17db4d533", "type": "electric_scooter", "is_reserved": 0, "lon": -77.038986},