{"data": {"bikes": [{"fusion_lat": 0.0, "bike_id": "ecf1279b3f89bd24206cd369cf186a39", "fusion_lon": 0.0, "lon": -76.99030433333333, "lat": 38.8979835, "is_reserved": 0, "is_disabled": 0, "rental_uris": {"android": "https://dc.lft.to/lastmile_qr_scan", "ios": "https://dc.lft.to/lastmile_qr_scan"}, "name": "ecf1279b3f89bd24206cd369cf186a39", "type": "electric_scooter"}, {"fusion_lat": 0.0, "bike_id": "ac05482768b3654dc57b2f913cb9f4c8", "fusion_lon": 0.0, "lon": -76.998764, "lat": 38.952757, "is_reserved": 0, "is_disabled": 0, "rental_uris": {"android": "https://dc.lft.to/lastmile_qr_scan", "ios": "https://dc.lft.to/lastmile_qr_scan"}, "name": "ac05482768b3654dc57b2f913cb9f4c8", "type": "electric_scooter"}, {"fusion_lat": 0.0, "bike_id": "eb9d217c86f76d38e455411bfd593ea9", "fusion_lon": 0.0, "lon": -77.02796233333333, "lat": 38.942878666666665, "is_reserved": 0, "is_disabled": 0, "rental_uris": {"android": "https://dc.lft.to/lastmile_qr_scan", "ios": "https://dc.lft.to/lastmile_qr_scan"}, "name": "eb9d217c86f76d38e455411bfd593ea9", "type": "electric_scooter"}, {"fusion_lat": 0.0, "bike_id": "923c72f8f52b4f637477df6a73c5b17f", "fusion_lon": 0.0, "lon": -77.03196166666666, "lat": 38.91675133333333, "is_reserved": 0, "is_disabled": 0, "rental_uris": {"android": "https://dc.lft.to/lastmile_qr_scan", "ios": "https://dc.lft.to/lastmile_qr_scan"}, "name": "923c72f8f52b4f637477df6a73c5b17f", "type": "electric_scooter"}, {"fusion_lat": 0.0, "bike_id": "50a9ed258c4d953074a1515f50ea1de8", "fusion_lon": 0.0, "lon": -77.0161515, "lat": 38.906854833333334, "is_reserved": 0, "is_disabled": 0, "rental_uris": {"android": "https://dc.lft.to/lastmile_qr_scan", "ios": "https://dc.lft.to/lastmile_qr_scan"}, "name": "50a9ed258c4d953074a1515f50ea1de8", "type": "electric_scooter"}, {"fusion_lat": 0.0, "bike_id": "2efb3d1d8d7128a1fe3a040e51cc0f46", "fusion_lon": 0.0, "lon": -76.98404616666667, "lat": 38.90625, "is_reserved": 0, "is_disabled": 0, "rental_uris": {"android": "https://dc.lft.to/lastmile_qr_scan", "ios": "https://dc.lft.to/lastmile_qr_scan"}, "name": "2efb3d1d8d7128a1fe3a040e51cc0f46", "type": "electric_scooter"}, {"fusion_lat": 0.0, "bike_id": "5812403e9dd5b4b0db634bf02c72efc9", "fusion_lon": 0.0, "lon": -77.05040266666667, "lat": 38.92518333333334, "is_reserved": 0, "is_disabled": 0, "rental_uris": {"android": "https://dc.lft.to/lastmile_qr_scan", "ios": "https://dc.lft.to/lastmile_qr_scan"}, "name": "5812403e9dd5b4b0db634bf02c72efc9", "type": "electric_scooter"}, {"fusion_lat": 0.0, "bike_id": "98510d9a05bf1a18d3e8f8b07a6c822a", "fusion_lon": 0.0, "lon": -77.05178233333334, "lat": 38.923847, "is_reserved": 0, "is_disabled": 0, "rental_uris": {"android": "https://dc.lft.to/lastmile_qr_scan", "ios": "https://dc.lft.to/lastmile_qr_scan"}, "name": "98510d9a05bf1a18d3e8f8b07a6c822a", "type": "electric_scooter"}, {"fusion_lat": 0.0, "bike_id": "e275c1100a50cac7acb5d59c7a48b587", "fusion_lon": 0.0, "lon": -77.03963183333333, "lat": 38.91628016666667, "is_reserved": 0, "is_disabled": 0, "rental_uris": {"android": "https://dc.lft.to/lastmile_qr_scan", "ios": "https://dc.lft.to/lastmile_qr_scan"}, "name": "e275c1100a50cac7acb5d59c7a48b587", "type": "electric_scooter"}, {"fusion_lat": 0.0, "bike_id": "16f742ec540bb41d7f6a320a42bec38c", "fusion_lon": 0.0, "lon": -77.03253133333334, "lat": 38.92864383333333, "is_reserved": 0, "is_disabled": 0, "rental_uris": {"android": "https://dc.lft.to/lastmile_qr_scan", "ios": "https://dc.lft.to/lastmile_qr_scan"}, "name": "16f742ec540bb41d7f6a320a42bec38c", "type": "electric_scooter"}, {"fusion_lat": 0.0, "bike_id": "65e303a3662377382ce8ac3217f32a20", "fusion_lon": 0.0, "lon": -77.04206116666667, "lat": 38.9205165, "is_reserved": 0, "is_disabled": 0, "rental_uris": {"android": "https://dc.lft.to/lastmile_qr_scan", "ios": "https://dc.lft.to/lastmile_qr_scan"}, "name": "65e303a3662377382ce8ac3217f32a20", "type": "electric_scooter"}, {"fusion_lat": 0.0, "bike_id": "12abd90bce9bb4241b93cee12f8d10ea", "fusion_lon": 0.0, "lon": -77.09493333333333, "lat": 38.80765566666667, "is_reserved": 0, "is_disabled": 0, "rental_uris": {"android": "https://dc.lft.to/lastmile_qr_scan", "ios": "https://dc.lft.to/lastmile_qr_scan"}, "name": "12abd90bce9bb4241b93cee12f8d10ea", "type": "electric_bike"}, {"fusion_lat": 0.0, "bike_id": "8a83e8a5468835cc0de12a88509960a9", "fusion_lon": 0.0, "lon": -77.0179245, "lat": 38.920915, "is_reserved": 0, "is_disabled": 0, "rental_uris": {"android": "https://dc.lft.to/lastmile_qr_scan", "ios": "https://dc.lft.to/lastmile_qr_scan"}, "name": "8a83e8a5468835cc0de12a88509960a9", "type": "electric_scooter"}, {"fusion_lat": 0.0, "bike_id": "331ba262fbcd7dafd71d0b6ccc9f2b38", "fusion_lon": 0.0, "lon": -77.05126416666667, "lat": 38.9057925, "is_reserved": 0, "is_disabled": 0, "rental_uris": {"android": "https://dc.lft.to/lastmile_qr_scan", "ios": "https://dc.lft.to/lastmile_qr_scan"}, "name": "331ba262fbcd7dafd71d0b6ccc9f2b38", "type": "electric_scooter"}, {"fusion_lat": 0.0, "bike_id": "5837597a1d92c726c41d689cfa0c7d24", "fusion_lon": 0.0, "lon": -77.03436633333334, "lat": 38.918096, "is_reserved": 0, "is_disabled": 0, "rental_uris": {"android": "https://dc.lft.to/lastmile_qr_scan", "ios": "https://dc.lft.to/lastmile_qr_scan"}, "name": "5837597a1d92c726c41d689cfa0c7d24", "type": "electric_scooter"}, {"fusion_lat": 0.0, "bike_id": "df720cc003c43ef824215fd8574826be", "fusion_lon": 0.0, "lon": -77.04670883333333, "lat": 38.89557533333333, "is_reserved": 0, "is_disabled": 0, "rental_uris": {"android": "https://dc.lft.to/lastmile_qr_scan", "ios": "https://dc.lft.to/lastmile_qr_scan"}, "name": "df720cc003c43ef824215fd8574826be", "type": "electric_scooter"}, {"fusion_lat": 0.0, "bike_id": "d9a6ba845a0bd7c55367d063d4e9060c", "fusion_lon": 0.0, "lon": -77.03181916666666, "lat": 38.89967583333333, "is_reserved": 0, "is_disabled": 0, "rental_uris": {"android": "https://dc.lft.to/lastmile_qr_scan", "ios": "https://dc.lft.to/lastmile_qr_scan"}, "name": "d9a6ba845a0bd7c55367d063d4e9060c", "type": "electric_scooter"}, {"fusion_lat": 0.0, "bike_id": "1a991fb1c1d78e62f0ec43a0538d042a", "fusion_lon": 0.0, "lon": -77.0134605, "lat": 38.918926666666664, "is_reserved": 0, "is_disabled": 0, "rental_uris": {"android": "https://dc.lft.to/lastmile_qr_scan", "ios": "https://dc.lft.to/lastmile_qr_scan"}, "name": "1a991fb1c1d78e62f0ec43a0538d042a", "type": "electric_scooter"}, {"fusion_lat": 0.0, "bike_id": "f9f613644d3c2a66695f9eab35797c59", "fusion_lon": 0.0, "lon": -77.0327695, "lat": 38.9286325, "is_reserved": 0, "is_disabled": 0, "rental_uris": {"android": "https://dc.lft.to/lastmile_qr_scan", "ios": "https://dc.lft.to/lastmile_qr_scan"}, "name": "f9f613644d3c2a66695f9eab35797c59", "type": "electric_scooter"}, {"fusion_lat": 0.0, "bike_id": "a44a5a176cc969b91b431d2a6bbcda59", "fusion_lon": 0.0, "lon": -77.005836, "lat": 38.873031166666664, "is_reserved": 0, "is_disabled": 0, "rental_uris": {"android": "https://dc.lft.to/lastmile_qr_scan", "ios": "https://dc.lft.to/lastmile_qr_scan"}, "name": "a44a5a176cc969b91b431d2a6bbcda59", "type": "electric_scooter"}, {"fusion_lat": 0.0, "bike_id": "b61ff275e0de821f5b83bd9058772976", "fusion_lon": 0.0, "lon": -76.988145, "lat": 38.879333333333335, "is_reserved": 0, "is_disabled": 0, "rental_uris": {"android": "https://dc.lft.to/lastmile_qr_scan", "ios": "https://dc.lft.to/lastmile_qr_scan"}, "name": "b61ff275e0de821f5b83bd9058772976", "type": "electric_scooter"}, {"fusion_lat": 0.0, "bike_id": "7b795bdb4ee0665b255ea5a9a2dc79aa", "fusion_lon": 0.0, "lon": -77.067703, "lat": 38.906856166666664, "is_reserved": 0, "is_disabled": 0, "rental_uris": {"android": "https://dc.lft.to/lastmile_qr_scan", "ios": "https://dc.lft.to/lastmile_qr_scan"}, "name": "7b795bdb4ee0665b255ea5a9a2dc79aa", "type": "electric_scooter"}, {"fusion_lat": 0.0, "bike_id": "84cf8534d503bd7a229094fbc6f153d3", "fusion_lon": 0.0, "lon": -76.93530483333333, "lat": 38.8968275, "is_reserved": 0, "is_disabled": 0, "rental_uris": {"android": "https://dc.lft.to/lastmile_qr_scan", "ios": "https://dc.lft.to/lastmile_qr_scan"}, "name": "84cf8534d503bd7a229094fbc6f153d3", "type": "electric_scooter"}, {"fusion_lat": 0.0, "bike_id": "9cb8200fc5daf8d36530c27bd4f5f507", "fusion_lon": 0.0, "lon": -77.02389833333334, "lat": 38.90789866666667, "is_reserved": 0, "is_disabled": 0, "rental_uris": {"android": "https://dc.lft.to/lastmile_qr_scan", "ios": "https://dc.lft.to/lastmile_qr_scan"}, "name": "9cb8200fc5daf8d36530c27bd4f5f507", "type": "electric_scooter"}, {"fusion_lat": 0.0, "bike_id": "a25e304e29062e1a09f0eba3617aa21a", "fusion_lon": 0.0, "lon": -77.01961866666667, "lat": 38.923184666666664, "is_reserved": 0, "is_disabled": 0, "rental_uris": {"android": "https://dc.lft.to/lastmile_qr_scan", "ios": "https://dc.lft.to/lastmile_qr_scan"}, "name": "a25e304e29062e1a09f0eba3617aa21a", "type": "electric_scooter"}, {"fusion_lat": 0.0, "bike_id": "05f5e9e918233de03a7c972ffbb8e1f9", "fusion_lon": 0.0, "lon": -77.01188183333333, "lat": 38.89674766666667, "is_reserved": 0, "is_disabled": 0, "rental_uris": {"android": "https://dc.lft.to/lastmile_qr_scan", "ios": "https://dc.lft.to/lastmile_qr_scan"}, "name": "05f5e9e918233de03a7c972ffbb8e1f9", "type": "electric_scooter"}, {"fusion_lat": 0.0, "bike_id": "7c9ea8169fc8966e463c6a7a8189a9cc", "fusion_lon": 0.0, "lon": -76.9974115, "lat": 39.042367, "is_reserved": 0, "is_disabled": 0, "rental_uris": {"android": "https://dc.lft.to/lastmile_qr_scan", "ios": "https://dc.lft.to/lastmile_qr_scan"}, "name": "7c9ea8169fc8966e463c6a7a8189a9cc", "type": "electric_bike"}, {"fusion_lat": 0.0, "bike_id": "d14463d05c5c92d5efad7a97689c4149", "fusion_lon": 0.0, "lon": -77.007003, "lat": 38.909196, "is_reserved": 0, "is_disabled": 0, "rental_uris": {"android": "https://dc.lft.to/lastmile_qr_scan", "ios": "https://dc.lft.to/lastmile_qr_scan"}, "name": "d14463d05c5c92d5efad7a97689c4149", "type": "electric_scooter"}, {"fusion_lat": 0.0, "bike_id": "ca86c3c00b602266f8bec60dd5412048", "fusion_lon": 0.0, "lon": -77.03447716666666, "lat": 38.90732166666667, "is_reserved": 0, "is_disabled": 0, "rental_uris": {"android": "https://dc.lft.to/lastmile_qr_scan", "ios": "https://dc.lft.to/lastmile_qr_scan"}, "name": "ca86c3c00b602266f8bec60dd5412048", "type": "electric_scooter"}, {"fusion_lat": 0.0, "bike_id": "2a3f761f670518287f49ce779ceebd00", "fusion_lon": 0.0, "lon": -77.04354533333333, "lat": 38.910427, "is_reserved": 0, "is_disabled": 0, "rental_uris": {"android": "https://dc.lft.to/lastmile_qr_scan", "ios": "https://dc.lft.to/lastmile_qr_scan"}, "name": "2a3f761f670518287f49ce779ceebd00", "type": "electric_scooter"}, {"fusion_lat": 0.0, "bike_id": "1afe1e32f48dd6579cb218140ded336b", "fusion_lon": 0.0, "lon": -77.000687, "lat": 38.901473333333335, "is_reserved": 0, "is_disabled": 0, "rental_uris": {"android": "https://dc.lft.to/lastmile_qr_scan", "ios": "https://dc.lft.to/lastmile_qr_scan"}, "name": "1afe1e32f48dd6579cb218140ded336b", "type": "electric_scooter"}, {"fusion_lat": 0.0, "bike_id": "7281372987f9b0f59a53cfae9f76462c", "fusion_lon": 0.0, "lon": -77.05759083333334, "lat": 38.905332333333334, "is_reserved": 0, "is_disabled": 0, "rental_uris": {"android": "https://dc.lft.to/lastmile_qr_scan", "ios": "https://dc.lft.to/lastmile_qr_scan"}, "name": "7281372987f9b0f59a53cfae9f76462c", "type": "electric_scooter"}, {"fusion_lat": 0.0, "bike_id": "e87733988fa302e203ba347489d7ceda", "fusion_lon": 0.0, "lon": -77.04161766666667, "lat": 38.908373166666664, "is_reserved": 0, "is_disabled": 0, "rental_uris": {"android": "https://dc.lft.to/lastmile_qr_scan", "ios": "https://dc.lft.to/lastmile_qr_scan"}, "name": "e87733988fa302e203ba347489d7ceda", "type": "electric_scooter"}, {"fusion_lat": 0.0, "bike_id": "9c0b2a562f6e66f593fe033cbb0fd18e", "fusion_lon": 0.0, "lon": -77.02822133333333, "lat": 38.9508095, "is_reserved": 0, "is_disabled": 0, "rental_uris": {"android": "https://dc.lft.to/lastmile_qr_scan", "ios": "https://dc.lft.to/lastmile_qr_scan"}, "name": "9c0b2a562f6e66f593fe033cbb0fd18e", "type": "electric_scooter"}, {"fusion_lat": 0.0, "bike_id": "43d53e18d913d690d71417cb50c4dfe3", "fusion_lon": 0.0, "lon": -77.0591645, "lat": 38.90564716666667, "is_reserved": 0, "is_disabled": 0, "rental_uris": {"android": "https://dc.lft.to/lastmile_qr_scan", "ios": "https://dc.lft.to/lastmile_qr_scan"}, "name": "43d53e18d913d690d71417cb50c4dfe3", "type": "electric_scooter"}, {"fusion_lat": 0.0, "bike_id": "bd0556790d8726852e457db030b201d2", "fusion_lon": 0.0, "lon": -76.92930466666667, "lat": 38.90275033333333, "is_reserved": 0, "is_disabled": 0, "rental_uris": {"android": "https://dc.lft.to/lastmile_qr_scan", "ios": "https://dc.lft.to/lastmile_qr_scan"}, "name": "bd0556790d8726852e457db030b201d2", "type": "electric_bike"}, {"fusion_lat": 0.0, "bike_id": "2c4289c7db0af6ee18d479ebad0f3ad0", "fusion_lon": 0.0, "lon": -76.94979733333334, "lat": 38.893720333333334, "is_reserved": 0, "is_disabled": 0, "rental_uris": {"android": "https://dc.lft.to/lastmile_qr_scan", "ios": "https://dc.lft.to/lastmile_qr_scan"}, "name": "2c4289c7db0af6ee18d479ebad0f3ad0", "type": "electric_scooter"}, {"fusion_lat": 0.0, "bike_id": "e67de5573a505619a112e43244578024", "fusion_lon": 0.0, "lon": -77.03500566666666, "lat": 38.921496833333336, "is_reserved": 0, "is_disabled": 0, "rental_uris": {"android": "https://dc.lft.to/lastmile_qr_scan", "ios": "https://dc.lft.to/lastmile_qr_scan"}, "name": "e67de5573a505619a112e43244578024", "type": "electric_scooter"}, {"fusion_lat": 0.0, "bike_id": "ed276fdf9af6095a0eda103444eb6fe3", "fusion_lon": 0.0, "lon": -77.02419966666666, "lat": 38.91822466666667, "is_reserved": 0, "is_disabled": 0, "rental_uris": {"android": "https://dc.lft.to/lastmile_qr_scan", "ios": "https://dc.lft.to/lastmile_qr_scan"}, "name": "ed276fdf9af6095a0eda103444eb6fe3", "type": "electric_scooter"}, {"fusion_lat": 0.0, "bike_id": "cfd27d89c1e64be5a9f417f029063ffc", "fusion_lon": 0.0, "lon": -77.06939133333333, "lat": 38.9520725, "is_reserved": 0, "is_disabled": 0, "rental_uris": {"android": "https://dc.lft.to/lastmile_qr_scan", "ios": "https://dc.lft.to/lastmile_qr_scan"}, "name": "cfd27d89c1e64be5a9f417f029063ffc", "type": "electric_scooter"}, {"fusion_lat": 0.0, "bike_id": "1bafca068c2c43ebbc4d59fecaf70919", "fusion_lon": 0.0, "lon": -77.01266433333333, "lat": 38.90005033333333, "is_reserved": 0, "is_disabled": 0, "rental_uris": {"android": "https://dc.lft.to/lastmile_qr_scan", "ios": "https://dc.lft.to/lastmile_qr_scan"}, "name": "1bafca068c2c43ebbc4d59fecaf70919", "type": "electric_scooter"}, {"fusion_lat": 0.0, "bike_id": "811c4614e28d37a9ed334da5bfa7d069", "fusion_lon": 0.0, "lon": -77.04983883333334, "lat": 38.90103966666667, "is_reserved": 0, "is_disabled": 0, "rental_uris": {"android": "https://dc.lft.to/lastmile_qr_scan", "ios": "https://dc.lft.to/lastmile_qr_scan"}, "name": "811c4614e28d37a9ed334da5bfa7d069", "type": "electric_scooter"}, {"fusion_lat": 0.0, "bike_id": "bb6ef603592676f9e55096d737f745da", "fusion_lon": 0.0, "lon": -77.01494733333334, "lat": 38.89227833333333, "is_reserved": 0, "is_disabled": 0, "rental_uris": {"android": "https://dc.lft.to/lastmile_qr_scan", "ios": "https://dc.lft.to/lastmile_qr_scan"}, "name": "bb6ef603592676f9e55096d737f745da", "type": "electric_scooter"}, {"fusion_lat": 0.0, "bike_id": "12fd48393f76e61cb98cfc077ebf1cdf", "fusion_lon": 0.0, "lon": -77.04106283333333, "lat": 38.910326, "is_reserved": 0, "is_disabled": 0, "rental_uris": {"android": "https://dc.lft.to/lastmile_qr_scan", "ios": "https://dc.lft.to/lastmile_qr_scan"}, "name": "12fd48393f76e61cb98cfc077ebf1cdf", "type": "electric_scooter"}, {"fusion_lat": 0.0, "bike_id": "6006d516d79b7759ceada87a458959d1", "fusion_lon": 0.0, "lon": -77.03503066666667, "lat": 38.921429833333335, "is_reserved": 0, "is_disabled": 0, "rental_uris": {"android": "https://dc.lft.to/lastmile_qr_scan", "ios": "https://dc.lft.to/lastmile_qr_scan"}, "name": "6006d516d79b7759ceada87a458959d1", "type": "electric_scooter"}, {"fusion_lat": 0.0, "bike_id": "2ed4328b44077234fa769555406040e0", "fusion_lon": 0.0, "lon": -77.04333583333333, "lat": 38.921794, "is_reserved": 0, "is_disabled": 0, "rental_uris": {"android": "https://dc.lft.to/lastmile_qr_scan", "ios": "https://dc.lft.to/lastmile_qr_scan"}, "name": "2ed4328b44077234fa769555406040e0", "type": "electric_scooter"}, {"fusion_lat": 0.0, "bike_id": "d0a8619fce5fc4d8da43f2fe80bcab11", "fusion_lon": 0.0, "lon": -77.02721866666667, "lat": 38.89975233333333, "is_reserved": 0, "is_disabled": 0, "rental_uris": {"android": "https://dc.lft.to/lastmile_qr_scan", "ios": "https://dc.lft.to/lastmile_qr_scan"}, "name": "d0a8619fce5fc4d8da43f2fe80bcab11", "type": "electric_scooter"}, {"fusion_lat": 0.0, "bike_id": "1c4876482381bdee6048b03d9dedff50", "fusion_lon": 0.0, "lon": -77.02814733333334, "lat": 38.931731666666664, "is_reserved": 0, "is_disabled": 0, "rental_uris": {"android": "https://dc.lft.to/lastmile_qr_scan", "ios": "https://dc.lft.to/lastmile_qr_scan"}, "name": "1c4876482381bdee6048b03d9dedff50", "type": "electric_scooter"}, {"fusion_lat": 0.0, "bike_id": "2f27fc4b5ec7579e4d4d4f324e7afaea", "fusion_lon": 0.0, "lon": -77.02107783333334, "lat": 38.921716833333335, "is_reserved": 0, "is_disabled": 0, "rental_uris": {"android": "https://dc.lft.to/lastmile_qr_scan", "ios": "https://dc.lft.to/lastmile_qr_scan"}, "name": "2f27fc4b5ec7579e4d4d4f324e7afaea", "type": "electric_scooter"}, {"fusion_lat": 0.0, "bike_id": "bb9609a021da1b3b9932b3471b22fead", "fusion_lon": 0.0, "lon": -76.93027866666667, "lat": 38.900119333333336, "is_reserved": 0, "is_disabled": 0, "rental_uris": {"android": "https://dc.lft.to/lastmile_qr_scan", "ios": "https://dc.lft.to/lastmile_qr_scan"}, "name": "bb9609a021da1b3b9932b3471b22fead", "type": "electric_scooter"}, {"fusion_lat": 0.0, "bike_id": "48023c079a5871fd5487bf5cde23afd9", "fusion_lon": 0.0, "lon": -76.9954495, "lat": 38.88367016666667, "is_reserved": 0, "is_disabled": 0, "rental_uris": {"android": "https://dc.lft.to/lastmile_qr_scan", "ios": "https://dc.lft.to/lastmile_qr_scan"}, "name": "48023c079a5871fd5487bf5cde23afd9", "type": "electric_scooter"}, {"fusion_lat": 0.0, "bike_id": "0122fdb11a068bf5a42593cc8040dae3", "fusion_lon": 0.0, "lon": -77.02725166666667, "lat": 38.897273, "is_reserved": 0, "is_disabled": 0, "rental_uris": {"android": "https://dc.lft.to/lastmile_qr_scan", "ios": "https://dc.lft.to/lastmile_qr_scan"}, "name": "0122fdb11a068bf5a42593cc8040dae3", "type": "electric_scooter"}, {"fusion_lat": 0.0, "bike_id": "a43fced0a8e4d1522db26a35b2f9c01b", "fusion_lon": 0.0, "lon": -77.04864033333334, "lat": 38.8928875, "is_reserved": 0, "is_disabled": 0, "rental_uris": {"android": "https://dc.lft.to/lastmile_qr_scan", "ios": "https://dc.lft.to/lastmile_qr_scan"}, "name": "a43fced0a8e4d1522db26a35b2f9c01b", "type": "electric_scooter"}, {"fusion_lat": 0.0, "bike_id": "f4b3716f8052bc6dd8a5142c9225fd48", "fusion_lon": 0.0, "lon": -77.012157, "lat": 38.914362, "is_reserved": 0, "is_disabled": 0, "rental_uris": {"android": "https://dc.lft.to/lastmile_qr_scan", "ios": "https://dc.lft.to/lastmile_qr_scan"}, "name": "f4b3716f8052bc6dd8a5142c9225fd48", "type": "electric_scooter"}, {"fusion_lat": 0.0, "bike_id": "a9254a323b220854d0ab52462c15006f", "fusion_lon": 0.0, "lon": -77.06295283333333, "lat": 38.903924333333336, "is_reserved": 0, "is_disabled": 0, "rental_uris": {"android": "https://dc.lft.to/lastmile_qr_scan", "ios": "https://dc.lft.to/lastmile_qr_scan"}, "name": "a9254a323b220854d0ab52462c15006f", "type": "electric_scooter"}, {"fusion_lat": 0.0, "bike_id": "87fa3b6ae641b30e0ca01c4284d870c6", "fusion_lon": 0.0, "lon": -77.02905166666666, "lat": 38.940254833333334, "is_reserved": 0, "is_disabled": 0, "rental_uris": {"android": "https://dc.lft.to/lastmile_qr_scan", "ios": "https://dc.lft.to/lastmile_qr_scan"}, "name": "87fa3b6ae641b30e0ca01c4284d870c6", "type": "electric_scooter"}, {"fusion_lat": 0.0, "bike_id": "b18cb6fd2015329327d6bc516791ea9a", "fusion_lon": 0.0, "lon": -77.025612, "lat": 38.93098416666667, "is_reserved": 0, "is_disabled": 0, "rental_uris": {"android": "https://dc.lft.to/lastmile_qr_scan", "ios": "https://dc.lft.to/lastmile_qr_scan"}, "name": "b18cb6fd2015329327d6bc516791ea9a", "type": "electric_scooter"}, {"fusion_lat": 0.0, "bike_id": "0e124cbd89ba5946c1faaecdd43ccb2e", "fusion_lon": 0.0, "lon": -77.02788383333333, "lat": 38.961318, "is_reserved": 0, "is_disabled": 0, "rental_uris": {"android": "https://dc.lft.to/lastmile_qr_scan", "ios": "https://dc.lft.to/lastmile_qr_scan"}, "name": "0e124cbd89ba5946c1faaecdd43ccb2e", "type": "electric_scooter"}, {"fusion_lat": 0.0, "bike_id": "2fddf7319a052f02a5520c09ccca92db", "fusion_lon": 0.0, "lon": -77.0274955, "lat": 38.9418395, "is_reserved": 0, "is_disabled": 0, "rental_uris": {"android": "https://dc.lft.to/lastmile_qr_scan", "ios": "https://dc.lft.to/lastmile_qr_scan"}, "name": "2fddf7319a052f02a5520c09ccca92db", "type": "electric_scooter"}, {"fusion_lat": 0.0, "bike_id": "75caf2d070eec24125c689ae47cb880e", "fusion_lon": 0.0, "lon": -76.99482333333333, "lat": 38.89739866666667, "is_reserved": 0, "is_disabled": 0, "rental_uris": {"android": "https://dc.lft.to/lastmile_qr_scan", "ios": "https://dc.lft.to/lastmile_qr_scan"}, "name": "75caf2d070eec24125c689ae47cb880e", "type": "electric_scooter"}, {"fusion_lat": 0.0, "bike_id": "bbb7fb681f92b4f99d4207700f0742b1", "fusion_lon": 0.0, "lon": -76.93876466666667, "lat": 38.956321833333334, "is_reserved": 0, "is_disabled": 0, "rental_uris": {"android": "https://dc.lft.to/lastmile_qr_scan", "ios": "https://dc.lft.to/lastmile_qr_scan"}, "name": "bbb7fb681f92b4f99d4207700f0742b1", "type": "electric_bike"}, {"fusion_lat": 0.0, "bike_id": "f5384f2ac507d7ee27e30629203bb02f", "fusion_lon": 0.0, "lon": -76.98524866666666, "lat": 38.866861166666666, "is_reserved": 0, "is_disabled": 0, "rental_uris": {"android": "https://dc.lft.to/lastmile_qr_scan", "ios": "https://dc.lft.to/lastmile_qr_scan"}, "name": "f5384f2ac507d7ee27e30629203bb02f", "type": "electric_scooter"}, {"fusion_lat": 0.0, "bike_id": "0b9a7ae12d506ad03da8ba11a5050d3c", "fusion_lon": 0.0, "lon": -77.01329516666667, "lat": 38.90030433333333, "is_reserved": 0, "is_disabled": 0, "rental_uris": {"android": "https://dc.lft.to/lastmile_qr_scan", "ios": "https://dc.lft.to/lastmile_qr_scan"}, "name": "0b9a7ae12d506ad03da8ba11a5050d3c", "type": "electric_scooter"}, {"fusion_lat": 0.0, "bike_id": "bbc37df5a9361db13785284b793906ca", "fusion_lon": 0.0, "lon": -77.0364945, "lat": 38.90274266666667, "is_reserved": 0, "is_disabled": 0, "rental_uris": {"android": "https://dc.lft.to/lastmile_qr_scan", "ios": "https://dc.lft.to/lastmile_qr_scan"}, "name": "bbc37df5a9361db13785284b793906ca", "type": "electric_scooter"}, {"fusion_lat": 0.0, "bike_id": "22ddca83e817862017dee42bbe384293", "fusion_lon": 0.0, "lon": -77.04163916666667, "lat": 38.920086, "is_reserved": 0, "is_disabled": 0, "rental_uris": {"android": "https://dc.lft.to/lastmile_qr_scan", "ios": "https://dc.lft.to/lastmile_qr_scan"}, "name": "22ddca83e817862017dee42bbe384293", "type": "electric_scooter"}, {"fusion_lat": 0.0, "bike_id": "65fb27c2f4f763a826df5d142a6d668d", "fusion_lon": 0.0, "lon": -77.01752483333334, "lat": 38.877197333333335, "is_reserved": 0, "is_disabled": 0, "rental_uris": {"android": "https://dc.lft.to/lastmile_qr_scan", "ios": "https://dc.lft.to/lastmile_qr_scan"}, "name": "65fb27c2f4f763a826df5d142a6d668d", "type": "electric_scooter"}, {"fusion_lat": 0.0, "bike_id": "c1a4d31421143b92b3888259ed3b244a", "fusion_lon": 0.0, "lon": -77.027005, "lat": 38.926594333333334, "is_reserved": 0, "is_disabled": 0, "rental_uris": {"android": "https://dc.lft.to/lastmile_qr_scan", "ios": "https://dc.lft.to/lastmile_qr_scan"}, "name": "c1a4d31421143b92b3888259ed3b244a", "type": "electric_scooter"}, {"fusion_lat": 0.0, "bike_id": "f4a42c7d8d728e8f2f4ab33d8ecd8b57", "fusion_lon": 0.0, "lon": -77.03648283333334, "lat": 38.9238255, "is_reserved": 0, "is_disabled": 0, "rental_uris": {"android": "https://dc.lft.to/lastmile_qr_scan", "ios": "https://dc.lft.to/lastmile_qr_scan"}, "name": "f4a42c7d8d728e8f2f4ab33d8ecd8b57", "type": "electric_scooter"}, {"fusion_lat": 0.0, "bike_id": "b51df4d2f525652720834f5918f767c6", "fusion_lon": 0.0, "lon": -77.03813133333334, "lat": 38.92174966666666, "is_reserved": 0, "is_disabled": 0, "rental_uris": {"android": "https://dc.lft.to/lastmile_qr_scan", "ios": "https://dc.lft.to/lastmile_qr_scan"}, "name": "b51df4d2f525652720834f5918f767c6", "type": "electric_scooter"}, {"fusion_lat": 0.0, "bike_id": "15a5316d3741d56bb4e445ce5ab3b6d3", "fusion_lon": 0.0, "lon": -77.02271066666667, "lat": 38.92483216666667, "is_reserved": 0, "is_disabled": 0, "rental_uris": {"android": "https://dc.lft.to/lastmile_qr_scan", "ios": "https://dc.lft.to/lastmile_qr_scan"}, "name": "15a5316d3741d56bb4e445ce5ab3b6d3", "type": "electric_scooter"}, {"fusion_lat": 0.0, "bike_id": "23a89d6f8b461a42e29040fe73a90d4f", "fusion_lon": 0.0, "lon": -76.9650855, "lat": 38.87647283333333, "is_reserved": 0, "is_disabled": 0, "rental_uris": {"android": "https://dc.lft.to/lastmile_qr_scan", "ios": "https://dc.lft.to/lastmile_qr_scan"}, "name": "23a89d6f8b461a42e29040fe73a90d4f", "type": "electric_scooter"}, {"fusion_lat": 0.0, "bike_id": "2a82b27edb20c05d6d1c7a7884e1231c", "fusion_lon": 0.0, "lon": -77.0271995, "lat": 38.89722616666667, "is_reserved": 0, "is_disabled": 0, "rental_uris": {"android": "https://dc.lft.to/lastmile_qr_scan", "ios": "https://dc.lft.to/lastmile_qr_scan"}, "name": "2a82b27edb20c05d6d1c7a7884e1231c", "type": "electric_scooter"}, {"fusion_lat": 0.0, "bike_id": "38cc4be6d4fa14fcc7cbd3387173a3c8", "fusion_lon": 0.0, "lon": -77.02783366666667, "lat": 38.931924, "is_reserved": 0, "is_disabled": 0, "rental_uris": {"android": "https://dc.lft.to/lastmile_qr_scan", "ios": "https://dc.lft.to/lastmile_qr_scan"}, "name": "38cc4be6d4fa14fcc7cbd3387173a3c8", "type": "electric_scooter"}, {"fusion_lat": 0.0, "bike_id": "d770524194b4209fd58078f2e4d2904f", "fusion_lon": 0.0, "lon": -77.02798833333334, "lat": 38.91214683333333, "is_reserved": 0, "is_disabled": 0, "rental_uris": {"android": "https://dc.lft.to/lastmile_qr_scan", "ios": "https://dc.lft.to/lastmile_qr_scan"}, "name": "d770524194b4209fd58078f2e4d2904f", "type": "electric_scooter"}, {"fusion_lat": 0.0, "bike_id": "bf31d8fb15d59961bbb9aa292f3a85b3", "fusion_lon": 0.0, "lon": -76.99037083333333, "lat": 38.902878666666666, "is_reserved": 0, "is_disabled": 0, "rental_uris": {"android": "https://dc.lft.to/lastmile_qr_scan", "ios": "https://dc.lft.to/lastmile_qr_scan"}, "name": "bf31d8fb15d59961bbb9aa292f3a85b3", "type": "electric_scooter"}, {"fusion_lat": 0.0, "bike_id": "0f2bee6bacb3a042b139b1ea086c2751", "fusion_lon": 0.0, "lon": -77.038604, "lat": 38.932412, "is_reserved": 0, "is_disabled": 0, "rental_uris": {"android": "https://dc.lft.to/lastmile_qr_scan", "ios": "https://dc.lft.to/lastmile_qr_scan"}, "name": "0f2bee6bacb3a042b139b1ea086c2751", "type": "electric_scooter"}, {"fusion_lat": 0.0, "bike_id": "6973193bea32f90cf5930f557ed8f284", "fusion_lon": 0.0, "lon": -77.02788883333334, "lat": 38.953901, "is_reserved": 0, "is_disabled": 0, "rental_uris": {"android": "https://dc.lft.to/lastmile_qr_scan", "ios": "https://dc.lft.to/lastmile_qr_scan"}, "name": "6973193bea32f90cf5930f557ed8f284", "type": "electric_scooter"}, {"fusion_lat": 0.0, "bike_id": "89e5b0666666bc5084463ae04c1c4cc8", "fusion_lon": 0.0, "lon": -77.02015466666667, "lat": 38.914049, "is_reserved": 0, "is_disabled": 0, "rental_uris": {"android": "https://dc.lft.to/lastmile_qr_scan", "ios": "https://dc.lft.to/lastmile_qr_scan"}, "name": "89e5b0666666bc5084463ae04c1c4cc8", "type": "electric_scooter"}, {"fusion_lat": 0.0, "bike_id": "25f687ec4760fb9ffbab75f5c6a5a1ea", "fusion_lon": 0.0, "lon": -77.04069816666667, "lat": 38.917543333333334, "is_reserved": 0, "is_disabled": 0, "rental_uris": {"android": "https://dc.lft.to/lastmile_qr_scan", "ios": "https://dc.lft.to/lastmile_qr_scan"}, "name": "25f687ec4760fb9ffbab75f5c6a5a1ea", "type": "electric_scooter"}, {"fusion_lat": 0.0, "bike_id": "2f3de42925a366a5415e9b3d59460b9f", "fusion_lon": 0.0, "lon": -77.00731383333333, "lat": 38.92524683333333, "is_reserved": 0, "is_disabled": 0, "rental_uris": {"android": "https://dc.lft.to/lastmile_qr_scan", "ios": "https://dc.lft.to/lastmile_qr_scan"}, "name": "2f3de42925a366a5415e9b3d59460b9f", "type": "electric_scooter"}, {"fusion_lat": 0.0, "bike_id": "42ab97c4d7860327f766a9b07f87798e", "fusion_lon": 0.0, "lon": -77.02812516666667, "lat": 38.88719833333333, "is_reserved": 0, "is_disabled": 0, "rental_uris": {"android": "https://dc.lft.to/lastmile_qr_scan", "ios": "https://dc.lft.to/lastmile_qr_scan"}, "name": "42ab97c4d7860327f766a9b07f87798e", "type": "electric_scooter"}, {"fusion_lat": 0.0, "bike_id": "e2cf4de07faaa47f24725cf6ebac507d", "fusion_lon": 0.0, "lon": -77.04196466666667, "lat": 38.920516166666665, "is_reserved": 0, "is_disabled": 0, "rental_uris": {"android": "https://dc.lft.to/lastmile_qr_scan", "ios": "https://dc.lft.to/lastmile_qr_scan"}, "name": "e2cf4de07faaa47f24725cf6ebac507d", "type": "electric_scooter"}, {"fusion_lat": 0.0, "bike_id": "ad8fd8e68e9971e50cfbc30e7b2cd174", "fusion_lon": 0.0, "lon": -76.95965766666667, "lat": 38.94803183333333, "is_reserved": 0, "is_disabled": 0, "rental_uris": {"android": "https://dc.lft.to/lastmile_qr_scan", "ios": "https://dc.lft.to/lastmile_qr_scan"}, "name": "ad8fd8e68e9971e50cfbc30e7b2cd174", "type": "electric_bike"}, {"fusion_lat": 0.0, "bike_id": "2c3c3c1ef387db8b4870f1d0c4ba846a", "fusion_lon": 0.0, "lon": -77.02233266666667, "lat": 38.892214333333335, "is_reserved": 0, "is_disabled": 0, "rental_uris": {"android": "https://dc.lft.to/lastmile_qr_scan", "ios": "https://dc.lft.to/lastmile_qr_scan"}, "name": "2c3c3c1ef387db8b4870f1d0c4ba846a", "type": "electric_scooter"}, {"fusion_lat": 0.0, "bike_id": "71928c9019e5fb6bf197d889b851b40a", "fusion_lon": 0.0, "lon": -77.22797816666667, "lat": 38.91014416666667, "is_reserved": 0, "is_disabled": 0, "rental_uris": {"android": "https://dc.lft.to/lastmile_qr_scan", "ios": "https://dc.lft.to/lastmile_qr_scan"}, "name": "71928c9019e5fb6bf197d889b851b40a", "type": "electric_bike"}, {"fusion_lat": 0.0, "bike_id": "bbead9f47f70e09a0e66658d4591fdf2", "fusion_lon": 0.0, "lon": -77.034187, "lat": 38.919248, "is_reserved": 0, "is_disabled": 0, "rental_uris": {"android": "https://dc.lft.to/lastmile_qr_scan", "ios": "https://dc.lft.to/lastmile_qr_scan"}, "name": "bbead9f47f70e09a0e66658d4591fdf2", "type": "electric_scooter"}, {"fusion_lat": 0.0, "bike_id": "6f43f2418b784febdbb464e642e67255", "fusion_lon": 0.0, "lon": -77.02958433333333, "lat": 38.923096, "is_reserved": 0, "is_disabled": 0, "rental_uris": {"android": "https://dc.lft.to/lastmile_qr_scan", "ios": "https://dc.lft.to/lastmile_qr_scan"}, "name": "6f43f2418b784febdbb464e642e67255", "type": "electric_scooter"}, {"fusion_lat": 0.0, "bike_id": "2ac81ecd167d74848a4f042da47be48f", "fusion_lon": 0.0, "lon": -77.23311883333334, "lat": 38.872770333333335, "is_reserved": 0, "is_disabled": 0, "rental_uris": {"android": "https://dc.lft.to/lastmile_qr_scan", "ios": "https://dc.lft.to/lastmile_qr_scan"}, "name": "2ac81ecd167d74848a4f042da47be48f", "type": "electric_bike"}, {"fusion_lat": 0.0, "bike_id": "4720da50eb1b72ee2f0379563cdd4297", "fusion_lon": 0.0, "lon": -77.02696966666667, "lat": 38.90666566666667, "is_reserved": 0, "is_disabled": 0, "rental_uris": {"android": "https://dc.lft.to/lastmile_qr_scan", "ios": "https://dc.lft.to/lastmile_qr_scan"}, "name": "4720da50eb1b72ee2f0379563cdd4297", "type": "electric_scooter"}, {"fusion_lat": 0.0, "bike_id": "446e31901de86010707da0327471f746", "fusion_lon": 0.0, "lon": -77.03195533333333, "lat": 38.91474, "is_reserved": 0, "is_disabled": 0, "rental_uris": {"android": "https://dc.lft.to/lastmile_qr_scan", "ios": "https://dc.lft.to/lastmile_qr_scan"}, "name": "446e31901de86010707da0327471f746", "type": "electric_scooter"}, {"fusion_lat": 0.0, "bike_id": "a226d5fc47d8d18cf16bddde62dacea0", "fusion_lon": 0.0, "lon": -77.04648283333333, "lat": 39.0550095, "is_reserved": 0, "is_disabled": 0, "rental_uris": {"android": "https://dc.lft.to/lastmile_qr_scan", "ios": "https://dc.lft.to/lastmile_qr_scan"}, "name": "a226d5fc47d8d18cf16bddde62dacea0", "type": "electric_bike"}, {"fusion_lat": 0.0, "bike_id": "5fd7ec909349521b5a19d4e6ddf7c858", "fusion_lon": 0.0, "lon": -77.02479233333334, "lat": 38.9168465, "is_reserved": 0, "is_disabled": 0, "rental_uris": {"android": "https://dc.lft.to/lastmile_qr_scan", "ios": "https://dc.lft.to/lastmile_qr_scan"}, "name": "5fd7ec909349521b5a19d4e6ddf7c858", "type": "electric_scooter"}, {"fusion_lat": 0.0, "bike_id": "499560e591f8c63a1c7f11dc5de281ac", "fusion_lon": 0.0, "lon": -76.88399833333334, "lat": 38.931704333333336, "is_reserved": 0, "is_disabled": 0, "rental_uris": {"android": "https://dc.lft.to/lastmile_qr_scan", "ios": "https://dc.lft.to/lastmile_qr_scan"}, "name": "499560e591f8c63a1c7f11dc5de281ac", "type": "electric_bike"}, {"fusion_lat": 0.0, "bike_id": "d6160d73ea39b308d7cb462bc03a3d73", "fusion_lon": 0.0, "lon": -77.0524735, "lat": 38.927323, "is_reserved": 0, "is_disabled": 0, "rental_uris": {"android": "https://dc.lft.to/lastmile_qr_scan", "ios": "https://dc.lft.to/lastmile_qr_scan"}, "name": "d6160d73ea39b308d7cb462bc03a3d73", "type": "electric_scooter"}, {"fusion_lat": 0.0, "bike_id": "887bf21b992c553cf23052628ef026c3", "fusion_lon": 0.0, "lon": -77.060339, "lat": 38.933598, "is_reserved": 0, "is_disabled": 0, "rental_uris": {"android": "https://dc.lft.to/lastmile_qr_scan", "ios": "https://dc.lft.to/lastmile_qr_scan"}, "name": "887bf21b992c553cf23052628ef026c3", "type": "electric_scooter"}, {"fusion_lat": 0.0, "bike_id": "e3c6b38d24263d0ab4dfed438b7edfb8", "fusion_lon": 0.0, "lon": -77.02948933333333, "lat": 38.88501083333333, "is_reserved": 0, "is_disabled": 0, "rental_uris": {"android": "https://dc.lft.to/lastmile_qr_scan", "ios": "https://dc.lft.to/lastmile_qr_scan"}, "name": "e3c6b38d24263d0ab4dfed438b7edfb8", "type": "electric_scooter"}, {"fusion_lat": 0.0, "bike_id": "e4f7ee2536f11c107d9fd436a3c41ecc", "fusion_lon": 0.0, "lon": -77.038791, "lat": 38.94872216666667, "is_reserved": 0, "is_disabled": 0, "rental_uris": {"android": "https://dc.lft.to/lastmile_qr_scan", "ios": "https://dc.lft.to/lastmile_qr_scan"}, "name": "e4f7ee2536f11c107d9fd436a3c41ecc", "type": "electric_scooter"}, {"fusion_lat": 0.0, "bike_id": "a8953e560676aed42ece2044ea5652a1", "fusion_lon": 0.0, "lon": -76.95650833333333, "lat": 38.89623666666667, "is_reserved": 0, "is_disabled": 0, "rental_uris": {"android": "https://dc.lft.to/lastmile_qr_scan", "ios": "https://dc.lft.to/lastmile_qr_scan"}, "name": "a8953e560676aed42ece2044ea5652a1", "type": "electric_scooter"}, {"fusion_lat": 0.0, "bike_id": "79129e71f351d936cce81e27eacf43af", "fusion_lon": 0.0, "lon": -77.187376, "lat": 38.893519833333336, "is_reserved": 0, "is_disabled": 0, "rental_uris": {"android": "https://dc.lft.to/lastmile_qr_scan", "ios": "https://dc.lft.to/lastmile_qr_scan"}, "name": "79129e71f351d936cce81e27eacf43af", "type": "electric_bike"}, {"fusion_lat": 0.0, "bike_id": "71fd15c78a4b454ea3f5b1be17cfc15c", "fusion_lon": 0.0, "lon": -77.002817, "lat": 38.91167766666667, "is_reserved": 0, "is_disabled": 0, "rental_uris": {"android": "https://dc.lft.to/lastmile_qr_scan", "ios": "https://dc.lft.to/lastmile_qr_scan"}, "name": "71fd15c78a4b454ea3f5b1be17cfc15c", "type": "electric_bike"}, {"fusion_lat": 0.0, "bike_id": "abd8e57582cf7eec8d40208fe035b29e", "fusion_lon": 0.0, "lon": -77.03332766666666, "lat": 38.903975333333335, "is_reserved": 0, "is_disabled": 0, "rental_uris": {"android": "https://dc.lft.to/lastmile_qr_scan", "ios": "https://dc.lft.to/lastmile_qr_scan"}, "name": "abd8e57582cf7eec8d40208fe035b29e", "type": "electric_scooter"}, {"fusion_lat": 0.0, "bike_id": "78d7bfc54a6e99d4f898c6e186ae6126", "fusion_lon": 0.0, "lon": -77.18559833333333, "lat": 38.929640166666665, "is_reserved": 0, "is_disabled": 0, "rental_uris": {"android": "https://dc.lft.to/lastmile_qr_scan", "ios": "https://dc.lft.to/lastmile_qr_scan"}, "name": "78d7bfc54a6e99d4f898c6e186ae6126", "type": "electric_bike"}, {"fusion_lat": 0.0, "bike_id": "ef25cf8095320035f2dbeee582d546a2", "fusion_lon": 0.0, "lon": -77.02463683333333, "lat": 38.941991333333334, "is_reserved": 0, "is_disabled": 0, "rental_uris": {"android": "https://dc.lft.to/lastmile_qr_scan", "ios": "https://dc.lft.to/lastmile_qr_scan"}, "name": "ef25cf8095320035f2dbeee582d546a2", "type": "electric_scooter"}, {"fusion_lat": 0.0, "bike_id": "b9bdecaedd331694aaa058c5ee23ec10", "fusion_lon": 0.0, "lon": -77.08068116666666, "lat": 39.052818333333335, "is_reserved": 0, "is_disabled": 0, "rental_uris": {"android": "https://dc.lft.to/lastmile_qr_scan", "ios": "https://dc.lft.to/lastmile_qr_scan"}, "name": "b9bdecaedd331694aaa058c5ee23ec10", "type": "electric_bike"}, {"fusion_lat": 0.0, "bike_id": "952d8eee0d4b55aeb3a11aacfb38b1fe", "fusion_lon": 0.0, "lon": -77.032712, "lat": 38.916452666666665, "is_reserved": 0, "is_disabled": 0, "rental_uris": {"android": "https://dc.lft.to/lastmile_qr_scan", "ios": "https://dc.lft.to/lastmile_qr_scan"}, "name": "952d8eee0d4b55aeb3a11aacfb38b1fe", "type": "electric_scooter"}, {"fusion_lat": 0.0, "bike_id": "d972d53bbe06d403b1d55d92075b0be3", "fusion_lon": 0.0, "lon": -77.04609066666667, "lat": 38.92054783333333, "is_reserved": 0, "is_disabled": 0, "rental_uris": {"android": "https://dc.lft.to/lastmile_qr_scan", "ios": "https://dc.lft.to/lastmile_qr_scan"}, "name": "d972d53bbe06d403b1d55d92075b0be3", "type": "electric_scooter"}, {"fusion_lat": 0.0, "bike_id": "5fac86daf4d9589f316948d311a0c977", "fusion_lon": 0.0, "lon": -77.02807316666667, "lat": 38.90046516666666, "is_reserved": 0, "is_disabled": 0, "rental_uris": {"android": "https://dc.lft.to/lastmile_qr_scan", "ios": "https://dc.lft.to/lastmile_qr_scan"}, "name": "5fac86daf4d9589f316948d311a0c977", "type": "electric_scooter"}, {"fusion_lat": 0.0, "bike_id": "af64d4535f7bfb83c4fba636ea83e72d", "fusion_lon": 0.0, "lon": -76.99838133333333, "lat": 38.9048955, "is_reserved": 0, "is_disabled": 0, "rental_uris": {"android": "https://dc.lft.to/lastmile_qr_scan", "ios": "https://dc.lft.to/lastmile_qr_scan"}, "name": "af64d4535f7bfb83c4fba636ea83e72d", "type": "electric_scooter"}, {"fusion_lat": 0.0, "bike_id": "2b14b1e087e534c0c835181e36ce2185", "fusion_lon": 0.0, "lon": -76.98614483333333, "lat": 38.882888, "is_reserved": 0, "is_disabled": 0, "rental_uris": {"android": "https://dc.lft.to/lastmile_qr_scan", "ios": "https://dc.lft.to/lastmile_qr_scan"}, "name": "2b14b1e087e534c0c835181e36ce2185", "type": "electric_scooter"}, {"fusion_lat": 0.0, "bike_id": "287a240136dbf55b34c63658d275bcf9", "fusion_lon": 0.0, "lon": -77.02841966666666, "lat": 38.887443833333336, "is_reserved": 0, "is_disabled": 0, "rental_uris": {"android": "https://dc.lft.to/lastmile_qr_scan", "ios": "https://dc.lft.to/lastmile_qr_scan"}, "name": "287a240136dbf55b34c63658d275bcf9", "type": "electric_scooter"}, {"fusion_lat": 0.0, "bike_id": "253bb2cc347fc3c1d6ef095ae7f59fa6", "fusion_lon": 0.0, "lon": -77.04057783333333, "lat": 38.91877916666667, "is_reserved": 0, "is_disabled": 0, "rental_uris": {"android": "https://dc.lft.to/lastmile_qr_scan", "ios": "https://dc.lft.to/lastmile_qr_scan"}, "name": "253bb2cc347fc3c1d6ef095ae7f59fa6", "type": "electric_scooter"}, {"fusion_lat": 0.0, "bike_id": "cc707e565355c1f20d9d884af528a8be", "fusion_lon": 0.0, "lon": -77.065154, "lat": 38.90396716666667, "is_reserved": 0, "is_disabled": 0, "rental_uris": {"android": "https://dc.lft.to/lastmile_qr_scan", "ios": "https://dc.lft.to/lastmile_qr_scan"}, "name": "cc707e565355c1f20d9d884af528a8be", "type": "electric_scooter"}, {"fusion_lat": 0.0, "bike_id": "69c5071846a01a6794863afcc0d90c45", "fusion_lon": 0.0, "lon": -77.03200883333334, "lat": 38.9075585, "is_reserved": 0, "is_disabled": 0, "rental_uris": {"android": "https://dc.lft.to/lastmile_qr_scan", "ios": "https://dc.lft.to/lastmile_qr_scan"}, "name": "69c5071846a01a6794863afcc0d90c45", "type": "electric_scooter"}, {"fusion_lat": 0.0, "bike_id": "3d23984d171b342fa6ae2b0348c00f16", "fusion_lon": 0.0, "lon": -77.0264655, "lat": 38.9310095, "is_reserved": 0, "is_disabled": 0, "rental_uris": {"android": "https://dc.lft.to/lastmile_qr_scan", "ios": "https://dc.lft.to/lastmile_qr_scan"}, "name": "3d23984d171b342fa6ae2b0348c00f16", "type": "electric_scooter"}, {"fusion_lat": 0.0, "bike_id": "9de93d371c0404392d426434b676ac38", "fusion_lon": 0.0, "lon": -77.02749766666666, "lat": 38.957848166666665, "is_reserved": 0, "is_disabled": 0, "rental_uris": {"android": "https://dc.lft.to/lastmile_qr_scan", "ios": "https://dc.lft.to/lastmile_qr_scan"}, "name": "9de93d371c0404392d426434b676ac38", "type": "electric_bike"}, {"fusion_lat": 0.0, "bike_id": "f32b45fd792ee1783861ee253dbfc406", "fusion_lon": 0.0, "lon": -77.00218583333333, "lat": 38.89744983333333, "is_reserved": 0, "is_disabled": 0, "rental_uris": {"android": "https://dc.lft.to/lastmile_qr_scan", "ios": "https://dc.lft.to/lastmile_qr_scan"}, "name": "f32b45fd792ee1783861ee253dbfc406", "type": "electric_scooter"}, {"fusion_lat": 0.0, "bike_id": "06bde666b908462361a0fd113dea4396", "fusion_lon": 0.0, "lon": -77.03261316666666, "lat": 38.9388415, "is_reserved": 0, "is_disabled": 0, "rental_uris": {"android": "https://dc.lft.to/lastmile_qr_scan", "ios": "https://dc.lft.to/lastmile_qr_scan"}, "name": "06bde666b908462361a0fd113dea4396", "type": "electric_scooter"}, {"fusion_lat": 0.0, "bike_id": "d479a19936af3b43c8de6e2f4bde00ba", "fusion_lon": 0.0, "lon": -77.032608, "lat": 38.92536783333333, "is_reserved": 0, "is_disabled": 0, "rental_uris": {"android": "https://dc.lft.to/lastmile_qr_scan", "ios": "https://dc.lft.to/lastmile_qr_scan"}, "name": "d479a19936af3b43c8de6e2f4bde00ba", "type": "electric_scooter"}, {"fusion_lat": 0.0, "bike_id": "cb9b1aa943a2607e5c580d05cf78d773", "fusion_lon": 0.0, "lon": -76.99928416666667, "lat": 38.84313516666667, "is_reserved": 0, "is_disabled": 0, "rental_uris": {"android": "https://dc.lft.to/lastmile_qr_scan", "ios": "https://dc.lft.to/lastmile_qr_scan"}, "name": "cb9b1aa943a2607e5c580d05cf78d773", "type": "electric_scooter"}, {"fusion_lat": 0.0, "bike_id": "eb0302a455c477be8c3a1d9d090d35e1", "fusion_lon": 0.0, "lon": -77.034194, "lat": 38.9192435, "is_reserved": 0, "is_disabled": 0, "rental_uris": {"android": "https://dc.lft.to/lastmile_qr_scan", "ios": "https://dc.lft.to/lastmile_qr_scan"}, "name": "eb0302a455c477be8c3a1d9d090d35e1", "type": "electric_scooter"}, {"fusion_lat": 0.0, "bike_id": "a6331aee75039939e5fb33d8e3393488", "fusion_lon": 0.0, "lon": -77.02311483333334, "lat": 38.90145416666667, "is_reserved": 0, "is_disabled": 0, "rental_uris": {"android": "https://dc.lft.to/lastmile_qr_scan", "ios": "https://dc.lft.to/lastmile_qr_scan"}, "name": "a6331aee75039939e5fb33d8e3393488", "type": "electric_scooter"}, {"fusion_lat": 0.0, "bike_id": "06ff96643a9ade4d47a208cec28be89b", "fusion_lon": 0.0, "lon": -77.061001, "lat": 38.90533083333333, "is_reserved": 0, "is_disabled": 0, "rental_uris": {"android": "https://dc.lft.to/lastmile_qr_scan", "ios": "https://dc.lft.to/lastmile_qr_scan"}, "name": "06ff96643a9ade4d47a208cec28be89b", "type": "electric_scooter"}, {"fusion_lat": 0.0, "bike_id": "332a45a59e9320abe8ab5660615021c2", "fusion_lon": 0.0, "lon": -77.03244216666667, "lat": 38.919911666666664, "is_reserved": 0, "is_disabled": 0, "rental_uris": {"android": "https://dc.lft.to/lastmile_qr_scan", "ios": "https://dc.lft.to/lastmile_qr_scan"}, "name": "332a45a59e9320abe8ab5660615021c2", "type": "electric_scooter"}, {"fusion_lat": 0.0, "bike_id": "04f0ec763bca370c64625db6b04a4550", "fusion_lon": 0.0, "lon": -77.03518416666667, "lat": 38.916061, "is_reserved": 0, "is_disabled": 0, "rental_uris": {"android": "https://dc.lft.to/lastmile_qr_scan", "ios": "https://dc.lft.to/lastmile_qr_scan"}, "name": "04f0ec763bca370c64625db6b04a4550", "type": "electric_scooter"}, {"fusion_lat": 0.0, "bike_id": "a23d46776e090cf39019243a2a2d335f", "fusion_lon": 0.0, "lon": -77.0060115, "lat": 38.87184366666666, "is_reserved": 0, "is_disabled": 0, "rental_uris": {"android": "https://dc.lft.to/lastmile_qr_scan", "ios": "https://dc.lft.to/lastmile_qr_scan"}, "name": "a23d46776e090cf39019243a2a2d335f", "type": "electric_scooter"}, {"fusion_lat": 0.0, "bike_id": "3239f9716746f455d42151cc319ef6e0", "fusion_lon": 0.0, "lon": -77.01482866666667, "lat": 38.9141265, "is_reserved": 0, "is_disabled": 0, "rental_uris": {"android": "https://dc.lft.to/lastmile_qr_scan", "ios": "https://dc.lft.to/lastmile_qr_scan"}, "name": "3239f9716746f455d42151cc319ef6e0", "type": "electric_scooter"}, {"fusion_lat": 0.0, "bike_id": "030e10f1b09533adfe8f907f27a0548f", "fusion_lon": 0.0, "lon": -77.04135333333333, "lat": 38.92139066666667, "is_reserved": 0, "is_disabled": 0, "rental_uris": {"android": "https://dc.lft.to/lastmile_qr_scan", "ios": "https://dc.lft.to/lastmile_qr_scan"}, "name": "030e10f1b09533adfe8f907f27a0548f", "type": "electric_scooter"}, {"fusion_lat": 0.0, "bike_id": "cc459099c23afa2957e7c086dffd278c", "fusion_lon": 0.0, "lon": -77.020561, "lat": 38.957601, "is_reserved": 0, "is_disabled": 0, "rental_uris": {"android": "https://dc.lft.to/lastmile_qr_scan", "ios": "https://dc.lft.to/lastmile_qr_scan"}, "name": "cc459099c23afa2957e7c086dffd278c", "type": "electric_bike"}, {"fusion_lat": 0.0, "bike_id": "c1feaf65d1a3a4883f390e8d38eaa6c9", "fusion_lon": 0.0, "lon": -77.1144435, "lat": 38.882032833333334, "is_reserved": 0, "is_disabled": 0, "rental_uris": {"android": "https://dc.lft.to/lastmile_qr_scan", "ios": "https://dc.lft.to/lastmile_qr_scan"}, "name": "c1feaf65d1a3a4883f390e8d38eaa6c9", "type": "electric_bike"}, {"fusion_lat": 0.0, "bike_id": "bfe037f22fa006dcfe1c7cc5e2833d46", "fusion_lon": 0.0, "lon": -77.053687, "lat": 38.9275675, "is_reserved": 0, "is_disabled": 0, "rental_uris": {"android": "https://dc.lft.to/lastmile_qr_scan", "ios": "https://dc.lft.to/lastmile_qr_scan"}, "name": "bfe037f22fa006dcfe1c7cc5e2833d46", "type": "electric_scooter"}, {"fusion_lat": 0.0, "bike_id": "136715b00d6336b3d58a3bf01d0c5b39", "fusion_lon": 0.0, "lon": -76.99934183333333, "lat": 38.843079333333336, "is_reserved": 0, "is_disabled": 0, "rental_uris": {"android": "https://dc.lft.to/lastmile_qr_scan", "ios": "https://dc.lft.to/lastmile_qr_scan"}, "name": "136715b00d6336b3d58a3bf01d0c5b39", "type": "electric_scooter"}, {"fusion_lat": 0.0, "bike_id": "029626bd122f7a7e0135e7490d9570f6", "fusion_lon": 0.0, "lon": -77.041077, "lat": 38.9023155, "is_reserved": 0, "is_disabled": 0, "rental_uris": {"android": "https://dc.lft.to/lastmile_qr_scan", "ios": "https://dc.lft.to/lastmile_qr_scan"}, "name": "029626bd122f7a7e0135e7490d9570f6", "type": "electric_scooter"}, {"fusion_lat": 0.0, "bike_id": "798ee509177abc6f537ec7e2af8368f7", "fusion_lon": 0.0, "lon": -77.022884, "lat": 38.92673216666667, "is_reserved": 0, "is_disabled": 0, "rental_uris": {"android": "https://dc.lft.to/lastmile_qr_scan", "ios": "https://dc.lft.to/lastmile_qr_scan"}, "name": "798ee509177abc6f537ec7e2af8368f7", "type": "electric_scooter"}, {"fusion_lat": 0.0, "bike_id": "4d27363e8165880f1aa1151f292fa1fc", "fusion_lon": 0.0, "lon": -76.930626, "lat": 38.898519, "is_reserved": 0, "is_disabled": 0, "rental_uris": {"android": "https://dc.lft.to/lastmile_qr_scan", "ios": "https://dc.lft.to/lastmile_qr_scan"}, "name": "4d27363e8165880f1aa1151f292fa1fc", "type": "electric_scooter"}, {"fusion_lat": 0.0, "bike_id": "9da6e892f39291843f6468808dc7b98f", "fusion_lon": 0.0, "lon": -77.0320425, "lat": 38.913888666666665, "is_reserved": 0, "is_disabled": 0, "rental_uris": {"android": "https://dc.lft.to/lastmile_qr_scan", "ios": "https://dc.lft.to/lastmile_qr_scan"}, "name": "9da6e892f39291843f6468808dc7b98f", "type": "electric_scooter"}, {"fusion_lat": 0.0, "bike_id": "ff08fac5cf402a1abc3bd644a81c1f0c", "fusion_lon": 0.0, "lon": -76.98707983333334, "lat": 38.8670025, "is_reserved": 0, "is_disabled": 0, "rental_uris": {"android": "https://dc.lft.to/lastmile_qr_scan", "ios": "https://dc.lft.to/lastmile_qr_scan"}, "name": "ff08fac5cf402a1abc3bd644a81c1f0c", "type": "electric_scooter"}, {"fusion_lat": 0.0, "bike_id": "99ce7adbddbbc5c15390d3cf06dd4b11", "fusion_lon": 0.0, "lon": -77.03842483333334, "lat": 38.91275516666666, "is_reserved": 0, "is_disabled": 0, "rental_uris": {"android": "https://dc.lft.to/lastmile_qr_scan", "ios": "https://dc.lft.to/lastmile_qr_scan"}, "name": "99ce7adbddbbc5c15390d3cf06dd4b11", "type": "electric_scooter"}, {"fusion_lat": 0.0, "bike_id": "4a48fed8c4c1ca049e2050e4df7bfd80", "fusion_lon": 0.0, "lon": -76.982298, "lat": 38.86891, "is_reserved": 0, "is_disabled": 0, "rental_uris": {"android": "https://dc.lft.to/lastmile_qr_scan", "ios": "https://dc.lft.to/lastmile_qr_scan"}, "name": "4a48fed8c4c1ca049e2050e4df7bfd80", "type": "electric_scooter"}, {"fusion_lat": 0.0, "bike_id": "d44f0b42df8ffeaa075dc0228b869b52", "fusion_lon": 0.0, "lon": -77.0486265, "lat": 38.89225533333333, "is_reserved": 0, "is_disabled": 0, "rental_uris": {"android": "https://dc.lft.to/lastmile_qr_scan", "ios": "https://dc.lft.to/lastmile_qr_scan"}, "name": "d44f0b42df8ffeaa075dc0228b869b52", "type": "electric_scooter"}, {"fusion_lat": 0.0, "bike_id": "73ada2cc4939c14ba8239aaec6b74a98", "fusion_lon": 0.0, "lon": -77.03272383333334, "lat": 38.920001, "is_reserved": 0, "is_disabled": 0, "rental_uris": {"android": "https://dc.lft.to/lastmile_qr_scan", "ios": "https://dc.lft.to/lastmile_qr_scan"}, "name": "73ada2cc4939c14ba8239aaec6b74a98", "type": "electric_scooter"}, {"fusion_lat": 0.0, "bike_id": "3154d72b0f0136ba555ad20bc9f69988", "fusion_lon": 0.0, "lon": -77.018277, "lat": 38.92272633333333, "is_reserved": 0, "is_disabled": 0, "rental_uris": {"android": "https://dc.lft.to/lastmile_qr_scan", "ios": "https://dc.lft.to/lastmile_qr_scan"}, "name": "3154d72b0f0136ba555ad20bc9f69988", "type": "electric_scooter"}, {"fusion_lat": 0.0, "bike_id": "c954250ba415311dcffe695eaaedf013", "fusion_lon": 0.0, "lon": -77.0244625, "lat": 38.93746816666667, "is_reserved": 0, "is_disabled": 0, "rental_uris": {"android": "https://dc.lft.to/lastmile_qr_scan", "ios": "https://dc.lft.to/lastmile_qr_scan"}, "name": "c954250ba415311dcffe695eaaedf013", "type": "electric_scooter"}, {"fusion_lat": 0.0, "bike_id": "bc708345b80adb6b9d3556125e9fd099", "fusion_lon": 0.0, "lon": -77.04494183333334, "lat": 38.90366733333333, "is_reserved": 0, "is_disabled": 0, "rental_uris": {"android": "https://dc.lft.to/lastmile_qr_scan", "ios": "https://dc.lft.to/lastmile_qr_scan"}, "name": "bc708345b80adb6b9d3556125e9fd099", "type": "electric_scooter"}, {"fusion_lat": 0.0, "bike_id": "863e4248d69ad3c0e597fac2323a6f6d", "fusion_lon": 0.0, "lon": -77.0119335, "lat": 38.911928833333334, "is_reserved": 0, "is_disabled": 0, "rental_uris": {"android": "https://dc.lft.to/lastmile_qr_scan", "ios": "https://dc.lft.to/lastmile_qr_scan"}, "name": "863e4248d69ad3c0e597fac2323a6f6d", "type": "electric_scooter"}, {"fusion_lat": 0.0, "bike_id": "2c61e0b686f50424a8c8c60bb5cdbe94", "fusion_lon": 0.0, "lon": -77.01048883333333, "lat": 38.8973925, "is_reserved": 0, "is_disabled": 0, "rental_uris": {"android": "https://dc.lft.to/lastmile_qr_scan", "ios": "https://dc.lft.to/lastmile_qr_scan"}, "name": "2c61e0b686f50424a8c8c60bb5cdbe94", "type": "electric_scooter"}, {"fusion_lat": 0.0, "bike_id": "ab3b7b11f38b63cb8f9318bf82725bb7", "fusion_lon": 0.0, "lon": -76.99069183333333, "lat": 38.898075166666665, "is_reserved": 0, "is_disabled": 0, "rental_uris": {"android": "https://dc.lft.to/lastmile_qr_scan", "ios": "https://dc.lft.to/lastmile_qr_scan"}, "name": "ab3b7b11f38b63cb8f9318bf82725bb7", "type": "electric_bike"}, {"fusion_lat": 0.0, "bike_id": "7cb135b88ed45cfe30f50eb0e4f8403e", "fusion_lon": 0.0, "lon": -77.09592083333334, "lat": 38.8608815, "is_reserved": 0, "is_disabled": 0, "rental_uris": {"android": "https://dc.lft.to/lastmile_qr_scan", "ios": "https://dc.lft.to/lastmile_qr_scan"}, "name": "7cb135b88ed45cfe30f50eb0e4f8403e", "type": "electric_bike"}, {"fusion_lat": 0.0, "bike_id": "b8e75673fa7b01db9a70af71cd95b2c8", "fusion_lon": 0.0, "lon": -77.041574, "lat": 38.9154325, "is_reserved": 0, "is_disabled": 0, "rental_uris": {"android": "https://dc.lft.to/lastmile_qr_scan", "ios": "https://dc.lft.to/lastmile_qr_scan"}, "name": "b8e75673fa7b01db9a70af71cd95b2c8", "type": "electric_scooter"}, {"fusion_lat": 0.0, "bike_id": "45f511260dc61c5364b8b76216376c17", "fusion_lon": 0.0, "lon": -77.00125233333333, "lat": 38.87376916666667, "is_reserved": 0, "is_disabled": 0, "rental_uris": {"android": "https://dc.lft.to/lastmile_qr_scan", "ios": "https://dc.lft.to/lastmile_qr_scan"}, "name": "45f511260dc61c5364b8b76216376c17", "type": "electric_scooter"}, {"fusion_lat": 0.0, "bike_id": "e141cb48d4b21808792f7717eef14a1c", "fusion_lon": 0.0, "lon": -77.03010883333333, "lat": 38.89813183333333, "is_reserved": 0, "is_disabled": 0, "rental_uris": {"android": "https://dc.lft.to/lastmile_qr_scan", "ios": "https://dc.lft.to/lastmile_qr_scan"}, "name": "e141cb48d4b21808792f7717eef14a1c", "type": "electric_scooter"}, {"fusion_lat": 0.0, "bike_id": "8b38bbfe85a230b0b7808434cec91df0", "fusion_lon": 0.0, "lon": -77.0320425, "lat": 38.91380816666667, "is_reserved": 0, "is_disabled": 0, "rental_uris": {"android": "https://dc.lft.to/lastmile_qr_scan", "ios": "https://dc.lft.to/lastmile_qr_scan"}, "name": "8b38bbfe85a230b0b7808434cec91df0", "type": "electric_scooter"}, {"fusion_lat": 0.0, "bike_id": "fd4ddadf8d6c85041d19a36c475cc659", "fusion_lon": 0.0, "lon": -77.04265866666667, "lat": 38.922498833333336, "is_reserved": 0, "is_disabled": 0, "rental_uris": {"android": "https://dc.lft.to/lastmile_qr_scan", "ios": "https://dc.lft.to/lastmile_qr_scan"}, "name": "fd4ddadf8d6c85041d19a36c475cc659", "type": "electric_scooter"}, {"fusion_lat": 0.0, "bike_id": "af25c5647757b99821aa9759c88c29f9", "fusion_lon": 0.0, "lon": -77.04169316666666, "lat": 38.8983155, "is_reserved": 0, "is_disabled": 0, "rental_uris": {"android": "https://dc.lft.to/lastmile_qr_scan", "ios": "https://dc.lft.to/lastmile_qr_scan"}, "name": "af25c5647757b99821aa9759c88c29f9", "type": "electric_scooter"}, {"fusion_lat": 0.0, "bike_id": "930dcd2764b82dd07523f2f7ff46c058", "fusion_lon": 0.0, "lon": -77.0251285, "lat": 38.9198195, "is_reserved": 0, "is_disabled": 0, "rental_uris": {"android": "https://dc.lft.to/lastmile_qr_scan", "ios": "https://dc.lft.to/lastmile_qr_scan"}, "name": "930dcd2764b82dd07523f2f7ff46c058", "type": "electric_scooter"}, {"fusion_lat": 0.0, "bike_id": "ee3024aacd841aafb17a5f24b6a9e229", "fusion_lon": 0.0, "lon": -76.9914035, "lat": 38.858034, "is_reserved": 0, "is_disabled": 0, "rental_uris": {"android": "https://dc.lft.to/lastmile_qr_scan", "ios": "https://dc.lft.to/lastmile_qr_scan"}, "name": "ee3024aacd841aafb17a5f24b6a9e229", "type": "electric_scooter"}, {"fusion_lat": 0.0, "bike_id": "0942c528ccb7b991a433c53e970d7eec", "fusion_lon": 0.0, "lon": -77.00553166666667, "lat": 38.9054825, "is_reserved": 0, "is_disabled": 0, "rental_uris": {"android": "https://dc.lft.to/lastmile_qr_scan", "ios": "https://dc.lft.to/lastmile_qr_scan"}, "name": "0942c528ccb7b991a433c53e970d7eec", "type": "electric_scooter"}, {"fusion_lat": 0.0, "bike_id": "fb6d5e7dc16059727d99df8b54fd1dae", "fusion_lon": 0.0, "lon": -77.0139705, "lat": 38.9286165, "is_reserved": 0, "is_disabled": 0, "rental_uris": {"android": "https://dc.lft.to/lastmile_qr_scan", "ios": "https://dc.lft.to/lastmile_qr_scan"}, "name": "fb6d5e7dc16059727d99df8b54fd1dae", "type": "electric_scooter"}, {"fusion_lat": 0.0, "bike_id": "76f6cf0be0c28150f3729c533ad54a12", "fusion_lon": 0.0, "lon": -77.03002466666666, "lat": 38.939778, "is_reserved": 0, "is_disabled": 0, "rental_uris": {"android": "https://dc.lft.to/lastmile_qr_scan", "ios": "https://dc.lft.to/lastmile_qr_scan"}, "name": "76f6cf0be0c28150f3729c533ad54a12", "type": "electric_scooter"}, {"fusion_lat": 0.0, "bike_id": "55cf812617d8fa65cb02c58baca9032c", "fusion_lon": 0.0, "lon": -77.02631283333334, "lat": 38.91690716666667, "is_reserved": 0, "is_disabled": 0, "rental_uris": {"android": "https://dc.lft.to/lastmile_qr_scan", "ios": "https://dc.lft.to/lastmile_qr_scan"}, "name": "55cf812617d8fa65cb02c58baca9032c", "type": "electric_scooter"}, {"fusion_lat": 0.0, "bike_id": "4b30d754cf3082b9dcdb9783add3015a", "fusion_lon": 0.0, "lon": -77.03450783333334, "lat": 38.9072875, "is_reserved": 0, "is_disabled": 0, "rental_uris": {"android": "https://dc.lft.to/lastmile_qr_scan", "ios": "https://dc.lft.to/lastmile_qr_scan"}, "name": "4b30d754cf3082b9dcdb9783add3015a", "type": "electric_scooter"}, {"fusion_lat": 0.0, "bike_id": "ba8807fcde72e89e37330cb2168230b3", "fusion_lon": 0.0, "lon": -77.058882, "lat": 38.936063, "is_reserved": 0, "is_disabled": 0, "rental_uris": {"android": "https://dc.lft.to/lastmile_qr_scan", "ios": "https://dc.lft.to/lastmile_qr_scan"}, "name": "ba8807fcde72e89e37330cb2168230b3", "type": "electric_scooter"}, {"fusion_lat": 0.0, "bike_id": "92e41e91e2cd575e25679c1bf8fc6e92", "fusion_lon": 0.0, "lon": -77.003778, "lat": 38.876385166666665, "is_reserved": 0, "is_disabled": 0, "rental_uris": {"android": "https://dc.lft.to/lastmile_qr_scan", "ios": "https://dc.lft.to/lastmile_qr_scan"}, "name": "92e41e91e2cd575e25679c1bf8fc6e92", "type": "electric_scooter"}, {"fusion_lat": 0.0, "bike_id": "1057e6f76f7f53fe23fb374f78f91f72", "fusion_lon": 0.0, "lon": -77.03183183333333, "lat": 38.917358166666666, "is_reserved": 0, "is_disabled": 0, "rental_uris": {"android": "https://dc.lft.to/lastmile_qr_scan", "ios": "https://dc.lft.to/lastmile_qr_scan"}, "name": "1057e6f76f7f53fe23fb374f78f91f72", "type": "electric_scooter"}, {"fusion_lat": 0.0, "bike_id": "868c8e2835f0fabcca5807366d93784a", "fusion_lon": 0.0, "lon": -76.93734066666667, "lat": 38.890208666666666, "is_reserved": 0, "is_disabled": 0, "rental_uris": {"android": "https://dc.lft.to/lastmile_qr_scan", "ios": "https://dc.lft.to/lastmile_qr_scan"}, "name": "868c8e2835f0fabcca5807366d93784a", "type": "electric_scooter"}, {"fusion_lat": 0.0, "bike_id": "0f86a132728a0c110561a7d49e6f24a9", "fusion_lon": 0.0, "lon": -76.948795, "lat": 38.895074666666666, "is_reserved": 0, "is_disabled": 0, "rental_uris": {"android": "https://dc.lft.to/lastmile_qr_scan", "ios": "https://dc.lft.to/lastmile_qr_scan"}, "name": "0f86a132728a0c110561a7d49e6f24a9", "type": "electric_scooter"}, {"fusion_lat": 0.0, "bike_id": "d27d61ffdc73495bc6a147a70011b1a2", "fusion_lon": 0.0, "lon": -77.01714266666667, "lat": 38.902216833333334, "is_reserved": 0, "is_disabled": 0, "rental_uris": {"android": "https://dc.lft.to/lastmile_qr_scan", "ios": "https://dc.lft.to/lastmile_qr_scan"}, "name": "d27d61ffdc73495bc6a147a70011b1a2", "type": "electric_scooter"}, {"fusion_lat": 0.0, "bike_id": "bffa8cb6301863f4c4e0e1b6a0de23d8", "fusion_lon": 0.0, "lon": -76.98017833333333, "lat": 38.85322983333333, "is_reserved": 0, "is_disabled": 0, "rental_uris": {"android": "https://dc.lft.to/lastmile_qr_scan", "ios": "https://dc.lft.to/lastmile_qr_scan"}, "name": "bffa8cb6301863f4c4e0e1b6a0de23d8", "type": "electric_bike"}, {"fusion_lat": 0.0, "bike_id": "011488bae0eaed81e2ad0c8ee30d695a", "fusion_lon": 0.0, "lon": -77.03514966666667, "lat": 38.9235025, "is_reserved": 0, "is_disabled": 0, "rental_uris": {"android": "https://dc.lft.to/lastmile_qr_scan", "ios": "https://dc.lft.to/lastmile_qr_scan"}, "name": "011488bae0eaed81e2ad0c8ee30d695a", "type": "electric_scooter"}, {"fusion_lat": 0.0, "bike_id": "18e2b2afa35c37cde19fdc043069f6e0", "fusion_lon": 0.0, "lon": -77.007986, "lat": 38.89716216666667, "is_reserved": 0, "is_disabled": 0, "rental_uris": {"android": "https://dc.lft.to/lastmile_qr_scan", "ios": "https://dc.lft.to/lastmile_qr_scan"}, "name": "18e2b2afa35c37cde19fdc043069f6e0", "type": "electric_scooter"}, {"fusion_lat": 0.0, "bike_id": "0571e8582b097d796691a9b69f4901c2", "fusion_lon": 0.0, "lon": -77.02270116666666, "lat": 38.924195166666664, "is_reserved": 0, "is_disabled": 0, "rental_uris": {"android": "https://dc.lft.to/lastmile_qr_scan", "ios": "https://dc.lft.to/lastmile_qr_scan"}, "name": "0571e8582b097d796691a9b69f4901c2", "type": "electric_scooter"}, {"fusion_lat": 0.0, "bike_id": "fb59b5e89cf039cd60d4287501231d57", "fusion_lon": 0.0, "lon": -77.03220633333333, "lat": 38.89734833333333, "is_reserved": 0, "is_disabled": 0, "rental_uris": {"android": "https://dc.lft.to/lastmile_qr_scan", "ios": "https://dc.lft.to/lastmile_qr_scan"}, "name": "fb59b5e89cf039cd60d4287501231d57", "type": "electric_scooter"}, {"fusion_lat": 0.0, "bike_id": "5b05cd7f44acd3d253c5760fa2d2b598", "fusion_lon": 0.0, "lon": -76.99823916666666, "lat": 38.908617, "is_reserved": 0, "is_disabled": 0, "rental_uris": {"android": "https://dc.lft.to/lastmile_qr_scan", "ios": "https://dc.lft.to/lastmile_qr_scan"}, "name": "5b05cd7f44acd3d253c5760fa2d2b598", "type": "electric_scooter"}, {"fusion_lat": 0.0, "bike_id": "654ef8c6bb5f4f68441a8f870af775fa", "fusion_lon": 0.0, "lon": -76.96923616666666, "lat": 38.9302855, "is_reserved": 0, "is_disabled": 0, "rental_uris": {"android": "https://dc.lft.to/lastmile_qr_scan", "ios": "https://dc.lft.to/lastmile_qr_scan"}, "name": "654ef8c6bb5f4f68441a8f870af775fa", "type": "electric_scooter"}, {"fusion_lat": 0.0, "bike_id": "f8b10ff60a6ce302e1125499d123a65d", "fusion_lon": 0.0, "lon": -77.027422, "lat": 38.916932333333335, "is_reserved": 0, "is_disabled": 0, "rental_uris": {"android": "https://dc.lft.to/lastmile_qr_scan", "ios": "https://dc.lft.to/lastmile_qr_scan"}, "name": "f8b10ff60a6ce302e1125499d123a65d", "type": "electric_scooter"}, {"fusion_lat": 0.0, "bike_id": "914ae55e3d5e9f91f65dd6afcc90f9e6", "fusion_lon": 0.0, "lon": -77.03173033333333, "lat": 38.89753666666667, "is_reserved": 0, "is_disabled": 0, "rental_uris": {"android": "https://dc.lft.to/lastmile_qr_scan", "ios": "https://dc.lft.to/lastmile_qr_scan"}, "name": "914ae55e3d5e9f91f65dd6afcc90f9e6", "type": "electric_scooter"}, {"fusion_lat": 0.0, "bike_id": "d8d8aa7ed02149ad9f9690982c1e1157", "fusion_lon": 0.0, "lon": -77.02008266666667, "lat": 38.92418966666666, "is_reserved": 0, "is_disabled": 0, "rental_uris": {"android": "https://dc.lft.to/lastmile_qr_scan", "ios": "https://dc.lft.to/lastmile_qr_scan"}, "name": "d8d8aa7ed02149ad9f9690982c1e1157", "type": "electric_scooter"}, {"fusion_lat": 0.0, "bike_id": "b6ed8832400fcdb94455e8c8f474ab7c", "fusion_lon": 0.0, "lon": -76.98068883333333, "lat": 38.889571, "is_reserved": 0, "is_disabled": 0, "rental_uris": {"android": "https://dc.lft.to/lastmile_qr_scan", "ios": "https://dc.lft.to/lastmile_qr_scan"}, "name": "b6ed8832400fcdb94455e8c8f474ab7c", "type": "electric_scooter"}, {"fusion_lat": 0.0, "bike_id": "f52739cfe8aba785a76ea35baff37a65", "fusion_lon": 0.0, "lon": -77.0061185, "lat": 38.90426766666667, "is_reserved": 0, "is_disabled": 0, "rental_uris": {"android": "https://dc.lft.to/lastmile_qr_scan", "ios": "https://dc.lft.to/lastmile_qr_scan"}, "name": "f52739cfe8aba785a76ea35baff37a65", "type": "electric_scooter"}, {"fusion_lat": 0.0, "bike_id": "5a4a586ebe5e564eaa0f9f27071e0983", "fusion_lon": 0.0, "lon": -77.05740566666667, "lat": 38.933441333333334, "is_reserved": 0, "is_disabled": 0, "rental_uris": {"android": "https://dc.lft.to/lastmile_qr_scan", "ios": "https://dc.lft.to/lastmile_qr_scan"}, "name": "5a4a586ebe5e564eaa0f9f27071e0983", "type": "electric_scooter"}, {"fusion_lat": 0.0, "bike_id": "6d177a03e470d74aac442e88a3ccb5c9", "fusion_lon": 0.0, "lon": -77.0353565, "lat": 38.924806833333335, "is_reserved": 0, "is_disabled": 0, "rental_uris": {"android": "https://dc.lft.to/lastmile_qr_scan", "ios": "https://dc.lft.to/lastmile_qr_scan"}, "name": "6d177a03e470d74aac442e88a3ccb5c9", "type": "electric_scooter"}, {"fusion_lat": 0.0, "bike_id": "d5a2c4e7476a487cc8a7fd1c62060f1a", "fusion_lon": 0.0, "lon": -77.03837616666667, "lat": 38.903891333333334, "is_reserved": 0, "is_disabled": 0, "rental_uris": {"android": "https://dc.lft.to/lastmile_qr_scan", "ios": "https://dc.lft.to/lastmile_qr_scan"}, "name": "d5a2c4e7476a487cc8a7fd1c62060f1a", "type": "electric_scooter"}, {"fusion_lat": 0.0, "bike_id": "dc5f538068985dbbce4c4067bc592221", "fusion_lon": 0.0, "lon": -77.020186, "lat": 38.91401316666666, "is_reserved": 0, "is_disabled": 0, "rental_uris": {"android": "https://dc.lft.to/lastmile_qr_scan", "ios": "https://dc.lft.to/lastmile_qr_scan"}, "name": "dc5f538068985dbbce4c4067bc592221", "type": "electric_scooter"}, {"fusion_lat": 0.0, "bike_id": "746e7c85e90a144cc9acf8c7be50bb0a", "fusion_lon": 0.0, "lon": -76.9782525, "lat": 38.8436955, "is_reserved": 0, "is_disabled": 0, "rental_uris": {"android": "https://dc.lft.to/lastmile_qr_scan", "ios": "https://dc.lft.to/lastmile_qr_scan"}, "name": "746e7c85e90a144cc9acf8c7be50bb0a", "type": "electric_bike"}, {"fusion_lat": 0.0, "bike_id": "8c5bc5626030b4fecc5d19bef2e68d72", "fusion_lon": 0.0, "lon": -77.03466116666667, "lat": 38.926296666666666, "is_reserved": 0, "is_disabled": 0, "rental_uris": {"android": "https://dc.lft.to/lastmile_qr_scan", "ios": "https://dc.lft.to/lastmile_qr_scan"}, "name": "8c5bc5626030b4fecc5d19bef2e68d72", "type": "electric_scooter"}, {"fusion_lat": 0.0, "bike_id": "79b42d64dbc92225fd041f937ef3a29a", "fusion_lon": 0.0, "lon": -76.9989055, "lat": 38.9074225, "is_reserved": 0, "is_disabled": 0, "rental_uris": {"android": "https://dc.lft.to/lastmile_qr_scan", "ios": "https://dc.lft.to/lastmile_qr_scan"}, "name": "79b42d64dbc92225fd041f937ef3a29a", "type": "electric_scooter"}, {"fusion_lat": 0.0, "bike_id": "12056eabd9d8664450238d9353a00a8b", "fusion_lon": 0.0, "lon": -77.043348, "lat": 38.90124633333333, "is_reserved": 0, "is_disabled": 0, "rental_uris": {"android": "https://dc.lft.to/lastmile_qr_scan", "ios": "https://dc.lft.to/lastmile_qr_scan"}, "name": "12056eabd9d8664450238d9353a00a8b", "type": "electric_scooter"}, {"fusion_lat": 0.0, "bike_id": "44c0355c19e8dbb7004dc9d16b762979", "fusion_lon": 0.0, "lon": -77.032943, "lat": 38.90966866666667, "is_reserved": 0, "is_disabled": 0, "rental_uris": {"android": "https://dc.lft.to/lastmile_qr_scan", "ios": "https://dc.lft.to/lastmile_qr_scan"}, "name": "44c0355c19e8dbb7004dc9d16b762979", "type": "electric_scooter"}, {"fusion_lat": 0.0, "bike_id": "ac5f34b604e4d27bd2fc6a0046e0c9d9", "fusion_lon": 0.0, "lon": -77.032455, "lat": 38.929027, "is_reserved": 0, "is_disabled": 0, "rental_uris": {"android": "https://dc.lft.to/lastmile_qr_scan", "ios": "https://dc.lft.to/lastmile_qr_scan"}, "name": "ac5f34b604e4d27bd2fc6a0046e0c9d9", "type": "electric_scooter"}, {"fusion_lat": 0.0, "bike_id": "eaa6ecfeabab1c61e5e6a037502a80ab", "fusion_lon": 0.0, "lon": -77.02481483333334, "lat": 38.920855, "is_reserved": 0, "is_disabled": 0, "rental_uris": {"android": "https://dc.lft.to/lastmile_qr_scan", "ios": "https://dc.lft.to/lastmile_qr_scan"}, "name": "eaa6ecfeabab1c61e5e6a037502a80ab", "type": "electric_scooter"}, {"fusion_lat": 0.0, "bike_id": "22962450eb85c5232da3aa988127e3fb", "fusion_lon": 0.0, "lon": -77.031792, "lat": 38.908716166666665, "is_reserved": 0, "is_disabled": 0, "rental_uris": {"android": "https://dc.lft.to/lastmile_qr_scan", "ios": "https://dc.lft.to/lastmile_qr_scan"}, "name": "22962450eb85c5232da3aa988127e3fb", "type": "electric_scooter"}, {"fusion_lat": 0.0, "bike_id": "2b2535cdae9dd92946b6071fa07e6ee8", "fusion_lon": 0.0, "lon": -76.9876045, "lat": 38.85772333333333, "is_reserved": 0, "is_disabled": 0, "rental_uris": {"android": "https://dc.lft.to/lastmile_qr_scan", "ios": "https://dc.lft.to/lastmile_qr_scan"}, "name": "2b2535cdae9dd92946b6071fa07e6ee8", "type": "electric_bike"}, {"fusion_lat": 0.0, "bike_id": "0c95630cbdf5af787df310943aead99d", "fusion_lon": 0.0, "lon": -77.04700466666667, "lat": 38.90215933333333, "is_reserved": 0, "is_disabled": 0, "rental_uris": {"android": "https://dc.lft.to/lastmile_qr_scan", "ios": "https://dc.lft.to/lastmile_qr_scan"}, "name": "0c95630cbdf5af787df310943aead99d", "type": "electric_scooter"}, {"fusion_lat": 0.0, "bike_id": "7fe6e578882c2a9892277a6c91a6ea96", "fusion_lon": 0.0, "lon": -77.03581383333334, "lat": 38.992239833333336, "is_reserved": 0, "is_disabled": 0, "rental_uris": {"android": "https://dc.lft.to/lastmile_qr_scan", "ios": "https://dc.lft.to/lastmile_qr_scan"}, "name": "7fe6e578882c2a9892277a6c91a6ea96", "type": "electric_scooter"}, {"fusion_lat": 0.0, "bike_id": "5d8a3433b9200d2b8a404d80c2e3435a", "fusion_lon": 0.0, "lon": -77.08334233333333, "lat": 38.8544145, "is_reserved": 0, "is_disabled": 0, "rental_uris": {"android": "https://dc.lft.to/lastmile_qr_scan", "ios": "https://dc.lft.to/lastmile_qr_scan"}, "name": "5d8a3433b9200d2b8a404d80c2e3435a", "type": "electric_bike"}, {"fusion_lat": 0.0, "bike_id": "bbaf7984e9982f7c917b7e3b7b71a91c", "fusion_lon": 0.0, "lon": -77.05309166666666, "lat": 38.91551533333333, "is_reserved": 0, "is_disabled": 0, "rental_uris": {"android": "https://dc.lft.to/lastmile_qr_scan", "ios": "https://dc.lft.to/lastmile_qr_scan"}, "name": "bbaf7984e9982f7c917b7e3b7b71a91c", "type": "electric_scooter"}, {"fusion_lat": 0.0, "bike_id": "7983206328b1d5152d0931c376bce1d5", "fusion_lon": 0.0, "lon": -77.01986116666667, "lat": 38.9156305, "is_reserved": 0, "is_disabled": 0, "rental_uris": {"android": "https://dc.lft.to/lastmile_qr_scan", "ios": "https://dc.lft.to/lastmile_qr_scan"}, "name": "7983206328b1d5152d0931c376bce1d5", "type": "electric_scooter"}, {"fusion_lat": 0.0, "bike_id": "86adb7a8583a2225f0869f5c866a3260", "fusion_lon": 0.0, "lon": -76.94882533333333, "lat": 38.89423133333333, "is_reserved": 0, "is_disabled": 0, "rental_uris": {"android": "https://dc.lft.to/lastmile_qr_scan", "ios": "https://dc.lft.to/lastmile_qr_scan"}, "name": "86adb7a8583a2225f0869f5c866a3260", "type": "electric_scooter"}, {"fusion_lat": 0.0, "bike_id": "cf22d0061e7cec3577b5833f40c7137c", "fusion_lon": 0.0, "lon": -77.00541516666667, "lat": 38.874593, "is_reserved": 0, "is_disabled": 0, "rental_uris": {"android": "https://dc.lft.to/lastmile_qr_scan", "ios": "https://dc.lft.to/lastmile_qr_scan"}, "name": "cf22d0061e7cec3577b5833f40c7137c", "type": "electric_scooter"}, {"fusion_lat": 0.0, "bike_id": "026ad3df6263b63ee3dca1b5057628ea", "fusion_lon": 0.0, "lon": -77.04003183333333, "lat": 38.907825, "is_reserved": 0, "is_disabled": 0, "rental_uris": {"android": "https://dc.lft.to/lastmile_qr_scan", "ios": "https://dc.lft.to/lastmile_qr_scan"}, "name": "026ad3df6263b63ee3dca1b5057628ea", "type": "electric_scooter"}, {"fusion_lat": 0.0, "bike_id": "d2bd4dcacaaf7b51e62b74f7b3c8b8de", "fusion_lon": 0.0, "lon": -77.05322533333333, "lat": 38.90657216666666, "is_reserved": 0, "is_disabled": 0, "rental_uris": {"android": "https://dc.lft.to/lastmile_qr_scan", "ios": "https://dc.lft.to/lastmile_qr_scan"}, "name": "d2bd4dcacaaf7b51e62b74f7b3c8b8de", "type": "electric_scooter"}, {"fusion_lat": 0.0, "bike_id": "20fbfa1d2ee139287e9caea1a73cbabf", "fusion_lon": 0.0, "lon": -76.99868733333334, "lat": 38.88637166666667, "is_reserved": 0, "is_disabled": 0, "rental_uris": {"android": "https://dc.lft.to/lastmile_qr_scan", "ios": "https://dc.lft.to/lastmile_qr_scan"}, "name": "20fbfa1d2ee139287e9caea1a73cbabf", "type": "electric_scooter"}, {"fusion_lat": 0.0, "bike_id": "107bfb2eaa785990d2ebe28c09adb732", "fusion_lon": 0.0, "lon": -77.02706983333333, "lat": 38.94986033333333, "is_reserved": 0, "is_disabled": 0, "rental_uris": {"android": "https://dc.lft.to/lastmile_qr_scan", "ios": "https://dc.lft.to/lastmile_qr_scan"}, "name": "107bfb2eaa785990d2ebe28c09adb732", "type": "electric_scooter"}, {"fusion_lat": 0.0, "bike_id": "6a6e76e2362bb1ffed8e28b954c9f1b1", "fusion_lon": 0.0, "lon": -76.98817616666666, "lat": 38.900308833333334, "is_reserved": 0, "is_disabled": 0, "rental_uris": {"android": "https://dc.lft.to/lastmile_qr_scan", "ios": "https://dc.lft.to/lastmile_qr_scan"}, "name": "6a6e76e2362bb1ffed8e28b954c9f1b1", "type": "electric_scooter"}, {"fusion_lat": 0.0, "bike_id": "1fea53641092f31817b852448a4c0f72", "fusion_lon": 0.0, "lon": -77.03764183333334, "lat": 38.907795166666666, "is_reserved": 0, "is_disabled": 0, "rental_uris": {"android": "https://dc.lft.to/lastmile_qr_scan", "ios": "https://dc.lft.to/lastmile_qr_scan"}, "name": "1fea53641092f31817b852448a4c0f72", "type": "electric_scooter"}, {"fusion_lat": 0.0, "bike_id": "4a5c43ea7a23bb12a9371cf664183f55", "fusion_lon": 0.0, "lon": -76.9956895, "lat": 38.851838, "is_reserved": 0, "is_disabled": 0, "rental_uris": {"android": "https://dc.lft.to/lastmile_qr_scan", "ios": "https://dc.lft.to/lastmile_qr_scan"}, "name": "4a5c43ea7a23bb12a9371cf664183f55", "type": "electric_bike"}, {"fusion_lat": 0.0, "bike_id": "6235b578aac0903a8f88b6886eadf270", "fusion_lon": 0.0, "lon": -77.04260466666666, "lat": 38.90977133333333, "is_reserved": 0, "is_disabled": 0, "rental_uris": {"android": "https://dc.lft.to/lastmile_qr_scan", "ios": "https://dc.lft.to/lastmile_qr_scan"}, "name": "6235b578aac0903a8f88b6886eadf270", "type": "electric_scooter"}, {"fusion_lat": 0.0, "bike_id": "8a036c1386156631a32d524d2411bd5f", "fusion_lon": 0.0, "lon": -77.05037483333334, "lat": 38.9051545, "is_reserved": 0, "is_disabled": 0, "rental_uris": {"android": "https://dc.lft.to/lastmile_qr_scan", "ios": "https://dc.lft.to/lastmile_qr_scan"}, "name": "8a036c1386156631a32d524d2411bd5f", "type": "electric_scooter"}, {"fusion_lat": 0.0, "bike_id": "7fb5d398b554b5d7c247456ff3aeebe9", "fusion_lon": 0.0, "lon": -77.0288745, "lat": 38.9328, "is_reserved": 0, "is_disabled": 0, "rental_uris": {"android": "https://dc.lft.to/lastmile_qr_scan", "ios": "https://dc.lft.to/lastmile_qr_scan"}, "name": "7fb5d398b554b5d7c247456ff3aeebe9", "type": "electric_scooter"}, {"fusion_lat": 0.0, "bike_id": "42b0d44126402b8e6f1c7c83902ba88d", "fusion_lon": 0.0, "lon": -76.9336895, "lat": 38.899095333333335, "is_reserved": 0, "is_disabled": 0, "rental_uris": {"android": "https://dc.lft.to/lastmile_qr_scan", "ios": "https://dc.lft.to/lastmile_qr_scan"}, "name": "42b0d44126402b8e6f1c7c83902ba88d", "type": "electric_scooter"}, {"fusion_lat": 0.0, "bike_id": "c3d753ced519d05ef9b670efe5c257b2", "fusion_lon": 0.0, "lon": -77.01520733333334, "lat": 38.90258816666667, "is_reserved": 0, "is_disabled": 0, "rental_uris": {"android": "https://dc.lft.to/lastmile_qr_scan", "ios": "https://dc.lft.to/lastmile_qr_scan"}, "name": "c3d753ced519d05ef9b670efe5c257b2", "type": "electric_scooter"}, {"fusion_lat": 0.0, "bike_id": "eb8fc1a055e5abb2b8f9a25efa32be0a", "fusion_lon": 0.0, "lon": -77.0564165, "lat": 38.92628116666667, "is_reserved": 0, "is_disabled": 0, "rental_uris": {"android": "https://dc.lft.to/lastmile_qr_scan", "ios": "https://dc.lft.to/lastmile_qr_scan"}, "name": "eb8fc1a055e5abb2b8f9a25efa32be0a", "type": "electric_scooter"}, {"fusion_lat": 0.0, "bike_id": "ffbd090d6e597fb0c746005183feb5fc", "fusion_lon": 0.0, "lon": -77.02960233333333, "lat": 38.916667, "is_reserved": 0, "is_disabled": 0, "rental_uris": {"android": "https://dc.lft.to/lastmile_qr_scan", "ios": "https://dc.lft.to/lastmile_qr_scan"}, "name": "ffbd090d6e597fb0c746005183feb5fc", "type": "electric_scooter"}, {"fusion_lat": 0.0, "bike_id": "ee300cd2c2e56ffe938c59ca089e0ad2", "fusion_lon": 0.0, "lon": -77.02205633333334, "lat": 38.899893666666664, "is_reserved": 0, "is_disabled": 0, "rental_uris": {"android": "https://dc.lft.to/lastmile_qr_scan", "ios": "https://dc.lft.to/lastmile_qr_scan"}, "name": "ee300cd2c2e56ffe938c59ca089e0ad2", "type": "electric_scooter"}, {"fusion_lat": 0.0, "bike_id": "a86c5fdda4871d45e4de77b062330212", "fusion_lon": 0.0, "lon": -77.08010116666667, "lat": 38.950577, "is_reserved": 0, "is_disabled": 0, "rental_uris": {"android": "https://dc.lft.to/lastmile_qr_scan", "ios": "https://dc.lft.to/lastmile_qr_scan"}, "name": "a86c5fdda4871d45e4de77b062330212", "type": "electric_scooter"}, {"fusion_lat": 0.0, "bike_id": "e000a952c0db28abb4f80afe2367c22c", "fusion_lon": 0.0, "lon": -77.03822133333334, "lat": 38.91556383333333, "is_reserved": 0, "is_disabled": 0, "rental_uris": {"android": "https://dc.lft.to/lastmile_qr_scan", "ios": "https://dc.lft.to/lastmile_qr_scan"}, "name": "e000a952c0db28abb4f80afe2367c22c", "type": "electric_scooter"}, {"fusion_lat": 0.0, "bike_id": "c02013e4beed63ea29384c69e8435ea5", "fusion_lon": 0.0, "lon": -77.0241575, "lat": 38.92155133333333, "is_reserved": 0, "is_disabled": 0, "rental_uris": {"android": "https://dc.lft.to/lastmile_qr_scan", "ios": "https://dc.lft.to/lastmile_qr_scan"}, "name": "c02013e4beed63ea29384c69e8435ea5", "type": "electric_scooter"}, {"fusion_lat": 0.0, "bike_id": "dd984ab8f112cb8e8a31aa1cbfb3c10c", "fusion_lon": 0.0, "lon": -76.97304683333333, "lat": 38.916435166666666, "is_reserved": 0, "is_disabled": 0, "rental_uris": {"android": "https://dc.lft.to/lastmile_qr_scan", "ios": "https://dc.lft.to/lastmile_qr_scan"}, "name": "dd984ab8f112cb8e8a31aa1cbfb3c10c", "type": "electric_bike"}, {"fusion_lat": 0.0, "bike_id": "8dd76b3118e9c23cddd229738b065fe6", "fusion_lon": 0.0, "lon": -77.036292, "lat": 38.94492133333333, "is_reserved": 0, "is_disabled": 0, "rental_uris": {"android": "https://dc.lft.to/lastmile_qr_scan", "ios": "https://dc.lft.to/lastmile_qr_scan"}, "name": "8dd76b3118e9c23cddd229738b065fe6", "type": "electric_scooter"}, {"fusion_lat": 0.0, "bike_id": "d8e1276673ae78845647836b977eeec5", "fusion_lon": 0.0, "lon": -76.93190383333334, "lat": 38.898796, "is_reserved": 0, "is_disabled": 0, "rental_uris": {"android": "https://dc.lft.to/lastmile_qr_scan", "ios": "https://dc.lft.to/lastmile_qr_scan"}, "name": "d8e1276673ae78845647836b977eeec5", "type": "electric_scooter"}, {"fusion_lat": 0.0, "bike_id": "510c46a4a7dc714d970cb4bcfdb76f0d", "fusion_lon": 0.0, "lon": -77.0487385, "lat": 38.89273216666667, "is_reserved": 0, "is_disabled": 0, "rental_uris": {"android": "https://dc.lft.to/lastmile_qr_scan", "ios": "https://dc.lft.to/lastmile_qr_scan"}, "name": "510c46a4a7dc714d970cb4bcfdb76f0d", "type": "electric_scooter"}, {"fusion_lat": 0.0, "bike_id": "e1d4de4a9134e490d4238e68325d7b6f", "fusion_lon": 0.0, "lon": -77.02575983333334, "lat": 38.94404733333333, "is_reserved": 0, "is_disabled": 0, "rental_uris": {"android": "https://dc.lft.to/lastmile_qr_scan", "ios": "https://dc.lft.to/lastmile_qr_scan"}, "name": "e1d4de4a9134e490d4238e68325d7b6f", "type": "electric_scooter"}, {"fusion_lat": 0.0, "bike_id": "bbb751aed4d326b0b97ce15bf5deb379", "fusion_lon": 0.0, "lon": -77.0727065, "lat": 38.93552616666667, "is_reserved": 0, "is_disabled": 0, "rental_uris": {"android": "https://dc.lft.to/lastmile_qr_scan", "ios": "https://dc.lft.to/lastmile_qr_scan"}, "name": "bbb751aed4d326b0b97ce15bf5deb379", "type": "electric_scooter"}, {"fusion_lat": 0.0, "bike_id": "58e01451b4027253e935c0ff860f1eee", "fusion_lon": 0.0, "lon": -76.92624933333333, "lat": 38.884603, "is_reserved": 0, "is_disabled": 0, "rental_uris": {"android": "https://dc.lft.to/lastmile_qr_scan", "ios": "https://dc.lft.to/lastmile_qr_scan"}, "name": "58e01451b4027253e935c0ff860f1eee", "type": "electric_scooter"}, {"fusion_lat": 0.0, "bike_id": "90f0b750bc91efdaf125f5f6c60adb12", "fusion_lon": 0.0, "lon": -76.96524, "lat": 38.8762555, "is_reserved": 0, "is_disabled": 0, "rental_uris": {"android": "https://dc.lft.to/lastmile_qr_scan", "ios": "https://dc.lft.to/lastmile_qr_scan"}, "name": "90f0b750bc91efdaf125f5f6c60adb12", "type": "electric_scooter"}, {"fusion_lat": 0.0, "bike_id": "6bdedfe5cf5e494cf2a742ffe3363b59", "fusion_lon": 0.0, "lon": -77.03075216666667, "lat": 38.922426, "is_reserved": 0, "is_disabled": 0, "rental_uris": {"android": "https://dc.lft.to/lastmile_qr_scan", "ios": "https://dc.lft.to/lastmile_qr_scan"}, "name": "6bdedfe5cf5e494cf2a742ffe3363b59", "type": "electric_scooter"}, {"fusion_lat": 0.0, "bike_id": "09ee3e7d5ed74799ae076843f66a7b7b", "fusion_lon": 0.0, "lon": -76.97531083333334, "lat": 38.92226133333333, "is_reserved": 0, "is_disabled": 0, "rental_uris": {"android": "https://dc.lft.to/lastmile_qr_scan", "ios": "https://dc.lft.to/lastmile_qr_scan"}, "name": "09ee3e7d5ed74799ae076843f66a7b7b", "type": "electric_scooter"}, {"fusion_lat": 0.0, "bike_id": "ec3da2dffdcb78dc1413429ff32f9e2a", "fusion_lon": 0.0, "lon": -77.02260816666667, "lat": 38.926770833333336, "is_reserved": 0, "is_disabled": 0, "rental_uris": {"android": "https://dc.lft.to/lastmile_qr_scan", "ios": "https://dc.lft.to/lastmile_qr_scan"}, "name": "ec3da2dffdcb78dc1413429ff32f9e2a", "type": "electric_scooter"}, {"fusion_lat": 0.0, "bike_id": "5c89a468007100233265a76911f2a462", "fusion_lon": 0.0, "lon": -77.03075116666666, "lat": 38.880333666666665, "is_reserved": 0, "is_disabled": 0, "rental_uris": {"android": "https://dc.lft.to/lastmile_qr_scan", "ios": "https://dc.lft.to/lastmile_qr_scan"}, "name": "5c89a468007100233265a76911f2a462", "type": "electric_scooter"}, {"fusion_lat": 0.0, "bike_id": "2801614ed93f5e1d1438d0bff0bddb7d", "fusion_lon": 0.0, "lon": -76.98953383333334, "lat": 38.865489833333335, "is_reserved": 0, "is_disabled": 0, "rental_uris": {"android": "https://dc.lft.to/lastmile_qr_scan", "ios": "https://dc.lft.to/lastmile_qr_scan"}, "name": "2801614ed93f5e1d1438d0bff0bddb7d", "type": "electric_scooter"}, {"fusion_lat": 0.0, "bike_id": "d3ab99a2244402b67505edd1b69cd804", "fusion_lon": 0.0, "lon": -77.013006, "lat": 38.929718333333334, "is_reserved": 0, "is_disabled": 0, "rental_uris": {"android": "https://dc.lft.to/lastmile_qr_scan", "ios": "https://dc.lft.to/lastmile_qr_scan"}, "name": "d3ab99a2244402b67505edd1b69cd804", "type": "electric_scooter"}, {"fusion_lat": 0.0, "bike_id": "e0fa43f72b498a9c00b733e722a19f33", "fusion_lon": 0.0, "lon": -77.00038166666667, "lat": 38.907995, "is_reserved": 0, "is_disabled": 0, "rental_uris": {"android": "https://dc.lft.to/lastmile_qr_scan", "ios": "https://dc.lft.to/lastmile_qr_scan"}, "name": "e0fa43f72b498a9c00b733e722a19f33", "type": "electric_scooter"}, {"fusion_lat": 0.0, "bike_id": "9a3031f1252b5c8954f135e152e560aa", "fusion_lon": 0.0, "lon": -77.02726016666666, "lat": 38.943760166666664, "is_reserved": 0, "is_disabled": 0, "rental_uris": {"android": "https://dc.lft.to/lastmile_qr_scan", "ios": "https://dc.lft.to/lastmile_qr_scan"}, "name": "9a3031f1252b5c8954f135e152e560aa", "type": "electric_scooter"}, {"fusion_lat": 0.0, "bike_id": "4d71301b8354d67952e2fa74f5d04cec", "fusion_lon": 0.0, "lon": -77.03836466666667, "lat": 38.903902333333335, "is_reserved": 0, "is_disabled": 0, "rental_uris": {"android": "https://dc.lft.to/lastmile_qr_scan", "ios": "https://dc.lft.to/lastmile_qr_scan"}, "name": "4d71301b8354d67952e2fa74f5d04cec", "type": "electric_scooter"}, {"fusion_lat": 0.0, "bike_id": "5945a3d6fa0c4a63ccd657320adbcc2b", "fusion_lon": 0.0, "lon": -77.04979666666667, "lat": 39.03552916666667, "is_reserved": 0, "is_disabled": 0, "rental_uris": {"android": "https://dc.lft.to/lastmile_qr_scan", "ios": "https://dc.lft.to/lastmile_qr_scan"}, "name": "5945a3d6fa0c4a63ccd657320adbcc2b", "type": "electric_bike"}, {"fusion_lat": 0.0, "bike_id": "50e517bc2e6f952ba56bd66846630fd4", "fusion_lon": 0.0, "lon": -77.04339066666667, "lat": 38.933287166666666, "is_reserved": 0, "is_disabled": 0, "rental_uris": {"android": "https://dc.lft.to/lastmile_qr_scan", "ios": "https://dc.lft.to/lastmile_qr_scan"}, "name": "50e517bc2e6f952ba56bd66846630fd4", "type": "electric_scooter"}, {"fusion_lat": 0.0, "bike_id": "0d5d7374f85c3ea7540d79a35b7829f1", "fusion_lon": 0.0, "lon": -77.018804, "lat": 38.90382683333333, "is_reserved": 0, "is_disabled": 0, "rental_uris": {"android": "https://dc.lft.to/lastmile_qr_scan", "ios": "https://dc.lft.to/lastmile_qr_scan"}, "name": "0d5d7374f85c3ea7540d79a35b7829f1", "type": "electric_bike"}, {"fusion_lat": 0.0, "bike_id": "2ea9b672583053bdbcb61d7a8b5423c8", "fusion_lon": 0.0, "lon": -77.0154115, "lat": 38.94129383333333, "is_reserved": 0, "is_disabled": 0, "rental_uris": {"android": "https://dc.lft.to/lastmile_qr_scan", "ios": "https://dc.lft.to/lastmile_qr_scan"}, "name": "2ea9b672583053bdbcb61d7a8b5423c8", "type": "electric_scooter"}, {"fusion_lat": 0.0, "bike_id": "bf744e56df8bb6e0fae07195cfcf6422", "fusion_lon": 0.0, "lon": -77.01206683333334, "lat": 38.88550216666667, "is_reserved": 0, "is_disabled": 0, "rental_uris": {"android": "https://dc.lft.to/lastmile_qr_scan", "ios": "https://dc.lft.to/lastmile_qr_scan"}, "name": "bf744e56df8bb6e0fae07195cfcf6422", "type": "electric_scooter"}, {"fusion_lat": 0.0, "bike_id": "95747553bb9fa167af30bcaa2d07420c", "fusion_lon": 0.0, "lon": -77.03191533333333, "lat": 38.909486, "is_reserved": 0, "is_disabled": 0, "rental_uris": {"android": "https://dc.lft.to/lastmile_qr_scan", "ios": "https://dc.lft.to/lastmile_qr_scan"}, "name": "95747553bb9fa167af30bcaa2d07420c", "type": "electric_scooter"}, {"fusion_lat": 0.0, "bike_id": "024e2da8ea3abd865c5cad90e8b58f0c", "fusion_lon": 0.0, "lon": -77.10721283333334, "lat": 38.964864, "is_reserved": 0, "is_disabled": 0, "rental_uris": {"android": "https://dc.lft.to/lastmile_qr_scan", "ios": "https://dc.lft.to/lastmile_qr_scan"}, "name": "024e2da8ea3abd865c5cad90e8b58f0c", "type": "electric_bike"}, {"fusion_lat": 0.0, "bike_id": "7e9ccb0e889529a34b7557931ea4db75", "fusion_lon": 0.0, "lon": -77.01566383333333, "lat": 38.876575333333335, "is_reserved": 0, "is_disabled": 0, "rental_uris": {"android": "https://dc.lft.to/lastmile_qr_scan", "ios": "https://dc.lft.to/lastmile_qr_scan"}, "name": "7e9ccb0e889529a34b7557931ea4db75", "type": "electric_scooter"}, {"fusion_lat": 0.0, "bike_id": "30966c9965371c13fc1a5c75ab2c0d18", "fusion_lon": 0.0, "lon": -77.02816733333333, "lat": 38.897259, "is_reserved": 0, "is_disabled": 0, "rental_uris": {"android": "https://dc.lft.to/lastmile_qr_scan", "ios": "https://dc.lft.to/lastmile_qr_scan"}, "name": "30966c9965371c13fc1a5c75ab2c0d18", "type": "electric_scooter"}, {"fusion_lat": 0.0, "bike_id": "73ee69d16af0e40c3006355deea61080", "fusion_lon": 0.0, "lon": -77.04169083333333, "lat": 38.899352666666665, "is_reserved": 0, "is_disabled": 0, "rental_uris": {"android": "https://dc.lft.to/lastmile_qr_scan", "ios": "https://dc.lft.to/lastmile_qr_scan"}, "name": "73ee69d16af0e40c3006355deea61080", "type": "electric_scooter"}, {"fusion_lat": 0.0, "bike_id": "94fa7980e0646876cbbea7c2f5288832", "fusion_lon": 0.0, "lon": -77.01070666666666, "lat": 38.8960895, "is_reserved": 0, "is_disabled": 0, "rental_uris": {"android": "https://dc.lft.to/lastmile_qr_scan", "ios": "https://dc.lft.to/lastmile_qr_scan"}, "name": "94fa7980e0646876cbbea7c2f5288832", "type": "electric_scooter"}, {"fusion_lat": 0.0, "bike_id": "be59bc7c224d77332b0414150d981efe", "fusion_lon": 0.0, "lon": -77.0464695, "lat": 38.914142, "is_reserved": 0, "is_disabled": 0, "rental_uris": {"android": "https://dc.lft.to/lastmile_qr_scan", "ios": "https://dc.lft.to/lastmile_qr_scan"}, "name": "be59bc7c224d77332b0414150d981efe", "type": "electric_scooter"}, {"fusion_lat": 0.0, "bike_id": "99e691efb9ed4c2c1a803b893852b2c3", "fusion_lon": 0.0, "lon": -77.03179816666666, "lat": 38.92488633333333, "is_reserved": 0, "is_disabled": 0, "rental_uris": {"android": "https://dc.lft.to/lastmile_qr_scan", "ios": "https://dc.lft.to/lastmile_qr_scan"}, "name": "99e691efb9ed4c2c1a803b893852b2c3", "type": "electric_scooter"}, {"fusion_lat": 0.0, "bike_id": "d261e8f4521b0a77461697d5204213bf", "fusion_lon": 0.0, "lon": -77.03182166666667, "lat": 38.8962865, "is_reserved": 0, "is_disabled": 0, "rental_uris": {"android": "https://dc.lft.to/lastmile_qr_scan", "ios": "https://dc.lft.to/lastmile_qr_scan"}, "name": "d261e8f4521b0a77461697d5204213bf", "type": "electric_scooter"}, {"fusion_lat": 0.0, "bike_id": "51f142f18a698ef5a6353ee440248467", "fusion_lon": 0.0, "lon": -77.04852433333333, "lat": 38.9046395, "is_reserved": 0, "is_disabled": 0, "rental_uris": {"android": "https://dc.lft.to/lastmile_qr_scan", "ios": "https://dc.lft.to/lastmile_qr_scan"}, "name": "51f142f18a698ef5a6353ee440248467", "type": "electric_scooter"}, {"fusion_lat": 0.0, "bike_id": "39faf1c06915ed271dbbff7cbbf6439f", "fusion_lon": 0.0, "lon": -77.03974816666667, "lat": 38.899087, "is_reserved": 0, "is_disabled": 0, "rental_uris": {"android": "https://dc.lft.to/lastmile_qr_scan", "ios": "https://dc.lft.to/lastmile_qr_scan"}, "name": "39faf1c06915ed271dbbff7cbbf6439f", "type": "electric_scooter"}, {"fusion_lat": 0.0, "bike_id": "68c4a7f95efcda89ca4a9c2ffff55dd0", "fusion_lon": 0.0, "lon": -77.00262833333333, "lat": 38.9111245, "is_reserved": 0, "is_disabled": 0, "rental_uris": {"android": "https://dc.lft.to/lastmile_qr_scan", "ios": "https://dc.lft.to/lastmile_qr_scan"}, "name": "68c4a7f95efcda89ca4a9c2ffff55dd0", "type": "electric_scooter"}, {"fusion_lat": 0.0, "bike_id": "8879380fc17acdc873ce1df18a9cfcff", "fusion_lon": 0.0, "lon": -77.04867083333333, "lat": 38.913366333333336, "is_reserved": 0, "is_disabled": 0, "rental_uris": {"android": "https://dc.lft.to/lastmile_qr_scan", "ios": "https://dc.lft.to/lastmile_qr_scan"}, "name": "8879380fc17acdc873ce1df18a9cfcff", "type": "electric_scooter"}, {"fusion_lat": 0.0, "bike_id": "2791b33ec6b10b47844668f4e6415d6c", "fusion_lon": 0.0, "lon": -77.04361233333333, "lat": 38.90841916666667, "is_reserved": 0, "is_disabled": 0, "rental_uris": {"android": "https://dc.lft.to/lastmile_qr_scan", "ios": "https://dc.lft.to/lastmile_qr_scan"}, "name": "2791b33ec6b10b47844668f4e6415d6c", "type": "electric_scooter"}, {"fusion_lat": 0.0, "bike_id": "36b3b4f316b86b9842474e1d7765f6cb", "fusion_lon": 0.0, "lon": -77.0004715, "lat": 38.9078255, "is_reserved": 0, "is_disabled": 0, "rental_uris": {"android": "https://dc.lft.to/lastmile_qr_scan", "ios": "https://dc.lft.to/lastmile_qr_scan"}, "name": "36b3b4f316b86b9842474e1d7765f6cb", "type": "electric_scooter"}, {"fusion_lat": 0.0, "bike_id": "14a1e94dd5bace91fda16eeb9fdf4faf", "fusion_lon": 0.0, "lon": -77.0774535, "lat": 38.943746, "is_reserved": 0, "is_disabled": 0, "rental_uris": {"android": "https://dc.lft.to/lastmile_qr_scan", "ios": "https://dc.lft.to/lastmile_qr_scan"}, "name": "14a1e94dd5bace91fda16eeb9fdf4faf", "type": "electric_scooter"}, {"fusion_lat": 0.0, "bike_id": "6c95951dcf69576915c5b5c6515bdceb", "fusion_lon": 0.0, "lon": -77.01737366666667, "lat": 38.8874085, "is_reserved": 0, "is_disabled": 0, "rental_uris": {"android": "https://dc.lft.to/lastmile_qr_scan", "ios": "https://dc.lft.to/lastmile_qr_scan"}, "name": "6c95951dcf69576915c5b5c6515bdceb", "type": "electric_scooter"}, {"fusion_lat": 0.0, "bike_id": "2a6362a5deee233f5539050197098c19", "fusion_lon": 0.0, "lon": -77.00643233333334, "lat": 38.87161433333333, "is_reserved": 0, "is_disabled": 0, "rental_uris": {"android": "https://dc.lft.to/lastmile_qr_scan", "ios": "https://dc.lft.to/lastmile_qr_scan"}, "name": "2a6362a5deee233f5539050197098c19", "type": "electric_scooter"}, {"fusion_lat": 0.0, "bike_id": "08ce1b3da2900fed7a68fed6b4e74c68", "fusion_lon": 0.0, "lon": -76.98799166666667, "lat": 38.892423666666666, "is_reserved": 0, "is_disabled": 0, "rental_uris": {"android": "https://dc.lft.to/lastmile_qr_scan", "ios": "https://dc.lft.to/lastmile_qr_scan"}, "name": "08ce1b3da2900fed7a68fed6b4e74c68", "type": "electric_scooter"}, {"fusion_lat": 0.0, "bike_id": "75b86a69430276ca4d4085257cade9d8", "fusion_lon": 0.0, "lon": -77.015603, "lat": 38.91496033333333, "is_reserved": 0, "is_disabled": 0, "rental_uris": {"android": "https://dc.lft.to/lastmile_qr_scan", "ios": "https://dc.lft.to/lastmile_qr_scan"}, "name": "75b86a69430276ca4d4085257cade9d8", "type": "electric_scooter"}, {"fusion_lat": 0.0, "bike_id": "c0823c6852f07c14fefba728a79eb69d", "fusion_lon": 0.0, "lon": -77.04106866666666, "lat": 38.91550566666667, "is_reserved": 0, "is_disabled": 0, "rental_uris": {"android": "https://dc.lft.to/lastmile_qr_scan", "ios": "https://dc.lft.to/lastmile_qr_scan"}, "name": "c0823c6852f07c14fefba728a79eb69d", "type": "electric_scooter"}, {"fusion_lat": 0.0, "bike_id": "502100a53db05c3ed93fff3e735f3d18", "fusion_lon": 0.0, "lon": -77.035515, "lat": 38.923995, "is_reserved": 0, "is_disabled": 0, "rental_uris": {"android": "https://dc.lft.to/lastmile_qr_scan", "ios": "https://dc.lft.to/lastmile_qr_scan"}, "name": "502100a53db05c3ed93fff3e735f3d18", "type": "electric_scooter"}, {"fusion_lat": 0.0, "bike_id": "8959c4b274e9dc81ab15ac18e91bc160", "fusion_lon": 0.0, "lon": -77.02530316666666, "lat": 38.9181975, "is_reserved": 0, "is_disabled": 0, "rental_uris": {"android": "https://dc.lft.to/lastmile_qr_scan", "ios": "https://dc.lft.to/lastmile_qr_scan"}, "name": "8959c4b274e9dc81ab15ac18e91bc160", "type": "electric_scooter"}, {"fusion_lat": 0.0, "bike_id": "cc764465f2f8d9c6607c842e05f84fe2", "fusion_lon": 0.0, "lon": -77.01782066666667, "lat": 38.8859565, "is_reserved": 0, "is_disabled": 0, "rental_uris": {"android": "https://dc.lft.to/lastmile_qr_scan", "ios": "https://dc.lft.to/lastmile_qr_scan"}, "name": "cc764465f2f8d9c6607c842e05f84fe2", "type": "electric_scooter"}, {"fusion_lat": 0.0, "bike_id": "bdeb9cbcdda96c761f4b1f35f1bbd868", "fusion_lon": 0.0, "lon": -77.02842083333333, "lat": 38.88746116666667, "is_reserved": 0, "is_disabled": 0, "rental_uris": {"android": "https://dc.lft.to/lastmile_qr_scan", "ios": "https://dc.lft.to/lastmile_qr_scan"}, "name": "bdeb9cbcdda96c761f4b1f35f1bbd868", "type": "electric_scooter"}, {"fusion_lat": 0.0, "bike_id": "e900e0794284968f3b3ed8903b576eb0", "fusion_lon": 0.0, "lon": -77.03845283333334, "lat": 38.921646833333334, "is_reserved": 0, "is_disabled": 0, "rental_uris": {"android": "https://dc.lft.to/lastmile_qr_scan", "ios": "https://dc.lft.to/lastmile_qr_scan"}, "name": "e900e0794284968f3b3ed8903b576eb0", "type": "electric_scooter"}, {"fusion_lat": 0.0, "bike_id": "cef5839c09afef7874517b7245f9f8b1", "fusion_lon": 0.0, "lon": -77.02204483333334, "lat": 38.922376666666665, "is_reserved": 0, "is_disabled": 0, "rental_uris": {"android": "https://dc.lft.to/lastmile_qr_scan", "ios": "https://dc.lft.to/lastmile_qr_scan"}, "name": "cef5839c09afef7874517b7245f9f8b1", "type": "electric_scooter"}, {"fusion_lat": 0.0, "bike_id": "31fa8270b61a3184e2d61940aabf22b9", "fusion_lon": 0.0, "lon": -77.0760705, "lat": 38.920584, "is_reserved": 0, "is_disabled": 0, "rental_uris": {"android": "https://dc.lft.to/lastmile_qr_scan", "ios": "https://dc.lft.to/lastmile_qr_scan"}, "name": "31fa8270b61a3184e2d61940aabf22b9", "type": "electric_scooter"}, {"fusion_lat": 0.0, "bike_id": "8b0c0ad5871dc1fc373ed2fcc639b7cc", "fusion_lon": 0.0, "lon": -77.05181266666666, "lat": 38.9030555, "is_reserved": 0, "is_disabled": 0, "rental_uris": {"android": "https://dc.lft.to/lastmile_qr_scan", "ios": "https://dc.lft.to/lastmile_qr_scan"}, "name": "8b0c0ad5871dc1fc373ed2fcc639b7cc", "type": "electric_scooter"}, {"fusion_lat": 0.0, "bike_id": "18849cb2e0512f4628159423fe3594f4", "fusion_lon": 0.0, "lon": -76.98092366666667, "lat": 38.90403583333333, "is_reserved": 0, "is_disabled": 0, "rental_uris": {"android": "https://dc.lft.to/lastmile_qr_scan", "ios": "https://dc.lft.to/lastmile_qr_scan"}, "name": "18849cb2e0512f4628159423fe3594f4", "type": "electric_scooter"}, {"fusion_lat": 0.0, "bike_id": "8cf821992122988e3e4c4270ebf6b21f", "fusion_lon": 0.0, "lon": -76.98620266666667, "lat": 38.882847166666664, "is_reserved": 0, "is_disabled": 0, "rental_uris": {"android": "https://dc.lft.to/lastmile_qr_scan", "ios": "https://dc.lft.to/lastmile_qr_scan"}, "name": "8cf821992122988e3e4c4270ebf6b21f", "type": "electric_scooter"}, {"fusion_lat": 0.0, "bike_id": "1f9a70d8174c2416c60ffd57a5587be9", "fusion_lon": 0.0, "lon": -77.0418045, "lat": 38.8925135, "is_reserved": 0, "is_disabled": 0, "rental_uris": {"android": "https://dc.lft.to/lastmile_qr_scan", "ios": "https://dc.lft.to/lastmile_qr_scan"}, "name": "1f9a70d8174c2416c60ffd57a5587be9", "type": "electric_scooter"}, {"fusion_lat": 0.0, "bike_id": "1dfc8b935af997b4e71ad0fcf6eec653", "fusion_lon": 0.0, "lon": -77.116144, "lat": 38.85490333333333, "is_reserved": 0, "is_disabled": 0, "rental_uris": {"android": "https://dc.lft.to/lastmile_qr_scan", "ios": "https://dc.lft.to/lastmile_qr_scan"}, "name": "1dfc8b935af997b4e71ad0fcf6eec653", "type": "electric_bike"}, {"fusion_lat": 0.0, "bike_id": "8645414cd01ea1694537400eae301663", "fusion_lon": 0.0, "lon": -76.98192766666666, "lat": 38.967416, "is_reserved": 0, "is_disabled": 0, "rental_uris": {"android": "https://dc.lft.to/lastmile_qr_scan", "ios": "https://dc.lft.to/lastmile_qr_scan"}, "name": "8645414cd01ea1694537400eae301663", "type": "electric_bike"}, {"fusion_lat": 0.0, "bike_id": "afc8a15b8e4a7d37bf839172ceb773a2", "fusion_lon": 0.0, "lon": -77.01342316666667, "lat": 38.87814316666667, "is_reserved": 0, "is_disabled": 0, "rental_uris": {"android": "https://dc.lft.to/lastmile_qr_scan", "ios": "https://dc.lft.to/lastmile_qr_scan"}, "name": "afc8a15b8e4a7d37bf839172ceb773a2", "type": "electric_scooter"}, {"fusion_lat": 0.0, "bike_id": "1312dff0c7f0af79096ae45711625c63", "fusion_lon": 0.0, "lon": -77.02872566666667, "lat": 38.916826666666665, "is_reserved": 0, "is_disabled": 0, "rental_uris": {"android": "https://dc.lft.to/lastmile_qr_scan", "ios": "https://dc.lft.to/lastmile_qr_scan"}, "name": "1312dff0c7f0af79096ae45711625c63", "type": "electric_scooter"}, {"fusion_lat": 0.0, "bike_id": "717f38ff54963650841eecd7ad867387", "fusion_lon": 0.0, "lon": -77.02083716666667, "lat": 38.88177983333333, "is_reserved": 0, "is_disabled": 0, "rental_uris": {"android": "https://dc.lft.to/lastmile_qr_scan", "ios": "https://dc.lft.to/lastmile_qr_scan"}, "name": "717f38ff54963650841eecd7ad867387", "type": "electric_scooter"}, {"fusion_lat": 0.0, "bike_id": "f1a03e7ac8c1cc00457d6006c397f61b", "fusion_lon": 0.0, "lon": -77.05492816666667, "lat": 39.014785, "is_reserved": 0, "is_disabled": 0, "rental_uris": {"android": "https://dc.lft.to/lastmile_qr_scan", "ios": "https://dc.lft.to/lastmile_qr_scan"}, "name": "f1a03e7ac8c1cc00457d6006c397f61b", "type": "electric_bike"}, {"fusion_lat": 0.0, "bike_id": "7dc7509eecb9dfcd619be47e90395f2a", "fusion_lon": 0.0, "lon": -77.02451, "lat": 38.935135, "is_reserved": 0, "is_disabled": 0, "rental_uris": {"android": "https://dc.lft.to/lastmile_qr_scan", "ios": "https://dc.lft.to/lastmile_qr_scan"}, "name": "7dc7509eecb9dfcd619be47e90395f2a", "type": "electric_scooter"}, {"fusion_lat": 0.0, "bike_id": "582bd9219ebe88b988550f08c14778fa", "fusion_lon": 0.0, "lon": -77.02842766666667, "lat": 38.9342095, "is_reserved": 0, "is_disabled": 0, "rental_uris": {"android": "https://dc.lft.to/lastmile_qr_scan", "ios": "https://dc.lft.to/lastmile_qr_scan"}, "name": "582bd9219ebe88b988550f08c14778fa", "type": "electric_scooter"}, {"fusion_lat": 0.0, "bike_id": "61bf36333d2bcace21592fcf98cc93ab", "fusion_lon": 0.0, "lon": -77.0228425, "lat": 38.90786633333333, "is_reserved": 0, "is_disabled": 0, "rental_uris": {"android": "https://dc.lft.to/lastmile_qr_scan", "ios": "https://dc.lft.to/lastmile_qr_scan"}, "name": "61bf36333d2bcace21592fcf98cc93ab", "type": "electric_scooter"}, {"fusion_lat": 0.0, "bike_id": "8d61a5be637fc6dabae309345c9380f5", "fusion_lon": 0.0, "lon": -77.03761833333333, "lat": 38.90776866666667, "is_reserved": 0, "is_disabled": 0, "rental_uris": {"android": "https://dc.lft.to/lastmile_qr_scan", "ios": "https://dc.lft.to/lastmile_qr_scan"}, "name": "8d61a5be637fc6dabae309345c9380f5", "type": "electric_scooter"}, {"fusion_lat": 0.0, "bike_id": "a1690947a81ce4ee319d10730b25cbdd", "fusion_lon": 0.0, "lon": -77.02770583333333, "lat": 38.89196116666667, "is_reserved": 0, "is_disabled": 0, "rental_uris": {"android": "https://dc.lft.to/lastmile_qr_scan", "ios": "https://dc.lft.to/lastmile_qr_scan"}, "name": "a1690947a81ce4ee319d10730b25cbdd", "type": "electric_scooter"}, {"fusion_lat": 0.0, "bike_id": "6d37680722781180cd3e17ddc8ba962e", "fusion_lon": 0.0, "lon": -77.033895, "lat": 38.90709666666667, "is_reserved": 0, "is_disabled": 0, "rental_uris": {"android": "https://dc.lft.to/lastmile_qr_scan", "ios": "https://dc.lft.to/lastmile_qr_scan"}, "name": "6d37680722781180cd3e17ddc8ba962e", "type": "electric_scooter"},