{"data": {"bikes": [{"rental_uris": {"ios": "https://dc.lft.to/lastmile_qr_scan", "android": "https://dc.lft.to/lastmile_qr_scan"}, "is_reserved": 0, "fusion_lat": 0.0, "type": "electric_scooter", "bike_id": "01aabda00b24afc582a6df14cc7ac933", "is_disabled": 0, "lon": -77.0404795, "fusion_lon": 0.0, "name": "01aabda00b24afc582a6df14cc7ac933", "lat": 38.9049895}, {"rental_uris": {"ios": "https://dc.lft.to/lastmile_qr_scan", "android": "https://dc.lft.to/lastmile_qr_scan"}, "is_reserved": 0, "fusion_lat": 0.0, "type": "electric_scooter", "bike_id": "20d71487259481a370996076268cc847", "is_disabled": 0, "lon": -77.01004166666667, "fusion_lon": 0.0, "name": "20d71487259481a370996076268cc847", "lat": 38.90260216666667}, {"rental_uris": {"ios": "https://dc.lft.to/lastmile_qr_scan", "android": "https://dc.lft.to/lastmile_qr_scan"}, "is_reserved": 0, "fusion_lat": 0.0, "type": "electric_scooter", "bike_id": "eed8f04c7b682f04ec3be01636f37830", "is_disabled": 0, "lon": -77.0238125, "fusion_lon": 0.0, "name": "eed8f04c7b682f04ec3be01636f37830", "lat": 38.9115535}, {"rental_uris": {"ios": "https://dc.lft.to/lastmile_qr_scan", "android": "https://dc.lft.to/lastmile_qr_scan"}, "is_reserved": 0, "fusion_lat": 0.0, "type": "electric_scooter", "bike_id": "6e29b518f8801cedb65ab2bffe19fffe", "is_disabled": 0, "lon": -77.0038, "fusion_lon": 0.0, "name": "6e29b518f8801cedb65ab2bffe19fffe", "lat": 38.90607516666667}, {"rental_uris": {"ios": "https://dc.lft.to/lastmile_qr_scan", "android": "https://dc.lft.to/lastmile_qr_scan"}, "is_reserved": 0, "fusion_lat": 0.0, "type": "electric_scooter", "bike_id": "906cdd7af74cf8c76a7d6c7eb6f1580e", "is_disabled": 0, "lon": -77.01794433333333, "fusion_lon": 0.0, "name": "906cdd7af74cf8c76a7d6c7eb6f1580e", "lat": 38.9013685}, {"rental_uris": {"ios": "https://dc.lft.to/lastmile_qr_scan", "android": "https://dc.lft.to/lastmile_qr_scan"}, "is_reserved": 0, "fusion_lat": 0.0, "type": "electric_scooter", "bike_id": "b476c2efdbd47e0ca11c2fd651c93606", "is_disabled": 0, "lon": -76.99946783333333, "fusion_lon": 0.0, "name": "b476c2efdbd47e0ca11c2fd651c93606", "lat": 38.9004485}, {"rental_uris": {"ios": "https://dc.lft.to/lastmile_qr_scan", "android": "https://dc.lft.to/lastmile_qr_scan"}, "is_reserved": 0, "fusion_lat": 0.0, "type": "electric_scooter", "bike_id": "4fcc93ba5d69a7aa22851e902cc70b5d", "is_disabled": 0, "lon": -77.00575233333333, "fusion_lon": 0.0, "name": "4fcc93ba5d69a7aa22851e902cc70b5d", "lat": 38.88518466666667}, {"rental_uris": {"ios": "https://dc.lft.to/lastmile_qr_scan", "android": "https://dc.lft.to/lastmile_qr_scan"}, "is_reserved": 0, "fusion_lat": 0.0, "type": "electric_scooter", "bike_id": "1873db378177a6050829150cf52bc16e", "is_disabled": 0, "lon": -77.046375, "fusion_lon": 0.0, "name": "1873db378177a6050829150cf52bc16e", "lat": 38.922375333333335}, {"rental_uris": {"ios": "https://dc.lft.to/lastmile_qr_scan", "android": "https://dc.lft.to/lastmile_qr_scan"}, "is_reserved": 0, "fusion_lat": 0.0, "type": "electric_scooter", "bike_id": "f2f6204d2441e0e1ba5f58b47d03b4d2", "is_disabled": 0, "lon": -77.0320635, "fusion_lon": 0.0, "name": "f2f6204d2441e0e1ba5f58b47d03b4d2", "lat": 38.907788}, {"rental_uris": {"ios": "https://dc.lft.to/lastmile_qr_scan", "android": "https://dc.lft.to/lastmile_qr_scan"}, "is_reserved": 0, "fusion_lat": 0.0, "type": "electric_scooter", "bike_id": "9e6c9daece518277357ede4c5dcf9fbd", "is_disabled": 0, "lon": -77.00843416666666, "fusion_lon": 0.0, "name": "9e6c9daece518277357ede4c5dcf9fbd", "lat": 38.89714266666667}, {"rental_uris": {"ios": "https://dc.lft.to/lastmile_qr_scan", "android": "https://dc.lft.to/lastmile_qr_scan"}, "is_reserved": 0, "fusion_lat": 0.0, "type": "electric_scooter", "bike_id": "53d5bea40b4023102373a8a65e2c5afc", "is_disabled": 0, "lon": -77.03449633333334, "fusion_lon": 0.0, "name": "53d5bea40b4023102373a8a65e2c5afc", "lat": 38.904765166666664}, {"rental_uris": {"ios": "https://dc.lft.to/lastmile_qr_scan", "android": "https://dc.lft.to/lastmile_qr_scan"}, "is_reserved": 0, "fusion_lat": 0.0, "type": "electric_scooter", "bike_id": "03c70c66b837360054449b1068a8d3a8", "is_disabled": 0, "lon": -77.034601, "fusion_lon": 0.0, "name": "03c70c66b837360054449b1068a8d3a8", "lat": 38.90570683333333}, {"rental_uris": {"ios": "https://dc.lft.to/lastmile_qr_scan", "android": "https://dc.lft.to/lastmile_qr_scan"}, "is_reserved": 0, "fusion_lat": 0.0, "type": "electric_scooter", "bike_id": "fdeb8d75133dc5c08e2d4176a72847ad", "is_disabled": 0, "lon": -77.04263683333333, "fusion_lon": 0.0, "name": "fdeb8d75133dc5c08e2d4176a72847ad", "lat": 38.895396833333336}, {"rental_uris": {"ios": "https://dc.lft.to/lastmile_qr_scan", "android": "https://dc.lft.to/lastmile_qr_scan"}, "is_reserved": 0, "fusion_lat": 0.0, "type": "electric_scooter", "bike_id": "89dfdbd897368ce1684676183b8d3e62", "is_disabled": 0, "lon": -77.0384095, "fusion_lon": 0.0, "name": "89dfdbd897368ce1684676183b8d3e62", "lat": 38.9419195}, {"rental_uris": {"ios": "https://dc.lft.to/lastmile_qr_scan", "android": "https://dc.lft.to/lastmile_qr_scan"}, "is_reserved": 0, "fusion_lat": 0.0, "type": "electric_scooter", "bike_id": "4b1137179214787caba9799f51098e38", "is_disabled": 0, "lon": -76.99035366666666, "fusion_lon": 0.0, "name": "4b1137179214787caba9799f51098e38", "lat": 38.92489333333333}, {"rental_uris": {"ios": "https://dc.lft.to/lastmile_qr_scan", "android": "https://dc.lft.to/lastmile_qr_scan"}, "is_reserved": 0, "fusion_lat": 0.0, "type": "electric_scooter", "bike_id": "02fef7620cdf696a43c41196b4639eda", "is_disabled": 0, "lon": -76.98195833333334, "fusion_lon": 0.0, "name": "02fef7620cdf696a43c41196b4639eda", "lat": 38.92063483333333}, {"rental_uris": {"ios": "https://dc.lft.to/lastmile_qr_scan", "android": "https://dc.lft.to/lastmile_qr_scan"}, "is_reserved": 0, "fusion_lat": 0.0, "type": "electric_bike", "bike_id": "e59292fcc3f62d923a1023437c1c89ed", "is_disabled": 0, "lon": -76.993658, "fusion_lon": 0.0, "name": "e59292fcc3f62d923a1023437c1c89ed", "lat": 38.99102833333333}, {"rental_uris": {"ios": "https://dc.lft.to/lastmile_qr_scan", "android": "https://dc.lft.to/lastmile_qr_scan"}, "is_reserved": 0, "fusion_lat": 0.0, "type": "electric_scooter", "bike_id": "6cddb78ff8cceb8124c7b5a80fe8aff3", "is_disabled": 0, "lon": -76.99493316666667, "fusion_lon": 0.0, "name": "6cddb78ff8cceb8124c7b5a80fe8aff3", "lat": 38.899724666666664}, {"rental_uris": {"ios": "https://dc.lft.to/lastmile_qr_scan", "android": "https://dc.lft.to/lastmile_qr_scan"}, "is_reserved": 0, "fusion_lat": 0.0, "type": "electric_scooter", "bike_id": "b4e6465b02ca3b19ba0c38882264a6bf", "is_disabled": 0, "lon": -77.02205016666667, "fusion_lon": 0.0, "name": "b4e6465b02ca3b19ba0c38882264a6bf", "lat": 38.892349333333335}, {"rental_uris": {"ios": "https://dc.lft.to/lastmile_qr_scan", "android": "https://dc.lft.to/lastmile_qr_scan"}, "is_reserved": 0, "fusion_lat": 0.0, "type": "electric_scooter", "bike_id": "e7dd3c482c0efd9c18f7d4f1f893ff09", "is_disabled": 0, "lon": -77.0244255, "fusion_lon": 0.0, "name": "e7dd3c482c0efd9c18f7d4f1f893ff09", "lat": 38.923052166666665}, {"rental_uris": {"ios": "https://dc.lft.to/lastmile_qr_scan", "android": "https://dc.lft.to/lastmile_qr_scan"}, "is_reserved": 0, "fusion_lat": 0.0, "type": "electric_scooter", "bike_id": "7907f9a571ad5b370ce0c1afbdfca5bc", "is_disabled": 0, "lon": -77.02411783333334, "fusion_lon": 0.0, "name": "7907f9a571ad5b370ce0c1afbdfca5bc", "lat": 38.944033166666664}, {"rental_uris": {"ios": "https://dc.lft.to/lastmile_qr_scan", "android": "https://dc.lft.to/lastmile_qr_scan"}, "is_reserved": 0, "fusion_lat": 0.0, "type": "electric_bike", "bike_id": "77314eb5bfcfbaffb52b817e5af2bd1c", "is_disabled": 0, "lon": -77.01684433333334, "fusion_lon": 0.0, "name": "77314eb5bfcfbaffb52b817e5af2bd1c", "lat": 38.9754}, {"rental_uris": {"ios": "https://dc.lft.to/lastmile_qr_scan", "android": "https://dc.lft.to/lastmile_qr_scan"}, "is_reserved": 0, "fusion_lat": 0.0, "type": "electric_scooter", "bike_id": "82a7de4e2fa8dcab066232f88e6f4b0a", "is_disabled": 0, "lon": -76.99798466666667, "fusion_lon": 0.0, "name": "82a7de4e2fa8dcab066232f88e6f4b0a", "lat": 38.90854816666667}, {"rental_uris": {"ios": "https://dc.lft.to/lastmile_qr_scan", "android": "https://dc.lft.to/lastmile_qr_scan"}, "is_reserved": 0, "fusion_lat": 0.0, "type": "electric_scooter", "bike_id": "42ec83bb1c80eb7d6f8ee173fdeeb239", "is_disabled": 0, "lon": -76.98564366666666, "fusion_lon": 0.0, "name": "42ec83bb1c80eb7d6f8ee173fdeeb239", "lat": 38.86682483333333}, {"rental_uris": {"ios": "https://dc.lft.to/lastmile_qr_scan", "android": "https://dc.lft.to/lastmile_qr_scan"}, "is_reserved": 0, "fusion_lat": 0.0, "type": "electric_scooter", "bike_id": "e89372f2d89a32b10eb833a704ee2725", "is_disabled": 0, "lon": -77.04171983333333, "fusion_lon": 0.0, "name": "e89372f2d89a32b10eb833a704ee2725", "lat": 38.9200045}, {"rental_uris": {"ios": "https://dc.lft.to/lastmile_qr_scan", "android": "https://dc.lft.to/lastmile_qr_scan"}, "is_reserved": 0, "fusion_lat": 0.0, "type": "electric_scooter", "bike_id": "c464e10cc6118ca9a6b60f4059799c23", "is_disabled": 0, "lon": -77.00417183333333, "fusion_lon": 0.0, "name": "c464e10cc6118ca9a6b60f4059799c23", "lat": 38.87709866666667}, {"rental_uris": {"ios": "https://dc.lft.to/lastmile_qr_scan", "android": "https://dc.lft.to/lastmile_qr_scan"}, "is_reserved": 0, "fusion_lat": 0.0, "type": "electric_bike", "bike_id": "46d96bd655e2b342e4fad7a537dbf6ad", "is_disabled": 0, "lon": -77.0205085, "fusion_lon": 0.0, "name": "46d96bd655e2b342e4fad7a537dbf6ad", "lat": 38.9468955}, {"rental_uris": {"ios": "https://dc.lft.to/lastmile_qr_scan", "android": "https://dc.lft.to/lastmile_qr_scan"}, "is_reserved": 0, "fusion_lat": 0.0, "type": "electric_scooter", "bike_id": "5c705d0383f576431222e1d8218b04d6", "is_disabled": 0, "lon": -77.05032933333334, "fusion_lon": 0.0, "name": "5c705d0383f576431222e1d8218b04d6", "lat": 38.923641833333335}, {"rental_uris": {"ios": "https://dc.lft.to/lastmile_qr_scan", "android": "https://dc.lft.to/lastmile_qr_scan"}, "is_reserved": 0, "fusion_lat": 0.0, "type": "electric_scooter", "bike_id": "7abfc32962b8d1608857ea6ea41d72ee", "is_disabled": 0, "lon": -77.0752635, "fusion_lon": 0.0, "name": "7abfc32962b8d1608857ea6ea41d72ee", "lat": 38.939630666666666}, {"rental_uris": {"ios": "https://dc.lft.to/lastmile_qr_scan", "android": "https://dc.lft.to/lastmile_qr_scan"}, "is_reserved": 0, "fusion_lat": 0.0, "type": "electric_scooter", "bike_id": "704951e618605728846959d0c54c6890", "is_disabled": 0, "lon": -77.00531466666666, "fusion_lon": 0.0, "name": "704951e618605728846959d0c54c6890", "lat": 38.89610483333333}, {"rental_uris": {"ios": "https://dc.lft.to/lastmile_qr_scan", "android": "https://dc.lft.to/lastmile_qr_scan"}, "is_reserved": 0, "fusion_lat": 0.0, "type": "electric_scooter", "bike_id": "6e936176dccec147291b3faf6d092a35", "is_disabled": 0, "lon": -76.982291, "fusion_lon": 0.0, "name": "6e936176dccec147291b3faf6d092a35", "lat": 38.878802666666665}, {"rental_uris": {"ios": "https://dc.lft.to/lastmile_qr_scan", "android": "https://dc.lft.to/lastmile_qr_scan"}, "is_reserved": 0, "fusion_lat": 0.0, "type": "electric_scooter", "bike_id": "b9e57ebce67c69060c6c6864c430fa16", "is_disabled": 0, "lon": -77.009178, "fusion_lon": 0.0, "name": "b9e57ebce67c69060c6c6864c430fa16", "lat": 38.9673115}, {"rental_uris": {"ios": "https://dc.lft.to/lastmile_qr_scan", "android": "https://dc.lft.to/lastmile_qr_scan"}, "is_reserved": 0, "fusion_lat": 0.0, "type": "electric_scooter", "bike_id": "cae6e917ce121581e2afcb671c272661", "is_disabled": 0, "lon": -77.03201533333333, "fusion_lon": 0.0, "name": "cae6e917ce121581e2afcb671c272661", "lat": 38.917400666666666}, {"rental_uris": {"ios": "https://dc.lft.to/lastmile_qr_scan", "android": "https://dc.lft.to/lastmile_qr_scan"}, "is_reserved": 0, "fusion_lat": 0.0, "type": "electric_scooter", "bike_id": "df2f8c2ae8f3168b6ccacbaff9497653", "is_disabled": 0, "lon": -77.01722216666667, "fusion_lon": 0.0, "name": "df2f8c2ae8f3168b6ccacbaff9497653", "lat": 38.883275833333336}, {"rental_uris": {"ios": "https://dc.lft.to/lastmile_qr_scan", "android": "https://dc.lft.to/lastmile_qr_scan"}, "is_reserved": 0, "fusion_lat": 0.0, "type": "electric_scooter", "bike_id": "3225b9ce33c961019dffd85029440922", "is_disabled": 0, "lon": -77.02377583333333, "fusion_lon": 0.0, "name": "3225b9ce33c961019dffd85029440922", "lat": 38.95248316666667}, {"rental_uris": {"ios": "https://dc.lft.to/lastmile_qr_scan", "android": "https://dc.lft.to/lastmile_qr_scan"}, "is_reserved": 0, "fusion_lat": 0.0, "type": "electric_scooter", "bike_id": "0f3cca83702809e347bbf2df92c9fc42", "is_disabled": 0, "lon": -77.01879966666667, "fusion_lon": 0.0, "name": "0f3cca83702809e347bbf2df92c9fc42", "lat": 38.90562233333333}, {"rental_uris": {"ios": "https://dc.lft.to/lastmile_qr_scan", "android": "https://dc.lft.to/lastmile_qr_scan"}, "is_reserved": 0, "fusion_lat": 0.0, "type": "electric_scooter", "bike_id": "859cf5ebd4498a38fc740a91b46b9b5c", "is_disabled": 0, "lon": -77.10158433333334, "fusion_lon": 0.0, "name": "859cf5ebd4498a38fc740a91b46b9b5c", "lat": 38.92486916666667}, {"rental_uris": {"ios": "https://dc.lft.to/lastmile_qr_scan", "android": "https://dc.lft.to/lastmile_qr_scan"}, "is_reserved": 0, "fusion_lat": 0.0, "type": "electric_scooter", "bike_id": "a05e662d312699a4454454509a884abd", "is_disabled": 0, "lon": -77.051315, "fusion_lon": 0.0, "name": "a05e662d312699a4454454509a884abd", "lat": 38.905938666666664}, {"rental_uris": {"ios": "https://dc.lft.to/lastmile_qr_scan", "android": "https://dc.lft.to/lastmile_qr_scan"}, "is_reserved": 0, "fusion_lat": 0.0, "type": "electric_scooter", "bike_id": "cb6c44f5b490956863373f1ef47124e0", "is_disabled": 0, "lon": -77.02843083333333, "fusion_lon": 0.0, "name": "cb6c44f5b490956863373f1ef47124e0", "lat": 38.89643266666667}, {"rental_uris": {"ios": "https://dc.lft.to/lastmile_qr_scan", "android": "https://dc.lft.to/lastmile_qr_scan"}, "is_reserved": 0, "fusion_lat": 0.0, "type": "electric_scooter", "bike_id": "9562078c7faf39924c5d606ed4ba3d1f", "is_disabled": 0, "lon": -76.997097, "fusion_lon": 0.0, "name": "9562078c7faf39924c5d606ed4ba3d1f", "lat": 38.90824033333333}, {"rental_uris": {"ios": "https://dc.lft.to/lastmile_qr_scan", "android": "https://dc.lft.to/lastmile_qr_scan"}, "is_reserved": 0, "fusion_lat": 0.0, "type": "electric_scooter", "bike_id": "a75dd2b9f5f9b4ec4a9e947fee366047", "is_disabled": 0, "lon": -77.02633383333334, "fusion_lon": 0.0, "name": "a75dd2b9f5f9b4ec4a9e947fee366047", "lat": 38.896395}, {"rental_uris": {"ios": "https://dc.lft.to/lastmile_qr_scan", "android": "https://dc.lft.to/lastmile_qr_scan"}, "is_reserved": 0, "fusion_lat": 0.0, "type": "electric_scooter", "bike_id": "19ed8e53895266fea530d59ae1045310", "is_disabled": 0, "lon": -77.0076095, "fusion_lon": 0.0, "name": "19ed8e53895266fea530d59ae1045310", "lat": 38.8969885}, {"rental_uris": {"ios": "https://dc.lft.to/lastmile_qr_scan", "android": "https://dc.lft.to/lastmile_qr_scan"}, "is_reserved": 0, "fusion_lat": 0.0, "type": "electric_scooter", "bike_id": "7cb4ad47bd56420124b3911079076fe2", "is_disabled": 0, "lon": -77.00032066666667, "fusion_lon": 0.0, "name": "7cb4ad47bd56420124b3911079076fe2", "lat": 38.87390116666667}, {"rental_uris": {"ios": "https://dc.lft.to/lastmile_qr_scan", "android": "https://dc.lft.to/lastmile_qr_scan"}, "is_reserved": 0, "fusion_lat": 0.0, "type": "electric_bike", "bike_id": "838cb3bf5cb36343f10ba0a5b8e190cf", "is_disabled": 0, "lon": -77.07109166666666, "fusion_lon": 0.0, "name": "838cb3bf5cb36343f10ba0a5b8e190cf", "lat": 38.93352466666666}, {"rental_uris": {"ios": "https://dc.lft.to/lastmile_qr_scan", "android": "https://dc.lft.to/lastmile_qr_scan"}, "is_reserved": 0, "fusion_lat": 0.0, "type": "electric_scooter", "bike_id": "6257b8028dd4280d8c2ab1f62c335431", "is_disabled": 0, "lon": -77.04535066666666, "fusion_lon": 0.0, "name": "6257b8028dd4280d8c2ab1f62c335431", "lat": 38.9006845}, {"rental_uris": {"ios": "https://dc.lft.to/lastmile_qr_scan", "android": "https://dc.lft.to/lastmile_qr_scan"}, "is_reserved": 0, "fusion_lat": 0.0, "type": "electric_scooter", "bike_id": "0ca87db781af508cf6558db4607bf7b0", "is_disabled": 0, "lon": -77.02007983333333, "fusion_lon": 0.0, "name": "0ca87db781af508cf6558db4607bf7b0", "lat": 38.90268066666667}, {"rental_uris": {"ios": "https://dc.lft.to/lastmile_qr_scan", "android": "https://dc.lft.to/lastmile_qr_scan"}, "is_reserved": 0, "fusion_lat": 0.0, "type": "electric_scooter", "bike_id": "e7d7c18c3acd0b50c78a8e50a59610b2", "is_disabled": 0, "lon": -77.00889983333333, "fusion_lon": 0.0, "name": "e7d7c18c3acd0b50c78a8e50a59610b2", "lat": 38.87673683333333}, {"rental_uris": {"ios": "https://dc.lft.to/lastmile_qr_scan", "android": "https://dc.lft.to/lastmile_qr_scan"}, "is_reserved": 0, "fusion_lat": 0.0, "type": "electric_scooter", "bike_id": "9f12b3145521335b24fe6c56596915ab", "is_disabled": 0, "lon": -77.01512216666667, "fusion_lon": 0.0, "name": "9f12b3145521335b24fe6c56596915ab", "lat": 38.8852565}, {"rental_uris": {"ios": "https://dc.lft.to/lastmile_qr_scan", "android": "https://dc.lft.to/lastmile_qr_scan"}, "is_reserved": 0, "fusion_lat": 0.0, "type": "electric_scooter", "bike_id": "bb836995859b384d61f81f8ac4b65324", "is_disabled": 0, "lon": -77.059442, "fusion_lon": 0.0, "name": "bb836995859b384d61f81f8ac4b65324", "lat": 38.90226333333333}, {"rental_uris": {"ios": "https://dc.lft.to/lastmile_qr_scan", "android": "https://dc.lft.to/lastmile_qr_scan"}, "is_reserved": 0, "fusion_lat": 0.0, "type": "electric_scooter", "bike_id": "3ab36c95d2010457f4851119034a4721", "is_disabled": 0, "lon": -76.994137, "fusion_lon": 0.0, "name": "3ab36c95d2010457f4851119034a4721", "lat": 38.91004083333333}, {"rental_uris": {"ios": "https://dc.lft.to/lastmile_qr_scan", "android": "https://dc.lft.to/lastmile_qr_scan"}, "is_reserved": 0, "fusion_lat": 0.0, "type": "electric_scooter", "bike_id": "954658cb3128e41d2bee54726b2c8de3", "is_disabled": 0, "lon": -77.01920766666667, "fusion_lon": 0.0, "name": "954658cb3128e41d2bee54726b2c8de3", "lat": 38.92176033333333}, {"rental_uris": {"ios": "https://dc.lft.to/lastmile_qr_scan", "android": "https://dc.lft.to/lastmile_qr_scan"}, "is_reserved": 0, "fusion_lat": 0.0, "type": "electric_scooter", "bike_id": "d7d3ade8c43b9b4ba57dedd823a40b8e", "is_disabled": 0, "lon": -77.03467783333333, "fusion_lon": 0.0, "name": "d7d3ade8c43b9b4ba57dedd823a40b8e", "lat": 38.917350666666664}, {"rental_uris": {"ios": "https://dc.lft.to/lastmile_qr_scan", "android": "https://dc.lft.to/lastmile_qr_scan"}, "is_reserved": 0, "fusion_lat": 0.0, "type": "electric_scooter", "bike_id": "c32c101444d3fd4b775953d87b42bbe6", "is_disabled": 0, "lon": -76.99690716666667, "fusion_lon": 0.0, "name": "c32c101444d3fd4b775953d87b42bbe6", "lat": 38.887196}, {"rental_uris": {"ios": "https://dc.lft.to/lastmile_qr_scan", "android": "https://dc.lft.to/lastmile_qr_scan"}, "is_reserved": 0, "fusion_lat": 0.0, "type": "electric_scooter", "bike_id": "fc371b8d61e679b999195df1fe1ea5cf", "is_disabled": 0, "lon": -77.0395, "fusion_lon": 0.0, "name": "fc371b8d61e679b999195df1fe1ea5cf", "lat": 38.89865016666667}, {"rental_uris": {"ios": "https://dc.lft.to/lastmile_qr_scan", "android": "https://dc.lft.to/lastmile_qr_scan"}, "is_reserved": 0, "fusion_lat": 0.0, "type": "electric_scooter", "bike_id": "9c1c8e89812ddbcfff2256cae6130d9d", "is_disabled": 0, "lon": -77.00210216666666, "fusion_lon": 0.0, "name": "9c1c8e89812ddbcfff2256cae6130d9d", "lat": 38.908431}, {"rental_uris": {"ios": "https://dc.lft.to/lastmile_qr_scan", "android": "https://dc.lft.to/lastmile_qr_scan"}, "is_reserved": 0, "fusion_lat": 0.0, "type": "electric_scooter", "bike_id": "518832d4d98117366a73138bf2e8b5c3", "is_disabled": 0, "lon": -76.99632033333333, "fusion_lon": 0.0, "name": "518832d4d98117366a73138bf2e8b5c3", "lat": 38.905333666666664}, {"rental_uris": {"ios": "https://dc.lft.to/lastmile_qr_scan", "android": "https://dc.lft.to/lastmile_qr_scan"}, "is_reserved": 0, "fusion_lat": 0.0, "type": "electric_scooter", "bike_id": "cd80254f025973fd1b86700d6d6a1ff1", "is_disabled": 0, "lon": -77.04411666666667, "fusion_lon": 0.0, "name": "cd80254f025973fd1b86700d6d6a1ff1", "lat": 38.934242}, {"rental_uris": {"ios": "https://dc.lft.to/lastmile_qr_scan", "android": "https://dc.lft.to/lastmile_qr_scan"}, "is_reserved": 0, "fusion_lat": 0.0, "type": "electric_bike", "bike_id": "8444a2527e770fa7569fdcae0f890ef8", "is_disabled": 0, "lon": -77.2289225, "fusion_lon": 0.0, "name": "8444a2527e770fa7569fdcae0f890ef8", "lat": 38.909575}, {"rental_uris": {"ios": "https://dc.lft.to/lastmile_qr_scan", "android": "https://dc.lft.to/lastmile_qr_scan"}, "is_reserved": 0, "fusion_lat": 0.0, "type": "electric_scooter", "bike_id": "2eab536045f3b4e6eacf664720753a10", "is_disabled": 0, "lon": -76.98702566666667, "fusion_lon": 0.0, "name": "2eab536045f3b4e6eacf664720753a10", "lat": 38.90032266666667}, {"rental_uris": {"ios": "https://dc.lft.to/lastmile_qr_scan", "android": "https://dc.lft.to/lastmile_qr_scan"}, "is_reserved": 0, "fusion_lat": 0.0, "type": "electric_scooter", "bike_id": "ab8374b6eae0ab340bd436d0d97687e7", "is_disabled": 0, "lon": -77.01760866666666, "fusion_lon": 0.0, "name": "ab8374b6eae0ab340bd436d0d97687e7", "lat": 38.876763833333335}, {"rental_uris": {"ios": "https://dc.lft.to/lastmile_qr_scan", "android": "https://dc.lft.to/lastmile_qr_scan"}, "is_reserved": 0, "fusion_lat": 0.0, "type": "electric_scooter", "bike_id": "a3193b4e7f10d0ef796f6e9d04eba9f7", "is_disabled": 0, "lon": -77.031446, "fusion_lon": 0.0, "name": "a3193b4e7f10d0ef796f6e9d04eba9f7", "lat": 38.90245183333333}, {"rental_uris": {"ios": "https://dc.lft.to/lastmile_qr_scan", "android": "https://dc.lft.to/lastmile_qr_scan"}, "is_reserved": 0, "fusion_lat": 0.0, "type": "electric_scooter", "bike_id": "6bd2107ba998f65f1393446940381dba", "is_disabled": 0, "lon": -76.99031416666666, "fusion_lon": 0.0, "name": "6bd2107ba998f65f1393446940381dba", "lat": 38.90152716666667}, {"rental_uris": {"ios": "https://dc.lft.to/lastmile_qr_scan", "android": "https://dc.lft.to/lastmile_qr_scan"}, "is_reserved": 0, "fusion_lat": 0.0, "type": "electric_scooter", "bike_id": "b0d7eb27388c0f76dab2daa449b4dc14", "is_disabled": 0, "lon": -77.009104, "fusion_lon": 0.0, "name": "b0d7eb27388c0f76dab2daa449b4dc14", "lat": 38.9212115}, {"rental_uris": {"ios": "https://dc.lft.to/lastmile_qr_scan", "android": "https://dc.lft.to/lastmile_qr_scan"}, "is_reserved": 0, "fusion_lat": 0.0, "type": "electric_scooter", "bike_id": "45266e6c71cf97014942c2082aa6d0f0", "is_disabled": 0, "lon": -77.0543105, "fusion_lon": 0.0, "name": "45266e6c71cf97014942c2082aa6d0f0", "lat": 38.90385716666667}, {"rental_uris": {"ios": "https://dc.lft.to/lastmile_qr_scan", "android": "https://dc.lft.to/lastmile_qr_scan"}, "is_reserved": 0, "fusion_lat": 0.0, "type": "electric_scooter", "bike_id": "0cfc4b5d6741c61516b5415316563a1d", "is_disabled": 0, "lon": -77.0424165, "fusion_lon": 0.0, "name": "0cfc4b5d6741c61516b5415316563a1d", "lat": 38.8994795}, {"rental_uris": {"ios": "https://dc.lft.to/lastmile_qr_scan", "android": "https://dc.lft.to/lastmile_qr_scan"}, "is_reserved": 0, "fusion_lat": 0.0, "type": "electric_scooter", "bike_id": "ac21f53adc591d687a3d166626b65488", "is_disabled": 0, "lon": -77.0246475, "fusion_lon": 0.0, "name": "ac21f53adc591d687a3d166626b65488", "lat": 38.92009566666667}, {"rental_uris": {"ios": "https://dc.lft.to/lastmile_qr_scan", "android": "https://dc.lft.to/lastmile_qr_scan"}, "is_reserved": 0, "fusion_lat": 0.0, "type": "electric_scooter", "bike_id": "196b0c8b0970541d6699fc41aaadb0b4", "is_disabled": 0, "lon": -77.02356116666667, "fusion_lon": 0.0, "name": "196b0c8b0970541d6699fc41aaadb0b4", "lat": 38.935309}, {"rental_uris": {"ios": "https://dc.lft.to/lastmile_qr_scan", "android": "https://dc.lft.to/lastmile_qr_scan"}, "is_reserved": 0, "fusion_lat": 0.0, "type": "electric_scooter", "bike_id": "b76d4db2d333b974bda7a3f6b98b914e", "is_disabled": 0, "lon": -77.029502, "fusion_lon": 0.0, "name": "b76d4db2d333b974bda7a3f6b98b914e", "lat": 38.943024333333334}, {"rental_uris": {"ios": "https://dc.lft.to/lastmile_qr_scan", "android": "https://dc.lft.to/lastmile_qr_scan"}, "is_reserved": 0, "fusion_lat": 0.0, "type": "electric_scooter", "bike_id": "4b135e070985c7d48f16903ed8eed149", "is_disabled": 0, "lon": -76.98882816666666, "fusion_lon": 0.0, "name": "4b135e070985c7d48f16903ed8eed149", "lat": 38.8665455}, {"rental_uris": {"ios": "https://dc.lft.to/lastmile_qr_scan", "android": "https://dc.lft.to/lastmile_qr_scan"}, "is_reserved": 0, "fusion_lat": 0.0, "type": "electric_scooter", "bike_id": "b5e003f19a4920de2170883eb3399711", "is_disabled": 0, "lon": -76.99923033333333, "fusion_lon": 0.0, "name": "b5e003f19a4920de2170883eb3399711", "lat": 38.909194166666666}, {"rental_uris": {"ios": "https://dc.lft.to/lastmile_qr_scan", "android": "https://dc.lft.to/lastmile_qr_scan"}, "is_reserved": 0, "fusion_lat": 0.0, "type": "electric_scooter", "bike_id": "b98f61bcf8578cedb4cc3b932f04d75a", "is_disabled": 0, "lon": -77.07874566666666, "fusion_lon": 0.0, "name": "b98f61bcf8578cedb4cc3b932f04d75a", "lat": 38.948703333333334}, {"rental_uris": {"ios": "https://dc.lft.to/lastmile_qr_scan", "android": "https://dc.lft.to/lastmile_qr_scan"}, "is_reserved": 0, "fusion_lat": 0.0, "type": "electric_scooter", "bike_id": "f97a6f1598c75e7250a361d335819ec0", "is_disabled": 0, "lon": -76.987023, "fusion_lon": 0.0, "name": "f97a6f1598c75e7250a361d335819ec0", "lat": 38.900300666666666}, {"rental_uris": {"ios": "https://dc.lft.to/lastmile_qr_scan", "android": "https://dc.lft.to/lastmile_qr_scan"}, "is_reserved": 0, "fusion_lat": 0.0, "type": "electric_bike", "bike_id": "14f45b8d82142766dd8746fdfbe6318e", "is_disabled": 0, "lon": -77.03424733333334, "fusion_lon": 0.0, "name": "14f45b8d82142766dd8746fdfbe6318e", "lat": 38.936660333333336}, {"rental_uris": {"ios": "https://dc.lft.to/lastmile_qr_scan", "android": "https://dc.lft.to/lastmile_qr_scan"}, "is_reserved": 0, "fusion_lat": 0.0, "type": "electric_scooter", "bike_id": "16ec3c8fd433681a258ff660172980c0", "is_disabled": 0, "lon": -77.02847166666666, "fusion_lon": 0.0, "name": "16ec3c8fd433681a258ff660172980c0", "lat": 38.933452333333335}, {"rental_uris": {"ios": "https://dc.lft.to/lastmile_qr_scan", "android": "https://dc.lft.to/lastmile_qr_scan"}, "is_reserved": 0, "fusion_lat": 0.0, "type": "electric_scooter", "bike_id": "7250512534348c55e57c4c9451563b88", "is_disabled": 0, "lon": -77.02691833333333, "fusion_lon": 0.0, "name": "7250512534348c55e57c4c9451563b88", "lat": 38.90667033333333}, {"rental_uris": {"ios": "https://dc.lft.to/lastmile_qr_scan", "android": "https://dc.lft.to/lastmile_qr_scan"}, "is_reserved": 0, "fusion_lat": 0.0, "type": "electric_scooter", "bike_id": "20da1b7e8fe64dde2ec17f608ba8e504", "is_disabled": 0, "lon": -76.93130716666667, "fusion_lon": 0.0, "name": "20da1b7e8fe64dde2ec17f608ba8e504", "lat": 38.89825233333333}, {"rental_uris": {"ios": "https://dc.lft.to/lastmile_qr_scan", "android": "https://dc.lft.to/lastmile_qr_scan"}, "is_reserved": 0, "fusion_lat": 0.0, "type": "electric_scooter", "bike_id": "11d92cbe10b25074db59aff8d5ff26a4", "is_disabled": 0, "lon": -77.01406833333333, "fusion_lon": 0.0, "name": "11d92cbe10b25074db59aff8d5ff26a4", "lat": 38.92818666666667}, {"rental_uris": {"ios": "https://dc.lft.to/lastmile_qr_scan", "android": "https://dc.lft.to/lastmile_qr_scan"}, "is_reserved": 0, "fusion_lat": 0.0, "type": "electric_bike", "bike_id": "7eff30e0b0cde7c13e65f107afa3dfaa", "is_disabled": 0, "lon": -77.2013825, "fusion_lon": 0.0, "name": "7eff30e0b0cde7c13e65f107afa3dfaa", "lat": 38.9222035}, {"rental_uris": {"ios": "https://dc.lft.to/lastmile_qr_scan", "android": "https://dc.lft.to/lastmile_qr_scan"}, "is_reserved": 0, "fusion_lat": 0.0, "type": "electric_scooter", "bike_id": "02a5a89fd169661bb38f3c1490e99b0d", "is_disabled": 0, "lon": -77.02526116666667, "fusion_lon": 0.0, "name": "02a5a89fd169661bb38f3c1490e99b0d", "lat": 38.884484}, {"rental_uris": {"ios": "https://dc.lft.to/lastmile_qr_scan", "android": "https://dc.lft.to/lastmile_qr_scan"}, "is_reserved": 0, "fusion_lat": 0.0, "type": "electric_scooter", "bike_id": "f2728958b60f6d3b9194ad3074545d87", "is_disabled": 0, "lon": -77.0279405, "fusion_lon": 0.0, "name": "f2728958b60f6d3b9194ad3074545d87", "lat": 38.9170265}, {"rental_uris": {"ios": "https://dc.lft.to/lastmile_qr_scan", "android": "https://dc.lft.to/lastmile_qr_scan"}, "is_reserved": 0, "fusion_lat": 0.0, "type": "electric_scooter", "bike_id": "dd207033f37ab415cd67e05850987de9", "is_disabled": 0, "lon": -76.97330183333334, "fusion_lon": 0.0, "name": "dd207033f37ab415cd67e05850987de9", "lat": 38.904117166666666}, {"rental_uris": {"ios": "https://dc.lft.to/lastmile_qr_scan", "android": "https://dc.lft.to/lastmile_qr_scan"}, "is_reserved": 0, "fusion_lat": 0.0, "type": "electric_scooter", "bike_id": "d8aecddf7e5c6683e1e72062a7e84c79", "is_disabled": 0, "lon": -77.05910033333333, "fusion_lon": 0.0, "name": "d8aecddf7e5c6683e1e72062a7e84c79", "lat": 38.901522666666665}, {"rental_uris": {"ios": "https://dc.lft.to/lastmile_qr_scan", "android": "https://dc.lft.to/lastmile_qr_scan"}, "is_reserved": 0, "fusion_lat": 0.0, "type": "electric_scooter", "bike_id": "e1a58e349013dc83ce44f266c5361566", "is_disabled": 0, "lon": -77.04875516666667, "fusion_lon": 0.0, "name": "e1a58e349013dc83ce44f266c5361566", "lat": 38.892377833333335}, {"rental_uris": {"ios": "https://dc.lft.to/lastmile_qr_scan", "android": "https://dc.lft.to/lastmile_qr_scan"}, "is_reserved": 0, "fusion_lat": 0.0, "type": "electric_scooter", "bike_id": "b97b6e47609e8be51b037764d94ed1ec", "is_disabled": 0, "lon": -77.03311666666667, "fusion_lon": 0.0, "name": "b97b6e47609e8be51b037764d94ed1ec", "lat": 38.92879216666667}, {"rental_uris": {"ios": "https://dc.lft.to/lastmile_qr_scan", "android": "https://dc.lft.to/lastmile_qr_scan"}, "is_reserved": 0, "fusion_lat": 0.0, "type": "electric_scooter", "bike_id": "21095d4ff6f05a6b38ea07505649bb09", "is_disabled": 0, "lon": -76.99407483333333, "fusion_lon": 0.0, "name": "21095d4ff6f05a6b38ea07505649bb09", "lat": 38.8778345}, {"rental_uris": {"ios": "https://dc.lft.to/lastmile_qr_scan", "android": "https://dc.lft.to/lastmile_qr_scan"}, "is_reserved": 0, "fusion_lat": 0.0, "type": "electric_scooter", "bike_id": "54880a41fe9b28bd9f1d422f35becbec", "is_disabled": 0, "lon": -77.01968633333334, "fusion_lon": 0.0, "name": "54880a41fe9b28bd9f1d422f35becbec", "lat": 38.908552666666665}, {"rental_uris": {"ios": "https://dc.lft.to/lastmile_qr_scan", "android": "https://dc.lft.to/lastmile_qr_scan"}, "is_reserved": 0, "fusion_lat": 0.0, "type": "electric_scooter", "bike_id": "34e10ca332122f9b8ae946d4b9ccde15", "is_disabled": 0, "lon": -77.0415945, "fusion_lon": 0.0, "name": "34e10ca332122f9b8ae946d4b9ccde15", "lat": 38.8994945}, {"rental_uris": {"ios": "https://dc.lft.to/lastmile_qr_scan", "android": "https://dc.lft.to/lastmile_qr_scan"}, "is_reserved": 0, "fusion_lat": 0.0, "type": "electric_bike", "bike_id": "de0926bb833f71c9984ecf8d3f99f4f3", "is_disabled": 0, "lon": -77.07841716666667, "fusion_lon": 0.0, "name": "de0926bb833f71c9984ecf8d3f99f4f3", "lat": 38.94919616666667}, {"rental_uris": {"ios": "https://dc.lft.to/lastmile_qr_scan", "android": "https://dc.lft.to/lastmile_qr_scan"}, "is_reserved": 0, "fusion_lat": 0.0, "type": "electric_scooter", "bike_id": "b7f2519dc3d10bc58f787b7b8dd97686", "is_disabled": 0, "lon": -77.03436933333333, "fusion_lon": 0.0, "name": "b7f2519dc3d10bc58f787b7b8dd97686", "lat": 38.9205425}, {"rental_uris": {"ios": "https://dc.lft.to/lastmile_qr_scan", "android": "https://dc.lft.to/lastmile_qr_scan"}, "is_reserved": 0, "fusion_lat": 0.0, "type": "electric_scooter", "bike_id": "8e36e599726ccfe45b20547daf0aab42", "is_disabled": 0, "lon": -77.02810983333333, "fusion_lon": 0.0, "name": "8e36e599726ccfe45b20547daf0aab42", "lat": 38.89932533333333}, {"rental_uris": {"ios": "https://dc.lft.to/lastmile_qr_scan", "android": "https://dc.lft.to/lastmile_qr_scan"}, "is_reserved": 0, "fusion_lat": 0.0, "type": "electric_scooter", "bike_id": "24ca128fef94d6207f391da1592f4031", "is_disabled": 0, "lon": -77.0383935, "fusion_lon": 0.0, "name": "24ca128fef94d6207f391da1592f4031", "lat": 38.907667833333335}, {"rental_uris": {"ios": "https://dc.lft.to/lastmile_qr_scan", "android": "https://dc.lft.to/lastmile_qr_scan"}, "is_reserved": 0, "fusion_lat": 0.0, "type": "electric_scooter", "bike_id": "79b3740d30e383bab582d448e05ba1e7", "is_disabled": 0, "lon": -77.00451933333333, "fusion_lon": 0.0, "name": "79b3740d30e383bab582d448e05ba1e7", "lat": 38.9105135}, {"rental_uris": {"ios": "https://dc.lft.to/lastmile_qr_scan", "android": "https://dc.lft.to/lastmile_qr_scan"}, "is_reserved": 0, "fusion_lat": 0.0, "type": "electric_scooter", "bike_id": "2816b4741b0074bcb2ed12fba62d02c2", "is_disabled": 0, "lon": -77.00163983333333, "fusion_lon": 0.0, "name": "2816b4741b0074bcb2ed12fba62d02c2", "lat": 38.9075905}, {"rental_uris": {"ios": "https://dc.lft.to/lastmile_qr_scan", "android": "https://dc.lft.to/lastmile_qr_scan"}, "is_reserved": 0, "fusion_lat": 0.0, "type": "electric_scooter", "bike_id": "baa0a0569aa512174b50e0bda1de6f75", "is_disabled": 0, "lon": -77.02217033333334, "fusion_lon": 0.0, "name": "baa0a0569aa512174b50e0bda1de6f75", "lat": 38.954558666666664}, {"rental_uris": {"ios": "https://dc.lft.to/lastmile_qr_scan", "android": "https://dc.lft.to/lastmile_qr_scan"}, "is_reserved": 0, "fusion_lat": 0.0, "type": "electric_scooter", "bike_id": "7c409e24e7a35115e7a58336fd3869a6", "is_disabled": 0, "lon": -77.07142233333333, "fusion_lon": 0.0, "name": "7c409e24e7a35115e7a58336fd3869a6", "lat": 38.90772333333334}, {"rental_uris": {"ios": "https://dc.lft.to/lastmile_qr_scan", "android": "https://dc.lft.to/lastmile_qr_scan"}, "is_reserved": 0, "fusion_lat": 0.0, "type": "electric_bike", "bike_id": "f5c06c45d0786bcd84540ef3069d6513", "is_disabled": 0, "lon": -77.1293795, "fusion_lon": 0.0, "name": "f5c06c45d0786bcd84540ef3069d6513", "lat": 38.8651555}, {"rental_uris": {"ios": "https://dc.lft.to/lastmile_qr_scan", "android": "https://dc.lft.to/lastmile_qr_scan"}, "is_reserved": 0, "fusion_lat": 0.0, "type": "electric_scooter", "bike_id": "13ae6d74ff45171e80eb17e1a45a2962", "is_disabled": 0, "lon": -77.04335266666666, "fusion_lon": 0.0, "name": "13ae6d74ff45171e80eb17e1a45a2962", "lat": 38.92221466666667}, {"rental_uris": {"ios": "https://dc.lft.to/lastmile_qr_scan", "android": "https://dc.lft.to/lastmile_qr_scan"}, "is_reserved": 0, "fusion_lat": 0.0, "type": "electric_scooter", "bike_id": "ea13225a97352586b88d960a2152ffd8", "is_disabled": 0, "lon": -77.04171183333334, "fusion_lon": 0.0, "name": "ea13225a97352586b88d960a2152ffd8", "lat": 38.9173745}, {"rental_uris": {"ios": "https://dc.lft.to/lastmile_qr_scan", "android": "https://dc.lft.to/lastmile_qr_scan"}, "is_reserved": 0, "fusion_lat": 0.0, "type": "electric_scooter", "bike_id": "bbfe62c6fd30577f30c96117ee11308f", "is_disabled": 0, "lon": -77.00796583333333, "fusion_lon": 0.0, "name": "bbfe62c6fd30577f30c96117ee11308f", "lat": 38.9126745}, {"rental_uris": {"ios": "https://dc.lft.to/lastmile_qr_scan", "android": "https://dc.lft.to/lastmile_qr_scan"}, "is_reserved": 0, "fusion_lat": 0.0, "type": "electric_scooter", "bike_id": "1dc4cc42e48617f528ae126ee447f55e", "is_disabled": 0, "lon": -77.050537, "fusion_lon": 0.0, "name": "1dc4cc42e48617f528ae126ee447f55e", "lat": 38.923628}, {"rental_uris": {"ios": "https://dc.lft.to/lastmile_qr_scan", "android": "https://dc.lft.to/lastmile_qr_scan"}, "is_reserved": 0, "fusion_lat": 0.0, "type": "electric_scooter", "bike_id": "535fc9321ba43b154b95b50e907073d3", "is_disabled": 0, "lon": -77.0176065, "fusion_lon": 0.0, "name": "535fc9321ba43b154b95b50e907073d3", "lat": 38.8767495}, {"rental_uris": {"ios": "https://dc.lft.to/lastmile_qr_scan", "android": "https://dc.lft.to/lastmile_qr_scan"}, "is_reserved": 0, "fusion_lat": 0.0, "type": "electric_scooter", "bike_id": "6c6d5bba3c188ef491025a0a6f7d471a", "is_disabled": 0, "lon": -77.04841316666666, "fusion_lon": 0.0, "name": "6c6d5bba3c188ef491025a0a6f7d471a", "lat": 38.91274633333333}, {"rental_uris": {"ios": "https://dc.lft.to/lastmile_qr_scan", "android": "https://dc.lft.to/lastmile_qr_scan"}, "is_reserved": 0, "fusion_lat": 0.0, "type": "electric_scooter", "bike_id": "4e522d4df8bcd8bbb43f700dcc906dd3", "is_disabled": 0, "lon": -76.92591350000001, "fusion_lon": 0.0, "name": "4e522d4df8bcd8bbb43f700dcc906dd3", "lat": 38.89363483333333}, {"rental_uris": {"ios": "https://dc.lft.to/lastmile_qr_scan", "android": "https://dc.lft.to/lastmile_qr_scan"}, "is_reserved": 0, "fusion_lat": 0.0, "type": "electric_scooter", "bike_id": "484d846f5f804e791532a21498a1c186", "is_disabled": 0, "lon": -77.02569333333334, "fusion_lon": 0.0, "name": "484d846f5f804e791532a21498a1c186", "lat": 38.896008}, {"rental_uris": {"ios": "https://dc.lft.to/lastmile_qr_scan", "android": "https://dc.lft.to/lastmile_qr_scan"}, "is_reserved": 0, "fusion_lat": 0.0, "type": "electric_scooter", "bike_id": "3926d1a1b5e0e315f026aac86186c9fc", "is_disabled": 0, "lon": -77.00799916666666, "fusion_lon": 0.0, "name": "3926d1a1b5e0e315f026aac86186c9fc", "lat": 38.89718666666667}, {"rental_uris": {"ios": "https://dc.lft.to/lastmile_qr_scan", "android": "https://dc.lft.to/lastmile_qr_scan"}, "is_reserved": 0, "fusion_lat": 0.0, "type": "electric_scooter", "bike_id": "473ea8da1a7e88666c1255f2380bdc5b", "is_disabled": 0, "lon": -77.048391, "fusion_lon": 0.0, "name": "473ea8da1a7e88666c1255f2380bdc5b", "lat": 38.91491}, {"rental_uris": {"ios": "https://dc.lft.to/lastmile_qr_scan", "android": "https://dc.lft.to/lastmile_qr_scan"}, "is_reserved": 0, "fusion_lat": 0.0, "type": "electric_scooter", "bike_id": "9a7bee8820afec116398849eb18f208e", "is_disabled": 0, "lon": -76.98537216666666, "fusion_lon": 0.0, "name": "9a7bee8820afec116398849eb18f208e", "lat": 38.90950083333333}, {"rental_uris": {"ios": "https://dc.lft.to/lastmile_qr_scan", "android": "https://dc.lft.to/lastmile_qr_scan"}, "is_reserved": 0, "fusion_lat": 0.0, "type": "electric_scooter", "bike_id": "5816566dad57b9a9eab5957f2751b93d", "is_disabled": 0, "lon": -77.03425983333334, "fusion_lon": 0.0, "name": "5816566dad57b9a9eab5957f2751b93d", "lat": 38.909581}, {"rental_uris": {"ios": "https://dc.lft.to/lastmile_qr_scan", "android": "https://dc.lft.to/lastmile_qr_scan"}, "is_reserved": 0, "fusion_lat": 0.0, "type": "electric_scooter", "bike_id": "a7f95244709b68b709f06cdc0f6d05f4", "is_disabled": 0, "lon": -77.0666015, "fusion_lon": 0.0, "name": "a7f95244709b68b709f06cdc0f6d05f4", "lat": 38.95198933333333}, {"rental_uris": {"ios": "https://dc.lft.to/lastmile_qr_scan", "android": "https://dc.lft.to/lastmile_qr_scan"}, "is_reserved": 0, "fusion_lat": 0.0, "type": "electric_scooter", "bike_id": "c506296187028b406e1131915df22624", "is_disabled": 0, "lon": -77.02680566666666, "fusion_lon": 0.0, "name": "c506296187028b406e1131915df22624", "lat": 38.90259366666667}, {"rental_uris": {"ios": "https://dc.lft.to/lastmile_qr_scan", "android": "https://dc.lft.to/lastmile_qr_scan"}, "is_reserved": 0, "fusion_lat": 0.0, "type": "electric_scooter", "bike_id": "9c3562fe31facaa282e8af6bac3158c1", "is_disabled": 0, "lon": -77.0429645, "fusion_lon": 0.0, "name": "9c3562fe31facaa282e8af6bac3158c1", "lat": 38.931793666666664}, {"rental_uris": {"ios": "https://dc.lft.to/lastmile_qr_scan", "android": "https://dc.lft.to/lastmile_qr_scan"}, "is_reserved": 0, "fusion_lat": 0.0, "type": "electric_scooter", "bike_id": "e513ac85041f99646241e1144ec5301f", "is_disabled": 0, "lon": -76.99946266666667, "fusion_lon": 0.0, "name": "e513ac85041f99646241e1144ec5301f", "lat": 38.89997966666667}, {"rental_uris": {"ios": "https://dc.lft.to/lastmile_qr_scan", "android": "https://dc.lft.to/lastmile_qr_scan"}, "is_reserved": 0, "fusion_lat": 0.0, "type": "electric_scooter", "bike_id": "650399f2a8966821014c92ccc9c4e507", "is_disabled": 0, "lon": -77.043698, "fusion_lon": 0.0, "name": "650399f2a8966821014c92ccc9c4e507", "lat": 38.90383633333333}, {"rental_uris": {"ios": "https://dc.lft.to/lastmile_qr_scan", "android": "https://dc.lft.to/lastmile_qr_scan"}, "is_reserved": 0, "fusion_lat": 0.0, "type": "electric_scooter", "bike_id": "a9438e49349fbee005eaeb25a1aa4104", "is_disabled": 0, "lon": -77.00181816666667, "fusion_lon": 0.0, "name": "a9438e49349fbee005eaeb25a1aa4104", "lat": 38.90250566666667}, {"rental_uris": {"ios": "https://dc.lft.to/lastmile_qr_scan", "android": "https://dc.lft.to/lastmile_qr_scan"}, "is_reserved": 0, "fusion_lat": 0.0, "type": "electric_scooter", "bike_id": "2356a5af37c3aa0910279099daa19a83", "is_disabled": 0, "lon": -76.95591016666667, "fusion_lon": 0.0, "name": "2356a5af37c3aa0910279099daa19a83", "lat": 38.886202833333336}, {"rental_uris": {"ios": "https://dc.lft.to/lastmile_qr_scan", "android": "https://dc.lft.to/lastmile_qr_scan"}, "is_reserved": 0, "fusion_lat": 0.0, "type": "electric_scooter", "bike_id": "69a5b91a935f8a3231f89845a234732e", "is_disabled": 0, "lon": -77.03212, "fusion_lon": 0.0, "name": "69a5b91a935f8a3231f89845a234732e", "lat": 38.9166825}, {"rental_uris": {"ios": "https://dc.lft.to/lastmile_qr_scan", "android": "https://dc.lft.to/lastmile_qr_scan"}, "is_reserved": 0, "fusion_lat": 0.0, "type": "electric_scooter", "bike_id": "55a438df7fa1b7578250a0846ff7a470", "is_disabled": 0, "lon": -76.97304716666666, "fusion_lon": 0.0, "name": "55a438df7fa1b7578250a0846ff7a470", "lat": 38.91988}, {"rental_uris": {"ios": "https://dc.lft.to/lastmile_qr_scan", "android": "https://dc.lft.to/lastmile_qr_scan"}, "is_reserved": 0, "fusion_lat": 0.0, "type": "electric_scooter", "bike_id": "48d64684ddcccddd49447f34acd12c07", "is_disabled": 0, "lon": -77.01923416666666, "fusion_lon": 0.0, "name": "48d64684ddcccddd49447f34acd12c07", "lat": 38.921371666666666}, {"rental_uris": {"ios": "https://dc.lft.to/lastmile_qr_scan", "android": "https://dc.lft.to/lastmile_qr_scan"}, "is_reserved": 0, "fusion_lat": 0.0, "type": "electric_scooter", "bike_id": "5146d32b7a00835f4b2402f05c79201c", "is_disabled": 0, "lon": -76.95889, "fusion_lon": 0.0, "name": "5146d32b7a00835f4b2402f05c79201c", "lat": 38.88192133333333}, {"rental_uris": {"ios": "https://dc.lft.to/lastmile_qr_scan", "android": "https://dc.lft.to/lastmile_qr_scan"}, "is_reserved": 0, "fusion_lat": 0.0, "type": "electric_scooter", "bike_id": "d3d1a131456817e1bc4f915fbd049e41", "is_disabled": 0, "lon": -77.0227645, "fusion_lon": 0.0, "name": "d3d1a131456817e1bc4f915fbd049e41", "lat": 38.902811}, {"rental_uris": {"ios": "https://dc.lft.to/lastmile_qr_scan", "android": "https://dc.lft.to/lastmile_qr_scan"}, "is_reserved": 0, "fusion_lat": 0.0, "type": "electric_scooter", "bike_id": "f3075bf7020e64b44733f7d7aa9d407c", "is_disabled": 0, "lon": -77.0260805, "fusion_lon": 0.0, "name": "f3075bf7020e64b44733f7d7aa9d407c", "lat": 38.89614233333333}, {"rental_uris": {"ios": "https://dc.lft.to/lastmile_qr_scan", "android": "https://dc.lft.to/lastmile_qr_scan"}, "is_reserved": 0, "fusion_lat": 0.0, "type": "electric_scooter", "bike_id": "6a14f21d72d28727b69376625c5dd5d2", "is_disabled": 0, "lon": -77.03592416666666, "fusion_lon": 0.0, "name": "6a14f21d72d28727b69376625c5dd5d2", "lat": 38.936764833333335}, {"rental_uris": {"ios": "https://dc.lft.to/lastmile_qr_scan", "android": "https://dc.lft.to/lastmile_qr_scan"}, "is_reserved": 0, "fusion_lat": 0.0, "type": "electric_scooter", "bike_id": "a170ed2ba73b346c7eea03695ea062f6", "is_disabled": 0, "lon": -76.98466366666666, "fusion_lon": 0.0, "name": "a170ed2ba73b346c7eea03695ea062f6", "lat": 38.90398116666667}, {"rental_uris": {"ios": "https://dc.lft.to/lastmile_qr_scan", "android": "https://dc.lft.to/lastmile_qr_scan"}, "is_reserved": 0, "fusion_lat": 0.0, "type": "electric_scooter", "bike_id": "1115c9799a688e8c4e39d57dfe99fbfa", "is_disabled": 0, "lon": -77.038489, "fusion_lon": 0.0, "name": "1115c9799a688e8c4e39d57dfe99fbfa", "lat": 38.912828166666664}, {"rental_uris": {"ios": "https://dc.lft.to/lastmile_qr_scan", "android": "https://dc.lft.to/lastmile_qr_scan"}, "is_reserved": 0, "fusion_lat": 0.0, "type": "electric_scooter", "bike_id": "c795b7eeea929844ee924eafa7bc9af9", "is_disabled": 0, "lon": -77.038114, "fusion_lon": 0.0, "name": "c795b7eeea929844ee924eafa7bc9af9", "lat": 38.93596483333334}, {"rental_uris": {"ios": "https://dc.lft.to/lastmile_qr_scan", "android": "https://dc.lft.to/lastmile_qr_scan"}, "is_reserved": 0, "fusion_lat": 0.0, "type": "electric_scooter", "bike_id": "c717c75f7ab799b8a321e1b46a137a16", "is_disabled": 0, "lon": -77.03289216666667, "fusion_lon": 0.0, "name": "c717c75f7ab799b8a321e1b46a137a16", "lat": 38.904774333333336}, {"rental_uris": {"ios": "https://dc.lft.to/lastmile_qr_scan", "android": "https://dc.lft.to/lastmile_qr_scan"}, "is_reserved": 0, "fusion_lat": 0.0, "type": "electric_scooter", "bike_id": "8e705930fbd21cc094d8831562e87c96", "is_disabled": 0, "lon": -77.04548133333333, "fusion_lon": 0.0, "name": "8e705930fbd21cc094d8831562e87c96", "lat": 38.909664666666664}, {"rental_uris": {"ios": "https://dc.lft.to/lastmile_qr_scan", "android": "https://dc.lft.to/lastmile_qr_scan"}, "is_reserved": 0, "fusion_lat": 0.0, "type": "electric_scooter", "bike_id": "15f93fc01b4a9eda1a81a3d9dd6cdd27", "is_disabled": 0, "lon": -76.99012283333333, "fusion_lon": 0.0, "name": "15f93fc01b4a9eda1a81a3d9dd6cdd27", "lat": 38.88600383333333}, {"rental_uris": {"ios": "https://dc.lft.to/lastmile_qr_scan", "android": "https://dc.lft.to/lastmile_qr_scan"}, "is_reserved": 0, "fusion_lat": 0.0, "type": "electric_scooter", "bike_id": "bc0a1c3778085cf2ef7f66ad6b99a15b", "is_disabled": 0, "lon": -77.031114, "fusion_lon": 0.0, "name": "bc0a1c3778085cf2ef7f66ad6b99a15b", "lat": 38.9593765}, {"rental_uris": {"ios": "https://dc.lft.to/lastmile_qr_scan", "android": "https://dc.lft.to/lastmile_qr_scan"}, "is_reserved": 0, "fusion_lat": 0.0, "type": "electric_scooter", "bike_id": "c5aaae4f49cd8635829e0591fc65aa0f", "is_disabled": 0, "lon": -77.02373166666666, "fusion_lon": 0.0, "name": "c5aaae4f49cd8635829e0591fc65aa0f", "lat": 38.9194125}, {"rental_uris": {"ios": "https://dc.lft.to/lastmile_qr_scan", "android": "https://dc.lft.to/lastmile_qr_scan"}, "is_reserved": 0, "fusion_lat": 0.0, "type": "electric_scooter", "bike_id": "dc37c403d60675c00602bc64c191a4c3", "is_disabled": 0, "lon": -77.01632266666667, "fusion_lon": 0.0, "name": "dc37c403d60675c00602bc64c191a4c3", "lat": 38.902462666666665}, {"rental_uris": {"ios": "https://dc.lft.to/lastmile_qr_scan", "android": "https://dc.lft.to/lastmile_qr_scan"}, "is_reserved": 0, "fusion_lat": 0.0, "type": "electric_scooter", "bike_id": "bd2638d00a02f2a3f8002b4cace4d97b", "is_disabled": 0, "lon": -77.025571, "fusion_lon": 0.0, "name": "bd2638d00a02f2a3f8002b4cace4d97b", "lat": 38.92102833333333}, {"rental_uris": {"ios": "https://dc.lft.to/lastmile_qr_scan", "android": "https://dc.lft.to/lastmile_qr_scan"}, "is_reserved": 0, "fusion_lat": 0.0, "type": "electric_scooter", "bike_id": "ae23f44c7d17c0a00f0db8f9b3959597", "is_disabled": 0, "lon": -77.04673883333334, "fusion_lon": 0.0, "name": "ae23f44c7d17c0a00f0db8f9b3959597", "lat": 38.909960833333336}, {"rental_uris": {"ios": "https://dc.lft.to/lastmile_qr_scan", "android": "https://dc.lft.to/lastmile_qr_scan"}, "is_reserved": 0, "fusion_lat": 0.0, "type": "electric_scooter", "bike_id": "a5375b3c3e2f58f27f3761203f66e5b1", "is_disabled": 0, "lon": -77.00696966666666, "fusion_lon": 0.0, "name": "a5375b3c3e2f58f27f3761203f66e5b1", "lat": 38.88506433333333}, {"rental_uris": {"ios": "https://dc.lft.to/lastmile_qr_scan", "android": "https://dc.lft.to/lastmile_qr_scan"}, "is_reserved": 0, "fusion_lat": 0.0, "type": "electric_scooter", "bike_id": "214ec6202b839d6e550410af5ec94156", "is_disabled": 0, "lon": -77.03264183333333, "fusion_lon": 0.0, "name": "214ec6202b839d6e550410af5ec94156", "lat": 38.9397955}, {"rental_uris": {"ios": "https://dc.lft.to/lastmile_qr_scan", "android": "https://dc.lft.to/lastmile_qr_scan"}, "is_reserved": 0, "fusion_lat": 0.0, "type": "electric_bike", "bike_id": "68768a0f8a3a561faab63cd7ecdc43c4", "is_disabled": 0, "lon": -77.00219966666667, "fusion_lon": 0.0, "name": "68768a0f8a3a561faab63cd7ecdc43c4", "lat": 38.91123916666667}, {"rental_uris": {"ios": "https://dc.lft.to/lastmile_qr_scan", "android": "https://dc.lft.to/lastmile_qr_scan"}, "is_reserved": 0, "fusion_lat": 0.0, "type": "electric_scooter", "bike_id": "faf7ae5a7b68d63198fb8f079c959b02", "is_disabled": 0, "lon": -77.02706333333333, "fusion_lon": 0.0, "name": "faf7ae5a7b68d63198fb8f079c959b02", "lat": 38.925656000000004}, {"rental_uris": {"ios": "https://dc.lft.to/lastmile_qr_scan", "android": "https://dc.lft.to/lastmile_qr_scan"}, "is_reserved": 0, "fusion_lat": 0.0, "type": "electric_scooter", "bike_id": "bfa876b6cf8e5f57ad48f1e807733e87", "is_disabled": 0, "lon": -76.98337183333334, "fusion_lon": 0.0, "name": "bfa876b6cf8e5f57ad48f1e807733e87", "lat": 38.8656585}, {"rental_uris": {"ios": "https://dc.lft.to/lastmile_qr_scan", "android": "https://dc.lft.to/lastmile_qr_scan"}, "is_reserved": 0, "fusion_lat": 0.0, "type": "electric_scooter", "bike_id": "9d0cbed8f1ae40ad0e3c39f3a349985f", "is_disabled": 0, "lon": -77.040059, "fusion_lon": 0.0, "name": "9d0cbed8f1ae40ad0e3c39f3a349985f", "lat": 38.934272666666665}, {"rental_uris": {"ios": "https://dc.lft.to/lastmile_qr_scan", "android": "https://dc.lft.to/lastmile_qr_scan"}, "is_reserved": 0, "fusion_lat": 0.0, "type": "electric_scooter", "bike_id": "1dbd3961387b39ad1e999acdb924090e", "is_disabled": 0, "lon": -77.00935733333333, "fusion_lon": 0.0, "name": "1dbd3961387b39ad1e999acdb924090e", "lat": 38.907492}, {"rental_uris": {"ios": "https://dc.lft.to/lastmile_qr_scan", "android": "https://dc.lft.to/lastmile_qr_scan"}, "is_reserved": 0, "fusion_lat": 0.0, "type": "electric_scooter", "bike_id": "f4ab1032b41dff26905c4a76952a0f5f", "is_disabled": 0, "lon": -77.04468516666667, "fusion_lon": 0.0, "name": "f4ab1032b41dff26905c4a76952a0f5f", "lat": 38.9022525}, {"rental_uris": {"ios": "https://dc.lft.to/lastmile_qr_scan", "android": "https://dc.lft.to/lastmile_qr_scan"}, "is_reserved": 0, "fusion_lat": 0.0, "type": "electric_scooter", "bike_id": "cb6e99813ed0789819ac9e1d22af4577", "is_disabled": 0, "lon": -77.00247466666667, "fusion_lon": 0.0, "name": "cb6e99813ed0789819ac9e1d22af4577", "lat": 38.88711283333333}, {"rental_uris": {"ios": "https://dc.lft.to/lastmile_qr_scan", "android": "https://dc.lft.to/lastmile_qr_scan"}, "is_reserved": 0, "fusion_lat": 0.0, "type": "electric_bike", "bike_id": "ae95c057971db36c5d843fccb99bf3d8", "is_disabled": 0, "lon": -77.10787266666667, "fusion_lon": 0.0, "name": "ae95c057971db36c5d843fccb99bf3d8", "lat": 38.85250666666666}, {"rental_uris": {"ios": "https://dc.lft.to/lastmile_qr_scan", "android": "https://dc.lft.to/lastmile_qr_scan"}, "is_reserved": 0, "fusion_lat": 0.0, "type": "electric_scooter", "bike_id": "e054fd8c0dbc8ed583359d7cd0962c94", "is_disabled": 0, "lon": -76.94632283333334, "fusion_lon": 0.0, "name": "e054fd8c0dbc8ed583359d7cd0962c94", "lat": 38.89832083333334}, {"rental_uris": {"ios": "https://dc.lft.to/lastmile_qr_scan", "android": "https://dc.lft.to/lastmile_qr_scan"}, "is_reserved": 0, "fusion_lat": 0.0, "type": "electric_bike", "bike_id": "b3c59296f09c2aba5850a7e96651d9e3", "is_disabled": 0, "lon": -76.99510866666667, "fusion_lon": 0.0, "name": "b3c59296f09c2aba5850a7e96651d9e3", "lat": 38.821751}, {"rental_uris": {"ios": "https://dc.lft.to/lastmile_qr_scan", "android": "https://dc.lft.to/lastmile_qr_scan"}, "is_reserved": 0, "fusion_lat": 0.0, "type": "electric_bike", "bike_id": "4d0bd65782069c3af39457cd94f3d229", "is_disabled": 0, "lon": -77.09453116666667, "fusion_lon": 0.0, "name": "4d0bd65782069c3af39457cd94f3d229", "lat": 38.80758066666667}, {"rental_uris": {"ios": "https://dc.lft.to/lastmile_qr_scan", "android": "https://dc.lft.to/lastmile_qr_scan"}, "is_reserved": 0, "fusion_lat": 0.0, "type": "electric_scooter", "bike_id": "0c9d1fde8d6c29677514b562048bfe61", "is_disabled": 0, "lon": -77.02491016666667, "fusion_lon": 0.0, "name": "0c9d1fde8d6c29677514b562048bfe61", "lat": 38.90731383333333}, {"rental_uris": {"ios": "https://dc.lft.to/lastmile_qr_scan", "android": "https://dc.lft.to/lastmile_qr_scan"}, "is_reserved": 0, "fusion_lat": 0.0, "type": "electric_scooter", "bike_id": "2bf0906014fae2a325b60aa24dc15563", "is_disabled": 0, "lon": -77.01756933333333, "fusion_lon": 0.0, "name": "2bf0906014fae2a325b60aa24dc15563", "lat": 38.88334033333334}, {"rental_uris": {"ios": "https://dc.lft.to/lastmile_qr_scan", "android": "https://dc.lft.to/lastmile_qr_scan"}, "is_reserved": 0, "fusion_lat": 0.0, "type": "electric_scooter", "bike_id": "222f63b4d3e0c65d6feeb8e2cffd7f46", "is_disabled": 0, "lon": -77.03696933333333, "fusion_lon": 0.0, "name": "222f63b4d3e0c65d6feeb8e2cffd7f46", "lat": 38.91810266666667}, {"rental_uris": {"ios": "https://dc.lft.to/lastmile_qr_scan", "android": "https://dc.lft.to/lastmile_qr_scan"}, "is_reserved": 0, "fusion_lat": 0.0, "type": "electric_scooter", "bike_id": "0d8b5591ba0ccda06dd5dfe6f39f1a70", "is_disabled": 0, "lon": -77.04830916666667, "fusion_lon": 0.0, "name": "0d8b5591ba0ccda06dd5dfe6f39f1a70", "lat": 38.918482}, {"rental_uris": {"ios": "https://dc.lft.to/lastmile_qr_scan", "android": "https://dc.lft.to/lastmile_qr_scan"}, "is_reserved": 0, "fusion_lat": 0.0, "type": "electric_scooter", "bike_id": "2220d907352785e5792f75e2ac05950f", "is_disabled": 0, "lon": -77.02555316666667, "fusion_lon": 0.0, "name": "2220d907352785e5792f75e2ac05950f", "lat": 38.94166033333333}, {"rental_uris": {"ios": "https://dc.lft.to/lastmile_qr_scan", "android": "https://dc.lft.to/lastmile_qr_scan"}, "is_reserved": 0, "fusion_lat": 0.0, "type": "electric_scooter", "bike_id": "a215cc06b83c868e53bcfe96d86edfb1", "is_disabled": 0, "lon": -77.0200465, "fusion_lon": 0.0, "name": "a215cc06b83c868e53bcfe96d86edfb1", "lat": 38.92418133333334}, {"rental_uris": {"ios": "https://dc.lft.to/lastmile_qr_scan", "android": "https://dc.lft.to/lastmile_qr_scan"}, "is_reserved": 0, "fusion_lat": 0.0, "type": "electric_scooter", "bike_id": "abc47798613903afd6a65d370c92b4f1", "is_disabled": 0, "lon": -77.04038083333333, "fusion_lon": 0.0, "name": "abc47798613903afd6a65d370c92b4f1", "lat": 38.905660833333336}, {"rental_uris": {"ios": "https://dc.lft.to/lastmile_qr_scan", "android": "https://dc.lft.to/lastmile_qr_scan"}, "is_reserved": 0, "fusion_lat": 0.0, "type": "electric_scooter", "bike_id": "69b337f466d02fa06f8e8a4bdb27a590", "is_disabled": 0, "lon": -76.99729466666666, "fusion_lon": 0.0, "name": "69b337f466d02fa06f8e8a4bdb27a590", "lat": 38.89926166666667}, {"rental_uris": {"ios": "https://dc.lft.to/lastmile_qr_scan", "android": "https://dc.lft.to/lastmile_qr_scan"}, "is_reserved": 0, "fusion_lat": 0.0, "type": "electric_scooter", "bike_id": "c1609b30b280b1908389fa8cc10c8c08", "is_disabled": 0, "lon": -77.0309505, "fusion_lon": 0.0, "name": "c1609b30b280b1908389fa8cc10c8c08", "lat": 38.93540766666667}, {"rental_uris": {"ios": "https://dc.lft.to/lastmile_qr_scan", "android": "https://dc.lft.to/lastmile_qr_scan"}, "is_reserved": 0, "fusion_lat": 0.0, "type": "electric_scooter", "bike_id": "1f8f34c78957614b80e39fbcc0215afb", "is_disabled": 0, "lon": -77.02284916666666, "fusion_lon": 0.0, "name": "1f8f34c78957614b80e39fbcc0215afb", "lat": 38.88741066666667}, {"rental_uris": {"ios": "https://dc.lft.to/lastmile_qr_scan", "android": "https://dc.lft.to/lastmile_qr_scan"}, "is_reserved": 0, "fusion_lat": 0.0, "type": "electric_scooter", "bike_id": "fe5046300c81538c64d38fcb07838c56", "is_disabled": 0, "lon": -77.00703366666667, "fusion_lon": 0.0, "name": "fe5046300c81538c64d38fcb07838c56", "lat": 38.8850465}, {"rental_uris": {"ios": "https://dc.lft.to/lastmile_qr_scan", "android": "https://dc.lft.to/lastmile_qr_scan"}, "is_reserved": 0, "fusion_lat": 0.0, "type": "electric_scooter", "bike_id": "e94aad2dfbe817eeefcd571a8395c06e", "is_disabled": 0, "lon": -77.03330433333333, "fusion_lon": 0.0, "name": "e94aad2dfbe817eeefcd571a8395c06e", "lat": 38.8983785}, {"rental_uris": {"ios": "https://dc.lft.to/lastmile_qr_scan", "android": "https://dc.lft.to/lastmile_qr_scan"}, "is_reserved": 0, "fusion_lat": 0.0, "type": "electric_bike", "bike_id": "0074de1c23c390f55d5f20d501feddaf", "is_disabled": 0, "lon": -77.08066483333333, "fusion_lon": 0.0, "name": "0074de1c23c390f55d5f20d501feddaf", "lat": 39.052527}, {"rental_uris": {"ios": "https://dc.lft.to/lastmile_qr_scan", "android": "https://dc.lft.to/lastmile_qr_scan"}, "is_reserved": 0, "fusion_lat": 0.0, "type": "electric_scooter", "bike_id": "e139c5293745a7c13b4d6b232144b168", "is_disabled": 0, "lon": -77.01728, "fusion_lon": 0.0, "name": "e139c5293745a7c13b4d6b232144b168", "lat": 38.8783585}, {"rental_uris": {"ios": "https://dc.lft.to/lastmile_qr_scan", "android": "https://dc.lft.to/lastmile_qr_scan"}, "is_reserved": 0, "fusion_lat": 0.0, "type": "electric_scooter", "bike_id": "a7f3b4ec64f503720f8ff97c56609c0c", "is_disabled": 0, "lon": -77.06499083333334, "fusion_lon": 0.0, "name": "a7f3b4ec64f503720f8ff97c56609c0c", "lat": 38.9098735}, {"rental_uris": {"ios": "https://dc.lft.to/lastmile_qr_scan", "android": "https://dc.lft.to/lastmile_qr_scan"}, "is_reserved": 0, "fusion_lat": 0.0, "type": "electric_scooter", "bike_id": "645b79d7ca1801493666a877049a80c7", "is_disabled": 0, "lon": -77.0330895, "fusion_lon": 0.0, "name": "645b79d7ca1801493666a877049a80c7", "lat": 38.928692166666664}, {"rental_uris": {"ios": "https://dc.lft.to/lastmile_qr_scan", "android": "https://dc.lft.to/lastmile_qr_scan"}, "is_reserved": 0, "fusion_lat": 0.0, "type": "electric_scooter", "bike_id": "ef939e79e29b391d2cb9e927f4518b5c", "is_disabled": 0, "lon": -77.00905283333333, "fusion_lon": 0.0, "name": "ef939e79e29b391d2cb9e927f4518b5c", "lat": 38.89619733333333}, {"rental_uris": {"ios": "https://dc.lft.to/lastmile_qr_scan", "android": "https://dc.lft.to/lastmile_qr_scan"}, "is_reserved": 0, "fusion_lat": 0.0, "type": "electric_scooter", "bike_id": "38643c58ec60027351247085d732494a", "is_disabled": 0, "lon": -77.01734183333333, "fusion_lon": 0.0, "name": "38643c58ec60027351247085d732494a", "lat": 38.8832555}, {"rental_uris": {"ios": "https://dc.lft.to/lastmile_qr_scan", "android": "https://dc.lft.to/lastmile_qr_scan"}, "is_reserved": 0, "fusion_lat": 0.0, "type": "electric_scooter", "bike_id": "ade50f42aef795a17a37c7c4d3cbd2da", "is_disabled": 0, "lon": -77.02615433333334, "fusion_lon": 0.0, "name": "ade50f42aef795a17a37c7c4d3cbd2da", "lat": 38.896553833333336}, {"rental_uris": {"ios": "https://dc.lft.to/lastmile_qr_scan", "android": "https://dc.lft.to/lastmile_qr_scan"}, "is_reserved": 0, "fusion_lat": 0.0, "type": "electric_scooter", "bike_id": "332dd0a46e754dcc0600baa9c75e3040", "is_disabled": 0, "lon": -77.00724933333333, "fusion_lon": 0.0, "name": "332dd0a46e754dcc0600baa9c75e3040", "lat": 38.952339}, {"rental_uris": {"ios": "https://dc.lft.to/lastmile_qr_scan", "android": "https://dc.lft.to/lastmile_qr_scan"}, "is_reserved": 0, "fusion_lat": 0.0, "type": "electric_scooter", "bike_id": "c6cc51c6fd00aa35dfbfcff2b5d5d529", "is_disabled": 0, "lon": -77.0455305, "fusion_lon": 0.0, "name": "c6cc51c6fd00aa35dfbfcff2b5d5d529", "lat": 38.912687166666664}, {"rental_uris": {"ios": "https://dc.lft.to/lastmile_qr_scan", "android": "https://dc.lft.to/lastmile_qr_scan"}, "is_reserved": 0, "fusion_lat": 0.0, "type": "electric_scooter", "bike_id": "11d1b42c1488acf77e09ce6a55851d01", "is_disabled": 0, "lon": -77.02955533333333, "fusion_lon": 0.0, "name": "11d1b42c1488acf77e09ce6a55851d01", "lat": 38.9027265}, {"rental_uris": {"ios": "https://dc.lft.to/lastmile_qr_scan", "android": "https://dc.lft.to/lastmile_qr_scan"}, "is_reserved": 0, "fusion_lat": 0.0, "type": "electric_scooter", "bike_id": "a008a983ba185b8ad53f45cf2f8f91ef", "is_disabled": 0, "lon": -76.97004983333333, "fusion_lon": 0.0, "name": "a008a983ba185b8ad53f45cf2f8f91ef", "lat": 38.873734}, {"rental_uris": {"ios": "https://dc.lft.to/lastmile_qr_scan", "android": "https://dc.lft.to/lastmile_qr_scan"}, "is_reserved": 0, "fusion_lat": 0.0, "type": "electric_scooter", "bike_id": "2e1159ba348029982900dd486c5fdec6", "is_disabled": 0, "lon": -77.03623166666667, "fusion_lon": 0.0, "name": "2e1159ba348029982900dd486c5fdec6", "lat": 38.93912266666667}, {"rental_uris": {"ios": "https://dc.lft.to/lastmile_qr_scan", "android": "https://dc.lft.to/lastmile_qr_scan"}, "is_reserved": 0, "fusion_lat": 0.0, "type": "electric_scooter", "bike_id": "6fea98ca8a680f7911656df7430aeccc", "is_disabled": 0, "lon": -77.04692016666667, "fusion_lon": 0.0, "name": "6fea98ca8a680f7911656df7430aeccc", "lat": 38.9157695}, {"rental_uris": {"ios": "https://dc.lft.to/lastmile_qr_scan", "android": "https://dc.lft.to/lastmile_qr_scan"}, "is_reserved": 0, "fusion_lat": 0.0, "type": "electric_scooter", "bike_id": "c8f0d7ed4a78917270b8ae6e49eb7118", "is_disabled": 0, "lon": -77.01771866666667, "fusion_lon": 0.0, "name": "c8f0d7ed4a78917270b8ae6e49eb7118", "lat": 38.88337283333333}, {"rental_uris": {"ios": "https://dc.lft.to/lastmile_qr_scan", "android": "https://dc.lft.to/lastmile_qr_scan"}, "is_reserved": 0, "fusion_lat": 0.0, "type": "electric_scooter", "bike_id": "920d7fac9d8e84d00997b1c5106c6cb2", "is_disabled": 0, "lon": -77.00712766666666, "fusion_lon": 0.0, "name": "920d7fac9d8e84d00997b1c5106c6cb2", "lat": 38.88488266666667}, {"rental_uris": {"ios": "https://dc.lft.to/lastmile_qr_scan", "android": "https://dc.lft.to/lastmile_qr_scan"}, "is_reserved": 0, "fusion_lat": 0.0, "type": "electric_scooter", "bike_id": "20f7666711106f171aa744b8f4b23f98", "is_disabled": 0, "lon": -77.06421316666666, "fusion_lon": 0.0, "name": "20f7666711106f171aa744b8f4b23f98", "lat": 38.91429866666667}, {"rental_uris": {"ios": "https://dc.lft.to/lastmile_qr_scan", "android": "https://dc.lft.to/lastmile_qr_scan"}, "is_reserved": 0, "fusion_lat": 0.0, "type": "electric_scooter", "bike_id": "cd56b4ba8fda53028da041d73b4b1f77", "is_disabled": 0, "lon": -77.0264795, "fusion_lon": 0.0, "name": "cd56b4ba8fda53028da041d73b4b1f77", "lat": 38.9025985}, {"rental_uris": {"ios": "https://dc.lft.to/lastmile_qr_scan", "android": "https://dc.lft.to/lastmile_qr_scan"}, "is_reserved": 0, "fusion_lat": 0.0, "type": "electric_scooter", "bike_id": "b7ff4f6d3ed6ba0b8e650f3ba4900347", "is_disabled": 0, "lon": -76.99522216666666, "fusion_lon": 0.0, "name": "b7ff4f6d3ed6ba0b8e650f3ba4900347", "lat": 38.88602916666667}, {"rental_uris": {"ios": "https://dc.lft.to/lastmile_qr_scan", "android": "https://dc.lft.to/lastmile_qr_scan"}, "is_reserved": 0, "fusion_lat": 0.0, "type": "electric_scooter", "bike_id": "7d6685d04b7fdf51fb0b0ea225489c9a", "is_disabled": 0, "lon": -77.09717616666667, "fusion_lon": 0.0, "name": "7d6685d04b7fdf51fb0b0ea225489c9a", "lat": 38.951019333333335}, {"rental_uris": {"ios": "https://dc.lft.to/lastmile_qr_scan", "android": "https://dc.lft.to/lastmile_qr_scan"}, "is_reserved": 0, "fusion_lat": 0.0, "type": "electric_scooter", "bike_id": "80540f6e01adb3dc2e33f8aa4af8a2fa", "is_disabled": 0, "lon": -76.9959965, "fusion_lon": 0.0, "name": "80540f6e01adb3dc2e33f8aa4af8a2fa", "lat": 38.88431666666666}, {"rental_uris": {"ios": "https://dc.lft.to/lastmile_qr_scan", "android": "https://dc.lft.to/lastmile_qr_scan"}, "is_reserved": 0, "fusion_lat": 0.0, "type": "electric_scooter", "bike_id": "b69508b5c88e15614a68f8177a2e2850", "is_disabled": 0, "lon": -77.00964483333334, "fusion_lon": 0.0, "name": "b69508b5c88e15614a68f8177a2e2850", "lat": 38.874591}, {"rental_uris": {"ios": "https://dc.lft.to/lastmile_qr_scan", "android": "https://dc.lft.to/lastmile_qr_scan"}, "is_reserved": 0, "fusion_lat": 0.0, "type": "electric_scooter", "bike_id": "5540bd8be71173acb0fdcf7cc45f8c0e", "is_disabled": 0, "lon": -77.015048, "fusion_lon": 0.0, "name": "5540bd8be71173acb0fdcf7cc45f8c0e", "lat": 38.8854015}, {"rental_uris": {"ios": "https://dc.lft.to/lastmile_qr_scan", "android": "https://dc.lft.to/lastmile_qr_scan"}, "is_reserved": 0, "fusion_lat": 0.0, "type": "electric_scooter", "bike_id": "a6a3067f38dc0a2a9edfe5059cc9100a", "is_disabled": 0, "lon": -77.029641, "fusion_lon": 0.0, "name": "a6a3067f38dc0a2a9edfe5059cc9100a", "lat": 38.914787}, {"rental_uris": {"ios": "https://dc.lft.to/lastmile_qr_scan", "android": "https://dc.lft.to/lastmile_qr_scan"}, "is_reserved": 0, "fusion_lat": 0.0, "type": "electric_scooter", "bike_id": "08fb528b64f59d2c70e0dd73795d2f0f", "is_disabled": 0, "lon": -77.02547283333334, "fusion_lon": 0.0, "name": "08fb528b64f59d2c70e0dd73795d2f0f", "lat": 38.91255133333333}, {"rental_uris": {"ios": "https://dc.lft.to/lastmile_qr_scan", "android": "https://dc.lft.to/lastmile_qr_scan"}, "is_reserved": 0, "fusion_lat": 0.0, "type": "electric_scooter", "bike_id": "cca17c46d33dae69eb8f901eedb09fc1", "is_disabled": 0, "lon": -77.03625283333334, "fusion_lon": 0.0, "name": "cca17c46d33dae69eb8f901eedb09fc1", "lat": 38.9285215}, {"rental_uris": {"ios": "https://dc.lft.to/lastmile_qr_scan", "android": "https://dc.lft.to/lastmile_qr_scan"}, "is_reserved": 0, "fusion_lat": 0.0, "type": "electric_scooter", "bike_id": "bbed1ecd07aa1ead6c02aa67d8fd92a9", "is_disabled": 0, "lon": -77.02355716666666, "fusion_lon": 0.0, "name": "bbed1ecd07aa1ead6c02aa67d8fd92a9", "lat": 38.93099333333333}, {"rental_uris": {"ios": "https://dc.lft.to/lastmile_qr_scan", "android": "https://dc.lft.to/lastmile_qr_scan"}, "is_reserved": 0, "fusion_lat": 0.0, "type": "electric_scooter", "bike_id": "115821c4f2e2f40cd50efd11e68de88a", "is_disabled": 0, "lon": -76.98498766666667, "fusion_lon": 0.0, "name": "115821c4f2e2f40cd50efd11e68de88a", "lat": 38.86066566666667}, {"rental_uris": {"ios": "https://dc.lft.to/lastmile_qr_scan", "android": "https://dc.lft.to/lastmile_qr_scan"}, "is_reserved": 0, "fusion_lat": 0.0, "type": "electric_scooter", "bike_id": "bced1db290170073fdb2071d709b49bc", "is_disabled": 0, "lon": -77.04127866666667, "fusion_lon": 0.0, "name": "bced1db290170073fdb2071d709b49bc", "lat": 38.92368316666666}, {"rental_uris": {"ios": "https://dc.lft.to/lastmile_qr_scan", "android": "https://dc.lft.to/lastmile_qr_scan"}, "is_reserved": 0, "fusion_lat": 0.0, "type": "electric_scooter", "bike_id": "b990dc9400807e7cc4c05fe9fbbd0aaa", "is_disabled": 0, "lon": -77.060235, "fusion_lon": 0.0, "name": "b990dc9400807e7cc4c05fe9fbbd0aaa", "lat": 38.90355233333333}, {"rental_uris": {"ios": "https://dc.lft.to/lastmile_qr_scan", "android": "https://dc.lft.to/lastmile_qr_scan"}, "is_reserved": 0, "fusion_lat": 0.0, "type": "electric_scooter", "bike_id": "6e45338b10d0c056b675a81ed81fbfe9", "is_disabled": 0, "lon": -76.996248, "fusion_lon": 0.0, "name": "6e45338b10d0c056b675a81ed81fbfe9", "lat": 38.90450366666666}, {"rental_uris": {"ios": "https://dc.lft.to/lastmile_qr_scan", "android": "https://dc.lft.to/lastmile_qr_scan"}, "is_reserved": 0, "fusion_lat": 0.0, "type": "electric_bike", "bike_id": "4b8f32a28e5ec387f6300e8fabf23aa4", "is_disabled": 0, "lon": -76.981933, "fusion_lon": 0.0, "name": "4b8f32a28e5ec387f6300e8fabf23aa4", "lat": 38.985093}, {"rental_uris": {"ios": "https://dc.lft.to/lastmile_qr_scan", "android": "https://dc.lft.to/lastmile_qr_scan"}, "is_reserved": 0, "fusion_lat": 0.0, "type": "electric_scooter", "bike_id": "be23ec6fd430c8db16019acb620f8235", "is_disabled": 0, "lon": -77.0072655, "fusion_lon": 0.0, "name": "be23ec6fd430c8db16019acb620f8235", "lat": 38.884978833333335}, {"rental_uris": {"ios": "https://dc.lft.to/lastmile_qr_scan", "android": "https://dc.lft.to/lastmile_qr_scan"}, "is_reserved": 0, "fusion_lat": 0.0, "type": "electric_scooter", "bike_id": "c41966be84d6f6a3fecd46fa0762bfc0", "is_disabled": 0, "lon": -77.06358866666666, "fusion_lon": 0.0, "name": "c41966be84d6f6a3fecd46fa0762bfc0", "lat": 38.943821666666665}, {"rental_uris": {"ios": "https://dc.lft.to/lastmile_qr_scan", "android": "https://dc.lft.to/lastmile_qr_scan"}, "is_reserved": 0, "fusion_lat": 0.0, "type": "electric_scooter", "bike_id": "40924e7f35fdead2d7702632822ccfa3", "is_disabled": 0, "lon": -77.01729283333333, "fusion_lon": 0.0, "name": "40924e7f35fdead2d7702632822ccfa3", "lat": 38.88746833333333}, {"rental_uris": {"ios": "https://dc.lft.to/lastmile_qr_scan", "android": "https://dc.lft.to/lastmile_qr_scan"}, "is_reserved": 0, "fusion_lat": 0.0, "type": "electric_scooter", "bike_id": "f07fe4e51e70c9c66117b1f83a492ab6", "is_disabled": 0, "lon": -77.0534495, "fusion_lon": 0.0, "name": "f07fe4e51e70c9c66117b1f83a492ab6", "lat": 38.9233815}, {"rental_uris": {"ios": "https://dc.lft.to/lastmile_qr_scan", "android": "https://dc.lft.to/lastmile_qr_scan"}, "is_reserved": 0, "fusion_lat": 0.0, "type": "electric_scooter", "bike_id": "4233e52fe2d2545d65467c98cb1d8443", "is_disabled": 0, "lon": -77.040079, "fusion_lon": 0.0, "name": "4233e52fe2d2545d65467c98cb1d8443", "lat": 38.90242516666667}, {"rental_uris": {"ios": "https://dc.lft.to/lastmile_qr_scan", "android": "https://dc.lft.to/lastmile_qr_scan"}, "is_reserved": 0, "fusion_lat": 0.0, "type": "electric_scooter", "bike_id": "66a7bd5d0d9d27d676ef34622bfa6717", "is_disabled": 0, "lon": -76.99504183333333, "fusion_lon": 0.0, "name": "66a7bd5d0d9d27d676ef34622bfa6717", "lat": 38.880014333333335}, {"rental_uris": {"ios": "https://dc.lft.to/lastmile_qr_scan", "android": "https://dc.lft.to/lastmile_qr_scan"}, "is_reserved": 0, "fusion_lat": 0.0, "type": "electric_scooter", "bike_id": "205be80a6e9eb2bb0589fa29615bdc71", "is_disabled": 0, "lon": -77.03478616666666, "fusion_lon": 0.0, "name": "205be80a6e9eb2bb0589fa29615bdc71", "lat": 38.901264}, {"rental_uris": {"ios": "https://dc.lft.to/lastmile_qr_scan", "android": "https://dc.lft.to/lastmile_qr_scan"}, "is_reserved": 0, "fusion_lat": 0.0, "type": "electric_bike", "bike_id": "a457deeef9976a2a4ce24969d27684ec", "is_disabled": 0, "lon": -77.00798216666666, "fusion_lon": 0.0, "name": "a457deeef9976a2a4ce24969d27684ec", "lat": 38.949168}, {"rental_uris": {"ios": "https://dc.lft.to/lastmile_qr_scan", "android": "https://dc.lft.to/lastmile_qr_scan"}, "is_reserved": 0, "fusion_lat": 0.0, "type": "electric_scooter", "bike_id": "695ee9da3de20805bb67c20c02ee6c1a", "is_disabled": 0, "lon": -77.03642183333334, "fusion_lon": 0.0, "name": "695ee9da3de20805bb67c20c02ee6c1a", "lat": 38.916478166666664}, {"rental_uris": {"ios": "https://dc.lft.to/lastmile_qr_scan", "android": "https://dc.lft.to/lastmile_qr_scan"}, "is_reserved": 0, "fusion_lat": 0.0, "type": "electric_scooter", "bike_id": "ad135c0626950735e2566f1ecc413afd", "is_disabled": 0, "lon": -77.03220883333333, "fusion_lon": 0.0, "name": "ad135c0626950735e2566f1ecc413afd", "lat": 38.916338333333336}, {"rental_uris": {"ios": "https://dc.lft.to/lastmile_qr_scan", "android": "https://dc.lft.to/lastmile_qr_scan"}, "is_reserved": 0, "fusion_lat": 0.0, "type": "electric_bike", "bike_id": "0cdd59d90b631493fbe05de065a4fd9d", "is_disabled": 0, "lon": -76.90422733333334, "fusion_lon": 0.0, "name": "0cdd59d90b631493fbe05de065a4fd9d", "lat": 38.940567333333334}, {"rental_uris": {"ios": "https://dc.lft.to/lastmile_qr_scan", "android": "https://dc.lft.to/lastmile_qr_scan"}, "is_reserved": 0, "fusion_lat": 0.0, "type": "electric_scooter", "bike_id": "d8de2882a39bb3774ab31e13e9b09133", "is_disabled": 0, "lon": -77.036732, "fusion_lon": 0.0, "name": "d8de2882a39bb3774ab31e13e9b09133", "lat": 38.93928416666667}, {"rental_uris": {"ios": "https://dc.lft.to/lastmile_qr_scan", "android": "https://dc.lft.to/lastmile_qr_scan"}, "is_reserved": 0, "fusion_lat": 0.0, "type": "electric_scooter", "bike_id": "68cb9a87960a7b1839093a61f8b6fd66", "is_disabled": 0, "lon": -77.039603, "fusion_lon": 0.0, "name": "68cb9a87960a7b1839093a61f8b6fd66", "lat": 38.8943175}, {"rental_uris": {"ios": "https://dc.lft.to/lastmile_qr_scan", "android": "https://dc.lft.to/lastmile_qr_scan"}, "is_reserved": 0, "fusion_lat": 0.0, "type": "electric_scooter", "bike_id": "2fab0812048d8b6ef462c7b2b05f647c", "is_disabled": 0, "lon": -77.04341766666667, "fusion_lon": 0.0, "name": "2fab0812048d8b6ef462c7b2b05f647c", "lat": 38.923446166666665}, {"rental_uris": {"ios": "https://dc.lft.to/lastmile_qr_scan", "android": "https://dc.lft.to/lastmile_qr_scan"}, "is_reserved": 0, "fusion_lat": 0.0, "type": "electric_scooter", "bike_id": "bb7daa267cdf670d37c2abbf1a7c5cd3", "is_disabled": 0, "lon": -77.0328165, "fusion_lon": 0.0, "name": "bb7daa267cdf670d37c2abbf1a7c5cd3", "lat": 38.931163166666664}, {"rental_uris": {"ios": "https://dc.lft.to/lastmile_qr_scan", "android": "https://dc.lft.to/lastmile_qr_scan"}, "is_reserved": 0, "fusion_lat": 0.0, "type": "electric_scooter", "bike_id": "67206cd1d2149d427ead2652b563c77e", "is_disabled": 0, "lon": -77.04877116666667, "fusion_lon": 0.0, "name": "67206cd1d2149d427ead2652b563c77e", "lat": 38.91297216666667}, {"rental_uris": {"ios": "https://dc.lft.to/lastmile_qr_scan", "android": "https://dc.lft.to/lastmile_qr_scan"}, "is_reserved": 0, "fusion_lat": 0.0, "type": "electric_scooter", "bike_id": "163282e0bf75006a4fdd0c09d58bed76", "is_disabled": 0, "lon": -76.95097516666667, "fusion_lon": 0.0, "name": "163282e0bf75006a4fdd0c09d58bed76", "lat": 38.884521}, {"rental_uris": {"ios": "https://dc.lft.to/lastmile_qr_scan", "android": "https://dc.lft.to/lastmile_qr_scan"}, "is_reserved": 0, "fusion_lat": 0.0, "type": "electric_scooter", "bike_id": "4313a649ceead5c1aeb80997ff16f501", "is_disabled": 0, "lon": -77.03277083333333, "fusion_lon": 0.0, "name": "4313a649ceead5c1aeb80997ff16f501", "lat": 38.8988135}, {"rental_uris": {"ios": "https://dc.lft.to/lastmile_qr_scan", "android": "https://dc.lft.to/lastmile_qr_scan"}, "is_reserved": 0, "fusion_lat": 0.0, "type": "electric_scooter", "bike_id": "d5f85946b9751201acd121738ffc55d1", "is_disabled": 0, "lon": -76.98198566666667, "fusion_lon": 0.0, "name": "d5f85946b9751201acd121738ffc55d1", "lat": 38.901977333333335}, {"rental_uris": {"ios": "https://dc.lft.to/lastmile_qr_scan", "android": "https://dc.lft.to/lastmile_qr_scan"}, "is_reserved": 0, "fusion_lat": 0.0, "type": "electric_scooter", "bike_id": "d8271672ef8a34b4512e24773b7c9d32", "is_disabled": 0, "lon": -77.01562716666666, "fusion_lon": 0.0, "name": "d8271672ef8a34b4512e24773b7c9d32", "lat": 38.914045}, {"rental_uris": {"ios": "https://dc.lft.to/lastmile_qr_scan", "android": "https://dc.lft.to/lastmile_qr_scan"}, "is_reserved": 0, "fusion_lat": 0.0, "type": "electric_scooter", "bike_id": "3b6e9c9f0f9f3cdba38cd48b8fe9d428", "is_disabled": 0, "lon": -77.04301566666666, "fusion_lon": 0.0, "name": "3b6e9c9f0f9f3cdba38cd48b8fe9d428", "lat": 38.93186333333333}, {"rental_uris": {"ios": "https://dc.lft.to/lastmile_qr_scan", "android": "https://dc.lft.to/lastmile_qr_scan"}, "is_reserved": 0, "fusion_lat": 0.0, "type": "electric_scooter", "bike_id": "7a5f1145b5d00e07cf5eae35d28850ff", "is_disabled": 0, "lon": -77.07599783333333, "fusion_lon": 0.0, "name": "7a5f1145b5d00e07cf5eae35d28850ff", "lat": 38.941045}, {"rental_uris": {"ios": "https://dc.lft.to/lastmile_qr_scan", "android": "https://dc.lft.to/lastmile_qr_scan"}, "is_reserved": 0, "fusion_lat": 0.0, "type": "electric_scooter", "bike_id": "5c6cf031404662b964d20819ed2d0908", "is_disabled": 0, "lon": -77.02838966666667, "fusion_lon": 0.0, "name": "5c6cf031404662b964d20819ed2d0908", "lat": 38.96136933333333}, {"rental_uris": {"ios": "https://dc.lft.to/lastmile_qr_scan", "android": "https://dc.lft.to/lastmile_qr_scan"}, "is_reserved": 0, "fusion_lat": 0.0, "type": "electric_scooter", "bike_id": "acd9238ca80a1a1bce5805330af88cdc", "is_disabled": 0, "lon": -77.01542016666667, "fusion_lon": 0.0, "name": "acd9238ca80a1a1bce5805330af88cdc", "lat": 38.941273333333335}, {"rental_uris": {"ios": "https://dc.lft.to/lastmile_qr_scan", "android": "https://dc.lft.to/lastmile_qr_scan"}, "is_reserved": 0, "fusion_lat": 0.0, "type": "electric_scooter", "bike_id": "207eb1388b77e106853809177d677d8c", "is_disabled": 0, "lon": -77.00186566666666, "fusion_lon": 0.0, "name": "207eb1388b77e106853809177d677d8c", "lat": 38.88722666666666}, {"rental_uris": {"ios": "https://dc.lft.to/lastmile_qr_scan", "android": "https://dc.lft.to/lastmile_qr_scan"}, "is_reserved": 0, "fusion_lat": 0.0, "type": "electric_scooter", "bike_id": "7e9ba890dbbb08c404fa5c713f468702", "is_disabled": 0, "lon": -77.013115, "fusion_lon": 0.0, "name": "7e9ba890dbbb08c404fa5c713f468702", "lat": 38.943327}, {"rental_uris": {"ios": "https://dc.lft.to/lastmile_qr_scan", "android": "https://dc.lft.to/lastmile_qr_scan"}, "is_reserved": 0, "fusion_lat": 0.0, "type": "electric_scooter", "bike_id": "53489a58151d6553d0152317b42dfa31", "is_disabled": 0, "lon": -76.98372266666667, "fusion_lon": 0.0, "name": "53489a58151d6553d0152317b42dfa31", "lat": 38.861674666666666}, {"rental_uris": {"ios": "https://dc.lft.to/lastmile_qr_scan", "android": "https://dc.lft.to/lastmile_qr_scan"}, "is_reserved": 0, "fusion_lat": 0.0, "type": "electric_scooter", "bike_id": "4d96fcc893539be581ef24e31df09e2e", "is_disabled": 0, "lon": -77.0391755, "fusion_lon": 0.0, "name": "4d96fcc893539be581ef24e31df09e2e", "lat": 38.92474433333334}, {"rental_uris": {"ios": "https://dc.lft.to/lastmile_qr_scan", "android": "https://dc.lft.to/lastmile_qr_scan"}, "is_reserved": 0, "fusion_lat": 0.0, "type": "electric_scooter", "bike_id": "bc4edf525c2577bf07ed43c740a4739c", "is_disabled": 0, "lon": -77.01920233333334, "fusion_lon": 0.0, "name": "bc4edf525c2577bf07ed43c740a4739c", "lat": 38.88395083333333}, {"rental_uris": {"ios": "https://dc.lft.to/lastmile_qr_scan", "android": "https://dc.lft.to/lastmile_qr_scan"}, "is_reserved": 0, "fusion_lat": 0.0, "type": "electric_scooter", "bike_id": "fed242197ba150ab8c0fcc267c970fde", "is_disabled": 0, "lon": -77.043449, "fusion_lon": 0.0, "name": "fed242197ba150ab8c0fcc267c970fde", "lat": 38.900948166666666}, {"rental_uris": {"ios": "https://dc.lft.to/lastmile_qr_scan", "android": "https://dc.lft.to/lastmile_qr_scan"}, "is_reserved": 0, "fusion_lat": 0.0, "type": "electric_scooter", "bike_id": "0aaed8553fdc453af51562e609963c25", "is_disabled": 0, "lon": -77.01328866666667, "fusion_lon": 0.0, "name": "0aaed8553fdc453af51562e609963c25", "lat": 38.901727}, {"rental_uris": {"ios": "https://dc.lft.to/lastmile_qr_scan", "android": "https://dc.lft.to/lastmile_qr_scan"}, "is_reserved": 0, "fusion_lat": 0.0, "type": "electric_scooter", "bike_id": "5510f4b4129a49a2c4bf5250eb37f904", "is_disabled": 0, "lon": -77.019607, "fusion_lon": 0.0, "name": "5510f4b4129a49a2c4bf5250eb37f904", "lat": 38.896314833333335}, {"rental_uris": {"ios": "https://dc.lft.to/lastmile_qr_scan", "android": "https://dc.lft.to/lastmile_qr_scan"}, "is_reserved": 0, "fusion_lat": 0.0, "type": "electric_scooter", "bike_id": "70db7e05f616ee7b8c0fa9c1a4da3f01", "is_disabled": 0, "lon": -77.01927466666666, "fusion_lon": 0.0, "name": "70db7e05f616ee7b8c0fa9c1a4da3f01", "lat": 38.90474366666667}, {"rental_uris": {"ios": "https://dc.lft.to/lastmile_qr_scan", "android": "https://dc.lft.to/lastmile_qr_scan"}, "is_reserved": 0, "fusion_lat": 0.0, "type": "electric_scooter", "bike_id": "5a9c96823a39c3225ab6cd08f46bed5b", "is_disabled": 0, "lon": -77.0006675, "fusion_lon": 0.0, "name": "5a9c96823a39c3225ab6cd08f46bed5b", "lat": 38.92555516666667}, {"rental_uris": {"ios": "https://dc.lft.to/lastmile_qr_scan", "android": "https://dc.lft.to/lastmile_qr_scan"}, "is_reserved": 0, "fusion_lat": 0.0, "type": "electric_scooter", "bike_id": "9f12e7398326cf9b3d6562a653118e95", "is_disabled": 0, "lon": -77.04253416666667, "fusion_lon": 0.0, "name": "9f12e7398326cf9b3d6562a653118e95", "lat": 38.908678333333334}, {"rental_uris": {"ios": "https://dc.lft.to/lastmile_qr_scan", "android": "https://dc.lft.to/lastmile_qr_scan"}, "is_reserved": 0, "fusion_lat": 0.0, "type": "electric_scooter", "bike_id": "b89b026d4eb035872bbac3c4bf3aad17", "is_disabled": 0, "lon": -77.04126483333333, "fusion_lon": 0.0, "name": "b89b026d4eb035872bbac3c4bf3aad17", "lat": 38.91713216666667}, {"rental_uris": {"ios": "https://dc.lft.to/lastmile_qr_scan", "android": "https://dc.lft.to/lastmile_qr_scan"}, "is_reserved": 0, "fusion_lat": 0.0, "type": "electric_scooter", "bike_id": "54ebaaa993c93ce1a310e0e00c66e47c", "is_disabled": 0, "lon": -77.0212115, "fusion_lon": 0.0, "name": "54ebaaa993c93ce1a310e0e00c66e47c", "lat": 38.90185233333333}, {"rental_uris": {"ios": "https://dc.lft.to/lastmile_qr_scan", "android": "https://dc.lft.to/lastmile_qr_scan"}, "is_reserved": 0, "fusion_lat": 0.0, "type": "electric_scooter", "bike_id": "ab567cf37e612be96d9608542d0a0e4f", "is_disabled": 0, "lon": -77.04906783333334, "fusion_lon": 0.0, "name": "ab567cf37e612be96d9608542d0a0e4f", "lat": 38.89689533333333}, {"rental_uris": {"ios": "https://dc.lft.to/lastmile_qr_scan", "android": "https://dc.lft.to/lastmile_qr_scan"}, "is_reserved": 0, "fusion_lat": 0.0, "type": "electric_scooter", "bike_id": "63dcc676e3c6fded80af662a9f82c33c", "is_disabled": 0, "lon": -76.98554283333333, "fusion_lon": 0.0, "name": "63dcc676e3c6fded80af662a9f82c33c", "lat": 38.9004165}, {"rental_uris": {"ios": "https://dc.lft.to/lastmile_qr_scan", "android": "https://dc.lft.to/lastmile_qr_scan"}, "is_reserved": 0, "fusion_lat": 0.0, "type": "electric_scooter", "bike_id": "cf181f04a7b5e7117ad14c5d7f638787", "is_disabled": 0, "lon": -77.02843433333334, "fusion_lon": 0.0, "name": "cf181f04a7b5e7117ad14c5d7f638787", "lat": 38.887495333333334}, {"rental_uris": {"ios": "https://dc.lft.to/lastmile_qr_scan", "android": "https://dc.lft.to/lastmile_qr_scan"}, "is_reserved": 0, "fusion_lat": 0.0, "type": "electric_scooter", "bike_id": "a0166513efb634266f32fd764da6d556", "is_disabled": 0, "lon": -77.016755, "fusion_lon": 0.0, "name": "a0166513efb634266f32fd764da6d556", "lat": 38.920460166666665}, {"rental_uris": {"ios": "https://dc.lft.to/lastmile_qr_scan", "android": "https://dc.lft.to/lastmile_qr_scan"}, "is_reserved": 0, "fusion_lat": 0.0, "type": "electric_scooter", "bike_id": "be28b67912565f8d73ae2b405bd7c837", "is_disabled": 0, "lon": -77.03191683333333, "fusion_lon": 0.0, "name": "be28b67912565f8d73ae2b405bd7c837", "lat": 38.915696}, {"rental_uris": {"ios": "https://dc.lft.to/lastmile_qr_scan", "android": "https://dc.lft.to/lastmile_qr_scan"}, "is_reserved": 0, "fusion_lat": 0.0, "type": "electric_scooter", "bike_id": "1b4645ddd62283752e10589fdc7f0837", "is_disabled": 0, "lon": -77.02353133333334, "fusion_lon": 0.0, "name": "1b4645ddd62283752e10589fdc7f0837", "lat": 38.93531866666667}, {"rental_uris": {"ios": "https://dc.lft.to/lastmile_qr_scan", "android": "https://dc.lft.to/lastmile_qr_scan"}, "is_reserved": 0, "fusion_lat": 0.0, "type": "electric_scooter", "bike_id": "7e47568d002f4e5c6dc748dc62474ae1", "is_disabled": 0, "lon": -77.04238266666667, "fusion_lon": 0.0, "name": "7e47568d002f4e5c6dc748dc62474ae1", "lat": 38.92149766666667}, {"rental_uris": {"ios": "https://dc.lft.to/lastmile_qr_scan", "android": "https://dc.lft.to/lastmile_qr_scan"}, "is_reserved": 0, "fusion_lat": 0.0, "type": "electric_scooter", "bike_id": "108861e03bd8b2845cf7ec962744ad72", "is_disabled": 0, "lon": -77.02186983333333, "fusion_lon": 0.0, "name": "108861e03bd8b2845cf7ec962744ad72", "lat": 38.892315833333335}, {"rental_uris": {"ios": "https://dc.lft.to/lastmile_qr_scan", "android": "https://dc.lft.to/lastmile_qr_scan"}, "is_reserved": 0, "fusion_lat": 0.0, "type": "electric_scooter", "bike_id": "5b76c9ec927b447f42a7d3b0bee84d9a", "is_disabled": 0, "lon": -77.00199933333333, "fusion_lon": 0.0, "name": "5b76c9ec927b447f42a7d3b0bee84d9a", "lat": 38.90028266666667}, {"rental_uris": {"ios": "https://dc.lft.to/lastmile_qr_scan", "android": "https://dc.lft.to/lastmile_qr_scan"}, "is_reserved": 0, "fusion_lat": 0.0, "type": "electric_bike", "bike_id": "a912b922b5579520b3896f7c4d9fd459", "is_disabled": 0, "lon": -77.0020375, "fusion_lon": 0.0, "name": "a912b922b5579520b3896f7c4d9fd459", "lat": 38.81941066666667}, {"rental_uris": {"ios": "https://dc.lft.to/lastmile_qr_scan", "android": "https://dc.lft.to/lastmile_qr_scan"}, "is_reserved": 0, "fusion_lat": 0.0, "type": "electric_scooter", "bike_id": "cba92d7fbd302cd787c073cd1eba9256", "is_disabled": 0, "lon": -76.99525333333334, "fusion_lon": 0.0, "name": "cba92d7fbd302cd787c073cd1eba9256", "lat": 38.883843666666664}, {"rental_uris": {"ios": "https://dc.lft.to/lastmile_qr_scan", "android": "https://dc.lft.to/lastmile_qr_scan"}, "is_reserved": 0, "fusion_lat": 0.0, "type": "electric_scooter", "bike_id": "d57244ddfd2363006fce8fb823b15845", "is_disabled": 0, "lon": -77.0535115, "fusion_lon": 0.0, "name": "d57244ddfd2363006fce8fb823b15845", "lat": 38.92333566666667}, {"rental_uris": {"ios": "https://dc.lft.to/lastmile_qr_scan", "android": "https://dc.lft.to/lastmile_qr_scan"}, "is_reserved": 0, "fusion_lat": 0.0, "type": "electric_scooter", "bike_id": "baac81ed01f147b87a462594010e8f12", "is_disabled": 0, "lon": -77.00394916666667, "fusion_lon": 0.0, "name": "baac81ed01f147b87a462594010e8f12", "lat": 38.89750933333333}, {"rental_uris": {"ios": "https://dc.lft.to/lastmile_qr_scan", "android": "https://dc.lft.to/lastmile_qr_scan"}, "is_reserved": 0, "fusion_lat": 0.0, "type": "electric_scooter", "bike_id": "7f0dec646cc5c186c27dd872eb6af89e", "is_disabled": 0, "lon": -77.02664733333333, "fusion_lon": 0.0, "name": "7f0dec646cc5c186c27dd872eb6af89e", "lat": 38.8973245}, {"rental_uris": {"ios": "https://dc.lft.to/lastmile_qr_scan", "android": "https://dc.lft.to/lastmile_qr_scan"}, "is_reserved": 0, "fusion_lat": 0.0, "type": "electric_scooter", "bike_id": "480979a126a0de2e77c5bd4960e3c36a", "is_disabled": 0, "lon": -76.99525983333334, "fusion_lon": 0.0, "name": "480979a126a0de2e77c5bd4960e3c36a", "lat": 38.8860955}, {"rental_uris": {"ios": "https://dc.lft.to/lastmile_qr_scan", "android": "https://dc.lft.to/lastmile_qr_scan"}, "is_reserved": 0, "fusion_lat": 0.0, "type": "electric_scooter", "bike_id": "d20925575d5ad86a13fefffb5ad332df", "is_disabled": 0, "lon": -77.0158275, "fusion_lon": 0.0, "name": "d20925575d5ad86a13fefffb5ad332df", "lat": 38.916741}, {"rental_uris": {"ios": "https://dc.lft.to/lastmile_qr_scan", "android": "https://dc.lft.to/lastmile_qr_scan"}, "is_reserved": 0, "fusion_lat": 0.0, "type": "electric_scooter", "bike_id": "6eb1f907120b7e8cdebe6015c65d96d5", "is_disabled": 0, "lon": -77.009338, "fusion_lon": 0.0, "name": "6eb1f907120b7e8cdebe6015c65d96d5", "lat": 38.87609066666667}, {"rental_uris": {"ios": "https://dc.lft.to/lastmile_qr_scan", "android": "https://dc.lft.to/lastmile_qr_scan"}, "is_reserved": 0, "fusion_lat": 0.0, "type": "electric_scooter", "bike_id": "d88e617064ccf8f8f3fd6673ed0afc15", "is_disabled": 0, "lon": -77.07144383333333, "fusion_lon": 0.0, "name": "d88e617064ccf8f8f3fd6673ed0afc15", "lat": 38.9077515}, {"rental_uris": {"ios": "https://dc.lft.to/lastmile_qr_scan", "android": "https://dc.lft.to/lastmile_qr_scan"}, "is_reserved": 0, "fusion_lat": 0.0, "type": "electric_scooter", "bike_id": "31474b78ab448b1e4e3a1fa435614e2d", "is_disabled": 0, "lon": -77.03825466666666, "fusion_lon": 0.0, "name": "31474b78ab448b1e4e3a1fa435614e2d", "lat": 38.925413166666665}, {"rental_uris": {"ios": "https://dc.lft.to/lastmile_qr_scan", "android": "https://dc.lft.to/lastmile_qr_scan"}, "is_reserved": 0, "fusion_lat": 0.0, "type": "electric_scooter", "bike_id": "0f3998ea39727858f2f7f2ba86bb362d", "is_disabled": 0, "lon": -76.99006216666666, "fusion_lon": 0.0, "name": "0f3998ea39727858f2f7f2ba86bb362d", "lat": 38.86507433333333}, {"rental_uris": {"ios": "https://dc.lft.to/lastmile_qr_scan", "android": "https://dc.lft.to/lastmile_qr_scan"}, "is_reserved": 0, "fusion_lat": 0.0, "type": "electric_scooter", "bike_id": "3e8df2ddd12b8771b875d438e90e8e49", "is_disabled": 0, "lon": -77.03477733333334, "fusion_lon": 0.0, "name": "3e8df2ddd12b8771b875d438e90e8e49", "lat": 38.926414333333334}, {"rental_uris": {"ios": "https://dc.lft.to/lastmile_qr_scan", "android": "https://dc.lft.to/lastmile_qr_scan"}, "is_reserved": 0, "fusion_lat": 0.0, "type": "electric_scooter", "bike_id": "c862668ed21ccac86c3628aae874a244", "is_disabled": 0, "lon": -77.03393483333333, "fusion_lon": 0.0, "name": "c862668ed21ccac86c3628aae874a244", "lat": 38.92642333333333}, {"rental_uris": {"ios": "https://dc.lft.to/lastmile_qr_scan", "android": "https://dc.lft.to/lastmile_qr_scan"}, "is_reserved": 0, "fusion_lat": 0.0, "type": "electric_scooter", "bike_id": "f11e38473a5bf6559044f47c9da5a1ac", "is_disabled": 0, "lon": -77.00979, "fusion_lon": 0.0, "name": "f11e38473a5bf6559044f47c9da5a1ac", "lat": 38.89490216666667}, {"rental_uris": {"ios": "https://dc.lft.to/lastmile_qr_scan", "android": "https://dc.lft.to/lastmile_qr_scan"}, "is_reserved": 0, "fusion_lat": 0.0, "type": "electric_scooter", "bike_id": "86f7b3dd7adfc73e5d1ea39659d2414b", "is_disabled": 0, "lon": -77.03450283333333, "fusion_lon": 0.0, "name": "86f7b3dd7adfc73e5d1ea39659d2414b", "lat": 38.905713166666665}, {"rental_uris": {"ios": "https://dc.lft.to/lastmile_qr_scan", "android": "https://dc.lft.to/lastmile_qr_scan"}, "is_reserved": 0, "fusion_lat": 0.0, "type": "electric_scooter", "bike_id": "94ebe7366df2a6692412dfeadca6c1b9", "is_disabled": 0, "lon": -77.04602516666667, "fusion_lon": 0.0, "name": "94ebe7366df2a6692412dfeadca6c1b9", "lat": 38.917264}, {"rental_uris": {"ios": "https://dc.lft.to/lastmile_qr_scan", "android": "https://dc.lft.to/lastmile_qr_scan"}, "is_reserved": 0, "fusion_lat": 0.0, "type": "electric_scooter", "bike_id": "c78d7aa424a02dd5716f0c298a245c90", "is_disabled": 0, "lon": -77.02003583333334, "fusion_lon": 0.0, "name": "c78d7aa424a02dd5716f0c298a245c90", "lat": 38.9087735}, {"rental_uris": {"ios": "https://dc.lft.to/lastmile_qr_scan", "android": "https://dc.lft.to/lastmile_qr_scan"}, "is_reserved": 0, "fusion_lat": 0.0, "type": "electric_scooter", "bike_id": "89067a6649a233f9753a39887dd375b6", "is_disabled": 0, "lon": -77.0268985, "fusion_lon": 0.0, "name": "89067a6649a233f9753a39887dd375b6", "lat": 38.925702666666666}, {"rental_uris": {"ios": "https://dc.lft.to/lastmile_qr_scan", "android": "https://dc.lft.to/lastmile_qr_scan"}, "is_reserved": 0, "fusion_lat": 0.0, "type": "electric_scooter", "bike_id": "52a2e1ddcbd79bc1e703eb4fc317a38a", "is_disabled": 0, "lon": -76.99467366666667, "fusion_lon": 0.0, "name": "52a2e1ddcbd79bc1e703eb4fc317a38a", "lat": 38.8972745}, {"rental_uris": {"ios": "https://dc.lft.to/lastmile_qr_scan", "android": "https://dc.lft.to/lastmile_qr_scan"}, "is_reserved": 0, "fusion_lat": 0.0, "type": "electric_bike", "bike_id": "325301309ea18fc634da0823d175d5c4", "is_disabled": 0, "lon": -77.1873905, "fusion_lon": 0.0, "name": "325301309ea18fc634da0823d175d5c4", "lat": 38.893594}, {"rental_uris": {"ios": "https://dc.lft.to/lastmile_qr_scan", "android": "https://dc.lft.to/lastmile_qr_scan"}, "is_reserved": 0, "fusion_lat": 0.0, "type": "electric_scooter", "bike_id": "1e13879f40860eacec7e9c9a6cee4aab", "is_disabled": 0, "lon": -77.049809, "fusion_lon": 0.0, "name": "1e13879f40860eacec7e9c9a6cee4aab", "lat": 38.893376}, {"rental_uris": {"ios": "https://dc.lft.to/lastmile_qr_scan", "android": "https://dc.lft.to/lastmile_qr_scan"}, "is_reserved": 0, "fusion_lat": 0.0, "type": "electric_scooter", "bike_id": "7278f866a741627b0d1d66632e3f9bc9", "is_disabled": 0, "lon": -76.94636983333334, "fusion_lon": 0.0, "name": "7278f866a741627b0d1d66632e3f9bc9", "lat": 38.89869433333333}, {"rental_uris": {"ios": "https://dc.lft.to/lastmile_qr_scan", "android": "https://dc.lft.to/lastmile_qr_scan"}, "is_reserved": 0, "fusion_lat": 0.0, "type": "electric_scooter", "bike_id": "eaef08bd5d784083b7d5405429995ac8", "is_disabled": 0, "lon": -77.038467, "fusion_lon": 0.0, "name": "eaef08bd5d784083b7d5405429995ac8", "lat": 38.9027385}, {"rental_uris": {"ios": "https://dc.lft.to/lastmile_qr_scan", "android": "https://dc.lft.to/lastmile_qr_scan"}, "is_reserved": 0, "fusion_lat": 0.0, "type": "electric_scooter", "bike_id": "d30665994f92a0860c957f29f4b67494", "is_disabled": 0, "lon": -77.02603216666667, "fusion_lon": 0.0, "name": "d30665994f92a0860c957f29f4b67494", "lat": 38.927977166666665}, {"rental_uris": {"ios": "https://dc.lft.to/lastmile_qr_scan", "android": "https://dc.lft.to/lastmile_qr_scan"}, "is_reserved": 0, "fusion_lat": 0.0, "type": "electric_scooter", "bike_id": "705c9aa6c760779be6a0e7af381bc15b", "is_disabled": 0, "lon": -77.0644145, "fusion_lon": 0.0, "name": "705c9aa6c760779be6a0e7af381bc15b", "lat": 38.907901333333335}, {"rental_uris": {"ios": "https://dc.lft.to/lastmile_qr_scan", "android": "https://dc.lft.to/lastmile_qr_scan"}, "is_reserved": 0, "fusion_lat": 0.0, "type": "electric_scooter", "bike_id": "e282c5b217f9f8cec893bea51c88d627", "is_disabled": 0, "lon": -77.05126266666667, "fusion_lon": 0.0, "name": "e282c5b217f9f8cec893bea51c88d627", "lat": 38.92523883333333}, {"rental_uris": {"ios": "https://dc.lft.to/lastmile_qr_scan", "android": "https://dc.lft.to/lastmile_qr_scan"}, "is_reserved": 0, "fusion_lat": 0.0, "type": "electric_scooter", "bike_id": "30f82f0e99dbd5481aa567965a90a8b2", "is_disabled": 0, "lon": -77.04054766666667, "fusion_lon": 0.0, "name": "30f82f0e99dbd5481aa567965a90a8b2", "lat": 38.89918183333333}, {"rental_uris": {"ios": "https://dc.lft.to/lastmile_qr_scan", "android": "https://dc.lft.to/lastmile_qr_scan"}, "is_reserved": 0, "fusion_lat": 0.0, "type": "electric_scooter", "bike_id": "0fefb6e595f02e4a8f5e2ab687edf13c", "is_disabled": 0, "lon": -77.04380766666667, "fusion_lon": 0.0, "name": "0fefb6e595f02e4a8f5e2ab687edf13c", "lat": 38.89226416666666}, {"rental_uris": {"ios": "https://dc.lft.to/lastmile_qr_scan", "android": "https://dc.lft.to/lastmile_qr_scan"}, "is_reserved": 0, "fusion_lat": 0.0, "type": "electric_bike", "bike_id": "1e3b4ad7eb7e125e165d89329a490575", "is_disabled": 0, "lon": -76.95398933333334, "fusion_lon": 0.0, "name": "1e3b4ad7eb7e125e165d89329a490575", "lat": 38.884180666666666}, {"rental_uris": {"ios": "https://dc.lft.to/lastmile_qr_scan", "android": "https://dc.lft.to/lastmile_qr_scan"}, "is_reserved": 0, "fusion_lat": 0.0, "type": "electric_scooter", "bike_id": "35b7ace33b00cb037193ff69b7843f16", "is_disabled": 0, "lon": -77.04179466666666, "fusion_lon": 0.0, "name": "35b7ace33b00cb037193ff69b7843f16", "lat": 38.9198235}, {"rental_uris": {"ios": "https://dc.lft.to/lastmile_qr_scan", "android": "https://dc.lft.to/lastmile_qr_scan"}, "is_reserved": 0, "fusion_lat": 0.0, "type": "electric_scooter", "bike_id": "33b9cfa3b86fd76bfa5e23178aef341b", "is_disabled": 0, "lon": -76.98946633333334, "fusion_lon": 0.0, "name": "33b9cfa3b86fd76bfa5e23178aef341b", "lat": 38.86534066666667}, {"rental_uris": {"ios": "https://dc.lft.to/lastmile_qr_scan", "android": "https://dc.lft.to/lastmile_qr_scan"}, "is_reserved": 0, "fusion_lat": 0.0, "type": "electric_scooter", "bike_id": "d4078403ed0b96ee3d9fa0d02f8c8e2f", "is_disabled": 0, "lon": -76.99510416666666, "fusion_lon": 0.0, "name": "d4078403ed0b96ee3d9fa0d02f8c8e2f", "lat": 38.877796833333335}, {"rental_uris": {"ios": "https://dc.lft.to/lastmile_qr_scan", "android": "https://dc.lft.to/lastmile_qr_scan"}, "is_reserved": 0, "fusion_lat": 0.0, "type": "electric_scooter", "bike_id": "f5d65c87a8db2f3d4b0cf7a7cca79c7e", "is_disabled": 0, "lon": -77.00408416666667, "fusion_lon": 0.0, "name": "f5d65c87a8db2f3d4b0cf7a7cca79c7e", "lat": 38.905364166666665}, {"rental_uris": {"ios": "https://dc.lft.to/lastmile_qr_scan", "android": "https://dc.lft.to/lastmile_qr_scan"}, "is_reserved": 0, "fusion_lat": 0.0, "type": "electric_scooter", "bike_id": "b602436da9827dd058a27ca11e455d3c", "is_disabled": 0, "lon": -77.01574333333333, "fusion_lon": 0.0, "name": "b602436da9827dd058a27ca11e455d3c", "lat": 38.91682483333334}, {"rental_uris": {"ios": "https://dc.lft.to/lastmile_qr_scan", "android": "https://dc.lft.to/lastmile_qr_scan"}, "is_reserved": 0, "fusion_lat": 0.0, "type": "electric_scooter", "bike_id": "39cadd026f83b887bd16ea9d4f18fe0d", "is_disabled": 0, "lon": -77.02117833333334, "fusion_lon": 0.0, "name": "39cadd026f83b887bd16ea9d4f18fe0d", "lat": 38.88752933333333}, {"rental_uris": {"ios": "https://dc.lft.to/lastmile_qr_scan", "android": "https://dc.lft.to/lastmile_qr_scan"}, "is_reserved": 0, "fusion_lat": 0.0, "type": "electric_scooter", "bike_id": "0cc32617b26baa400829c3090a4fe0e5", "is_disabled": 0, "lon": -77.04815716666667, "fusion_lon": 0.0, "name": "0cc32617b26baa400829c3090a4fe0e5", "lat": 38.898343}, {"rental_uris": {"ios": "https://dc.lft.to/lastmile_qr_scan", "android": "https://dc.lft.to/lastmile_qr_scan"}, "is_reserved": 0, "fusion_lat": 0.0, "type": "electric_scooter", "bike_id": "9a5ca8a05fc903098d55e387ed0e0686", "is_disabled": 0, "lon": -77.00583233333333, "fusion_lon": 0.0, "name": "9a5ca8a05fc903098d55e387ed0e0686", "lat": 38.90621016666667}, {"rental_uris": {"ios": "https://dc.lft.to/lastmile_qr_scan", "android": "https://dc.lft.to/lastmile_qr_scan"}, "is_reserved": 0, "fusion_lat": 0.0, "type": "electric_scooter", "bike_id": "83527a5f43ff5b2910578f1d57b4271b", "is_disabled": 0, "lon": -77.039705, "fusion_lon": 0.0, "name": "83527a5f43ff5b2910578f1d57b4271b", "lat": 38.90254516666667}, {"rental_uris": {"ios": "https://dc.lft.to/lastmile_qr_scan", "android": "https://dc.lft.to/lastmile_qr_scan"}, "is_reserved": 0, "fusion_lat": 0.0, "type": "electric_scooter", "bike_id": "6d6088caa2480b30d8bfabd52358798e", "is_disabled": 0, "lon": -77.03192466666667, "fusion_lon": 0.0, "name": "6d6088caa2480b30d8bfabd52358798e", "lat": 38.908478333333335}, {"rental_uris": {"ios": "https://dc.lft.to/lastmile_qr_scan", "android": "https://dc.lft.to/lastmile_qr_scan"}, "is_reserved": 0, "fusion_lat": 0.0, "type": "electric_scooter", "bike_id": "f9133f35da459d613272f8b3c02a1d2b", "is_disabled": 0, "lon": -77.07180483333333, "fusion_lon": 0.0, "name": "f9133f35da459d613272f8b3c02a1d2b", "lat": 38.906737}, {"rental_uris": {"ios": "https://dc.lft.to/lastmile_qr_scan", "android": "https://dc.lft.to/lastmile_qr_scan"}, "is_reserved": 0, "fusion_lat": 0.0, "type": "electric_scooter", "bike_id": "66f99e4580f109c5fbc570034323718b", "is_disabled": 0, "lon": -77.0462805, "fusion_lon": 0.0, "name": "66f99e4580f109c5fbc570034323718b", "lat": 38.9145895}, {"rental_uris": {"ios": "https://dc.lft.to/lastmile_qr_scan", "android": "https://dc.lft.to/lastmile_qr_scan"}, "is_reserved": 0, "fusion_lat": 0.0, "type": "electric_scooter", "bike_id": "4fbd85ce4fdb421c27dd78830704507e", "is_disabled": 0, "lon": -77.02318333333334, "fusion_lon": 0.0, "name": "4fbd85ce4fdb421c27dd78830704507e", "lat": 38.89576816666667}, {"rental_uris": {"ios": "https://dc.lft.to/lastmile_qr_scan", "android": "https://dc.lft.to/lastmile_qr_scan"}, "is_reserved": 0, "fusion_lat": 0.0, "type": "electric_scooter", "bike_id": "c7cc88de8df7806a6379a7267afd0644", "is_disabled": 0, "lon": -76.98687183333334, "fusion_lon": 0.0, "name": "c7cc88de8df7806a6379a7267afd0644", "lat": 38.87900666666667}, {"rental_uris": {"ios": "https://dc.lft.to/lastmile_qr_scan", "android": "https://dc.lft.to/lastmile_qr_scan"}, "is_reserved": 0, "fusion_lat": 0.0, "type": "electric_scooter", "bike_id": "8c8b39ab2ab6684e7aed3f969897135f", "is_disabled": 0, "lon": -77.00222133333334, "fusion_lon": 0.0, "name": "8c8b39ab2ab6684e7aed3f969897135f", "lat": 38.8989505}, {"rental_uris": {"ios": "https://dc.lft.to/lastmile_qr_scan", "android": "https://dc.lft.to/lastmile_qr_scan"}, "is_reserved": 0, "fusion_lat": 0.0, "type": "electric_scooter", "bike_id": "d700197a1704f0f4acc64762d0efeb67", "is_disabled": 0, "lon": -77.020374, "fusion_lon": 0.0, "name": "d700197a1704f0f4acc64762d0efeb67", "lat": 38.92414633333333}, {"rental_uris": {"ios": "https://dc.lft.to/lastmile_qr_scan", "android": "https://dc.lft.to/lastmile_qr_scan"}, "is_reserved": 0, "fusion_lat": 0.0, "type": "electric_scooter", "bike_id": "33acb92066691a0d16b655e50c3f89aa", "is_disabled": 0, "lon": -77.04222, "fusion_lon": 0.0, "name": "33acb92066691a0d16b655e50c3f89aa", "lat": 38.90136783333333}, {"rental_uris": {"ios": "https://dc.lft.to/lastmile_qr_scan", "android": "https://dc.lft.to/lastmile_qr_scan"}, "is_reserved": 0, "fusion_lat": 0.0, "type": "electric_scooter", "bike_id": "46a340634db9bc2aece5163efe40b369", "is_disabled": 0, "lon": -77.032814, "fusion_lon": 0.0, "name": "46a340634db9bc2aece5163efe40b369", "lat": 38.9370505},