{"data": {"bikes": [{"name": "5b8c3d34ef6661a127a1ccd3c9242136", "type": "electric_bike", "lat": 38.86165966666667, "is_reserved": 0, "lon": -76.95064033333334, "fusion_lon": 0.0, "is_disabled": 0, "fusion_lat": 0.0, "bike_id": "5b8c3d34ef6661a127a1ccd3c9242136", "rental_uris": {"ios": "https://dc.lft.to/lastmile_qr_scan", "android": "https://dc.lft.to/lastmile_qr_scan"}}, {"name": "4ee7a8273370050dbb01ed41979e1d32", "type": "electric_scooter", "lat": 38.903120333333334, "is_reserved": 0, "lon": -77.04336516666666, "fusion_lon": 0.0, "is_disabled": 0, "fusion_lat": 0.0, "bike_id": "4ee7a8273370050dbb01ed41979e1d32", "rental_uris": {"ios": "https://dc.lft.to/lastmile_qr_scan", "android": "https://dc.lft.to/lastmile_qr_scan"}}, {"name": "102273979403a9144cee1442581f9d84", "type": "electric_scooter", "lat": 38.922573, "is_reserved": 0, "lon": -77.04294516666667, "fusion_lon": 0.0, "is_disabled": 0, "fusion_lat": 0.0, "bike_id": "102273979403a9144cee1442581f9d84", "rental_uris": {"ios": "https://dc.lft.to/lastmile_qr_scan", "android": "https://dc.lft.to/lastmile_qr_scan"}}, {"name": "2f1f13b55e5f7e9f66379b6985257df4", "type": "electric_scooter", "lat": 38.92193616666667, "is_reserved": 0, "lon": -77.04122516666666, "fusion_lon": 0.0, "is_disabled": 0, "fusion_lat": 0.0, "bike_id": "2f1f13b55e5f7e9f66379b6985257df4", "rental_uris": {"ios": "https://dc.lft.to/lastmile_qr_scan", "android": "https://dc.lft.to/lastmile_qr_scan"}}, {"name": "95304f2ce615bf8278d31152f14a3017", "type": "electric_scooter", "lat": 38.90091783333333, "is_reserved": 0, "lon": -77.04923833333334, "fusion_lon": 0.0, "is_disabled": 0, "fusion_lat": 0.0, "bike_id": "95304f2ce615bf8278d31152f14a3017", "rental_uris": {"ios": "https://dc.lft.to/lastmile_qr_scan", "android": "https://dc.lft.to/lastmile_qr_scan"}}, {"name": "7d4e7ea359672ac70f882fe22dfeb0bc", "type": "electric_scooter", "lat": 38.90507816666667, "is_reserved": 0, "lon": -77.069395, "fusion_lon": 0.0, "is_disabled": 0, "fusion_lat": 0.0, "bike_id": "7d4e7ea359672ac70f882fe22dfeb0bc", "rental_uris": {"ios": "https://dc.lft.to/lastmile_qr_scan", "android": "https://dc.lft.to/lastmile_qr_scan"}}, {"name": "ac51172cee0765c83d067f0982e4525a", "type": "electric_scooter", "lat": 38.9234605, "is_reserved": 0, "lon": -77.019106, "fusion_lon": 0.0, "is_disabled": 0, "fusion_lat": 0.0, "bike_id": "ac51172cee0765c83d067f0982e4525a", "rental_uris": {"ios": "https://dc.lft.to/lastmile_qr_scan", "android": "https://dc.lft.to/lastmile_qr_scan"}}, {"name": "3b792dbd94945de6bdbbf93e80d252a2", "type": "electric_scooter", "lat": 38.923267833333334, "is_reserved": 0, "lon": -77.038815, "fusion_lon": 0.0, "is_disabled": 0, "fusion_lat": 0.0, "bike_id": "3b792dbd94945de6bdbbf93e80d252a2", "rental_uris": {"ios": "https://dc.lft.to/lastmile_qr_scan", "android": "https://dc.lft.to/lastmile_qr_scan"}}, {"name": "546d27a0a717e7b5d0cd90a3f70fa0dd", "type": "electric_scooter", "lat": 38.892301, "is_reserved": 0, "lon": -77.03198466666667, "fusion_lon": 0.0, "is_disabled": 0, "fusion_lat": 0.0, "bike_id": "546d27a0a717e7b5d0cd90a3f70fa0dd", "rental_uris": {"ios": "https://dc.lft.to/lastmile_qr_scan", "android": "https://dc.lft.to/lastmile_qr_scan"}}, {"name": "eb57a87b678e5faa7cf4360b81d5e40c", "type": "electric_scooter", "lat": 38.901423666666666, "is_reserved": 0, "lon": -77.04463133333333, "fusion_lon": 0.0, "is_disabled": 0, "fusion_lat": 0.0, "bike_id": "eb57a87b678e5faa7cf4360b81d5e40c", "rental_uris": {"ios": "https://dc.lft.to/lastmile_qr_scan", "android": "https://dc.lft.to/lastmile_qr_scan"}}, {"name": "68145a9007e4d8f553eefe1e443721ed", "type": "electric_scooter", "lat": 38.91011983333333, "is_reserved": 0, "lon": -77.0188405, "fusion_lon": 0.0, "is_disabled": 0, "fusion_lat": 0.0, "bike_id": "68145a9007e4d8f553eefe1e443721ed", "rental_uris": {"ios": "https://dc.lft.to/lastmile_qr_scan", "android": "https://dc.lft.to/lastmile_qr_scan"}}, {"name": "45a8f6e30e1854d52d14a8ba03511b7b", "type": "electric_scooter", "lat": 38.91670933333333, "is_reserved": 0, "lon": -77.03627366666667, "fusion_lon": 0.0, "is_disabled": 0, "fusion_lat": 0.0, "bike_id": "45a8f6e30e1854d52d14a8ba03511b7b", "rental_uris": {"ios": "https://dc.lft.to/lastmile_qr_scan", "android": "https://dc.lft.to/lastmile_qr_scan"}}, {"name": "451eaa4eee73785703a3145fc975cfe8", "type": "electric_scooter", "lat": 38.864101833333336, "is_reserved": 0, "lon": -77.013606, "fusion_lon": 0.0, "is_disabled": 0, "fusion_lat": 0.0, "bike_id": "451eaa4eee73785703a3145fc975cfe8", "rental_uris": {"ios": "https://dc.lft.to/lastmile_qr_scan", "android": "https://dc.lft.to/lastmile_qr_scan"}}, {"name": "9df1678c93bfa8f986295265d8e945e2", "type": "electric_bike", "lat": 38.88715833333333, "is_reserved": 0, "lon": -77.13301066666666, "fusion_lon": 0.0, "is_disabled": 0, "fusion_lat": 0.0, "bike_id": "9df1678c93bfa8f986295265d8e945e2", "rental_uris": {"ios": "https://dc.lft.to/lastmile_qr_scan", "android": "https://dc.lft.to/lastmile_qr_scan"}}, {"name": "db42d73343e1010e923031fa727ec134", "type": "electric_scooter", "lat": 38.90961383333333, "is_reserved": 0, "lon": -77.03425216666666, "fusion_lon": 0.0, "is_disabled": 0, "fusion_lat": 0.0, "bike_id": "db42d73343e1010e923031fa727ec134", "rental_uris": {"ios": "https://dc.lft.to/lastmile_qr_scan", "android": "https://dc.lft.to/lastmile_qr_scan"}}, {"name": "b96b56373ac0a1859a626fb16ded0e04", "type": "electric_scooter", "lat": 38.901709, "is_reserved": 0, "lon": -77.00006366666666, "fusion_lon": 0.0, "is_disabled": 0, "fusion_lat": 0.0, "bike_id": "b96b56373ac0a1859a626fb16ded0e04", "rental_uris": {"ios": "https://dc.lft.to/lastmile_qr_scan", "android": "https://dc.lft.to/lastmile_qr_scan"}}, {"name": "4de5e1f458c26802df2e819261d7777a", "type": "electric_bike", "lat": 38.958144, "is_reserved": 0, "lon": -77.01377516666666, "fusion_lon": 0.0, "is_disabled": 0, "fusion_lat": 0.0, "bike_id": "4de5e1f458c26802df2e819261d7777a", "rental_uris": {"ios": "https://dc.lft.to/lastmile_qr_scan", "android": "https://dc.lft.to/lastmile_qr_scan"}}, {"name": "3a32b28eb4050db3e573ca7423ce308a", "type": "electric_scooter", "lat": 38.8635845, "is_reserved": 0, "lon": -76.99067333333333, "fusion_lon": 0.0, "is_disabled": 0, "fusion_lat": 0.0, "bike_id": "3a32b28eb4050db3e573ca7423ce308a", "rental_uris": {"ios": "https://dc.lft.to/lastmile_qr_scan", "android": "https://dc.lft.to/lastmile_qr_scan"}}, {"name": "3e7288ed4b674cb2e92bc6dd1fece431", "type": "electric_scooter", "lat": 38.9051735, "is_reserved": 0, "lon": -77.065889, "fusion_lon": 0.0, "is_disabled": 0, "fusion_lat": 0.0, "bike_id": "3e7288ed4b674cb2e92bc6dd1fece431", "rental_uris": {"ios": "https://dc.lft.to/lastmile_qr_scan", "android": "https://dc.lft.to/lastmile_qr_scan"}}, {"name": "ad308184de0a3f91bc7dcaf4b29e0a25", "type": "electric_scooter", "lat": 38.904536666666665, "is_reserved": 0, "lon": -77.059156, "fusion_lon": 0.0, "is_disabled": 0, "fusion_lat": 0.0, "bike_id": "ad308184de0a3f91bc7dcaf4b29e0a25", "rental_uris": {"ios": "https://dc.lft.to/lastmile_qr_scan", "android": "https://dc.lft.to/lastmile_qr_scan"}}, {"name": "48304972fffa64e6bd2b48092f48b9b8", "type": "electric_scooter", "lat": 38.933469, "is_reserved": 0, "lon": -77.05866583333334, "fusion_lon": 0.0, "is_disabled": 0, "fusion_lat": 0.0, "bike_id": "48304972fffa64e6bd2b48092f48b9b8", "rental_uris": {"ios": "https://dc.lft.to/lastmile_qr_scan", "android": "https://dc.lft.to/lastmile_qr_scan"}}, {"name": "9ccad5cec58b583b87e776363472af66", "type": "electric_scooter", "lat": 38.908195166666665, "is_reserved": 0, "lon": -77.03945216666666, "fusion_lon": 0.0, "is_disabled": 0, "fusion_lat": 0.0, "bike_id": "9ccad5cec58b583b87e776363472af66", "rental_uris": {"ios": "https://dc.lft.to/lastmile_qr_scan", "android": "https://dc.lft.to/lastmile_qr_scan"}}, {"name": "33d024ccd36c0d60708ce73419a9d74b", "type": "electric_scooter", "lat": 38.89814333333333, "is_reserved": 0, "lon": -77.02975783333333, "fusion_lon": 0.0, "is_disabled": 0, "fusion_lat": 0.0, "bike_id": "33d024ccd36c0d60708ce73419a9d74b", "rental_uris": {"ios": "https://dc.lft.to/lastmile_qr_scan", "android": "https://dc.lft.to/lastmile_qr_scan"}}, {"name": "92648f347b5c171b9a3fdf894408240f", "type": "electric_scooter", "lat": 38.8624525, "is_reserved": 0, "lon": -76.9948275, "fusion_lon": 0.0, "is_disabled": 0, "fusion_lat": 0.0, "bike_id": "92648f347b5c171b9a3fdf894408240f", "rental_uris": {"ios": "https://dc.lft.to/lastmile_qr_scan", "android": "https://dc.lft.to/lastmile_qr_scan"}}, {"name": "e61a95e3321d69d8fc3cfff0daaacd14", "type": "electric_scooter", "lat": 38.911140833333334, "is_reserved": 0, "lon": -77.06524116666667, "fusion_lon": 0.0, "is_disabled": 0, "fusion_lat": 0.0, "bike_id": "e61a95e3321d69d8fc3cfff0daaacd14", "rental_uris": {"ios": "https://dc.lft.to/lastmile_qr_scan", "android": "https://dc.lft.to/lastmile_qr_scan"}}, {"name": "3a5cd9b09de7b9d890a9689ae0a56e5a", "type": "electric_scooter", "lat": 38.90018833333333, "is_reserved": 0, "lon": -77.01121916666666, "fusion_lon": 0.0, "is_disabled": 0, "fusion_lat": 0.0, "bike_id": "3a5cd9b09de7b9d890a9689ae0a56e5a", "rental_uris": {"ios": "https://dc.lft.to/lastmile_qr_scan", "android": "https://dc.lft.to/lastmile_qr_scan"}}, {"name": "ed60ec84e7c7f32b58601bc92e19a7be", "type": "electric_scooter", "lat": 38.9050145, "is_reserved": 0, "lon": -77.04152033333334, "fusion_lon": 0.0, "is_disabled": 0, "fusion_lat": 0.0, "bike_id": "ed60ec84e7c7f32b58601bc92e19a7be", "rental_uris": {"ios": "https://dc.lft.to/lastmile_qr_scan", "android": "https://dc.lft.to/lastmile_qr_scan"}}, {"name": "3b7334935f5c66a12b96b148395559b9", "type": "electric_scooter", "lat": 38.9028185, "is_reserved": 0, "lon": -77.03972883333333, "fusion_lon": 0.0, "is_disabled": 0, "fusion_lat": 0.0, "bike_id": "3b7334935f5c66a12b96b148395559b9", "rental_uris": {"ios": "https://dc.lft.to/lastmile_qr_scan", "android": "https://dc.lft.to/lastmile_qr_scan"}}, {"name": "7be88bca08c0df00e6ee3417bf8d86a5", "type": "electric_scooter", "lat": 38.93611933333333, "is_reserved": 0, "lon": -77.032074, "fusion_lon": 0.0, "is_disabled": 0, "fusion_lat": 0.0, "bike_id": "7be88bca08c0df00e6ee3417bf8d86a5", "rental_uris": {"ios": "https://dc.lft.to/lastmile_qr_scan", "android": "https://dc.lft.to/lastmile_qr_scan"}}, {"name": "f9d970ea8f29671d4d7545808502375c", "type": "electric_scooter", "lat": 38.901359666666664, "is_reserved": 0, "lon": -77.04483266666666, "fusion_lon": 0.0, "is_disabled": 0, "fusion_lat": 0.0, "bike_id": "f9d970ea8f29671d4d7545808502375c", "rental_uris": {"ios": "https://dc.lft.to/lastmile_qr_scan", "android": "https://dc.lft.to/lastmile_qr_scan"}}, {"name": "86a4d023aa6d0020952e085a0360289d", "type": "electric_scooter", "lat": 38.896275333333335, "is_reserved": 0, "lon": -77.0322905, "fusion_lon": 0.0, "is_disabled": 0, "fusion_lat": 0.0, "bike_id": "86a4d023aa6d0020952e085a0360289d", "rental_uris": {"ios": "https://dc.lft.to/lastmile_qr_scan", "android": "https://dc.lft.to/lastmile_qr_scan"}}, {"name": "4eebba547bdc00864fe6f07a2c00f5c7", "type": "electric_scooter", "lat": 38.90458183333333, "is_reserved": 0, "lon": -76.99503883333334, "fusion_lon": 0.0, "is_disabled": 0, "fusion_lat": 0.0, "bike_id": "4eebba547bdc00864fe6f07a2c00f5c7", "rental_uris": {"ios": "https://dc.lft.to/lastmile_qr_scan", "android": "https://dc.lft.to/lastmile_qr_scan"}}, {"name": "fd7c11217811e8d089796a87ba47f8fa", "type": "electric_scooter", "lat": 38.887235833333335, "is_reserved": 0, "lon": -77.028234, "fusion_lon": 0.0, "is_disabled": 0, "fusion_lat": 0.0, "bike_id": "fd7c11217811e8d089796a87ba47f8fa", "rental_uris": {"ios": "https://dc.lft.to/lastmile_qr_scan", "android": "https://dc.lft.to/lastmile_qr_scan"}}, {"name": "6e6d50c1c4b38c526fdc41ee964293ef", "type": "electric_bike", "lat": 39.02938816666666, "is_reserved": 0, "lon": -77.04926416666666, "fusion_lon": 0.0, "is_disabled": 0, "fusion_lat": 0.0, "bike_id": "6e6d50c1c4b38c526fdc41ee964293ef", "rental_uris": {"ios": "https://dc.lft.to/lastmile_qr_scan", "android": "https://dc.lft.to/lastmile_qr_scan"}}, {"name": "7d6c43a262eb141174869b710fe219d5", "type": "electric_scooter", "lat": 38.89607133333333, "is_reserved": 0, "lon": -77.04505333333333, "fusion_lon": 0.0, "is_disabled": 0, "fusion_lat": 0.0, "bike_id": "7d6c43a262eb141174869b710fe219d5", "rental_uris": {"ios": "https://dc.lft.to/lastmile_qr_scan", "android": "https://dc.lft.to/lastmile_qr_scan"}}, {"name": "89645b04e2016e07b3b4c814422ad369", "type": "electric_scooter", "lat": 38.968224166666666, "is_reserved": 0, "lon": -77.01789616666667, "fusion_lon": 0.0, "is_disabled": 0, "fusion_lat": 0.0, "bike_id": "89645b04e2016e07b3b4c814422ad369", "rental_uris": {"ios": "https://dc.lft.to/lastmile_qr_scan", "android": "https://dc.lft.to/lastmile_qr_scan"}}, {"name": "508aafd1d1d9a4acac3f16d59f929049", "type": "electric_scooter", "lat": 38.92569983333333, "is_reserved": 0, "lon": -77.0529825, "fusion_lon": 0.0, "is_disabled": 0, "fusion_lat": 0.0, "bike_id": "508aafd1d1d9a4acac3f16d59f929049", "rental_uris": {"ios": "https://dc.lft.to/lastmile_qr_scan", "android": "https://dc.lft.to/lastmile_qr_scan"}}, {"name": "151f18877feb5b673dada902ea4fdccd", "type": "electric_scooter", "lat": 38.89219833333333, "is_reserved": 0, "lon": -77.03335733333333, "fusion_lon": 0.0, "is_disabled": 0, "fusion_lat": 0.0, "bike_id": "151f18877feb5b673dada902ea4fdccd", "rental_uris": {"ios": "https://dc.lft.to/lastmile_qr_scan", "android": "https://dc.lft.to/lastmile_qr_scan"}}, {"name": "6e2a4529f586d0b4a53abee479ae5e66", "type": "electric_scooter", "lat": 38.92300566666667, "is_reserved": 0, "lon": -77.04144466666666, "fusion_lon": 0.0, "is_disabled": 0, "fusion_lat": 0.0, "bike_id": "6e2a4529f586d0b4a53abee479ae5e66", "rental_uris": {"ios": "https://dc.lft.to/lastmile_qr_scan", "android": "https://dc.lft.to/lastmile_qr_scan"}}, {"name": "a5d13437a54f544473b6b86dd4b7cdaa", "type": "electric_bike", "lat": 38.9548, "is_reserved": 0, "lon": -77.08238183333333, "fusion_lon": 0.0, "is_disabled": 0, "fusion_lat": 0.0, "bike_id": "a5d13437a54f544473b6b86dd4b7cdaa", "rental_uris": {"ios": "https://dc.lft.to/lastmile_qr_scan", "android": "https://dc.lft.to/lastmile_qr_scan"}}, {"name": "c78760702c4e9b4bffde673c541e6db3", "type": "electric_scooter", "lat": 38.897606333333336, "is_reserved": 0, "lon": -76.9418535, "fusion_lon": 0.0, "is_disabled": 0, "fusion_lat": 0.0, "bike_id": "c78760702c4e9b4bffde673c541e6db3", "rental_uris": {"ios": "https://dc.lft.to/lastmile_qr_scan", "android": "https://dc.lft.to/lastmile_qr_scan"}}, {"name": "ea05f22ac07adad3c834ec490a7fbf15", "type": "electric_scooter", "lat": 38.922552333333336, "is_reserved": 0, "lon": -77.03522833333334, "fusion_lon": 0.0, "is_disabled": 0, "fusion_lat": 0.0, "bike_id": "ea05f22ac07adad3c834ec490a7fbf15", "rental_uris": {"ios": "https://dc.lft.to/lastmile_qr_scan", "android": "https://dc.lft.to/lastmile_qr_scan"}}, {"name": "ec5d730618914cbc61ce47ae4779f3bc", "type": "electric_scooter", "lat": 38.863618833333334, "is_reserved": 0, "lon": -76.99069333333334, "fusion_lon": 0.0, "is_disabled": 0, "fusion_lat": 0.0, "bike_id": "ec5d730618914cbc61ce47ae4779f3bc", "rental_uris": {"ios": "https://dc.lft.to/lastmile_qr_scan", "android": "https://dc.lft.to/lastmile_qr_scan"}}, {"name": "49dd27bdfabd00f9d0b6d39324f74e8a", "type": "electric_scooter", "lat": 38.9247435, "is_reserved": 0, "lon": -77.03546116666666, "fusion_lon": 0.0, "is_disabled": 0, "fusion_lat": 0.0, "bike_id": "49dd27bdfabd00f9d0b6d39324f74e8a", "rental_uris": {"ios": "https://dc.lft.to/lastmile_qr_scan", "android": "https://dc.lft.to/lastmile_qr_scan"}}, {"name": "e5dddcdf52792eadb7a06fdd58d848d4", "type": "electric_scooter", "lat": 38.904522, "is_reserved": 0, "lon": -77.04891466666666, "fusion_lon": 0.0, "is_disabled": 0, "fusion_lat": 0.0, "bike_id": "e5dddcdf52792eadb7a06fdd58d848d4", "rental_uris": {"ios": "https://dc.lft.to/lastmile_qr_scan", "android": "https://dc.lft.to/lastmile_qr_scan"}}, {"name": "ea7898af4930c6e36bfefd11653aced1", "type": "electric_scooter", "lat": 38.9112155, "is_reserved": 0, "lon": -77.0360485, "fusion_lon": 0.0, "is_disabled": 0, "fusion_lat": 0.0, "bike_id": "ea7898af4930c6e36bfefd11653aced1", "rental_uris": {"ios": "https://dc.lft.to/lastmile_qr_scan", "android": "https://dc.lft.to/lastmile_qr_scan"}}, {"name": "cef42ebd5022e51fe7a2535aa6bb77b2", "type": "electric_scooter", "lat": 38.92090983333333, "is_reserved": 0, "lon": -77.02594233333333, "fusion_lon": 0.0, "is_disabled": 0, "fusion_lat": 0.0, "bike_id": "cef42ebd5022e51fe7a2535aa6bb77b2", "rental_uris": {"ios": "https://dc.lft.to/lastmile_qr_scan", "android": "https://dc.lft.to/lastmile_qr_scan"}}, {"name": "9f158b659d4149fd8f2398eabac4fff3", "type": "electric_scooter", "lat": 38.925973, "is_reserved": 0, "lon": -77.00486066666667, "fusion_lon": 0.0, "is_disabled": 0, "fusion_lat": 0.0, "bike_id": "9f158b659d4149fd8f2398eabac4fff3", "rental_uris": {"ios": "https://dc.lft.to/lastmile_qr_scan", "android": "https://dc.lft.to/lastmile_qr_scan"}}, {"name": "514b61a89f0a91939fd72d29899755ab", "type": "electric_scooter", "lat": 38.91330216666667, "is_reserved": 0, "lon": -77.002232, "fusion_lon": 0.0, "is_disabled": 0, "fusion_lat": 0.0, "bike_id": "514b61a89f0a91939fd72d29899755ab", "rental_uris": {"ios": "https://dc.lft.to/lastmile_qr_scan", "android": "https://dc.lft.to/lastmile_qr_scan"}}, {"name": "e4f25e8da9795035492a4e52266a342c", "type": "electric_scooter", "lat": 38.8843105, "is_reserved": 0, "lon": -76.9575755, "fusion_lon": 0.0, "is_disabled": 0, "fusion_lat": 0.0, "bike_id": "e4f25e8da9795035492a4e52266a342c", "rental_uris": {"ios": "https://dc.lft.to/lastmile_qr_scan", "android": "https://dc.lft.to/lastmile_qr_scan"}}, {"name": "0624ebcbce50dced6610640ef146f247", "type": "electric_scooter", "lat": 38.92423483333334, "is_reserved": 0, "lon": -77.019483, "fusion_lon": 0.0, "is_disabled": 0, "fusion_lat": 0.0, "bike_id": "0624ebcbce50dced6610640ef146f247", "rental_uris": {"ios": "https://dc.lft.to/lastmile_qr_scan", "android": "https://dc.lft.to/lastmile_qr_scan"}}, {"name": "fd68db5d484298d91f614f3be719256d", "type": "electric_scooter", "lat": 38.91669016666667, "is_reserved": 0, "lon": -77.027194, "fusion_lon": 0.0, "is_disabled": 0, "fusion_lat": 0.0, "bike_id": "fd68db5d484298d91f614f3be719256d", "rental_uris": {"ios": "https://dc.lft.to/lastmile_qr_scan", "android": "https://dc.lft.to/lastmile_qr_scan"}}, {"name": "e3328b8d9c021c1d55b1ecfde4a11c69", "type": "electric_scooter", "lat": 38.920613333333336, "is_reserved": 0, "lon": -77.04255016666667, "fusion_lon": 0.0, "is_disabled": 0, "fusion_lat": 0.0, "bike_id": "e3328b8d9c021c1d55b1ecfde4a11c69", "rental_uris": {"ios": "https://dc.lft.to/lastmile_qr_scan", "android": "https://dc.lft.to/lastmile_qr_scan"}}, {"name": "b1ac222c754858ac3496c7dca6d6e7d8", "type": "electric_scooter", "lat": 38.91269916666667, "is_reserved": 0, "lon": -77.0727145, "fusion_lon": 0.0, "is_disabled": 0, "fusion_lat": 0.0, "bike_id": "b1ac222c754858ac3496c7dca6d6e7d8", "rental_uris": {"ios": "https://dc.lft.to/lastmile_qr_scan", "android": "https://dc.lft.to/lastmile_qr_scan"}}, {"name": "6564cb8a79276ee1d30ee92ba6fd3386", "type": "electric_scooter", "lat": 38.85616233333333, "is_reserved": 0, "lon": -76.98018316666666, "fusion_lon": 0.0, "is_disabled": 0, "fusion_lat": 0.0, "bike_id": "6564cb8a79276ee1d30ee92ba6fd3386", "rental_uris": {"ios": "https://dc.lft.to/lastmile_qr_scan", "android": "https://dc.lft.to/lastmile_qr_scan"}}, {"name": "5ca0a7284254233d7bed42d4c6a249ad", "type": "electric_scooter", "lat": 38.9192985, "is_reserved": 0, "lon": -77.03179433333334, "fusion_lon": 0.0, "is_disabled": 0, "fusion_lat": 0.0, "bike_id": "5ca0a7284254233d7bed42d4c6a249ad", "rental_uris": {"ios": "https://dc.lft.to/lastmile_qr_scan", "android": "https://dc.lft.to/lastmile_qr_scan"}}, {"name": "d18700faf6c487126b227806dc051f99", "type": "electric_scooter", "lat": 38.895836833333334, "is_reserved": 0, "lon": -76.93717083333334, "fusion_lon": 0.0, "is_disabled": 0, "fusion_lat": 0.0, "bike_id": "d18700faf6c487126b227806dc051f99", "rental_uris": {"ios": "https://dc.lft.to/lastmile_qr_scan", "android": "https://dc.lft.to/lastmile_qr_scan"}}, {"name": "147c086ae6bc82613a282881156dfdb4", "type": "electric_scooter", "lat": 38.904481, "is_reserved": 0, "lon": -76.99627583333333, "fusion_lon": 0.0, "is_disabled": 0, "fusion_lat": 0.0, "bike_id": "147c086ae6bc82613a282881156dfdb4", "rental_uris": {"ios": "https://dc.lft.to/lastmile_qr_scan", "android": "https://dc.lft.to/lastmile_qr_scan"}}, {"name": "5830ab8cf34def9c6a2e246d1718fa01", "type": "electric_scooter", "lat": 38.87629, "is_reserved": 0, "lon": -76.96526816666666, "fusion_lon": 0.0, "is_disabled": 0, "fusion_lat": 0.0, "bike_id": "5830ab8cf34def9c6a2e246d1718fa01", "rental_uris": {"ios": "https://dc.lft.to/lastmile_qr_scan", "android": "https://dc.lft.to/lastmile_qr_scan"}}, {"name": "1c709dcb38267b05722dbc5776730549", "type": "electric_scooter", "lat": 38.87836333333333, "is_reserved": 0, "lon": -76.99035066666667, "fusion_lon": 0.0, "is_disabled": 0, "fusion_lat": 0.0, "bike_id": "1c709dcb38267b05722dbc5776730549", "rental_uris": {"ios": "https://dc.lft.to/lastmile_qr_scan", "android": "https://dc.lft.to/lastmile_qr_scan"}}, {"name": "516a00a29066deac82044c0d58151257", "type": "electric_scooter", "lat": 38.9286555, "is_reserved": 0, "lon": -77.03251616666667, "fusion_lon": 0.0, "is_disabled": 0, "fusion_lat": 0.0, "bike_id": "516a00a29066deac82044c0d58151257", "rental_uris": {"ios": "https://dc.lft.to/lastmile_qr_scan", "android": "https://dc.lft.to/lastmile_qr_scan"}}, {"name": "4b562b8d758c645f43a8a59de77f9e89", "type": "electric_bike", "lat": 38.874245333333334, "is_reserved": 0, "lon": -77.0857135, "fusion_lon": 0.0, "is_disabled": 0, "fusion_lat": 0.0, "bike_id": "4b562b8d758c645f43a8a59de77f9e89", "rental_uris": {"ios": "https://dc.lft.to/lastmile_qr_scan", "android": "https://dc.lft.to/lastmile_qr_scan"}}, {"name": "f3cd72ea408a5980b392622d303c4a17", "type": "electric_scooter", "lat": 38.902954666666666, "is_reserved": 0, "lon": -76.99859083333334, "fusion_lon": 0.0, "is_disabled": 0, "fusion_lat": 0.0, "bike_id": "f3cd72ea408a5980b392622d303c4a17", "rental_uris": {"ios": "https://dc.lft.to/lastmile_qr_scan", "android": "https://dc.lft.to/lastmile_qr_scan"}}, {"name": "1c8fb73edb0688bfacca0a82997d27f3", "type": "electric_scooter", "lat": 38.9191465, "is_reserved": 0, "lon": -77.01341933333333, "fusion_lon": 0.0, "is_disabled": 0, "fusion_lat": 0.0, "bike_id": "1c8fb73edb0688bfacca0a82997d27f3", "rental_uris": {"ios": "https://dc.lft.to/lastmile_qr_scan", "android": "https://dc.lft.to/lastmile_qr_scan"}}, {"name": "1a1b2d662e5d564edcd8cbe4321452cf", "type": "electric_scooter", "lat": 38.842939333333334, "is_reserved": 0, "lon": -76.99946366666667, "fusion_lon": 0.0, "is_disabled": 0, "fusion_lat": 0.0, "bike_id": "1a1b2d662e5d564edcd8cbe4321452cf", "rental_uris": {"ios": "https://dc.lft.to/lastmile_qr_scan", "android": "https://dc.lft.to/lastmile_qr_scan"}}, {"name": "1960e39d76c6b43409cb53f65d5a477d", "type": "electric_scooter", "lat": 38.892221, "is_reserved": 0, "lon": -77.02446366666666, "fusion_lon": 0.0, "is_disabled": 0, "fusion_lat": 0.0, "bike_id": "1960e39d76c6b43409cb53f65d5a477d", "rental_uris": {"ios": "https://dc.lft.to/lastmile_qr_scan", "android": "https://dc.lft.to/lastmile_qr_scan"}}, {"name": "362fc7f35fa1f9b4af778aebd29bd5d5", "type": "electric_scooter", "lat": 38.9394965, "is_reserved": 0, "lon": -77.07238866666667, "fusion_lon": 0.0, "is_disabled": 0, "fusion_lat": 0.0, "bike_id": "362fc7f35fa1f9b4af778aebd29bd5d5", "rental_uris": {"ios": "https://dc.lft.to/lastmile_qr_scan", "android": "https://dc.lft.to/lastmile_qr_scan"}}, {"name": "838b9ed7e3fb1ef5a7c6608cfd6f84c9", "type": "electric_scooter", "lat": 38.91684816666667, "is_reserved": 0, "lon": -77.03206016666667, "fusion_lon": 0.0, "is_disabled": 0, "fusion_lat": 0.0, "bike_id": "838b9ed7e3fb1ef5a7c6608cfd6f84c9", "rental_uris": {"ios": "https://dc.lft.to/lastmile_qr_scan", "android": "https://dc.lft.to/lastmile_qr_scan"}}, {"name": "5dff6d5ea5d87aed5a51adb40d731719", "type": "electric_scooter", "lat": 38.9061375, "is_reserved": 0, "lon": -77.0748625, "fusion_lon": 0.0, "is_disabled": 0, "fusion_lat": 0.0, "bike_id": "5dff6d5ea5d87aed5a51adb40d731719", "rental_uris": {"ios": "https://dc.lft.to/lastmile_qr_scan", "android": "https://dc.lft.to/lastmile_qr_scan"}}, {"name": "76b997b4bea6c1f6e47c932a224601c3", "type": "electric_scooter", "lat": 38.9055455, "is_reserved": 0, "lon": -77.04502316666667, "fusion_lon": 0.0, "is_disabled": 0, "fusion_lat": 0.0, "bike_id": "76b997b4bea6c1f6e47c932a224601c3", "rental_uris": {"ios": "https://dc.lft.to/lastmile_qr_scan", "android": "https://dc.lft.to/lastmile_qr_scan"}}, {"name": "4358d2c3e6f2ca2649828fe99cf16656", "type": "electric_scooter", "lat": 38.896119, "is_reserved": 0, "lon": -77.0424395, "fusion_lon": 0.0, "is_disabled": 0, "fusion_lat": 0.0, "bike_id": "4358d2c3e6f2ca2649828fe99cf16656", "rental_uris": {"ios": "https://dc.lft.to/lastmile_qr_scan", "android": "https://dc.lft.to/lastmile_qr_scan"}}, {"name": "ab9a7514fcada6875759948963c55b1e", "type": "electric_scooter", "lat": 38.90407716666667, "is_reserved": 0, "lon": -77.046624, "fusion_lon": 0.0, "is_disabled": 0, "fusion_lat": 0.0, "bike_id": "ab9a7514fcada6875759948963c55b1e", "rental_uris": {"ios": "https://dc.lft.to/lastmile_qr_scan", "android": "https://dc.lft.to/lastmile_qr_scan"}}, {"name": "c7db7d278fecb02d106884f2ed119a67", "type": "electric_bike", "lat": 39.038797, "is_reserved": 0, "lon": -76.99041083333333, "fusion_lon": 0.0, "is_disabled": 0, "fusion_lat": 0.0, "bike_id": "c7db7d278fecb02d106884f2ed119a67", "rental_uris": {"ios": "https://dc.lft.to/lastmile_qr_scan", "android": "https://dc.lft.to/lastmile_qr_scan"}}, {"name": "5ed9d03f062457221909885bdf43b2f5", "type": "electric_scooter", "lat": 38.91630116666666, "is_reserved": 0, "lon": -77.01338833333334, "fusion_lon": 0.0, "is_disabled": 0, "fusion_lat": 0.0, "bike_id": "5ed9d03f062457221909885bdf43b2f5", "rental_uris": {"ios": "https://dc.lft.to/lastmile_qr_scan", "android": "https://dc.lft.to/lastmile_qr_scan"}}, {"name": "cea844164ecdf83c3844f3dedc9e8cd4", "type": "electric_scooter", "lat": 38.903779666666665, "is_reserved": 0, "lon": -77.04495883333334, "fusion_lon": 0.0, "is_disabled": 0, "fusion_lat": 0.0, "bike_id": "cea844164ecdf83c3844f3dedc9e8cd4", "rental_uris": {"ios": "https://dc.lft.to/lastmile_qr_scan", "android": "https://dc.lft.to/lastmile_qr_scan"}}, {"name": "52b841a18ba84deb058ad2c5fb1b4822", "type": "electric_scooter", "lat": 38.90835833333333, "is_reserved": 0, "lon": -77.04339016666667, "fusion_lon": 0.0, "is_disabled": 0, "fusion_lat": 0.0, "bike_id": "52b841a18ba84deb058ad2c5fb1b4822", "rental_uris": {"ios": "https://dc.lft.to/lastmile_qr_scan", "android": "https://dc.lft.to/lastmile_qr_scan"}}, {"name": "d7b05367a763d5a72b5ef9c6ba70afb9", "type": "electric_scooter", "lat": 38.9141675, "is_reserved": 0, "lon": -77.04485266666667, "fusion_lon": 0.0, "is_disabled": 0, "fusion_lat": 0.0, "bike_id": "d7b05367a763d5a72b5ef9c6ba70afb9", "rental_uris": {"ios": "https://dc.lft.to/lastmile_qr_scan", "android": "https://dc.lft.to/lastmile_qr_scan"}}, {"name": "f69e448eddb498dd4b0f488a70efbc6a", "type": "electric_scooter", "lat": 38.9415475, "is_reserved": 0, "lon": -77.03649533333333, "fusion_lon": 0.0, "is_disabled": 0, "fusion_lat": 0.0, "bike_id": "f69e448eddb498dd4b0f488a70efbc6a", "rental_uris": {"ios": "https://dc.lft.to/lastmile_qr_scan", "android": "https://dc.lft.to/lastmile_qr_scan"}}, {"name": "d51ff074186abd8e986117851176d225", "type": "electric_scooter", "lat": 38.9228825, "is_reserved": 0, "lon": -77.0207095, "fusion_lon": 0.0, "is_disabled": 0, "fusion_lat": 0.0, "bike_id": "d51ff074186abd8e986117851176d225", "rental_uris": {"ios": "https://dc.lft.to/lastmile_qr_scan", "android": "https://dc.lft.to/lastmile_qr_scan"}}, {"name": "1dff62f1fbc3e18798fb916afc28d4e0", "type": "electric_scooter", "lat": 38.89671366666666, "is_reserved": 0, "lon": -77.053955, "fusion_lon": 0.0, "is_disabled": 0, "fusion_lat": 0.0, "bike_id": "1dff62f1fbc3e18798fb916afc28d4e0", "rental_uris": {"ios": "https://dc.lft.to/lastmile_qr_scan", "android": "https://dc.lft.to/lastmile_qr_scan"}}, {"name": "cf3c0e72e8f52566afd81ba3862bf5f4", "type": "electric_scooter", "lat": 38.898266166666666, "is_reserved": 0, "lon": -76.92639833333334, "fusion_lon": 0.0, "is_disabled": 0, "fusion_lat": 0.0, "bike_id": "cf3c0e72e8f52566afd81ba3862bf5f4", "rental_uris": {"ios": "https://dc.lft.to/lastmile_qr_scan", "android": "https://dc.lft.to/lastmile_qr_scan"}}, {"name": "cfc4c28e15dc387582556b085f6f721b", "type": "electric_scooter", "lat": 38.92406883333334, "is_reserved": 0, "lon": -77.025421, "fusion_lon": 0.0, "is_disabled": 0, "fusion_lat": 0.0, "bike_id": "cfc4c28e15dc387582556b085f6f721b", "rental_uris": {"ios": "https://dc.lft.to/lastmile_qr_scan", "android": "https://dc.lft.to/lastmile_qr_scan"}}, {"name": "5adf44bf46dfcc104eb2009f1612bc2b", "type": "electric_scooter", "lat": 38.866978333333336, "is_reserved": 0, "lon": -76.9870835, "fusion_lon": 0.0, "is_disabled": 0, "fusion_lat": 0.0, "bike_id": "5adf44bf46dfcc104eb2009f1612bc2b", "rental_uris": {"ios": "https://dc.lft.to/lastmile_qr_scan", "android": "https://dc.lft.to/lastmile_qr_scan"}}, {"name": "461c703af78972e71eeefb85b932d5d4", "type": "electric_scooter", "lat": 38.9229095, "is_reserved": 0, "lon": -77.0319755, "fusion_lon": 0.0, "is_disabled": 0, "fusion_lat": 0.0, "bike_id": "461c703af78972e71eeefb85b932d5d4", "rental_uris": {"ios": "https://dc.lft.to/lastmile_qr_scan", "android": "https://dc.lft.to/lastmile_qr_scan"}}, {"name": "a35b40b023484118fb3670b834c2f6a4", "type": "electric_bike", "lat": 38.90528066666667, "is_reserved": 0, "lon": -76.99802016666666, "fusion_lon": 0.0, "is_disabled": 0, "fusion_lat": 0.0, "bike_id": "a35b40b023484118fb3670b834c2f6a4", "rental_uris": {"ios": "https://dc.lft.to/lastmile_qr_scan", "android": "https://dc.lft.to/lastmile_qr_scan"}}, {"name": "940f34b1d5e85ed5c53d4c921a5cd14d", "type": "electric_scooter", "lat": 38.88432566666667, "is_reserved": 0, "lon": -76.95755866666667, "fusion_lon": 0.0, "is_disabled": 0, "fusion_lat": 0.0, "bike_id": "940f34b1d5e85ed5c53d4c921a5cd14d", "rental_uris": {"ios": "https://dc.lft.to/lastmile_qr_scan", "android": "https://dc.lft.to/lastmile_qr_scan"}}, {"name": "b36ed8c46b697b6e02a0d0a1b814d547", "type": "electric_scooter", "lat": 38.913328666666665, "is_reserved": 0, "lon": -77.03036283333333, "fusion_lon": 0.0, "is_disabled": 0, "fusion_lat": 0.0, "bike_id": "b36ed8c46b697b6e02a0d0a1b814d547", "rental_uris": {"ios": "https://dc.lft.to/lastmile_qr_scan", "android": "https://dc.lft.to/lastmile_qr_scan"}}, {"name": "48cd8e46805e6c2d5d6dbf02f42499ec", "type": "electric_bike", "lat": 38.990897833333335, "is_reserved": 0, "lon": -76.87497533333334, "fusion_lon": 0.0, "is_disabled": 0, "fusion_lat": 0.0, "bike_id": "48cd8e46805e6c2d5d6dbf02f42499ec", "rental_uris": {"ios": "https://dc.lft.to/lastmile_qr_scan", "android": "https://dc.lft.to/lastmile_qr_scan"}}, {"name": "2f3c9545966c00047dcec1a24c6b6a63", "type": "electric_bike", "lat": 38.94275716666667, "is_reserved": 0, "lon": -76.98074316666667, "fusion_lon": 0.0, "is_disabled": 0, "fusion_lat": 0.0, "bike_id": "2f3c9545966c00047dcec1a24c6b6a63", "rental_uris": {"ios": "https://dc.lft.to/lastmile_qr_scan", "android": "https://dc.lft.to/lastmile_qr_scan"}}, {"name": "8584dae18ef842175e0cef2b3d8f92c0", "type": "electric_scooter", "lat": 38.9097485, "is_reserved": 0, "lon": -77.041922, "fusion_lon": 0.0, "is_disabled": 0, "fusion_lat": 0.0, "bike_id": "8584dae18ef842175e0cef2b3d8f92c0", "rental_uris": {"ios": "https://dc.lft.to/lastmile_qr_scan", "android": "https://dc.lft.to/lastmile_qr_scan"}}, {"name": "0fb4ac44b932224cd6701ce2eec9c4ac", "type": "electric_scooter", "lat": 38.9275125, "is_reserved": 0, "lon": -77.0242115, "fusion_lon": 0.0, "is_disabled": 0, "fusion_lat": 0.0, "bike_id": "0fb4ac44b932224cd6701ce2eec9c4ac", "rental_uris": {"ios": "https://dc.lft.to/lastmile_qr_scan", "android": "https://dc.lft.to/lastmile_qr_scan"}}, {"name": "43e0478de8e9e709ad0eabeac88dfd7d", "type": "electric_scooter", "lat": 38.90329966666667, "is_reserved": 0, "lon": -77.04002866666667, "fusion_lon": 0.0, "is_disabled": 0, "fusion_lat": 0.0, "bike_id": "43e0478de8e9e709ad0eabeac88dfd7d", "rental_uris": {"ios": "https://dc.lft.to/lastmile_qr_scan", "android": "https://dc.lft.to/lastmile_qr_scan"}}, {"name": "b240fa5e09143e14e0d75ccb4d4c00b0", "type": "electric_bike", "lat": 38.91187383333333, "is_reserved": 0, "lon": -77.0180735, "fusion_lon": 0.0, "is_disabled": 0, "fusion_lat": 0.0, "bike_id": "b240fa5e09143e14e0d75ccb4d4c00b0", "rental_uris": {"ios": "https://dc.lft.to/lastmile_qr_scan", "android": "https://dc.lft.to/lastmile_qr_scan"}}, {"name": "4fcaf114c674e7ca776e4f21e202c106", "type": "electric_scooter", "lat": 38.884525, "is_reserved": 0, "lon": -77.00573983333334, "fusion_lon": 0.0, "is_disabled": 0, "fusion_lat": 0.0, "bike_id": "4fcaf114c674e7ca776e4f21e202c106", "rental_uris": {"ios": "https://dc.lft.to/lastmile_qr_scan", "android": "https://dc.lft.to/lastmile_qr_scan"}}, {"name": "99be9e399586e3446b0c67cdb6ca771f", "type": "electric_scooter", "lat": 38.94637, "is_reserved": 0, "lon": -77.0192435, "fusion_lon": 0.0, "is_disabled": 0, "fusion_lat": 0.0, "bike_id": "99be9e399586e3446b0c67cdb6ca771f", "rental_uris": {"ios": "https://dc.lft.to/lastmile_qr_scan", "android": "https://dc.lft.to/lastmile_qr_scan"}}, {"name": "bb9b4b3c46a68b966a309c1e78a0dec8", "type": "electric_scooter", "lat": 38.9179815, "is_reserved": 0, "lon": -77.03438966666667, "fusion_lon": 0.0, "is_disabled": 0, "fusion_lat": 0.0, "bike_id": "bb9b4b3c46a68b966a309c1e78a0dec8", "rental_uris": {"ios": "https://dc.lft.to/lastmile_qr_scan", "android": "https://dc.lft.to/lastmile_qr_scan"}}, {"name": "0303398bf1b0082907a9f1ad46ba6068", "type": "electric_scooter", "lat": 38.898865666666666, "is_reserved": 0, "lon": -76.93175600000001, "fusion_lon": 0.0, "is_disabled": 0, "fusion_lat": 0.0, "bike_id": "0303398bf1b0082907a9f1ad46ba6068", "rental_uris": {"ios": "https://dc.lft.to/lastmile_qr_scan", "android": "https://dc.lft.to/lastmile_qr_scan"}}, {"name": "099a9c214f20cd7121b014a330b0b752", "type": "electric_scooter", "lat": 38.896095333333335, "is_reserved": 0, "lon": -77.0450655, "fusion_lon": 0.0, "is_disabled": 0, "fusion_lat": 0.0, "bike_id": "099a9c214f20cd7121b014a330b0b752", "rental_uris": {"ios": "https://dc.lft.to/lastmile_qr_scan", "android": "https://dc.lft.to/lastmile_qr_scan"}}, {"name": "7e05f4895c78a608e14cad4fb7d6e381", "type": "electric_scooter", "lat": 38.893935666666664, "is_reserved": 0, "lon": -76.99368116666666, "fusion_lon": 0.0, "is_disabled": 0, "fusion_lat": 0.0, "bike_id": "7e05f4895c78a608e14cad4fb7d6e381", "rental_uris": {"ios": "https://dc.lft.to/lastmile_qr_scan", "android": "https://dc.lft.to/lastmile_qr_scan"}}, {"name": "415014665db0b7596dff88bfc3c6bc4b", "type": "electric_scooter", "lat": 38.93938383333333, "is_reserved": 0, "lon": -77.017074, "fusion_lon": 0.0, "is_disabled": 0, "fusion_lat": 0.0, "bike_id": "415014665db0b7596dff88bfc3c6bc4b", "rental_uris": {"ios": "https://dc.lft.to/lastmile_qr_scan", "android": "https://dc.lft.to/lastmile_qr_scan"}}, {"name": "6c88305144c0cd06bb5ee20c2d8f2f02", "type": "electric_scooter", "lat": 38.934509166666665, "is_reserved": 0, "lon": -77.07241566666667, "fusion_lon": 0.0, "is_disabled": 0, "fusion_lat": 0.0, "bike_id": "6c88305144c0cd06bb5ee20c2d8f2f02", "rental_uris": {"ios": "https://dc.lft.to/lastmile_qr_scan", "android": "https://dc.lft.to/lastmile_qr_scan"}}, {"name": "286fd23e276422ff32b9a96ff4362b8a", "type": "electric_bike", "lat": 38.93796316666667, "is_reserved": 0, "lon": -77.03582166666666, "fusion_lon": 0.0, "is_disabled": 0, "fusion_lat": 0.0, "bike_id": "286fd23e276422ff32b9a96ff4362b8a", "rental_uris": {"ios": "https://dc.lft.to/lastmile_qr_scan", "android": "https://dc.lft.to/lastmile_qr_scan"}}, {"name": "a804f2861c4cde6c374eccbc7ba74300", "type": "electric_bike", "lat": 38.957712, "is_reserved": 0, "lon": -77.011506, "fusion_lon": 0.0, "is_disabled": 0, "fusion_lat": 0.0, "bike_id": "a804f2861c4cde6c374eccbc7ba74300", "rental_uris": {"ios": "https://dc.lft.to/lastmile_qr_scan", "android": "https://dc.lft.to/lastmile_qr_scan"}}, {"name": "9dd77de3e44ded5a82920853835464cb", "type": "electric_scooter", "lat": 38.918164833333336, "is_reserved": 0, "lon": -77.010176, "fusion_lon": 0.0, "is_disabled": 0, "fusion_lat": 0.0, "bike_id": "9dd77de3e44ded5a82920853835464cb", "rental_uris": {"ios": "https://dc.lft.to/lastmile_qr_scan", "android": "https://dc.lft.to/lastmile_qr_scan"}}, {"name": "b25212627366e5d61a3c4ff4192e8377", "type": "electric_scooter", "lat": 38.905317, "is_reserved": 0, "lon": -77.0597255, "fusion_lon": 0.0, "is_disabled": 0, "fusion_lat": 0.0, "bike_id": "b25212627366e5d61a3c4ff4192e8377", "rental_uris": {"ios": "https://dc.lft.to/lastmile_qr_scan", "android": "https://dc.lft.to/lastmile_qr_scan"}}, {"name": "1cd1b437d51d78511bc4eeb323a4fda8", "type": "electric_bike", "lat": 38.874770166666664, "is_reserved": 0, "lon": -76.96530766666666, "fusion_lon": 0.0, "is_disabled": 0, "fusion_lat": 0.0, "bike_id": "1cd1b437d51d78511bc4eeb323a4fda8", "rental_uris": {"ios": "https://dc.lft.to/lastmile_qr_scan", "android": "https://dc.lft.to/lastmile_qr_scan"}}, {"name": "f3ad2c5d964d4f10035df675262f4fef", "type": "electric_scooter", "lat": 38.883145999999996, "is_reserved": 0, "lon": -77.00936716666666, "fusion_lon": 0.0, "is_disabled": 0, "fusion_lat": 0.0, "bike_id": "f3ad2c5d964d4f10035df675262f4fef", "rental_uris": {"ios": "https://dc.lft.to/lastmile_qr_scan", "android": "https://dc.lft.to/lastmile_qr_scan"}}, {"name": "dbadc6d9825d8daf6e6208f30bc8f575", "type": "electric_bike", "lat": 38.95482483333333, "is_reserved": 0, "lon": -77.02671483333333, "fusion_lon": 0.0, "is_disabled": 0, "fusion_lat": 0.0, "bike_id": "dbadc6d9825d8daf6e6208f30bc8f575", "rental_uris": {"ios": "https://dc.lft.to/lastmile_qr_scan", "android": "https://dc.lft.to/lastmile_qr_scan"}}, {"name": "ccf9e12abbb2ce2d30e605d1a8e67e51", "type": "electric_scooter", "lat": 38.93631383333334, "is_reserved": 0, "lon": -77.02466483333333, "fusion_lon": 0.0, "is_disabled": 0, "fusion_lat": 0.0, "bike_id": "ccf9e12abbb2ce2d30e605d1a8e67e51", "rental_uris": {"ios": "https://dc.lft.to/lastmile_qr_scan", "android": "https://dc.lft.to/lastmile_qr_scan"}}, {"name": "8229bde7154e8863e52e7bcacd6a59fe", "type": "electric_scooter", "lat": 38.90801866666666, "is_reserved": 0, "lon": -77.04327166666667, "fusion_lon": 0.0, "is_disabled": 0, "fusion_lat": 0.0, "bike_id": "8229bde7154e8863e52e7bcacd6a59fe", "rental_uris": {"ios": "https://dc.lft.to/lastmile_qr_scan", "android": "https://dc.lft.to/lastmile_qr_scan"}}, {"name": "b8f58857faa66b49e7b9d5bd222c25b2", "type": "electric_scooter", "lat": 38.905338, "is_reserved": 0, "lon": -77.0529635, "fusion_lon": 0.0, "is_disabled": 0, "fusion_lat": 0.0, "bike_id": "b8f58857faa66b49e7b9d5bd222c25b2", "rental_uris": {"ios": "https://dc.lft.to/lastmile_qr_scan", "android": "https://dc.lft.to/lastmile_qr_scan"}}, {"name": "bf732a464a34036c133bc47637cde7f4", "type": "electric_bike", "lat": 38.845742666666666, "is_reserved": 0, "lon": -77.09621216666666, "fusion_lon": 0.0, "is_disabled": 0, "fusion_lat": 0.0, "bike_id": "bf732a464a34036c133bc47637cde7f4", "rental_uris": {"ios": "https://dc.lft.to/lastmile_qr_scan", "android": "https://dc.lft.to/lastmile_qr_scan"}}, {"name": "2aa34d9d6a9eb3db734222827844bd58", "type": "electric_scooter", "lat": 38.90532616666667, "is_reserved": 0, "lon": -77.05767766666666, "fusion_lon": 0.0, "is_disabled": 0, "fusion_lat": 0.0, "bike_id": "2aa34d9d6a9eb3db734222827844bd58", "rental_uris": {"ios": "https://dc.lft.to/lastmile_qr_scan", "android": "https://dc.lft.to/lastmile_qr_scan"}}, {"name": "a6d63b98c63cf7de609abd20e5258664", "type": "electric_scooter", "lat": 38.91797616666667, "is_reserved": 0, "lon": -77.03440816666667, "fusion_lon": 0.0, "is_disabled": 0, "fusion_lat": 0.0, "bike_id": "a6d63b98c63cf7de609abd20e5258664", "rental_uris": {"ios": "https://dc.lft.to/lastmile_qr_scan", "android": "https://dc.lft.to/lastmile_qr_scan"}}, {"name": "58fa876ff44d3b96a481bcbc3fa8ad66", "type": "electric_scooter", "lat": 38.92961616666667, "is_reserved": 0, "lon": -77.011476, "fusion_lon": 0.0, "is_disabled": 0, "fusion_lat": 0.0, "bike_id": "58fa876ff44d3b96a481bcbc3fa8ad66", "rental_uris": {"ios": "https://dc.lft.to/lastmile_qr_scan", "android": "https://dc.lft.to/lastmile_qr_scan"}}, {"name": "c20f041f0c7903017ac90a193f3a7a25", "type": "electric_scooter", "lat": 38.86371333333334, "is_reserved": 0, "lon": -77.013617, "fusion_lon": 0.0, "is_disabled": 0, "fusion_lat": 0.0, "bike_id": "c20f041f0c7903017ac90a193f3a7a25", "rental_uris": {"ios": "https://dc.lft.to/lastmile_qr_scan", "android": "https://dc.lft.to/lastmile_qr_scan"}}, {"name": "8dad6ac62c0b2bb5d2b2847773350188", "type": "electric_scooter", "lat": 38.92159816666667, "is_reserved": 0, "lon": -77.04691816666667, "fusion_lon": 0.0, "is_disabled": 0, "fusion_lat": 0.0, "bike_id": "8dad6ac62c0b2bb5d2b2847773350188", "rental_uris": {"ios": "https://dc.lft.to/lastmile_qr_scan", "android": "https://dc.lft.to/lastmile_qr_scan"}}, {"name": "f7ddd5ce03dcfe4c67ff3007b3b2f820", "type": "electric_scooter", "lat": 38.956273, "is_reserved": 0, "lon": -77.0278585, "fusion_lon": 0.0, "is_disabled": 0, "fusion_lat": 0.0, "bike_id": "f7ddd5ce03dcfe4c67ff3007b3b2f820", "rental_uris": {"ios": "https://dc.lft.to/lastmile_qr_scan", "android": "https://dc.lft.to/lastmile_qr_scan"}}, {"name": "98d96cb3af8f3c353cd5c1032fd1a574", "type": "electric_scooter", "lat": 38.902277166666664, "is_reserved": 0, "lon": -77.04421816666667, "fusion_lon": 0.0, "is_disabled": 0, "fusion_lat": 0.0, "bike_id": "98d96cb3af8f3c353cd5c1032fd1a574", "rental_uris": {"ios": "https://dc.lft.to/lastmile_qr_scan", "android": "https://dc.lft.to/lastmile_qr_scan"}}, {"name": "11ae419c862c5660440f2c4c40db7631", "type": "electric_scooter", "lat": 38.916572333333335, "is_reserved": 0, "lon": -77.005023, "fusion_lon": 0.0, "is_disabled": 0, "fusion_lat": 0.0, "bike_id": "11ae419c862c5660440f2c4c40db7631", "rental_uris": {"ios": "https://dc.lft.to/lastmile_qr_scan", "android": "https://dc.lft.to/lastmile_qr_scan"}}, {"name": "255c82b1dbdfd2b94b46b7a80eee4939", "type": "electric_scooter", "lat": 38.903734166666666, "is_reserved": 0, "lon": -77.02984466666666, "fusion_lon": 0.0, "is_disabled": 0, "fusion_lat": 0.0, "bike_id": "255c82b1dbdfd2b94b46b7a80eee4939", "rental_uris": {"ios": "https://dc.lft.to/lastmile_qr_scan", "android": "https://dc.lft.to/lastmile_qr_scan"}}, {"name": "71db5fd6b857fd2c17062541f184b0f6", "type": "electric_scooter", "lat": 38.89669766666667, "is_reserved": 0, "lon": -76.9472815, "fusion_lon": 0.0, "is_disabled": 0, "fusion_lat": 0.0, "bike_id": "71db5fd6b857fd2c17062541f184b0f6", "rental_uris": {"ios": "https://dc.lft.to/lastmile_qr_scan", "android": "https://dc.lft.to/lastmile_qr_scan"}}, {"name": "d0e158a15d85395290bb5edf377f4b77", "type": "electric_scooter", "lat": 38.909492, "is_reserved": 0, "lon": -77.04325166666666, "fusion_lon": 0.0, "is_disabled": 0, "fusion_lat": 0.0, "bike_id": "d0e158a15d85395290bb5edf377f4b77", "rental_uris": {"ios": "https://dc.lft.to/lastmile_qr_scan", "android": "https://dc.lft.to/lastmile_qr_scan"}}, {"name": "26815528cd0539b8bdecc46b7c3a846e", "type": "electric_scooter", "lat": 38.902628, "is_reserved": 0, "lon": -77.0433995, "fusion_lon": 0.0, "is_disabled": 0, "fusion_lat": 0.0, "bike_id": "26815528cd0539b8bdecc46b7c3a846e", "rental_uris": {"ios": "https://dc.lft.to/lastmile_qr_scan", "android": "https://dc.lft.to/lastmile_qr_scan"}}, {"name": "952ed562fc2034528df63473e82813f6", "type": "electric_scooter", "lat": 38.912559, "is_reserved": 0, "lon": -77.044398, "fusion_lon": 0.0, "is_disabled": 0, "fusion_lat": 0.0, "bike_id": "952ed562fc2034528df63473e82813f6", "rental_uris": {"ios": "https://dc.lft.to/lastmile_qr_scan", "android": "https://dc.lft.to/lastmile_qr_scan"}}, {"name": "6d828599d8dcb74c0a49a6e22f33ea78", "type": "electric_scooter", "lat": 38.9163055, "is_reserved": 0, "lon": -77.032157, "fusion_lon": 0.0, "is_disabled": 0, "fusion_lat": 0.0, "bike_id": "6d828599d8dcb74c0a49a6e22f33ea78", "rental_uris": {"ios": "https://dc.lft.to/lastmile_qr_scan", "android": "https://dc.lft.to/lastmile_qr_scan"}}, {"name": "fa0988fc5aee3d6b173dd1e73cc53156", "type": "electric_scooter", "lat": 38.931082333333336, "is_reserved": 0, "lon": -77.0382605, "fusion_lon": 0.0, "is_disabled": 0, "fusion_lat": 0.0, "bike_id": "fa0988fc5aee3d6b173dd1e73cc53156", "rental_uris": {"ios": "https://dc.lft.to/lastmile_qr_scan", "android": "https://dc.lft.to/lastmile_qr_scan"}}, {"name": "5ff23badcc718172c8dbab3b93daa117", "type": "electric_scooter", "lat": 38.9050695, "is_reserved": 0, "lon": -77.06754083333334, "fusion_lon": 0.0, "is_disabled": 0, "fusion_lat": 0.0, "bike_id": "5ff23badcc718172c8dbab3b93daa117", "rental_uris": {"ios": "https://dc.lft.to/lastmile_qr_scan", "android": "https://dc.lft.to/lastmile_qr_scan"}}, {"name": "6fda7998a364de8612b2d658aa43cba6", "type": "electric_scooter", "lat": 38.942898666666665, "is_reserved": 0, "lon": -77.02174883333333, "fusion_lon": 0.0, "is_disabled": 0, "fusion_lat": 0.0, "bike_id": "6fda7998a364de8612b2d658aa43cba6", "rental_uris": {"ios": "https://dc.lft.to/lastmile_qr_scan", "android": "https://dc.lft.to/lastmile_qr_scan"}}, {"name": "5d051f5eb7670901589d889fa2893a45", "type": "electric_scooter", "lat": 38.92061433333333, "is_reserved": 0, "lon": -77.0428745, "fusion_lon": 0.0, "is_disabled": 0, "fusion_lat": 0.0, "bike_id": "5d051f5eb7670901589d889fa2893a45", "rental_uris": {"ios": "https://dc.lft.to/lastmile_qr_scan", "android": "https://dc.lft.to/lastmile_qr_scan"}}, {"name": "a9d263658250be9e6ba88e18bce9fefb", "type": "electric_scooter", "lat": 38.9338975, "is_reserved": 0, "lon": -77.035778, "fusion_lon": 0.0, "is_disabled": 0, "fusion_lat": 0.0, "bike_id": "a9d263658250be9e6ba88e18bce9fefb", "rental_uris": {"ios": "https://dc.lft.to/lastmile_qr_scan", "android": "https://dc.lft.to/lastmile_qr_scan"}}, {"name": "188d799b06bc8b8d230b668b75af6931", "type": "electric_scooter", "lat": 38.9325605, "is_reserved": 0, "lon": -77.0327295, "fusion_lon": 0.0, "is_disabled": 0, "fusion_lat": 0.0, "bike_id": "188d799b06bc8b8d230b668b75af6931", "rental_uris": {"ios": "https://dc.lft.to/lastmile_qr_scan", "android": "https://dc.lft.to/lastmile_qr_scan"}}, {"name": "b8c0622497b7f56954ad781f02886d35", "type": "electric_scooter", "lat": 38.93296733333333, "is_reserved": 0, "lon": -77.02846616666666, "fusion_lon": 0.0, "is_disabled": 0, "fusion_lat": 0.0, "bike_id": "b8c0622497b7f56954ad781f02886d35", "rental_uris": {"ios": "https://dc.lft.to/lastmile_qr_scan", "android": "https://dc.lft.to/lastmile_qr_scan"}}, {"name": "5a11cf2f78037a3507227d499ffb01e0", "type": "electric_bike", "lat": 38.89216666666667, "is_reserved": 0, "lon": -77.1077775, "fusion_lon": 0.0, "is_disabled": 0, "fusion_lat": 0.0, "bike_id": "5a11cf2f78037a3507227d499ffb01e0", "rental_uris": {"ios": "https://dc.lft.to/lastmile_qr_scan", "android": "https://dc.lft.to/lastmile_qr_scan"}}, {"name": "8918f676e234648bf805409426c53004", "type": "electric_scooter", "lat": 38.9086115, "is_reserved": 0, "lon": -77.02729816666667, "fusion_lon": 0.0, "is_disabled": 0, "fusion_lat": 0.0, "bike_id": "8918f676e234648bf805409426c53004", "rental_uris": {"ios": "https://dc.lft.to/lastmile_qr_scan", "android": "https://dc.lft.to/lastmile_qr_scan"}}, {"name": "cc67a67f76684a762532511061cd469b", "type": "electric_scooter", "lat": 38.90376916666666, "is_reserved": 0, "lon": -77.04349466666666, "fusion_lon": 0.0, "is_disabled": 0, "fusion_lat": 0.0, "bike_id": "cc67a67f76684a762532511061cd469b", "rental_uris": {"ios": "https://dc.lft.to/lastmile_qr_scan", "android": "https://dc.lft.to/lastmile_qr_scan"}}, {"name": "39c414d369ba84f7c999d2835e4e94d9", "type": "electric_scooter", "lat": 38.90028016666667, "is_reserved": 0, "lon": -77.01458166666667, "fusion_lon": 0.0, "is_disabled": 0, "fusion_lat": 0.0, "bike_id": "39c414d369ba84f7c999d2835e4e94d9", "rental_uris": {"ios": "https://dc.lft.to/lastmile_qr_scan", "android": "https://dc.lft.to/lastmile_qr_scan"}}, {"name": "a98cd8c8cca6f34cd59e82cb088543dc", "type": "electric_scooter", "lat": 38.88503083333333, "is_reserved": 0, "lon": -77.02099, "fusion_lon": 0.0, "is_disabled": 0, "fusion_lat": 0.0, "bike_id": "a98cd8c8cca6f34cd59e82cb088543dc", "rental_uris": {"ios": "https://dc.lft.to/lastmile_qr_scan", "android": "https://dc.lft.to/lastmile_qr_scan"}}, {"name": "e14c4e200eec68d54a731db9005f8db6", "type": "electric_bike", "lat": 38.936791666666664, "is_reserved": 0, "lon": -76.95202333333333, "fusion_lon": 0.0, "is_disabled": 0, "fusion_lat": 0.0, "bike_id": "e14c4e200eec68d54a731db9005f8db6", "rental_uris": {"ios": "https://dc.lft.to/lastmile_qr_scan", "android": "https://dc.lft.to/lastmile_qr_scan"}}, {"name": "c62d3f05a6dfa776fee4fd107044d867", "type": "electric_scooter", "lat": 38.928724, "is_reserved": 0, "lon": -77.04047333333334, "fusion_lon": 0.0, "is_disabled": 0, "fusion_lat": 0.0, "bike_id": "c62d3f05a6dfa776fee4fd107044d867", "rental_uris": {"ios": "https://dc.lft.to/lastmile_qr_scan", "android": "https://dc.lft.to/lastmile_qr_scan"}}, {"name": "38c91c18b250f58755267b3cd719c4f6", "type": "electric_bike", "lat": 38.919524833333334, "is_reserved": 0, "lon": -76.97897816666666, "fusion_lon": 0.0, "is_disabled": 0, "fusion_lat": 0.0, "bike_id": "38c91c18b250f58755267b3cd719c4f6", "rental_uris": {"ios": "https://dc.lft.to/lastmile_qr_scan", "android": "https://dc.lft.to/lastmile_qr_scan"}}, {"name": "7281eea37bcfc679227884ae3bd7faf8", "type": "electric_scooter", "lat": 38.88512266666667, "is_reserved": 0, "lon": -77.01717033333334, "fusion_lon": 0.0, "is_disabled": 0, "fusion_lat": 0.0, "bike_id": "7281eea37bcfc679227884ae3bd7faf8", "rental_uris": {"ios": "https://dc.lft.to/lastmile_qr_scan", "android": "https://dc.lft.to/lastmile_qr_scan"}}, {"name": "9dda9b3957deca5fafdf20e7aa319535", "type": "electric_scooter", "lat": 38.90445233333333, "is_reserved": 0, "lon": -76.984899, "fusion_lon": 0.0, "is_disabled": 0, "fusion_lat": 0.0, "bike_id": "9dda9b3957deca5fafdf20e7aa319535", "rental_uris": {"ios": "https://dc.lft.to/lastmile_qr_scan", "android": "https://dc.lft.to/lastmile_qr_scan"}}, {"name": "b1f2fbe6d8297a72a46c1c1fa6d98081", "type": "electric_scooter", "lat": 38.89637533333333, "is_reserved": 0, "lon": -77.0213445, "fusion_lon": 0.0, "is_disabled": 0, "fusion_lat": 0.0, "bike_id": "b1f2fbe6d8297a72a46c1c1fa6d98081", "rental_uris": {"ios": "https://dc.lft.to/lastmile_qr_scan", "android": "https://dc.lft.to/lastmile_qr_scan"}}, {"name": "31fb380f8db8ee1bce470235087549ad", "type": "electric_scooter", "lat": 38.903715166666665, "is_reserved": 0, "lon": -77.017545, "fusion_lon": 0.0, "is_disabled": 0, "fusion_lat": 0.0, "bike_id": "31fb380f8db8ee1bce470235087549ad", "rental_uris": {"ios": "https://dc.lft.to/lastmile_qr_scan", "android": "https://dc.lft.to/lastmile_qr_scan"}}, {"name": "d8eb408062702140e23d750a06c631a0", "type": "electric_scooter", "lat": 38.907113, "is_reserved": 0, "lon": -77.03529966666666, "fusion_lon": 0.0, "is_disabled": 0, "fusion_lat": 0.0, "bike_id": "d8eb408062702140e23d750a06c631a0", "rental_uris": {"ios": "https://dc.lft.to/lastmile_qr_scan", "android": "https://dc.lft.to/lastmile_qr_scan"}}, {"name": "041c478071377be07fbdb83c11b4580b", "type": "electric_scooter", "lat": 38.88542316666667, "is_reserved": 0, "lon": -77.02938283333333, "fusion_lon": 0.0, "is_disabled": 0, "fusion_lat": 0.0, "bike_id": "041c478071377be07fbdb83c11b4580b", "rental_uris": {"ios": "https://dc.lft.to/lastmile_qr_scan", "android": "https://dc.lft.to/lastmile_qr_scan"}}, {"name": "c7c9cc22069c4d7fb3f7b99d650e4e46", "type": "electric_scooter", "lat": 38.904093333333336, "is_reserved": 0, "lon": -76.973294, "fusion_lon": 0.0, "is_disabled": 0, "fusion_lat": 0.0, "bike_id": "c7c9cc22069c4d7fb3f7b99d650e4e46", "rental_uris": {"ios": "https://dc.lft.to/lastmile_qr_scan", "android": "https://dc.lft.to/lastmile_qr_scan"}}, {"name": "20ab999adf2df547f84f94da54b87e65", "type": "electric_scooter", "lat": 38.90398066666667, "is_reserved": 0, "lon": -77.04205116666667, "fusion_lon": 0.0, "is_disabled": 0, "fusion_lat": 0.0, "bike_id": "20ab999adf2df547f84f94da54b87e65", "rental_uris": {"ios": "https://dc.lft.to/lastmile_qr_scan", "android": "https://dc.lft.to/lastmile_qr_scan"}}, {"name": "2d48fd7ec569deda6f442a4386e62a60", "type": "electric_scooter", "lat": 38.917582, "is_reserved": 0, "lon": -77.02487733333334, "fusion_lon": 0.0, "is_disabled": 0, "fusion_lat": 0.0, "bike_id": "2d48fd7ec569deda6f442a4386e62a60", "rental_uris": {"ios": "https://dc.lft.to/lastmile_qr_scan", "android": "https://dc.lft.to/lastmile_qr_scan"}}, {"name": "1f9fd9e6a6ab83088c44e8229d6dd022", "type": "electric_scooter", "lat": 38.920156, "is_reserved": 0, "lon": -77.03867983333333, "fusion_lon": 0.0, "is_disabled": 0, "fusion_lat": 0.0, "bike_id": "1f9fd9e6a6ab83088c44e8229d6dd022", "rental_uris": {"ios": "https://dc.lft.to/lastmile_qr_scan", "android": "https://dc.lft.to/lastmile_qr_scan"}}, {"name": "a40c5ddaad93c853adc7f2ee74793a7c", "type": "electric_scooter", "lat": 38.9317395, "is_reserved": 0, "lon": -77.0284485, "fusion_lon": 0.0, "is_disabled": 0, "fusion_lat": 0.0, "bike_id": "a40c5ddaad93c853adc7f2ee74793a7c", "rental_uris": {"ios": "https://dc.lft.to/lastmile_qr_scan", "android": "https://dc.lft.to/lastmile_qr_scan"}}, {"name": "b619fe59067d065c8037efbcf5c7aa6f", "type": "electric_scooter", "lat": 38.94013966666667, "is_reserved": 0, "lon": -77.07169116666667, "fusion_lon": 0.0, "is_disabled": 0, "fusion_lat": 0.0, "bike_id": "b619fe59067d065c8037efbcf5c7aa6f", "rental_uris": {"ios": "https://dc.lft.to/lastmile_qr_scan", "android": "https://dc.lft.to/lastmile_qr_scan"}}, {"name": "81634dbec7be1a4f473cb158a330e6a3", "type": "electric_bike", "lat": 38.90124483333334, "is_reserved": 0, "lon": -77.04984016666667, "fusion_lon": 0.0, "is_disabled": 0, "fusion_lat": 0.0, "bike_id": "81634dbec7be1a4f473cb158a330e6a3", "rental_uris": {"ios": "https://dc.lft.to/lastmile_qr_scan", "android": "https://dc.lft.to/lastmile_qr_scan"}}, {"name": "41e7b9390fcd1ae6305330f1de310fcd", "type": "electric_scooter", "lat": 38.91924866666667, "is_reserved": 0, "lon": -77.00975283333334, "fusion_lon": 0.0, "is_disabled": 0, "fusion_lat": 0.0, "bike_id": "41e7b9390fcd1ae6305330f1de310fcd", "rental_uris": {"ios": "https://dc.lft.to/lastmile_qr_scan", "android": "https://dc.lft.to/lastmile_qr_scan"}}, {"name": "5f543f12e124af8a70095a3aecbd8937", "type": "electric_scooter", "lat": 38.906225666666664, "is_reserved": 0, "lon": -77.0389325, "fusion_lon": 0.0, "is_disabled": 0, "fusion_lat": 0.0, "bike_id": "5f543f12e124af8a70095a3aecbd8937", "rental_uris": {"ios": "https://dc.lft.to/lastmile_qr_scan", "android": "https://dc.lft.to/lastmile_qr_scan"}}, {"name": "113915e5961030fd343554df3d7e185b", "type": "electric_bike", "lat": 38.906910833333335, "is_reserved": 0, "lon": -76.95187516666667, "fusion_lon": 0.0, "is_disabled": 0, "fusion_lat": 0.0, "bike_id": "113915e5961030fd343554df3d7e185b", "rental_uris": {"ios": "https://dc.lft.to/lastmile_qr_scan", "android": "https://dc.lft.to/lastmile_qr_scan"}}, {"name": "4cfddddb5e36d98b0a4c71777430f398", "type": "electric_scooter", "lat": 38.94413816666667, "is_reserved": 0, "lon": -77.05522866666666, "fusion_lon": 0.0, "is_disabled": 0, "fusion_lat": 0.0, "bike_id": "4cfddddb5e36d98b0a4c71777430f398", "rental_uris": {"ios": "https://dc.lft.to/lastmile_qr_scan", "android": "https://dc.lft.to/lastmile_qr_scan"}}, {"name": "4fed96daa20a6fbae468587108469e79", "type": "electric_scooter", "lat": 38.90141783333333, "is_reserved": 0, "lon": -77.03324916666666, "fusion_lon": 0.0, "is_disabled": 0, "fusion_lat": 0.0, "bike_id": "4fed96daa20a6fbae468587108469e79", "rental_uris": {"ios": "https://dc.lft.to/lastmile_qr_scan", "android": "https://dc.lft.to/lastmile_qr_scan"}}, {"name": "51ae9a5d99302beae754cbf99aef088b", "type": "electric_scooter", "lat": 38.917143833333334, "is_reserved": 0, "lon": -77.01214866666666, "fusion_lon": 0.0, "is_disabled": 0, "fusion_lat": 0.0, "bike_id": "51ae9a5d99302beae754cbf99aef088b", "rental_uris": {"ios": "https://dc.lft.to/lastmile_qr_scan", "android": "https://dc.lft.to/lastmile_qr_scan"}}, {"name": "4adae233566c1b8acd26f892290b8313", "type": "electric_scooter", "lat": 38.932012, "is_reserved": 0, "lon": -77.03876266666667, "fusion_lon": 0.0, "is_disabled": 0, "fusion_lat": 0.0, "bike_id": "4adae233566c1b8acd26f892290b8313", "rental_uris": {"ios": "https://dc.lft.to/lastmile_qr_scan", "android": "https://dc.lft.to/lastmile_qr_scan"}}, {"name": "57eb720cd2b6c743a83d66aa1d3c821d", "type": "electric_scooter", "lat": 38.9294825, "is_reserved": 0, "lon": -77.04402166666667, "fusion_lon": 0.0, "is_disabled": 0, "fusion_lat": 0.0, "bike_id": "57eb720cd2b6c743a83d66aa1d3c821d", "rental_uris": {"ios": "https://dc.lft.to/lastmile_qr_scan", "android": "https://dc.lft.to/lastmile_qr_scan"}}, {"name": "99fd73b0c6ee076d9f56cf61e6989790", "type": "electric_bike", "lat": 38.802251166666665, "is_reserved": 0, "lon": -77.0791565, "fusion_lon": 0.0, "is_disabled": 0, "fusion_lat": 0.0, "bike_id": "99fd73b0c6ee076d9f56cf61e6989790", "rental_uris": {"ios": "https://dc.lft.to/lastmile_qr_scan", "android": "https://dc.lft.to/lastmile_qr_scan"}}, {"name": "82f6caf40c61a1615c9c7918f6709896", "type": "electric_scooter", "lat": 38.9077455, "is_reserved": 0, "lon": -77.0434165, "fusion_lon": 0.0, "is_disabled": 0, "fusion_lat": 0.0, "bike_id": "82f6caf40c61a1615c9c7918f6709896", "rental_uris": {"ios": "https://dc.lft.to/lastmile_qr_scan", "android": "https://dc.lft.to/lastmile_qr_scan"}}, {"name": "819cb2b2ee0df2186e3de682391bdb92", "type": "electric_scooter", "lat": 38.91681783333333, "is_reserved": 0, "lon": -77.03643283333334, "fusion_lon": 0.0, "is_disabled": 0, "fusion_lat": 0.0, "bike_id": "819cb2b2ee0df2186e3de682391bdb92", "rental_uris": {"ios": "https://dc.lft.to/lastmile_qr_scan", "android": "https://dc.lft.to/lastmile_qr_scan"}}, {"name": "2c9ef7d08524f9af9c52a655fbd0ad68", "type": "electric_scooter", "lat": 38.936063, "is_reserved": 0, "lon": -77.0586015, "fusion_lon": 0.0, "is_disabled": 0, "fusion_lat": 0.0, "bike_id": "2c9ef7d08524f9af9c52a655fbd0ad68", "rental_uris": {"ios": "https://dc.lft.to/lastmile_qr_scan", "android": "https://dc.lft.to/lastmile_qr_scan"}}, {"name": "9f9774bb3f8606a801dae8b36367b9a5", "type": "electric_scooter", "lat": 38.884106833333334, "is_reserved": 0, "lon": -77.01530083333333, "fusion_lon": 0.0, "is_disabled": 0, "fusion_lat": 0.0, "bike_id": "9f9774bb3f8606a801dae8b36367b9a5", "rental_uris": {"ios": "https://dc.lft.to/lastmile_qr_scan", "android": "https://dc.lft.to/lastmile_qr_scan"}}, {"name": "4576953958aba41205e7b22f8da90919", "type": "electric_scooter", "lat": 38.88738333333333, "is_reserved": 0, "lon": -77.01533116666667, "fusion_lon": 0.0, "is_disabled": 0, "fusion_lat": 0.0, "bike_id": "4576953958aba41205e7b22f8da90919", "rental_uris": {"ios": "https://dc.lft.to/lastmile_qr_scan", "android": "https://dc.lft.to/lastmile_qr_scan"}}, {"name": "b7937e67675872972ae1bde509748987", "type": "electric_scooter", "lat": 38.91798983333333, "is_reserved": 0, "lon": -77.03441183333334, "fusion_lon": 0.0, "is_disabled": 0, "fusion_lat": 0.0, "bike_id": "b7937e67675872972ae1bde509748987", "rental_uris": {"ios": "https://dc.lft.to/lastmile_qr_scan", "android": "https://dc.lft.to/lastmile_qr_scan"}}, {"name": "ea396fc8f0c4f02ba88f8fb6dab496d1", "type": "electric_scooter", "lat": 38.901485, "is_reserved": 0, "lon": -77.0439765, "fusion_lon": 0.0, "is_disabled": 0, "fusion_lat": 0.0, "bike_id": "ea396fc8f0c4f02ba88f8fb6dab496d1", "rental_uris": {"ios": "https://dc.lft.to/lastmile_qr_scan", "android": "https://dc.lft.to/lastmile_qr_scan"}}, {"name": "80db151d039617e9a544f0e2bc56a351", "type": "electric_bike", "lat": 38.990904666666665, "is_reserved": 0, "lon": -76.874944, "fusion_lon": 0.0, "is_disabled": 0, "fusion_lat": 0.0, "bike_id": "80db151d039617e9a544f0e2bc56a351", "rental_uris": {"ios": "https://dc.lft.to/lastmile_qr_scan", "android": "https://dc.lft.to/lastmile_qr_scan"}}, {"name": "768b10a3e8dfa4e4bc246f6bc3928c14", "type": "electric_scooter", "lat": 38.900215833333334, "is_reserved": 0, "lon": -77.0400255, "fusion_lon": 0.0, "is_disabled": 0, "fusion_lat": 0.0, "bike_id": "768b10a3e8dfa4e4bc246f6bc3928c14", "rental_uris": {"ios": "https://dc.lft.to/lastmile_qr_scan", "android": "https://dc.lft.to/lastmile_qr_scan"}}, {"name": "b5d73d1e5d6cb0db5d0f502e7e3f40bf", "type": "electric_scooter", "lat": 38.87844616666667, "is_reserved": 0, "lon": -77.02280833333333, "fusion_lon": 0.0, "is_disabled": 0, "fusion_lat": 0.0, "bike_id": "b5d73d1e5d6cb0db5d0f502e7e3f40bf", "rental_uris": {"ios": "https://dc.lft.to/lastmile_qr_scan", "android": "https://dc.lft.to/lastmile_qr_scan"}}, {"name": "410471ed5d1724e82173fa6bc21e982e", "type": "electric_scooter", "lat": 38.90529466666667, "is_reserved": 0, "lon": -77.0616215, "fusion_lon": 0.0, "is_disabled": 0, "fusion_lat": 0.0, "bike_id": "410471ed5d1724e82173fa6bc21e982e", "rental_uris": {"ios": "https://dc.lft.to/lastmile_qr_scan", "android": "https://dc.lft.to/lastmile_qr_scan"}}, {"name": "b5b5ce4e1ee5a54e9579db5afcc0e2dc", "type": "electric_bike", "lat": 38.828718333333335, "is_reserved": 0, "lon": -77.11220533333334, "fusion_lon": 0.0, "is_disabled": 0, "fusion_lat": 0.0, "bike_id": "b5b5ce4e1ee5a54e9579db5afcc0e2dc", "rental_uris": {"ios": "https://dc.lft.to/lastmile_qr_scan", "android": "https://dc.lft.to/lastmile_qr_scan"}}, {"name": "c626640b0cf1063c42373f215e56052e", "type": "electric_scooter", "lat": 38.93354433333333, "is_reserved": 0, "lon": -77.06937333333333, "fusion_lon": 0.0, "is_disabled": 0, "fusion_lat": 0.0, "bike_id": "c626640b0cf1063c42373f215e56052e", "rental_uris": {"ios": "https://dc.lft.to/lastmile_qr_scan", "android": "https://dc.lft.to/lastmile_qr_scan"}}, {"name": "3cd86aa208297cc4f6e23506fc6b0c1e", "type": "electric_scooter", "lat": 38.9199195, "is_reserved": 0, "lon": -77.03462733333333, "fusion_lon": 0.0, "is_disabled": 0, "fusion_lat": 0.0, "bike_id": "3cd86aa208297cc4f6e23506fc6b0c1e", "rental_uris": {"ios": "https://dc.lft.to/lastmile_qr_scan", "android": "https://dc.lft.to/lastmile_qr_scan"}}, {"name": "466eae61c727b1e8ddb717ab4d6c7c62", "type": "electric_scooter", "lat": 38.89756466666667, "is_reserved": 0, "lon": -77.04345533333333, "fusion_lon": 0.0, "is_disabled": 0, "fusion_lat": 0.0, "bike_id": "466eae61c727b1e8ddb717ab4d6c7c62", "rental_uris": {"ios": "https://dc.lft.to/lastmile_qr_scan", "android": "https://dc.lft.to/lastmile_qr_scan"}}, {"name": "dc585db26c874908df6e98754df711ae", "type": "electric_scooter", "lat": 38.90282166666667, "is_reserved": 0, "lon": -77.03831633333333, "fusion_lon": 0.0, "is_disabled": 0, "fusion_lat": 0.0, "bike_id": "dc585db26c874908df6e98754df711ae", "rental_uris": {"ios": "https://dc.lft.to/lastmile_qr_scan", "android": "https://dc.lft.to/lastmile_qr_scan"}}, {"name": "308c8f326e372235d7a4a4d0cbd6ebda", "type": "electric_scooter", "lat": 38.885305333333335, "is_reserved": 0, "lon": -77.00579933333333, "fusion_lon": 0.0, "is_disabled": 0, "fusion_lat": 0.0, "bike_id": "308c8f326e372235d7a4a4d0cbd6ebda", "rental_uris": {"ios": "https://dc.lft.to/lastmile_qr_scan", "android": "https://dc.lft.to/lastmile_qr_scan"}}, {"name": "f851f4086d7eb754725118a680b4893e", "type": "electric_scooter", "lat": 38.901343833333335, "is_reserved": 0, "lon": -76.98078583333333, "fusion_lon": 0.0, "is_disabled": 0, "fusion_lat": 0.0, "bike_id": "f851f4086d7eb754725118a680b4893e", "rental_uris": {"ios": "https://dc.lft.to/lastmile_qr_scan", "android": "https://dc.lft.to/lastmile_qr_scan"}}, {"name": "202888cb2de54e9af9bc4aa953ee68b1", "type": "electric_scooter", "lat": 38.89902716666667, "is_reserved": 0, "lon": -77.03926816666667, "fusion_lon": 0.0, "is_disabled": 0, "fusion_lat": 0.0, "bike_id": "202888cb2de54e9af9bc4aa953ee68b1", "rental_uris": {"ios": "https://dc.lft.to/lastmile_qr_scan", "android": "https://dc.lft.to/lastmile_qr_scan"}}, {"name": "971ff90a7f20e965efb3a3249808437f", "type": "electric_scooter", "lat": 38.9013515, "is_reserved": 0, "lon": -76.99797916666667, "fusion_lon": 0.0, "is_disabled": 0, "fusion_lat": 0.0, "bike_id": "971ff90a7f20e965efb3a3249808437f", "rental_uris": {"ios": "https://dc.lft.to/lastmile_qr_scan", "android": "https://dc.lft.to/lastmile_qr_scan"}}, {"name": "e35b858db64fb053cb2fdd89ad8b2a3e", "type": "electric_bike", "lat": 39.03048016666666, "is_reserved": 0, "lon": -77.09475166666667, "fusion_lon": 0.0, "is_disabled": 0, "fusion_lat": 0.0, "bike_id": "e35b858db64fb053cb2fdd89ad8b2a3e", "rental_uris": {"ios": "https://dc.lft.to/lastmile_qr_scan", "android": "https://dc.lft.to/lastmile_qr_scan"}}, {"name": "0e8755df89de730fd9520c1e86844690", "type": "electric_scooter", "lat": 38.921106333333334, "is_reserved": 0, "lon": -77.04221633333333, "fusion_lon": 0.0, "is_disabled": 0, "fusion_lat": 0.0, "bike_id": "0e8755df89de730fd9520c1e86844690", "rental_uris": {"ios": "https://dc.lft.to/lastmile_qr_scan", "android": "https://dc.lft.to/lastmile_qr_scan"}}, {"name": "767625eaca706dd8aa0063bc61f7b39a", "type": "electric_scooter", "lat": 38.931109, "is_reserved": 0, "lon": -77.03838516666667, "fusion_lon": 0.0, "is_disabled": 0, "fusion_lat": 0.0, "bike_id": "767625eaca706dd8aa0063bc61f7b39a", "rental_uris": {"ios": "https://dc.lft.to/lastmile_qr_scan", "android": "https://dc.lft.to/lastmile_qr_scan"}}, {"name": "6f0f1bf0c76a96b92b3e7194e6d238d3", "type": "electric_bike", "lat": 38.970577166666665, "is_reserved": 0, "lon": -76.93619116666666, "fusion_lon": 0.0, "is_disabled": 0, "fusion_lat": 0.0, "bike_id": "6f0f1bf0c76a96b92b3e7194e6d238d3", "rental_uris": {"ios": "https://dc.lft.to/lastmile_qr_scan", "android": "https://dc.lft.to/lastmile_qr_scan"}}, {"name": "81570492fe25cb6ea8fd034ca56cfc96", "type": "electric_scooter", "lat": 38.904778, "is_reserved": 0, "lon": -77.06009083333333, "fusion_lon": 0.0, "is_disabled": 0, "fusion_lat": 0.0, "bike_id": "81570492fe25cb6ea8fd034ca56cfc96", "rental_uris": {"ios": "https://dc.lft.to/lastmile_qr_scan", "android": "https://dc.lft.to/lastmile_qr_scan"}}, {"name": "1a3e9f9ee21f2f66550779ccd51ee58c", "type": "electric_scooter", "lat": 38.90769016666667, "is_reserved": 0, "lon": -77.06914766666667, "fusion_lon": 0.0, "is_disabled": 0, "fusion_lat": 0.0, "bike_id": "1a3e9f9ee21f2f66550779ccd51ee58c", "rental_uris": {"ios": "https://dc.lft.to/lastmile_qr_scan", "android": "https://dc.lft.to/lastmile_qr_scan"}}, {"name": "fecf9f32fdaa5cef33589fe4e8d63711", "type": "electric_scooter", "lat": 38.921805166666665, "is_reserved": 0, "lon": -77.04289783333333, "fusion_lon": 0.0, "is_disabled": 0, "fusion_lat": 0.0, "bike_id": "fecf9f32fdaa5cef33589fe4e8d63711", "rental_uris": {"ios": "https://dc.lft.to/lastmile_qr_scan", "android": "https://dc.lft.to/lastmile_qr_scan"}}, {"name": "1a8d72dc262a1306b27b0db35d8028f8", "type": "electric_scooter", "lat": 38.90723883333333, "is_reserved": 0, "lon": -77.0265345, "fusion_lon": 0.0, "is_disabled": 0, "fusion_lat": 0.0, "bike_id": "1a8d72dc262a1306b27b0db35d8028f8", "rental_uris": {"ios": "https://dc.lft.to/lastmile_qr_scan", "android": "https://dc.lft.to/lastmile_qr_scan"}}, {"name": "de672749c85c81634b4031063adbbb0d", "type": "electric_scooter", "lat": 38.922781, "is_reserved": 0, "lon": -77.03666916666667, "fusion_lon": 0.0, "is_disabled": 0, "fusion_lat": 0.0, "bike_id": "de672749c85c81634b4031063adbbb0d", "rental_uris": {"ios": "https://dc.lft.to/lastmile_qr_scan", "android": "https://dc.lft.to/lastmile_qr_scan"}}, {"name": "8892dd4e5e3c2d6c5e5f4ccd53fdeac1", "type": "electric_scooter", "lat": 38.90558766666667, "is_reserved": 0, "lon": -77.0400595, "fusion_lon": 0.0, "is_disabled": 0, "fusion_lat": 0.0, "bike_id": "8892dd4e5e3c2d6c5e5f4ccd53fdeac1", "rental_uris": {"ios": "https://dc.lft.to/lastmile_qr_scan", "android": "https://dc.lft.to/lastmile_qr_scan"}}, {"name": "0e03ec15fdc1d98cdf89e8c5037bf6d9", "type": "electric_scooter", "lat": 38.921902833333334, "is_reserved": 0, "lon": -77.042484, "fusion_lon": 0.0, "is_disabled": 0, "fusion_lat": 0.0, "bike_id": "0e03ec15fdc1d98cdf89e8c5037bf6d9", "rental_uris": {"ios": "https://dc.lft.to/lastmile_qr_scan", "android": "https://dc.lft.to/lastmile_qr_scan"}}, {"name": "db27a23adb2aab24bd9c947d8fc01d4f", "type": "electric_scooter", "lat": 38.949631, "is_reserved": 0, "lon": -77.02724316666666, "fusion_lon": 0.0, "is_disabled": 0, "fusion_lat": 0.0, "bike_id": "db27a23adb2aab24bd9c947d8fc01d4f", "rental_uris": {"ios": "https://dc.lft.to/lastmile_qr_scan", "android": "https://dc.lft.to/lastmile_qr_scan"}}, {"name": "542b7b144de4456dfe07cbcfd57e4b41", "type": "electric_scooter", "lat": 38.89893266666667, "is_reserved": 0, "lon": -77.0448925, "fusion_lon": 0.0, "is_disabled": 0, "fusion_lat": 0.0, "bike_id": "542b7b144de4456dfe07cbcfd57e4b41", "rental_uris": {"ios": "https://dc.lft.to/lastmile_qr_scan", "android": "https://dc.lft.to/lastmile_qr_scan"}}, {"name": "167cf4221966e3955e1c2f92bdefb58e", "type": "electric_scooter", "lat": 38.910424, "is_reserved": 0, "lon": -77.0280905, "fusion_lon": 0.0, "is_disabled": 0, "fusion_lat": 0.0, "bike_id": "167cf4221966e3955e1c2f92bdefb58e", "rental_uris": {"ios": "https://dc.lft.to/lastmile_qr_scan", "android": "https://dc.lft.to/lastmile_qr_scan"}}, {"name": "951a8b0939929de0e57b66a561f8cda4", "type": "electric_scooter", "lat": 38.905558666666664, "is_reserved": 0, "lon": -77.04335666666667, "fusion_lon": 0.0, "is_disabled": 0, "fusion_lat": 0.0, "bike_id": "951a8b0939929de0e57b66a561f8cda4", "rental_uris": {"ios": "https://dc.lft.to/lastmile_qr_scan", "android": "https://dc.lft.to/lastmile_qr_scan"}}, {"name": "af9cbe3963fbe4a7418cb8966b1560dd", "type": "electric_scooter", "lat": 38.928888666666666, "is_reserved": 0, "lon": -77.03249133333334, "fusion_lon": 0.0, "is_disabled": 0, "fusion_lat": 0.0, "bike_id": "af9cbe3963fbe4a7418cb8966b1560dd", "rental_uris": {"ios": "https://dc.lft.to/lastmile_qr_scan", "android": "https://dc.lft.to/lastmile_qr_scan"}}, {"name": "9b849f49b60984dedcfed1e3d774da68", "type": "electric_scooter", "lat": 38.9056835, "is_reserved": 0, "lon": -77.02181733333333, "fusion_lon": 0.0, "is_disabled": 0, "fusion_lat": 0.0, "bike_id": "9b849f49b60984dedcfed1e3d774da68", "rental_uris": {"ios": "https://dc.lft.to/lastmile_qr_scan", "android": "https://dc.lft.to/lastmile_qr_scan"}}, {"name": "980b8bb10ff6d4cd1da36d44de14a701", "type": "electric_scooter", "lat": 38.962511166666665, "is_reserved": 0, "lon": -77.03345916666666, "fusion_lon": 0.0, "is_disabled": 0, "fusion_lat": 0.0, "bike_id": "980b8bb10ff6d4cd1da36d44de14a701", "rental_uris": {"ios": "https://dc.lft.to/lastmile_qr_scan", "android": "https://dc.lft.to/lastmile_qr_scan"}}, {"name": "60ee446dab7f58f3f6b0d53a026d7eda", "type": "electric_scooter", "lat": 38.92574583333333, "is_reserved": 0, "lon": -77.07305716666667, "fusion_lon": 0.0, "is_disabled": 0, "fusion_lat": 0.0, "bike_id": "60ee446dab7f58f3f6b0d53a026d7eda", "rental_uris": {"ios": "https://dc.lft.to/lastmile_qr_scan", "android": "https://dc.lft.to/lastmile_qr_scan"}}, {"name": "90da534627641a897d65c26229c2f409", "type": "electric_scooter", "lat": 38.921460833333335, "is_reserved": 0, "lon": -77.03647116666667, "fusion_lon": 0.0, "is_disabled": 0, "fusion_lat": 0.0, "bike_id": "90da534627641a897d65c26229c2f409", "rental_uris": {"ios": "https://dc.lft.to/lastmile_qr_scan", "android": "https://dc.lft.to/lastmile_qr_scan"}}, {"name": "bef7678a390bfaa76a95224ad272935d", "type": "electric_scooter", "lat": 38.930787333333335, "is_reserved": 0, "lon": -77.02795466666667, "fusion_lon": 0.0, "is_disabled": 0, "fusion_lat": 0.0, "bike_id": "bef7678a390bfaa76a95224ad272935d", "rental_uris": {"ios": "https://dc.lft.to/lastmile_qr_scan", "android": "https://dc.lft.to/lastmile_qr_scan"}}, {"name": "2d1f2965a1feaea51426868f4df778c8", "type": "electric_scooter", "lat": 38.90074116666667, "is_reserved": 0, "lon": -77.050103, "fusion_lon": 0.0, "is_disabled": 0, "fusion_lat": 0.0, "bike_id": "2d1f2965a1feaea51426868f4df778c8", "rental_uris": {"ios": "https://dc.lft.to/lastmile_qr_scan", "android": "https://dc.lft.to/lastmile_qr_scan"}}, {"name": "bf88309045cbfaabb9df8bf43cb4eba1", "type": "electric_scooter", "lat": 38.8665775, "is_reserved": 0, "lon": -76.9901495, "fusion_lon": 0.0, "is_disabled": 0, "fusion_lat": 0.0, "bike_id": "bf88309045cbfaabb9df8bf43cb4eba1", "rental_uris": {"ios": "https://dc.lft.to/lastmile_qr_scan", "android": "https://dc.lft.to/lastmile_qr_scan"}}, {"name": "0079bfecb1f33de6af875681262c8005", "type": "electric_scooter", "lat": 38.89825116666667, "is_reserved": 0, "lon": -76.94653583333333, "fusion_lon": 0.0, "is_disabled": 0, "fusion_lat": 0.0, "bike_id": "0079bfecb1f33de6af875681262c8005", "rental_uris": {"ios": "https://dc.lft.to/lastmile_qr_scan", "android": "https://dc.lft.to/lastmile_qr_scan"}}, {"name": "e29aace03e5ebdc7e6b882b5efcd9959", "type": "electric_scooter", "lat": 38.91995516666667, "is_reserved": 0, "lon": -77.034725, "fusion_lon": 0.0, "is_disabled": 0, "fusion_lat": 0.0, "bike_id": "e29aace03e5ebdc7e6b882b5efcd9959", "rental_uris": {"ios": "https://dc.lft.to/lastmile_qr_scan", "android": "https://dc.lft.to/lastmile_qr_scan"}}, {"name": "70e14ad3fecbb926e34bb8ee49eb7937", "type": "electric_scooter", "lat": 38.914166, "is_reserved": 0, "lon": -77.038126, "fusion_lon": 0.0, "is_disabled": 0, "fusion_lat": 0.0, "bike_id": "70e14ad3fecbb926e34bb8ee49eb7937", "rental_uris": {"ios": "https://dc.lft.to/lastmile_qr_scan", "android": "https://dc.lft.to/lastmile_qr_scan"}}, {"name": "46c1419bd1c4e01dc52a142da18b0001", "type": "electric_scooter", "lat": 38.905165333333336, "is_reserved": 0, "lon": -77.06005283333333, "fusion_lon": 0.0, "is_disabled": 0, "fusion_lat": 0.0, "bike_id": "46c1419bd1c4e01dc52a142da18b0001", "rental_uris": {"ios": "https://dc.lft.to/lastmile_qr_scan", "android": "https://dc.lft.to/lastmile_qr_scan"}}, {"name": "3fe89dcdbf05dcc85efc84dd1d53e224", "type": "electric_scooter", "lat": 38.901381, "is_reserved": 0, "lon": -77.02908583333334, "fusion_lon": 0.0, "is_disabled": 0, "fusion_lat": 0.0, "bike_id": "3fe89dcdbf05dcc85efc84dd1d53e224", "rental_uris": {"ios": "https://dc.lft.to/lastmile_qr_scan", "android": "https://dc.lft.to/lastmile_qr_scan"}}, {"name": "e61100e89871082a80b8b1f200829fd1", "type": "electric_bike", "lat": 38.83983516666667, "is_reserved": 0, "lon": -77.005746, "fusion_lon": 0.0, "is_disabled": 0, "fusion_lat": 0.0, "bike_id": "e61100e89871082a80b8b1f200829fd1", "rental_uris": {"ios": "https://dc.lft.to/lastmile_qr_scan", "android": "https://dc.lft.to/lastmile_qr_scan"}}, {"name": "83cebc92871ec7829793898c490f6877", "type": "electric_scooter", "lat": 38.937725666666665, "is_reserved": 0, "lon": -77.022713, "fusion_lon": 0.0, "is_disabled": 0, "fusion_lat": 0.0, "bike_id": "83cebc92871ec7829793898c490f6877", "rental_uris": {"ios": "https://dc.lft.to/lastmile_qr_scan", "android": "https://dc.lft.to/lastmile_qr_scan"}}, {"name": "379f9fb420a7b284cb686656ea671261", "type": "electric_scooter", "lat": 38.90051183333333, "is_reserved": 0, "lon": -77.05128983333333, "fusion_lon": 0.0, "is_disabled": 0, "fusion_lat": 0.0, "bike_id": "379f9fb420a7b284cb686656ea671261", "rental_uris": {"ios": "https://dc.lft.to/lastmile_qr_scan", "android": "https://dc.lft.to/lastmile_qr_scan"}}, {"name": "ea201353c9e056a95ce661f0a5b09ff8", "type": "electric_scooter", "lat": 38.915889, "is_reserved": 0, "lon": -77.04471716666667, "fusion_lon": 0.0, "is_disabled": 0, "fusion_lat": 0.0, "bike_id": "ea201353c9e056a95ce661f0a5b09ff8", "rental_uris": {"ios": "https://dc.lft.to/lastmile_qr_scan", "android": "https://dc.lft.to/lastmile_qr_scan"}}, {"name": "68890d6a06a2688110404fef1af3d78c", "type": "electric_scooter", "lat": 38.901522166666666, "is_reserved": 0, "lon": -76.93064083333333, "fusion_lon": 0.0, "is_disabled": 0, "fusion_lat": 0.0, "bike_id": "68890d6a06a2688110404fef1af3d78c", "rental_uris": {"ios": "https://dc.lft.to/lastmile_qr_scan", "android": "https://dc.lft.to/lastmile_qr_scan"}}, {"name": "88e9941fd05e4b12469f974bdf6e3ad3", "type": "electric_scooter", "lat": 38.9037655, "is_reserved": 0, "lon": -77.031939, "fusion_lon": 0.0, "is_disabled": 0, "fusion_lat": 0.0, "bike_id": "88e9941fd05e4b12469f974bdf6e3ad3", "rental_uris": {"ios": "https://dc.lft.to/lastmile_qr_scan", "android": "https://dc.lft.to/lastmile_qr_scan"}}, {"name": "8cb0b19e9a11b6e56366543e396d9e28", "type": "electric_scooter", "lat": 38.94067233333333, "is_reserved": 0, "lon": -76.99462066666666, "fusion_lon": 0.0, "is_disabled": 0, "fusion_lat": 0.0, "bike_id": "8cb0b19e9a11b6e56366543e396d9e28", "rental_uris": {"ios": "https://dc.lft.to/lastmile_qr_scan", "android": "https://dc.lft.to/lastmile_qr_scan"}}, {"name": "adab0ceb50386d1e45f2f845681278bf", "type": "electric_scooter", "lat": 38.92474433333334, "is_reserved": 0, "lon": -77.03760283333334, "fusion_lon": 0.0, "is_disabled": 0, "fusion_lat": 0.0, "bike_id": "adab0ceb50386d1e45f2f845681278bf", "rental_uris": {"ios": "https://dc.lft.to/lastmile_qr_scan", "android": "https://dc.lft.to/lastmile_qr_scan"}}, {"name": "2ed159dd6132ae65b9217c054fb13c73", "type": "electric_scooter", "lat": 38.92229366666667, "is_reserved": 0, "lon": -77.03344, "fusion_lon": 0.0, "is_disabled": 0, "fusion_lat": 0.0, "bike_id": "2ed159dd6132ae65b9217c054fb13c73", "rental_uris": {"ios": "https://dc.lft.to/lastmile_qr_scan", "android": "https://dc.lft.to/lastmile_qr_scan"}}, {"name": "06d27663b44365a52579a30ceaf04952", "type": "electric_scooter", "lat": 38.93967883333333, "is_reserved": 0, "lon": -77.02480483333333, "fusion_lon": 0.0, "is_disabled": 0, "fusion_lat": 0.0, "bike_id": "06d27663b44365a52579a30ceaf04952", "rental_uris": {"ios": "https://dc.lft.to/lastmile_qr_scan", "android": "https://dc.lft.to/lastmile_qr_scan"}}, {"name": "b4eb818f15248119145a333bbfe174a1", "type": "electric_scooter", "lat": 38.918779666666666, "is_reserved": 0, "lon": -77.043811, "fusion_lon": 0.0, "is_disabled": 0, "fusion_lat": 0.0, "bike_id": "b4eb818f15248119145a333bbfe174a1", "rental_uris": {"ios": "https://dc.lft.to/lastmile_qr_scan", "android": "https://dc.lft.to/lastmile_qr_scan"}}, {"name": "93d8195a09326b026a9c681fd137d434", "type": "electric_scooter", "lat": 38.926759833333335, "is_reserved": 0, "lon": -77.09557633333333, "fusion_lon": 0.0, "is_disabled": 0, "fusion_lat": 0.0, "bike_id": "93d8195a09326b026a9c681fd137d434", "rental_uris": {"ios": "https://dc.lft.to/lastmile_qr_scan", "android": "https://dc.lft.to/lastmile_qr_scan"}}, {"name": "7f91bdd0bfffad68e8f8d7fd6f5a2aa1", "type": "electric_scooter", "lat": 38.902792833333336, "is_reserved": 0, "lon": -77.01720783333333, "fusion_lon": 0.0, "is_disabled": 0, "fusion_lat": 0.0, "bike_id": "7f91bdd0bfffad68e8f8d7fd6f5a2aa1", "rental_uris": {"ios": "https://dc.lft.to/lastmile_qr_scan", "android": "https://dc.lft.to/lastmile_qr_scan"}}, {"name": "3f9165a25d72663bd46d572f96550175", "type": "electric_scooter", "lat": 38.89974483333334, "is_reserved": 0, "lon": -77.05570083333333, "fusion_lon": 0.0, "is_disabled": 0, "fusion_lat": 0.0, "bike_id": "3f9165a25d72663bd46d572f96550175", "rental_uris": {"ios": "https://dc.lft.to/lastmile_qr_scan", "android": "https://dc.lft.to/lastmile_qr_scan"}}, {"name": "ff5ae5b49855abefba11b0ba3ef9c56b", "type": "electric_scooter", "lat": 38.928012833333334, "is_reserved": 0, "lon": -77.05361983333333, "fusion_lon": 0.0, "is_disabled": 0, "fusion_lat": 0.0, "bike_id": "ff5ae5b49855abefba11b0ba3ef9c56b", "rental_uris": {"ios": "https://dc.lft.to/lastmile_qr_scan", "android": "https://dc.lft.to/lastmile_qr_scan"}}, {"name": "1ec5387afd1f542ba7c7a3ca7d5492cc", "type": "electric_scooter", "lat": 38.894955833333334, "is_reserved": 0, "lon": -77.0238705, "fusion_lon": 0.0, "is_disabled": 0, "fusion_lat": 0.0, "bike_id": "1ec5387afd1f542ba7c7a3ca7d5492cc", "rental_uris": {"ios": "https://dc.lft.to/lastmile_qr_scan", "android": "https://dc.lft.to/lastmile_qr_scan"}}, {"name": "b86c457c2c0994081cad12052a43182e", "type": "electric_scooter", "lat": 38.918791166666665, "is_reserved": 0, "lon": -77.04315466666667, "fusion_lon": 0.0, "is_disabled": 0, "fusion_lat": 0.0, "bike_id": "b86c457c2c0994081cad12052a43182e", "rental_uris": {"ios": "https://dc.lft.to/lastmile_qr_scan", "android": "https://dc.lft.to/lastmile_qr_scan"}}, {"name": "85c0fcc5e3cf07f34698de42aea98cbe", "type": "electric_scooter", "lat": 38.90590183333333, "is_reserved": 0, "lon": -77.0403545, "fusion_lon": 0.0, "is_disabled": 0, "fusion_lat": 0.0, "bike_id": "85c0fcc5e3cf07f34698de42aea98cbe", "rental_uris": {"ios": "https://dc.lft.to/lastmile_qr_scan", "android": "https://dc.lft.to/lastmile_qr_scan"}}, {"name": "46eb401b7f1a4cf46ee343bc5542141a", "type": "electric_bike", "lat": 38.827316833333335, "is_reserved": 0, "lon": -77.00862516666666, "fusion_lon": 0.0, "is_disabled": 0, "fusion_lat": 0.0, "bike_id": "46eb401b7f1a4cf46ee343bc5542141a", "rental_uris": {"ios": "https://dc.lft.to/lastmile_qr_scan", "android": "https://dc.lft.to/lastmile_qr_scan"}}, {"name": "421838bb853b825c1e4aa97d1c3093a2", "type": "electric_scooter", "lat": 38.90040666666667, "is_reserved": 0, "lon": -77.03187016666666, "fusion_lon": 0.0, "is_disabled": 0, "fusion_lat": 0.0, "bike_id": "421838bb853b825c1e4aa97d1c3093a2", "rental_uris": {"ios": "https://dc.lft.to/lastmile_qr_scan", "android": "https://dc.lft.to/lastmile_qr_scan"}}, {"name": "89e633c60e8e23a957ad1cba577deeb0", "type": "electric_scooter", "lat": 38.8849705, "is_reserved": 0, "lon": -77.00725683333333, "fusion_lon": 0.0, "is_disabled": 0, "fusion_lat": 0.0, "bike_id": "89e633c60e8e23a957ad1cba577deeb0", "rental_uris": {"ios": "https://dc.lft.to/lastmile_qr_scan", "android": "https://dc.lft.to/lastmile_qr_scan"}}, {"name": "74e083d321a492f24ef21d10920dcfc3", "type": "electric_scooter", "lat": 38.90863866666667, "is_reserved": 0, "lon": -77.0273015, "fusion_lon": 0.0, "is_disabled": 0, "fusion_lat": 0.0, "bike_id": "74e083d321a492f24ef21d10920dcfc3", "rental_uris": {"ios": "https://dc.lft.to/lastmile_qr_scan", "android": "https://dc.lft.to/lastmile_qr_scan"}}, {"name": "47965706443f256fec7c50d8d75c0236", "type": "electric_scooter", "lat": 38.898839, "is_reserved": 0, "lon": -77.03272816666667, "fusion_lon": 0.0, "is_disabled": 0, "fusion_lat": 0.0, "bike_id": "47965706443f256fec7c50d8d75c0236", "rental_uris": {"ios": "https://dc.lft.to/lastmile_qr_scan", "android": "https://dc.lft.to/lastmile_qr_scan"}}, {"name": "13dc3fb15ab2f74b0d62337e633a8bde", "type": "electric_scooter", "lat": 38.89732883333333, "is_reserved": 0, "lon": -76.94719016666667, "fusion_lon": 0.0, "is_disabled": 0, "fusion_lat": 0.0, "bike_id": "13dc3fb15ab2f74b0d62337e633a8bde", "rental_uris": {"ios": "https://dc.lft.to/lastmile_qr_scan", "android": "https://dc.lft.to/lastmile_qr_scan"}}, {"name": "93327b757a921a08fab923545c99f251", "type": "electric_scooter", "lat": 38.880332333333335, "is_reserved": 0, "lon": -76.931377, "fusion_lon": 0.0, "is_disabled": 0, "fusion_lat": 0.0, "bike_id": "93327b757a921a08fab923545c99f251", "rental_uris": {"ios": "https://dc.lft.to/lastmile_qr_scan", "android": "https://dc.lft.to/lastmile_qr_scan"}}, {"name": "c0e6378afe9e94c8ef7d368106d38571", "type": "electric_scooter", "lat": 38.895558666666666, "is_reserved": 0, "lon": -77.021642, "fusion_lon": 0.0, "is_disabled": 0, "fusion_lat": 0.0, "bike_id": "c0e6378afe9e94c8ef7d368106d38571", "rental_uris": {"ios": "https://dc.lft.to/lastmile_qr_scan", "android": "https://dc.lft.to/lastmile_qr_scan"}}, {"name": "9908b0af85c4afb7729b83f6264166e3", "type": "electric_scooter", "lat": 38.892772666666666, "is_reserved": 0, "lon": -77.0260235, "fusion_lon": 0.0, "is_disabled": 0, "fusion_lat": 0.0, "bike_id": "9908b0af85c4afb7729b83f6264166e3", "rental_uris": {"ios": "https://dc.lft.to/lastmile_qr_scan", "android": "https://dc.lft.to/lastmile_qr_scan"}}, {"name": "12b7cb71d0d203a0c9d6a775f5871bc4", "type": "electric_scooter", "lat": 38.919359, "is_reserved": 0, "lon": -77.04539033333333, "fusion_lon": 0.0, "is_disabled": 0, "fusion_lat": 0.0, "bike_id": "12b7cb71d0d203a0c9d6a775f5871bc4", "rental_uris": {"ios": "https://dc.lft.to/lastmile_qr_scan", "android": "https://dc.lft.to/lastmile_qr_scan"}}, {"name": "2fe9e4ce4a2e8e5bd301856dd9e012d6", "type": "electric_scooter", "lat": 38.92894533333333, "is_reserved": 0, "lon": -77.03235783333334, "fusion_lon": 0.0, "is_disabled": 0, "fusion_lat": 0.0, "bike_id": "2fe9e4ce4a2e8e5bd301856dd9e012d6", "rental_uris": {"ios": "https://dc.lft.to/lastmile_qr_scan", "android": "https://dc.lft.to/lastmile_qr_scan"}}, {"name": "57b0c6ff97873eac2f224c518e9e186d", "type": "electric_scooter", "lat": 38.9408895, "is_reserved": 0, "lon": -77.061924, "fusion_lon": 0.0, "is_disabled": 0, "fusion_lat": 0.0, "bike_id": "57b0c6ff97873eac2f224c518e9e186d", "rental_uris": {"ios": "https://dc.lft.to/lastmile_qr_scan", "android": "https://dc.lft.to/lastmile_qr_scan"}}, {"name": "c5d248956236a70c99d5f58291f2aaab", "type": "electric_scooter", "lat": 38.86516966666667, "is_reserved": 0, "lon": -76.99037083333333, "fusion_lon": 0.0, "is_disabled": 0, "fusion_lat": 0.0, "bike_id": "c5d248956236a70c99d5f58291f2aaab", "rental_uris": {"ios": "https://dc.lft.to/lastmile_qr_scan", "android": "https://dc.lft.to/lastmile_qr_scan"}}, {"name": "5009dba204bd0ad2ea19482c98f9ec0b", "type": "electric_scooter", "lat": 38.918595833333335, "is_reserved": 0, "lon": -77.0445215, "fusion_lon": 0.0, "is_disabled": 0, "fusion_lat": 0.0, "bike_id": "5009dba204bd0ad2ea19482c98f9ec0b", "rental_uris": {"ios": "https://dc.lft.to/lastmile_qr_scan", "android": "https://dc.lft.to/lastmile_qr_scan"}}, {"name": "3eec20184842930c60de06096686ba11", "type": "electric_scooter", "lat": 38.922609333333334, "is_reserved": 0, "lon": -77.03637733333333, "fusion_lon": 0.0, "is_disabled": 0, "fusion_lat": 0.0, "bike_id": "3eec20184842930c60de06096686ba11", "rental_uris": {"ios": "https://dc.lft.to/lastmile_qr_scan", "android": "https://dc.lft.to/lastmile_qr_scan"}}, {"name": "0eaeb5c1153058adefa57639eafe8546", "type": "electric_scooter", "lat": 38.9062315, "is_reserved": 0, "lon": -77.03959333333333, "fusion_lon": 0.0, "is_disabled": 0, "fusion_lat": 0.0, "bike_id": "0eaeb5c1153058adefa57639eafe8546", "rental_uris": {"ios": "https://dc.lft.to/lastmile_qr_scan", "android": "https://dc.lft.to/lastmile_qr_scan"}}, {"name": "45d006b3c08ca469133e633cedc039b7", "type": "electric_scooter", "lat": 38.9133225, "is_reserved": 0, "lon": -77.04341766666667, "fusion_lon": 0.0, "is_disabled": 0, "fusion_lat": 0.0, "bike_id": "45d006b3c08ca469133e633cedc039b7", "rental_uris": {"ios": "https://dc.lft.to/lastmile_qr_scan", "android": "https://dc.lft.to/lastmile_qr_scan"}}, {"name": "c9d591f52c83dfd92cbecc776df4d9c7", "type": "electric_scooter", "lat": 38.911941, "is_reserved": 0, "lon": -77.06094233333333, "fusion_lon": 0.0, "is_disabled": 0, "fusion_lat": 0.0, "bike_id": "c9d591f52c83dfd92cbecc776df4d9c7", "rental_uris": {"ios": "https://dc.lft.to/lastmile_qr_scan", "android": "https://dc.lft.to/lastmile_qr_scan"}}, {"name": "31fbf84c5789580ac98ae0a6f6af8067", "type": "electric_scooter", "lat": 38.8849485, "is_reserved": 0, "lon": -77.00726466666667, "fusion_lon": 0.0, "is_disabled": 0, "fusion_lat": 0.0, "bike_id": "31fbf84c5789580ac98ae0a6f6af8067", "rental_uris": {"ios": "https://dc.lft.to/lastmile_qr_scan", "android": "https://dc.lft.to/lastmile_qr_scan"}}, {"name": "8a3ebca6f4affef885f8e732991f932f", "type": "electric_bike", "lat": 38.959569, "is_reserved": 0, "lon": -77.10088033333334, "fusion_lon": 0.0, "is_disabled": 0, "fusion_lat": 0.0, "bike_id": "8a3ebca6f4affef885f8e732991f932f", "rental_uris": {"ios": "https://dc.lft.to/lastmile_qr_scan", "android": "https://dc.lft.to/lastmile_qr_scan"}}, {"name": "86251f3d10204f2d26a44acfa5bee13f", "type": "electric_scooter", "lat": 38.902695, "is_reserved": 0, "lon": -77.0298315, "fusion_lon": 0.0, "is_disabled": 0, "fusion_lat": 0.0, "bike_id": "86251f3d10204f2d26a44acfa5bee13f", "rental_uris": {"ios": "https://dc.lft.to/lastmile_qr_scan", "android": "https://dc.lft.to/lastmile_qr_scan"}}, {"name": "755bcd38af5589fa40a79a6f5aead927", "type": "electric_bike", "lat": 38.93583783333333, "is_reserved": 0, "lon": -77.0584175, "fusion_lon": 0.0, "is_disabled": 0, "fusion_lat": 0.0, "bike_id": "755bcd38af5589fa40a79a6f5aead927", "rental_uris": {"ios": "https://dc.lft.to/lastmile_qr_scan", "android": "https://dc.lft.to/lastmile_qr_scan"}}, {"name": "0d7635a0f7c8907524f07f6924fff3c0", "type": "electric_scooter", "lat": 38.906476, "is_reserved": 0, "lon": -77.00888533333334, "fusion_lon": 0.0, "is_disabled": 0, "fusion_lat": 0.0, "bike_id": "0d7635a0f7c8907524f07f6924fff3c0", "rental_uris": {"ios": "https://dc.lft.to/lastmile_qr_scan", "android": "https://dc.lft.to/lastmile_qr_scan"}}, {"name": "f2771eb0ad10788ef9603d619eb6abc8", "type": "electric_scooter", "lat": 38.90881616666667, "is_reserved": 0, "lon": -77.0231745, "fusion_lon": 0.0, "is_disabled": 0, "fusion_lat": 0.0, "bike_id": "f2771eb0ad10788ef9603d619eb6abc8", "rental_uris": {"ios": "https://dc.lft.to/lastmile_qr_scan", "android": "https://dc.lft.to/lastmile_qr_scan"}}, {"name": "88dac3405f76fd2fcf3039ea6b5e8d50", "type": "electric_scooter", "lat": 38.93208933333333, "is_reserved": 0, "lon": -77.02736433333334, "fusion_lon": 0.0, "is_disabled": 0, "fusion_lat": 0.0, "bike_id": "88dac3405f76fd2fcf3039ea6b5e8d50", "rental_uris": {"ios": "https://dc.lft.to/lastmile_qr_scan", "android": "https://dc.lft.to/lastmile_qr_scan"}}, {"name": "dedf03e89308f0dce5666e81e627e61f", "type": "electric_scooter", "lat": 38.9025345, "is_reserved": 0, "lon": -77.059574, "fusion_lon": 0.0, "is_disabled": 0, "fusion_lat": 0.0, "bike_id": "dedf03e89308f0dce5666e81e627e61f", "rental_uris": {"ios": "https://dc.lft.to/lastmile_qr_scan", "android": "https://dc.lft.to/lastmile_qr_scan"}}, {"name": "6f37750791ef7f9172cbf1d79d9dba19", "type": "electric_scooter", "lat": 38.911956, "is_reserved": 0, "lon": -77.07314, "fusion_lon": 0.0, "is_disabled": 0, "fusion_lat": 0.0, "bike_id": "6f37750791ef7f9172cbf1d79d9dba19", "rental_uris": {"ios": "https://dc.lft.to/lastmile_qr_scan", "android": "https://dc.lft.to/lastmile_qr_scan"}}, {"name": "301f895953a63315d0a0931ec3cd860f", "type": "electric_scooter", "lat": 38.8972885, "is_reserved": 0, "lon": -77.02723733333333, "fusion_lon": 0.0, "is_disabled": 0, "fusion_lat": 0.0, "bike_id": "301f895953a63315d0a0931ec3cd860f", "rental_uris": {"ios": "https://dc.lft.to/lastmile_qr_scan", "android": "https://dc.lft.to/lastmile_qr_scan"}}, {"name": "f431bfacc94f72d2564c82e369352576", "type": "electric_scooter", "lat": 38.903809833333334, "is_reserved": 0, "lon": -77.0433655, "fusion_lon": 0.0, "is_disabled": 0, "fusion_lat": 0.0, "bike_id": "f431bfacc94f72d2564c82e369352576", "rental_uris": {"ios": "https://dc.lft.to/lastmile_qr_scan", "android": "https://dc.lft.to/lastmile_qr_scan"}}, {"name": "cd32c70c163b20b39a2cb131feeae1f0", "type": "electric_scooter", "lat": 38.89507966666667, "is_reserved": 0, "lon": -77.00335516666667, "fusion_lon": 0.0, "is_disabled": 0, "fusion_lat": 0.0, "bike_id": "cd32c70c163b20b39a2cb131feeae1f0", "rental_uris": {"ios": "https://dc.lft.to/lastmile_qr_scan", "android": "https://dc.lft.to/lastmile_qr_scan"}}, {"name": "3fcf8f3fbd8a1d31f6615c62e2fdaa0e", "type": "electric_scooter", "lat": 38.90394916666666, "is_reserved": 0, "lon": -77.041971, "fusion_lon": 0.0, "is_disabled": 0, "fusion_lat": 0.0, "bike_id": "3fcf8f3fbd8a1d31f6615c62e2fdaa0e", "rental_uris": {"ios": "https://dc.lft.to/lastmile_qr_scan", "android": "https://dc.lft.to/lastmile_qr_scan"}}, {"name": "e4cd5ebcb73a03b37137152d6c64a60b", "type": "electric_bike", "lat": 38.867589, "is_reserved": 0, "lon": -76.98948283333333, "fusion_lon": 0.0, "is_disabled": 0, "fusion_lat": 0.0, "bike_id": "e4cd5ebcb73a03b37137152d6c64a60b", "rental_uris": {"ios": "https://dc.lft.to/lastmile_qr_scan", "android": "https://dc.lft.to/lastmile_qr_scan"}}, {"name": "1c7c9de43306285f1fc5dda5c3c09547", "type": "electric_scooter", "lat": 38.921528, "is_reserved": 0, "lon": -77.03527933333334, "fusion_lon": 0.0, "is_disabled": 0, "fusion_lat": 0.0, "bike_id": "1c7c9de43306285f1fc5dda5c3c09547", "rental_uris": {"ios": "https://dc.lft.to/lastmile_qr_scan", "android": "https://dc.lft.to/lastmile_qr_scan"}}, {"name": "32c2521a14c4a5e722fa996b92ab5876", "type": "electric_bike", "lat": 38.83813516666667, "is_reserved": 0, "lon": -77.09519633333333, "fusion_lon": 0.0, "is_disabled": 0, "fusion_lat": 0.0, "bike_id": "32c2521a14c4a5e722fa996b92ab5876", "rental_uris": {"ios": "https://dc.lft.to/lastmile_qr_scan", "android": "https://dc.lft.to/lastmile_qr_scan"}}, {"name": "7c70f3f47dfca5294877372f513daec8", "type": "electric_scooter", "lat": 38.89610316666667, "is_reserved": 0, "lon": -77.0445835, "fusion_lon": 0.0, "is_disabled": 0, "fusion_lat": 0.0, "bike_id": "7c70f3f47dfca5294877372f513daec8", "rental_uris": {"ios": "https://dc.lft.to/lastmile_qr_scan", "android": "https://dc.lft.to/lastmile_qr_scan"}}, {"name": "bf8780c7f1d4e089ee69cacc9974dab3", "type": "electric_scooter", "lat": 38.89739466666666, "is_reserved": 0, "lon": -76.938445, "fusion_lon": 0.0, "is_disabled": 0, "fusion_lat": 0.0, "bike_id": "bf8780c7f1d4e089ee69cacc9974dab3", "rental_uris": {"ios": "https://dc.lft.to/lastmile_qr_scan", "android": "https://dc.lft.to/lastmile_qr_scan"}}, {"name": "ca2fed1605036ae9446fe2f747bb47a4", "type": "electric_bike", "lat": 38.838277166666664, "is_reserved": 0, "lon": -76.99684633333334, "fusion_lon": 0.0, "is_disabled": 0, "fusion_lat": 0.0, "bike_id": "ca2fed1605036ae9446fe2f747bb47a4", "rental_uris": {"ios": "https://dc.lft.to/lastmile_qr_scan", "android": "https://dc.lft.to/lastmile_qr_scan"}}, {"name": "a6218b335208b5a56bfac271d52e893f", "type": "electric_scooter", "lat": 38.904943, "is_reserved": 0, "lon": -77.028108, "fusion_lon": 0.0, "is_disabled": 0, "fusion_lat": 0.0, "bike_id": "a6218b335208b5a56bfac271d52e893f", "rental_uris": {"ios": "https://dc.lft.to/lastmile_qr_scan", "android": "https://dc.lft.to/lastmile_qr_scan"}}, {"name": "04b92a12273f320d29b10322f42c3e2e", "type": "electric_scooter", "lat": 38.88686233333333, "is_reserved": 0, "lon": -76.957613, "fusion_lon": 0.0, "is_disabled": 0, "fusion_lat": 0.0, "bike_id": "04b92a12273f320d29b10322f42c3e2e", "rental_uris": {"ios": "https://dc.lft.to/lastmile_qr_scan", "android": "https://dc.lft.to/lastmile_qr_scan"}}, {"name": "ff11faed1870a4758961e997ec3bb570", "type": "electric_scooter", "lat": 38.9333705, "is_reserved": 0, "lon": -77.03280366666667, "fusion_lon": 0.0, "is_disabled": 0, "fusion_lat": 0.0, "bike_id": "ff11faed1870a4758961e997ec3bb570", "rental_uris": {"ios": "https://dc.lft.to/lastmile_qr_scan", "android": "https://dc.lft.to/lastmile_qr_scan"}}, {"name": "1b1b5fdb0dd8f41f5c12f7fd540fe9b0", "type": "electric_scooter", "lat": 38.86518683333333, "is_reserved": 0, "lon": -76.990297, "fusion_lon": 0.0, "is_disabled": 0, "fusion_lat": 0.0, "bike_id": "1b1b5fdb0dd8f41f5c12f7fd540fe9b0", "rental_uris": {"ios": "https://dc.lft.to/lastmile_qr_scan", "android": "https://dc.lft.to/lastmile_qr_scan"}}, {"name": "bd87be632db6c0352b6d7bd948959034", "type": "electric_scooter", "lat": 38.92868516666667, "is_reserved": 0, "lon": -77.01382466666666, "fusion_lon": 0.0, "is_disabled": 0, "fusion_lat": 0.0, "bike_id": "bd87be632db6c0352b6d7bd948959034", "rental_uris": {"ios": "https://dc.lft.to/lastmile_qr_scan", "android": "https://dc.lft.to/lastmile_qr_scan"}}, {"name": "af92236dc6ea8401d1a9f6e646ad00c1", "type": "electric_scooter", "lat": 38.93288583333333, "is_reserved": 0, "lon": -77.03977, "fusion_lon": 0.0, "is_disabled": 0, "fusion_lat": 0.0, "bike_id": "af92236dc6ea8401d1a9f6e646ad00c1", "rental_uris": {"ios": "https://dc.lft.to/lastmile_qr_scan", "android": "https://dc.lft.to/lastmile_qr_scan"}}, {"name": "e7d28761f623d0c7c0069eb25509d889", "type": "electric_scooter", "lat": 38.876270833333336, "is_reserved": 0, "lon": -76.96526533333333, "fusion_lon": 0.0, "is_disabled": 0, "fusion_lat": 0.0, "bike_id": "e7d28761f623d0c7c0069eb25509d889", "rental_uris": {"ios": "https://dc.lft.to/lastmile_qr_scan", "android": "https://dc.lft.to/lastmile_qr_scan"}}, {"name": "f232bbbfd69d60796b984f0133ac07b9", "type": "electric_scooter", "lat": 38.8923475, "is_reserved": 0, "lon": -77.015306, "fusion_lon": 0.0, "is_disabled": 0, "fusion_lat": 0.0, "bike_id": "f232bbbfd69d60796b984f0133ac07b9", "rental_uris": {"ios": "https://dc.lft.to/lastmile_qr_scan", "android": "https://dc.lft.to/lastmile_qr_scan"}}, {"name": "4cbc9625740aaba46b4b1c30870439a1", "type": "electric_scooter", "lat": 38.92771783333333, "is_reserved": 0, "lon": -77.0730125, "fusion_lon": 0.0, "is_disabled": 0, "fusion_lat": 0.0, "bike_id": "4cbc9625740aaba46b4b1c30870439a1", "rental_uris": {"ios": "https://dc.lft.to/lastmile_qr_scan", "android": "https://dc.lft.to/lastmile_qr_scan"}}, {"name": "0e5a90c78fa812afbc9bb6cb4965088e", "type": "electric_scooter", "lat": 38.895253833333335, "is_reserved": 0, "lon": -77.003391, "fusion_lon": 0.0, "is_disabled": 0, "fusion_lat": 0.0, "bike_id": "0e5a90c78fa812afbc9bb6cb4965088e", "rental_uris": {"ios": "https://dc.lft.to/lastmile_qr_scan", "android": "https://dc.lft.to/lastmile_qr_scan"}}, {"name": "3352ecece629570b2965ca961cecd458", "type": "electric_scooter", "lat": 38.92046833333333, "is_reserved": 0, "lon": -76.99821033333333, "fusion_lon": 0.0, "is_disabled": 0, "fusion_lat": 0.0, "bike_id": "3352ecece629570b2965ca961cecd458", "rental_uris": {"ios": "https://dc.lft.to/lastmile_qr_scan", "android": "https://dc.lft.to/lastmile_qr_scan"}}, {"name": "757979aee605700d289ba40b8ef2d518", "type": "electric_scooter", "lat": 38.91799533333333, "is_reserved": 0, "lon": -77.034313, "fusion_lon": 0.0, "is_disabled": 0, "fusion_lat": 0.0, "bike_id": "757979aee605700d289ba40b8ef2d518", "rental_uris": {"ios": "https://dc.lft.to/lastmile_qr_scan", "android": "https://dc.lft.to/lastmile_qr_scan"}}, {"name": "18dda137cf1d2c1fcb7dc75910098321", "type": "electric_bike", "lat": 38.87309116666667, "is_reserved": 0, "lon": -77.01090783333333, "fusion_lon": 0.0, "is_disabled": 0, "fusion_lat": 0.0, "bike_id": "18dda137cf1d2c1fcb7dc75910098321", "rental_uris": {"ios": "https://dc.lft.to/lastmile_qr_scan", "android": "https://dc.lft.to/lastmile_qr_scan"}}, {"name": "e4c12631cbdd1da8fe5106eeec697ee5", "type": "electric_scooter", "lat": 38.929521333333334, "is_reserved": 0, "lon": -77.0346575, "fusion_lon": 0.0, "is_disabled": 0, "fusion_lat": 0.0, "bike_id": "e4c12631cbdd1da8fe5106eeec697ee5", "rental_uris": {"ios": "https://dc.lft.to/lastmile_qr_scan", "android": "https://dc.lft.to/lastmile_qr_scan"}}, {"name": "a766f592c7ccf7f923f6d14dcb93c172", "type": "electric_scooter", "lat": 38.939511, "is_reserved": 0, "lon": -77.03267766666667, "fusion_lon": 0.0, "is_disabled": 0, "fusion_lat": 0.0, "bike_id": "a766f592c7ccf7f923f6d14dcb93c172", "rental_uris": {"ios": "https://dc.lft.to/lastmile_qr_scan", "android": "https://dc.lft.to/lastmile_qr_scan"}}, {"name": "b0e8fd5a017724fc045fb9ff513468f0", "type": "electric_bike", "lat": 38.99064933333333, "is_reserved": 0, "lon": -77.10027466666666, "fusion_lon": 0.0, "is_disabled": 0, "fusion_lat": 0.0, "bike_id": "b0e8fd5a017724fc045fb9ff513468f0", "rental_uris": {"ios": "https://dc.lft.to/lastmile_qr_scan", "android": "https://dc.lft.to/lastmile_qr_scan"}},