{"data": {"bikes": [{"rental_uris": {"android": "https://dc.lft.to/lastmile_qr_scan", "ios": "https://dc.lft.to/lastmile_qr_scan"}, "is_reserved": 0, "is_disabled": 0, "name": "07e260de9abb7ee65faa63e1adc2dc55", "bike_id": "07e260de9abb7ee65faa63e1adc2dc55", "fusion_lat": 0.0, "lon": -76.93186433333334, "type": "electric_scooter", "fusion_lon": 0.0, "lat": 38.8985855}, {"rental_uris": {"android": "https://dc.lft.to/lastmile_qr_scan", "ios": "https://dc.lft.to/lastmile_qr_scan"}, "is_reserved": 0, "is_disabled": 0, "name": "6ae9039b948729a49b713fbb5e70975d", "bike_id": "6ae9039b948729a49b713fbb5e70975d", "fusion_lat": 0.0, "lon": -77.01190466666667, "type": "electric_scooter", "fusion_lon": 0.0, "lat": 38.900125}, {"rental_uris": {"android": "https://dc.lft.to/lastmile_qr_scan", "ios": "https://dc.lft.to/lastmile_qr_scan"}, "is_reserved": 0, "is_disabled": 0, "name": "079a9f742720ee2bc119d1a64b64fbc9", "bike_id": "079a9f742720ee2bc119d1a64b64fbc9", "fusion_lat": 0.0, "lon": -77.06354366666666, "type": "electric_scooter", "fusion_lon": 0.0, "lat": 38.944405833333334}, {"rental_uris": {"android": "https://dc.lft.to/lastmile_qr_scan", "ios": "https://dc.lft.to/lastmile_qr_scan"}, "is_reserved": 0, "is_disabled": 0, "name": "88d210e98f5c20ce6ecca64248c0398b", "bike_id": "88d210e98f5c20ce6ecca64248c0398b", "fusion_lat": 0.0, "lon": -77.04293316666667, "type": "electric_scooter", "fusion_lon": 0.0, "lat": 38.9049015}, {"rental_uris": {"android": "https://dc.lft.to/lastmile_qr_scan", "ios": "https://dc.lft.to/lastmile_qr_scan"}, "is_reserved": 0, "is_disabled": 0, "name": "cd829df0cfeebd120f08404a3e16f463", "bike_id": "cd829df0cfeebd120f08404a3e16f463", "fusion_lat": 0.0, "lon": -77.05753183333333, "type": "electric_scooter", "fusion_lon": 0.0, "lat": 38.92447083333333}, {"rental_uris": {"android": "https://dc.lft.to/lastmile_qr_scan", "ios": "https://dc.lft.to/lastmile_qr_scan"}, "is_reserved": 0, "is_disabled": 0, "name": "79a1d7b76a428c916f8188896b9082a9", "bike_id": "79a1d7b76a428c916f8188896b9082a9", "fusion_lat": 0.0, "lon": -77.0628555, "type": "electric_scooter", "fusion_lon": 0.0, "lat": 38.96496633333334}, {"rental_uris": {"android": "https://dc.lft.to/lastmile_qr_scan", "ios": "https://dc.lft.to/lastmile_qr_scan"}, "is_reserved": 0, "is_disabled": 0, "name": "7ca256b37ea6843dcf25168c1e16e8c5", "bike_id": "7ca256b37ea6843dcf25168c1e16e8c5", "fusion_lat": 0.0, "lon": -77.02326483333333, "type": "electric_scooter", "fusion_lon": 0.0, "lat": 38.940151666666665}, {"rental_uris": {"android": "https://dc.lft.to/lastmile_qr_scan", "ios": "https://dc.lft.to/lastmile_qr_scan"}, "is_reserved": 0, "is_disabled": 0, "name": "e804e248929d9b064093a2867be99dc9", "bike_id": "e804e248929d9b064093a2867be99dc9", "fusion_lat": 0.0, "lon": -76.9963665, "type": "electric_scooter", "fusion_lon": 0.0, "lat": 38.905284}, {"rental_uris": {"android": "https://dc.lft.to/lastmile_qr_scan", "ios": "https://dc.lft.to/lastmile_qr_scan"}, "is_reserved": 0, "is_disabled": 0, "name": "9dd524ce3e70cb62f5819f89e6d0fc7f", "bike_id": "9dd524ce3e70cb62f5819f89e6d0fc7f", "fusion_lat": 0.0, "lon": -77.05000316666667, "type": "electric_scooter", "fusion_lon": 0.0, "lat": 38.90542266666667}, {"rental_uris": {"android": "https://dc.lft.to/lastmile_qr_scan", "ios": "https://dc.lft.to/lastmile_qr_scan"}, "is_reserved": 0, "is_disabled": 0, "name": "06da48548d2e652c6ea445d24743c348", "bike_id": "06da48548d2e652c6ea445d24743c348", "fusion_lat": 0.0, "lon": -77.03860566666667, "type": "electric_scooter", "fusion_lon": 0.0, "lat": 38.909631}, {"rental_uris": {"android": "https://dc.lft.to/lastmile_qr_scan", "ios": "https://dc.lft.to/lastmile_qr_scan"}, "is_reserved": 0, "is_disabled": 0, "name": "31e559463e7b3b4b3d4e5767241e7090", "bike_id": "31e559463e7b3b4b3d4e5767241e7090", "fusion_lat": 0.0, "lon": -77.01878666666667, "type": "electric_scooter", "fusion_lon": 0.0, "lat": 38.9056165}, {"rental_uris": {"android": "https://dc.lft.to/lastmile_qr_scan", "ios": "https://dc.lft.to/lastmile_qr_scan"}, "is_reserved": 0, "is_disabled": 0, "name": "74d355255e0774eb1125606672e52780", "bike_id": "74d355255e0774eb1125606672e52780", "fusion_lat": 0.0, "lon": -77.04000266666667, "type": "electric_scooter", "fusion_lon": 0.0, "lat": 38.934238}, {"rental_uris": {"android": "https://dc.lft.to/lastmile_qr_scan", "ios": "https://dc.lft.to/lastmile_qr_scan"}, "is_reserved": 0, "is_disabled": 0, "name": "1d439ccd1d49a806d690588b17efe7d1", "bike_id": "1d439ccd1d49a806d690588b17efe7d1", "fusion_lat": 0.0, "lon": -77.04184066666667, "type": "electric_scooter", "fusion_lon": 0.0, "lat": 38.92051083333333}, {"rental_uris": {"android": "https://dc.lft.to/lastmile_qr_scan", "ios": "https://dc.lft.to/lastmile_qr_scan"}, "is_reserved": 0, "is_disabled": 0, "name": "2572d3911142cc9076789420374267b9", "bike_id": "2572d3911142cc9076789420374267b9", "fusion_lat": 0.0, "lon": -76.93632733333334, "type": "electric_scooter", "fusion_lon": 0.0, "lat": 38.883449166666665}, {"rental_uris": {"android": "https://dc.lft.to/lastmile_qr_scan", "ios": "https://dc.lft.to/lastmile_qr_scan"}, "is_reserved": 0, "is_disabled": 0, "name": "368635aae584719dedd7b99b47c7a2c6", "bike_id": "368635aae584719dedd7b99b47c7a2c6", "fusion_lat": 0.0, "lon": -77.04168383333334, "type": "electric_scooter", "fusion_lon": 0.0, "lat": 38.90315416666667}, {"rental_uris": {"android": "https://dc.lft.to/lastmile_qr_scan", "ios": "https://dc.lft.to/lastmile_qr_scan"}, "is_reserved": 0, "is_disabled": 0, "name": "cc20db94a9933910f03fb32cd123482b", "bike_id": "cc20db94a9933910f03fb32cd123482b", "fusion_lat": 0.0, "lon": -77.00827716666667, "type": "electric_scooter", "fusion_lon": 0.0, "lat": 38.876105333333335}, {"rental_uris": {"android": "https://dc.lft.to/lastmile_qr_scan", "ios": "https://dc.lft.to/lastmile_qr_scan"}, "is_reserved": 0, "is_disabled": 0, "name": "57413d1fb4ed527d75dc6f8dd6c234cb", "bike_id": "57413d1fb4ed527d75dc6f8dd6c234cb", "fusion_lat": 0.0, "lon": -77.01450666666666, "type": "electric_scooter", "fusion_lon": 0.0, "lat": 38.874307333333334}, {"rental_uris": {"android": "https://dc.lft.to/lastmile_qr_scan", "ios": "https://dc.lft.to/lastmile_qr_scan"}, "is_reserved": 0, "is_disabled": 0, "name": "91407b014e3201dfa982fb073af61398", "bike_id": "91407b014e3201dfa982fb073af61398", "fusion_lat": 0.0, "lon": -76.99759433333334, "type": "electric_scooter", "fusion_lon": 0.0, "lat": 38.922662333333335}, {"rental_uris": {"android": "https://dc.lft.to/lastmile_qr_scan", "ios": "https://dc.lft.to/lastmile_qr_scan"}, "is_reserved": 0, "is_disabled": 0, "name": "3a5b68baef674ecdcac97e2b749f0e5d", "bike_id": "3a5b68baef674ecdcac97e2b749f0e5d", "fusion_lat": 0.0, "lon": -77.03842633333333, "type": "electric_scooter", "fusion_lon": 0.0, "lat": 38.902879666666664}, {"rental_uris": {"android": "https://dc.lft.to/lastmile_qr_scan", "ios": "https://dc.lft.to/lastmile_qr_scan"}, "is_reserved": 0, "is_disabled": 0, "name": "50a552f67c4a298d152b7c3e4481eeb4", "bike_id": "50a552f67c4a298d152b7c3e4481eeb4", "fusion_lat": 0.0, "lon": -77.024999, "type": "electric_scooter", "fusion_lon": 0.0, "lat": 38.89728233333334}, {"rental_uris": {"android": "https://dc.lft.to/lastmile_qr_scan", "ios": "https://dc.lft.to/lastmile_qr_scan"}, "is_reserved": 0, "is_disabled": 0, "name": "f269dd9d44e2babb27b17bcf3d99d1a1", "bike_id": "f269dd9d44e2babb27b17bcf3d99d1a1", "fusion_lat": 0.0, "lon": -77.04321783333333, "type": "electric_scooter", "fusion_lon": 0.0, "lat": 38.8922095}, {"rental_uris": {"android": "https://dc.lft.to/lastmile_qr_scan", "ios": "https://dc.lft.to/lastmile_qr_scan"}, "is_reserved": 0, "is_disabled": 0, "name": "f60008a8e3dd1f72de6aaea2bfd82c52", "bike_id": "f60008a8e3dd1f72de6aaea2bfd82c52", "fusion_lat": 0.0, "lon": -77.040509, "type": "electric_scooter", "fusion_lon": 0.0, "lat": 38.908801833333335}, {"rental_uris": {"android": "https://dc.lft.to/lastmile_qr_scan", "ios": "https://dc.lft.to/lastmile_qr_scan"}, "is_reserved": 0, "is_disabled": 0, "name": "56240195397b4fed8f51fd47604c7eb6", "bike_id": "56240195397b4fed8f51fd47604c7eb6", "fusion_lat": 0.0, "lon": -76.99377716666666, "type": "electric_bike", "fusion_lon": 0.0, "lat": 38.990961666666664}, {"rental_uris": {"android": "https://dc.lft.to/lastmile_qr_scan", "ios": "https://dc.lft.to/lastmile_qr_scan"}, "is_reserved": 0, "is_disabled": 0, "name": "4cdc4747f3160acf63b28b8d51de1991", "bike_id": "4cdc4747f3160acf63b28b8d51de1991", "fusion_lat": 0.0, "lon": -77.06698183333333, "type": "electric_bike", "fusion_lon": 0.0, "lat": 38.83169316666667}, {"rental_uris": {"android": "https://dc.lft.to/lastmile_qr_scan", "ios": "https://dc.lft.to/lastmile_qr_scan"}, "is_reserved": 0, "is_disabled": 0, "name": "31fe5963f1c44e68213966efffa97432", "bike_id": "31fe5963f1c44e68213966efffa97432", "fusion_lat": 0.0, "lon": -77.02086633333333, "type": "electric_scooter", "fusion_lon": 0.0, "lat": 38.92241683333334}, {"rental_uris": {"android": "https://dc.lft.to/lastmile_qr_scan", "ios": "https://dc.lft.to/lastmile_qr_scan"}, "is_reserved": 0, "is_disabled": 0, "name": "c4a18749ca7171f1d863917e74f7820a", "bike_id": "c4a18749ca7171f1d863917e74f7820a", "fusion_lat": 0.0, "lon": -77.00571333333333, "type": "electric_scooter", "fusion_lon": 0.0, "lat": 38.876530833333334}, {"rental_uris": {"android": "https://dc.lft.to/lastmile_qr_scan", "ios": "https://dc.lft.to/lastmile_qr_scan"}, "is_reserved": 0, "is_disabled": 0, "name": "e557b5e653592e016320ae8eda82a22c", "bike_id": "e557b5e653592e016320ae8eda82a22c", "fusion_lat": 0.0, "lon": -77.02519916666667, "type": "electric_scooter", "fusion_lon": 0.0, "lat": 38.92096033333333}, {"rental_uris": {"android": "https://dc.lft.to/lastmile_qr_scan", "ios": "https://dc.lft.to/lastmile_qr_scan"}, "is_reserved": 0, "is_disabled": 0, "name": "c0f9cc8230f5b6ac56d0c4e04c3c737b", "bike_id": "c0f9cc8230f5b6ac56d0c4e04c3c737b", "fusion_lat": 0.0, "lon": -77.02221933333334, "type": "electric_scooter", "fusion_lon": 0.0, "lat": 38.900804}, {"rental_uris": {"android": "https://dc.lft.to/lastmile_qr_scan", "ios": "https://dc.lft.to/lastmile_qr_scan"}, "is_reserved": 0, "is_disabled": 0, "name": "cf75d9181f031b968b46df7f099c9cd2", "bike_id": "cf75d9181f031b968b46df7f099c9cd2", "fusion_lat": 0.0, "lon": -77.02385766666667, "type": "electric_scooter", "fusion_lon": 0.0, "lat": 38.909652666666666}, {"rental_uris": {"android": "https://dc.lft.to/lastmile_qr_scan", "ios": "https://dc.lft.to/lastmile_qr_scan"}, "is_reserved": 0, "is_disabled": 0, "name": "1039a7809da5d0b6dbf05ca500f30efe", "bike_id": "1039a7809da5d0b6dbf05ca500f30efe", "fusion_lat": 0.0, "lon": -77.02550316666667, "type": "electric_scooter", "fusion_lon": 0.0, "lat": 38.9700375}, {"rental_uris": {"android": "https://dc.lft.to/lastmile_qr_scan", "ios": "https://dc.lft.to/lastmile_qr_scan"}, "is_reserved": 0, "is_disabled": 0, "name": "f36399b52be7ea17a984ca2de1866517", "bike_id": "f36399b52be7ea17a984ca2de1866517", "fusion_lat": 0.0, "lon": -77.0346005, "type": "electric_scooter", "fusion_lon": 0.0, "lat": 38.928725}, {"rental_uris": {"android": "https://dc.lft.to/lastmile_qr_scan", "ios": "https://dc.lft.to/lastmile_qr_scan"}, "is_reserved": 0, "is_disabled": 0, "name": "e444fdc0843010a0c122afc61c29f902", "bike_id": "e444fdc0843010a0c122afc61c29f902", "fusion_lat": 0.0, "lon": -77.0728005, "type": "electric_scooter", "fusion_lon": 0.0, "lat": 38.93472466666667}, {"rental_uris": {"android": "https://dc.lft.to/lastmile_qr_scan", "ios": "https://dc.lft.to/lastmile_qr_scan"}, "is_reserved": 0, "is_disabled": 0, "name": "c2a1457879fa5b56f79560493e8a4439", "bike_id": "c2a1457879fa5b56f79560493e8a4439", "fusion_lat": 0.0, "lon": -76.99862816666666, "type": "electric_scooter", "fusion_lon": 0.0, "lat": 38.90020416666667}, {"rental_uris": {"android": "https://dc.lft.to/lastmile_qr_scan", "ios": "https://dc.lft.to/lastmile_qr_scan"}, "is_reserved": 0, "is_disabled": 0, "name": "3993d4d80a9f8d00c2fcb383672ca321", "bike_id": "3993d4d80a9f8d00c2fcb383672ca321", "fusion_lat": 0.0, "lon": -77.038543, "type": "electric_scooter", "fusion_lon": 0.0, "lat": 38.91719283333333}, {"rental_uris": {"android": "https://dc.lft.to/lastmile_qr_scan", "ios": "https://dc.lft.to/lastmile_qr_scan"}, "is_reserved": 0, "is_disabled": 0, "name": "4251f7f5e20dcd471cd1870e092141b7", "bike_id": "4251f7f5e20dcd471cd1870e092141b7", "fusion_lat": 0.0, "lon": -77.02715366666666, "type": "electric_scooter", "fusion_lon": 0.0, "lat": 38.92462616666667}, {"rental_uris": {"android": "https://dc.lft.to/lastmile_qr_scan", "ios": "https://dc.lft.to/lastmile_qr_scan"}, "is_reserved": 0, "is_disabled": 0, "name": "451eb27098d03a904030d40111b76eaa", "bike_id": "451eb27098d03a904030d40111b76eaa", "fusion_lat": 0.0, "lon": -77.03851, "type": "electric_scooter", "fusion_lon": 0.0, "lat": 38.916628}, {"rental_uris": {"android": "https://dc.lft.to/lastmile_qr_scan", "ios": "https://dc.lft.to/lastmile_qr_scan"}, "is_reserved": 0, "is_disabled": 0, "name": "f5ca7292d2f731d630ad1d433cc6f7ce", "bike_id": "f5ca7292d2f731d630ad1d433cc6f7ce", "fusion_lat": 0.0, "lon": -77.04564133333334, "type": "electric_scooter", "fusion_lon": 0.0, "lat": 38.903822166666664}, {"rental_uris": {"android": "https://dc.lft.to/lastmile_qr_scan", "ios": "https://dc.lft.to/lastmile_qr_scan"}, "is_reserved": 0, "is_disabled": 0, "name": "846c15f544b951de962d7e9f672f426a", "bike_id": "846c15f544b951de962d7e9f672f426a", "fusion_lat": 0.0, "lon": -77.00218, "type": "electric_scooter", "fusion_lon": 0.0, "lat": 38.908688166666664}, {"rental_uris": {"android": "https://dc.lft.to/lastmile_qr_scan", "ios": "https://dc.lft.to/lastmile_qr_scan"}, "is_reserved": 0, "is_disabled": 0, "name": "25a55a1c96ec36c03f18af13fb204e9e", "bike_id": "25a55a1c96ec36c03f18af13fb204e9e", "fusion_lat": 0.0, "lon": -77.014538, "type": "electric_scooter", "fusion_lon": 0.0, "lat": 38.907183833333335}, {"rental_uris": {"android": "https://dc.lft.to/lastmile_qr_scan", "ios": "https://dc.lft.to/lastmile_qr_scan"}, "is_reserved": 0, "is_disabled": 0, "name": "6c6ad44faaf4f7a425c284c561329296", "bike_id": "6c6ad44faaf4f7a425c284c561329296", "fusion_lat": 0.0, "lon": -77.01512716666667, "type": "electric_scooter", "fusion_lon": 0.0, "lat": 38.87287333333333}, {"rental_uris": {"android": "https://dc.lft.to/lastmile_qr_scan", "ios": "https://dc.lft.to/lastmile_qr_scan"}, "is_reserved": 0, "is_disabled": 0, "name": "e6c251931450d82cb2eaf45ec509015e", "bike_id": "e6c251931450d82cb2eaf45ec509015e", "fusion_lat": 0.0, "lon": -77.04362816666666, "type": "electric_scooter", "fusion_lon": 0.0, "lat": 38.92236883333333}, {"rental_uris": {"android": "https://dc.lft.to/lastmile_qr_scan", "ios": "https://dc.lft.to/lastmile_qr_scan"}, "is_reserved": 0, "is_disabled": 0, "name": "b2339b7438f3b8eba4b10f75b7f4f8bc", "bike_id": "b2339b7438f3b8eba4b10f75b7f4f8bc", "fusion_lat": 0.0, "lon": -77.00888983333333, "type": "electric_scooter", "fusion_lon": 0.0, "lat": 38.924679}, {"rental_uris": {"android": "https://dc.lft.to/lastmile_qr_scan", "ios": "https://dc.lft.to/lastmile_qr_scan"}, "is_reserved": 0, "is_disabled": 0, "name": "9321f41b1fd3fd7e4ac834c3a1bb683b", "bike_id": "9321f41b1fd3fd7e4ac834c3a1bb683b", "fusion_lat": 0.0, "lon": -77.01726566666666, "type": "electric_scooter", "fusion_lon": 0.0, "lat": 38.97495816666667}, {"rental_uris": {"android": "https://dc.lft.to/lastmile_qr_scan", "ios": "https://dc.lft.to/lastmile_qr_scan"}, "is_reserved": 0, "is_disabled": 0, "name": "6999ca6988c254167a96ab0c28f6a024", "bike_id": "6999ca6988c254167a96ab0c28f6a024", "fusion_lat": 0.0, "lon": -77.0318785, "type": "electric_scooter", "fusion_lon": 0.0, "lat": 38.91024433333333}, {"rental_uris": {"android": "https://dc.lft.to/lastmile_qr_scan", "ios": "https://dc.lft.to/lastmile_qr_scan"}, "is_reserved": 0, "is_disabled": 0, "name": "409f0189a526f0d02daf5eb463d676ac", "bike_id": "409f0189a526f0d02daf5eb463d676ac", "fusion_lat": 0.0, "lon": -77.0968605, "type": "electric_bike", "fusion_lon": 0.0, "lat": 38.8073855}, {"rental_uris": {"android": "https://dc.lft.to/lastmile_qr_scan", "ios": "https://dc.lft.to/lastmile_qr_scan"}, "is_reserved": 0, "is_disabled": 0, "name": "1999cb70620b34bf9374becdfcecd62e", "bike_id": "1999cb70620b34bf9374becdfcecd62e", "fusion_lat": 0.0, "lon": -77.03756133333333, "type": "electric_scooter", "fusion_lon": 0.0, "lat": 38.912616}, {"rental_uris": {"android": "https://dc.lft.to/lastmile_qr_scan", "ios": "https://dc.lft.to/lastmile_qr_scan"}, "is_reserved": 0, "is_disabled": 0, "name": "b9f7afd3cc817a80bbe0343669dc4140", "bike_id": "b9f7afd3cc817a80bbe0343669dc4140", "fusion_lat": 0.0, "lon": -77.04281816666666, "type": "electric_scooter", "fusion_lon": 0.0, "lat": 38.907202833333336}, {"rental_uris": {"android": "https://dc.lft.to/lastmile_qr_scan", "ios": "https://dc.lft.to/lastmile_qr_scan"}, "is_reserved": 0, "is_disabled": 0, "name": "09dca901e0c97b31aca70dca431626ee", "bike_id": "09dca901e0c97b31aca70dca431626ee", "fusion_lat": 0.0, "lon": -77.04491983333334, "type": "electric_scooter", "fusion_lon": 0.0, "lat": 38.907142666666665}, {"rental_uris": {"android": "https://dc.lft.to/lastmile_qr_scan", "ios": "https://dc.lft.to/lastmile_qr_scan"}, "is_reserved": 0, "is_disabled": 0, "name": "095affe0f7aeaa2ea028d88ffc7f61e3", "bike_id": "095affe0f7aeaa2ea028d88ffc7f61e3", "fusion_lat": 0.0, "lon": -76.985128, "type": "electric_scooter", "fusion_lon": 0.0, "lat": 38.900464666666664}, {"rental_uris": {"android": "https://dc.lft.to/lastmile_qr_scan", "ios": "https://dc.lft.to/lastmile_qr_scan"}, "is_reserved": 0, "is_disabled": 0, "name": "2b0aba5068f868bedd6059cc54f06d8f", "bike_id": "2b0aba5068f868bedd6059cc54f06d8f", "fusion_lat": 0.0, "lon": -76.94874583333333, "type": "electric_scooter", "fusion_lon": 0.0, "lat": 38.894981666666666}, {"rental_uris": {"android": "https://dc.lft.to/lastmile_qr_scan", "ios": "https://dc.lft.to/lastmile_qr_scan"}, "is_reserved": 0, "is_disabled": 0, "name": "2f5e6414244670f9395b41bdd6c55690", "bike_id": "2f5e6414244670f9395b41bdd6c55690", "fusion_lat": 0.0, "lon": -77.03871083333334, "type": "electric_scooter", "fusion_lon": 0.0, "lat": 38.91711183333334}, {"rental_uris": {"android": "https://dc.lft.to/lastmile_qr_scan", "ios": "https://dc.lft.to/lastmile_qr_scan"}, "is_reserved": 0, "is_disabled": 0, "name": "0a093fba81c20c03949858e11a2033c5", "bike_id": "0a093fba81c20c03949858e11a2033c5", "fusion_lat": 0.0, "lon": -77.23387533333333, "type": "electric_bike", "fusion_lon": 0.0, "lat": 38.871756833333336}, {"rental_uris": {"android": "https://dc.lft.to/lastmile_qr_scan", "ios": "https://dc.lft.to/lastmile_qr_scan"}, "is_reserved": 0, "is_disabled": 0, "name": "6bd9c2842cbb9e787e155c1edd2608cd", "bike_id": "6bd9c2842cbb9e787e155c1edd2608cd", "fusion_lat": 0.0, "lon": -77.00611316666667, "type": "electric_scooter", "fusion_lon": 0.0, "lat": 38.8753745}, {"rental_uris": {"android": "https://dc.lft.to/lastmile_qr_scan", "ios": "https://dc.lft.to/lastmile_qr_scan"}, "is_reserved": 0, "is_disabled": 0, "name": "29ec86555592dfbe9d901794c71cb053", "bike_id": "29ec86555592dfbe9d901794c71cb053", "fusion_lat": 0.0, "lon": -77.01946466666666, "type": "electric_scooter", "fusion_lon": 0.0, "lat": 38.92441383333333}, {"rental_uris": {"android": "https://dc.lft.to/lastmile_qr_scan", "ios": "https://dc.lft.to/lastmile_qr_scan"}, "is_reserved": 0, "is_disabled": 0, "name": "6e0deda6425fb25ec1b51ca04faebf9e", "bike_id": "6e0deda6425fb25ec1b51ca04faebf9e", "fusion_lat": 0.0, "lon": -77.04243016666666, "type": "electric_scooter", "fusion_lon": 0.0, "lat": 38.9205245}, {"rental_uris": {"android": "https://dc.lft.to/lastmile_qr_scan", "ios": "https://dc.lft.to/lastmile_qr_scan"}, "is_reserved": 0, "is_disabled": 0, "name": "5889e1731ae3d4f0117c88e1a2f41ccc", "bike_id": "5889e1731ae3d4f0117c88e1a2f41ccc", "fusion_lat": 0.0, "lon": -76.98434383333333, "type": "electric_bike", "fusion_lon": 0.0, "lat": 38.8551835}, {"rental_uris": {"android": "https://dc.lft.to/lastmile_qr_scan", "ios": "https://dc.lft.to/lastmile_qr_scan"}, "is_reserved": 0, "is_disabled": 0, "name": "c76015df7ec1667565931ffa09d67246", "bike_id": "c76015df7ec1667565931ffa09d67246", "fusion_lat": 0.0, "lon": -77.07450133333333, "type": "electric_scooter", "fusion_lon": 0.0, "lat": 38.93781583333333}, {"rental_uris": {"android": "https://dc.lft.to/lastmile_qr_scan", "ios": "https://dc.lft.to/lastmile_qr_scan"}, "is_reserved": 0, "is_disabled": 0, "name": "d9493e4d262a4e5a47fdb28cf7ad2178", "bike_id": "d9493e4d262a4e5a47fdb28cf7ad2178", "fusion_lat": 0.0, "lon": -77.02459733333333, "type": "electric_scooter", "fusion_lon": 0.0, "lat": 38.938153666666665}, {"rental_uris": {"android": "https://dc.lft.to/lastmile_qr_scan", "ios": "https://dc.lft.to/lastmile_qr_scan"}, "is_reserved": 0, "is_disabled": 0, "name": "4ca6d187bf25a89c4697d426dfa00d15", "bike_id": "4ca6d187bf25a89c4697d426dfa00d15", "fusion_lat": 0.0, "lon": -77.03976833333333, "type": "electric_scooter", "fusion_lon": 0.0, "lat": 38.90126083333333}, {"rental_uris": {"android": "https://dc.lft.to/lastmile_qr_scan", "ios": "https://dc.lft.to/lastmile_qr_scan"}, "is_reserved": 0, "is_disabled": 0, "name": "d4c7ca17a403608405452f72ba7e46e9", "bike_id": "d4c7ca17a403608405452f72ba7e46e9", "fusion_lat": 0.0, "lon": -77.01958083333334, "type": "electric_scooter", "fusion_lon": 0.0, "lat": 38.923240166666666}, {"rental_uris": {"android": "https://dc.lft.to/lastmile_qr_scan", "ios": "https://dc.lft.to/lastmile_qr_scan"}, "is_reserved": 0, "is_disabled": 0, "name": "2f83b00979031266aeaca8d0eff7f7c9", "bike_id": "2f83b00979031266aeaca8d0eff7f7c9", "fusion_lat": 0.0, "lon": -77.01360066666666, "type": "electric_scooter", "fusion_lon": 0.0, "lat": 38.928721333333336}, {"rental_uris": {"android": "https://dc.lft.to/lastmile_qr_scan", "ios": "https://dc.lft.to/lastmile_qr_scan"}, "is_reserved": 0, "is_disabled": 0, "name": "cee21d9efbce07c94ec4d0e53771b608", "bike_id": "cee21d9efbce07c94ec4d0e53771b608", "fusion_lat": 0.0, "lon": -76.98838066666667, "type": "electric_scooter", "fusion_lon": 0.0, "lat": 38.900399666666665}, {"rental_uris": {"android": "https://dc.lft.to/lastmile_qr_scan", "ios": "https://dc.lft.to/lastmile_qr_scan"}, "is_reserved": 0, "is_disabled": 0, "name": "556c7db2c85a145609e23931d078ee71", "bike_id": "556c7db2c85a145609e23931d078ee71", "fusion_lat": 0.0, "lon": -77.04336166666667, "type": "electric_scooter", "fusion_lon": 0.0, "lat": 38.923159166666665}, {"rental_uris": {"android": "https://dc.lft.to/lastmile_qr_scan", "ios": "https://dc.lft.to/lastmile_qr_scan"}, "is_reserved": 0, "is_disabled": 0, "name": "141fbaaa9fc87120cade818e8b998c71", "bike_id": "141fbaaa9fc87120cade818e8b998c71", "fusion_lat": 0.0, "lon": -77.01866166666667, "type": "electric_scooter", "fusion_lon": 0.0, "lat": 38.929111666666664}, {"rental_uris": {"android": "https://dc.lft.to/lastmile_qr_scan", "ios": "https://dc.lft.to/lastmile_qr_scan"}, "is_reserved": 0, "is_disabled": 0, "name": "3ac6f9ff0be87f614744623cf8a95c05", "bike_id": "3ac6f9ff0be87f614744623cf8a95c05", "fusion_lat": 0.0, "lon": -77.04304833333333, "type": "electric_bike", "fusion_lon": 0.0, "lat": 39.034284666666665}, {"rental_uris": {"android": "https://dc.lft.to/lastmile_qr_scan", "ios": "https://dc.lft.to/lastmile_qr_scan"}, "is_reserved": 0, "is_disabled": 0, "name": "2801c74fc03c28bfd9122539979318d0", "bike_id": "2801c74fc03c28bfd9122539979318d0", "fusion_lat": 0.0, "lon": -77.05288583333333, "type": "electric_scooter", "fusion_lon": 0.0, "lat": 38.910130333333335}, {"rental_uris": {"android": "https://dc.lft.to/lastmile_qr_scan", "ios": "https://dc.lft.to/lastmile_qr_scan"}, "is_reserved": 0, "is_disabled": 0, "name": "872339732cb1490a6de473a59f6d325f", "bike_id": "872339732cb1490a6de473a59f6d325f", "fusion_lat": 0.0, "lon": -77.028061, "type": "electric_scooter", "fusion_lon": 0.0, "lat": 38.910409333333334}, {"rental_uris": {"android": "https://dc.lft.to/lastmile_qr_scan", "ios": "https://dc.lft.to/lastmile_qr_scan"}, "is_reserved": 0, "is_disabled": 0, "name": "d83138d31757e6a817793ffa710d77a5", "bike_id": "d83138d31757e6a817793ffa710d77a5", "fusion_lat": 0.0, "lon": -76.973029, "type": "electric_scooter", "fusion_lon": 0.0, "lat": 38.919874}, {"rental_uris": {"android": "https://dc.lft.to/lastmile_qr_scan", "ios": "https://dc.lft.to/lastmile_qr_scan"}, "is_reserved": 0, "is_disabled": 0, "name": "70ed6af2a5acceba267adb1d9f3060d8", "bike_id": "70ed6af2a5acceba267adb1d9f3060d8", "fusion_lat": 0.0, "lon": -77.02489316666667, "type": "electric_scooter", "fusion_lon": 0.0, "lat": 38.920701666666666}, {"rental_uris": {"android": "https://dc.lft.to/lastmile_qr_scan", "ios": "https://dc.lft.to/lastmile_qr_scan"}, "is_reserved": 0, "is_disabled": 0, "name": "0141c07148d3dc883f097935067da9c5", "bike_id": "0141c07148d3dc883f097935067da9c5", "fusion_lat": 0.0, "lon": -77.03641066666667, "type": "electric_scooter", "fusion_lon": 0.0, "lat": 38.913406333333334}, {"rental_uris": {"android": "https://dc.lft.to/lastmile_qr_scan", "ios": "https://dc.lft.to/lastmile_qr_scan"}, "is_reserved": 0, "is_disabled": 0, "name": "a013f8c9535ddf39771d1e9c7e402f54", "bike_id": "a013f8c9535ddf39771d1e9c7e402f54", "fusion_lat": 0.0, "lon": -77.01758483333333, "type": "electric_scooter", "fusion_lon": 0.0, "lat": 38.87686516666667}, {"rental_uris": {"android": "https://dc.lft.to/lastmile_qr_scan", "ios": "https://dc.lft.to/lastmile_qr_scan"}, "is_reserved": 0, "is_disabled": 0, "name": "cfe2778496e55d9cc7fbe19dd354c944", "bike_id": "cfe2778496e55d9cc7fbe19dd354c944", "fusion_lat": 0.0, "lon": -77.00364283333333, "type": "electric_scooter", "fusion_lon": 0.0, "lat": 38.915494}, {"rental_uris": {"android": "https://dc.lft.to/lastmile_qr_scan", "ios": "https://dc.lft.to/lastmile_qr_scan"}, "is_reserved": 0, "is_disabled": 0, "name": "f23aee93c1691cee66e05e83323399b5", "bike_id": "f23aee93c1691cee66e05e83323399b5", "fusion_lat": 0.0, "lon": -76.99067883333333, "type": "electric_bike", "fusion_lon": 0.0, "lat": 38.94258983333334}, {"rental_uris": {"android": "https://dc.lft.to/lastmile_qr_scan", "ios": "https://dc.lft.to/lastmile_qr_scan"}, "is_reserved": 0, "is_disabled": 0, "name": "3706c4adb7699b796d09365643daeb06", "bike_id": "3706c4adb7699b796d09365643daeb06", "fusion_lat": 0.0, "lon": -77.0062575, "type": "electric_scooter", "fusion_lon": 0.0, "lat": 38.871746333333334}, {"rental_uris": {"android": "https://dc.lft.to/lastmile_qr_scan", "ios": "https://dc.lft.to/lastmile_qr_scan"}, "is_reserved": 0, "is_disabled": 0, "name": "e7827af9cb8b2aa3e0c14306ad400c4d", "bike_id": "e7827af9cb8b2aa3e0c14306ad400c4d", "fusion_lat": 0.0, "lon": -77.04814333333333, "type": "electric_scooter", "fusion_lon": 0.0, "lat": 38.910401666666665}, {"rental_uris": {"android": "https://dc.lft.to/lastmile_qr_scan", "ios": "https://dc.lft.to/lastmile_qr_scan"}, "is_reserved": 0, "is_disabled": 0, "name": "e2452c5e49a74512402e0c34ee4dbc36", "bike_id": "e2452c5e49a74512402e0c34ee4dbc36", "fusion_lat": 0.0, "lon": -76.95531283333334, "type": "electric_scooter", "fusion_lon": 0.0, "lat": 38.88781}, {"rental_uris": {"android": "https://dc.lft.to/lastmile_qr_scan", "ios": "https://dc.lft.to/lastmile_qr_scan"}, "is_reserved": 0, "is_disabled": 0, "name": "7f4365c0aa06f8af9c2233581eca0be5", "bike_id": "7f4365c0aa06f8af9c2233581eca0be5", "fusion_lat": 0.0, "lon": -77.03696483333333, "type": "electric_scooter", "fusion_lon": 0.0, "lat": 38.926300166666664}, {"rental_uris": {"android": "https://dc.lft.to/lastmile_qr_scan", "ios": "https://dc.lft.to/lastmile_qr_scan"}, "is_reserved": 0, "is_disabled": 0, "name": "bc6f2604b3ae14b2498bda492ed30413", "bike_id": "bc6f2604b3ae14b2498bda492ed30413", "fusion_lat": 0.0, "lon": -77.02654966666667, "type": "electric_scooter", "fusion_lon": 0.0, "lat": 38.93097366666667}, {"rental_uris": {"android": "https://dc.lft.to/lastmile_qr_scan", "ios": "https://dc.lft.to/lastmile_qr_scan"}, "is_reserved": 0, "is_disabled": 0, "name": "92e76c680d27af943704ed6d00a08be2", "bike_id": "92e76c680d27af943704ed6d00a08be2", "fusion_lat": 0.0, "lon": -77.01661066666666, "type": "electric_scooter", "fusion_lon": 0.0, "lat": 38.942068}, {"rental_uris": {"android": "https://dc.lft.to/lastmile_qr_scan", "ios": "https://dc.lft.to/lastmile_qr_scan"}, "is_reserved": 0, "is_disabled": 0, "name": "54ad67726de353d4c6fe2eb19738686f", "bike_id": "54ad67726de353d4c6fe2eb19738686f", "fusion_lat": 0.0, "lon": -77.07032233333334, "type": "electric_bike", "fusion_lon": 0.0, "lat": 38.905259}, {"rental_uris": {"android": "https://dc.lft.to/lastmile_qr_scan", "ios": "https://dc.lft.to/lastmile_qr_scan"}, "is_reserved": 0, "is_disabled": 0, "name": "b5b950a220c721cb621d72baa39b4077", "bike_id": "b5b950a220c721cb621d72baa39b4077", "fusion_lat": 0.0, "lon": -77.04427583333333, "type": "electric_scooter", "fusion_lon": 0.0, "lat": 38.90573366666667}, {"rental_uris": {"android": "https://dc.lft.to/lastmile_qr_scan", "ios": "https://dc.lft.to/lastmile_qr_scan"}, "is_reserved": 0, "is_disabled": 0, "name": "11dbae98c53c1e011353d68fa7d092ad", "bike_id": "11dbae98c53c1e011353d68fa7d092ad", "fusion_lat": 0.0, "lon": -77.00341533333334, "type": "electric_scooter", "fusion_lon": 0.0, "lat": 38.876683166666666}, {"rental_uris": {"android": "https://dc.lft.to/lastmile_qr_scan", "ios": "https://dc.lft.to/lastmile_qr_scan"}, "is_reserved": 0, "is_disabled": 0, "name": "950f42e130cefe4e5c13e341fad7969f", "bike_id": "950f42e130cefe4e5c13e341fad7969f", "fusion_lat": 0.0, "lon": -76.99947383333334, "type": "electric_scooter", "fusion_lon": 0.0, "lat": 38.9071075}, {"rental_uris": {"android": "https://dc.lft.to/lastmile_qr_scan", "ios": "https://dc.lft.to/lastmile_qr_scan"}, "is_reserved": 0, "is_disabled": 0, "name": "edd350e9c6b2213bfb6936b04a88c395", "bike_id": "edd350e9c6b2213bfb6936b04a88c395", "fusion_lat": 0.0, "lon": -77.04640883333333, "type": "electric_scooter", "fusion_lon": 0.0, "lat": 38.89222516666667}, {"rental_uris": {"android": "https://dc.lft.to/lastmile_qr_scan", "ios": "https://dc.lft.to/lastmile_qr_scan"}, "is_reserved": 0, "is_disabled": 0, "name": "1c6e1f67824c3daee33c3d6058347160", "bike_id": "1c6e1f67824c3daee33c3d6058347160", "fusion_lat": 0.0, "lon": -77.02567833333333, "type": "electric_scooter", "fusion_lon": 0.0, "lat": 38.9418695}, {"rental_uris": {"android": "https://dc.lft.to/lastmile_qr_scan", "ios": "https://dc.lft.to/lastmile_qr_scan"}, "is_reserved": 0, "is_disabled": 0, "name": "df982030258d1d3809bf33f5f3e32403", "bike_id": "df982030258d1d3809bf33f5f3e32403", "fusion_lat": 0.0, "lon": -77.00408816666666, "type": "electric_bike", "fusion_lon": 0.0, "lat": 38.985416}, {"rental_uris": {"android": "https://dc.lft.to/lastmile_qr_scan", "ios": "https://dc.lft.to/lastmile_qr_scan"}, "is_reserved": 0, "is_disabled": 0, "name": "564ce0c4c06314178f33d2214b11c961", "bike_id": "564ce0c4c06314178f33d2214b11c961", "fusion_lat": 0.0, "lon": -76.93210333333333, "type": "electric_scooter", "fusion_lon": 0.0, "lat": 38.8967115}, {"rental_uris": {"android": "https://dc.lft.to/lastmile_qr_scan", "ios": "https://dc.lft.to/lastmile_qr_scan"}, "is_reserved": 0, "is_disabled": 0, "name": "181c0fade7979449cc2050a24549b6e0", "bike_id": "181c0fade7979449cc2050a24549b6e0", "fusion_lat": 0.0, "lon": -76.990952, "type": "electric_bike", "fusion_lon": 0.0, "lat": 38.80482266666667}, {"rental_uris": {"android": "https://dc.lft.to/lastmile_qr_scan", "ios": "https://dc.lft.to/lastmile_qr_scan"}, "is_reserved": 0, "is_disabled": 0, "name": "271cdc21abf120fbb0fd3393f7757e8e", "bike_id": "271cdc21abf120fbb0fd3393f7757e8e", "fusion_lat": 0.0, "lon": -76.98631466666667, "type": "electric_scooter", "fusion_lon": 0.0, "lat": 38.88040133333333}, {"rental_uris": {"android": "https://dc.lft.to/lastmile_qr_scan", "ios": "https://dc.lft.to/lastmile_qr_scan"}, "is_reserved": 0, "is_disabled": 0, "name": "2c86441809391a880a6be823a6cc7788", "bike_id": "2c86441809391a880a6be823a6cc7788", "fusion_lat": 0.0, "lon": -77.02783866666667, "type": "electric_scooter", "fusion_lon": 0.0, "lat": 38.962242}, {"rental_uris": {"android": "https://dc.lft.to/lastmile_qr_scan", "ios": "https://dc.lft.to/lastmile_qr_scan"}, "is_reserved": 0, "is_disabled": 0, "name": "b1b82bcfc01bcee433c37344563e07bd", "bike_id": "b1b82bcfc01bcee433c37344563e07bd", "fusion_lat": 0.0, "lon": -77.01104066666667, "type": "electric_scooter", "fusion_lon": 0.0, "lat": 38.8953015}, {"rental_uris": {"android": "https://dc.lft.to/lastmile_qr_scan", "ios": "https://dc.lft.to/lastmile_qr_scan"}, "is_reserved": 0, "is_disabled": 0, "name": "b91efb31c3ef2720c592916e84f70bc5", "bike_id": "b91efb31c3ef2720c592916e84f70bc5", "fusion_lat": 0.0, "lon": -77.08021133333334, "type": "electric_bike", "fusion_lon": 0.0, "lat": 38.95773966666667}, {"rental_uris": {"android": "https://dc.lft.to/lastmile_qr_scan", "ios": "https://dc.lft.to/lastmile_qr_scan"}, "is_reserved": 0, "is_disabled": 0, "name": "c6e58a3fbca1e18cc7df64890d71e219", "bike_id": "c6e58a3fbca1e18cc7df64890d71e219", "fusion_lat": 0.0, "lon": -77.00714183333334, "type": "electric_bike", "fusion_lon": 0.0, "lat": 38.94598083333333}, {"rental_uris": {"android": "https://dc.lft.to/lastmile_qr_scan", "ios": "https://dc.lft.to/lastmile_qr_scan"}, "is_reserved": 0, "is_disabled": 0, "name": "683a0143d5a412cc2ed9c3a715ef6eab", "bike_id": "683a0143d5a412cc2ed9c3a715ef6eab", "fusion_lat": 0.0, "lon": -76.98690233333333, "type": "electric_bike", "fusion_lon": 0.0, "lat": 38.94470066666667}, {"rental_uris": {"android": "https://dc.lft.to/lastmile_qr_scan", "ios": "https://dc.lft.to/lastmile_qr_scan"}, "is_reserved": 0, "is_disabled": 0, "name": "ca6e1f6f8c088018aa33a2f99282e189", "bike_id": "ca6e1f6f8c088018aa33a2f99282e189", "fusion_lat": 0.0, "lon": -77.051184, "type": "electric_scooter", "fusion_lon": 0.0, "lat": 38.92342433333334}, {"rental_uris": {"android": "https://dc.lft.to/lastmile_qr_scan", "ios": "https://dc.lft.to/lastmile_qr_scan"}, "is_reserved": 0, "is_disabled": 0, "name": "21e3f328b72778fcb20a1e440dc13151", "bike_id": "21e3f328b72778fcb20a1e440dc13151", "fusion_lat": 0.0, "lon": -77.09818733333333, "type": "electric_bike", "fusion_lon": 0.0, "lat": 38.850142166666664}, {"rental_uris": {"android": "https://dc.lft.to/lastmile_qr_scan", "ios": "https://dc.lft.to/lastmile_qr_scan"}, "is_reserved": 0, "is_disabled": 0, "name": "5b1d3a6d782981c8a54ea698e2f9cf6e", "bike_id": "5b1d3a6d782981c8a54ea698e2f9cf6e", "fusion_lat": 0.0, "lon": -77.03316516666666, "type": "electric_scooter", "fusion_lon": 0.0, "lat": 38.92165966666666}, {"rental_uris": {"android": "https://dc.lft.to/lastmile_qr_scan", "ios": "https://dc.lft.to/lastmile_qr_scan"}, "is_reserved": 0, "is_disabled": 0, "name": "507cdf48b4f5c881b490e2101d568fc1", "bike_id": "507cdf48b4f5c881b490e2101d568fc1", "fusion_lat": 0.0, "lon": -77.03379666666666, "type": "electric_scooter", "fusion_lon": 0.0, "lat": 38.921495}, {"rental_uris": {"android": "https://dc.lft.to/lastmile_qr_scan", "ios": "https://dc.lft.to/lastmile_qr_scan"}, "is_reserved": 0, "is_disabled": 0, "name": "b003333bb762195a6aa47539c849e651", "bike_id": "b003333bb762195a6aa47539c849e651", "fusion_lat": 0.0, "lon": -77.04274116666667, "type": "electric_scooter", "fusion_lon": 0.0, "lat": 38.917797166666666}, {"rental_uris": {"android": "https://dc.lft.to/lastmile_qr_scan", "ios": "https://dc.lft.to/lastmile_qr_scan"}, "is_reserved": 0, "is_disabled": 0, "name": "b47f5ff4a29192aedebd006039dd6241", "bike_id": "b47f5ff4a29192aedebd006039dd6241", "fusion_lat": 0.0, "lon": -77.04525333333333, "type": "electric_scooter", "fusion_lon": 0.0, "lat": 38.89954}, {"rental_uris": {"android": "https://dc.lft.to/lastmile_qr_scan", "ios": "https://dc.lft.to/lastmile_qr_scan"}, "is_reserved": 0, "is_disabled": 0, "name": "facb0265105451a93142d4d734f85bea", "bike_id": "facb0265105451a93142d4d734f85bea", "fusion_lat": 0.0, "lon": -77.01312716666666, "type": "electric_scooter", "fusion_lon": 0.0, "lat": 38.897433666666664}, {"rental_uris": {"android": "https://dc.lft.to/lastmile_qr_scan", "ios": "https://dc.lft.to/lastmile_qr_scan"}, "is_reserved": 0, "is_disabled": 0, "name": "e6fc9193eee49a52b0e5b3c59dcf98af", "bike_id": "e6fc9193eee49a52b0e5b3c59dcf98af", "fusion_lat": 0.0, "lon": -77.036579, "type": "electric_scooter", "fusion_lon": 0.0, "lat": 38.93598133333333}, {"rental_uris": {"android": "https://dc.lft.to/lastmile_qr_scan", "ios": "https://dc.lft.to/lastmile_qr_scan"}, "is_reserved": 0, "is_disabled": 0, "name": "e0ec8a0e9d05b18e50af890facda0dbf", "bike_id": "e0ec8a0e9d05b18e50af890facda0dbf", "fusion_lat": 0.0, "lon": -76.98617183333333, "type": "electric_scooter", "fusion_lon": 0.0, "lat": 38.907245333333336}, {"rental_uris": {"android": "https://dc.lft.to/lastmile_qr_scan", "ios": "https://dc.lft.to/lastmile_qr_scan"}, "is_reserved": 0, "is_disabled": 0, "name": "0b18fbe85c0414ec871e65c0d924b9d8", "bike_id": "0b18fbe85c0414ec871e65c0d924b9d8", "fusion_lat": 0.0, "lon": -77.02469466666666, "type": "electric_scooter", "fusion_lon": 0.0, "lat": 38.89746933333333}, {"rental_uris": {"android": "https://dc.lft.to/lastmile_qr_scan", "ios": "https://dc.lft.to/lastmile_qr_scan"}, "is_reserved": 0, "is_disabled": 0, "name": "570abcf796352d9a6edbb0d1954a3795", "bike_id": "570abcf796352d9a6edbb0d1954a3795", "fusion_lat": 0.0, "lon": -77.02292733333333, "type": "electric_scooter", "fusion_lon": 0.0, "lat": 38.9178365}, {"rental_uris": {"android": "https://dc.lft.to/lastmile_qr_scan", "ios": "https://dc.lft.to/lastmile_qr_scan"}, "is_reserved": 0, "is_disabled": 0, "name": "f871cc8eae4451bc2edba10d045fd903", "bike_id": "f871cc8eae4451bc2edba10d045fd903", "fusion_lat": 0.0, "lon": -77.034829, "type": "electric_scooter", "fusion_lon": 0.0, "lat": 38.924797166666664}, {"rental_uris": {"android": "https://dc.lft.to/lastmile_qr_scan", "ios": "https://dc.lft.to/lastmile_qr_scan"}, "is_reserved": 0, "is_disabled": 0, "name": "7192b7912750fb5256e896853b9f67d0", "bike_id": "7192b7912750fb5256e896853b9f67d0", "fusion_lat": 0.0, "lon": -77.01897483333333, "type": "electric_scooter", "fusion_lon": 0.0, "lat": 38.9172665}, {"rental_uris": {"android": "https://dc.lft.to/lastmile_qr_scan", "ios": "https://dc.lft.to/lastmile_qr_scan"}, "is_reserved": 0, "is_disabled": 0, "name": "c1a0389219c4480d9e1c8b1203c41ffa", "bike_id": "c1a0389219c4480d9e1c8b1203c41ffa", "fusion_lat": 0.0, "lon": -77.0447325, "type": "electric_scooter", "fusion_lon": 0.0, "lat": 38.901110333333335}, {"rental_uris": {"android": "https://dc.lft.to/lastmile_qr_scan", "ios": "https://dc.lft.to/lastmile_qr_scan"}, "is_reserved": 0, "is_disabled": 0, "name": "e42e969936ae3a2f88161cd60357636c", "bike_id": "e42e969936ae3a2f88161cd60357636c", "fusion_lat": 0.0, "lon": -77.04756483333334, "type": "electric_scooter", "fusion_lon": 0.0, "lat": 38.9007875}, {"rental_uris": {"android": "https://dc.lft.to/lastmile_qr_scan", "ios": "https://dc.lft.to/lastmile_qr_scan"}, "is_reserved": 0, "is_disabled": 0, "name": "03cf045953fbda834e681408a30f66f5", "bike_id": "03cf045953fbda834e681408a30f66f5", "fusion_lat": 0.0, "lon": -77.0733135, "type": "electric_scooter", "fusion_lon": 0.0, "lat": 38.92605866666667}, {"rental_uris": {"android": "https://dc.lft.to/lastmile_qr_scan", "ios": "https://dc.lft.to/lastmile_qr_scan"}, "is_reserved": 0, "is_disabled": 0, "name": "ddc9cba733c4651b726ad46b4e1ea34e", "bike_id": "ddc9cba733c4651b726ad46b4e1ea34e", "fusion_lat": 0.0, "lon": -77.00770033333333, "type": "electric_scooter", "fusion_lon": 0.0, "lat": 38.92668283333333}, {"rental_uris": {"android": "https://dc.lft.to/lastmile_qr_scan", "ios": "https://dc.lft.to/lastmile_qr_scan"}, "is_reserved": 0, "is_disabled": 0, "name": "d26d558b39db5d1406f06bbc0c889d48", "bike_id": "d26d558b39db5d1406f06bbc0c889d48", "fusion_lat": 0.0, "lon": -76.95062366666667, "type": "electric_bike", "fusion_lon": 0.0, "lat": 39.085097166666664}, {"rental_uris": {"android": "https://dc.lft.to/lastmile_qr_scan", "ios": "https://dc.lft.to/lastmile_qr_scan"}, "is_reserved": 0, "is_disabled": 0, "name": "8f312b3cccc0ab836a6b327b8a700d08", "bike_id": "8f312b3cccc0ab836a6b327b8a700d08", "fusion_lat": 0.0, "lon": -77.01564783333333, "type": "electric_scooter", "fusion_lon": 0.0, "lat": 38.88327116666667}, {"rental_uris": {"android": "https://dc.lft.to/lastmile_qr_scan", "ios": "https://dc.lft.to/lastmile_qr_scan"}, "is_reserved": 0, "is_disabled": 0, "name": "1c6239b9bb9119d575093c5a876aaca2", "bike_id": "1c6239b9bb9119d575093c5a876aaca2", "fusion_lat": 0.0, "lon": -77.02792533333333, "type": "electric_scooter", "fusion_lon": 0.0, "lat": 38.961308}, {"rental_uris": {"android": "https://dc.lft.to/lastmile_qr_scan", "ios": "https://dc.lft.to/lastmile_qr_scan"}, "is_reserved": 0, "is_disabled": 0, "name": "cb8c8565a4787faeca9552ef3e7a1be2", "bike_id": "cb8c8565a4787faeca9552ef3e7a1be2", "fusion_lat": 0.0, "lon": -77.053396, "type": "electric_scooter", "fusion_lon": 0.0, "lat": 38.906413666666666}, {"rental_uris": {"android": "https://dc.lft.to/lastmile_qr_scan", "ios": "https://dc.lft.to/lastmile_qr_scan"}, "is_reserved": 0, "is_disabled": 0, "name": "4c04913a83ee2af106d3aa6190950cd4", "bike_id": "4c04913a83ee2af106d3aa6190950cd4", "fusion_lat": 0.0, "lon": -76.9465195, "type": "electric_scooter", "fusion_lon": 0.0, "lat": 38.898255}, {"rental_uris": {"android": "https://dc.lft.to/lastmile_qr_scan", "ios": "https://dc.lft.to/lastmile_qr_scan"}, "is_reserved": 0, "is_disabled": 0, "name": "f5f8d4db0b2bf78d1674a5929eb5e12a", "bike_id": "f5f8d4db0b2bf78d1674a5929eb5e12a", "fusion_lat": 0.0, "lon": -77.02194466666667, "type": "electric_scooter", "fusion_lon": 0.0, "lat": 38.924800833333336}, {"rental_uris": {"android": "https://dc.lft.to/lastmile_qr_scan", "ios": "https://dc.lft.to/lastmile_qr_scan"}, "is_reserved": 0, "is_disabled": 0, "name": "278eb0f9412a7eddde146571a7ab18a2", "bike_id": "278eb0f9412a7eddde146571a7ab18a2", "fusion_lat": 0.0, "lon": -77.02149166666666, "type": "electric_scooter", "fusion_lon": 0.0, "lat": 38.941323833333335}, {"rental_uris": {"android": "https://dc.lft.to/lastmile_qr_scan", "ios": "https://dc.lft.to/lastmile_qr_scan"}, "is_reserved": 0, "is_disabled": 0, "name": "6f1fcd21d75e61b09407f057551c6b52", "bike_id": "6f1fcd21d75e61b09407f057551c6b52", "fusion_lat": 0.0, "lon": -77.04680683333333, "type": "electric_scooter", "fusion_lon": 0.0, "lat": 38.89222083333333}, {"rental_uris": {"android": "https://dc.lft.to/lastmile_qr_scan", "ios": "https://dc.lft.to/lastmile_qr_scan"}, "is_reserved": 0, "is_disabled": 0, "name": "92382e08c62f5b19147902f4acd82146", "bike_id": "92382e08c62f5b19147902f4acd82146", "fusion_lat": 0.0, "lon": -77.04690666666667, "type": "electric_scooter", "fusion_lon": 0.0, "lat": 38.896035833333336}, {"rental_uris": {"android": "https://dc.lft.to/lastmile_qr_scan", "ios": "https://dc.lft.to/lastmile_qr_scan"}, "is_reserved": 0, "is_disabled": 0, "name": "fa358d491b22e537fdd9aed7d66d7381", "bike_id": "fa358d491b22e537fdd9aed7d66d7381", "fusion_lat": 0.0, "lon": -77.023829, "type": "electric_scooter", "fusion_lon": 0.0, "lat": 38.915640833333335}, {"rental_uris": {"android": "https://dc.lft.to/lastmile_qr_scan", "ios": "https://dc.lft.to/lastmile_qr_scan"}, "is_reserved": 0, "is_disabled": 0, "name": "25b49f5252d33755561ed92ef271fc74", "bike_id": "25b49f5252d33755561ed92ef271fc74", "fusion_lat": 0.0, "lon": -77.02803016666667, "type": "electric_scooter", "fusion_lon": 0.0, "lat": 38.89228716666667}, {"rental_uris": {"android": "https://dc.lft.to/lastmile_qr_scan", "ios": "https://dc.lft.to/lastmile_qr_scan"}, "is_reserved": 0, "is_disabled": 0, "name": "14a3611618d8252beb8f0d34fa41a506", "bike_id": "14a3611618d8252beb8f0d34fa41a506", "fusion_lat": 0.0, "lon": -77.09099933333333, "type": "electric_scooter", "fusion_lon": 0.0, "lat": 38.93096083333333}, {"rental_uris": {"android": "https://dc.lft.to/lastmile_qr_scan", "ios": "https://dc.lft.to/lastmile_qr_scan"}, "is_reserved": 0, "is_disabled": 0, "name": "291e9038136e6c79892ff952428c8d0f", "bike_id": "291e9038136e6c79892ff952428c8d0f", "fusion_lat": 0.0, "lon": -77.02130133333333, "type": "electric_scooter", "fusion_lon": 0.0, "lat": 38.89953966666667}, {"rental_uris": {"android": "https://dc.lft.to/lastmile_qr_scan", "ios": "https://dc.lft.to/lastmile_qr_scan"}, "is_reserved": 0, "is_disabled": 0, "name": "7e3618f94a3cd7bb4e4c4795dfb08231", "bike_id": "7e3618f94a3cd7bb4e4c4795dfb08231", "fusion_lat": 0.0, "lon": -76.9911935, "type": "electric_scooter", "fusion_lon": 0.0, "lat": 38.91010883333333}, {"rental_uris": {"android": "https://dc.lft.to/lastmile_qr_scan", "ios": "https://dc.lft.to/lastmile_qr_scan"}, "is_reserved": 0, "is_disabled": 0, "name": "23c02089c2f6a7a17d712aeeab5899d6", "bike_id": "23c02089c2f6a7a17d712aeeab5899d6", "fusion_lat": 0.0, "lon": -77.03259283333334, "type": "electric_scooter", "fusion_lon": 0.0, "lat": 38.936876}, {"rental_uris": {"android": "https://dc.lft.to/lastmile_qr_scan", "ios": "https://dc.lft.to/lastmile_qr_scan"}, "is_reserved": 0, "is_disabled": 0, "name": "d2d48f75bc519e571e87c1f7e5d88430", "bike_id": "d2d48f75bc519e571e87c1f7e5d88430", "fusion_lat": 0.0, "lon": -77.02546966666667, "type": "electric_scooter", "fusion_lon": 0.0, "lat": 38.8994775}, {"rental_uris": {"android": "https://dc.lft.to/lastmile_qr_scan", "ios": "https://dc.lft.to/lastmile_qr_scan"}, "is_reserved": 0, "is_disabled": 0, "name": "2f8444d3b71f40b02bffa89a0a6bad75", "bike_id": "2f8444d3b71f40b02bffa89a0a6bad75", "fusion_lat": 0.0, "lon": -77.033648, "type": "electric_scooter", "fusion_lon": 0.0, "lat": 38.93579616666667}, {"rental_uris": {"android": "https://dc.lft.to/lastmile_qr_scan", "ios": "https://dc.lft.to/lastmile_qr_scan"}, "is_reserved": 0, "is_disabled": 0, "name": "17ec7c3f0743a0e7c7d4e931b0d0fdf7", "bike_id": "17ec7c3f0743a0e7c7d4e931b0d0fdf7", "fusion_lat": 0.0, "lon": -77.04517433333334, "type": "electric_scooter", "fusion_lon": 0.0, "lat": 38.912859833333336}, {"rental_uris": {"android": "https://dc.lft.to/lastmile_qr_scan", "ios": "https://dc.lft.to/lastmile_qr_scan"}, "is_reserved": 0, "is_disabled": 0, "name": "dc6bdf0179151ba3152c8e20eeec60d9", "bike_id": "dc6bdf0179151ba3152c8e20eeec60d9", "fusion_lat": 0.0, "lon": -77.03173116666666, "type": "electric_scooter", "fusion_lon": 0.0, "lat": 38.914183666666666}, {"rental_uris": {"android": "https://dc.lft.to/lastmile_qr_scan", "ios": "https://dc.lft.to/lastmile_qr_scan"}, "is_reserved": 0, "is_disabled": 0, "name": "fe94e38e1c6282581efd4fa5d6d6e8fd", "bike_id": "fe94e38e1c6282581efd4fa5d6d6e8fd", "fusion_lat": 0.0, "lon": -77.07635916666666, "type": "electric_bike", "fusion_lon": 0.0, "lat": 38.8646335}, {"rental_uris": {"android": "https://dc.lft.to/lastmile_qr_scan", "ios": "https://dc.lft.to/lastmile_qr_scan"}, "is_reserved": 0, "is_disabled": 0, "name": "8620e3e7fa73c16c90699d7275417c84", "bike_id": "8620e3e7fa73c16c90699d7275417c84", "fusion_lat": 0.0, "lon": -77.085316, "type": "electric_bike", "fusion_lon": 0.0, "lat": 38.856474}, {"rental_uris": {"android": "https://dc.lft.to/lastmile_qr_scan", "ios": "https://dc.lft.to/lastmile_qr_scan"}, "is_reserved": 0, "is_disabled": 0, "name": "9b6484ae3adb60b959a570180d8542b6", "bike_id": "9b6484ae3adb60b959a570180d8542b6", "fusion_lat": 0.0, "lon": -77.040347, "type": "electric_scooter", "fusion_lon": 0.0, "lat": 38.9184015}, {"rental_uris": {"android": "https://dc.lft.to/lastmile_qr_scan", "ios": "https://dc.lft.to/lastmile_qr_scan"}, "is_reserved": 0, "is_disabled": 0, "name": "2f94a2832228e7d10c5b8488be521a8c", "bike_id": "2f94a2832228e7d10c5b8488be521a8c", "fusion_lat": 0.0, "lon": -77.00614966666667, "type": "electric_scooter", "fusion_lon": 0.0, "lat": 38.90579816666666}, {"rental_uris": {"android": "https://dc.lft.to/lastmile_qr_scan", "ios": "https://dc.lft.to/lastmile_qr_scan"}, "is_reserved": 0, "is_disabled": 0, "name": "e36aa10045057165b8909a6e67c70766", "bike_id": "e36aa10045057165b8909a6e67c70766", "fusion_lat": 0.0, "lon": -77.06801716666666, "type": "electric_scooter", "fusion_lon": 0.0, "lat": 38.91559433333333}, {"rental_uris": {"android": "https://dc.lft.to/lastmile_qr_scan", "ios": "https://dc.lft.to/lastmile_qr_scan"}, "is_reserved": 0, "is_disabled": 0, "name": "3f0a5cc3d2e5f3365336804d8f313654", "bike_id": "3f0a5cc3d2e5f3365336804d8f313654", "fusion_lat": 0.0, "lon": -77.0221915, "type": "electric_scooter", "fusion_lon": 0.0, "lat": 38.899775}, {"rental_uris": {"android": "https://dc.lft.to/lastmile_qr_scan", "ios": "https://dc.lft.to/lastmile_qr_scan"}, "is_reserved": 0, "is_disabled": 0, "name": "a27d10ba086efa6b494ea490fa12caf2", "bike_id": "a27d10ba086efa6b494ea490fa12caf2", "fusion_lat": 0.0, "lon": -77.04476133333333, "type": "electric_scooter", "fusion_lon": 0.0, "lat": 38.91115883333333}, {"rental_uris": {"android": "https://dc.lft.to/lastmile_qr_scan", "ios": "https://dc.lft.to/lastmile_qr_scan"}, "is_reserved": 0, "is_disabled": 0, "name": "2752f62c40268f644ddb8c3bd2c90649", "bike_id": "2752f62c40268f644ddb8c3bd2c90649", "fusion_lat": 0.0, "lon": -76.95448233333333, "type": "electric_scooter", "fusion_lon": 0.0, "lat": 38.883904}, {"rental_uris": {"android": "https://dc.lft.to/lastmile_qr_scan", "ios": "https://dc.lft.to/lastmile_qr_scan"}, "is_reserved": 0, "is_disabled": 0, "name": "bb0dd7d23c6008c92ffbe1677158165e", "bike_id": "bb0dd7d23c6008c92ffbe1677158165e", "fusion_lat": 0.0, "lon": -76.987047, "type": "electric_scooter", "fusion_lon": 0.0, "lat": 38.859657166666665}, {"rental_uris": {"android": "https://dc.lft.to/lastmile_qr_scan", "ios": "https://dc.lft.to/lastmile_qr_scan"}, "is_reserved": 0, "is_disabled": 0, "name": "f1afbb9b74cb743091ba4fbf874d65c0", "bike_id": "f1afbb9b74cb743091ba4fbf874d65c0", "fusion_lat": 0.0, "lon": -77.02845233333333, "type": "electric_scooter", "fusion_lon": 0.0, "lat": 38.932732}, {"rental_uris": {"android": "https://dc.lft.to/lastmile_qr_scan", "ios": "https://dc.lft.to/lastmile_qr_scan"}, "is_reserved": 0, "is_disabled": 0, "name": "53a7b5a50e058059e0af4c6f2dc4d948", "bike_id": "53a7b5a50e058059e0af4c6f2dc4d948", "fusion_lat": 0.0, "lon": -77.04705633333333, "type": "electric_bike", "fusion_lon": 0.0, "lat": 38.916742666666664}, {"rental_uris": {"android": "https://dc.lft.to/lastmile_qr_scan", "ios": "https://dc.lft.to/lastmile_qr_scan"}, "is_reserved": 0, "is_disabled": 0, "name": "0e31c4e0953b927b16be3caaa5c92d8b", "bike_id": "0e31c4e0953b927b16be3caaa5c92d8b", "fusion_lat": 0.0, "lon": -77.03619183333333, "type": "electric_scooter", "fusion_lon": 0.0, "lat": 38.92333216666667}, {"rental_uris": {"android": "https://dc.lft.to/lastmile_qr_scan", "ios": "https://dc.lft.to/lastmile_qr_scan"}, "is_reserved": 0, "is_disabled": 0, "name": "341d33db298f99eb315fb62ae1b6746e", "bike_id": "341d33db298f99eb315fb62ae1b6746e", "fusion_lat": 0.0, "lon": -77.02973183333333, "type": "electric_scooter", "fusion_lon": 0.0, "lat": 38.91880866666666}, {"rental_uris": {"android": "https://dc.lft.to/lastmile_qr_scan", "ios": "https://dc.lft.to/lastmile_qr_scan"}, "is_reserved": 0, "is_disabled": 0, "name": "74e5c2cc6f1ac7406aa7659e6cbaddc7", "bike_id": "74e5c2cc6f1ac7406aa7659e6cbaddc7", "fusion_lat": 0.0, "lon": -77.0240895, "type": "electric_scooter", "fusion_lon": 0.0, "lat": 38.89637416666667}, {"rental_uris": {"android": "https://dc.lft.to/lastmile_qr_scan", "ios": "https://dc.lft.to/lastmile_qr_scan"}, "is_reserved": 0, "is_disabled": 0, "name": "26bef701de888d0f84e911e046703200", "bike_id": "26bef701de888d0f84e911e046703200", "fusion_lat": 0.0, "lon": -77.02416266666667, "type": "electric_scooter", "fusion_lon": 0.0, "lat": 38.926543333333335}, {"rental_uris": {"android": "https://dc.lft.to/lastmile_qr_scan", "ios": "https://dc.lft.to/lastmile_qr_scan"}, "is_reserved": 0, "is_disabled": 0, "name": "84e11f1ca575262d7b910a9e131ec31a", "bike_id": "84e11f1ca575262d7b910a9e131ec31a", "fusion_lat": 0.0, "lon": -77.03165283333334, "type": "electric_scooter", "fusion_lon": 0.0, "lat": 38.89220383333333}, {"rental_uris": {"android": "https://dc.lft.to/lastmile_qr_scan", "ios": "https://dc.lft.to/lastmile_qr_scan"}, "is_reserved": 0, "is_disabled": 0, "name": "6fe7bc6fbe01d5d87cb460e07b5e6464", "bike_id": "6fe7bc6fbe01d5d87cb460e07b5e6464", "fusion_lat": 0.0, "lon": -77.04327383333333, "type": "electric_scooter", "fusion_lon": 0.0, "lat": 38.892217}, {"rental_uris": {"android": "https://dc.lft.to/lastmile_qr_scan", "ios": "https://dc.lft.to/lastmile_qr_scan"}, "is_reserved": 0, "is_disabled": 0, "name": "f22a4d0373e8d6b9d9859591d90bc511", "bike_id": "f22a4d0373e8d6b9d9859591d90bc511", "fusion_lat": 0.0, "lon": -77.0216815, "type": "electric_scooter", "fusion_lon": 0.0, "lat": 38.92490216666667}, {"rental_uris": {"android": "https://dc.lft.to/lastmile_qr_scan", "ios": "https://dc.lft.to/lastmile_qr_scan"}, "is_reserved": 0, "is_disabled": 0, "name": "9781dc337ae7fdf5ee0be503d13e8ae5", "bike_id": "9781dc337ae7fdf5ee0be503d13e8ae5", "fusion_lat": 0.0, "lon": -77.0145085, "type": "electric_scooter", "fusion_lon": 0.0, "lat": 38.91773833333333}, {"rental_uris": {"android": "https://dc.lft.to/lastmile_qr_scan", "ios": "https://dc.lft.to/lastmile_qr_scan"}, "is_reserved": 0, "is_disabled": 0, "name": "6acd693853096e415821e739e8a33557", "bike_id": "6acd693853096e415821e739e8a33557", "fusion_lat": 0.0, "lon": -77.0020365, "type": "electric_scooter", "fusion_lon": 0.0, "lat": 38.902376333333336}, {"rental_uris": {"android": "https://dc.lft.to/lastmile_qr_scan", "ios": "https://dc.lft.to/lastmile_qr_scan"}, "is_reserved": 0, "is_disabled": 0, "name": "0d897e5aa33805fbe47ede3c08556904", "bike_id": "0d897e5aa33805fbe47ede3c08556904", "fusion_lat": 0.0, "lon": -77.03545983333333, "type": "electric_scooter", "fusion_lon": 0.0, "lat": 38.923519666666664}, {"rental_uris": {"android": "https://dc.lft.to/lastmile_qr_scan", "ios": "https://dc.lft.to/lastmile_qr_scan"}, "is_reserved": 0, "is_disabled": 0, "name": "b009c83bfa8ba2eca00b81b3b9b00796", "bike_id": "b009c83bfa8ba2eca00b81b3b9b00796", "fusion_lat": 0.0, "lon": -77.018441, "type": "electric_scooter", "fusion_lon": 0.0, "lat": 38.909579666666666}, {"rental_uris": {"android": "https://dc.lft.to/lastmile_qr_scan", "ios": "https://dc.lft.to/lastmile_qr_scan"}, "is_reserved": 0, "is_disabled": 0, "name": "e32f7ffe4a9cf6c3ac4e8f648a0c7711", "bike_id": "e32f7ffe4a9cf6c3ac4e8f648a0c7711", "fusion_lat": 0.0, "lon": -77.03618183333333, "type": "electric_scooter", "fusion_lon": 0.0, "lat": 38.937372333333336}, {"rental_uris": {"android": "https://dc.lft.to/lastmile_qr_scan", "ios": "https://dc.lft.to/lastmile_qr_scan"}, "is_reserved": 0, "is_disabled": 0, "name": "e43a6aa9ffd489cea9f0c74f7bbe0f6d", "bike_id": "e43a6aa9ffd489cea9f0c74f7bbe0f6d", "fusion_lat": 0.0, "lon": -77.02709283333333, "type": "electric_scooter", "fusion_lon": 0.0, "lat": 38.90671966666667}, {"rental_uris": {"android": "https://dc.lft.to/lastmile_qr_scan", "ios": "https://dc.lft.to/lastmile_qr_scan"}, "is_reserved": 0, "is_disabled": 0, "name": "91cb5152c0ed9ec52752bc28bcc649d3", "bike_id": "91cb5152c0ed9ec52752bc28bcc649d3", "fusion_lat": 0.0, "lon": -77.02812083333333, "type": "electric_scooter", "fusion_lon": 0.0, "lat": 38.881799}, {"rental_uris": {"android": "https://dc.lft.to/lastmile_qr_scan", "ios": "https://dc.lft.to/lastmile_qr_scan"}, "is_reserved": 0, "is_disabled": 0, "name": "95e2d842e8bbb48bf1e7f7232be142ce", "bike_id": "95e2d842e8bbb48bf1e7f7232be142ce", "fusion_lat": 0.0, "lon": -77.00476283333333, "type": "electric_scooter", "fusion_lon": 0.0, "lat": 38.91148}, {"rental_uris": {"android": "https://dc.lft.to/lastmile_qr_scan", "ios": "https://dc.lft.to/lastmile_qr_scan"}, "is_reserved": 0, "is_disabled": 0, "name": "3fabc04b84cc5763af908ea404bddc4f", "bike_id": "3fabc04b84cc5763af908ea404bddc4f", "fusion_lat": 0.0, "lon": -77.04060933333334, "type": "electric_scooter", "fusion_lon": 0.0, "lat": 38.901454666666666}, {"rental_uris": {"android": "https://dc.lft.to/lastmile_qr_scan", "ios": "https://dc.lft.to/lastmile_qr_scan"}, "is_reserved": 0, "is_disabled": 0, "name": "da75b593e52478dfb70ce4d580e3d42c", "bike_id": "da75b593e52478dfb70ce4d580e3d42c", "fusion_lat": 0.0, "lon": -77.08535416666666, "type": "electric_bike", "fusion_lon": 0.0, "lat": 38.8566445}, {"rental_uris": {"android": "https://dc.lft.to/lastmile_qr_scan", "ios": "https://dc.lft.to/lastmile_qr_scan"}, "is_reserved": 0, "is_disabled": 0, "name": "de58ca3e939885eb37805afe8c4e1368", "bike_id": "de58ca3e939885eb37805afe8c4e1368", "fusion_lat": 0.0, "lon": -77.03444316666666, "type": "electric_scooter", "fusion_lon": 0.0, "lat": 38.9222555}, {"rental_uris": {"android": "https://dc.lft.to/lastmile_qr_scan", "ios": "https://dc.lft.to/lastmile_qr_scan"}, "is_reserved": 0, "is_disabled": 0, "name": "35c9c117be4fba7133a1be5170442a5a", "bike_id": "35c9c117be4fba7133a1be5170442a5a", "fusion_lat": 0.0, "lon": -77.04476883333334, "type": "electric_scooter", "fusion_lon": 0.0, "lat": 38.89906383333334}, {"rental_uris": {"android": "https://dc.lft.to/lastmile_qr_scan", "ios": "https://dc.lft.to/lastmile_qr_scan"}, "is_reserved": 0, "is_disabled": 0, "name": "91de0b566c67c48244eb46bbf6736b6e", "bike_id": "91de0b566c67c48244eb46bbf6736b6e", "fusion_lat": 0.0, "lon": -76.9731555, "type": "electric_bike", "fusion_lon": 0.0, "lat": 38.8650465}, {"rental_uris": {"android": "https://dc.lft.to/lastmile_qr_scan", "ios": "https://dc.lft.to/lastmile_qr_scan"}, "is_reserved": 0, "is_disabled": 0, "name": "54ca4f086922a1fb40b587312087044c", "bike_id": "54ca4f086922a1fb40b587312087044c", "fusion_lat": 0.0, "lon": -77.0307205, "type": "electric_scooter", "fusion_lon": 0.0, "lat": 38.8996085}, {"rental_uris": {"android": "https://dc.lft.to/lastmile_qr_scan", "ios": "https://dc.lft.to/lastmile_qr_scan"}, "is_reserved": 0, "is_disabled": 0, "name": "eaaae05af761a3009b2b5a07f309176f", "bike_id": "eaaae05af761a3009b2b5a07f309176f", "fusion_lat": 0.0, "lon": -77.00212133333333, "type": "electric_scooter", "fusion_lon": 0.0, "lat": 38.9002055}, {"rental_uris": {"android": "https://dc.lft.to/lastmile_qr_scan", "ios": "https://dc.lft.to/lastmile_qr_scan"}, "is_reserved": 0, "is_disabled": 0, "name": "e3d06a2da6da1227f3c65ced4902e079", "bike_id": "e3d06a2da6da1227f3c65ced4902e079", "fusion_lat": 0.0, "lon": -77.001498, "type": "electric_scooter", "fusion_lon": 0.0, "lat": 38.9074215}, {"rental_uris": {"android": "https://dc.lft.to/lastmile_qr_scan", "ios": "https://dc.lft.to/lastmile_qr_scan"}, "is_reserved": 0, "is_disabled": 0, "name": "356dfccc22d46b627d5f3adbbf4a7b2a", "bike_id": "356dfccc22d46b627d5f3adbbf4a7b2a", "fusion_lat": 0.0, "lon": -77.02131566666667, "type": "electric_scooter", "fusion_lon": 0.0, "lat": 38.922704833333334}, {"rental_uris": {"android": "https://dc.lft.to/lastmile_qr_scan", "ios": "https://dc.lft.to/lastmile_qr_scan"}, "is_reserved": 0, "is_disabled": 0, "name": "6e5fb2a96b28a201d593faa21a324b43", "bike_id": "6e5fb2a96b28a201d593faa21a324b43", "fusion_lat": 0.0, "lon": -77.031624, "type": "electric_scooter", "fusion_lon": 0.0, "lat": 38.929724}, {"rental_uris": {"android": "https://dc.lft.to/lastmile_qr_scan", "ios": "https://dc.lft.to/lastmile_qr_scan"}, "is_reserved": 0, "is_disabled": 0, "name": "09fa880c6918a6bc7b32f6fb56f56130", "bike_id": "09fa880c6918a6bc7b32f6fb56f56130", "fusion_lat": 0.0, "lon": -77.03039783333334, "type": "electric_scooter", "fusion_lon": 0.0, "lat": 38.95085566666667}, {"rental_uris": {"android": "https://dc.lft.to/lastmile_qr_scan", "ios": "https://dc.lft.to/lastmile_qr_scan"}, "is_reserved": 0, "is_disabled": 0, "name": "610a5df9d0b227a2729857ada1cd399e", "bike_id": "610a5df9d0b227a2729857ada1cd399e", "fusion_lat": 0.0, "lon": -77.055132, "type": "electric_scooter", "fusion_lon": 0.0, "lat": 38.9283245}, {"rental_uris": {"android": "https://dc.lft.to/lastmile_qr_scan", "ios": "https://dc.lft.to/lastmile_qr_scan"}, "is_reserved": 0, "is_disabled": 0, "name": "4587d4fc6268951ba6cc28093cafde8e", "bike_id": "4587d4fc6268951ba6cc28093cafde8e", "fusion_lat": 0.0, "lon": -76.9671245, "type": "electric_scooter", "fusion_lon": 0.0, "lat": 38.859713}, {"rental_uris": {"android": "https://dc.lft.to/lastmile_qr_scan", "ios": "https://dc.lft.to/lastmile_qr_scan"}, "is_reserved": 0, "is_disabled": 0, "name": "04d98962e1a2192717219c8d442e8a7b", "bike_id": "04d98962e1a2192717219c8d442e8a7b", "fusion_lat": 0.0, "lon": -77.0423165, "type": "electric_scooter", "fusion_lon": 0.0, "lat": 38.93410816666667}, {"rental_uris": {"android": "https://dc.lft.to/lastmile_qr_scan", "ios": "https://dc.lft.to/lastmile_qr_scan"}, "is_reserved": 0, "is_disabled": 0, "name": "76b642e232a18bbb0b66cf867a8799c2", "bike_id": "76b642e232a18bbb0b66cf867a8799c2", "fusion_lat": 0.0, "lon": -77.003573, "type": "electric_scooter", "fusion_lon": 0.0, "lat": 38.876744}, {"rental_uris": {"android": "https://dc.lft.to/lastmile_qr_scan", "ios": "https://dc.lft.to/lastmile_qr_scan"}, "is_reserved": 0, "is_disabled": 0, "name": "44ff58380f238aa07f36dbf22104e007", "bike_id": "44ff58380f238aa07f36dbf22104e007", "fusion_lat": 0.0, "lon": -77.02184216666667, "type": "electric_scooter", "fusion_lon": 0.0, "lat": 38.887174}, {"rental_uris": {"android": "https://dc.lft.to/lastmile_qr_scan", "ios": "https://dc.lft.to/lastmile_qr_scan"}, "is_reserved": 0, "is_disabled": 0, "name": "73a99f9c4f22db48d82243ddf06b3bfd", "bike_id": "73a99f9c4f22db48d82243ddf06b3bfd", "fusion_lat": 0.0, "lon": -77.01863016666667, "type": "electric_scooter", "fusion_lon": 0.0, "lat": 38.97365}, {"rental_uris": {"android": "https://dc.lft.to/lastmile_qr_scan", "ios": "https://dc.lft.to/lastmile_qr_scan"}, "is_reserved": 0, "is_disabled": 0, "name": "1bb68c900abcc56de46d70566e885df0", "bike_id": "1bb68c900abcc56de46d70566e885df0", "fusion_lat": 0.0, "lon": -76.99543, "type": "electric_bike", "fusion_lon": 0.0, "lat": 38.95631066666667}, {"rental_uris": {"android": "https://dc.lft.to/lastmile_qr_scan", "ios": "https://dc.lft.to/lastmile_qr_scan"}, "is_reserved": 0, "is_disabled": 0, "name": "144d120b9971e2818580942390939e06", "bike_id": "144d120b9971e2818580942390939e06", "fusion_lat": 0.0, "lon": -77.02573716666667, "type": "electric_scooter", "fusion_lon": 0.0, "lat": 38.912594}, {"rental_uris": {"android": "https://dc.lft.to/lastmile_qr_scan", "ios": "https://dc.lft.to/lastmile_qr_scan"}, "is_reserved": 0, "is_disabled": 0, "name": "0aaf81fe8889212cafe0db8bb5197908", "bike_id": "0aaf81fe8889212cafe0db8bb5197908", "fusion_lat": 0.0, "lon": -77.02772166666666, "type": "electric_scooter", "fusion_lon": 0.0, "lat": 38.934095666666664}, {"rental_uris": {"android": "https://dc.lft.to/lastmile_qr_scan", "ios": "https://dc.lft.to/lastmile_qr_scan"}, "is_reserved": 0, "is_disabled": 0, "name": "7072997fef567447e0d63cc28c4c8cc7", "bike_id": "7072997fef567447e0d63cc28c4c8cc7", "fusion_lat": 0.0, "lon": -77.03050133333333, "type": "electric_scooter", "fusion_lon": 0.0, "lat": 38.9237065}, {"rental_uris": {"android": "https://dc.lft.to/lastmile_qr_scan", "ios": "https://dc.lft.to/lastmile_qr_scan"}, "is_reserved": 0, "is_disabled": 0, "name": "1ca61fc012f82f0cf2981307dc9e67f7", "bike_id": "1ca61fc012f82f0cf2981307dc9e67f7", "fusion_lat": 0.0, "lon": -76.96549416666667, "type": "electric_scooter", "fusion_lon": 0.0, "lat": 38.9184475}, {"rental_uris": {"android": "https://dc.lft.to/lastmile_qr_scan", "ios": "https://dc.lft.to/lastmile_qr_scan"}, "is_reserved": 0, "is_disabled": 0, "name": "faac4d9bf13b64991a7aad1bd88a7e9d", "bike_id": "faac4d9bf13b64991a7aad1bd88a7e9d", "fusion_lat": 0.0, "lon": -76.9355785, "type": "electric_scooter", "fusion_lon": 0.0, "lat": 38.88271183333333}, {"rental_uris": {"android": "https://dc.lft.to/lastmile_qr_scan", "ios": "https://dc.lft.to/lastmile_qr_scan"}, "is_reserved": 0, "is_disabled": 0, "name": "50112ae78313f01afba26d0486e60542", "bike_id": "50112ae78313f01afba26d0486e60542", "fusion_lat": 0.0, "lon": -77.0437785, "type": "electric_scooter", "fusion_lon": 0.0, "lat": 38.911206666666665}, {"rental_uris": {"android": "https://dc.lft.to/lastmile_qr_scan", "ios": "https://dc.lft.to/lastmile_qr_scan"}, "is_reserved": 0, "is_disabled": 0, "name": "84bdc9a1ae4d4bc7d7513a3711b12603", "bike_id": "84bdc9a1ae4d4bc7d7513a3711b12603", "fusion_lat": 0.0, "lon": -77.00686433333334, "type": "electric_scooter", "fusion_lon": 0.0, "lat": 38.90007933333333}, {"rental_uris": {"android": "https://dc.lft.to/lastmile_qr_scan", "ios": "https://dc.lft.to/lastmile_qr_scan"}, "is_reserved": 0, "is_disabled": 0, "name": "ba97402526a90d1e7944b7ee6e96e6fe", "bike_id": "ba97402526a90d1e7944b7ee6e96e6fe", "fusion_lat": 0.0, "lon": -76.988627, "type": "electric_scooter", "fusion_lon": 0.0, "lat": 38.93469183333333}, {"rental_uris": {"android": "https://dc.lft.to/lastmile_qr_scan", "ios": "https://dc.lft.to/lastmile_qr_scan"}, "is_reserved": 0, "is_disabled": 0, "name": "33ec88641e14c3e0294512f94ac2f116", "bike_id": "33ec88641e14c3e0294512f94ac2f116", "fusion_lat": 0.0, "lon": -77.048689, "type": "electric_scooter", "fusion_lon": 0.0, "lat": 38.9048185}, {"rental_uris": {"android": "https://dc.lft.to/lastmile_qr_scan", "ios": "https://dc.lft.to/lastmile_qr_scan"}, "is_reserved": 0, "is_disabled": 0, "name": "dc6e74167b9b6ac77551a5eb3ad7b15e", "bike_id": "dc6e74167b9b6ac77551a5eb3ad7b15e", "fusion_lat": 0.0, "lon": -77.02826166666667, "type": "electric_scooter", "fusion_lon": 0.0, "lat": 38.88735483333333}, {"rental_uris": {"android": "https://dc.lft.to/lastmile_qr_scan", "ios": "https://dc.lft.to/lastmile_qr_scan"}, "is_reserved": 0, "is_disabled": 0, "name": "b88831fa1f3303c6cf3fa572d5f01859", "bike_id": "b88831fa1f3303c6cf3fa572d5f01859", "fusion_lat": 0.0, "lon": -76.97719916666667, "type": "electric_scooter", "fusion_lon": 0.0, "lat": 38.888185666666665}, {"rental_uris": {"android": "https://dc.lft.to/lastmile_qr_scan", "ios": "https://dc.lft.to/lastmile_qr_scan"}, "is_reserved": 0, "is_disabled": 0, "name": "685fa81ed02303b792a9b06f316ef341", "bike_id": "685fa81ed02303b792a9b06f316ef341", "fusion_lat": 0.0, "lon": -77.04663616666667, "type": "electric_scooter", "fusion_lon": 0.0, "lat": 38.903790666666666}, {"rental_uris": {"android": "https://dc.lft.to/lastmile_qr_scan", "ios": "https://dc.lft.to/lastmile_qr_scan"}, "is_reserved": 0, "is_disabled": 0, "name": "f90262f9fa5e5f176803c8c8c9ef0536", "bike_id": "f90262f9fa5e5f176803c8c8c9ef0536", "fusion_lat": 0.0, "lon": -77.01954083333334, "type": "electric_scooter", "fusion_lon": 0.0, "lat": 38.922641}, {"rental_uris": {"android": "https://dc.lft.to/lastmile_qr_scan", "ios": "https://dc.lft.to/lastmile_qr_scan"}, "is_reserved": 0, "is_disabled": 0, "name": "3d274c35fc34001124406ab1d67eebbc", "bike_id": "3d274c35fc34001124406ab1d67eebbc", "fusion_lat": 0.0, "lon": -77.02796966666666, "type": "electric_scooter", "fusion_lon": 0.0, "lat": 38.90257716666667}, {"rental_uris": {"android": "https://dc.lft.to/lastmile_qr_scan", "ios": "https://dc.lft.to/lastmile_qr_scan"}, "is_reserved": 0, "is_disabled": 0, "name": "b2f2c2b03328f1ec6bb11f68206c1c9b", "bike_id": "b2f2c2b03328f1ec6bb11f68206c1c9b", "fusion_lat": 0.0, "lon": -77.0339645, "type": "electric_scooter", "fusion_lon": 0.0, "lat": 38.908059}, {"rental_uris": {"android": "https://dc.lft.to/lastmile_qr_scan", "ios": "https://dc.lft.to/lastmile_qr_scan"}, "is_reserved": 0, "is_disabled": 0, "name": "b94e2ba5efa64d0c163f01f7e2723875", "bike_id": "b94e2ba5efa64d0c163f01f7e2723875", "fusion_lat": 0.0, "lon": -77.0238975, "type": "electric_scooter", "fusion_lon": 0.0, "lat": 38.909428166666665}, {"rental_uris": {"android": "https://dc.lft.to/lastmile_qr_scan", "ios": "https://dc.lft.to/lastmile_qr_scan"}, "is_reserved": 0, "is_disabled": 0, "name": "46038a2ee13e36c088c1911ac1c330ac", "bike_id": "46038a2ee13e36c088c1911ac1c330ac", "fusion_lat": 0.0, "lon": -77.0323335, "type": "electric_scooter", "fusion_lon": 0.0, "lat": 38.915630166666666}, {"rental_uris": {"android": "https://dc.lft.to/lastmile_qr_scan", "ios": "https://dc.lft.to/lastmile_qr_scan"}, "is_reserved": 0, "is_disabled": 0, "name": "c7bd2700e5d3ecfef160f26b44b626a1", "bike_id": "c7bd2700e5d3ecfef160f26b44b626a1", "fusion_lat": 0.0, "lon": -77.02781133333333, "type": "electric_scooter", "fusion_lon": 0.0, "lat": 38.89829983333333}, {"rental_uris": {"android": "https://dc.lft.to/lastmile_qr_scan", "ios": "https://dc.lft.to/lastmile_qr_scan"}, "is_reserved": 0, "is_disabled": 0, "name": "f75356c79dc3ec3ad98a4021ad2650de", "bike_id": "f75356c79dc3ec3ad98a4021ad2650de", "fusion_lat": 0.0, "lon": -77.03197083333333, "type": "electric_scooter", "fusion_lon": 0.0, "lat": 38.91637716666666}, {"rental_uris": {"android": "https://dc.lft.to/lastmile_qr_scan", "ios": "https://dc.lft.to/lastmile_qr_scan"}, "is_reserved": 0, "is_disabled": 0, "name": "50b8015ba4c08c39e22d968e4c66eb18", "bike_id": "50b8015ba4c08c39e22d968e4c66eb18", "fusion_lat": 0.0, "lon": -77.0286515, "type": "electric_scooter", "fusion_lon": 0.0, "lat": 38.917011333333335}, {"rental_uris": {"android": "https://dc.lft.to/lastmile_qr_scan", "ios": "https://dc.lft.to/lastmile_qr_scan"}, "is_reserved": 0, "is_disabled": 0, "name": "2e87e11b370eb40c0ddb3ed9737eac96", "bike_id": "2e87e11b370eb40c0ddb3ed9737eac96", "fusion_lat": 0.0, "lon": -77.02405916666666, "type": "electric_scooter", "fusion_lon": 0.0, "lat": 38.900411}, {"rental_uris": {"android": "https://dc.lft.to/lastmile_qr_scan", "ios": "https://dc.lft.to/lastmile_qr_scan"}, "is_reserved": 0, "is_disabled": 0, "name": "7ad5f7772ffbafdfaea237ef4a0c4a2f", "bike_id": "7ad5f7772ffbafdfaea237ef4a0c4a2f", "fusion_lat": 0.0, "lon": -77.04691766666667, "type": "electric_scooter", "fusion_lon": 0.0, "lat": 38.89609633333333}, {"rental_uris": {"android": "https://dc.lft.to/lastmile_qr_scan", "ios": "https://dc.lft.to/lastmile_qr_scan"}, "is_reserved": 0, "is_disabled": 0, "name": "0503de6b3bc1597aca44b225ab53f2aa", "bike_id": "0503de6b3bc1597aca44b225ab53f2aa", "fusion_lat": 0.0, "lon": -76.98690683333334, "type": "electric_bike", "fusion_lon": 0.0, "lat": 38.94474433333333}, {"rental_uris": {"android": "https://dc.lft.to/lastmile_qr_scan", "ios": "https://dc.lft.to/lastmile_qr_scan"}, "is_reserved": 0, "is_disabled": 0, "name": "778641c42d0eba81b93aaa9bd63ab197", "bike_id": "778641c42d0eba81b93aaa9bd63ab197", "fusion_lat": 0.0, "lon": -77.03386633333334, "type": "electric_scooter", "fusion_lon": 0.0, "lat": 38.901355}, {"rental_uris": {"android": "https://dc.lft.to/lastmile_qr_scan", "ios": "https://dc.lft.to/lastmile_qr_scan"}, "is_reserved": 0, "is_disabled": 0, "name": "91bbb1ccfdc55c03330d6a4f432f1a7f", "bike_id": "91bbb1ccfdc55c03330d6a4f432f1a7f", "fusion_lat": 0.0, "lon": -77.02827983333333, "type": "electric_scooter", "fusion_lon": 0.0, "lat": 38.93884666666667}, {"rental_uris": {"android": "https://dc.lft.to/lastmile_qr_scan", "ios": "https://dc.lft.to/lastmile_qr_scan"}, "is_reserved": 0, "is_disabled": 0, "name": "0ee4e534aa0c2b63412b4dce80de628b", "bike_id": "0ee4e534aa0c2b63412b4dce80de628b", "fusion_lat": 0.0, "lon": -77.02198283333334, "type": "electric_scooter", "fusion_lon": 0.0, "lat": 38.9112575}, {"rental_uris": {"android": "https://dc.lft.to/lastmile_qr_scan", "ios": "https://dc.lft.to/lastmile_qr_scan"}, "is_reserved": 0, "is_disabled": 0, "name": "11229b26dbab4b0785f54ca7e00a5431", "bike_id": "11229b26dbab4b0785f54ca7e00a5431", "fusion_lat": 0.0, "lon": -77.05275033333334, "type": "electric_scooter", "fusion_lon": 0.0, "lat": 38.90151383333333}, {"rental_uris": {"android": "https://dc.lft.to/lastmile_qr_scan", "ios": "https://dc.lft.to/lastmile_qr_scan"}, "is_reserved": 0, "is_disabled": 0, "name": "aabecea5958169029195873551f60847", "bike_id": "aabecea5958169029195873551f60847", "fusion_lat": 0.0, "lon": -77.05005283333334, "type": "electric_scooter", "fusion_lon": 0.0, "lat": 38.892261500000004}, {"rental_uris": {"android": "https://dc.lft.to/lastmile_qr_scan", "ios": "https://dc.lft.to/lastmile_qr_scan"}, "is_reserved": 0, "is_disabled": 0, "name": "77da4af0783e2dc76127daa063d96c52", "bike_id": "77da4af0783e2dc76127daa063d96c52", "fusion_lat": 0.0, "lon": -77.02640766666667, "type": "electric_scooter", "fusion_lon": 0.0, "lat": 38.923817}, {"rental_uris": {"android": "https://dc.lft.to/lastmile_qr_scan", "ios": "https://dc.lft.to/lastmile_qr_scan"}, "is_reserved": 0, "is_disabled": 0, "name": "7203f41783338c31b10ab35b594a22cd", "bike_id": "7203f41783338c31b10ab35b594a22cd", "fusion_lat": 0.0, "lon": -77.04627133333334, "type": "electric_scooter", "fusion_lon": 0.0, "lat": 38.90470033333333}, {"rental_uris": {"android": "https://dc.lft.to/lastmile_qr_scan", "ios": "https://dc.lft.to/lastmile_qr_scan"}, "is_reserved": 0, "is_disabled": 0, "name": "45b9fdcfef96868d7dfb02fe46214034", "bike_id": "45b9fdcfef96868d7dfb02fe46214034", "fusion_lat": 0.0, "lon": -76.9911925, "type": "electric_scooter", "fusion_lon": 0.0, "lat": 38.90903016666667}, {"rental_uris": {"android": "https://dc.lft.to/lastmile_qr_scan", "ios": "https://dc.lft.to/lastmile_qr_scan"}, "is_reserved": 0, "is_disabled": 0, "name": "7c7fd1bac400df5d038287fece14dac6", "bike_id": "7c7fd1bac400df5d038287fece14dac6", "fusion_lat": 0.0, "lon": -77.04498116666667, "type": "electric_scooter", "fusion_lon": 0.0, "lat": 38.911928}, {"rental_uris": {"android": "https://dc.lft.to/lastmile_qr_scan", "ios": "https://dc.lft.to/lastmile_qr_scan"}, "is_reserved": 0, "is_disabled": 0, "name": "95d3190daed4a62b31bb923eafcc2cd5", "bike_id": "95d3190daed4a62b31bb923eafcc2cd5", "fusion_lat": 0.0, "lon": -77.03092483333333, "type": "electric_scooter", "fusion_lon": 0.0, "lat": 38.9000335}, {"rental_uris": {"android": "https://dc.lft.to/lastmile_qr_scan", "ios": "https://dc.lft.to/lastmile_qr_scan"}, "is_reserved": 0, "is_disabled": 0, "name": "dacb88d699404bdedb3cb7e7471cdd07", "bike_id": "dacb88d699404bdedb3cb7e7471cdd07", "fusion_lat": 0.0, "lon": -77.0188365, "type": "electric_scooter", "fusion_lon": 0.0, "lat": 38.9148245}, {"rental_uris": {"android": "https://dc.lft.to/lastmile_qr_scan", "ios": "https://dc.lft.to/lastmile_qr_scan"}, "is_reserved": 0, "is_disabled": 0, "name": "9d8a98cb1c72090c0e7918c6e53d8f00", "bike_id": "9d8a98cb1c72090c0e7918c6e53d8f00", "fusion_lat": 0.0, "lon": -76.95201583333333, "type": "electric_scooter", "fusion_lon": 0.0, "lat": 38.9050895}, {"rental_uris": {"android": "https://dc.lft.to/lastmile_qr_scan", "ios": "https://dc.lft.to/lastmile_qr_scan"}, "is_reserved": 0, "is_disabled": 0, "name": "3dbd08cfa76135fe20085655f2e1a1b3", "bike_id": "3dbd08cfa76135fe20085655f2e1a1b3", "fusion_lat": 0.0, "lon": -77.03466266666666, "type": "electric_scooter", "fusion_lon": 0.0, "lat": 38.90437216666667}, {"rental_uris": {"android": "https://dc.lft.to/lastmile_qr_scan", "ios": "https://dc.lft.to/lastmile_qr_scan"}, "is_reserved": 0, "is_disabled": 0, "name": "84516d5f5750ffc1419afbb59ca3c25f", "bike_id": "84516d5f5750ffc1419afbb59ca3c25f", "fusion_lat": 0.0, "lon": -77.18291933333333, "type": "electric_bike", "fusion_lon": 0.0, "lat": 38.89071583333333}, {"rental_uris": {"android": "https://dc.lft.to/lastmile_qr_scan", "ios": "https://dc.lft.to/lastmile_qr_scan"}, "is_reserved": 0, "is_disabled": 0, "name": "6de4a3c05f3dca4e2b8d40392e46adc1", "bike_id": "6de4a3c05f3dca4e2b8d40392e46adc1", "fusion_lat": 0.0, "lon": -77.02962616666667, "type": "electric_scooter", "fusion_lon": 0.0, "lat": 38.90492733333333}, {"rental_uris": {"android": "https://dc.lft.to/lastmile_qr_scan", "ios": "https://dc.lft.to/lastmile_qr_scan"}, "is_reserved": 0, "is_disabled": 0, "name": "8d6bda057e6ee7ec3ef880a2e5481ddd", "bike_id": "8d6bda057e6ee7ec3ef880a2e5481ddd", "fusion_lat": 0.0, "lon": -77.00066283333334, "type": "electric_scooter", "fusion_lon": 0.0, "lat": 38.88114266666667}, {"rental_uris": {"android": "https://dc.lft.to/lastmile_qr_scan", "ios": "https://dc.lft.to/lastmile_qr_scan"}, "is_reserved": 0, "is_disabled": 0, "name": "3b278d68dbc4636dec7963e033345984", "bike_id": "3b278d68dbc4636dec7963e033345984", "fusion_lat": 0.0, "lon": -76.97346933333333, "type": "electric_bike", "fusion_lon": 0.0, "lat": 38.865530666666665}, {"rental_uris": {"android": "https://dc.lft.to/lastmile_qr_scan", "ios": "https://dc.lft.to/lastmile_qr_scan"}, "is_reserved": 0, "is_disabled": 0, "name": "6e6fcb32ec7a2460cd846681317c6669", "bike_id": "6e6fcb32ec7a2460cd846681317c6669", "fusion_lat": 0.0, "lon": -77.02802366666667, "type": "electric_scooter", "fusion_lon": 0.0, "lat": 38.89227666666667}, {"rental_uris": {"android": "https://dc.lft.to/lastmile_qr_scan", "ios": "https://dc.lft.to/lastmile_qr_scan"}, "is_reserved": 0, "is_disabled": 0, "name": "d801fc52a4f080d74bf4401b59fc6779", "bike_id": "d801fc52a4f080d74bf4401b59fc6779", "fusion_lat": 0.0, "lon": -77.03481333333333, "type": "electric_scooter", "fusion_lon": 0.0, "lat": 38.90142566666667}, {"rental_uris": {"android": "https://dc.lft.to/lastmile_qr_scan", "ios": "https://dc.lft.to/lastmile_qr_scan"}, "is_reserved": 0, "is_disabled": 0, "name": "46eb96b80ce12858d0a0d85e00ae6b11", "bike_id": "46eb96b80ce12858d0a0d85e00ae6b11", "fusion_lat": 0.0, "lon": -77.043446, "type": "electric_scooter", "fusion_lon": 0.0, "lat": 38.904456}, {"rental_uris": {"android": "https://dc.lft.to/lastmile_qr_scan", "ios": "https://dc.lft.to/lastmile_qr_scan"}, "is_reserved": 0, "is_disabled": 0, "name": "cf0cf5c9e4e344005932246ae4c3a7ba", "bike_id": "cf0cf5c9e4e344005932246ae4c3a7ba", "fusion_lat": 0.0, "lon": -77.0333605, "type": "electric_scooter", "fusion_lon": 0.0, "lat": 38.92876033333334}, {"rental_uris": {"android": "https://dc.lft.to/lastmile_qr_scan", "ios": "https://dc.lft.to/lastmile_qr_scan"}, "is_reserved": 0, "is_disabled": 0, "name": "f8ce5db3ede7e006f22e479870da2810", "bike_id": "f8ce5db3ede7e006f22e479870da2810", "fusion_lat": 0.0, "lon": -77.02333833333333, "type": "electric_scooter", "fusion_lon": 0.0, "lat": 38.9304725}, {"rental_uris": {"android": "https://dc.lft.to/lastmile_qr_scan", "ios": "https://dc.lft.to/lastmile_qr_scan"}, "is_reserved": 0, "is_disabled": 0, "name": "5de90b64babd9dee9c30126e42f064d5", "bike_id": "5de90b64babd9dee9c30126e42f064d5", "fusion_lat": 0.0, "lon": -77.02595366666667, "type": "electric_scooter", "fusion_lon": 0.0, "lat": 38.896196}, {"rental_uris": {"android": "https://dc.lft.to/lastmile_qr_scan", "ios": "https://dc.lft.to/lastmile_qr_scan"}, "is_reserved": 0, "is_disabled": 0, "name": "f6a8be52c6458ff8e2af7b488bbda528", "bike_id": "f6a8be52c6458ff8e2af7b488bbda528", "fusion_lat": 0.0, "lon": -77.03564616666667, "type": "electric_scooter", "fusion_lon": 0.0, "lat": 38.92475233333333}, {"rental_uris": {"android": "https://dc.lft.to/lastmile_qr_scan", "ios": "https://dc.lft.to/lastmile_qr_scan"}, "is_reserved": 0, "is_disabled": 0, "name": "aeb8579713f9c0bebde19a60db1c90a9", "bike_id": "aeb8579713f9c0bebde19a60db1c90a9", "fusion_lat": 0.0, "lon": -77.05493283333334, "type": "electric_scooter", "fusion_lon": 0.0, "lat": 38.9084375}, {"rental_uris": {"android": "https://dc.lft.to/lastmile_qr_scan", "ios": "https://dc.lft.to/lastmile_qr_scan"}, "is_reserved": 0, "is_disabled": 0, "name": "5dbccb41c9d14c47fe889d461bc58eba", "bike_id": "5dbccb41c9d14c47fe889d461bc58eba", "fusion_lat": 0.0, "lon": -77.02780966666667, "type": "electric_scooter", "fusion_lon": 0.0, "lat": 38.8982375}, {"rental_uris": {"android": "https://dc.lft.to/lastmile_qr_scan", "ios": "https://dc.lft.to/lastmile_qr_scan"}, "is_reserved": 0, "is_disabled": 0, "name": "c530f787e28253be9f29f83a0a8cbdf2", "bike_id": "c530f787e28253be9f29f83a0a8cbdf2", "fusion_lat": 0.0, "lon": -76.98200666666666, "type": "electric_bike", "fusion_lon": 0.0, "lat": 38.985103}, {"rental_uris": {"android": "https://dc.lft.to/lastmile_qr_scan", "ios": "https://dc.lft.to/lastmile_qr_scan"}, "is_reserved": 0, "is_disabled": 0, "name": "828fdd002e4b41e68bd0d8f8c6776637", "bike_id": "828fdd002e4b41e68bd0d8f8c6776637", "fusion_lat": 0.0, "lon": -77.08725566666666, "type": "electric_bike", "fusion_lon": 0.0, "lat": 38.862404}, {"rental_uris": {"android": "https://dc.lft.to/lastmile_qr_scan", "ios": "https://dc.lft.to/lastmile_qr_scan"}, "is_reserved": 0, "is_disabled": 0, "name": "fa4a816e87332e5bf3e2c0feef7e7544", "bike_id": "fa4a816e87332e5bf3e2c0feef7e7544", "fusion_lat": 0.0, "lon": -77.03213933333333, "type": "electric_scooter", "fusion_lon": 0.0, "lat": 38.9206265}, {"rental_uris": {"android": "https://dc.lft.to/lastmile_qr_scan", "ios": "https://dc.lft.to/lastmile_qr_scan"}, "is_reserved": 0, "is_disabled": 0, "name": "21118452b7eed4f21be34cde930192fb", "bike_id": "21118452b7eed4f21be34cde930192fb", "fusion_lat": 0.0, "lon": -77.04872183333333, "type": "electric_scooter", "fusion_lon": 0.0, "lat": 38.9103415}, {"rental_uris": {"android": "https://dc.lft.to/lastmile_qr_scan", "ios": "https://dc.lft.to/lastmile_qr_scan"}, "is_reserved": 0, "is_disabled": 0, "name": "762e9ffa053635b93886a2c001b1115a", "bike_id": "762e9ffa053635b93886a2c001b1115a", "fusion_lat": 0.0, "lon": -77.02158083333333, "type": "electric_scooter", "fusion_lon": 0.0, "lat": 38.9260185}, {"rental_uris": {"android": "https://dc.lft.to/lastmile_qr_scan", "ios": "https://dc.lft.to/lastmile_qr_scan"}, "is_reserved": 0, "is_disabled": 0, "name": "a6909131eaf65ecf613015636c576bd3", "bike_id": "a6909131eaf65ecf613015636c576bd3", "fusion_lat": 0.0, "lon": -77.03512283333333, "type": "electric_scooter", "fusion_lon": 0.0, "lat": 38.91878666666667}, {"rental_uris": {"android": "https://dc.lft.to/lastmile_qr_scan", "ios": "https://dc.lft.to/lastmile_qr_scan"}, "is_reserved": 0, "is_disabled": 0, "name": "750f7519044268e4886f7d5b56bd1b52", "bike_id": "750f7519044268e4886f7d5b56bd1b52", "fusion_lat": 0.0, "lon": -77.02020866666666, "type": "electric_scooter", "fusion_lon": 0.0, "lat": 38.924278666666666}, {"rental_uris": {"android": "https://dc.lft.to/lastmile_qr_scan", "ios": "https://dc.lft.to/lastmile_qr_scan"}, "is_reserved": 0, "is_disabled": 0, "name": "195fda1c6675d55d543966d0e0751f0f", "bike_id": "195fda1c6675d55d543966d0e0751f0f", "fusion_lat": 0.0, "lon": -77.005436, "type": "electric_scooter", "fusion_lon": 0.0, "lat": 38.87544283333333}, {"rental_uris": {"android": "https://dc.lft.to/lastmile_qr_scan", "ios": "https://dc.lft.to/lastmile_qr_scan"}, "is_reserved": 0, "is_disabled": 0, "name": "94751678c9e7546d7551884a79fd3131", "bike_id": "94751678c9e7546d7551884a79fd3131", "fusion_lat": 0.0, "lon": -77.01989533333334, "type": "electric_scooter", "fusion_lon": 0.0, "lat": 38.901055666666664}, {"rental_uris": {"android": "https://dc.lft.to/lastmile_qr_scan", "ios": "https://dc.lft.to/lastmile_qr_scan"}, "is_reserved": 0, "is_disabled": 0, "name": "2fb576ace97717d16dcbe9b4b7a138a4", "bike_id": "2fb576ace97717d16dcbe9b4b7a138a4", "fusion_lat": 0.0, "lon": -76.981154, "type": "electric_bike", "fusion_lon": 0.0, "lat": 38.945683833333334}, {"rental_uris": {"android": "https://dc.lft.to/lastmile_qr_scan", "ios": "https://dc.lft.to/lastmile_qr_scan"}, "is_reserved": 0, "is_disabled": 0, "name": "901cb11f5166f881462ec25e8f93f5aa", "bike_id": "901cb11f5166f881462ec25e8f93f5aa", "fusion_lat": 0.0, "lon": -77.03436833333333, "type": "electric_scooter", "fusion_lon": 0.0, "lat": 38.918078666666666}, {"rental_uris": {"android": "https://dc.lft.to/lastmile_qr_scan", "ios": "https://dc.lft.to/lastmile_qr_scan"}, "is_reserved": 0, "is_disabled": 0, "name": "4a5b7139daf222334c3207d9bf53671a", "bike_id": "4a5b7139daf222334c3207d9bf53671a", "fusion_lat": 0.0, "lon": -77.04030866666666, "type": "electric_scooter", "fusion_lon": 0.0, "lat": 38.898216}, {"rental_uris": {"android": "https://dc.lft.to/lastmile_qr_scan", "ios": "https://dc.lft.to/lastmile_qr_scan"}, "is_reserved": 0, "is_disabled": 0, "name": "50d1dd0c377c84f1856df6d2a83ff780", "bike_id": "50d1dd0c377c84f1856df6d2a83ff780", "fusion_lat": 0.0, "lon": -76.98385883333333, "type": "electric_scooter", "fusion_lon": 0.0, "lat": 38.879433}, {"rental_uris": {"android": "https://dc.lft.to/lastmile_qr_scan", "ios": "https://dc.lft.to/lastmile_qr_scan"}, "is_reserved": 0, "is_disabled": 0, "name": "ec3fb0d9107ae0d927891e79930575ca", "bike_id": "ec3fb0d9107ae0d927891e79930575ca", "fusion_lat": 0.0, "lon": -77.01037933333333, "type": "electric_scooter", "fusion_lon": 0.0, "lat": 38.92132266666667}, {"rental_uris": {"android": "https://dc.lft.to/lastmile_qr_scan", "ios": "https://dc.lft.to/lastmile_qr_scan"}, "is_reserved": 0, "is_disabled": 0, "name": "b192e8a90c873e00bae7f84768468bcb", "bike_id": "b192e8a90c873e00bae7f84768468bcb", "fusion_lat": 0.0, "lon": -77.04602883333334, "type": "electric_scooter", "fusion_lon": 0.0, "lat": 38.9145505}, {"rental_uris": {"android": "https://dc.lft.to/lastmile_qr_scan", "ios": "https://dc.lft.to/lastmile_qr_scan"}, "is_reserved": 0, "is_disabled": 0, "name": "cbb3b405bf08a2649de7153ce19a1a0f", "bike_id": "cbb3b405bf08a2649de7153ce19a1a0f", "fusion_lat": 0.0, "lon": -77.0825015, "type": "electric_scooter", "fusion_lon": 0.0, "lat": 38.9073215}, {"rental_uris": {"android": "https://dc.lft.to/lastmile_qr_scan", "ios": "https://dc.lft.to/lastmile_qr_scan"}, "is_reserved": 0, "is_disabled": 0, "name": "c35e8ae1e4728e4797e5f3acaedbe62e", "bike_id": "c35e8ae1e4728e4797e5f3acaedbe62e", "fusion_lat": 0.0, "lon": -77.050269, "type": "electric_scooter", "fusion_lon": 0.0, "lat": 38.8965025}, {"rental_uris": {"android": "https://dc.lft.to/lastmile_qr_scan", "ios": "https://dc.lft.to/lastmile_qr_scan"}, "is_reserved": 0, "is_disabled": 0, "name": "e556043889a0ad90e47390ae30bdfd93", "bike_id": "e556043889a0ad90e47390ae30bdfd93", "fusion_lat": 0.0, "lon": -77.0272115, "type": "electric_scooter", "fusion_lon": 0.0, "lat": 38.93249633333333}, {"rental_uris": {"android": "https://dc.lft.to/lastmile_qr_scan", "ios": "https://dc.lft.to/lastmile_qr_scan"}, "is_reserved": 0, "is_disabled": 0, "name": "f98e4411c04a45703730bf5c2cf31801", "bike_id": "f98e4411c04a45703730bf5c2cf31801", "fusion_lat": 0.0, "lon": -77.07853566666667, "type": "electric_scooter", "fusion_lon": 0.0, "lat": 38.945999666666665}, {"rental_uris": {"android": "https://dc.lft.to/lastmile_qr_scan", "ios": "https://dc.lft.to/lastmile_qr_scan"}, "is_reserved": 0, "is_disabled": 0, "name": "22cb365d74056be864701d6022f44c21", "bike_id": "22cb365d74056be864701d6022f44c21", "fusion_lat": 0.0, "lon": -77.01814566666667, "type": "electric_scooter", "fusion_lon": 0.0, "lat": 38.921574166666666}, {"rental_uris": {"android": "https://dc.lft.to/lastmile_qr_scan", "ios": "https://dc.lft.to/lastmile_qr_scan"}, "is_reserved": 0, "is_disabled": 0, "name": "9fc661958d92a1448e03466bf6a36c11", "bike_id": "9fc661958d92a1448e03466bf6a36c11", "fusion_lat": 0.0, "lon": -77.02789566666667, "type": "electric_scooter", "fusion_lon": 0.0, "lat": 38.96129966666667}, {"rental_uris": {"android": "https://dc.lft.to/lastmile_qr_scan", "ios": "https://dc.lft.to/lastmile_qr_scan"}, "is_reserved": 0, "is_disabled": 0, "name": "9a6041662f91eddc4e071511e4ba018e", "bike_id": "9a6041662f91eddc4e071511e4ba018e", "fusion_lat": 0.0, "lon": -77.04155216666666, "type": "electric_scooter", "fusion_lon": 0.0, "lat": 38.917153}, {"rental_uris": {"android": "https://dc.lft.to/lastmile_qr_scan", "ios": "https://dc.lft.to/lastmile_qr_scan"}, "is_reserved": 0, "is_disabled": 0, "name": "58437e89454ef17e41ebf32d3b7901f9", "bike_id": "58437e89454ef17e41ebf32d3b7901f9", "fusion_lat": 0.0, "lon": -77.0241855, "type": "electric_scooter", "fusion_lon": 0.0, "lat": 38.902873666666665}, {"rental_uris": {"android": "https://dc.lft.to/lastmile_qr_scan", "ios": "https://dc.lft.to/lastmile_qr_scan"}, "is_reserved": 0, "is_disabled": 0, "name": "35c09cb19a16da52738544a5834e4934", "bike_id": "35c09cb19a16da52738544a5834e4934", "fusion_lat": 0.0, "lon": -77.04555583333334, "type": "electric_scooter", "fusion_lon": 0.0, "lat": 38.91933}, {"rental_uris": {"android": "https://dc.lft.to/lastmile_qr_scan", "ios": "https://dc.lft.to/lastmile_qr_scan"}, "is_reserved": 0, "is_disabled": 0, "name": "e84315903b243e65cb43e863ca9b96e2", "bike_id": "e84315903b243e65cb43e863ca9b96e2", "fusion_lat": 0.0, "lon": -77.053579, "type": "electric_scooter", "fusion_lon": 0.0, "lat": 38.927206166666664}, {"rental_uris": {"android": "https://dc.lft.to/lastmile_qr_scan", "ios": "https://dc.lft.to/lastmile_qr_scan"}, "is_reserved": 0, "is_disabled": 0, "name": "21bfe7af78f32ab07ac7e132882aac20", "bike_id": "21bfe7af78f32ab07ac7e132882aac20", "fusion_lat": 0.0, "lon": -77.0292295, "type": "electric_scooter", "fusion_lon": 0.0, "lat": 38.9054085}, {"rental_uris": {"android": "https://dc.lft.to/lastmile_qr_scan", "ios": "https://dc.lft.to/lastmile_qr_scan"}, "is_reserved": 0, "is_disabled": 0, "name": "a71375a1b03de78539417a882ff69ed0", "bike_id": "a71375a1b03de78539417a882ff69ed0", "fusion_lat": 0.0, "lon": -77.0207345, "type": "electric_scooter", "fusion_lon": 0.0, "lat": 38.926992166666665}, {"rental_uris": {"android": "https://dc.lft.to/lastmile_qr_scan", "ios": "https://dc.lft.to/lastmile_qr_scan"}, "is_reserved": 0, "is_disabled": 0, "name": "9c7e694133e676c8203060a3f5aa667a", "bike_id": "9c7e694133e676c8203060a3f5aa667a", "fusion_lat": 0.0, "lon": -77.02483283333333, "type": "electric_scooter", "fusion_lon": 0.0, "lat": 38.9017}, {"rental_uris": {"android": "https://dc.lft.to/lastmile_qr_scan", "ios": "https://dc.lft.to/lastmile_qr_scan"}, "is_reserved": 0, "is_disabled": 0, "name": "41782b19dd476b60184e388e5ed5d834", "bike_id": "41782b19dd476b60184e388e5ed5d834", "fusion_lat": 0.0, "lon": -77.0468315, "type": "electric_scooter", "fusion_lon": 0.0, "lat": 38.899596}, {"rental_uris": {"android": "https://dc.lft.to/lastmile_qr_scan", "ios": "https://dc.lft.to/lastmile_qr_scan"}, "is_reserved": 0, "is_disabled": 0, "name": "46768558980e576a5a5fa418863df8dd", "bike_id": "46768558980e576a5a5fa418863df8dd", "fusion_lat": 0.0, "lon": -77.0329985, "type": "electric_scooter", "fusion_lon": 0.0, "lat": 38.927439666666665}, {"rental_uris": {"android": "https://dc.lft.to/lastmile_qr_scan", "ios": "https://dc.lft.to/lastmile_qr_scan"}, "is_reserved": 0, "is_disabled": 0, "name": "1d28b104ca0045f2be4f26c45c4ab5c6", "bike_id": "1d28b104ca0045f2be4f26c45c4ab5c6", "fusion_lat": 0.0, "lon": -77.01960016666666, "type": "electric_scooter", "fusion_lon": 0.0, "lat": 38.934187}, {"rental_uris": {"android": "https://dc.lft.to/lastmile_qr_scan", "ios": "https://dc.lft.to/lastmile_qr_scan"}, "is_reserved": 0, "is_disabled": 0, "name": "23e7fd1c4665a36169fc90ea92b9a9d4", "bike_id": "23e7fd1c4665a36169fc90ea92b9a9d4", "fusion_lat": 0.0, "lon": -76.99573383333333, "type": "electric_scooter", "fusion_lon": 0.0, "lat": 38.900283333333334}, {"rental_uris": {"android": "https://dc.lft.to/lastmile_qr_scan", "ios": "https://dc.lft.to/lastmile_qr_scan"}, "is_reserved": 0, "is_disabled": 0, "name": "46d9951d79724d763f783624d1bed05a", "bike_id": "46d9951d79724d763f783624d1bed05a", "fusion_lat": 0.0, "lon": -77.00419016666666, "type": "electric_bike", "fusion_lon": 0.0, "lat": 38.98523466666666}, {"rental_uris": {"android": "https://dc.lft.to/lastmile_qr_scan", "ios": "https://dc.lft.to/lastmile_qr_scan"}, "is_reserved": 0, "is_disabled": 0, "name": "15057f93b6deee315dddf24acfa2e5ea", "bike_id": "15057f93b6deee315dddf24acfa2e5ea", "fusion_lat": 0.0, "lon": -77.019486, "type": "electric_scooter", "fusion_lon": 0.0, "lat": 38.92417533333333}, {"rental_uris": {"android": "https://dc.lft.to/lastmile_qr_scan", "ios": "https://dc.lft.to/lastmile_qr_scan"}, "is_reserved": 0, "is_disabled": 0, "name": "0d11b00a85db932f6041b2e6b25d0258", "bike_id": "0d11b00a85db932f6041b2e6b25d0258", "fusion_lat": 0.0, "lon": -77.06233683333333, "type": "electric_scooter", "fusion_lon": 0.0, "lat": 38.91157}, {"rental_uris": {"android": "https://dc.lft.to/lastmile_qr_scan", "ios": "https://dc.lft.to/lastmile_qr_scan"}, "is_reserved": 0, "is_disabled": 0, "name": "bff565c5351bc4be7a485e36c06017cd", "bike_id": "bff565c5351bc4be7a485e36c06017cd", "fusion_lat": 0.0, "lon": -77.01622566666667, "type": "electric_scooter", "fusion_lon": 0.0, "lat": 38.900672166666666}, {"rental_uris": {"android": "https://dc.lft.to/lastmile_qr_scan", "ios": "https://dc.lft.to/lastmile_qr_scan"}, "is_reserved": 0, "is_disabled": 0, "name": "80ea887785ec11bb8520ea5360bd7ff9", "bike_id": "80ea887785ec11bb8520ea5360bd7ff9", "fusion_lat": 0.0, "lon": -77.02489466666667, "type": "electric_scooter", "fusion_lon": 0.0, "lat": 38.94183833333334}, {"rental_uris": {"android": "https://dc.lft.to/lastmile_qr_scan", "ios": "https://dc.lft.to/lastmile_qr_scan"}, "is_reserved": 0, "is_disabled": 0, "name": "7b32f6b049e1e21b354a013f54e2b1be", "bike_id": "7b32f6b049e1e21b354a013f54e2b1be", "fusion_lat": 0.0, "lon": -77.0008345, "type": "electric_scooter", "fusion_lon": 0.0, "lat": 38.919213666666664}, {"rental_uris": {"android": "https://dc.lft.to/lastmile_qr_scan", "ios": "https://dc.lft.to/lastmile_qr_scan"}, "is_reserved": 0, "is_disabled": 0, "name": "7ff04ecc00f3105768242d9154e6cf13", "bike_id": "7ff04ecc00f3105768242d9154e6cf13", "fusion_lat": 0.0, "lon": -76.99913866666667, "type": "electric_bike", "fusion_lon": 0.0, "lat": 38.864452666666665}, {"rental_uris": {"android": "https://dc.lft.to/lastmile_qr_scan", "ios": "https://dc.lft.to/lastmile_qr_scan"}, "is_reserved": 0, "is_disabled": 0, "name": "50e6f0871636304e9dfa9e31d6551622", "bike_id": "50e6f0871636304e9dfa9e31d6551622", "fusion_lat": 0.0, "lon": -77.02153433333334, "type": "electric_scooter", "fusion_lon": 0.0, "lat": 38.92604466666667}, {"rental_uris": {"android": "https://dc.lft.to/lastmile_qr_scan", "ios": "https://dc.lft.to/lastmile_qr_scan"}, "is_reserved": 0, "is_disabled": 0, "name": "0e0b3a52f3b037a28363275171b7f1f1", "bike_id": "0e0b3a52f3b037a28363275171b7f1f1", "fusion_lat": 0.0, "lon": -76.92986866666666, "type": "electric_scooter", "fusion_lon": 0.0, "lat": 38.9014965}, {"rental_uris": {"android": "https://dc.lft.to/lastmile_qr_scan", "ios": "https://dc.lft.to/lastmile_qr_scan"}, "is_reserved": 0, "is_disabled": 0, "name": "fb586c47671fda8ff4d5c6d3132521ae", "bike_id": "fb586c47671fda8ff4d5c6d3132521ae", "fusion_lat": 0.0, "lon": -77.04617383333333, "type": "electric_scooter", "fusion_lon": 0.0, "lat": 38.922288}, {"rental_uris": {"android": "https://dc.lft.to/lastmile_qr_scan", "ios": "https://dc.lft.to/lastmile_qr_scan"}, "is_reserved": 0, "is_disabled": 0, "name": "63c484d954e0c484e4bd5f6732a3733c", "bike_id": "63c484d954e0c484e4bd5f6732a3733c", "fusion_lat": 0.0, "lon": -76.98356233333334, "type": "electric_scooter", "fusion_lon": 0.0, "lat": 38.887345333333336}, {"rental_uris": {"android": "https://dc.lft.to/lastmile_qr_scan", "ios": "https://dc.lft.to/lastmile_qr_scan"}, "is_reserved": 0, "is_disabled": 0, "name": "2f33d4b302f14dcae6cc48aaea90dd95", "bike_id": "2f33d4b302f14dcae6cc48aaea90dd95", "fusion_lat": 0.0, "lon": -76.95744633333334, "type": "electric_bike", "fusion_lon": 0.0, "lat": 38.88860016666667}, {"rental_uris": {"android": "https://dc.lft.to/lastmile_qr_scan", "ios": "https://dc.lft.to/lastmile_qr_scan"}, "is_reserved": 0, "is_disabled": 0, "name": "553f192812379b3d556ec3a8ba1f5aaf", "bike_id": "553f192812379b3d556ec3a8ba1f5aaf", "fusion_lat": 0.0, "lon": -77.089461, "type": "electric_bike", "fusion_lon": 0.0, "lat": 38.841103833333335}, {"rental_uris": {"android": "https://dc.lft.to/lastmile_qr_scan", "ios": "https://dc.lft.to/lastmile_qr_scan"}, "is_reserved": 0, "is_disabled": 0, "name": "86b73733c7f6b9d32b5ea83de6a495e4", "bike_id": "86b73733c7f6b9d32b5ea83de6a495e4", "fusion_lat": 0.0, "lon": -77.0022755, "type": "electric_bike", "fusion_lon": 0.0, "lat": 38.9112115}, {"rental_uris": {"android": "https://dc.lft.to/lastmile_qr_scan", "ios": "https://dc.lft.to/lastmile_qr_scan"}, "is_reserved": 0, "is_disabled": 0, "name": "27d105773ad91ec1d7e627539b4d2d44", "bike_id": "27d105773ad91ec1d7e627539b4d2d44", "fusion_lat": 0.0, "lon": -77.05120883333333, "type": "electric_scooter", "fusion_lon": 0.0, "lat": 38.923414333333334}, {"rental_uris": {"android": "https://dc.lft.to/lastmile_qr_scan", "ios": "https://dc.lft.to/lastmile_qr_scan"}, "is_reserved": 0, "is_disabled": 0, "name": "51eb2d1f63263a5e31ce36be312caa73", "bike_id": "51eb2d1f63263a5e31ce36be312caa73", "fusion_lat": 0.0, "lon": -77.0270395, "type": "electric_scooter", "fusion_lon": 0.0, "lat": 38.9495265}, {"rental_uris": {"android": "https://dc.lft.to/lastmile_qr_scan", "ios": "https://dc.lft.to/lastmile_qr_scan"}, "is_reserved": 0, "is_disabled": 0, "name": "f3e07b80f95f297cf561c588fed3c91f", "bike_id": "f3e07b80f95f297cf561c588fed3c91f", "fusion_lat": 0.0, "lon": -77.04224466666666, "type": "electric_scooter", "fusion_lon": 0.0, "lat": 38.92159783333334}, {"rental_uris": {"android": "https://dc.lft.to/lastmile_qr_scan", "ios": "https://dc.lft.to/lastmile_qr_scan"}, "is_reserved": 0, "is_disabled": 0, "name": "51f763823ae6a31a3e780785dc1cc1c4", "bike_id": "51f763823ae6a31a3e780785dc1cc1c4", "fusion_lat": 0.0, "lon": -76.947149, "type": "electric_scooter", "fusion_lon": 0.0, "lat": 38.8908445}, {"rental_uris": {"android": "https://dc.lft.to/lastmile_qr_scan", "ios": "https://dc.lft.to/lastmile_qr_scan"}, "is_reserved": 0, "is_disabled": 0, "name": "25bbb4906b054e6a8bddf28e9535b154", "bike_id": "25bbb4906b054e6a8bddf28e9535b154", "fusion_lat": 0.0, "lon": -77.036883, "type": "electric_scooter", "fusion_lon": 0.0, "lat": 38.9167635}, {"rental_uris": {"android": "https://dc.lft.to/lastmile_qr_scan", "ios": "https://dc.lft.to/lastmile_qr_scan"}, "is_reserved": 0, "is_disabled": 0, "name": "adaebf37c3ed37d7424f63416d7ad03a", "bike_id": "adaebf37c3ed37d7424f63416d7ad03a", "fusion_lat": 0.0, "lon": -77.04516233333334, "type": "electric_scooter", "fusion_lon": 0.0, "lat": 38.91285}, {"rental_uris": {"android": "https://dc.lft.to/lastmile_qr_scan", "ios": "https://dc.lft.to/lastmile_qr_scan"}, "is_reserved": 0, "is_disabled": 0, "name": "15851ef7692f39d6ac0353539fda8372", "bike_id": "15851ef7692f39d6ac0353539fda8372", "fusion_lat": 0.0, "lon": -77.01971283333333, "type": "electric_scooter", "fusion_lon": 0.0, "lat": 38.912948166666666}, {"rental_uris": {"android": "https://dc.lft.to/lastmile_qr_scan", "ios": "https://dc.lft.to/lastmile_qr_scan"}, "is_reserved": 0, "is_disabled": 0, "name": "f6c9f37de9bb08cb53962f9fe805911b", "bike_id": "f6c9f37de9bb08cb53962f9fe805911b", "fusion_lat": 0.0, "lon": -77.003462, "type": "electric_scooter", "fusion_lon": 0.0, "lat": 38.903667}, {"rental_uris": {"android": "https://dc.lft.to/lastmile_qr_scan", "ios": "https://dc.lft.to/lastmile_qr_scan"}, "is_reserved": 0, "is_disabled": 0, "name": "e9c57c22662762de1cff54c52e0e46ce", "bike_id": "e9c57c22662762de1cff54c52e0e46ce", "fusion_lat": 0.0, "lon": -77.02879583333333, "type": "electric_scooter", "fusion_lon": 0.0, "lat": 38.91348383333333}, {"rental_uris": {"android": "https://dc.lft.to/lastmile_qr_scan", "ios": "https://dc.lft.to/lastmile_qr_scan"}, "is_reserved": 0, "is_disabled": 0, "name": "a6467885049b468c247205d184f4409d", "bike_id": "a6467885049b468c247205d184f4409d", "fusion_lat": 0.0, "lon": -76.99701533333334, "type": "electric_bike", "fusion_lon": 0.0, "lat": 38.83863816666667}, {"rental_uris": {"android": "https://dc.lft.to/lastmile_qr_scan", "ios": "https://dc.lft.to/lastmile_qr_scan"}, "is_reserved": 0, "is_disabled": 0, "name": "624186dbc433ce5ae79ad61a054f3122", "bike_id": "624186dbc433ce5ae79ad61a054f3122", "fusion_lat": 0.0, "lon": -77.021191, "type": "electric_scooter", "fusion_lon": 0.0, "lat": 38.917403}, {"rental_uris": {"android": "https://dc.lft.to/lastmile_qr_scan", "ios": "https://dc.lft.to/lastmile_qr_scan"}, "is_reserved": 0, "is_disabled": 0, "name": "ad51fb5121d42cebb70adc3e7940c7ff", "bike_id": "ad51fb5121d42cebb70adc3e7940c7ff", "fusion_lat": 0.0, "lon": -76.99276983333333, "type": "electric_bike", "fusion_lon": 0.0, "lat": 38.972587833333336}, {"rental_uris": {"android": "https://dc.lft.to/lastmile_qr_scan", "ios": "https://dc.lft.to/lastmile_qr_scan"}, "is_reserved": 0, "is_disabled": 0, "name": "84e770c0d688eb30490ebe5879e3c30c", "bike_id": "84e770c0d688eb30490ebe5879e3c30c", "fusion_lat": 0.0, "lon": -77.0416075, "type": "electric_scooter", "fusion_lon": 0.0, "lat": 38.917193166666664}, {"rental_uris": {"android": "https://dc.lft.to/lastmile_qr_scan", "ios": "https://dc.lft.to/lastmile_qr_scan"},