{"data": {"bikes": [{"bike_id": "edcdf69cf4f79727b0fcece59bc5a928", "fusion_lon": 0.0, "name": "edcdf69cf4f79727b0fcece59bc5a928", "lat": 38.89742616666667, "is_disabled": 0, "is_reserved": 0, "lon": -77.0272725, "type": "electric_scooter", "fusion_lat": 0.0, "rental_uris": {"android": "https://dc.lft.to/lastmile_qr_scan", "ios": "https://dc.lft.to/lastmile_qr_scan"}}, {"bike_id": "f6dec7a68031244822bc7186b118f245", "fusion_lon": 0.0, "name": "f6dec7a68031244822bc7186b118f245", "lat": 38.85652983333333, "is_disabled": 0, "is_reserved": 0, "lon": -77.08527483333333, "type": "electric_bike", "fusion_lat": 0.0, "rental_uris": {"android": "https://dc.lft.to/lastmile_qr_scan", "ios": "https://dc.lft.to/lastmile_qr_scan"}}, {"bike_id": "ed19cf45703d3b768e5759e5a151b45c", "fusion_lon": 0.0, "name": "ed19cf45703d3b768e5759e5a151b45c", "lat": 38.90715133333333, "is_disabled": 0, "is_reserved": 0, "lon": -77.0058045, "type": "electric_scooter", "fusion_lat": 0.0, "rental_uris": {"android": "https://dc.lft.to/lastmile_qr_scan", "ios": "https://dc.lft.to/lastmile_qr_scan"}}, {"bike_id": "66676729f7bb7c0b008075839faa4a1d", "fusion_lon": 0.0, "name": "66676729f7bb7c0b008075839faa4a1d", "lat": 38.882681, "is_disabled": 0, "is_reserved": 0, "lon": -76.9266515, "type": "electric_scooter", "fusion_lat": 0.0, "rental_uris": {"android": "https://dc.lft.to/lastmile_qr_scan", "ios": "https://dc.lft.to/lastmile_qr_scan"}}, {"bike_id": "a6a853487ae67ba2171296de93d78802", "fusion_lon": 0.0, "name": "a6a853487ae67ba2171296de93d78802", "lat": 38.920497166666664, "is_disabled": 0, "is_reserved": 0, "lon": -77.01670966666667, "type": "electric_scooter", "fusion_lat": 0.0, "rental_uris": {"android": "https://dc.lft.to/lastmile_qr_scan", "ios": "https://dc.lft.to/lastmile_qr_scan"}}, {"bike_id": "fe4674f33e2646959017d4571c9e37a8", "fusion_lon": 0.0, "name": "fe4674f33e2646959017d4571c9e37a8", "lat": 38.915395333333336, "is_disabled": 0, "is_reserved": 0, "lon": -77.01221883333334, "type": "electric_scooter", "fusion_lat": 0.0, "rental_uris": {"android": "https://dc.lft.to/lastmile_qr_scan", "ios": "https://dc.lft.to/lastmile_qr_scan"}}, {"bike_id": "5d2d452e9eecd9e6809472ca77aa4396", "fusion_lon": 0.0, "name": "5d2d452e9eecd9e6809472ca77aa4396", "lat": 38.89706866666667, "is_disabled": 0, "is_reserved": 0, "lon": -77.01607233333333, "type": "electric_scooter", "fusion_lat": 0.0, "rental_uris": {"android": "https://dc.lft.to/lastmile_qr_scan", "ios": "https://dc.lft.to/lastmile_qr_scan"}}, {"bike_id": "f63fb19bf952b41df1b20957eb6d62b4", "fusion_lon": 0.0, "name": "f63fb19bf952b41df1b20957eb6d62b4", "lat": 38.89358816666667, "is_disabled": 0, "is_reserved": 0, "lon": -77.02800983333333, "type": "electric_scooter", "fusion_lat": 0.0, "rental_uris": {"android": "https://dc.lft.to/lastmile_qr_scan", "ios": "https://dc.lft.to/lastmile_qr_scan"}}, {"bike_id": "5e047b1c75c1f87479b8ddac233004a0", "fusion_lon": 0.0, "name": "5e047b1c75c1f87479b8ddac233004a0", "lat": 38.9303015, "is_disabled": 0, "is_reserved": 0, "lon": -77.03294083333333, "type": "electric_scooter", "fusion_lat": 0.0, "rental_uris": {"android": "https://dc.lft.to/lastmile_qr_scan", "ios": "https://dc.lft.to/lastmile_qr_scan"}}, {"bike_id": "0ddfc76a3820a350d5bfe6cf7fe6eaf0", "fusion_lon": 0.0, "name": "0ddfc76a3820a350d5bfe6cf7fe6eaf0", "lat": 38.905321, "is_disabled": 0, "is_reserved": 0, "lon": -77.02693933333333, "type": "electric_scooter", "fusion_lat": 0.0, "rental_uris": {"android": "https://dc.lft.to/lastmile_qr_scan", "ios": "https://dc.lft.to/lastmile_qr_scan"}}, {"bike_id": "7dd9ad1b23f22a0fa9c3508fe77bd272", "fusion_lon": 0.0, "name": "7dd9ad1b23f22a0fa9c3508fe77bd272", "lat": 38.888137, "is_disabled": 0, "is_reserved": 0, "lon": -76.98358966666666, "type": "electric_scooter", "fusion_lat": 0.0, "rental_uris": {"android": "https://dc.lft.to/lastmile_qr_scan", "ios": "https://dc.lft.to/lastmile_qr_scan"}}, {"bike_id": "4f1069677aed0b7c6fe8b2d9d52201a8", "fusion_lon": 0.0, "name": "4f1069677aed0b7c6fe8b2d9d52201a8", "lat": 38.89516283333333, "is_disabled": 0, "is_reserved": 0, "lon": -77.02223366666666, "type": "electric_scooter", "fusion_lat": 0.0, "rental_uris": {"android": "https://dc.lft.to/lastmile_qr_scan", "ios": "https://dc.lft.to/lastmile_qr_scan"}}, {"bike_id": "1fa55722b6007ebce15714735931403e", "fusion_lon": 0.0, "name": "1fa55722b6007ebce15714735931403e", "lat": 38.921105833333336, "is_disabled": 0, "is_reserved": 0, "lon": -77.01315616666666, "type": "electric_scooter", "fusion_lat": 0.0, "rental_uris": {"android": "https://dc.lft.to/lastmile_qr_scan", "ios": "https://dc.lft.to/lastmile_qr_scan"}}, {"bike_id": "712cfaeae017377eabf2e59604cc8dac", "fusion_lon": 0.0, "name": "712cfaeae017377eabf2e59604cc8dac", "lat": 38.917115333333335, "is_disabled": 0, "is_reserved": 0, "lon": -77.03475316666666, "type": "electric_scooter", "fusion_lat": 0.0, "rental_uris": {"android": "https://dc.lft.to/lastmile_qr_scan", "ios": "https://dc.lft.to/lastmile_qr_scan"}}, {"bike_id": "8dfd39ec4bd10cc824514db7042b2cba", "fusion_lon": 0.0, "name": "8dfd39ec4bd10cc824514db7042b2cba", "lat": 38.921147500000004, "is_disabled": 0, "is_reserved": 0, "lon": -77.04383383333334, "type": "electric_scooter", "fusion_lat": 0.0, "rental_uris": {"android": "https://dc.lft.to/lastmile_qr_scan", "ios": "https://dc.lft.to/lastmile_qr_scan"}}, {"bike_id": "adf85d92847c945e20722079ca2a4d0e", "fusion_lon": 0.0, "name": "adf85d92847c945e20722079ca2a4d0e", "lat": 38.88471916666667, "is_disabled": 0, "is_reserved": 0, "lon": -76.94983416666666, "type": "electric_scooter", "fusion_lat": 0.0, "rental_uris": {"android": "https://dc.lft.to/lastmile_qr_scan", "ios": "https://dc.lft.to/lastmile_qr_scan"}}, {"bike_id": "6479e8655a75a9e1122ebde0bf66a5e3", "fusion_lon": 0.0, "name": "6479e8655a75a9e1122ebde0bf66a5e3", "lat": 38.93677816666667, "is_disabled": 0, "is_reserved": 0, "lon": -77.03591666666667, "type": "electric_scooter", "fusion_lat": 0.0, "rental_uris": {"android": "https://dc.lft.to/lastmile_qr_scan", "ios": "https://dc.lft.to/lastmile_qr_scan"}}, {"bike_id": "2f5b3e33f45baa6a40c2cde0b86d3337", "fusion_lon": 0.0, "name": "2f5b3e33f45baa6a40c2cde0b86d3337", "lat": 38.8833775, "is_disabled": 0, "is_reserved": 0, "lon": -77.0176915, "type": "electric_scooter", "fusion_lat": 0.0, "rental_uris": {"android": "https://dc.lft.to/lastmile_qr_scan", "ios": "https://dc.lft.to/lastmile_qr_scan"}}, {"bike_id": "93a8ad1603e5726b055f49f1e1dda136", "fusion_lon": 0.0, "name": "93a8ad1603e5726b055f49f1e1dda136", "lat": 38.902581833333336, "is_disabled": 0, "is_reserved": 0, "lon": -77.04570416666667, "type": "electric_scooter", "fusion_lat": 0.0, "rental_uris": {"android": "https://dc.lft.to/lastmile_qr_scan", "ios": "https://dc.lft.to/lastmile_qr_scan"}}, {"bike_id": "3b9980ad48b2a01e65a2f4b51770e99b", "fusion_lon": 0.0, "name": "3b9980ad48b2a01e65a2f4b51770e99b", "lat": 38.92044516666667, "is_disabled": 0, "is_reserved": 0, "lon": -77.0167535, "type": "electric_scooter", "fusion_lat": 0.0, "rental_uris": {"android": "https://dc.lft.to/lastmile_qr_scan", "ios": "https://dc.lft.to/lastmile_qr_scan"}}, {"bike_id": "abfdebb8aba39b4d3305a3d3b45c6c89", "fusion_lon": 0.0, "name": "abfdebb8aba39b4d3305a3d3b45c6c89", "lat": 38.908098833333334, "is_disabled": 0, "is_reserved": 0, "lon": -77.03864266666666, "type": "electric_scooter", "fusion_lat": 0.0, "rental_uris": {"android": "https://dc.lft.to/lastmile_qr_scan", "ios": "https://dc.lft.to/lastmile_qr_scan"}}, {"bike_id": "f36d446512461a246fcc13454c82ba1b", "fusion_lon": 0.0, "name": "f36d446512461a246fcc13454c82ba1b", "lat": 38.916556, "is_disabled": 0, "is_reserved": 0, "lon": -77.0479095, "type": "electric_scooter", "fusion_lat": 0.0, "rental_uris": {"android": "https://dc.lft.to/lastmile_qr_scan", "ios": "https://dc.lft.to/lastmile_qr_scan"}}, {"bike_id": "484b191e29fb59af6780bdd200ef1dcf", "fusion_lon": 0.0, "name": "484b191e29fb59af6780bdd200ef1dcf", "lat": 38.89922983333334, "is_disabled": 0, "is_reserved": 0, "lon": -77.03300833333333, "type": "electric_scooter", "fusion_lat": 0.0, "rental_uris": {"android": "https://dc.lft.to/lastmile_qr_scan", "ios": "https://dc.lft.to/lastmile_qr_scan"}}, {"bike_id": "1126e9a19c96bd6ddca604c8f42d7438", "fusion_lon": 0.0, "name": "1126e9a19c96bd6ddca604c8f42d7438", "lat": 38.926111666666664, "is_disabled": 0, "is_reserved": 0, "lon": -77.05715533333333, "type": "electric_scooter", "fusion_lat": 0.0, "rental_uris": {"android": "https://dc.lft.to/lastmile_qr_scan", "ios": "https://dc.lft.to/lastmile_qr_scan"}}, {"bike_id": "5a57128d869db3d993b96b09318758c3", "fusion_lon": 0.0, "name": "5a57128d869db3d993b96b09318758c3", "lat": 38.89656216666667, "is_disabled": 0, "is_reserved": 0, "lon": -77.0262695, "type": "electric_scooter", "fusion_lat": 0.0, "rental_uris": {"android": "https://dc.lft.to/lastmile_qr_scan", "ios": "https://dc.lft.to/lastmile_qr_scan"}}, {"bike_id": "cbf02d176e98148c5d396567f443bf81", "fusion_lon": 0.0, "name": "cbf02d176e98148c5d396567f443bf81", "lat": 38.91560783333333, "is_disabled": 0, "is_reserved": 0, "lon": -77.03772866666667, "type": "electric_scooter", "fusion_lat": 0.0, "rental_uris": {"android": "https://dc.lft.to/lastmile_qr_scan", "ios": "https://dc.lft.to/lastmile_qr_scan"}}, {"bike_id": "49f00c61f1abe7e5dd9491c2785849aa", "fusion_lon": 0.0, "name": "49f00c61f1abe7e5dd9491c2785849aa", "lat": 38.87666866666667, "is_disabled": 0, "is_reserved": 0, "lon": -77.00520983333334, "type": "electric_scooter", "fusion_lat": 0.0, "rental_uris": {"android": "https://dc.lft.to/lastmile_qr_scan", "ios": "https://dc.lft.to/lastmile_qr_scan"}}, {"bike_id": "5c71b60a1021c9f56362fd2b2be5ef53", "fusion_lon": 0.0, "name": "5c71b60a1021c9f56362fd2b2be5ef53", "lat": 38.923694, "is_disabled": 0, "is_reserved": 0, "lon": -77.05030366666666, "type": "electric_scooter", "fusion_lat": 0.0, "rental_uris": {"android": "https://dc.lft.to/lastmile_qr_scan", "ios": "https://dc.lft.to/lastmile_qr_scan"}}, {"bike_id": "e73e7d3327406ce16261782853fb4822", "fusion_lon": 0.0, "name": "e73e7d3327406ce16261782853fb4822", "lat": 38.9005075, "is_disabled": 0, "is_reserved": 0, "lon": -76.98843516666666, "type": "electric_scooter", "fusion_lat": 0.0, "rental_uris": {"android": "https://dc.lft.to/lastmile_qr_scan", "ios": "https://dc.lft.to/lastmile_qr_scan"}}, {"bike_id": "6aeefa5c6a3881a1e7a2f5f2a9de9d13", "fusion_lon": 0.0, "name": "6aeefa5c6a3881a1e7a2f5f2a9de9d13", "lat": 38.90599866666667, "is_disabled": 0, "is_reserved": 0, "lon": -77.04088633333333, "type": "electric_scooter", "fusion_lat": 0.0, "rental_uris": {"android": "https://dc.lft.to/lastmile_qr_scan", "ios": "https://dc.lft.to/lastmile_qr_scan"}}, {"bike_id": "4acc867d9f708c778dca21ffa35118b9", "fusion_lon": 0.0, "name": "4acc867d9f708c778dca21ffa35118b9", "lat": 38.91266, "is_disabled": 0, "is_reserved": 0, "lon": -76.98357416666667, "type": "electric_scooter", "fusion_lat": 0.0, "rental_uris": {"android": "https://dc.lft.to/lastmile_qr_scan", "ios": "https://dc.lft.to/lastmile_qr_scan"}}, {"bike_id": "f674d9e5064c475c9d6b1f8dd018bc95", "fusion_lon": 0.0, "name": "f674d9e5064c475c9d6b1f8dd018bc95", "lat": 38.912704166666664, "is_disabled": 0, "is_reserved": 0, "lon": -77.03830783333333, "type": "electric_scooter", "fusion_lat": 0.0, "rental_uris": {"android": "https://dc.lft.to/lastmile_qr_scan", "ios": "https://dc.lft.to/lastmile_qr_scan"}}, {"bike_id": "fc96d43af34573313d0c1d2a4b3bceea", "fusion_lon": 0.0, "name": "fc96d43af34573313d0c1d2a4b3bceea", "lat": 38.91637516666667, "is_disabled": 0, "is_reserved": 0, "lon": -77.04128516666667, "type": "electric_scooter", "fusion_lat": 0.0, "rental_uris": {"android": "https://dc.lft.to/lastmile_qr_scan", "ios": "https://dc.lft.to/lastmile_qr_scan"}}, {"bike_id": "4a02a57551ef3bd9198a3c2469cedc48", "fusion_lon": 0.0, "name": "4a02a57551ef3bd9198a3c2469cedc48", "lat": 38.886159166666665, "is_disabled": 0, "is_reserved": 0, "lon": -77.01539133333333, "type": "electric_scooter", "fusion_lat": 0.0, "rental_uris": {"android": "https://dc.lft.to/lastmile_qr_scan", "ios": "https://dc.lft.to/lastmile_qr_scan"}}, {"bike_id": "ca1d168367243ca8e24080d5141921e9", "fusion_lon": 0.0, "name": "ca1d168367243ca8e24080d5141921e9", "lat": 38.930046833333336, "is_disabled": 0, "is_reserved": 0, "lon": -77.03263533333333, "type": "electric_scooter", "fusion_lat": 0.0, "rental_uris": {"android": "https://dc.lft.to/lastmile_qr_scan", "ios": "https://dc.lft.to/lastmile_qr_scan"}}, {"bike_id": "3a450771559fe121c05e942ad1fe4010", "fusion_lon": 0.0, "name": "3a450771559fe121c05e942ad1fe4010", "lat": 38.91270333333333, "is_disabled": 0, "is_reserved": 0, "lon": -77.01435016666667, "type": "electric_scooter", "fusion_lat": 0.0, "rental_uris": {"android": "https://dc.lft.to/lastmile_qr_scan", "ios": "https://dc.lft.to/lastmile_qr_scan"}}, {"bike_id": "cc3f9d01818d90a7e233893f7e4439a8", "fusion_lon": 0.0, "name": "cc3f9d01818d90a7e233893f7e4439a8", "lat": 38.898499, "is_disabled": 0, "is_reserved": 0, "lon": -77.03935933333334, "type": "electric_scooter", "fusion_lat": 0.0, "rental_uris": {"android": "https://dc.lft.to/lastmile_qr_scan", "ios": "https://dc.lft.to/lastmile_qr_scan"}}, {"bike_id": "35f43578848b55f14701b770cdf91c3b", "fusion_lon": 0.0, "name": "35f43578848b55f14701b770cdf91c3b", "lat": 38.9356305, "is_disabled": 0, "is_reserved": 0, "lon": -77.0746105, "type": "electric_scooter", "fusion_lat": 0.0, "rental_uris": {"android": "https://dc.lft.to/lastmile_qr_scan", "ios": "https://dc.lft.to/lastmile_qr_scan"}}, {"bike_id": "faa57e08ee7f489b09841ce55e7f6583", "fusion_lon": 0.0, "name": "faa57e08ee7f489b09841ce55e7f6583", "lat": 38.89143816666667, "is_disabled": 0, "is_reserved": 0, "lon": -76.992549, "type": "electric_scooter", "fusion_lat": 0.0, "rental_uris": {"android": "https://dc.lft.to/lastmile_qr_scan", "ios": "https://dc.lft.to/lastmile_qr_scan"}}, {"bike_id": "4795f1bfb0bed792f5bf23e0ec14f513", "fusion_lon": 0.0, "name": "4795f1bfb0bed792f5bf23e0ec14f513", "lat": 38.88306383333333, "is_disabled": 0, "is_reserved": 0, "lon": -76.948554, "type": "electric_scooter", "fusion_lat": 0.0, "rental_uris": {"android": "https://dc.lft.to/lastmile_qr_scan", "ios": "https://dc.lft.to/lastmile_qr_scan"}}, {"bike_id": "6001a3266f6a2aa4e2fae1e26da9d150", "fusion_lon": 0.0, "name": "6001a3266f6a2aa4e2fae1e26da9d150", "lat": 38.8642115, "is_disabled": 0, "is_reserved": 0, "lon": -76.99008116666667, "type": "electric_scooter", "fusion_lat": 0.0, "rental_uris": {"android": "https://dc.lft.to/lastmile_qr_scan", "ios": "https://dc.lft.to/lastmile_qr_scan"}}, {"bike_id": "0dca27e739100afb2569e8d3be6a3f90", "fusion_lon": 0.0, "name": "0dca27e739100afb2569e8d3be6a3f90", "lat": 38.914768, "is_disabled": 0, "is_reserved": 0, "lon": -77.0388575, "type": "electric_scooter", "fusion_lat": 0.0, "rental_uris": {"android": "https://dc.lft.to/lastmile_qr_scan", "ios": "https://dc.lft.to/lastmile_qr_scan"}}, {"bike_id": "f1107e003c6b4024ef7b8025ef70a1d0", "fusion_lon": 0.0, "name": "f1107e003c6b4024ef7b8025ef70a1d0", "lat": 38.91783266666667, "is_disabled": 0, "is_reserved": 0, "lon": -77.0228195, "type": "electric_scooter", "fusion_lat": 0.0, "rental_uris": {"android": "https://dc.lft.to/lastmile_qr_scan", "ios": "https://dc.lft.to/lastmile_qr_scan"}}, {"bike_id": "4281d69345b6802b7399f7ada666d936", "fusion_lon": 0.0, "name": "4281d69345b6802b7399f7ada666d936", "lat": 38.90036833333333, "is_disabled": 0, "is_reserved": 0, "lon": -77.031375, "type": "electric_scooter", "fusion_lat": 0.0, "rental_uris": {"android": "https://dc.lft.to/lastmile_qr_scan", "ios": "https://dc.lft.to/lastmile_qr_scan"}}, {"bike_id": "10239bb7aab6c868882b6009c12deaeb", "fusion_lon": 0.0, "name": "10239bb7aab6c868882b6009c12deaeb", "lat": 38.8904675, "is_disabled": 0, "is_reserved": 0, "lon": -76.95244016666666, "type": "electric_scooter", "fusion_lat": 0.0, "rental_uris": {"android": "https://dc.lft.to/lastmile_qr_scan", "ios": "https://dc.lft.to/lastmile_qr_scan"}}, {"bike_id": "26822646a92f8d3df0df2b102aa29620", "fusion_lon": 0.0, "name": "26822646a92f8d3df0df2b102aa29620", "lat": 38.919326833333336, "is_disabled": 0, "is_reserved": 0, "lon": -77.01358816666666, "type": "electric_scooter", "fusion_lat": 0.0, "rental_uris": {"android": "https://dc.lft.to/lastmile_qr_scan", "ios": "https://dc.lft.to/lastmile_qr_scan"}}, {"bike_id": "91354b0b7df4fbda7d676671b27e40e9", "fusion_lon": 0.0, "name": "91354b0b7df4fbda7d676671b27e40e9", "lat": 38.892397833333334, "is_disabled": 0, "is_reserved": 0, "lon": -77.0415625, "type": "electric_scooter", "fusion_lat": 0.0, "rental_uris": {"android": "https://dc.lft.to/lastmile_qr_scan", "ios": "https://dc.lft.to/lastmile_qr_scan"}}, {"bike_id": "cc196d909dd66d97ed9ec1a56b466f35", "fusion_lon": 0.0, "name": "cc196d909dd66d97ed9ec1a56b466f35", "lat": 38.92417783333333, "is_disabled": 0, "is_reserved": 0, "lon": -77.02027933333333, "type": "electric_scooter", "fusion_lat": 0.0, "rental_uris": {"android": "https://dc.lft.to/lastmile_qr_scan", "ios": "https://dc.lft.to/lastmile_qr_scan"}}, {"bike_id": "e988cd2495a9d26b51da0d9e97633035", "fusion_lon": 0.0, "name": "e988cd2495a9d26b51da0d9e97633035", "lat": 38.91116566666667, "is_disabled": 0, "is_reserved": 0, "lon": -77.0241675, "type": "electric_scooter", "fusion_lat": 0.0, "rental_uris": {"android": "https://dc.lft.to/lastmile_qr_scan", "ios": "https://dc.lft.to/lastmile_qr_scan"}}, {"bike_id": "4b91d8dc2e2176ed415c68d9e0c385e3", "fusion_lon": 0.0, "name": "4b91d8dc2e2176ed415c68d9e0c385e3", "lat": 38.92290783333333, "is_disabled": 0, "is_reserved": 0, "lon": -77.0319645, "type": "electric_scooter", "fusion_lat": 0.0, "rental_uris": {"android": "https://dc.lft.to/lastmile_qr_scan", "ios": "https://dc.lft.to/lastmile_qr_scan"}}, {"bike_id": "1eee717dbdbf2e73730857a1b1bef352", "fusion_lon": 0.0, "name": "1eee717dbdbf2e73730857a1b1bef352", "lat": 38.9177585, "is_disabled": 0, "is_reserved": 0, "lon": -77.041018, "type": "electric_scooter", "fusion_lat": 0.0, "rental_uris": {"android": "https://dc.lft.to/lastmile_qr_scan", "ios": "https://dc.lft.to/lastmile_qr_scan"}}, {"bike_id": "8ade9b0a8d44497b25e27b2d8cefbc18", "fusion_lon": 0.0, "name": "8ade9b0a8d44497b25e27b2d8cefbc18", "lat": 38.88738883333333, "is_disabled": 0, "is_reserved": 0, "lon": -77.02583216666666, "type": "electric_scooter", "fusion_lat": 0.0, "rental_uris": {"android": "https://dc.lft.to/lastmile_qr_scan", "ios": "https://dc.lft.to/lastmile_qr_scan"}}, {"bike_id": "1ae2275ee0c7b2c5b564690930023996", "fusion_lon": 0.0, "name": "1ae2275ee0c7b2c5b564690930023996", "lat": 38.92465033333333, "is_disabled": 0, "is_reserved": 0, "lon": -77.06731766666667, "type": "electric_bike", "fusion_lat": 0.0, "rental_uris": {"android": "https://dc.lft.to/lastmile_qr_scan", "ios": "https://dc.lft.to/lastmile_qr_scan"}}, {"bike_id": "93001330e9ce8a3673cacef5604d8e54", "fusion_lon": 0.0, "name": "93001330e9ce8a3673cacef5604d8e54", "lat": 38.9026265, "is_disabled": 0, "is_reserved": 0, "lon": -77.03420916666667, "type": "electric_scooter", "fusion_lat": 0.0, "rental_uris": {"android": "https://dc.lft.to/lastmile_qr_scan", "ios": "https://dc.lft.to/lastmile_qr_scan"}}, {"bike_id": "bb5bccfa0424f1d60cad3d51ab7b9f6c", "fusion_lon": 0.0, "name": "bb5bccfa0424f1d60cad3d51ab7b9f6c", "lat": 38.88342683333333, "is_disabled": 0, "is_reserved": 0, "lon": -77.017764, "type": "electric_scooter", "fusion_lat": 0.0, "rental_uris": {"android": "https://dc.lft.to/lastmile_qr_scan", "ios": "https://dc.lft.to/lastmile_qr_scan"}}, {"bike_id": "f27a5ed4ff070379217db6b53ae9c7ce", "fusion_lon": 0.0, "name": "f27a5ed4ff070379217db6b53ae9c7ce", "lat": 38.9031315, "is_disabled": 0, "is_reserved": 0, "lon": -77.06023033333334, "type": "electric_scooter", "fusion_lat": 0.0, "rental_uris": {"android": "https://dc.lft.to/lastmile_qr_scan", "ios": "https://dc.lft.to/lastmile_qr_scan"}}, {"bike_id": "05e0883d4c277fb899bf9cbf0b8402ee", "fusion_lon": 0.0, "name": "05e0883d4c277fb899bf9cbf0b8402ee", "lat": 38.956399833333336, "is_disabled": 0, "is_reserved": 0, "lon": -77.03304033333333, "type": "electric_scooter", "fusion_lat": 0.0, "rental_uris": {"android": "https://dc.lft.to/lastmile_qr_scan", "ios": "https://dc.lft.to/lastmile_qr_scan"}}, {"bike_id": "3d7a0fdbe3691594ca1ece545df50f27", "fusion_lon": 0.0, "name": "3d7a0fdbe3691594ca1ece545df50f27", "lat": 38.9020815, "is_disabled": 0, "is_reserved": 0, "lon": -77.02760533333333, "type": "electric_scooter", "fusion_lat": 0.0, "rental_uris": {"android": "https://dc.lft.to/lastmile_qr_scan", "ios": "https://dc.lft.to/lastmile_qr_scan"}}, {"bike_id": "8e84dc6948022bd06d3b151953806977", "fusion_lon": 0.0, "name": "8e84dc6948022bd06d3b151953806977", "lat": 38.906709, "is_disabled": 0, "is_reserved": 0, "lon": -77.027158, "type": "electric_scooter", "fusion_lat": 0.0, "rental_uris": {"android": "https://dc.lft.to/lastmile_qr_scan", "ios": "https://dc.lft.to/lastmile_qr_scan"}}, {"bike_id": "2264f729ce86efc330b63fe6dd2f55ab", "fusion_lon": 0.0, "name": "2264f729ce86efc330b63fe6dd2f55ab", "lat": 38.89823, "is_disabled": 0, "is_reserved": 0, "lon": -77.031451, "type": "electric_scooter", "fusion_lat": 0.0, "rental_uris": {"android": "https://dc.lft.to/lastmile_qr_scan", "ios": "https://dc.lft.to/lastmile_qr_scan"}}, {"bike_id": "36ad73b71e07fb307813b2f7b539cc5c", "fusion_lon": 0.0, "name": "36ad73b71e07fb307813b2f7b539cc5c", "lat": 38.91122083333333, "is_disabled": 0, "is_reserved": 0, "lon": -77.04454566666666, "type": "electric_scooter", "fusion_lat": 0.0, "rental_uris": {"android": "https://dc.lft.to/lastmile_qr_scan", "ios": "https://dc.lft.to/lastmile_qr_scan"}}, {"bike_id": "4fcab6436b0e31a3c403223b4f89933d", "fusion_lon": 0.0, "name": "4fcab6436b0e31a3c403223b4f89933d", "lat": 38.902726666666666, "is_disabled": 0, "is_reserved": 0, "lon": -77.03511133333333, "type": "electric_scooter", "fusion_lat": 0.0, "rental_uris": {"android": "https://dc.lft.to/lastmile_qr_scan", "ios": "https://dc.lft.to/lastmile_qr_scan"}}, {"bike_id": "cfd014e0a3c8962669b5600f81fc1ffb", "fusion_lon": 0.0, "name": "cfd014e0a3c8962669b5600f81fc1ffb", "lat": 38.91559083333333, "is_disabled": 0, "is_reserved": 0, "lon": -77.0235595, "type": "electric_scooter", "fusion_lat": 0.0, "rental_uris": {"android": "https://dc.lft.to/lastmile_qr_scan", "ios": "https://dc.lft.to/lastmile_qr_scan"}}, {"bike_id": "41f1cc48a90c0500668a44f660955261", "fusion_lon": 0.0, "name": "41f1cc48a90c0500668a44f660955261", "lat": 38.892264, "is_disabled": 0, "is_reserved": 0, "lon": -77.033402, "type": "electric_scooter", "fusion_lat": 0.0, "rental_uris": {"android": "https://dc.lft.to/lastmile_qr_scan", "ios": "https://dc.lft.to/lastmile_qr_scan"}}, {"bike_id": "3c33779c97aa03d211926f8616693f08", "fusion_lon": 0.0, "name": "3c33779c97aa03d211926f8616693f08", "lat": 38.901582, "is_disabled": 0, "is_reserved": 0, "lon": -77.01316266666667, "type": "electric_scooter", "fusion_lat": 0.0, "rental_uris": {"android": "https://dc.lft.to/lastmile_qr_scan", "ios": "https://dc.lft.to/lastmile_qr_scan"}}, {"bike_id": "b0d0603cfbeb691d673eac7d840bda7d", "fusion_lon": 0.0, "name": "b0d0603cfbeb691d673eac7d840bda7d", "lat": 38.8984195, "is_disabled": 0, "is_reserved": 0, "lon": -77.007555, "type": "electric_scooter", "fusion_lat": 0.0, "rental_uris": {"android": "https://dc.lft.to/lastmile_qr_scan", "ios": "https://dc.lft.to/lastmile_qr_scan"}}, {"bike_id": "2d498f78e56842c586fa4e58cf563a96", "fusion_lon": 0.0, "name": "2d498f78e56842c586fa4e58cf563a96", "lat": 38.895293333333335, "is_disabled": 0, "is_reserved": 0, "lon": -77.00215533333333, "type": "electric_scooter", "fusion_lat": 0.0, "rental_uris": {"android": "https://dc.lft.to/lastmile_qr_scan", "ios": "https://dc.lft.to/lastmile_qr_scan"}}, {"bike_id": "81f269dcfce45ed2760705d8ed526ae5", "fusion_lon": 0.0, "name": "81f269dcfce45ed2760705d8ed526ae5", "lat": 38.90040316666666, "is_disabled": 0, "is_reserved": 0, "lon": -77.01173333333334, "type": "electric_scooter", "fusion_lat": 0.0, "rental_uris": {"android": "https://dc.lft.to/lastmile_qr_scan", "ios": "https://dc.lft.to/lastmile_qr_scan"}}, {"bike_id": "5767c0094a63e791449a0b4f8ada60ee", "fusion_lon": 0.0, "name": "5767c0094a63e791449a0b4f8ada60ee", "lat": 38.91346166666666, "is_disabled": 0, "is_reserved": 0, "lon": -77.03171916666666, "type": "electric_scooter", "fusion_lat": 0.0, "rental_uris": {"android": "https://dc.lft.to/lastmile_qr_scan", "ios": "https://dc.lft.to/lastmile_qr_scan"}}, {"bike_id": "79f19a44d427b93b8cb966a5e94ffc3f", "fusion_lon": 0.0, "name": "79f19a44d427b93b8cb966a5e94ffc3f", "lat": 38.85905016666667, "is_disabled": 0, "is_reserved": 0, "lon": -77.0955215, "type": "electric_bike", "fusion_lat": 0.0, "rental_uris": {"android": "https://dc.lft.to/lastmile_qr_scan", "ios": "https://dc.lft.to/lastmile_qr_scan"}}, {"bike_id": "9a2f13753b61d73f4c9e719bd9c465ce", "fusion_lon": 0.0, "name": "9a2f13753b61d73f4c9e719bd9c465ce", "lat": 38.8922825, "is_disabled": 0, "is_reserved": 0, "lon": -77.04374616666666, "type": "electric_scooter", "fusion_lat": 0.0, "rental_uris": {"android": "https://dc.lft.to/lastmile_qr_scan", "ios": "https://dc.lft.to/lastmile_qr_scan"}}, {"bike_id": "aa6203c2dd25f0280d99ed8632b6720f", "fusion_lon": 0.0, "name": "aa6203c2dd25f0280d99ed8632b6720f", "lat": 38.8921245, "is_disabled": 0, "is_reserved": 0, "lon": -76.9971665, "type": "electric_scooter", "fusion_lat": 0.0, "rental_uris": {"android": "https://dc.lft.to/lastmile_qr_scan", "ios": "https://dc.lft.to/lastmile_qr_scan"}}, {"bike_id": "6ee06cae5dd99f52bd1956650d35e49e", "fusion_lon": 0.0, "name": "6ee06cae5dd99f52bd1956650d35e49e", "lat": 38.93613083333334, "is_disabled": 0, "is_reserved": 0, "lon": -77.05860816666667, "type": "electric_scooter", "fusion_lat": 0.0, "rental_uris": {"android": "https://dc.lft.to/lastmile_qr_scan", "ios": "https://dc.lft.to/lastmile_qr_scan"}}, {"bike_id": "442c1fdc264043f55bdd8fe2bc2638b3", "fusion_lon": 0.0, "name": "442c1fdc264043f55bdd8fe2bc2638b3", "lat": 38.897946, "is_disabled": 0, "is_reserved": 0, "lon": -76.93115, "type": "electric_scooter", "fusion_lat": 0.0, "rental_uris": {"android": "https://dc.lft.to/lastmile_qr_scan", "ios": "https://dc.lft.to/lastmile_qr_scan"}}, {"bike_id": "4db831ac4f44cee23cbf56f09de87e4a", "fusion_lon": 0.0, "name": "4db831ac4f44cee23cbf56f09de87e4a", "lat": 38.8650885, "is_disabled": 0, "is_reserved": 0, "lon": -76.99002133333333, "type": "electric_scooter", "fusion_lat": 0.0, "rental_uris": {"android": "https://dc.lft.to/lastmile_qr_scan", "ios": "https://dc.lft.to/lastmile_qr_scan"}}, {"bike_id": "d5135fa8024a4ceaeaf36387efe5c4cf", "fusion_lon": 0.0, "name": "d5135fa8024a4ceaeaf36387efe5c4cf", "lat": 38.902752, "is_disabled": 0, "is_reserved": 0, "lon": -77.033447, "type": "electric_scooter", "fusion_lat": 0.0, "rental_uris": {"android": "https://dc.lft.to/lastmile_qr_scan", "ios": "https://dc.lft.to/lastmile_qr_scan"}}, {"bike_id": "5b73ad18e26d0a0261e344191a949064", "fusion_lon": 0.0, "name": "5b73ad18e26d0a0261e344191a949064", "lat": 38.905302666666664, "is_disabled": 0, "is_reserved": 0, "lon": -77.041602, "type": "electric_scooter", "fusion_lat": 0.0, "rental_uris": {"android": "https://dc.lft.to/lastmile_qr_scan", "ios": "https://dc.lft.to/lastmile_qr_scan"}}, {"bike_id": "bf48bedf58239e45dcf707ff095018d4", "fusion_lon": 0.0, "name": "bf48bedf58239e45dcf707ff095018d4", "lat": 38.89295116666667, "is_disabled": 0, "is_reserved": 0, "lon": -76.94977, "type": "electric_scooter", "fusion_lat": 0.0, "rental_uris": {"android": "https://dc.lft.to/lastmile_qr_scan", "ios": "https://dc.lft.to/lastmile_qr_scan"}}, {"bike_id": "8d6557b04cccddbacebafa1664f0dca0", "fusion_lon": 0.0, "name": "8d6557b04cccddbacebafa1664f0dca0", "lat": 38.864460666666666, "is_disabled": 0, "is_reserved": 0, "lon": -76.98000666666667, "type": "electric_scooter", "fusion_lat": 0.0, "rental_uris": {"android": "https://dc.lft.to/lastmile_qr_scan", "ios": "https://dc.lft.to/lastmile_qr_scan"}}, {"bike_id": "d91b25a1ddd58c49d3a4ce3fdfdf6b29", "fusion_lon": 0.0, "name": "d91b25a1ddd58c49d3a4ce3fdfdf6b29", "lat": 38.875863333333335, "is_disabled": 0, "is_reserved": 0, "lon": -77.00415583333333, "type": "electric_scooter", "fusion_lat": 0.0, "rental_uris": {"android": "https://dc.lft.to/lastmile_qr_scan", "ios": "https://dc.lft.to/lastmile_qr_scan"}}, {"bike_id": "5e8b2900e588edbd9106f45bc781e7e7", "fusion_lon": 0.0, "name": "5e8b2900e588edbd9106f45bc781e7e7", "lat": 38.88102933333333, "is_disabled": 0, "is_reserved": 0, "lon": -77.00875916666666, "type": "electric_scooter", "fusion_lat": 0.0, "rental_uris": {"android": "https://dc.lft.to/lastmile_qr_scan", "ios": "https://dc.lft.to/lastmile_qr_scan"}}, {"bike_id": "d3154e43221d993c0a8748ccf648f2cb", "fusion_lon": 0.0, "name": "d3154e43221d993c0a8748ccf648f2cb", "lat": 38.935177333333336, "is_disabled": 0, "is_reserved": 0, "lon": -77.0329015, "type": "electric_scooter", "fusion_lat": 0.0, "rental_uris": {"android": "https://dc.lft.to/lastmile_qr_scan", "ios": "https://dc.lft.to/lastmile_qr_scan"}}, {"bike_id": "0bae23bc867cbc093611f22523d40c1b", "fusion_lon": 0.0, "name": "0bae23bc867cbc093611f22523d40c1b", "lat": 38.9098005, "is_disabled": 0, "is_reserved": 0, "lon": -77.03293316666667, "type": "electric_scooter", "fusion_lat": 0.0, "rental_uris": {"android": "https://dc.lft.to/lastmile_qr_scan", "ios": "https://dc.lft.to/lastmile_qr_scan"}}, {"bike_id": "5c9b930d114e3fb7d6d91fe228895a92", "fusion_lon": 0.0, "name": "5c9b930d114e3fb7d6d91fe228895a92", "lat": 38.847335, "is_disabled": 0, "is_reserved": 0, "lon": -76.98249616666666, "type": "electric_scooter", "fusion_lat": 0.0, "rental_uris": {"android": "https://dc.lft.to/lastmile_qr_scan", "ios": "https://dc.lft.to/lastmile_qr_scan"}}, {"bike_id": "745a541acdbb094b531e117148278505", "fusion_lon": 0.0, "name": "745a541acdbb094b531e117148278505", "lat": 38.9208415, "is_disabled": 0, "is_reserved": 0, "lon": -77.018293, "type": "electric_scooter", "fusion_lat": 0.0, "rental_uris": {"android": "https://dc.lft.to/lastmile_qr_scan", "ios": "https://dc.lft.to/lastmile_qr_scan"}}, {"bike_id": "44ecd839c0b1a85a9a42a299f9ebb089", "fusion_lon": 0.0, "name": "44ecd839c0b1a85a9a42a299f9ebb089", "lat": 38.90480316666667, "is_disabled": 0, "is_reserved": 0, "lon": -77.0436435, "type": "electric_scooter", "fusion_lat": 0.0, "rental_uris": {"android": "https://dc.lft.to/lastmile_qr_scan", "ios": "https://dc.lft.to/lastmile_qr_scan"}}, {"bike_id": "1e18f0a90a15b723a7be1ed9ccb706ab", "fusion_lon": 0.0, "name": "1e18f0a90a15b723a7be1ed9ccb706ab", "lat": 38.9285455, "is_disabled": 0, "is_reserved": 0, "lon": -76.996006, "type": "electric_scooter", "fusion_lat": 0.0, "rental_uris": {"android": "https://dc.lft.to/lastmile_qr_scan", "ios": "https://dc.lft.to/lastmile_qr_scan"}}, {"bike_id": "8aff2f2d356274a852950e6312d161b8", "fusion_lon": 0.0, "name": "8aff2f2d356274a852950e6312d161b8", "lat": 38.80021216666667, "is_disabled": 0, "is_reserved": 0, "lon": -77.05480266666666, "type": "electric_bike", "fusion_lat": 0.0, "rental_uris": {"android": "https://dc.lft.to/lastmile_qr_scan", "ios": "https://dc.lft.to/lastmile_qr_scan"}}, {"bike_id": "95595472ed895c7504258f5de76e48ea", "fusion_lon": 0.0, "name": "95595472ed895c7504258f5de76e48ea", "lat": 38.91106166666667, "is_disabled": 0, "is_reserved": 0, "lon": -77.0272095, "type": "electric_scooter", "fusion_lat": 0.0, "rental_uris": {"android": "https://dc.lft.to/lastmile_qr_scan", "ios": "https://dc.lft.to/lastmile_qr_scan"}}, {"bike_id": "b7dafbd2c98148bd8073d57785528cf9", "fusion_lon": 0.0, "name": "b7dafbd2c98148bd8073d57785528cf9", "lat": 38.918912, "is_disabled": 0, "is_reserved": 0, "lon": -77.04128683333333, "type": "electric_scooter", "fusion_lat": 0.0, "rental_uris": {"android": "https://dc.lft.to/lastmile_qr_scan", "ios": "https://dc.lft.to/lastmile_qr_scan"}}, {"bike_id": "b50059a104ea74328321c7746c04d6bb", "fusion_lon": 0.0, "name": "b50059a104ea74328321c7746c04d6bb", "lat": 38.9028695, "is_disabled": 0, "is_reserved": 0, "lon": -77.038482, "type": "electric_scooter", "fusion_lat": 0.0, "rental_uris": {"android": "https://dc.lft.to/lastmile_qr_scan", "ios": "https://dc.lft.to/lastmile_qr_scan"}}, {"bike_id": "4b2dba1f9b48ae954d40b99949b4b1ba", "fusion_lon": 0.0, "name": "4b2dba1f9b48ae954d40b99949b4b1ba", "lat": 38.92227033333333, "is_disabled": 0, "is_reserved": 0, "lon": -77.02213783333333, "type": "electric_scooter", "fusion_lat": 0.0, "rental_uris": {"android": "https://dc.lft.to/lastmile_qr_scan", "ios": "https://dc.lft.to/lastmile_qr_scan"}}, {"bike_id": "790ee31acb16bf6ac293e6733a5182dd", "fusion_lon": 0.0, "name": "790ee31acb16bf6ac293e6733a5182dd", "lat": 38.9050355, "is_disabled": 0, "is_reserved": 0, "lon": -77.04344333333333, "type": "electric_scooter", "fusion_lat": 0.0, "rental_uris": {"android": "https://dc.lft.to/lastmile_qr_scan", "ios": "https://dc.lft.to/lastmile_qr_scan"}}, {"bike_id": "6ebd3a667f3ee24a05fa1751ab9ae2ae", "fusion_lon": 0.0, "name": "6ebd3a667f3ee24a05fa1751ab9ae2ae", "lat": 38.90637783333333, "is_disabled": 0, "is_reserved": 0, "lon": -77.034788, "type": "electric_scooter", "fusion_lat": 0.0, "rental_uris": {"android": "https://dc.lft.to/lastmile_qr_scan", "ios": "https://dc.lft.to/lastmile_qr_scan"}}, {"bike_id": "d190906ccf86271364583af54a0bf601", "fusion_lon": 0.0, "name": "d190906ccf86271364583af54a0bf601", "lat": 38.91433466666667, "is_disabled": 0, "is_reserved": 0, "lon": -77.03180216666667, "type": "electric_scooter", "fusion_lat": 0.0, "rental_uris": {"android": "https://dc.lft.to/lastmile_qr_scan", "ios": "https://dc.lft.to/lastmile_qr_scan"}}, {"bike_id": "89b7a84897a78c68009be52ef2707a7d", "fusion_lon": 0.0, "name": "89b7a84897a78c68009be52ef2707a7d", "lat": 38.91695266666667, "is_disabled": 0, "is_reserved": 0, "lon": -77.04137366666667, "type": "electric_scooter", "fusion_lat": 0.0, "rental_uris": {"android": "https://dc.lft.to/lastmile_qr_scan", "ios": "https://dc.lft.to/lastmile_qr_scan"}}, {"bike_id": "d994da638a59bfc69b24e9bf64adf12e", "fusion_lon": 0.0, "name": "d994da638a59bfc69b24e9bf64adf12e", "lat": 38.914915, "is_disabled": 0, "is_reserved": 0, "lon": -77.041537, "type": "electric_scooter", "fusion_lat": 0.0, "rental_uris": {"android": "https://dc.lft.to/lastmile_qr_scan", "ios": "https://dc.lft.to/lastmile_qr_scan"}}, {"bike_id": "5c3fa4b84634cafe840c73cb32643f6c", "fusion_lon": 0.0, "name": "5c3fa4b84634cafe840c73cb32643f6c", "lat": 38.892095166666664, "is_disabled": 0, "is_reserved": 0, "lon": -76.95694166666667, "type": "electric_scooter", "fusion_lat": 0.0, "rental_uris": {"android": "https://dc.lft.to/lastmile_qr_scan", "ios": "https://dc.lft.to/lastmile_qr_scan"}}, {"bike_id": "56e79bd8245f2c6cc9ee295093fb2482", "fusion_lon": 0.0, "name": "56e79bd8245f2c6cc9ee295093fb2482", "lat": 38.895115, "is_disabled": 0, "is_reserved": 0, "lon": -77.02600433333333, "type": "electric_scooter", "fusion_lat": 0.0, "rental_uris": {"android": "https://dc.lft.to/lastmile_qr_scan", "ios": "https://dc.lft.to/lastmile_qr_scan"}}, {"bike_id": "9f49a4a8a1256f88fca09cc3c6131dd6", "fusion_lon": 0.0, "name": "9f49a4a8a1256f88fca09cc3c6131dd6", "lat": 38.910436, "is_disabled": 0, "is_reserved": 0, "lon": -77.03374166666667, "type": "electric_scooter", "fusion_lat": 0.0, "rental_uris": {"android": "https://dc.lft.to/lastmile_qr_scan", "ios": "https://dc.lft.to/lastmile_qr_scan"}}, {"bike_id": "215a4364200b5f29a4e35cb70ba1ab33", "fusion_lon": 0.0, "name": "215a4364200b5f29a4e35cb70ba1ab33", "lat": 38.855116333333335, "is_disabled": 0, "is_reserved": 0, "lon": -77.120521, "type": "electric_bike", "fusion_lat": 0.0, "rental_uris": {"android": "https://dc.lft.to/lastmile_qr_scan", "ios": "https://dc.lft.to/lastmile_qr_scan"}}, {"bike_id": "28522055c0c857d9a586c7ed5ccd1dd9", "fusion_lon": 0.0, "name": "28522055c0c857d9a586c7ed5ccd1dd9", "lat": 38.916753, "is_disabled": 0, "is_reserved": 0, "lon": -77.02712666666666, "type": "electric_scooter", "fusion_lat": 0.0, "rental_uris": {"android": "https://dc.lft.to/lastmile_qr_scan", "ios": "https://dc.lft.to/lastmile_qr_scan"}}, {"bike_id": "93d37943468058df0aef2ed23e6fabe2", "fusion_lon": 0.0, "name": "93d37943468058df0aef2ed23e6fabe2", "lat": 38.920520833333335, "is_disabled": 0, "is_reserved": 0, "lon": -77.025762, "type": "electric_scooter", "fusion_lat": 0.0, "rental_uris": {"android": "https://dc.lft.to/lastmile_qr_scan", "ios": "https://dc.lft.to/lastmile_qr_scan"}}, {"bike_id": "a0ed2b8a698bb2464c000141d7e1a8ef", "fusion_lon": 0.0, "name": "a0ed2b8a698bb2464c000141d7e1a8ef", "lat": 38.85790033333333, "is_disabled": 0, "is_reserved": 0, "lon": -77.1201985, "type": "electric_bike", "fusion_lat": 0.0, "rental_uris": {"android": "https://dc.lft.to/lastmile_qr_scan", "ios": "https://dc.lft.to/lastmile_qr_scan"}}, {"bike_id": "ad2bf9073c7c784dd284e62ba495c75b", "fusion_lon": 0.0, "name": "ad2bf9073c7c784dd284e62ba495c75b", "lat": 38.992284833333336, "is_disabled": 0, "is_reserved": 0, "lon": -76.94410033333334, "type": "electric_bike", "fusion_lat": 0.0, "rental_uris": {"android": "https://dc.lft.to/lastmile_qr_scan", "ios": "https://dc.lft.to/lastmile_qr_scan"}}, {"bike_id": "b3a7beb091d34a58b7edd2da1e1ed61b", "fusion_lon": 0.0, "name": "b3a7beb091d34a58b7edd2da1e1ed61b", "lat": 38.898255166666665, "is_disabled": 0, "is_reserved": 0, "lon": -77.03312533333333, "type": "electric_scooter", "fusion_lat": 0.0, "rental_uris": {"android": "https://dc.lft.to/lastmile_qr_scan", "ios": "https://dc.lft.to/lastmile_qr_scan"}}, {"bike_id": "4e17340d2fdbb1e9449dc470cd2c7529", "fusion_lon": 0.0, "name": "4e17340d2fdbb1e9449dc470cd2c7529", "lat": 38.964784, "is_disabled": 0, "is_reserved": 0, "lon": -77.01192133333333, "type": "electric_scooter", "fusion_lat": 0.0, "rental_uris": {"android": "https://dc.lft.to/lastmile_qr_scan", "ios": "https://dc.lft.to/lastmile_qr_scan"}}, {"bike_id": "fd46ec6f139c210381339a9411b43260", "fusion_lon": 0.0, "name": "fd46ec6f139c210381339a9411b43260", "lat": 38.8771385, "is_disabled": 0, "is_reserved": 0, "lon": -77.00416683333333, "type": "electric_scooter", "fusion_lat": 0.0, "rental_uris": {"android": "https://dc.lft.to/lastmile_qr_scan", "ios": "https://dc.lft.to/lastmile_qr_scan"}}, {"bike_id": "01f8a2d6234be517aca7a3f750addd26", "fusion_lon": 0.0, "name": "01f8a2d6234be517aca7a3f750addd26", "lat": 38.900403, "is_disabled": 0, "is_reserved": 0, "lon": -76.97223466666667, "type": "electric_bike", "fusion_lat": 0.0, "rental_uris": {"android": "https://dc.lft.to/lastmile_qr_scan", "ios": "https://dc.lft.to/lastmile_qr_scan"}}, {"bike_id": "c44647513da9728db459862ff1cd9968", "fusion_lon": 0.0, "name": "c44647513da9728db459862ff1cd9968", "lat": 38.9139775, "is_disabled": 0, "is_reserved": 0, "lon": -77.041725, "type": "electric_scooter", "fusion_lat": 0.0, "rental_uris": {"android": "https://dc.lft.to/lastmile_qr_scan", "ios": "https://dc.lft.to/lastmile_qr_scan"}}, {"bike_id": "6c0e8b0e938793bd1b8114ef10e67287", "fusion_lon": 0.0, "name": "6c0e8b0e938793bd1b8114ef10e67287", "lat": 38.90578583333333, "is_disabled": 0, "is_reserved": 0, "lon": -77.0435845, "type": "electric_scooter", "fusion_lat": 0.0, "rental_uris": {"android": "https://dc.lft.to/lastmile_qr_scan", "ios": "https://dc.lft.to/lastmile_qr_scan"}}, {"bike_id": "12ee76f7b79098008ecfd07d26f3f23d", "fusion_lon": 0.0, "name": "12ee76f7b79098008ecfd07d26f3f23d", "lat": 38.9153845, "is_disabled": 0, "is_reserved": 0, "lon": -77.01222716666666, "type": "electric_scooter", "fusion_lat": 0.0, "rental_uris": {"android": "https://dc.lft.to/lastmile_qr_scan", "ios": "https://dc.lft.to/lastmile_qr_scan"}}, {"bike_id": "c6b7c85c1385ed691b0f0c73df1cf8d3", "fusion_lon": 0.0, "name": "c6b7c85c1385ed691b0f0c73df1cf8d3", "lat": 38.8316235, "is_disabled": 0, "is_reserved": 0, "lon": -76.99544, "type": "electric_bike", "fusion_lat": 0.0, "rental_uris": {"android": "https://dc.lft.to/lastmile_qr_scan", "ios": "https://dc.lft.to/lastmile_qr_scan"}}, {"bike_id": "bde35b1a749c1c8ed54bc36d7f8b1040", "fusion_lon": 0.0, "name": "bde35b1a749c1c8ed54bc36d7f8b1040", "lat": 38.922623, "is_disabled": 0, "is_reserved": 0, "lon": -77.009192, "type": "electric_scooter", "fusion_lat": 0.0, "rental_uris": {"android": "https://dc.lft.to/lastmile_qr_scan", "ios": "https://dc.lft.to/lastmile_qr_scan"}}, {"bike_id": "67e5cc7fc7e9d101cfa54397cd365cfe", "fusion_lon": 0.0, "name": "67e5cc7fc7e9d101cfa54397cd365cfe", "lat": 38.89228816666667, "is_disabled": 0, "is_reserved": 0, "lon": -77.03145466666666, "type": "electric_scooter", "fusion_lat": 0.0, "rental_uris": {"android": "https://dc.lft.to/lastmile_qr_scan", "ios": "https://dc.lft.to/lastmile_qr_scan"}}, {"bike_id": "8ce893d69b2f692de8f11634621325e7", "fusion_lon": 0.0, "name": "8ce893d69b2f692de8f11634621325e7", "lat": 38.96195216666667, "is_disabled": 0, "is_reserved": 0, "lon": -77.00084433333333, "type": "electric_bike", "fusion_lat": 0.0, "rental_uris": {"android": "https://dc.lft.to/lastmile_qr_scan", "ios": "https://dc.lft.to/lastmile_qr_scan"}}, {"bike_id": "f3abafecdbb87768f50254a7554a5aab", "fusion_lon": 0.0, "name": "f3abafecdbb87768f50254a7554a5aab", "lat": 38.991002333333334, "is_disabled": 0, "is_reserved": 0, "lon": -76.99364616666666, "type": "electric_bike", "fusion_lat": 0.0, "rental_uris": {"android": "https://dc.lft.to/lastmile_qr_scan", "ios": "https://dc.lft.to/lastmile_qr_scan"}}, {"bike_id": "6410134af9423ea3a3f736c8036f5752", "fusion_lon": 0.0, "name": "6410134af9423ea3a3f736c8036f5752", "lat": 38.89902566666667, "is_disabled": 0, "is_reserved": 0, "lon": -77.09618166666667, "type": "electric_bike", "fusion_lat": 0.0, "rental_uris": {"android": "https://dc.lft.to/lastmile_qr_scan", "ios": "https://dc.lft.to/lastmile_qr_scan"}}, {"bike_id": "1998d895b4ea3950a8027d6958b26a0a", "fusion_lon": 0.0, "name": "1998d895b4ea3950a8027d6958b26a0a", "lat": 38.86687083333333, "is_disabled": 0, "is_reserved": 0, "lon": -76.98556883333333, "type": "electric_scooter", "fusion_lat": 0.0, "rental_uris": {"android": "https://dc.lft.to/lastmile_qr_scan", "ios": "https://dc.lft.to/lastmile_qr_scan"}}, {"bike_id": "69c9550a964c1a4a20bb498c9755c885", "fusion_lon": 0.0, "name": "69c9550a964c1a4a20bb498c9755c885", "lat": 38.90840933333333, "is_disabled": 0, "is_reserved": 0, "lon": -77.035464, "type": "electric_scooter", "fusion_lat": 0.0, "rental_uris": {"android": "https://dc.lft.to/lastmile_qr_scan", "ios": "https://dc.lft.to/lastmile_qr_scan"}}, {"bike_id": "5bd9c8c190698c9804b994d108cc8a2c", "fusion_lon": 0.0, "name": "5bd9c8c190698c9804b994d108cc8a2c", "lat": 38.92673283333333, "is_disabled": 0, "is_reserved": 0, "lon": -77.01514916666666, "type": "electric_scooter", "fusion_lat": 0.0, "rental_uris": {"android": "https://dc.lft.to/lastmile_qr_scan", "ios": "https://dc.lft.to/lastmile_qr_scan"}}, {"bike_id": "b8d0f28bda6a5603fcd15ac048b8e3b0", "fusion_lon": 0.0, "name": "b8d0f28bda6a5603fcd15ac048b8e3b0", "lat": 38.904852, "is_disabled": 0, "is_reserved": 0, "lon": -77.002085, "type": "electric_scooter", "fusion_lat": 0.0, "rental_uris": {"android": "https://dc.lft.to/lastmile_qr_scan", "ios": "https://dc.lft.to/lastmile_qr_scan"}}, {"bike_id": "373635e930aba102edf1bee61a8e01d8", "fusion_lon": 0.0, "name": "373635e930aba102edf1bee61a8e01d8", "lat": 38.928844166666664, "is_disabled": 0, "is_reserved": 0, "lon": -77.032559, "type": "electric_scooter", "fusion_lat": 0.0, "rental_uris": {"android": "https://dc.lft.to/lastmile_qr_scan", "ios": "https://dc.lft.to/lastmile_qr_scan"}}, {"bike_id": "5c9c97844c6ed706ec80037f6fc2946f", "fusion_lon": 0.0, "name": "5c9c97844c6ed706ec80037f6fc2946f", "lat": 38.8772545, "is_disabled": 0, "is_reserved": 0, "lon": -77.00430866666666, "type": "electric_scooter", "fusion_lat": 0.0, "rental_uris": {"android": "https://dc.lft.to/lastmile_qr_scan", "ios": "https://dc.lft.to/lastmile_qr_scan"}}, {"bike_id": "b3a1e861b8985aaabdb3f5c9351a76f6", "fusion_lon": 0.0, "name": "b3a1e861b8985aaabdb3f5c9351a76f6", "lat": 38.924728, "is_disabled": 0, "is_reserved": 0, "lon": -76.99027116666667, "type": "electric_scooter", "fusion_lat": 0.0, "rental_uris": {"android": "https://dc.lft.to/lastmile_qr_scan", "ios": "https://dc.lft.to/lastmile_qr_scan"}}, {"bike_id": "21c49787d128f6fa139a3581cfcda00e", "fusion_lon": 0.0, "name": "21c49787d128f6fa139a3581cfcda00e", "lat": 38.89324833333333, "is_disabled": 0, "is_reserved": 0, "lon": -77.0223195, "type": "electric_scooter", "fusion_lat": 0.0, "rental_uris": {"android": "https://dc.lft.to/lastmile_qr_scan", "ios": "https://dc.lft.to/lastmile_qr_scan"}}, {"bike_id": "7267c52f413654860cb0cfb287a498b5", "fusion_lon": 0.0, "name": "7267c52f413654860cb0cfb287a498b5", "lat": 38.8576585, "is_disabled": 0, "is_reserved": 0, "lon": -77.08651416666666, "type": "electric_bike", "fusion_lat": 0.0, "rental_uris": {"android": "https://dc.lft.to/lastmile_qr_scan", "ios": "https://dc.lft.to/lastmile_qr_scan"}}, {"bike_id": "5a53b1620e075ff47f1c3fd2ae5dc925", "fusion_lon": 0.0, "name": "5a53b1620e075ff47f1c3fd2ae5dc925", "lat": 38.923747666666664, "is_disabled": 0, "is_reserved": 0, "lon": -77.050388, "type": "electric_scooter", "fusion_lat": 0.0, "rental_uris": {"android": "https://dc.lft.to/lastmile_qr_scan", "ios": "https://dc.lft.to/lastmile_qr_scan"}}, {"bike_id": "7cb0fe69f9f07203eada29d7d965130c", "fusion_lon": 0.0, "name": "7cb0fe69f9f07203eada29d7d965130c", "lat": 38.89254, "is_disabled": 0, "is_reserved": 0, "lon": -77.03340866666667, "type": "electric_scooter", "fusion_lat": 0.0, "rental_uris": {"android": "https://dc.lft.to/lastmile_qr_scan", "ios": "https://dc.lft.to/lastmile_qr_scan"}}, {"bike_id": "9d719fce047e52d0eb75d84a5e3c71b3", "fusion_lon": 0.0, "name": "9d719fce047e52d0eb75d84a5e3c71b3", "lat": 38.92301483333333, "is_disabled": 0, "is_reserved": 0, "lon": -77.0244065, "type": "electric_scooter", "fusion_lat": 0.0, "rental_uris": {"android": "https://dc.lft.to/lastmile_qr_scan", "ios": "https://dc.lft.to/lastmile_qr_scan"}}, {"bike_id": "923e02044f95b1e81e9bc296e2c1775f", "fusion_lon": 0.0, "name": "923e02044f95b1e81e9bc296e2c1775f", "lat": 38.892555, "is_disabled": 0, "is_reserved": 0, "lon": -77.0195885, "type": "electric_scooter", "fusion_lat": 0.0, "rental_uris": {"android": "https://dc.lft.to/lastmile_qr_scan", "ios": "https://dc.lft.to/lastmile_qr_scan"}}, {"bike_id": "104f795207e0f83707f8a08bf3b7bf7e", "fusion_lon": 0.0, "name": "104f795207e0f83707f8a08bf3b7bf7e", "lat": 38.89222066666667, "is_disabled": 0, "is_reserved": 0, "lon": -77.025074, "type": "electric_scooter", "fusion_lat": 0.0, "rental_uris": {"android": "https://dc.lft.to/lastmile_qr_scan", "ios": "https://dc.lft.to/lastmile_qr_scan"}}, {"bike_id": "97b78cb4a05b9f9d11da31ee6d629ebd", "fusion_lon": 0.0, "name": "97b78cb4a05b9f9d11da31ee6d629ebd", "lat": 38.8614225, "is_disabled": 0, "is_reserved": 0, "lon": -76.97162566666667, "type": "electric_bike", "fusion_lat": 0.0, "rental_uris": {"android": "https://dc.lft.to/lastmile_qr_scan", "ios": "https://dc.lft.to/lastmile_qr_scan"}}, {"bike_id": "9e230124c511059dcc80a55dcc5ebffd", "fusion_lon": 0.0, "name": "9e230124c511059dcc80a55dcc5ebffd", "lat": 38.89918016666667, "is_disabled": 0, "is_reserved": 0, "lon": -77.0334195, "type": "electric_scooter", "fusion_lat": 0.0, "rental_uris": {"android": "https://dc.lft.to/lastmile_qr_scan", "ios": "https://dc.lft.to/lastmile_qr_scan"}}, {"bike_id": "c3e91f576c99a9300d557e00ca9664e2", "fusion_lon": 0.0, "name": "c3e91f576c99a9300d557e00ca9664e2", "lat": 38.91988816666667, "is_disabled": 0, "is_reserved": 0, "lon": -77.02388033333334, "type": "electric_scooter", "fusion_lat": 0.0, "rental_uris": {"android": "https://dc.lft.to/lastmile_qr_scan", "ios": "https://dc.lft.to/lastmile_qr_scan"}}, {"bike_id": "d3a13b7ee2fa44d63fac88eaa2b5edb5", "fusion_lon": 0.0, "name": "d3a13b7ee2fa44d63fac88eaa2b5edb5", "lat": 38.88076983333333, "is_disabled": 0, "is_reserved": 0, "lon": -77.08631633333333, "type": "electric_bike", "fusion_lat": 0.0, "rental_uris": {"android": "https://dc.lft.to/lastmile_qr_scan", "ios": "https://dc.lft.to/lastmile_qr_scan"}}, {"bike_id": "c6c501cfd1f8adc60f79199bfc5c8571", "fusion_lon": 0.0, "name": "c6c501cfd1f8adc60f79199bfc5c8571", "lat": 38.90032766666667, "is_disabled": 0, "is_reserved": 0, "lon": -77.05497966666667, "type": "electric_scooter", "fusion_lat": 0.0, "rental_uris": {"android": "https://dc.lft.to/lastmile_qr_scan", "ios": "https://dc.lft.to/lastmile_qr_scan"}}, {"bike_id": "bdc0558cece59e72321ff7bf197f0e7d", "fusion_lon": 0.0, "name": "bdc0558cece59e72321ff7bf197f0e7d", "lat": 38.911988666666666, "is_disabled": 0, "is_reserved": 0, "lon": -77.03832583333333, "type": "electric_scooter", "fusion_lat": 0.0, "rental_uris": {"android": "https://dc.lft.to/lastmile_qr_scan", "ios": "https://dc.lft.to/lastmile_qr_scan"}}, {"bike_id": "a0f6236665d3f05a3b6485df13164de5", "fusion_lon": 0.0, "name": "a0f6236665d3f05a3b6485df13164de5", "lat": 38.89961316666667, "is_disabled": 0, "is_reserved": 0, "lon": -76.97536616666666, "type": "electric_scooter", "fusion_lat": 0.0, "rental_uris": {"android": "https://dc.lft.to/lastmile_qr_scan", "ios": "https://dc.lft.to/lastmile_qr_scan"}}, {"bike_id": "e60185b9e6565fb5f8b17c71c4f89864", "fusion_lon": 0.0, "name": "e60185b9e6565fb5f8b17c71c4f89864", "lat": 38.92660633333333, "is_disabled": 0, "is_reserved": 0, "lon": -77.0242475, "type": "electric_scooter", "fusion_lat": 0.0, "rental_uris": {"android": "https://dc.lft.to/lastmile_qr_scan", "ios": "https://dc.lft.to/lastmile_qr_scan"}}, {"bike_id": "0f5c6470986fd2bd04b8e42f6ea85143", "fusion_lon": 0.0, "name": "0f5c6470986fd2bd04b8e42f6ea85143", "lat": 38.90645133333334, "is_disabled": 0, "is_reserved": 0, "lon": -77.03460166666666, "type": "electric_scooter", "fusion_lat": 0.0, "rental_uris": {"android": "https://dc.lft.to/lastmile_qr_scan", "ios": "https://dc.lft.to/lastmile_qr_scan"}}, {"bike_id": "ce2ef9279e0d9fdb6abceb52e8f42353", "fusion_lon": 0.0, "name": "ce2ef9279e0d9fdb6abceb52e8f42353", "lat": 38.8947745, "is_disabled": 0, "is_reserved": 0, "lon": -77.02677366666667, "type": "electric_scooter", "fusion_lat": 0.0, "rental_uris": {"android": "https://dc.lft.to/lastmile_qr_scan", "ios": "https://dc.lft.to/lastmile_qr_scan"}}, {"bike_id": "fb4b9f4a972caa7df435ccc256df5a2b", "fusion_lon": 0.0, "name": "fb4b9f4a972caa7df435ccc256df5a2b", "lat": 38.905722833333336, "is_disabled": 0, "is_reserved": 0, "lon": -77.00566016666667, "type": "electric_scooter", "fusion_lat": 0.0, "rental_uris": {"android": "https://dc.lft.to/lastmile_qr_scan", "ios": "https://dc.lft.to/lastmile_qr_scan"}}, {"bike_id": "fa4987d918ba72e85cb6023479dd9489", "fusion_lon": 0.0, "name": "fa4987d918ba72e85cb6023479dd9489", "lat": 38.9216575, "is_disabled": 0, "is_reserved": 0, "lon": -77.03317133333333, "type": "electric_scooter", "fusion_lat": 0.0, "rental_uris": {"android": "https://dc.lft.to/lastmile_qr_scan", "ios": "https://dc.lft.to/lastmile_qr_scan"}}, {"bike_id": "3ff56825d979fdec92768a7e8b4e6591", "fusion_lon": 0.0, "name": "3ff56825d979fdec92768a7e8b4e6591", "lat": 38.8872135, "is_disabled": 0, "is_reserved": 0, "lon": -76.99684866666666, "type": "electric_scooter", "fusion_lat": 0.0, "rental_uris": {"android": "https://dc.lft.to/lastmile_qr_scan", "ios": "https://dc.lft.to/lastmile_qr_scan"}}, {"bike_id": "8eefcdb2e0f97cd656e749f30ba48ced", "fusion_lon": 0.0, "name": "8eefcdb2e0f97cd656e749f30ba48ced", "lat": 38.91119166666667, "is_disabled": 0, "is_reserved": 0, "lon": -77.03833716666666, "type": "electric_scooter", "fusion_lat": 0.0, "rental_uris": {"android": "https://dc.lft.to/lastmile_qr_scan", "ios": "https://dc.lft.to/lastmile_qr_scan"}}, {"bike_id": "e6f6cb986a91b3c89882833f721510f0", "fusion_lon": 0.0, "name": "e6f6cb986a91b3c89882833f721510f0", "lat": 38.884214166666666, "is_disabled": 0, "is_reserved": 0, "lon": -76.95763633333334, "type": "electric_scooter", "fusion_lat": 0.0, "rental_uris": {"android": "https://dc.lft.to/lastmile_qr_scan", "ios": "https://dc.lft.to/lastmile_qr_scan"}}, {"bike_id": "f0fc56183d677873a798a619e140dd28", "fusion_lon": 0.0, "name": "f0fc56183d677873a798a619e140dd28", "lat": 38.91105783333333, "is_disabled": 0, "is_reserved": 0, "lon": -77.0279675, "type": "electric_scooter", "fusion_lat": 0.0, "rental_uris": {"android": "https://dc.lft.to/lastmile_qr_scan", "ios": "https://dc.lft.to/lastmile_qr_scan"}}, {"bike_id": "6155bf032e6e5648aaa933c26df3d3fc", "fusion_lon": 0.0, "name": "6155bf032e6e5648aaa933c26df3d3fc", "lat": 38.930603166666664, "is_disabled": 0, "is_reserved": 0, "lon": -77.018612, "type": "electric_scooter", "fusion_lat": 0.0, "rental_uris": {"android": "https://dc.lft.to/lastmile_qr_scan", "ios": "https://dc.lft.to/lastmile_qr_scan"}}, {"bike_id": "8cd4913c6c4b8b7190530d881317986d", "fusion_lon": 0.0, "name": "8cd4913c6c4b8b7190530d881317986d", "lat": 38.86557633333334, "is_disabled": 0, "is_reserved": 0, "lon": -76.97854033333333, "type": "electric_scooter", "fusion_lat": 0.0, "rental_uris": {"android": "https://dc.lft.to/lastmile_qr_scan", "ios": "https://dc.lft.to/lastmile_qr_scan"}}, {"bike_id": "1ac87aa0428a1581efaa78d2827040e9", "fusion_lon": 0.0, "name": "1ac87aa0428a1581efaa78d2827040e9", "lat": 38.924625, "is_disabled": 0, "is_reserved": 0, "lon": -77.05238233333333, "type": "electric_scooter", "fusion_lat": 0.0, "rental_uris": {"android": "https://dc.lft.to/lastmile_qr_scan", "ios": "https://dc.lft.to/lastmile_qr_scan"}}, {"bike_id": "5eb6fcc09e517c5ced4f8a8865c75ca8", "fusion_lon": 0.0, "name": "5eb6fcc09e517c5ced4f8a8865c75ca8", "lat": 38.903765666666665, "is_disabled": 0, "is_reserved": 0, "lon": -77.0163325, "type": "electric_scooter", "fusion_lat": 0.0, "rental_uris": {"android": "https://dc.lft.to/lastmile_qr_scan", "ios": "https://dc.lft.to/lastmile_qr_scan"}}, {"bike_id": "7a906fd283265336c4516a4f173e0a2b", "fusion_lon": 0.0, "name": "7a906fd283265336c4516a4f173e0a2b", "lat": 38.88414683333333, "is_disabled": 0, "is_reserved": 0, "lon": -76.98608516666667, "type": "electric_scooter", "fusion_lat": 0.0, "rental_uris": {"android": "https://dc.lft.to/lastmile_qr_scan", "ios": "https://dc.lft.to/lastmile_qr_scan"}}, {"bike_id": "4cef8f9c90e6df7b3c3ccd07c65f0cff", "fusion_lon": 0.0, "name": "4cef8f9c90e6df7b3c3ccd07c65f0cff", "lat": 38.89235216666667, "is_disabled": 0, "is_reserved": 0, "lon": -77.03136533333333, "type": "electric_scooter", "fusion_lat": 0.0, "rental_uris": {"android": "https://dc.lft.to/lastmile_qr_scan", "ios": "https://dc.lft.to/lastmile_qr_scan"}}, {"bike_id": "9c1d4c24aaf4d8e21c47abe3e7a71e5a", "fusion_lon": 0.0, "name": "9c1d4c24aaf4d8e21c47abe3e7a71e5a", "lat": 38.7970305, "is_disabled": 0, "is_reserved": 0, "lon": -77.0036965, "type": "electric_bike", "fusion_lat": 0.0, "rental_uris": {"android": "https://dc.lft.to/lastmile_qr_scan", "ios": "https://dc.lft.to/lastmile_qr_scan"}}, {"bike_id": "1b85ff198e3504ee8999464d088af7f7", "fusion_lon": 0.0, "name": "1b85ff198e3504ee8999464d088af7f7", "lat": 38.91852166666666, "is_disabled": 0, "is_reserved": 0, "lon": -77.02604083333334, "type": "electric_scooter", "fusion_lat": 0.0, "rental_uris": {"android": "https://dc.lft.to/lastmile_qr_scan", "ios": "https://dc.lft.to/lastmile_qr_scan"}}, {"bike_id": "294c3b06fe7e0907c867690264aa1476", "fusion_lon": 0.0, "name": "294c3b06fe7e0907c867690264aa1476", "lat": 38.924484, "is_disabled": 0, "is_reserved": 0, "lon": -77.034061, "type": "electric_scooter", "fusion_lat": 0.0, "rental_uris": {"android": "https://dc.lft.to/lastmile_qr_scan", "ios": "https://dc.lft.to/lastmile_qr_scan"}}, {"bike_id": "23e11a9021ef78bdb75c04fff81a2933", "fusion_lon": 0.0, "name": "23e11a9021ef78bdb75c04fff81a2933", "lat": 38.92196466666667, "is_disabled": 0, "is_reserved": 0, "lon": -77.018342, "type": "electric_scooter", "fusion_lat": 0.0, "rental_uris": {"android": "https://dc.lft.to/lastmile_qr_scan", "ios": "https://dc.lft.to/lastmile_qr_scan"}}, {"bike_id": "e1cf17ef21c2e57b3de5e7ec0625a378", "fusion_lon": 0.0, "name": "e1cf17ef21c2e57b3de5e7ec0625a378", "lat": 38.920576833333335, "is_disabled": 0, "is_reserved": 0, "lon": -77.0236245, "type": "electric_scooter", "fusion_lat": 0.0, "rental_uris": {"android": "https://dc.lft.to/lastmile_qr_scan", "ios": "https://dc.lft.to/lastmile_qr_scan"}}, {"bike_id": "3d71e9e85797cb57f77ca8b1b84687d7", "fusion_lon": 0.0, "name": "3d71e9e85797cb57f77ca8b1b84687d7", "lat": 38.8995735, "is_disabled": 0, "is_reserved": 0, "lon": -76.98173583333333, "type": "electric_scooter", "fusion_lat": 0.0, "rental_uris": {"android": "https://dc.lft.to/lastmile_qr_scan", "ios": "https://dc.lft.to/lastmile_qr_scan"}}, {"bike_id": "e31e152476ada837bb041690236a6ac4", "fusion_lon": 0.0, "name": "e31e152476ada837bb041690236a6ac4", "lat": 38.892291666666665, "is_disabled": 0, "is_reserved": 0, "lon": -77.03148433333334, "type": "electric_scooter", "fusion_lat": 0.0, "rental_uris": {"android": "https://dc.lft.to/lastmile_qr_scan", "ios": "https://dc.lft.to/lastmile_qr_scan"}}, {"bike_id": "a1cc605f53c1bd7fb21e6297bd7e1a69", "fusion_lon": 0.0, "name": "a1cc605f53c1bd7fb21e6297bd7e1a69", "lat": 38.86726516666667, "is_disabled": 0, "is_reserved": 0, "lon": -76.98699333333333, "type": "electric_scooter", "fusion_lat": 0.0, "rental_uris": {"android": "https://dc.lft.to/lastmile_qr_scan", "ios": "https://dc.lft.to/lastmile_qr_scan"}}, {"bike_id": "b0f8c746e254b63b90b35411a08d9e16", "fusion_lon": 0.0, "name": "b0f8c746e254b63b90b35411a08d9e16", "lat": 38.917493666666665, "is_disabled": 0, "is_reserved": 0, "lon": -77.031818, "type": "electric_scooter", "fusion_lat": 0.0, "rental_uris": {"android": "https://dc.lft.to/lastmile_qr_scan", "ios": "https://dc.lft.to/lastmile_qr_scan"}}, {"bike_id": "db981b8784380061c5dbc52324682ba6", "fusion_lon": 0.0, "name": "db981b8784380061c5dbc52324682ba6", "lat": 38.90269083333333, "is_disabled": 0, "is_reserved": 0, "lon": -77.03343266666667, "type": "electric_scooter", "fusion_lat": 0.0, "rental_uris": {"android": "https://dc.lft.to/lastmile_qr_scan", "ios": "https://dc.lft.to/lastmile_qr_scan"}}, {"bike_id": "c41a9e285694e7f6632ec4139a6a19ad", "fusion_lon": 0.0, "name": "c41a9e285694e7f6632ec4139a6a19ad", "lat": 38.884931, "is_disabled": 0, "is_reserved": 0, "lon": -77.007101, "type": "electric_scooter", "fusion_lat": 0.0, "rental_uris": {"android": "https://dc.lft.to/lastmile_qr_scan", "ios": "https://dc.lft.to/lastmile_qr_scan"}}, {"bike_id": "4fbe6a1d844e0140c01233a49ff46e7d", "fusion_lon": 0.0, "name": "4fbe6a1d844e0140c01233a49ff46e7d", "lat": 38.92124166666667, "is_disabled": 0, "is_reserved": 0, "lon": -77.00915566666667, "type": "electric_scooter", "fusion_lat": 0.0, "rental_uris": {"android": "https://dc.lft.to/lastmile_qr_scan", "ios": "https://dc.lft.to/lastmile_qr_scan"}}, {"bike_id": "997d2f6a529c2ae54133c501c1d9c80e", "fusion_lon": 0.0, "name": "997d2f6a529c2ae54133c501c1d9c80e", "lat": 38.900877, "is_disabled": 0, "is_reserved": 0, "lon": -77.027242, "type": "electric_scooter", "fusion_lat": 0.0, "rental_uris": {"android": "https://dc.lft.to/lastmile_qr_scan", "ios": "https://dc.lft.to/lastmile_qr_scan"}}, {"bike_id": "bf7577772f81a450a2acf33efcf1463f", "fusion_lon": 0.0, "name": "bf7577772f81a450a2acf33efcf1463f", "lat": 38.903372166666664, "is_disabled": 0, "is_reserved": 0, "lon": -77.0446635, "type": "electric_scooter", "fusion_lat": 0.0, "rental_uris": {"android": "https://dc.lft.to/lastmile_qr_scan", "ios": "https://dc.lft.to/lastmile_qr_scan"}}, {"bike_id": "5d63cbb33397f91f203e4678914e4517", "fusion_lon": 0.0, "name": "5d63cbb33397f91f203e4678914e4517", "lat": 38.907316333333334, "is_disabled": 0, "is_reserved": 0, "lon": -77.043565, "type": "electric_scooter", "fusion_lat": 0.0, "rental_uris": {"android": "https://dc.lft.to/lastmile_qr_scan", "ios": "https://dc.lft.to/lastmile_qr_scan"}}, {"bike_id": "71f98611621df50861415f05d8fb9d6d", "fusion_lon": 0.0, "name": "71f98611621df50861415f05d8fb9d6d", "lat": 38.90052, "is_disabled": 0, "is_reserved": 0, "lon": -77.04340216666667, "type": "electric_scooter", "fusion_lat": 0.0, "rental_uris": {"android": "https://dc.lft.to/lastmile_qr_scan", "ios": "https://dc.lft.to/lastmile_qr_scan"}}, {"bike_id": "8c1cf6d7af1bc44c2be60a5942bdd091", "fusion_lon": 0.0, "name": "8c1cf6d7af1bc44c2be60a5942bdd091", "lat": 38.90866166666667, "is_disabled": 0, "is_reserved": 0, "lon": -77.01290766666666, "type": "electric_scooter", "fusion_lat": 0.0, "rental_uris": {"android": "https://dc.lft.to/lastmile_qr_scan", "ios": "https://dc.lft.to/lastmile_qr_scan"}}, {"bike_id": "ae478c7efc94181b28fdf01df93edfb2", "fusion_lon": 0.0, "name": "ae478c7efc94181b28fdf01df93edfb2", "lat": 38.92616983333333, "is_disabled": 0, "is_reserved": 0, "lon": -77.022144, "type": "electric_scooter", "fusion_lat": 0.0, "rental_uris": {"android": "https://dc.lft.to/lastmile_qr_scan", "ios": "https://dc.lft.to/lastmile_qr_scan"}}, {"bike_id": "510c4824691f47c1f9cd9f9605e8a0cd", "fusion_lon": 0.0, "name": "510c4824691f47c1f9cd9f9605e8a0cd", "lat": 38.897835, "is_disabled": 0, "is_reserved": 0, "lon": -77.027256, "type": "electric_scooter", "fusion_lat": 0.0, "rental_uris": {"android": "https://dc.lft.to/lastmile_qr_scan", "ios": "https://dc.lft.to/lastmile_qr_scan"}}, {"bike_id": "ca4ad11b4eaab2297a3c4dae6f3f360c", "fusion_lon": 0.0, "name": "ca4ad11b4eaab2297a3c4dae6f3f360c", "lat": 38.907712333333336, "is_disabled": 0, "is_reserved": 0, "lon": -77.00133366666667, "type": "electric_scooter", "fusion_lat": 0.0, "rental_uris": {"android": "https://dc.lft.to/lastmile_qr_scan", "ios": "https://dc.lft.to/lastmile_qr_scan"}}, {"bike_id": "4722bd1205d31211d2c19b5d60aba272", "fusion_lon": 0.0, "name": "4722bd1205d31211d2c19b5d60aba272", "lat": 38.90427316666667, "is_disabled": 0, "is_reserved": 0, "lon": -77.04374683333333, "type": "electric_scooter", "fusion_lat": 0.0, "rental_uris": {"android": "https://dc.lft.to/lastmile_qr_scan", "ios": "https://dc.lft.to/lastmile_qr_scan"}}, {"bike_id": "28f097748314933285cb994afdd59e41", "fusion_lon": 0.0, "name": "28f097748314933285cb994afdd59e41", "lat": 38.9198905, "is_disabled": 0, "is_reserved": 0, "lon": -76.97303883333333, "type": "electric_scooter", "fusion_lat": 0.0, "rental_uris": {"android": "https://dc.lft.to/lastmile_qr_scan", "ios": "https://dc.lft.to/lastmile_qr_scan"}}, {"bike_id": "29c13ae07c4de72ae186fa538f306349", "fusion_lon": 0.0, "name": "29c13ae07c4de72ae186fa538f306349", "lat": 38.881783, "is_disabled": 0, "is_reserved": 0, "lon": -76.95902083333333, "type": "electric_scooter", "fusion_lat": 0.0, "rental_uris": {"android": "https://dc.lft.to/lastmile_qr_scan", "ios": "https://dc.lft.to/lastmile_qr_scan"}}, {"bike_id": "2a147b48cb055ce0b17a851f221fcb7c", "fusion_lon": 0.0, "name": "2a147b48cb055ce0b17a851f221fcb7c", "lat": 38.931899333333334, "is_disabled": 0, "is_reserved": 0, "lon": -77.04297366666667, "type": "electric_scooter", "fusion_lat": 0.0, "rental_uris": {"android": "https://dc.lft.to/lastmile_qr_scan", "ios": "https://dc.lft.to/lastmile_qr_scan"}}, {"bike_id": "1f2af0164d6613c30fe4e32061c2fe62", "fusion_lon": 0.0, "name": "1f2af0164d6613c30fe4e32061c2fe62", "lat": 38.9168765, "is_disabled": 0, "is_reserved": 0, "lon": -77.02942583333333, "type": "electric_scooter", "fusion_lat": 0.0, "rental_uris": {"android": "https://dc.lft.to/lastmile_qr_scan", "ios": "https://dc.lft.to/lastmile_qr_scan"}}, {"bike_id": "a5db789c0ab35247108c074670e1f5f8", "fusion_lon": 0.0, "name": "a5db789c0ab35247108c074670e1f5f8", "lat": 38.911228333333334, "is_disabled": 0, "is_reserved": 0, "lon": -77.022051, "type": "electric_scooter", "fusion_lat": 0.0, "rental_uris": {"android": "https://dc.lft.to/lastmile_qr_scan", "ios": "https://dc.lft.to/lastmile_qr_scan"}}, {"bike_id": "0174bba35431aae07d0fa97887f401b1", "fusion_lon": 0.0, "name": "0174bba35431aae07d0fa97887f401b1", "lat": 38.936030833333334, "is_disabled": 0, "is_reserved": 0, "lon": -77.0378695, "type": "electric_scooter", "fusion_lat": 0.0, "rental_uris": {"android": "https://dc.lft.to/lastmile_qr_scan", "ios": "https://dc.lft.to/lastmile_qr_scan"}}, {"bike_id": "7a499f8fb8a2c854199dc1571ae28460", "fusion_lon": 0.0, "name": "7a499f8fb8a2c854199dc1571ae28460", "lat": 38.90398733333333, "is_disabled": 0, "is_reserved": 0, "lon": -76.984638, "type": "electric_scooter", "fusion_lat": 0.0, "rental_uris": {"android": "https://dc.lft.to/lastmile_qr_scan", "ios": "https://dc.lft.to/lastmile_qr_scan"}}, {"bike_id": "4b945b7f1c04e153de2f8b9d398a92fa", "fusion_lon": 0.0, "name": "4b945b7f1c04e153de2f8b9d398a92fa", "lat": 38.92441266666667, "is_disabled": 0, "is_reserved": 0, "lon": -77.042482, "type": "electric_scooter", "fusion_lat": 0.0, "rental_uris": {"android": "https://dc.lft.to/lastmile_qr_scan", "ios": "https://dc.lft.to/lastmile_qr_scan"}}, {"bike_id": "1d6d881547e30e1d7042f92fdf28599d", "fusion_lon": 0.0, "name": "1d6d881547e30e1d7042f92fdf28599d", "lat": 38.887177333333334, "is_disabled": 0, "is_reserved": 0, "lon": -77.02209316666666, "type": "electric_scooter", "fusion_lat": 0.0, "rental_uris": {"android": "https://dc.lft.to/lastmile_qr_scan", "ios": "https://dc.lft.to/lastmile_qr_scan"}}, {"bike_id": "a5388cd7ec9af82f9431c37e8830c09c", "fusion_lon": 0.0, "name": "a5388cd7ec9af82f9431c37e8830c09c", "lat": 38.917157333333336, "is_disabled": 0, "is_reserved": 0, "lon": -77.0322675, "type": "electric_scooter", "fusion_lat": 0.0, "rental_uris": {"android": "https://dc.lft.to/lastmile_qr_scan", "ios": "https://dc.lft.to/lastmile_qr_scan"}}, {"bike_id": "27d38523e22aa22dd5b6fdcede469e3d", "fusion_lon": 0.0, "name": "27d38523e22aa22dd5b6fdcede469e3d", "lat": 38.911208333333335, "is_disabled": 0, "is_reserved": 0, "lon": -77.038305, "type": "electric_scooter", "fusion_lat": 0.0, "rental_uris": {"android": "https://dc.lft.to/lastmile_qr_scan", "ios": "https://dc.lft.to/lastmile_qr_scan"}}, {"bike_id": "a1c932b0f81884bb716f9c5fa9d0a7a0", "fusion_lon": 0.0, "name": "a1c932b0f81884bb716f9c5fa9d0a7a0", "lat": 38.916391833333336, "is_disabled": 0, "is_reserved": 0, "lon": -77.02555383333333, "type": "electric_scooter", "fusion_lat": 0.0, "rental_uris": {"android": "https://dc.lft.to/lastmile_qr_scan", "ios": "https://dc.lft.to/lastmile_qr_scan"}}, {"bike_id": "573c053c5d812149b9e8d6e63c7fcf78", "fusion_lon": 0.0, "name": "573c053c5d812149b9e8d6e63c7fcf78", "lat": 38.8922095, "is_disabled": 0, "is_reserved": 0, "lon": -77.0437645, "type": "electric_scooter", "fusion_lat": 0.0, "rental_uris": {"android": "https://dc.lft.to/lastmile_qr_scan", "ios": "https://dc.lft.to/lastmile_qr_scan"}}, {"bike_id": "b58b0baaefd8619cd4a1ef268bd752e8", "fusion_lon": 0.0, "name": "b58b0baaefd8619cd4a1ef268bd752e8", "lat": 38.896109, "is_disabled": 0, "is_reserved": 0, "lon": -77.04384433333334, "type": "electric_scooter", "fusion_lat": 0.0, "rental_uris": {"android": "https://dc.lft.to/lastmile_qr_scan", "ios": "https://dc.lft.to/lastmile_qr_scan"}}, {"bike_id": "2365e40a98c24b606583a1cfc09e8c9b", "fusion_lon": 0.0, "name": "2365e40a98c24b606583a1cfc09e8c9b", "lat": 38.92604733333334, "is_disabled": 0, "is_reserved": 0, "lon": -77.02156266666667, "type": "electric_scooter", "fusion_lat": 0.0, "rental_uris": {"android": "https://dc.lft.to/lastmile_qr_scan", "ios": "https://dc.lft.to/lastmile_qr_scan"}}, {"bike_id": "af99412a84d7b8bc11dfc1e9de70242d", "fusion_lon": 0.0, "name": "af99412a84d7b8bc11dfc1e9de70242d", "lat": 38.887944833333336, "is_disabled": 0, "is_reserved": 0, "lon": -76.92338916666667, "type": "electric_bike", "fusion_lat": 0.0, "rental_uris": {"android": "https://dc.lft.to/lastmile_qr_scan", "ios": "https://dc.lft.to/lastmile_qr_scan"}}, {"bike_id": "3b8c8ffa49d1fad7bc4e8c189b45abd2", "fusion_lon": 0.0, "name": "3b8c8ffa49d1fad7bc4e8c189b45abd2", "lat": 38.90543566666667, "is_disabled": 0, "is_reserved": 0, "lon": -77.05713316666667, "type": "electric_scooter", "fusion_lat": 0.0, "rental_uris": {"android": "https://dc.lft.to/lastmile_qr_scan", "ios": "https://dc.lft.to/lastmile_qr_scan"}}, {"bike_id": "1f6351f09d007d0fbcca8459253492ad", "fusion_lon": 0.0, "name": "1f6351f09d007d0fbcca8459253492ad", "lat": 38.9283815, "is_disabled": 0, "is_reserved": 0, "lon": -77.05441816666666, "type": "electric_scooter", "fusion_lat": 0.0, "rental_uris": {"android": "https://dc.lft.to/lastmile_qr_scan", "ios": "https://dc.lft.to/lastmile_qr_scan"}}, {"bike_id": "29bef748e42f5b81da79230c40682a8b", "fusion_lon": 0.0, "name": "29bef748e42f5b81da79230c40682a8b", "lat": 38.90293783333333, "is_disabled": 0, "is_reserved": 0, "lon": -76.97635366666667, "type": "electric_scooter", "fusion_lat": 0.0, "rental_uris": {"android": "https://dc.lft.to/lastmile_qr_scan", "ios": "https://dc.lft.to/lastmile_qr_scan"}}, {"bike_id": "c173c5a46416bb483d129e19ff0bed76", "fusion_lon": 0.0, "name": "c173c5a46416bb483d129e19ff0bed76", "lat": 38.9007845, "is_disabled": 0, "is_reserved": 0, "lon": -77.02710566666667, "type": "electric_scooter", "fusion_lat": 0.0, "rental_uris": {"android": "https://dc.lft.to/lastmile_qr_scan", "ios": "https://dc.lft.to/lastmile_qr_scan"}}, {"bike_id": "22bb93445f642351222d5ab2ff06b612", "fusion_lon": 0.0, "name": "22bb93445f642351222d5ab2ff06b612", "lat": 38.92468316666667, "is_disabled": 0, "is_reserved": 0, "lon": -77.02275716666666, "type": "electric_scooter", "fusion_lat": 0.0, "rental_uris": {"android": "https://dc.lft.to/lastmile_qr_scan", "ios": "https://dc.lft.to/lastmile_qr_scan"}}, {"bike_id": "c4eeb06e0a0e8e33882a845d9488e071", "fusion_lon": 0.0, "name": "c4eeb06e0a0e8e33882a845d9488e071", "lat": 38.933991, "is_disabled": 0, "is_reserved": 0, "lon": -77.05740966666667, "type": "electric_scooter", "fusion_lat": 0.0, "rental_uris": {"android": "https://dc.lft.to/lastmile_qr_scan", "ios": "https://dc.lft.to/lastmile_qr_scan"}}, {"bike_id": "6fedb24bebd718fd1f5abefaaa4f2b90", "fusion_lon": 0.0, "name": "6fedb24bebd718fd1f5abefaaa4f2b90", "lat": 38.975157, "is_disabled": 0, "is_reserved": 0, "lon": -77.01664733333334, "type": "electric_scooter", "fusion_lat": 0.0, "rental_uris": {"android": "https://dc.lft.to/lastmile_qr_scan", "ios": "https://dc.lft.to/lastmile_qr_scan"}}, {"bike_id": "06582013d80dbcaca193116f7a184bd3", "fusion_lon": 0.0, "name": "06582013d80dbcaca193116f7a184bd3", "lat": 38.997807333333334, "is_disabled": 0, "is_reserved": 0, "lon": -77.04716883333333, "type": "electric_bike", "fusion_lat": 0.0, "rental_uris": {"android": "https://dc.lft.to/lastmile_qr_scan", "ios": "https://dc.lft.to/lastmile_qr_scan"}}, {"bike_id": "29f301906065b4ac1e4033f1f118b444", "fusion_lon": 0.0, "name": "29f301906065b4ac1e4033f1f118b444", "lat": 38.918276666666664, "is_disabled": 0, "is_reserved": 0, "lon": -77.03645766666666, "type": "electric_scooter", "fusion_lat": 0.0, "rental_uris": {"android": "https://dc.lft.to/lastmile_qr_scan", "ios": "https://dc.lft.to/lastmile_qr_scan"}}, {"bike_id": "72b654c2ea4a713e6c036365e9cef933", "fusion_lon": 0.0, "name": "72b654c2ea4a713e6c036365e9cef933", "lat": 38.90352583333333, "is_disabled": 0, "is_reserved": 0, "lon": -77.05267133333334, "type": "electric_scooter", "fusion_lat": 0.0, "rental_uris": {"android": "https://dc.lft.to/lastmile_qr_scan", "ios": "https://dc.lft.to/lastmile_qr_scan"}}, {"bike_id": "0cd31e108cf27f8cb48999823dc8312d", "fusion_lon": 0.0, "name": "0cd31e108cf27f8cb48999823dc8312d", "lat": 38.927023166666665, "is_disabled": 0, "is_reserved": 0, "lon": -77.03235016666666, "type": "electric_scooter", "fusion_lat": 0.0, "rental_uris": {"android": "https://dc.lft.to/lastmile_qr_scan", "ios": "https://dc.lft.to/lastmile_qr_scan"}}, {"bike_id": "8404fa4f65064f5fbca01743b4bf7c08", "fusion_lon": 0.0, "name": "8404fa4f65064f5fbca01743b4bf7c08", "lat": 38.89224316666667, "is_disabled": 0, "is_reserved": 0, "lon": -77.04509516666667, "type": "electric_scooter", "fusion_lat": 0.0, "rental_uris": {"android": "https://dc.lft.to/lastmile_qr_scan", "ios": "https://dc.lft.to/lastmile_qr_scan"}}, {"bike_id": "108090276b056fcd839ddd8978b73af3", "fusion_lon": 0.0, "name": "108090276b056fcd839ddd8978b73af3", "lat": 38.909701, "is_disabled": 0, "is_reserved": 0, "lon": -77.033446, "type": "electric_scooter", "fusion_lat": 0.0, "rental_uris": {"android": "https://dc.lft.to/lastmile_qr_scan", "ios": "https://dc.lft.to/lastmile_qr_scan"}}, {"bike_id": "81993bc790e5b4966062fe0076683a31", "fusion_lon": 0.0, "name": "81993bc790e5b4966062fe0076683a31", "lat": 38.902593833333334, "is_disabled": 0, "is_reserved": 0, "lon": -77.01837433333333, "type": "electric_scooter", "fusion_lat": 0.0, "rental_uris": {"android": "https://dc.lft.to/lastmile_qr_scan", "ios": "https://dc.lft.to/lastmile_qr_scan"}}, {"bike_id": "09692741af58a9f4c81dbcf5e08d1182", "fusion_lon": 0.0, "name": "09692741af58a9f4c81dbcf5e08d1182", "lat": 38.92616816666666, "is_disabled": 0, "is_reserved": 0, "lon": -77.021586, "type": "electric_scooter", "fusion_lat": 0.0, "rental_uris": {"android": "https://dc.lft.to/lastmile_qr_scan", "ios": "https://dc.lft.to/lastmile_qr_scan"}}, {"bike_id": "80cd0f29c661b62fd76072d0d2f0599e", "fusion_lon": 0.0, "name": "80cd0f29c661b62fd76072d0d2f0599e", "lat": 38.904724, "is_disabled": 0, "is_reserved": 0, "lon": -77.06532166666666, "type": "electric_scooter", "fusion_lat": 0.0, "rental_uris": {"android": "https://dc.lft.to/lastmile_qr_scan", "ios": "https://dc.lft.to/lastmile_qr_scan"}}, {"bike_id": "ad803b5ec8d57a609f59f535bf2e2872", "fusion_lon": 0.0, "name": "ad803b5ec8d57a609f59f535bf2e2872", "lat": 38.940553666666666, "is_disabled": 0, "is_reserved": 0, "lon": -77.02981116666666, "type": "electric_scooter", "fusion_lat": 0.0, "rental_uris": {"android": "https://dc.lft.to/lastmile_qr_scan", "ios": "https://dc.lft.to/lastmile_qr_scan"}}, {"bike_id": "2533aa1abdeff943fdb34a911a07b88e", "fusion_lon": 0.0, "name": "2533aa1abdeff943fdb34a911a07b88e", "lat": 38.9083715, "is_disabled": 0, "is_reserved": 0, "lon": -77.043544, "type": "electric_scooter", "fusion_lat": 0.0, "rental_uris": {"android": "https://dc.lft.to/lastmile_qr_scan", "ios": "https://dc.lft.to/lastmile_qr_scan"}}, {"bike_id": "a8b94e32a4f9cc9989d3b9f93042a977", "fusion_lon": 0.0, "name": "a8b94e32a4f9cc9989d3b9f93042a977", "lat": 38.942529, "is_disabled": 0, "is_reserved": 0, "lon": -77.02171216666666, "type": "electric_scooter", "fusion_lat": 0.0, "rental_uris": {"android": "https://dc.lft.to/lastmile_qr_scan", "ios": "https://dc.lft.to/lastmile_qr_scan"}}, {"bike_id": "7580084e34a5a97d636702d8c1d487c5", "fusion_lon": 0.0, "name": "7580084e34a5a97d636702d8c1d487c5", "lat": 38.901322666666665, "is_disabled": 0, "is_reserved": 0, "lon": -77.04230216666667, "type": "electric_scooter", "fusion_lat": 0.0, "rental_uris": {"android": "https://dc.lft.to/lastmile_qr_scan", "ios": "https://dc.lft.to/lastmile_qr_scan"}}, {"bike_id": "5fd29f2ab43c0b9e71a84882e8918ca5", "fusion_lon": 0.0, "name": "5fd29f2ab43c0b9e71a84882e8918ca5", "lat": 38.910659, "is_disabled": 0, "is_reserved": 0, "lon": -76.98520016666667, "type": "electric_scooter", "fusion_lat": 0.0, "rental_uris": {"android": "https://dc.lft.to/lastmile_qr_scan", "ios": "https://dc.lft.to/lastmile_qr_scan"}}, {"bike_id": "f81e653a9fa58433522672377001c9a6", "fusion_lon": 0.0, "name": "f81e653a9fa58433522672377001c9a6", "lat": 38.89847416666667, "is_disabled": 0, "is_reserved": 0, "lon": -76.94631033333333, "type": "electric_scooter", "fusion_lat": 0.0, "rental_uris": {"android": "https://dc.lft.to/lastmile_qr_scan", "ios": "https://dc.lft.to/lastmile_qr_scan"}}, {"bike_id": "2537241b9f6c163255b9a2c4221f2809", "fusion_lon": 0.0, "name": "2537241b9f6c163255b9a2c4221f2809", "lat": 38.85526616666667, "is_disabled": 0, "is_reserved": 0, "lon": -76.9843865, "type": "electric_bike", "fusion_lat": 0.0, "rental_uris": {"android": "https://dc.lft.to/lastmile_qr_scan", "ios": "https://dc.lft.to/lastmile_qr_scan"}}, {"bike_id": "a82132d6a828641cad970795fb5b3c7e", "fusion_lon": 0.0, "name": "a82132d6a828641cad970795fb5b3c7e", "lat": 38.9399655, "is_disabled": 0, "is_reserved": 0, "lon": -77.03259583333333, "type": "electric_scooter", "fusion_lat": 0.0, "rental_uris": {"android": "https://dc.lft.to/lastmile_qr_scan", "ios": "https://dc.lft.to/lastmile_qr_scan"}}, {"bike_id": "c1facf17e9afa48b735d59339dc4c7fc", "fusion_lon": 0.0, "name": "c1facf17e9afa48b735d59339dc4c7fc", "lat": 38.905202333333335, "is_disabled": 0, "is_reserved": 0, "lon": -77.04900666666667, "type": "electric_scooter", "fusion_lat": 0.0, "rental_uris": {"android": "https://dc.lft.to/lastmile_qr_scan", "ios": "https://dc.lft.to/lastmile_qr_scan"}}, {"bike_id": "66826ceff27922221d223201b7cb62f1", "fusion_lon": 0.0, "name": "66826ceff27922221d223201b7cb62f1", "lat": 38.91599433333333, "is_disabled": 0, "is_reserved": 0, "lon": -77.0459825, "type": "electric_scooter", "fusion_lat": 0.0, "rental_uris": {"android": "https://dc.lft.to/lastmile_qr_scan", "ios": "https://dc.lft.to/lastmile_qr_scan"}}, {"bike_id": "4cee1a423ad9e523281760f510f86544", "fusion_lon": 0.0, "name": "4cee1a423ad9e523281760f510f86544", "lat": 38.906403166666664, "is_disabled": 0, "is_reserved": 0, "lon": -77.04134266666667, "type": "electric_scooter", "fusion_lat": 0.0, "rental_uris": {"android": "https://dc.lft.to/lastmile_qr_scan", "ios": "https://dc.lft.to/lastmile_qr_scan"}}, {"bike_id": "1c368f2c0516e7b401312a688db08d45", "fusion_lon": 0.0, "name": "1c368f2c0516e7b401312a688db08d45", "lat": 38.88774033333333, "is_disabled": 0, "is_reserved": 0, "lon": -76.97746716666667, "type": "electric_scooter", "fusion_lat": 0.0, "rental_uris": {"android": "https://dc.lft.to/lastmile_qr_scan", "ios": "https://dc.lft.to/lastmile_qr_scan"}}, {"bike_id": "5a20d5ac2603220aad34f602b5883fda", "fusion_lon": 0.0, "name": "5a20d5ac2603220aad34f602b5883fda", "lat": 38.88658783333333, "is_disabled": 0, "is_reserved": 0, "lon": -77.02833633333333, "type": "electric_scooter", "fusion_lat": 0.0, "rental_uris": {"android": "https://dc.lft.to/lastmile_qr_scan", "ios": "https://dc.lft.to/lastmile_qr_scan"}}, {"bike_id": "1c1dc61cb654741e8dd9accad6943665", "fusion_lon": 0.0, "name": "1c1dc61cb654741e8dd9accad6943665", "lat": 38.891344333333336, "is_disabled": 0, "is_reserved": 0, "lon": -76.9909195, "type": "electric_scooter", "fusion_lat": 0.0, "rental_uris": {"android": "https://dc.lft.to/lastmile_qr_scan", "ios": "https://dc.lft.to/lastmile_qr_scan"}}, {"bike_id": "6bedf4b09dadca948b0444a40767c490", "fusion_lon": 0.0, "name": "6bedf4b09dadca948b0444a40767c490", "lat": 38.98467483333334, "is_disabled": 0, "is_reserved": 0, "lon": -76.97052666666667, "type": "electric_bike", "fusion_lat": 0.0, "rental_uris": {"android": "https://dc.lft.to/lastmile_qr_scan", "ios": "https://dc.lft.to/lastmile_qr_scan"}}, {"bike_id": "855c27833ae08c541ee12de337a32075", "fusion_lon": 0.0, "name": "855c27833ae08c541ee12de337a32075", "lat": 38.90421383333333, "is_disabled": 0, "is_reserved": 0, "lon": -77.04349033333334, "type": "electric_scooter", "fusion_lat": 0.0, "rental_uris": {"android": "https://dc.lft.to/lastmile_qr_scan", "ios": "https://dc.lft.to/lastmile_qr_scan"}}, {"bike_id": "f3ea35b3aa813ee424fff0f674fca5de", "fusion_lon": 0.0, "name": "f3ea35b3aa813ee424fff0f674fca5de", "lat": 38.92027616666667, "is_disabled": 0, "is_reserved": 0, "lon": -77.03132016666666, "type": "electric_scooter", "fusion_lat": 0.0, "rental_uris": {"android": "https://dc.lft.to/lastmile_qr_scan", "ios": "https://dc.lft.to/lastmile_qr_scan"}}, {"bike_id": "1934655b3745f7d271ae76a4b6f2d1b3", "fusion_lon": 0.0, "name": "1934655b3745f7d271ae76a4b6f2d1b3", "lat": 38.887414, "is_disabled": 0, "is_reserved": 0, "lon": -77.02580233333333, "type": "electric_scooter", "fusion_lat": 0.0, "rental_uris": {"android": "https://dc.lft.to/lastmile_qr_scan", "ios": "https://dc.lft.to/lastmile_qr_scan"}}, {"bike_id": "e63007d9715dc0c3197e8ee7cada153e", "fusion_lon": 0.0, "name": "e63007d9715dc0c3197e8ee7cada153e", "lat": 38.88612366666667, "is_disabled": 0, "is_reserved": 0, "lon": -77.03211766666666, "type": "electric_scooter", "fusion_lat": 0.0, "rental_uris": {"android": "https://dc.lft.to/lastmile_qr_scan", "ios": "https://dc.lft.to/lastmile_qr_scan"}}, {"bike_id": "13b44ed32b1b38694043ab77b903f92a", "fusion_lon": 0.0, "name": "13b44ed32b1b38694043ab77b903f92a", "lat": 38.909706, "is_disabled": 0, "is_reserved": 0, "lon": -77.03312133333333, "type": "electric_scooter", "fusion_lat": 0.0, "rental_uris": {"android": "https://dc.lft.to/lastmile_qr_scan", "ios": "https://dc.lft.to/lastmile_qr_scan"}}, {"bike_id": "c2cf5616bd04c5d646af662aad3aeb1d", "fusion_lon": 0.0, "name": "c2cf5616bd04c5d646af662aad3aeb1d", "lat": 38.917198166666665, "is_disabled": 0, "is_reserved": 0, "lon": -77.03665166666667, "type": "electric_scooter", "fusion_lat": 0.0, "rental_uris": {"android": "https://dc.lft.to/lastmile_qr_scan", "ios": "https://dc.lft.to/lastmile_qr_scan"}}, {"bike_id": "a181fd8735cc9314f91c67fa3d694a72", "fusion_lon": 0.0, "name": "a181fd8735cc9314f91c67fa3d694a72", "lat": 38.91534566666667, "is_disabled": 0, "is_reserved": 0, "lon": -77.03186683333334, "type": "electric_scooter", "fusion_lat": 0.0, "rental_uris": {"android": "https://dc.lft.to/lastmile_qr_scan", "ios": "https://dc.lft.to/lastmile_qr_scan"}}, {"bike_id": "23fdc042b8ca550872e78b25dd145fe1", "fusion_lon": 0.0, "name": "23fdc042b8ca550872e78b25dd145fe1", "lat": 38.915621333333334, "is_disabled": 0, "is_reserved": 0, "lon": -77.02123083333333, "type": "electric_scooter", "fusion_lat": 0.0, "rental_uris": {"android": "https://dc.lft.to/lastmile_qr_scan", "ios": "https://dc.lft.to/lastmile_qr_scan"}}, {"bike_id": "98fb2c0d6168db6513c7067ebf57a366", "fusion_lon": 0.0, "name": "98fb2c0d6168db6513c7067ebf57a366", "lat": 38.90734633333334, "is_disabled": 0, "is_reserved": 0, "lon": -76.9977685, "type": "electric_scooter", "fusion_lat": 0.0, "rental_uris": {"android": "https://dc.lft.to/lastmile_qr_scan", "ios": "https://dc.lft.to/lastmile_qr_scan"}}, {"bike_id": "143223258c4160c08f4d6a48a803aec6", "fusion_lon": 0.0, "name": "143223258c4160c08f4d6a48a803aec6", "lat": 38.97889583333333, "is_disabled": 0, "is_reserved": 0, "lon": -77.06031, "type": "electric_bike", "fusion_lat": 0.0, "rental_uris": {"android": "https://dc.lft.to/lastmile_qr_scan", "ios": "https://dc.lft.to/lastmile_qr_scan"}}, {"bike_id": "3908e01415254f9670e017f538c935b2", "fusion_lon": 0.0, "name": "3908e01415254f9670e017f538c935b2", "lat": 38.8974975, "is_disabled": 0, "is_reserved": 0, "lon": -77.032324, "type": "electric_scooter", "fusion_lat": 0.0, "rental_uris": {"android": "https://dc.lft.to/lastmile_qr_scan", "ios": "https://dc.lft.to/lastmile_qr_scan"}}, {"bike_id": "84bb1271ebefe86018b64a12060ff9dd", "fusion_lon": 0.0, "name": "84bb1271ebefe86018b64a12060ff9dd", "lat": 38.93584083333333, "is_disabled": 0, "is_reserved": 0, "lon": -76.99904183333334, "type": "electric_bike", "fusion_lat": 0.0, "rental_uris": {"android": "https://dc.lft.to/lastmile_qr_scan", "ios": "https://dc.lft.to/lastmile_qr_scan"}}, {"bike_id": "d276b50a2e1feb427f68fbd0e84fff78", "fusion_lon": 0.0, "name": "d276b50a2e1feb427f68fbd0e84fff78", "lat": 38.91494616666667, "is_disabled": 0, "is_reserved": 0, "lon": -77.03724483333333, "type": "electric_scooter", "fusion_lat": 0.0, "rental_uris": {"android": "https://dc.lft.to/lastmile_qr_scan", "ios": "https://dc.lft.to/lastmile_qr_scan"}}, {"bike_id": "ed30b6991f0c4a6ac0e41544335d8742", "fusion_lon": 0.0, "name": "ed30b6991f0c4a6ac0e41544335d8742", "lat": 38.892268333333334, "is_disabled": 0, "is_reserved": 0, "lon": -77.0418105, "type": "electric_scooter", "fusion_lat": 0.0, "rental_uris": {"android": "https://dc.lft.to/lastmile_qr_scan", "ios": "https://dc.lft.to/lastmile_qr_scan"}}, {"bike_id": "f2bef054b9f27b807b49df4bbffc41e9", "fusion_lon": 0.0, "name": "f2bef054b9f27b807b49df4bbffc41e9", "lat": 38.892224666666664, "is_disabled": 0, "is_reserved": 0, "lon": -77.047694, "type": "electric_scooter", "fusion_lat": 0.0, "rental_uris": {"android": "https://dc.lft.to/lastmile_qr_scan", "ios": "https://dc.lft.to/lastmile_qr_scan"}}, {"bike_id": "662f878b5481ab5867b1d65291c43066", "fusion_lon": 0.0, "name": "662f878b5481ab5867b1d65291c43066", "lat": 38.905129333333335, "is_disabled": 0, "is_reserved": 0, "lon": -77.0490515, "type": "electric_scooter", "fusion_lat": 0.0, "rental_uris": {"android": "https://dc.lft.to/lastmile_qr_scan", "ios": "https://dc.lft.to/lastmile_qr_scan"}}, {"bike_id": "dd8c4304e4310d7e559593ec32903308", "fusion_lon": 0.0, "name": "dd8c4304e4310d7e559593ec32903308", "lat": 38.9228045, "is_disabled": 0, "is_reserved": 0, "lon": -77.01943566666667, "type": "electric_scooter", "fusion_lat": 0.0, "rental_uris": {"android": "https://dc.lft.to/lastmile_qr_scan", "ios": "https://dc.lft.to/lastmile_qr_scan"}}, {"bike_id": "0a6a9348628869b1b9854eb973bb936f", "fusion_lon": 0.0, "name": "0a6a9348628869b1b9854eb973bb936f", "lat": 38.925384, "is_disabled": 0, "is_reserved": 0, "lon": -77.02285466666666, "type": "electric_scooter", "fusion_lat": 0.0, "rental_uris": {"android": "https://dc.lft.to/lastmile_qr_scan", "ios": "https://dc.lft.to/lastmile_qr_scan"}}, {"bike_id": "70208441306e34758a73c4e7af2080b1", "fusion_lon": 0.0, "name": "70208441306e34758a73c4e7af2080b1", "lat": 38.9260555, "is_disabled": 0, "is_reserved": 0, "lon": -77.02390466666667, "type": "electric_scooter", "fusion_lat": 0.0, "rental_uris": {"android": "https://dc.lft.to/lastmile_qr_scan", "ios": "https://dc.lft.to/lastmile_qr_scan"}}, {"bike_id": "1bb9b0d15fcaf5500afb84b4ac053be3", "fusion_lon": 0.0, "name": "1bb9b0d15fcaf5500afb84b4ac053be3", "lat": 38.83932866666667, "is_disabled": 0, "is_reserved": 0, "lon": -77.079047, "type": "electric_bike", "fusion_lat": 0.0, "rental_uris": {"android": "https://dc.lft.to/lastmile_qr_scan", "ios": "https://dc.lft.to/lastmile_qr_scan"}}, {"bike_id": "ea2731791389ba74488d0c17ba88f10f", "fusion_lon": 0.0, "name": "ea2731791389ba74488d0c17ba88f10f", "lat": 38.88635816666667, "is_disabled": 0, "is_reserved": 0, "lon": -76.92589, "type": "electric_scooter", "fusion_lat": 0.0, "rental_uris": {"android": "https://dc.lft.to/lastmile_qr_scan", "ios": "https://dc.lft.to/lastmile_qr_scan"}}, {"bike_id": "98e812ad3bcf7916f7289ea32be209ff", "fusion_lon": 0.0, "name": "98e812ad3bcf7916f7289ea32be209ff", "lat": 38.928350333333334, "is_disabled": 0, "is_reserved": 0, "lon": -77.05438283333334, "type": "electric_scooter", "fusion_lat": 0.0, "rental_uris": {"android": "https://dc.lft.to/lastmile_qr_scan", "ios": "https://dc.lft.to/lastmile_qr_scan"}}, {"bike_id": "08712774d5b3c562ec890c10bc42a4d6", "fusion_lon": 0.0, "name": "08712774d5b3c562ec890c10bc42a4d6", "lat": 38.855153666666666, "is_disabled": 0, "is_reserved": 0, "lon": -77.10536766666667, "type": "electric_bike", "fusion_lat": 0.0, "rental_uris": {"android": "https://dc.lft.to/lastmile_qr_scan", "ios": "https://dc.lft.to/lastmile_qr_scan"}}, {"bike_id": "fc330fd97f4027c6f0ce1d53ebc4cd2a", "fusion_lon": 0.0, "name": "fc330fd97f4027c6f0ce1d53ebc4cd2a", "lat": 38.902439, "is_disabled": 0, "is_reserved": 0, "lon": -77.0019985, "type": "electric_scooter", "fusion_lat": 0.0, "rental_uris": {"android": "https://dc.lft.to/lastmile_qr_scan", "ios": "https://dc.lft.to/lastmile_qr_scan"}}, {"bike_id": "7853a1404885019050260956013a288c", "fusion_lon": 0.0, "name": "7853a1404885019050260956013a288c", "lat": 38.90726266666667, "is_disabled": 0, "is_reserved": 0, "lon": -77.02540566666667, "type": "electric_scooter", "fusion_lat": 0.0, "rental_uris": {"android": "https://dc.lft.to/lastmile_qr_scan", "ios": "https://dc.lft.to/lastmile_qr_scan"}}, {"bike_id": "0e552b20715b11f0a8686dd4fd7163db", "fusion_lon": 0.0, "name": "0e552b20715b11f0a8686dd4fd7163db", "lat": 38.9205315, "is_disabled": 0, "is_reserved": 0, "lon": -77.002086, "type": "electric_scooter", "fusion_lat": 0.0, "rental_uris": {"android": "https://dc.lft.to/lastmile_qr_scan", "ios": "https://dc.lft.to/lastmile_qr_scan"}}, {"bike_id": "a47270bf2676f0fa52b2c353bc99d667", "fusion_lon": 0.0, "name": "a47270bf2676f0fa52b2c353bc99d667", "lat": 38.89227133333333, "is_disabled": 0, "is_reserved": 0, "lon": -77.0222945, "type": "electric_scooter", "fusion_lat": 0.0, "rental_uris": {"android": "https://dc.lft.to/lastmile_qr_scan", "ios": "https://dc.lft.to/lastmile_qr_scan"}}, {"bike_id": "8cd61b13bef60087ecafd145e7f4a208", "fusion_lon": 0.0, "name": "8cd61b13bef60087ecafd145e7f4a208", "lat": 38.901923833333335, "is_disabled": 0, "is_reserved": 0, "lon": -76.9289415, "type": "electric_scooter", "fusion_lat": 0.0, "rental_uris": {"android": "https://dc.lft.to/lastmile_qr_scan", "ios": "https://dc.lft.to/lastmile_qr_scan"}}, {"bike_id": "7cec1c80d6ed0ed7b435694f0da2eab8", "fusion_lon": 0.0, "name": "7cec1c80d6ed0ed7b435694f0da2eab8", "lat": 38.892285333333334, "is_disabled": 0, "is_reserved": 0, "lon": -77.0480735, "type": "electric_scooter", "fusion_lat": 0.0, "rental_uris": {"android": "https://dc.lft.to/lastmile_qr_scan", "ios": "https://dc.lft.to/lastmile_qr_scan"}}, {"bike_id": "450859f1a66a2bf39cabab15bd451447", "fusion_lon": 0.0, "name": "450859f1a66a2bf39cabab15bd451447", "lat": 38.876136, "is_disabled": 0, "is_reserved": 0, "lon": -76.96563283333333, "type": "electric_scooter", "fusion_lat": 0.0, "rental_uris": {"android": "https://dc.lft.to/lastmile_qr_scan", "ios": "https://dc.lft.to/lastmile_qr_scan"}}, {"bike_id": "4bf547ba3fb41bf7415797e2f470604f", "fusion_lon": 0.0, "name": "4bf547ba3fb41bf7415797e2f470604f", "lat": 38.914123000000004, "is_disabled": 0, "is_reserved": 0, "lon": -77.03806483333334, "type": "electric_scooter", "fusion_lat": 0.0, "rental_uris": {"android": "https://dc.lft.to/lastmile_qr_scan", "ios": "https://dc.lft.to/lastmile_qr_scan"}}, {"bike_id": "4dd7e08e4b9fe0ad35d0fa945695250b", "fusion_lon": 0.0, "name": "4dd7e08e4b9fe0ad35d0fa945695250b", "lat": 38.9171095, "is_disabled": 0, "is_reserved": 0, "lon": -77.0314875, "type": "electric_scooter", "fusion_lat": 0.0, "rental_uris": {"android": "https://dc.lft.to/lastmile_qr_scan", "ios": "https://dc.lft.to/lastmile_qr_scan"}}, {"bike_id": "9c476096b8d01291d9c092006058e8f6", "fusion_lon": 0.0, "name": "9c476096b8d01291d9c092006058e8f6", "lat": 38.89237, "is_disabled": 0, "is_reserved": 0, "lon": -77.028278, "type": "electric_scooter", "fusion_lat": 0.0, "rental_uris": {"android": "https://dc.lft.to/lastmile_qr_scan", "ios": "https://dc.lft.to/lastmile_qr_scan"}}, {"bike_id": "7d91752b30b491749a32275fffc52992", "fusion_lon": 0.0, "name": "7d91752b30b491749a32275fffc52992", "lat": 38.912975833333334, "is_disabled": 0, "is_reserved": 0, "lon": -77.03202033333334, "type": "electric_scooter", "fusion_lat": 0.0, "rental_uris": {"android": "https://dc.lft.to/lastmile_qr_scan", "ios": "https://dc.lft.to/lastmile_qr_scan"}}, {"bike_id": "877287148bc65d2465b837fed82400d4", "fusion_lon": 0.0, "name": "877287148bc65d2465b837fed82400d4", "lat": 38.92975966666667, "is_disabled": 0, "is_reserved": 0, "lon": -77.0281465, "type": "electric_scooter", "fusion_lat": 0.0, "rental_uris": {"android": "https://dc.lft.to/lastmile_qr_scan", "ios": "https://dc.lft.to/lastmile_qr_scan"}}, {"bike_id": "23cf7355f726b803147e44ed4d62ba47", "fusion_lon": 0.0, "name": "23cf7355f726b803147e44ed4d62ba47", "lat": 38.921099, "is_disabled": 0, "is_reserved": 0, "lon": -77.07475116666667, "type": "electric_scooter", "fusion_lat": 0.0, "rental_uris": {"android": "https://dc.lft.to/lastmile_qr_scan", "ios": "https://dc.lft.to/lastmile_qr_scan"}}, {"bike_id": "df850850fe7894a4b6692aac02100c31", "fusion_lon": 0.0, "name": "df850850fe7894a4b6692aac02100c31", "lat": 38.933085, "is_disabled": 0, "is_reserved": 0, "lon": -77.0239775, "type": "electric_scooter", "fusion_lat": 0.0, "rental_uris": {"android": "https://dc.lft.to/lastmile_qr_scan", "ios": "https://dc.lft.to/lastmile_qr_scan"}}, {"bike_id": "ea75ca490446ef43d8b9c3413cf173e6", "fusion_lon": 0.0, "name": "ea75ca490446ef43d8b9c3413cf173e6", "lat": 38.91598333333334, "is_disabled": 0, "is_reserved": 0, "lon": -77.0451465, "type": "electric_scooter", "fusion_lat": 0.0, "rental_uris": {"android": "https://dc.lft.to/lastmile_qr_scan", "ios": "https://dc.lft.to/lastmile_qr_scan"}}, {"bike_id": "00d6916b83db00940cb92c365583b2f3", "fusion_lon": 0.0, "name": "00d6916b83db00940cb92c365583b2f3", "lat": 38.865132, "is_disabled": 0, "is_reserved": 0, "lon": -76.99006483333334, "type": "electric_scooter", "fusion_lat": 0.0, "rental_uris": {"android": "https://dc.lft.to/lastmile_qr_scan", "ios": "https://dc.lft.to/lastmile_qr_scan"}}, {"bike_id": "d2197009cc52b084e932711fba888d71", "fusion_lon": 0.0, "name": "d2197009cc52b084e932711fba888d71", "lat": 38.932767166666665, "is_disabled": 0, "is_reserved": 0, "lon": -77.0453455, "type": "electric_scooter", "fusion_lat": 0.0, "rental_uris": {"android": "https://dc.lft.to/lastmile_qr_scan", "ios": "https://dc.lft.to/lastmile_qr_scan"}}, {"bike_id": "754b587d244ee67cf97252fa80cf26b3", "fusion_lon": 0.0, "name": "754b587d244ee67cf97252fa80cf26b3", "lat": 38.88774016666667, "is_disabled": 0, "is_reserved": 0, "lon": -76.97745433333333, "type": "electric_scooter", "fusion_lat": 0.0, "rental_uris": {"android": "https://dc.lft.to/lastmile_qr_scan", "ios": "https://dc.lft.to/lastmile_qr_scan"}}, {"bike_id": "c1af7b70063101b8f8064bd46de7a4cb", "fusion_lon": 0.0, "name": "c1af7b70063101b8f8064bd46de7a4cb", "lat": 38.900029833333335, "is_disabled": 0, "is_reserved": 0, "lon": -77.04107616666667, "type": "electric_scooter", "fusion_lat": 0.0, "rental_uris": {"android": "https://dc.lft.to/lastmile_qr_scan", "ios": "https://dc.lft.to/lastmile_qr_scan"}}, {"bike_id": "8908bcb89abb9676d261570ee15a0a85", "fusion_lon": 0.0, "name": "8908bcb89abb9676d261570ee15a0a85", "lat": 38.92208933333333, "is_disabled": 0, "is_reserved": 0, "lon": -77.04130766666667, "type": "electric_scooter", "fusion_lat": 0.0, "rental_uris": {"android": "https://dc.lft.to/lastmile_qr_scan", "ios": "https://dc.lft.to/lastmile_qr_scan"}}, {"bike_id": "7675e4debd5f671f6b2f693c5b7c0490", "fusion_lon": 0.0, "name": "7675e4debd5f671f6b2f693c5b7c0490", "lat": 38.94461483333333, "is_disabled": 0, "is_reserved": 0, "lon": -77.0233665, "type": "electric_scooter", "fusion_lat": 0.0, "rental_uris": {"android": "https://dc.lft.to/lastmile_qr_scan", "ios": "https://dc.lft.to/lastmile_qr_scan"}}, {"bike_id": "94508df781139ba25ffca468d1edb137", "fusion_lon": 0.0, "name": "94508df781139ba25ffca468d1edb137", "lat": 38.976333, "is_disabled": 0, "is_reserved": 0, "lon": -77.01568466666667, "type": "electric_scooter", "fusion_lat": 0.0, "rental_uris": {"android": "https://dc.lft.to/lastmile_qr_scan", "ios": "https://dc.lft.to/lastmile_qr_scan"}}, {"bike_id": "482e100c2326bd35a8e969bf6da1d391", "fusion_lon": 0.0, "name": "482e100c2326bd35a8e969bf6da1d391", "lat": 38.89722316666667, "is_disabled": 0, "is_reserved": 0, "lon": -77.00800066666666, "type": "electric_scooter", "fusion_lat": 0.0, "rental_uris": {"android": "https://dc.lft.to/lastmile_qr_scan", "ios": "https://dc.lft.to/lastmile_qr_scan"}}, {"bike_id": "072edc648e93333139a12f106449004c", "fusion_lon": 0.0, "name": "072edc648e93333139a12f106449004c", "lat": 38.916875, "is_disabled": 0, "is_reserved": 0, "lon": -77.04139416666666, "type": "electric_scooter", "fusion_lat": 0.0, "rental_uris": {"android": "https://dc.lft.to/lastmile_qr_scan", "ios": "https://dc.lft.to/lastmile_qr_scan"}}, {"bike_id": "83f5b81ed2e2a53eb752ba8a23b2327a", "fusion_lon": 0.0, "name": "83f5b81ed2e2a53eb752ba8a23b2327a", "lat": 38.9013555, "is_disabled": 0, "is_reserved": 0, "lon": -77.03680816666666, "type": "electric_scooter", "fusion_lat": 0.0, "rental_uris": {"android": "https://dc.lft.to/lastmile_qr_scan", "ios": "https://dc.lft.to/lastmile_qr_scan"}}, {"bike_id": "0122eb886078e1cc41ddcb20ae087b01", "fusion_lon": 0.0, "name": "0122eb886078e1cc41ddcb20ae087b01", "lat": 38.9021385, "is_disabled": 0, "is_reserved": 0, "lon": -77.023823, "type": "electric_scooter", "fusion_lat": 0.0, "rental_uris": {"android": "https://dc.lft.to/lastmile_qr_scan", "ios": "https://dc.lft.to/lastmile_qr_scan"}}, {"bike_id": "9923b9111b7a9e083584847a1f85f839", "fusion_lon": 0.0, "name": "9923b9111b7a9e083584847a1f85f839", "lat": 38.88494766666667, "is_disabled": 0, "is_reserved": 0, "lon": -77.007073, "type": "electric_scooter", "fusion_lat": 0.0, "rental_uris": {"android": "https://dc.lft.to/lastmile_qr_scan", "ios": "https://dc.lft.to/lastmile_qr_scan"}}, {"bike_id": "270f935a1c0d6cff93d1881be45ebd31", "fusion_lon": 0.0, "name": "270f935a1c0d6cff93d1881be45ebd31", "lat": 38.908962333333335, "is_disabled": 0, "is_reserved": 0, "lon": -77.0343245, "type": "electric_scooter", "fusion_lat": 0.0, "rental_uris": {"android": "https://dc.lft.to/lastmile_qr_scan", "ios": "https://dc.lft.to/lastmile_qr_scan"}}, {"bike_id": "e2114fb040a22a55219cde69467af455", "fusion_lon": 0.0, "name": "e2114fb040a22a55219cde69467af455", "lat": 38.985102499999996, "is_disabled": 0, "is_reserved": 0, "lon": -76.98209133333333, "type": "electric_bike", "fusion_lat": 0.0, "rental_uris": {"android": "https://dc.lft.to/lastmile_qr_scan", "ios": "https://dc.lft.to/lastmile_qr_scan"}}, {"bike_id": "11aeb24a3329f8558d69e3d0acb48e1b", "fusion_lon": 0.0, "name": "11aeb24a3329f8558d69e3d0acb48e1b", "lat": 38.924210333333335, "is_disabled": 0, "is_reserved": 0, "lon": -77.05173233333333, "type": "electric_scooter", "fusion_lat": 0.0, "rental_uris": {"android": "https://dc.lft.to/lastmile_qr_scan", "ios": "https://dc.lft.to/lastmile_qr_scan"}}, {"bike_id": "ddce9d19dfb54c51765645338f9160a1", "fusion_lon": 0.0, "name": "ddce9d19dfb54c51765645338f9160a1", "lat": 38.9171805, "is_disabled": 0, "is_reserved": 0, "lon": -77.04153566666666, "type": "electric_scooter", "fusion_lat": 0.0, "rental_uris": {"android": "https://dc.lft.to/lastmile_qr_scan", "ios": "https://dc.lft.to/lastmile_qr_scan"}}, {"bike_id": "883861974b6b563407525d3f3439ebfc", "fusion_lon": 0.0, "name": "883861974b6b563407525d3f3439ebfc", "lat": 38.88748566666666, "is_disabled": 0, "is_reserved": 0, "lon": -77.01780533333333, "type": "electric_scooter", "fusion_lat": 0.0, "rental_uris": {"android": "https://dc.lft.to/lastmile_qr_scan", "ios": "https://dc.lft.to/lastmile_qr_scan"}}, {"bike_id": "8647130b44aef87cb560b14e7026f8eb", "fusion_lon": 0.0, "name": "8647130b44aef87cb560b14e7026f8eb", "lat": 38.929647833333334, "is_disabled": 0, "is_reserved": 0, "lon": -77.01143383333333, "type": "electric_scooter", "fusion_lat": 0.0, "rental_uris": {"android": "https://dc.lft.to/lastmile_qr_scan", "ios": "https://dc.lft.to/lastmile_qr_scan"}}, {"bike_id": "376f071a9ec98198e593e2d4b779ef38", "fusion_lon": 0.0, "name": "376f071a9ec98198e593e2d4b779ef38", "lat": 38.895586, "is_disabled": 0, "is_reserved": 0, "lon": -76.9983655, "type": "electric_scooter", "fusion_lat": 0.0, "rental_uris": {"android": "https://dc.lft.to/lastmile_qr_scan", "ios": "https://dc.lft.to/lastmile_qr_scan"}}, {"bike_id": "cf947c19a226cf49a2b0db0ecc99a410", "fusion_lon": 0.0, "name": "cf947c19a226cf49a2b0db0ecc99a410", "lat": 38.88749116666666, "is_disabled": 0, "is_reserved": 0, "lon": -76.9835875, "type": "electric_scooter", "fusion_lat": 0.0, "rental_uris": {"android": "https://dc.lft.to/lastmile_qr_scan", "ios": "https://dc.lft.to/lastmile_qr_scan"}}, {"bike_id": "dda7b30552c023bac061bc12c0bb2d78", "fusion_lon": 0.0, "name": "dda7b30552c023bac061bc12c0bb2d78", "lat": 38.901475, "is_disabled": 0, "is_reserved": 0, "lon": -77.0462705, "type": "electric_scooter", "fusion_lat": 0.0, "rental_uris": {"android": "https://dc.lft.to/lastmile_qr_scan", "ios": "https://dc.lft.to/lastmile_qr_scan"}}, {"bike_id": "5268433436a7fe12135faea45d24fc8c", "fusion_lon": 0.0, "name": "5268433436a7fe12135faea45d24fc8c", "lat": 38.914343333333335, "is_disabled": 0, "is_reserved": 0, "lon": -77.06421466666667, "type": "electric_scooter", "fusion_lat": 0.0, "rental_uris": {"android": "https://dc.lft.to/lastmile_qr_scan", "ios": "https://dc.lft.to/lastmile_qr_scan"}},