{"data": {"bikes": [{"lon": -77.00350816666666, "bike_id": "bc0cba03c4ee827e5bc2061b827c754c", "lat": 38.89925933333333, "fusion_lon": 0.0, "fusion_lat": 0.0, "type": "electric_scooter", "name": "bc0cba03c4ee827e5bc2061b827c754c", "is_disabled": 0, "rental_uris": {"ios": "https://dc.lft.to/lastmile_qr_scan", "android": "https://dc.lft.to/lastmile_qr_scan"}, "is_reserved": 0}, {"lon": -77.03498333333333, "bike_id": "072b0613059bbd8a88128647c5c6dd23", "lat": 38.924750833333334, "fusion_lon": 0.0, "fusion_lat": 0.0, "type": "electric_scooter", "name": "072b0613059bbd8a88128647c5c6dd23", "is_disabled": 0, "rental_uris": {"ios": "https://dc.lft.to/lastmile_qr_scan", "android": "https://dc.lft.to/lastmile_qr_scan"}, "is_reserved": 0}, {"lon": -77.03178216666667, "bike_id": "792c1e2c0bd94807cabdae420fb288c3", "lat": 38.903688, "fusion_lon": 0.0, "fusion_lat": 0.0, "type": "electric_scooter", "name": "792c1e2c0bd94807cabdae420fb288c3", "is_disabled": 0, "rental_uris": {"ios": "https://dc.lft.to/lastmile_qr_scan", "android": "https://dc.lft.to/lastmile_qr_scan"}, "is_reserved": 0}, {"lon": -76.97393966666667, "bike_id": "29e0224e4de95759f56d9530a1ec8cdb", "lat": 38.905563666666666, "fusion_lon": 0.0, "fusion_lat": 0.0, "type": "electric_scooter", "name": "29e0224e4de95759f56d9530a1ec8cdb", "is_disabled": 0, "rental_uris": {"ios": "https://dc.lft.to/lastmile_qr_scan", "android": "https://dc.lft.to/lastmile_qr_scan"}, "is_reserved": 0}, {"lon": -77.03653966666667, "bike_id": "e610cf81e501ecb428d2dccb3c283946", "lat": 38.922593666666664, "fusion_lon": 0.0, "fusion_lat": 0.0, "type": "electric_scooter", "name": "e610cf81e501ecb428d2dccb3c283946", "is_disabled": 0, "rental_uris": {"ios": "https://dc.lft.to/lastmile_qr_scan", "android": "https://dc.lft.to/lastmile_qr_scan"}, "is_reserved": 0}, {"lon": -77.03423533333333, "bike_id": "eac4980ebc9da912fb687e977dfc963b", "lat": 38.922449666666665, "fusion_lon": 0.0, "fusion_lat": 0.0, "type": "electric_scooter", "name": "eac4980ebc9da912fb687e977dfc963b", "is_disabled": 0, "rental_uris": {"ios": "https://dc.lft.to/lastmile_qr_scan", "android": "https://dc.lft.to/lastmile_qr_scan"}, "is_reserved": 0}, {"lon": -77.03268266666667, "bike_id": "acf086b26f4c1d819ddea69a56afc202", "lat": 38.933965666666666, "fusion_lon": 0.0, "fusion_lat": 0.0, "type": "electric_scooter", "name": "acf086b26f4c1d819ddea69a56afc202", "is_disabled": 0, "rental_uris": {"ios": "https://dc.lft.to/lastmile_qr_scan", "android": "https://dc.lft.to/lastmile_qr_scan"}, "is_reserved": 0}, {"lon": -77.03853483333333, "bike_id": "3fbaa7cbede4a543f91cc18bf102c7f1", "lat": 38.91664433333333, "fusion_lon": 0.0, "fusion_lat": 0.0, "type": "electric_scooter", "name": "3fbaa7cbede4a543f91cc18bf102c7f1", "is_disabled": 0, "rental_uris": {"ios": "https://dc.lft.to/lastmile_qr_scan", "android": "https://dc.lft.to/lastmile_qr_scan"}, "is_reserved": 0}, {"lon": -77.03903566666666, "bike_id": "edb5b9af2c948d6f17d62891d6a992c8", "lat": 38.92360033333333, "fusion_lon": 0.0, "fusion_lat": 0.0, "type": "electric_scooter", "name": "edb5b9af2c948d6f17d62891d6a992c8", "is_disabled": 0, "rental_uris": {"ios": "https://dc.lft.to/lastmile_qr_scan", "android": "https://dc.lft.to/lastmile_qr_scan"}, "is_reserved": 0}, {"lon": -77.02669666666667, "bike_id": "89301da846809c9b97c5c66b49360e28", "lat": 38.897141, "fusion_lon": 0.0, "fusion_lat": 0.0, "type": "electric_scooter", "name": "89301da846809c9b97c5c66b49360e28", "is_disabled": 0, "rental_uris": {"ios": "https://dc.lft.to/lastmile_qr_scan", "android": "https://dc.lft.to/lastmile_qr_scan"}, "is_reserved": 0}, {"lon": -77.0350385, "bike_id": "3c8e3c9c868b238c8f26195857aed945", "lat": 38.93760133333333, "fusion_lon": 0.0, "fusion_lat": 0.0, "type": "electric_scooter", "name": "3c8e3c9c868b238c8f26195857aed945", "is_disabled": 0, "rental_uris": {"ios": "https://dc.lft.to/lastmile_qr_scan", "android": "https://dc.lft.to/lastmile_qr_scan"}, "is_reserved": 0}, {"lon": -76.98080716666666, "bike_id": "46f6ed14b3b51e6b17fe948eb1a6e88a", "lat": 38.9018405, "fusion_lon": 0.0, "fusion_lat": 0.0, "type": "electric_scooter", "name": "46f6ed14b3b51e6b17fe948eb1a6e88a", "is_disabled": 0, "rental_uris": {"ios": "https://dc.lft.to/lastmile_qr_scan", "android": "https://dc.lft.to/lastmile_qr_scan"}, "is_reserved": 0}, {"lon": -77.06341066666667, "bike_id": "8820937b7e17aa0320a6ea2dfb2c1783", "lat": 38.906792333333335, "fusion_lon": 0.0, "fusion_lat": 0.0, "type": "electric_scooter", "name": "8820937b7e17aa0320a6ea2dfb2c1783", "is_disabled": 0, "rental_uris": {"ios": "https://dc.lft.to/lastmile_qr_scan", "android": "https://dc.lft.to/lastmile_qr_scan"}, "is_reserved": 0}, {"lon": -77.05536933333333, "bike_id": "a61e81395ed5780eb76e7e8cee3800a0", "lat": 38.93427416666667, "fusion_lon": 0.0, "fusion_lat": 0.0, "type": "electric_scooter", "name": "a61e81395ed5780eb76e7e8cee3800a0", "is_disabled": 0, "rental_uris": {"ios": "https://dc.lft.to/lastmile_qr_scan", "android": "https://dc.lft.to/lastmile_qr_scan"}, "is_reserved": 0}, {"lon": -77.08461516666667, "bike_id": "57e9b756f349619d2801c6415bd8c5c8", "lat": 38.84820633333333, "fusion_lon": 0.0, "fusion_lat": 0.0, "type": "electric_bike", "name": "57e9b756f349619d2801c6415bd8c5c8", "is_disabled": 0, "rental_uris": {"ios": "https://dc.lft.to/lastmile_qr_scan", "android": "https://dc.lft.to/lastmile_qr_scan"}, "is_reserved": 0}, {"lon": -77.02413933333334, "bike_id": "d3e3d1fcb7164ec280c282f85da3b396", "lat": 38.920906, "fusion_lon": 0.0, "fusion_lat": 0.0, "type": "electric_scooter", "name": "d3e3d1fcb7164ec280c282f85da3b396", "is_disabled": 0, "rental_uris": {"ios": "https://dc.lft.to/lastmile_qr_scan", "android": "https://dc.lft.to/lastmile_qr_scan"}, "is_reserved": 0}, {"lon": -77.03432116666667, "bike_id": "4db94d59a51b637cb021abf4cbc8a2f9", "lat": 38.902323333333335, "fusion_lon": 0.0, "fusion_lat": 0.0, "type": "electric_scooter", "name": "4db94d59a51b637cb021abf4cbc8a2f9", "is_disabled": 0, "rental_uris": {"ios": "https://dc.lft.to/lastmile_qr_scan", "android": "https://dc.lft.to/lastmile_qr_scan"}, "is_reserved": 0}, {"lon": -77.0006965, "bike_id": "36ae21b5ffbde698b9e1b5801c462ea5", "lat": 38.899994166666666, "fusion_lon": 0.0, "fusion_lat": 0.0, "type": "electric_scooter", "name": "36ae21b5ffbde698b9e1b5801c462ea5", "is_disabled": 0, "rental_uris": {"ios": "https://dc.lft.to/lastmile_qr_scan", "android": "https://dc.lft.to/lastmile_qr_scan"}, "is_reserved": 0}, {"lon": -77.01093816666666, "bike_id": "dbf97ef816190203c7f87e73a9954be9", "lat": 38.903927833333334, "fusion_lon": 0.0, "fusion_lat": 0.0, "type": "electric_scooter", "name": "dbf97ef816190203c7f87e73a9954be9", "is_disabled": 0, "rental_uris": {"ios": "https://dc.lft.to/lastmile_qr_scan", "android": "https://dc.lft.to/lastmile_qr_scan"}, "is_reserved": 0}, {"lon": -77.01847783333334, "bike_id": "8d0fcff51e7115e978996ffe2bf03953", "lat": 38.91262016666667, "fusion_lon": 0.0, "fusion_lat": 0.0, "type": "electric_scooter", "name": "8d0fcff51e7115e978996ffe2bf03953", "is_disabled": 0, "rental_uris": {"ios": "https://dc.lft.to/lastmile_qr_scan", "android": "https://dc.lft.to/lastmile_qr_scan"}, "is_reserved": 0}, {"lon": -77.0487965, "bike_id": "c1acba53f288c93c19abd20ffd6103f4", "lat": 38.9161965, "fusion_lon": 0.0, "fusion_lat": 0.0, "type": "electric_scooter", "name": "c1acba53f288c93c19abd20ffd6103f4", "is_disabled": 0, "rental_uris": {"ios": "https://dc.lft.to/lastmile_qr_scan", "android": "https://dc.lft.to/lastmile_qr_scan"}, "is_reserved": 0}, {"lon": -77.03186033333333, "bike_id": "5a329299248d05df638f7979061d2d47", "lat": 38.917444, "fusion_lon": 0.0, "fusion_lat": 0.0, "type": "electric_scooter", "name": "5a329299248d05df638f7979061d2d47", "is_disabled": 0, "rental_uris": {"ios": "https://dc.lft.to/lastmile_qr_scan", "android": "https://dc.lft.to/lastmile_qr_scan"}, "is_reserved": 0}, {"lon": -77.04372416666666, "bike_id": "66da02aaf90b3f3c69c8af4696037b09", "lat": 38.91876466666667, "fusion_lon": 0.0, "fusion_lat": 0.0, "type": "electric_scooter", "name": "66da02aaf90b3f3c69c8af4696037b09", "is_disabled": 0, "rental_uris": {"ios": "https://dc.lft.to/lastmile_qr_scan", "android": "https://dc.lft.to/lastmile_qr_scan"}, "is_reserved": 0}, {"lon": -76.9860785, "bike_id": "ef2d75a6b8685c878c2824c82ae716f2", "lat": 38.9062145, "fusion_lon": 0.0, "fusion_lat": 0.0, "type": "electric_bike", "name": "ef2d75a6b8685c878c2824c82ae716f2", "is_disabled": 0, "rental_uris": {"ios": "https://dc.lft.to/lastmile_qr_scan", "android": "https://dc.lft.to/lastmile_qr_scan"}, "is_reserved": 0}, {"lon": -77.02087716666666, "bike_id": "9c1aaa9bf84973a7f32f756c6c753c0e", "lat": 38.881842666666664, "fusion_lon": 0.0, "fusion_lat": 0.0, "type": "electric_scooter", "name": "9c1aaa9bf84973a7f32f756c6c753c0e", "is_disabled": 0, "rental_uris": {"ios": "https://dc.lft.to/lastmile_qr_scan", "android": "https://dc.lft.to/lastmile_qr_scan"}, "is_reserved": 0}, {"lon": -77.02526266666666, "bike_id": "45af24aca57823037d41ada2a9c16d31", "lat": 38.92895133333333, "fusion_lon": 0.0, "fusion_lat": 0.0, "type": "electric_scooter", "name": "45af24aca57823037d41ada2a9c16d31", "is_disabled": 0, "rental_uris": {"ios": "https://dc.lft.to/lastmile_qr_scan", "android": "https://dc.lft.to/lastmile_qr_scan"}, "is_reserved": 0}, {"lon": -76.9652485, "bike_id": "3f8667f7056c66243cc266c01aa9ace5", "lat": 38.876305333333335, "fusion_lon": 0.0, "fusion_lat": 0.0, "type": "electric_scooter", "name": "3f8667f7056c66243cc266c01aa9ace5", "is_disabled": 0, "rental_uris": {"ios": "https://dc.lft.to/lastmile_qr_scan", "android": "https://dc.lft.to/lastmile_qr_scan"}, "is_reserved": 0}, {"lon": -77.005667, "bike_id": "9bbab3bf70bbf2378935a3999d416cea", "lat": 38.905671, "fusion_lon": 0.0, "fusion_lat": 0.0, "type": "electric_scooter", "name": "9bbab3bf70bbf2378935a3999d416cea", "is_disabled": 0, "rental_uris": {"ios": "https://dc.lft.to/lastmile_qr_scan", "android": "https://dc.lft.to/lastmile_qr_scan"}, "is_reserved": 0}, {"lon": -77.10023983333333, "bike_id": "af64c24e1d369ae203a4f944c8360dbb", "lat": 38.8713695, "fusion_lon": 0.0, "fusion_lat": 0.0, "type": "electric_bike", "name": "af64c24e1d369ae203a4f944c8360dbb", "is_disabled": 0, "rental_uris": {"ios": "https://dc.lft.to/lastmile_qr_scan", "android": "https://dc.lft.to/lastmile_qr_scan"}, "is_reserved": 0}, {"lon": -77.03765016666667, "bike_id": "3afe47880587cf671dc33cfec9fdd0e8", "lat": 38.907806, "fusion_lon": 0.0, "fusion_lat": 0.0, "type": "electric_scooter", "name": "3afe47880587cf671dc33cfec9fdd0e8", "is_disabled": 0, "rental_uris": {"ios": "https://dc.lft.to/lastmile_qr_scan", "android": "https://dc.lft.to/lastmile_qr_scan"}, "is_reserved": 0}, {"lon": -77.02872216666667, "bike_id": "247253ad5ff8ac0793b986ef30977c36", "lat": 38.9169175, "fusion_lon": 0.0, "fusion_lat": 0.0, "type": "electric_scooter", "name": "247253ad5ff8ac0793b986ef30977c36", "is_disabled": 0, "rental_uris": {"ios": "https://dc.lft.to/lastmile_qr_scan", "android": "https://dc.lft.to/lastmile_qr_scan"}, "is_reserved": 0}, {"lon": -77.01343083333333, "bike_id": "7136160791b8f8d4d2fea33c29e98674", "lat": 38.87815833333333, "fusion_lon": 0.0, "fusion_lat": 0.0, "type": "electric_scooter", "name": "7136160791b8f8d4d2fea33c29e98674", "is_disabled": 0, "rental_uris": {"ios": "https://dc.lft.to/lastmile_qr_scan", "android": "https://dc.lft.to/lastmile_qr_scan"}, "is_reserved": 0}, {"lon": -77.02570933333334, "bike_id": "190fcc9ffe3124027f27a29940ac4db0", "lat": 38.9257595, "fusion_lon": 0.0, "fusion_lat": 0.0, "type": "electric_scooter", "name": "190fcc9ffe3124027f27a29940ac4db0", "is_disabled": 0, "rental_uris": {"ios": "https://dc.lft.to/lastmile_qr_scan", "android": "https://dc.lft.to/lastmile_qr_scan"}, "is_reserved": 0}, {"lon": -77.05236566666666, "bike_id": "38262c9b57df1cc98cc2743899493d6f", "lat": 38.92468216666666, "fusion_lon": 0.0, "fusion_lat": 0.0, "type": "electric_scooter", "name": "38262c9b57df1cc98cc2743899493d6f", "is_disabled": 0, "rental_uris": {"ios": "https://dc.lft.to/lastmile_qr_scan", "android": "https://dc.lft.to/lastmile_qr_scan"}, "is_reserved": 0}, {"lon": -77.02268266666667, "bike_id": "063aac2029b97c61526e1d0cef4762d6", "lat": 38.937703166666665, "fusion_lon": 0.0, "fusion_lat": 0.0, "type": "electric_scooter", "name": "063aac2029b97c61526e1d0cef4762d6", "is_disabled": 0, "rental_uris": {"ios": "https://dc.lft.to/lastmile_qr_scan", "android": "https://dc.lft.to/lastmile_qr_scan"}, "is_reserved": 0}, {"lon": -77.04580133333333, "bike_id": "71c7a782c870eb623ead4b4708619b49", "lat": 38.9213615, "fusion_lon": 0.0, "fusion_lat": 0.0, "type": "electric_scooter", "name": "71c7a782c870eb623ead4b4708619b49", "is_disabled": 0, "rental_uris": {"ios": "https://dc.lft.to/lastmile_qr_scan", "android": "https://dc.lft.to/lastmile_qr_scan"}, "is_reserved": 0}, {"lon": -77.05019766666666, "bike_id": "91bd311b84702d6b0033850fa0bbe0de", "lat": 38.896876166666665, "fusion_lon": 0.0, "fusion_lat": 0.0, "type": "electric_scooter", "name": "91bd311b84702d6b0033850fa0bbe0de", "is_disabled": 0, "rental_uris": {"ios": "https://dc.lft.to/lastmile_qr_scan", "android": "https://dc.lft.to/lastmile_qr_scan"}, "is_reserved": 0}, {"lon": -77.04252633333333, "bike_id": "3b21bef8a7824d7ef0fbeb65ab9b7f08", "lat": 38.9263885, "fusion_lon": 0.0, "fusion_lat": 0.0, "type": "electric_scooter", "name": "3b21bef8a7824d7ef0fbeb65ab9b7f08", "is_disabled": 0, "rental_uris": {"ios": "https://dc.lft.to/lastmile_qr_scan", "android": "https://dc.lft.to/lastmile_qr_scan"}, "is_reserved": 0}, {"lon": -77.05236733333334, "bike_id": "56236ed2fa4cf8493081b8c1c55eed53", "lat": 38.9247045, "fusion_lon": 0.0, "fusion_lat": 0.0, "type": "electric_scooter", "name": "56236ed2fa4cf8493081b8c1c55eed53", "is_disabled": 0, "rental_uris": {"ios": "https://dc.lft.to/lastmile_qr_scan", "android": "https://dc.lft.to/lastmile_qr_scan"}, "is_reserved": 0}, {"lon": -77.0440765, "bike_id": "f7616f42c20092e0162cd1dbd0caf5d2", "lat": 38.93323816666667, "fusion_lon": 0.0, "fusion_lat": 0.0, "type": "electric_scooter", "name": "f7616f42c20092e0162cd1dbd0caf5d2", "is_disabled": 0, "rental_uris": {"ios": "https://dc.lft.to/lastmile_qr_scan", "android": "https://dc.lft.to/lastmile_qr_scan"}, "is_reserved": 0}, {"lon": -77.01477916666667, "bike_id": "2de4b1d315dc10373c536cb0c60739dc", "lat": 38.91768916666667, "fusion_lon": 0.0, "fusion_lat": 0.0, "type": "electric_scooter", "name": "2de4b1d315dc10373c536cb0c60739dc", "is_disabled": 0, "rental_uris": {"ios": "https://dc.lft.to/lastmile_qr_scan", "android": "https://dc.lft.to/lastmile_qr_scan"}, "is_reserved": 0}, {"lon": -77.02727883333333, "bike_id": "2095b5816afed577e130b802c236c4e1", "lat": 38.932045, "fusion_lon": 0.0, "fusion_lat": 0.0, "type": "electric_scooter", "name": "2095b5816afed577e130b802c236c4e1", "is_disabled": 0, "rental_uris": {"ios": "https://dc.lft.to/lastmile_qr_scan", "android": "https://dc.lft.to/lastmile_qr_scan"}, "is_reserved": 0}, {"lon": -77.01090766666667, "bike_id": "78106efc18805350140fdd641eaa8789", "lat": 38.91559516666667, "fusion_lon": 0.0, "fusion_lat": 0.0, "type": "electric_scooter", "name": "78106efc18805350140fdd641eaa8789", "is_disabled": 0, "rental_uris": {"ios": "https://dc.lft.to/lastmile_qr_scan", "android": "https://dc.lft.to/lastmile_qr_scan"}, "is_reserved": 0}, {"lon": -77.02800283333333, "bike_id": "95e078d57c4bd2ea6c9b43875f9769af", "lat": 38.9202505, "fusion_lon": 0.0, "fusion_lat": 0.0, "type": "electric_scooter", "name": "95e078d57c4bd2ea6c9b43875f9769af", "is_disabled": 0, "rental_uris": {"ios": "https://dc.lft.to/lastmile_qr_scan", "android": "https://dc.lft.to/lastmile_qr_scan"}, "is_reserved": 0}, {"lon": -77.0526245, "bike_id": "32ef7cada72ff1b6d26265edcc357be7", "lat": 38.91016483333333, "fusion_lon": 0.0, "fusion_lat": 0.0, "type": "electric_scooter", "name": "32ef7cada72ff1b6d26265edcc357be7", "is_disabled": 0, "rental_uris": {"ios": "https://dc.lft.to/lastmile_qr_scan", "android": "https://dc.lft.to/lastmile_qr_scan"}, "is_reserved": 0}, {"lon": -77.02793883333334, "bike_id": "49e8c031209d4bb48697ac2025dc9939", "lat": 38.956855166666664, "fusion_lon": 0.0, "fusion_lat": 0.0, "type": "electric_scooter", "name": "49e8c031209d4bb48697ac2025dc9939", "is_disabled": 0, "rental_uris": {"ios": "https://dc.lft.to/lastmile_qr_scan", "android": "https://dc.lft.to/lastmile_qr_scan"}, "is_reserved": 0}, {"lon": -77.00266966666666, "bike_id": "0529334d4489454a689f6e8deab5fefc", "lat": 38.90738733333333, "fusion_lon": 0.0, "fusion_lat": 0.0, "type": "electric_bike", "name": "0529334d4489454a689f6e8deab5fefc", "is_disabled": 0, "rental_uris": {"ios": "https://dc.lft.to/lastmile_qr_scan", "android": "https://dc.lft.to/lastmile_qr_scan"}, "is_reserved": 0}, {"lon": -77.0251435, "bike_id": "765196f5c2d73aa8c35a3e708060cb6b", "lat": 38.9308815, "fusion_lon": 0.0, "fusion_lat": 0.0, "type": "electric_scooter", "name": "765196f5c2d73aa8c35a3e708060cb6b", "is_disabled": 0, "rental_uris": {"ios": "https://dc.lft.to/lastmile_qr_scan", "android": "https://dc.lft.to/lastmile_qr_scan"}, "is_reserved": 0}, {"lon": -77.02947166666667, "bike_id": "eb79d060a706b65df0e41d7d917ee31d", "lat": 38.9237155, "fusion_lon": 0.0, "fusion_lat": 0.0, "type": "electric_scooter", "name": "eb79d060a706b65df0e41d7d917ee31d", "is_disabled": 0, "rental_uris": {"ios": "https://dc.lft.to/lastmile_qr_scan", "android": "https://dc.lft.to/lastmile_qr_scan"}, "is_reserved": 0}, {"lon": -77.031745, "bike_id": "e260d14ddf8f325dc3493857c2888ef0", "lat": 38.9141665, "fusion_lon": 0.0, "fusion_lat": 0.0, "type": "electric_scooter", "name": "e260d14ddf8f325dc3493857c2888ef0", "is_disabled": 0, "rental_uris": {"ios": "https://dc.lft.to/lastmile_qr_scan", "android": "https://dc.lft.to/lastmile_qr_scan"}, "is_reserved": 0}, {"lon": -77.048124, "bike_id": "2bc862887724a27d387fa3e85d3fbfce", "lat": 38.9096345, "fusion_lon": 0.0, "fusion_lat": 0.0, "type": "electric_scooter", "name": "2bc862887724a27d387fa3e85d3fbfce", "is_disabled": 0, "rental_uris": {"ios": "https://dc.lft.to/lastmile_qr_scan", "android": "https://dc.lft.to/lastmile_qr_scan"}, "is_reserved": 0}, {"lon": -76.93357083333333, "bike_id": "c742c72f0482352c4009d0621edd784b", "lat": 38.88798233333333, "fusion_lon": 0.0, "fusion_lat": 0.0, "type": "electric_scooter", "name": "c742c72f0482352c4009d0621edd784b", "is_disabled": 0, "rental_uris": {"ios": "https://dc.lft.to/lastmile_qr_scan", "android": "https://dc.lft.to/lastmile_qr_scan"}, "is_reserved": 0}, {"lon": -77.04246383333333, "bike_id": "af8c1ed7a422e5dc0cf188d60d820933", "lat": 38.90718916666667, "fusion_lon": 0.0, "fusion_lat": 0.0, "type": "electric_scooter", "name": "af8c1ed7a422e5dc0cf188d60d820933", "is_disabled": 0, "rental_uris": {"ios": "https://dc.lft.to/lastmile_qr_scan", "android": "https://dc.lft.to/lastmile_qr_scan"}, "is_reserved": 0}, {"lon": -77.01001383333333, "bike_id": "9d9aeba9041843ccfc85f88f58acfc79", "lat": 38.91924566666667, "fusion_lon": 0.0, "fusion_lat": 0.0, "type": "electric_scooter", "name": "9d9aeba9041843ccfc85f88f58acfc79", "is_disabled": 0, "rental_uris": {"ios": "https://dc.lft.to/lastmile_qr_scan", "android": "https://dc.lft.to/lastmile_qr_scan"}, "is_reserved": 0}, {"lon": -77.03277316666667, "bike_id": "85ba69c47fffde0a81ac2e5f060af067", "lat": 38.93255033333333, "fusion_lon": 0.0, "fusion_lat": 0.0, "type": "electric_scooter", "name": "85ba69c47fffde0a81ac2e5f060af067", "is_disabled": 0, "rental_uris": {"ios": "https://dc.lft.to/lastmile_qr_scan", "android": "https://dc.lft.to/lastmile_qr_scan"}, "is_reserved": 0}, {"lon": -77.0346245, "bike_id": "562256cc7e45b1040b51c3edfb6533aa", "lat": 38.92637283333333, "fusion_lon": 0.0, "fusion_lat": 0.0, "type": "electric_scooter", "name": "562256cc7e45b1040b51c3edfb6533aa", "is_disabled": 0, "rental_uris": {"ios": "https://dc.lft.to/lastmile_qr_scan", "android": "https://dc.lft.to/lastmile_qr_scan"}, "is_reserved": 0}, {"lon": -77.02348766666667, "bike_id": "627dceaf82d1f74e50a4f066e2ff708d", "lat": 38.89628416666667, "fusion_lon": 0.0, "fusion_lat": 0.0, "type": "electric_scooter", "name": "627dceaf82d1f74e50a4f066e2ff708d", "is_disabled": 0, "rental_uris": {"ios": "https://dc.lft.to/lastmile_qr_scan", "android": "https://dc.lft.to/lastmile_qr_scan"}, "is_reserved": 0}, {"lon": -77.03161333333334, "bike_id": "ec02ef1573d942b3265658795d82b3db", "lat": 38.9211725, "fusion_lon": 0.0, "fusion_lat": 0.0, "type": "electric_scooter", "name": "ec02ef1573d942b3265658795d82b3db", "is_disabled": 0, "rental_uris": {"ios": "https://dc.lft.to/lastmile_qr_scan", "android": "https://dc.lft.to/lastmile_qr_scan"}, "is_reserved": 0}, {"lon": -77.0270585, "bike_id": "681e76e5a01d8c1bcca150f8253b6208", "lat": 38.89775266666667, "fusion_lon": 0.0, "fusion_lat": 0.0, "type": "electric_scooter", "name": "681e76e5a01d8c1bcca150f8253b6208", "is_disabled": 0, "rental_uris": {"ios": "https://dc.lft.to/lastmile_qr_scan", "android": "https://dc.lft.to/lastmile_qr_scan"}, "is_reserved": 0}, {"lon": -77.042777, "bike_id": "d52bb96044a3701b5f8c876301384ae9", "lat": 38.934127833333335, "fusion_lon": 0.0, "fusion_lat": 0.0, "type": "electric_scooter", "name": "d52bb96044a3701b5f8c876301384ae9", "is_disabled": 0, "rental_uris": {"ios": "https://dc.lft.to/lastmile_qr_scan", "android": "https://dc.lft.to/lastmile_qr_scan"}, "is_reserved": 0}, {"lon": -77.03076783333333, "bike_id": "9a729351c2334c0d31e7b610b9bfb3f8", "lat": 38.88037216666667, "fusion_lon": 0.0, "fusion_lat": 0.0, "type": "electric_scooter", "name": "9a729351c2334c0d31e7b610b9bfb3f8", "is_disabled": 0, "rental_uris": {"ios": "https://dc.lft.to/lastmile_qr_scan", "android": "https://dc.lft.to/lastmile_qr_scan"}, "is_reserved": 0}, {"lon": -77.0386185, "bike_id": "a94cc6552dea67a12aed8b436cea80ae", "lat": 38.916631333333335, "fusion_lon": 0.0, "fusion_lat": 0.0, "type": "electric_scooter", "name": "a94cc6552dea67a12aed8b436cea80ae", "is_disabled": 0, "rental_uris": {"ios": "https://dc.lft.to/lastmile_qr_scan", "android": "https://dc.lft.to/lastmile_qr_scan"}, "is_reserved": 0}, {"lon": -77.02219583333333, "bike_id": "d46e039359f8fbbcf0db5c87649dfe53", "lat": 38.94095516666667, "fusion_lon": 0.0, "fusion_lat": 0.0, "type": "electric_scooter", "name": "d46e039359f8fbbcf0db5c87649dfe53", "is_disabled": 0, "rental_uris": {"ios": "https://dc.lft.to/lastmile_qr_scan", "android": "https://dc.lft.to/lastmile_qr_scan"}, "is_reserved": 0}, {"lon": -76.99459483333334, "bike_id": "7ec9e5ca3dae26bd813d250b2eb09277", "lat": 38.94063366666666, "fusion_lon": 0.0, "fusion_lat": 0.0, "type": "electric_bike", "name": "7ec9e5ca3dae26bd813d250b2eb09277", "is_disabled": 0, "rental_uris": {"ios": "https://dc.lft.to/lastmile_qr_scan", "android": "https://dc.lft.to/lastmile_qr_scan"}, "is_reserved": 0}, {"lon": -76.98884383333333, "bike_id": "b9a1b91f7669ad876359194cd4a7c061", "lat": 38.86660116666667, "fusion_lon": 0.0, "fusion_lat": 0.0, "type": "electric_scooter", "name": "b9a1b91f7669ad876359194cd4a7c061", "is_disabled": 0, "rental_uris": {"ios": "https://dc.lft.to/lastmile_qr_scan", "android": "https://dc.lft.to/lastmile_qr_scan"}, "is_reserved": 0}, {"lon": -77.02972266666667, "bike_id": "8312c978b1ad97af87a8b7fcc3f99c03", "lat": 38.9048925, "fusion_lon": 0.0, "fusion_lat": 0.0, "type": "electric_scooter", "name": "8312c978b1ad97af87a8b7fcc3f99c03", "is_disabled": 0, "rental_uris": {"ios": "https://dc.lft.to/lastmile_qr_scan", "android": "https://dc.lft.to/lastmile_qr_scan"}, "is_reserved": 0}, {"lon": -77.02583833333334, "bike_id": "1561911791cf5d1de7164d16f7c2c427", "lat": 38.88739116666667, "fusion_lon": 0.0, "fusion_lat": 0.0, "type": "electric_scooter", "name": "1561911791cf5d1de7164d16f7c2c427", "is_disabled": 0, "rental_uris": {"ios": "https://dc.lft.to/lastmile_qr_scan", "android": "https://dc.lft.to/lastmile_qr_scan"}, "is_reserved": 0}, {"lon": -77.00560466666667, "bike_id": "05c823a73031360feadebaae3593111e", "lat": 38.9056525, "fusion_lon": 0.0, "fusion_lat": 0.0, "type": "electric_scooter", "name": "05c823a73031360feadebaae3593111e", "is_disabled": 0, "rental_uris": {"ios": "https://dc.lft.to/lastmile_qr_scan", "android": "https://dc.lft.to/lastmile_qr_scan"}, "is_reserved": 0}, {"lon": -77.03693883333334, "bike_id": "a7cc5b39579166e26f4f0e36d321859a", "lat": 38.93524816666667, "fusion_lon": 0.0, "fusion_lat": 0.0, "type": "electric_scooter", "name": "a7cc5b39579166e26f4f0e36d321859a", "is_disabled": 0, "rental_uris": {"ios": "https://dc.lft.to/lastmile_qr_scan", "android": "https://dc.lft.to/lastmile_qr_scan"}, "is_reserved": 0}, {"lon": -77.02505166666667, "bike_id": "730332540c7e20dc50f1dccd41587e2d", "lat": 38.920724666666665, "fusion_lon": 0.0, "fusion_lat": 0.0, "type": "electric_scooter", "name": "730332540c7e20dc50f1dccd41587e2d", "is_disabled": 0, "rental_uris": {"ios": "https://dc.lft.to/lastmile_qr_scan", "android": "https://dc.lft.to/lastmile_qr_scan"}, "is_reserved": 0}, {"lon": -77.055902, "bike_id": "bdfee9464cdcfa059f117ef91d39945e", "lat": 38.893109833333334, "fusion_lon": 0.0, "fusion_lat": 0.0, "type": "electric_scooter", "name": "bdfee9464cdcfa059f117ef91d39945e", "is_disabled": 0, "rental_uris": {"ios": "https://dc.lft.to/lastmile_qr_scan", "android": "https://dc.lft.to/lastmile_qr_scan"}, "is_reserved": 0}, {"lon": -76.98404933333333, "bike_id": "06e4ce7a36a25d546259c2a4053367c5", "lat": 38.906292666666666, "fusion_lon": 0.0, "fusion_lat": 0.0, "type": "electric_scooter", "name": "06e4ce7a36a25d546259c2a4053367c5", "is_disabled": 0, "rental_uris": {"ios": "https://dc.lft.to/lastmile_qr_scan", "android": "https://dc.lft.to/lastmile_qr_scan"}, "is_reserved": 0}, {"lon": -76.98771116666667, "bike_id": "ef7a61b05a20108e913aa8186b4320b4", "lat": 38.86610133333333, "fusion_lon": 0.0, "fusion_lat": 0.0, "type": "electric_bike", "name": "ef7a61b05a20108e913aa8186b4320b4", "is_disabled": 0, "rental_uris": {"ios": "https://dc.lft.to/lastmile_qr_scan", "android": "https://dc.lft.to/lastmile_qr_scan"}, "is_reserved": 0}, {"lon": -77.04009166666667, "bike_id": "9299781db47acf14a2dd015f759fce24", "lat": 38.903917666666665, "fusion_lon": 0.0, "fusion_lat": 0.0, "type": "electric_scooter", "name": "9299781db47acf14a2dd015f759fce24", "is_disabled": 0, "rental_uris": {"ios": "https://dc.lft.to/lastmile_qr_scan", "android": "https://dc.lft.to/lastmile_qr_scan"}, "is_reserved": 0}, {"lon": -77.0392635, "bike_id": "4f64b8561c2c7fb231e63c03a9c77a7b", "lat": 38.920996833333334, "fusion_lon": 0.0, "fusion_lat": 0.0, "type": "electric_scooter", "name": "4f64b8561c2c7fb231e63c03a9c77a7b", "is_disabled": 0, "rental_uris": {"ios": "https://dc.lft.to/lastmile_qr_scan", "android": "https://dc.lft.to/lastmile_qr_scan"}, "is_reserved": 0}, {"lon": -77.03766033333333, "bike_id": "50e5f9712e465c69b10375a9a08076a1", "lat": 38.9297435, "fusion_lon": 0.0, "fusion_lat": 0.0, "type": "electric_scooter", "name": "50e5f9712e465c69b10375a9a08076a1", "is_disabled": 0, "rental_uris": {"ios": "https://dc.lft.to/lastmile_qr_scan", "android": "https://dc.lft.to/lastmile_qr_scan"}, "is_reserved": 0}, {"lon": -77.02988633333334, "bike_id": "bdb2fd4d2daa192aa62e7ccb754872f2", "lat": 38.912596666666666, "fusion_lon": 0.0, "fusion_lat": 0.0, "type": "electric_scooter", "name": "bdb2fd4d2daa192aa62e7ccb754872f2", "is_disabled": 0, "rental_uris": {"ios": "https://dc.lft.to/lastmile_qr_scan", "android": "https://dc.lft.to/lastmile_qr_scan"}, "is_reserved": 0}, {"lon": -76.98935516666667, "bike_id": "c042586f159d16599453e8f0efe30644", "lat": 38.91838416666667, "fusion_lon": 0.0, "fusion_lat": 0.0, "type": "electric_scooter", "name": "c042586f159d16599453e8f0efe30644", "is_disabled": 0, "rental_uris": {"ios": "https://dc.lft.to/lastmile_qr_scan", "android": "https://dc.lft.to/lastmile_qr_scan"}, "is_reserved": 0}, {"lon": -77.02572033333334, "bike_id": "d0f3d7b8a0111f18edb82dc239cbf92e", "lat": 38.913392, "fusion_lon": 0.0, "fusion_lat": 0.0, "type": "electric_scooter", "name": "d0f3d7b8a0111f18edb82dc239cbf92e", "is_disabled": 0, "rental_uris": {"ios": "https://dc.lft.to/lastmile_qr_scan", "android": "https://dc.lft.to/lastmile_qr_scan"}, "is_reserved": 0}, {"lon": -76.98837933333333, "bike_id": "4e5ad45a6213db3602f23401a73360db", "lat": 38.9012545, "fusion_lon": 0.0, "fusion_lat": 0.0, "type": "electric_scooter", "name": "4e5ad45a6213db3602f23401a73360db", "is_disabled": 0, "rental_uris": {"ios": "https://dc.lft.to/lastmile_qr_scan", "android": "https://dc.lft.to/lastmile_qr_scan"}, "is_reserved": 0}, {"lon": -77.048772, "bike_id": "1239eba6b8180522aec13ee46de0a17d", "lat": 38.89234483333333, "fusion_lon": 0.0, "fusion_lat": 0.0, "type": "electric_scooter", "name": "1239eba6b8180522aec13ee46de0a17d", "is_disabled": 0, "rental_uris": {"ios": "https://dc.lft.to/lastmile_qr_scan", "android": "https://dc.lft.to/lastmile_qr_scan"}, "is_reserved": 0}, {"lon": -77.03202016666667, "bike_id": "82fbf56f92fab66fedfdbbd299cc0849", "lat": 38.93046733333333, "fusion_lon": 0.0, "fusion_lat": 0.0, "type": "electric_scooter", "name": "82fbf56f92fab66fedfdbbd299cc0849", "is_disabled": 0, "rental_uris": {"ios": "https://dc.lft.to/lastmile_qr_scan", "android": "https://dc.lft.to/lastmile_qr_scan"}, "is_reserved": 0}, {"lon": -77.02385, "bike_id": "66e1da4af5e353bb6c0fffe835ce5421", "lat": 38.9078525, "fusion_lon": 0.0, "fusion_lat": 0.0, "type": "electric_scooter", "name": "66e1da4af5e353bb6c0fffe835ce5421", "is_disabled": 0, "rental_uris": {"ios": "https://dc.lft.to/lastmile_qr_scan", "android": "https://dc.lft.to/lastmile_qr_scan"}, "is_reserved": 0}, {"lon": -77.05514183333334, "bike_id": "73ddd8e44824327a34ed946e6e0f6b2a", "lat": 38.899657, "fusion_lon": 0.0, "fusion_lat": 0.0, "type": "electric_scooter", "name": "73ddd8e44824327a34ed946e6e0f6b2a", "is_disabled": 0, "rental_uris": {"ios": "https://dc.lft.to/lastmile_qr_scan", "android": "https://dc.lft.to/lastmile_qr_scan"}, "is_reserved": 0}, {"lon": -77.044922, "bike_id": "75a0a3b459a7b2434c2b195371b5bd02", "lat": 38.919327833333334, "fusion_lon": 0.0, "fusion_lat": 0.0, "type": "electric_scooter", "name": "75a0a3b459a7b2434c2b195371b5bd02", "is_disabled": 0, "rental_uris": {"ios": "https://dc.lft.to/lastmile_qr_scan", "android": "https://dc.lft.to/lastmile_qr_scan"}, "is_reserved": 0}, {"lon": -77.02418433333334, "bike_id": "9286a06f1b66b6f2d665e4e01af80ee8", "lat": 38.921599666666665, "fusion_lon": 0.0, "fusion_lat": 0.0, "type": "electric_scooter", "name": "9286a06f1b66b6f2d665e4e01af80ee8", "is_disabled": 0, "rental_uris": {"ios": "https://dc.lft.to/lastmile_qr_scan", "android": "https://dc.lft.to/lastmile_qr_scan"}, "is_reserved": 0}, {"lon": -77.027849, "bike_id": "933bbd750daa36d52deaa67b7f89d8f1", "lat": 38.927671, "fusion_lon": 0.0, "fusion_lat": 0.0, "type": "electric_scooter", "name": "933bbd750daa36d52deaa67b7f89d8f1", "is_disabled": 0, "rental_uris": {"ios": "https://dc.lft.to/lastmile_qr_scan", "android": "https://dc.lft.to/lastmile_qr_scan"}, "is_reserved": 0}, {"lon": -76.98664366666667, "bike_id": "31a2fc5e7095315d59875e89f0a9e544", "lat": 38.91246133333333, "fusion_lon": 0.0, "fusion_lat": 0.0, "type": "electric_scooter", "name": "31a2fc5e7095315d59875e89f0a9e544", "is_disabled": 0, "rental_uris": {"ios": "https://dc.lft.to/lastmile_qr_scan", "android": "https://dc.lft.to/lastmile_qr_scan"}, "is_reserved": 0}, {"lon": -77.03644283333334, "bike_id": "a7f718567bad53841040c88394b8414f", "lat": 38.903462, "fusion_lon": 0.0, "fusion_lat": 0.0, "type": "electric_scooter", "name": "a7f718567bad53841040c88394b8414f", "is_disabled": 0, "rental_uris": {"ios": "https://dc.lft.to/lastmile_qr_scan", "android": "https://dc.lft.to/lastmile_qr_scan"}, "is_reserved": 0}, {"lon": -76.96910733333333, "bike_id": "170638931dda07b5e4634936691ab4c5", "lat": 38.846092666666664, "fusion_lon": 0.0, "fusion_lat": 0.0, "type": "electric_bike", "name": "170638931dda07b5e4634936691ab4c5", "is_disabled": 0, "rental_uris": {"ios": "https://dc.lft.to/lastmile_qr_scan", "android": "https://dc.lft.to/lastmile_qr_scan"}, "is_reserved": 0}, {"lon": -77.02659866666667, "bike_id": "d1cc6d31526eb938bf4fc29670d489e9", "lat": 38.92584733333333, "fusion_lon": 0.0, "fusion_lat": 0.0, "type": "electric_scooter", "name": "d1cc6d31526eb938bf4fc29670d489e9", "is_disabled": 0, "rental_uris": {"ios": "https://dc.lft.to/lastmile_qr_scan", "android": "https://dc.lft.to/lastmile_qr_scan"}, "is_reserved": 0}, {"lon": -77.0386155, "bike_id": "fd49c9da9af1b32c1ebc0c338760ac6e", "lat": 38.903583833333336, "fusion_lon": 0.0, "fusion_lat": 0.0, "type": "electric_scooter", "name": "fd49c9da9af1b32c1ebc0c338760ac6e", "is_disabled": 0, "rental_uris": {"ios": "https://dc.lft.to/lastmile_qr_scan", "android": "https://dc.lft.to/lastmile_qr_scan"}, "is_reserved": 0}, {"lon": -77.02801233333334, "bike_id": "f4bb57049f24522bc43a614046cd3f4c", "lat": 38.905556, "fusion_lon": 0.0, "fusion_lat": 0.0, "type": "electric_scooter", "name": "f4bb57049f24522bc43a614046cd3f4c", "is_disabled": 0, "rental_uris": {"ios": "https://dc.lft.to/lastmile_qr_scan", "android": "https://dc.lft.to/lastmile_qr_scan"}, "is_reserved": 0}, {"lon": -76.99932583333333, "bike_id": "bbc93158b3426e2913c853cf83eca7f1", "lat": 38.843159666666665, "fusion_lon": 0.0, "fusion_lat": 0.0, "type": "electric_scooter", "name": "bbc93158b3426e2913c853cf83eca7f1", "is_disabled": 0, "rental_uris": {"ios": "https://dc.lft.to/lastmile_qr_scan", "android": "https://dc.lft.to/lastmile_qr_scan"}, "is_reserved": 0}, {"lon": -76.9905245, "bike_id": "f3e85144df54aae969e52a6483315328", "lat": 38.863783, "fusion_lon": 0.0, "fusion_lat": 0.0, "type": "electric_scooter", "name": "f3e85144df54aae969e52a6483315328", "is_disabled": 0, "rental_uris": {"ios": "https://dc.lft.to/lastmile_qr_scan", "android": "https://dc.lft.to/lastmile_qr_scan"}, "is_reserved": 0}, {"lon": -77.036373, "bike_id": "83837e43840bf9611fbe43eb88d9a91b", "lat": 38.912441, "fusion_lon": 0.0, "fusion_lat": 0.0, "type": "electric_scooter", "name": "83837e43840bf9611fbe43eb88d9a91b", "is_disabled": 0, "rental_uris": {"ios": "https://dc.lft.to/lastmile_qr_scan", "android": "https://dc.lft.to/lastmile_qr_scan"}, "is_reserved": 0}, {"lon": -76.99071016666667, "bike_id": "80dbe36601a2827a4b2d91835252fa39", "lat": 38.9274475, "fusion_lon": 0.0, "fusion_lat": 0.0, "type": "electric_scooter", "name": "80dbe36601a2827a4b2d91835252fa39", "is_disabled": 0, "rental_uris": {"ios": "https://dc.lft.to/lastmile_qr_scan", "android": "https://dc.lft.to/lastmile_qr_scan"}, "is_reserved": 0}, {"lon": -77.0326235, "bike_id": "c070eadbe484a651a013ccb63d5617d9", "lat": 38.93197583333333, "fusion_lon": 0.0, "fusion_lat": 0.0, "type": "electric_scooter", "name": "c070eadbe484a651a013ccb63d5617d9", "is_disabled": 0, "rental_uris": {"ios": "https://dc.lft.to/lastmile_qr_scan", "android": "https://dc.lft.to/lastmile_qr_scan"}, "is_reserved": 0}, {"lon": -77.11594366666667, "bike_id": "932a52d1b015b1eb232990f65f013309", "lat": 39.0749385, "fusion_lon": 0.0, "fusion_lat": 0.0, "type": "electric_bike", "name": "932a52d1b015b1eb232990f65f013309", "is_disabled": 0, "rental_uris": {"ios": "https://dc.lft.to/lastmile_qr_scan", "android": "https://dc.lft.to/lastmile_qr_scan"}, "is_reserved": 0}, {"lon": -77.03653283333334, "bike_id": "6ccd01ae70bbb0f22b832d23aece1527", "lat": 38.902832333333336, "fusion_lon": 0.0, "fusion_lat": 0.0, "type": "electric_scooter", "name": "6ccd01ae70bbb0f22b832d23aece1527", "is_disabled": 0, "rental_uris": {"ios": "https://dc.lft.to/lastmile_qr_scan", "android": "https://dc.lft.to/lastmile_qr_scan"}, "is_reserved": 0}, {"lon": -77.02454, "bike_id": "77620780092220251d88e2ec91d50a05", "lat": 38.884259, "fusion_lon": 0.0, "fusion_lat": 0.0, "type": "electric_scooter", "name": "77620780092220251d88e2ec91d50a05", "is_disabled": 0, "rental_uris": {"ios": "https://dc.lft.to/lastmile_qr_scan", "android": "https://dc.lft.to/lastmile_qr_scan"}, "is_reserved": 0}, {"lon": -76.96989166666667, "bike_id": "db45d9ec5b7f2db2e7612e748a9823cf", "lat": 38.8737205, "fusion_lon": 0.0, "fusion_lat": 0.0, "type": "electric_scooter", "name": "db45d9ec5b7f2db2e7612e748a9823cf", "is_disabled": 0, "rental_uris": {"ios": "https://dc.lft.to/lastmile_qr_scan", "android": "https://dc.lft.to/lastmile_qr_scan"}, "is_reserved": 0}, {"lon": -77.02979566666667, "bike_id": "0836f53a25def91b9851c5368cec8bd0", "lat": 38.93699516666667, "fusion_lon": 0.0, "fusion_lat": 0.0, "type": "electric_bike", "name": "0836f53a25def91b9851c5368cec8bd0", "is_disabled": 0, "rental_uris": {"ios": "https://dc.lft.to/lastmile_qr_scan", "android": "https://dc.lft.to/lastmile_qr_scan"}, "is_reserved": 0}, {"lon": -77.06134366666667, "bike_id": "19cfccf14e8cbeda97207addf0b62bd9", "lat": 38.943531, "fusion_lon": 0.0, "fusion_lat": 0.0, "type": "electric_scooter", "name": "19cfccf14e8cbeda97207addf0b62bd9", "is_disabled": 0, "rental_uris": {"ios": "https://dc.lft.to/lastmile_qr_scan", "android": "https://dc.lft.to/lastmile_qr_scan"}, "is_reserved": 0}, {"lon": -76.99623616666666, "bike_id": "884a6ef3053aadeb89b914026386e14c", "lat": 38.90899133333333, "fusion_lon": 0.0, "fusion_lat": 0.0, "type": "electric_scooter", "name": "884a6ef3053aadeb89b914026386e14c", "is_disabled": 0, "rental_uris": {"ios": "https://dc.lft.to/lastmile_qr_scan", "android": "https://dc.lft.to/lastmile_qr_scan"}, "is_reserved": 0}, {"lon": -77.01661566666667, "bike_id": "60f09fa4c9f7acdd3c7d62cefdbae0eb", "lat": 38.880993333333336, "fusion_lon": 0.0, "fusion_lat": 0.0, "type": "electric_bike", "name": "60f09fa4c9f7acdd3c7d62cefdbae0eb", "is_disabled": 0, "rental_uris": {"ios": "https://dc.lft.to/lastmile_qr_scan", "android": "https://dc.lft.to/lastmile_qr_scan"}, "is_reserved": 0}, {"lon": -77.03474733333333, "bike_id": "98b3873e4dab8b2b984134e3cebfa392", "lat": 38.92748483333333, "fusion_lon": 0.0, "fusion_lat": 0.0, "type": "electric_scooter", "name": "98b3873e4dab8b2b984134e3cebfa392", "is_disabled": 0, "rental_uris": {"ios": "https://dc.lft.to/lastmile_qr_scan", "android": "https://dc.lft.to/lastmile_qr_scan"}, "is_reserved": 0}, {"lon": -77.038549, "bike_id": "94e34380bf00e850932e0d1a6289a46c", "lat": 38.9168525, "fusion_lon": 0.0, "fusion_lat": 0.0, "type": "electric_scooter", "name": "94e34380bf00e850932e0d1a6289a46c", "is_disabled": 0, "rental_uris": {"ios": "https://dc.lft.to/lastmile_qr_scan", "android": "https://dc.lft.to/lastmile_qr_scan"}, "is_reserved": 0}, {"lon": -77.02532683333334, "bike_id": "d3894155867e87da491e81a50f2f9ece", "lat": 38.904041166666666, "fusion_lon": 0.0, "fusion_lat": 0.0, "type": "electric_scooter", "name": "d3894155867e87da491e81a50f2f9ece", "is_disabled": 0, "rental_uris": {"ios": "https://dc.lft.to/lastmile_qr_scan", "android": "https://dc.lft.to/lastmile_qr_scan"}, "is_reserved": 0}, {"lon": -77.0313885, "bike_id": "cb598b893bc362cb779e8468c7e019fe", "lat": 38.915634833333336, "fusion_lon": 0.0, "fusion_lat": 0.0, "type": "electric_scooter", "name": "cb598b893bc362cb779e8468c7e019fe", "is_disabled": 0, "rental_uris": {"ios": "https://dc.lft.to/lastmile_qr_scan", "android": "https://dc.lft.to/lastmile_qr_scan"}, "is_reserved": 0}, {"lon": -77.07793233333334, "bike_id": "4b1fd1870ae62e72792e1a406a138bd4", "lat": 38.99603833333333, "fusion_lon": 0.0, "fusion_lat": 0.0, "type": "electric_bike", "name": "4b1fd1870ae62e72792e1a406a138bd4", "is_disabled": 0, "rental_uris": {"ios": "https://dc.lft.to/lastmile_qr_scan", "android": "https://dc.lft.to/lastmile_qr_scan"}, "is_reserved": 0}, {"lon": -77.00129866666667, "bike_id": "9ecb430bdf0ef9bf2424d534d4f20f05", "lat": 38.88522283333333, "fusion_lon": 0.0, "fusion_lat": 0.0, "type": "electric_scooter", "name": "9ecb430bdf0ef9bf2424d534d4f20f05", "is_disabled": 0, "rental_uris": {"ios": "https://dc.lft.to/lastmile_qr_scan", "android": "https://dc.lft.to/lastmile_qr_scan"}, "is_reserved": 0}, {"lon": -76.97772533333334, "bike_id": "30430af43acbad69c03e5286d5ca9ac8", "lat": 38.89902766666667, "fusion_lon": 0.0, "fusion_lat": 0.0, "type": "electric_scooter", "name": "30430af43acbad69c03e5286d5ca9ac8", "is_disabled": 0, "rental_uris": {"ios": "https://dc.lft.to/lastmile_qr_scan", "android": "https://dc.lft.to/lastmile_qr_scan"}, "is_reserved": 0}, {"lon": -77.04463966666667, "bike_id": "2faee10d04404add22cd3535db9739a8", "lat": 38.915717, "fusion_lon": 0.0, "fusion_lat": 0.0, "type": "electric_scooter", "name": "2faee10d04404add22cd3535db9739a8", "is_disabled": 0, "rental_uris": {"ios": "https://dc.lft.to/lastmile_qr_scan", "android": "https://dc.lft.to/lastmile_qr_scan"}, "is_reserved": 0}, {"lon": -77.04986333333333, "bike_id": "0886f1ccc590d888bc889e1ceaa74441", "lat": 38.90005333333333, "fusion_lon": 0.0, "fusion_lat": 0.0, "type": "electric_scooter", "name": "0886f1ccc590d888bc889e1ceaa74441", "is_disabled": 0, "rental_uris": {"ios": "https://dc.lft.to/lastmile_qr_scan", "android": "https://dc.lft.to/lastmile_qr_scan"}, "is_reserved": 0}, {"lon": -77.03671, "bike_id": "15973de5fff3b224852ba1a47d077284", "lat": 38.9233065, "fusion_lon": 0.0, "fusion_lat": 0.0, "type": "electric_scooter", "name": "15973de5fff3b224852ba1a47d077284", "is_disabled": 0, "rental_uris": {"ios": "https://dc.lft.to/lastmile_qr_scan", "android": "https://dc.lft.to/lastmile_qr_scan"}, "is_reserved": 0}, {"lon": -77.02532266666667, "bike_id": "2cbc1c17bb5aa1ca57b70d3a41eca36a", "lat": 38.9430475, "fusion_lon": 0.0, "fusion_lat": 0.0, "type": "electric_scooter", "name": "2cbc1c17bb5aa1ca57b70d3a41eca36a", "is_disabled": 0, "rental_uris": {"ios": "https://dc.lft.to/lastmile_qr_scan", "android": "https://dc.lft.to/lastmile_qr_scan"}, "is_reserved": 0}, {"lon": -77.023809, "bike_id": "86ba640c445e90c4b484310c61633a16", "lat": 38.90729366666667, "fusion_lon": 0.0, "fusion_lat": 0.0, "type": "electric_scooter", "name": "86ba640c445e90c4b484310c61633a16", "is_disabled": 0, "rental_uris": {"ios": "https://dc.lft.to/lastmile_qr_scan", "android": "https://dc.lft.to/lastmile_qr_scan"}, "is_reserved": 0}, {"lon": -76.97842333333334, "bike_id": "8004830e6556de15cac40a5afcca23d9", "lat": 38.86568466666667, "fusion_lon": 0.0, "fusion_lat": 0.0, "type": "electric_scooter", "name": "8004830e6556de15cac40a5afcca23d9", "is_disabled": 0, "rental_uris": {"ios": "https://dc.lft.to/lastmile_qr_scan", "android": "https://dc.lft.to/lastmile_qr_scan"}, "is_reserved": 0}, {"lon": -76.94893983333333, "bike_id": "feacfaaf48b0c0bcd4cf836df640a505", "lat": 38.895314666666664, "fusion_lon": 0.0, "fusion_lat": 0.0, "type": "electric_scooter", "name": "feacfaaf48b0c0bcd4cf836df640a505", "is_disabled": 0, "rental_uris": {"ios": "https://dc.lft.to/lastmile_qr_scan", "android": "https://dc.lft.to/lastmile_qr_scan"}, "is_reserved": 0}, {"lon": -77.038997, "bike_id": "2540b609cdf73b94aa84eb1acff19d4a", "lat": 38.92337833333333, "fusion_lon": 0.0, "fusion_lat": 0.0, "type": "electric_scooter", "name": "2540b609cdf73b94aa84eb1acff19d4a", "is_disabled": 0, "rental_uris": {"ios": "https://dc.lft.to/lastmile_qr_scan", "android": "https://dc.lft.to/lastmile_qr_scan"}, "is_reserved": 0}, {"lon": -76.97007883333333, "bike_id": "d22408ce5f852a6dc1612d5b46d16119", "lat": 38.86369883333333, "fusion_lon": 0.0, "fusion_lat": 0.0, "type": "electric_bike", "name": "d22408ce5f852a6dc1612d5b46d16119", "is_disabled": 0, "rental_uris": {"ios": "https://dc.lft.to/lastmile_qr_scan", "android": "https://dc.lft.to/lastmile_qr_scan"}, "is_reserved": 0}, {"lon": -77.024423, "bike_id": "d5e6df98236934094f6afab8b93234a6", "lat": 38.93599733333333, "fusion_lon": 0.0, "fusion_lat": 0.0, "type": "electric_scooter", "name": "d5e6df98236934094f6afab8b93234a6", "is_disabled": 0, "rental_uris": {"ios": "https://dc.lft.to/lastmile_qr_scan", "android": "https://dc.lft.to/lastmile_qr_scan"}, "is_reserved": 0}, {"lon": -77.02475483333333, "bike_id": "d3f0e5c409dedcf18c97c0c4e290c6be", "lat": 38.925882, "fusion_lon": 0.0, "fusion_lat": 0.0, "type": "electric_scooter", "name": "d3f0e5c409dedcf18c97c0c4e290c6be", "is_disabled": 0, "rental_uris": {"ios": "https://dc.lft.to/lastmile_qr_scan", "android": "https://dc.lft.to/lastmile_qr_scan"}, "is_reserved": 0}, {"lon": -77.0281225, "bike_id": "9a031bbf1319a55d9f48daa9039e2ae8", "lat": 38.941928833333336, "fusion_lon": 0.0, "fusion_lat": 0.0, "type": "electric_scooter", "name": "9a031bbf1319a55d9f48daa9039e2ae8", "is_disabled": 0, "rental_uris": {"ios": "https://dc.lft.to/lastmile_qr_scan", "android": "https://dc.lft.to/lastmile_qr_scan"}, "is_reserved": 0}, {"lon": -77.02705166666667, "bike_id": "8c4faac9c04472994a226922ba52ab0a", "lat": 38.897207, "fusion_lon": 0.0, "fusion_lat": 0.0, "type": "electric_scooter", "name": "8c4faac9c04472994a226922ba52ab0a", "is_disabled": 0, "rental_uris": {"ios": "https://dc.lft.to/lastmile_qr_scan", "android": "https://dc.lft.to/lastmile_qr_scan"}, "is_reserved": 0}, {"lon": -77.036042, "bike_id": "6f86000a8b895ca9bf0b6c84dc05fa9f", "lat": 38.91774066666667, "fusion_lon": 0.0, "fusion_lat": 0.0, "type": "electric_scooter", "name": "6f86000a8b895ca9bf0b6c84dc05fa9f", "is_disabled": 0, "rental_uris": {"ios": "https://dc.lft.to/lastmile_qr_scan", "android": "https://dc.lft.to/lastmile_qr_scan"}, "is_reserved": 0}, {"lon": -76.983728, "bike_id": "577bcf8083d383674b0afa1e07b737af", "lat": 38.8914175, "fusion_lon": 0.0, "fusion_lat": 0.0, "type": "electric_scooter", "name": "577bcf8083d383674b0afa1e07b737af", "is_disabled": 0, "rental_uris": {"ios": "https://dc.lft.to/lastmile_qr_scan", "android": "https://dc.lft.to/lastmile_qr_scan"}, "is_reserved": 0}, {"lon": -76.99480533333333, "bike_id": "4170f1fcbc1556e16a8d827275da2c04", "lat": 38.862165166666664, "fusion_lon": 0.0, "fusion_lat": 0.0, "type": "electric_scooter", "name": "4170f1fcbc1556e16a8d827275da2c04", "is_disabled": 0, "rental_uris": {"ios": "https://dc.lft.to/lastmile_qr_scan", "android": "https://dc.lft.to/lastmile_qr_scan"}, "is_reserved": 0}, {"lon": -76.9883845, "bike_id": "9b5856692589f257df20c1225c92ceef", "lat": 38.900738833333335, "fusion_lon": 0.0, "fusion_lat": 0.0, "type": "electric_scooter", "name": "9b5856692589f257df20c1225c92ceef", "is_disabled": 0, "rental_uris": {"ios": "https://dc.lft.to/lastmile_qr_scan", "android": "https://dc.lft.to/lastmile_qr_scan"}, "is_reserved": 0}, {"lon": -77.0609105, "bike_id": "5f1224909639c2814410c004d6376d17", "lat": 38.9437155, "fusion_lon": 0.0, "fusion_lat": 0.0, "type": "electric_scooter", "name": "5f1224909639c2814410c004d6376d17", "is_disabled": 0, "rental_uris": {"ios": "https://dc.lft.to/lastmile_qr_scan", "android": "https://dc.lft.to/lastmile_qr_scan"}, "is_reserved": 0}, {"lon": -77.03190083333334, "bike_id": "c7b1550fe580bf4535e41c9768718289", "lat": 38.93610366666667, "fusion_lon": 0.0, "fusion_lat": 0.0, "type": "electric_scooter", "name": "c7b1550fe580bf4535e41c9768718289", "is_disabled": 0, "rental_uris": {"ios": "https://dc.lft.to/lastmile_qr_scan", "android": "https://dc.lft.to/lastmile_qr_scan"}, "is_reserved": 0}, {"lon": -77.04233933333333, "bike_id": "75c16340ab9fd6d600b6c3c1a6ad8303", "lat": 38.916466666666665, "fusion_lon": 0.0, "fusion_lat": 0.0, "type": "electric_scooter", "name": "75c16340ab9fd6d600b6c3c1a6ad8303", "is_disabled": 0, "rental_uris": {"ios": "https://dc.lft.to/lastmile_qr_scan", "android": "https://dc.lft.to/lastmile_qr_scan"}, "is_reserved": 0}, {"lon": -77.0294845, "bike_id": "a6eb41a3c047b7dd4447d57f0ba1aefa", "lat": 38.90742616666667, "fusion_lon": 0.0, "fusion_lat": 0.0, "type": "electric_scooter", "name": "a6eb41a3c047b7dd4447d57f0ba1aefa", "is_disabled": 0, "rental_uris": {"ios": "https://dc.lft.to/lastmile_qr_scan", "android": "https://dc.lft.to/lastmile_qr_scan"}, "is_reserved": 0}, {"lon": -77.00585016666666, "bike_id": "697df9e0b277b09af55c372bd04f773f", "lat": 38.90575716666667, "fusion_lon": 0.0, "fusion_lat": 0.0, "type": "electric_scooter", "name": "697df9e0b277b09af55c372bd04f773f", "is_disabled": 0, "rental_uris": {"ios": "https://dc.lft.to/lastmile_qr_scan", "android": "https://dc.lft.to/lastmile_qr_scan"}, "is_reserved": 0}, {"lon": -77.05608166666667, "bike_id": "1fb843a7776243a61487b88f8643e9f6", "lat": 38.93161, "fusion_lon": 0.0, "fusion_lat": 0.0, "type": "electric_scooter", "name": "1fb843a7776243a61487b88f8643e9f6", "is_disabled": 0, "rental_uris": {"ios": "https://dc.lft.to/lastmile_qr_scan", "android": "https://dc.lft.to/lastmile_qr_scan"}, "is_reserved": 0}, {"lon": -77.00334083333334, "bike_id": "5c1d055af0bbf747c85ff10516bbf85e", "lat": 38.891893, "fusion_lon": 0.0, "fusion_lat": 0.0, "type": "electric_scooter", "name": "5c1d055af0bbf747c85ff10516bbf85e", "is_disabled": 0, "rental_uris": {"ios": "https://dc.lft.to/lastmile_qr_scan", "android": "https://dc.lft.to/lastmile_qr_scan"}, "is_reserved": 0}, {"lon": -77.02418583333333, "bike_id": "e9629073bef54627dd544b21555c71df", "lat": 38.919998166666666, "fusion_lon": 0.0, "fusion_lat": 0.0, "type": "electric_scooter", "name": "e9629073bef54627dd544b21555c71df", "is_disabled": 0, "rental_uris": {"ios": "https://dc.lft.to/lastmile_qr_scan", "android": "https://dc.lft.to/lastmile_qr_scan"}, "is_reserved": 0}, {"lon": -76.98147833333333, "bike_id": "4cb9bbad25306dfc52284c3b22a3ad9d", "lat": 38.90324366666667, "fusion_lon": 0.0, "fusion_lat": 0.0, "type": "electric_scooter", "name": "4cb9bbad25306dfc52284c3b22a3ad9d", "is_disabled": 0, "rental_uris": {"ios": "https://dc.lft.to/lastmile_qr_scan", "android": "https://dc.lft.to/lastmile_qr_scan"}, "is_reserved": 0}, {"lon": -76.9946145, "bike_id": "dd4692d1df373eeed9e52000ee30f6b6", "lat": 38.94066683333333, "fusion_lon": 0.0, "fusion_lat": 0.0, "type": "electric_scooter", "name": "dd4692d1df373eeed9e52000ee30f6b6", "is_disabled": 0, "rental_uris": {"ios": "https://dc.lft.to/lastmile_qr_scan", "android": "https://dc.lft.to/lastmile_qr_scan"}, "is_reserved": 0}, {"lon": -77.07948233333333, "bike_id": "5bf7d1cb788a0ae9a61c5fb1827f3e36", "lat": 38.93104983333333, "fusion_lon": 0.0, "fusion_lat": 0.0, "type": "electric_scooter", "name": "5bf7d1cb788a0ae9a61c5fb1827f3e36", "is_disabled": 0, "rental_uris": {"ios": "https://dc.lft.to/lastmile_qr_scan", "android": "https://dc.lft.to/lastmile_qr_scan"}, "is_reserved": 0}, {"lon": -77.05172616666667, "bike_id": "acb3b48151f40d355f2f42a911bfc5fa", "lat": 38.923447333333336, "fusion_lon": 0.0, "fusion_lat": 0.0, "type": "electric_scooter", "name": "acb3b48151f40d355f2f42a911bfc5fa", "is_disabled": 0, "rental_uris": {"ios": "https://dc.lft.to/lastmile_qr_scan", "android": "https://dc.lft.to/lastmile_qr_scan"}, "is_reserved": 0}, {"lon": -77.05126266666667, "bike_id": "a54c7c9cca776e0565174f232b4f531b", "lat": 38.905144, "fusion_lon": 0.0, "fusion_lat": 0.0, "type": "electric_scooter", "name": "a54c7c9cca776e0565174f232b4f531b", "is_disabled": 0, "rental_uris": {"ios": "https://dc.lft.to/lastmile_qr_scan", "android": "https://dc.lft.to/lastmile_qr_scan"}, "is_reserved": 0}, {"lon": -76.97673933333333, "bike_id": "443e023faf8f08fea759a744260fa322", "lat": 38.95246133333333, "fusion_lon": 0.0, "fusion_lat": 0.0, "type": "electric_bike", "name": "443e023faf8f08fea759a744260fa322", "is_disabled": 0, "rental_uris": {"ios": "https://dc.lft.to/lastmile_qr_scan", "android": "https://dc.lft.to/lastmile_qr_scan"}, "is_reserved": 0}, {"lon": -77.04199516666667, "bike_id": "f562159e957cb4e3ccd79ef6df5658dd", "lat": 38.9210015, "fusion_lon": 0.0, "fusion_lat": 0.0, "type": "electric_scooter", "name": "f562159e957cb4e3ccd79ef6df5658dd", "is_disabled": 0, "rental_uris": {"ios": "https://dc.lft.to/lastmile_qr_scan", "android": "https://dc.lft.to/lastmile_qr_scan"}, "is_reserved": 0}, {"lon": -76.9886745, "bike_id": "6cc41e278304296a86e2ee69684f542c", "lat": 38.891736, "fusion_lon": 0.0, "fusion_lat": 0.0, "type": "electric_scooter", "name": "6cc41e278304296a86e2ee69684f542c", "is_disabled": 0, "rental_uris": {"ios": "https://dc.lft.to/lastmile_qr_scan", "android": "https://dc.lft.to/lastmile_qr_scan"}, "is_reserved": 0}, {"lon": -77.018164, "bike_id": "529732800f613993f879964f3af00ab4", "lat": 38.904251, "fusion_lon": 0.0, "fusion_lat": 0.0, "type": "electric_scooter", "name": "529732800f613993f879964f3af00ab4", "is_disabled": 0, "rental_uris": {"ios": "https://dc.lft.to/lastmile_qr_scan", "android": "https://dc.lft.to/lastmile_qr_scan"}, "is_reserved": 0}, {"lon": -77.07112266666667, "bike_id": "d7c10fcfd0549026606740e17e5b4d05", "lat": 38.919785, "fusion_lon": 0.0, "fusion_lat": 0.0, "type": "electric_scooter", "name": "d7c10fcfd0549026606740e17e5b4d05", "is_disabled": 0, "rental_uris": {"ios": "https://dc.lft.to/lastmile_qr_scan", "android": "https://dc.lft.to/lastmile_qr_scan"}, "is_reserved": 0}, {"lon": -77.024449, "bike_id": "e14fa9c54b63e50cd28fe3652b3b321b", "lat": 38.924996166666666, "fusion_lon": 0.0, "fusion_lat": 0.0, "type": "electric_scooter", "name": "e14fa9c54b63e50cd28fe3652b3b321b", "is_disabled": 0, "rental_uris": {"ios": "https://dc.lft.to/lastmile_qr_scan", "android": "https://dc.lft.to/lastmile_qr_scan"}, "is_reserved": 0}, {"lon": -77.03830133333334, "bike_id": "164d6b1d275948ed304e2ea049056237", "lat": 38.906721, "fusion_lon": 0.0, "fusion_lat": 0.0, "type": "electric_scooter", "name": "164d6b1d275948ed304e2ea049056237", "is_disabled": 0, "rental_uris": {"ios": "https://dc.lft.to/lastmile_qr_scan", "android": "https://dc.lft.to/lastmile_qr_scan"}, "is_reserved": 0}, {"lon": -76.98803533333333, "bike_id": "739d3d7152c72c53ed8da8ffc8fb2100", "lat": 38.867243, "fusion_lon": 0.0, "fusion_lat": 0.0, "type": "electric_scooter", "name": "739d3d7152c72c53ed8da8ffc8fb2100", "is_disabled": 0, "rental_uris": {"ios": "https://dc.lft.to/lastmile_qr_scan", "android": "https://dc.lft.to/lastmile_qr_scan"}, "is_reserved": 0}, {"lon": -77.02416916666667, "bike_id": "e626cab6558eb4770e19360d58cdacfb", "lat": 38.8922945, "fusion_lon": 0.0, "fusion_lat": 0.0, "type": "electric_scooter", "name": "e626cab6558eb4770e19360d58cdacfb", "is_disabled": 0, "rental_uris": {"ios": "https://dc.lft.to/lastmile_qr_scan", "android": "https://dc.lft.to/lastmile_qr_scan"}, "is_reserved": 0}, {"lon": -77.02382433333334, "bike_id": "b12152d4adda6668f4f464b0d47bf56f", "lat": 38.9072815, "fusion_lon": 0.0, "fusion_lat": 0.0, "type": "electric_scooter", "name": "b12152d4adda6668f4f464b0d47bf56f", "is_disabled": 0, "rental_uris": {"ios": "https://dc.lft.to/lastmile_qr_scan", "android": "https://dc.lft.to/lastmile_qr_scan"}, "is_reserved": 0}, {"lon": -77.04197616666667, "bike_id": "91aeb3985efc4293787d5d8b7adf2d16", "lat": 38.92057616666666, "fusion_lon": 0.0, "fusion_lat": 0.0, "type": "electric_scooter", "name": "91aeb3985efc4293787d5d8b7adf2d16", "is_disabled": 0, "rental_uris": {"ios": "https://dc.lft.to/lastmile_qr_scan", "android": "https://dc.lft.to/lastmile_qr_scan"}, "is_reserved": 0}, {"lon": -76.976325, "bike_id": "596d8566fb113b2afd1a25675ece6c40", "lat": 38.90572266666667, "fusion_lon": 0.0, "fusion_lat": 0.0, "type": "electric_scooter", "name": "596d8566fb113b2afd1a25675ece6c40", "is_disabled": 0, "rental_uris": {"ios": "https://dc.lft.to/lastmile_qr_scan", "android": "https://dc.lft.to/lastmile_qr_scan"}, "is_reserved": 0}, {"lon": -77.02508866666666, "bike_id": "02087c71d0f81e786a2556d6a08fe778", "lat": 38.93965583333333, "fusion_lon": 0.0, "fusion_lat": 0.0, "type": "electric_scooter", "name": "02087c71d0f81e786a2556d6a08fe778", "is_disabled": 0, "rental_uris": {"ios": "https://dc.lft.to/lastmile_qr_scan", "android": "https://dc.lft.to/lastmile_qr_scan"}, "is_reserved": 0}, {"lon": -77.034405, "bike_id": "be437499f797c5e97dd69cf338b09ed6", "lat": 38.90978583333333, "fusion_lon": 0.0, "fusion_lat": 0.0, "type": "electric_scooter", "name": "be437499f797c5e97dd69cf338b09ed6", "is_disabled": 0, "rental_uris": {"ios": "https://dc.lft.to/lastmile_qr_scan", "android": "https://dc.lft.to/lastmile_qr_scan"}, "is_reserved": 0}, {"lon": -77.074599, "bike_id": "99b1d0ce0fe47918a2d4905ad512aeae", "lat": 38.945094, "fusion_lon": 0.0, "fusion_lat": 0.0, "type": "electric_scooter", "name": "99b1d0ce0fe47918a2d4905ad512aeae", "is_disabled": 0, "rental_uris": {"ios": "https://dc.lft.to/lastmile_qr_scan", "android": "https://dc.lft.to/lastmile_qr_scan"}, "is_reserved": 0}, {"lon": -76.99931166666667, "bike_id": "cbd5bbeceb778a99bc6915ada1113f3c", "lat": 38.84313516666667, "fusion_lon": 0.0, "fusion_lat": 0.0, "type": "electric_scooter", "name": "cbd5bbeceb778a99bc6915ada1113f3c", "is_disabled": 0, "rental_uris": {"ios": "https://dc.lft.to/lastmile_qr_scan", "android": "https://dc.lft.to/lastmile_qr_scan"}, "is_reserved": 0}, {"lon": -77.02701616666667, "bike_id": "68ba5704f8a64d4f39227899a43858d2", "lat": 38.906662, "fusion_lon": 0.0, "fusion_lat": 0.0, "type": "electric_scooter", "name": "68ba5704f8a64d4f39227899a43858d2", "is_disabled": 0, "rental_uris": {"ios": "https://dc.lft.to/lastmile_qr_scan", "android": "https://dc.lft.to/lastmile_qr_scan"}, "is_reserved": 0}, {"lon": -77.12526083333333, "bike_id": "9b88d56c0f0ebdaae945f09fdea87175", "lat": 39.05634033333333, "fusion_lon": 0.0, "fusion_lat": 0.0, "type": "electric_bike", "name": "9b88d56c0f0ebdaae945f09fdea87175", "is_disabled": 0, "rental_uris": {"ios": "https://dc.lft.to/lastmile_qr_scan", "android": "https://dc.lft.to/lastmile_qr_scan"}, "is_reserved": 0}, {"lon": -77.03659933333333, "bike_id": "dbc1c53702bca0d07d1661550c31d811", "lat": 38.917454, "fusion_lon": 0.0, "fusion_lat": 0.0, "type": "electric_scooter", "name": "dbc1c53702bca0d07d1661550c31d811", "is_disabled": 0, "rental_uris": {"ios": "https://dc.lft.to/lastmile_qr_scan", "android": "https://dc.lft.to/lastmile_qr_scan"}, "is_reserved": 0}, {"lon": -77.03625716666667, "bike_id": "00afbc04397b64a3f6200b6ea8d05b94", "lat": 38.932972, "fusion_lon": 0.0, "fusion_lat": 0.0, "type": "electric_scooter", "name": "00afbc04397b64a3f6200b6ea8d05b94", "is_disabled": 0, "rental_uris": {"ios": "https://dc.lft.to/lastmile_qr_scan", "android": "https://dc.lft.to/lastmile_qr_scan"}, "is_reserved": 0}, {"lon": -77.02854316666667, "bike_id": "4eb4fac3f65a4c85ed66facbc6ebc69a", "lat": 38.88760533333333, "fusion_lon": 0.0, "fusion_lat": 0.0, "type": "electric_scooter", "name": "4eb4fac3f65a4c85ed66facbc6ebc69a", "is_disabled": 0, "rental_uris": {"ios": "https://dc.lft.to/lastmile_qr_scan", "android": "https://dc.lft.to/lastmile_qr_scan"}, "is_reserved": 0}, {"lon": -77.03168266666667, "bike_id": "ebcf9533a70276505baccaca416e0453", "lat": 38.88737833333333, "fusion_lon": 0.0, "fusion_lat": 0.0, "type": "electric_scooter", "name": "ebcf9533a70276505baccaca416e0453", "is_disabled": 0, "rental_uris": {"ios": "https://dc.lft.to/lastmile_qr_scan", "android": "https://dc.lft.to/lastmile_qr_scan"}, "is_reserved": 0}, {"lon": -76.98652, "bike_id": "843085fbb5a27bb23aabee9441b68cae", "lat": 38.898355333333335, "fusion_lon": 0.0, "fusion_lat": 0.0, "type": "electric_scooter", "name": "843085fbb5a27bb23aabee9441b68cae", "is_disabled": 0, "rental_uris": {"ios": "https://dc.lft.to/lastmile_qr_scan", "android": "https://dc.lft.to/lastmile_qr_scan"}, "is_reserved": 0}, {"lon": -77.03588783333333, "bike_id": "07c0a3face8c8cd1cd742c9c518977bf", "lat": 38.93656883333333, "fusion_lon": 0.0, "fusion_lat": 0.0, "type": "electric_scooter", "name": "07c0a3face8c8cd1cd742c9c518977bf", "is_disabled": 0, "rental_uris": {"ios": "https://dc.lft.to/lastmile_qr_scan", "android": "https://dc.lft.to/lastmile_qr_scan"}, "is_reserved": 0}, {"lon": -77.02177916666666, "bike_id": "a3aec0d7015a3b3c63c52bd02224f8ca", "lat": 38.897456166666665, "fusion_lon": 0.0, "fusion_lat": 0.0, "type": "electric_scooter", "name": "a3aec0d7015a3b3c63c52bd02224f8ca", "is_disabled": 0, "rental_uris": {"ios": "https://dc.lft.to/lastmile_qr_scan", "android": "https://dc.lft.to/lastmile_qr_scan"}, "is_reserved": 0}, {"lon": -77.02898733333333, "bike_id": "22b1f7de5433a01c7c364202898177ad", "lat": 38.928175833333334, "fusion_lon": 0.0, "fusion_lat": 0.0, "type": "electric_scooter", "name": "22b1f7de5433a01c7c364202898177ad", "is_disabled": 0, "rental_uris": {"ios": "https://dc.lft.to/lastmile_qr_scan", "android": "https://dc.lft.to/lastmile_qr_scan"}, "is_reserved": 0}, {"lon": -77.00952166666667, "bike_id": "0e583fe9ea526d3008542a8d8079d929", "lat": 38.9533865, "fusion_lon": 0.0, "fusion_lat": 0.0, "type": "electric_bike", "name": "0e583fe9ea526d3008542a8d8079d929", "is_disabled": 0, "rental_uris": {"ios": "https://dc.lft.to/lastmile_qr_scan", "android": "https://dc.lft.to/lastmile_qr_scan"}, "is_reserved": 0}, {"lon": -77.03260216666666, "bike_id": "99689f5a06b333fa6e50efbeb298b631", "lat": 38.937669, "fusion_lon": 0.0, "fusion_lat": 0.0, "type": "electric_scooter", "name": "99689f5a06b333fa6e50efbeb298b631", "is_disabled": 0, "rental_uris": {"ios": "https://dc.lft.to/lastmile_qr_scan", "android": "https://dc.lft.to/lastmile_qr_scan"}, "is_reserved": 0}, {"lon": -77.04536366666666, "bike_id": "f0f8167614903106ec39cea8ca19d258", "lat": 38.9132955, "fusion_lon": 0.0, "fusion_lat": 0.0, "type": "electric_scooter", "name": "f0f8167614903106ec39cea8ca19d258", "is_disabled": 0, "rental_uris": {"ios": "https://dc.lft.to/lastmile_qr_scan", "android": "https://dc.lft.to/lastmile_qr_scan"}, "is_reserved": 0}, {"lon": -77.02584066666667, "bike_id": "7dfe05550cdb3b4100f381adede4efe8", "lat": 38.90493983333333, "fusion_lon": 0.0, "fusion_lat": 0.0, "type": "electric_scooter", "name": "7dfe05550cdb3b4100f381adede4efe8", "is_disabled": 0, "rental_uris": {"ios": "https://dc.lft.to/lastmile_qr_scan", "android": "https://dc.lft.to/lastmile_qr_scan"}, "is_reserved": 0}, {"lon": -77.02293633333333, "bike_id": "05238b4dfe4bce51e86b961b892ff597", "lat": 38.909768166666666, "fusion_lon": 0.0, "fusion_lat": 0.0, "type": "electric_scooter", "name": "05238b4dfe4bce51e86b961b892ff597", "is_disabled": 0, "rental_uris": {"ios": "https://dc.lft.to/lastmile_qr_scan", "android": "https://dc.lft.to/lastmile_qr_scan"}, "is_reserved": 0}, {"lon": -77.02973233333333, "bike_id": "c37fd5c591bfa1d1c5cbd3c4fd82cdcb", "lat": 38.932831166666666, "fusion_lon": 0.0, "fusion_lat": 0.0, "type": "electric_scooter", "name": "c37fd5c591bfa1d1c5cbd3c4fd82cdcb", "is_disabled": 0, "rental_uris": {"ios": "https://dc.lft.to/lastmile_qr_scan", "android": "https://dc.lft.to/lastmile_qr_scan"}, "is_reserved": 0}, {"lon": -76.93369266666667, "bike_id": "abec33db5ccec3a39c4c9029f1327a1c", "lat": 38.8991595, "fusion_lon": 0.0, "fusion_lat": 0.0, "type": "electric_scooter", "name": "abec33db5ccec3a39c4c9029f1327a1c", "is_disabled": 0, "rental_uris": {"ios": "https://dc.lft.to/lastmile_qr_scan", "android": "https://dc.lft.to/lastmile_qr_scan"}, "is_reserved": 0}, {"lon": -77.0675415, "bike_id": "9b2141aa857212999764468fe8673f0a", "lat": 38.90335866666667, "fusion_lon": 0.0, "fusion_lat": 0.0, "type": "electric_scooter", "name": "9b2141aa857212999764468fe8673f0a", "is_disabled": 0, "rental_uris": {"ios": "https://dc.lft.to/lastmile_qr_scan", "android": "https://dc.lft.to/lastmile_qr_scan"}, "is_reserved": 0}, {"lon": -77.03662516666667, "bike_id": "2dfcce80b38907dfe1d0a7b0175f9369", "lat": 38.92262, "fusion_lon": 0.0, "fusion_lat": 0.0, "type": "electric_scooter", "name": "2dfcce80b38907dfe1d0a7b0175f9369", "is_disabled": 0, "rental_uris": {"ios": "https://dc.lft.to/lastmile_qr_scan", "android": "https://dc.lft.to/lastmile_qr_scan"}, "is_reserved": 0}, {"lon": -77.07324933333334, "bike_id": "cde1803d44061b56f075ff1b5b1ddc9f", "lat": 38.9249895, "fusion_lon": 0.0, "fusion_lat": 0.0, "type": "electric_bike", "name": "cde1803d44061b56f075ff1b5b1ddc9f", "is_disabled": 0, "rental_uris": {"ios": "https://dc.lft.to/lastmile_qr_scan", "android": "https://dc.lft.to/lastmile_qr_scan"}, "is_reserved": 0}, {"lon": -77.03948016666666, "bike_id": "aba0fdb4c42e695169fee7808e2a766e", "lat": 38.9306435, "fusion_lon": 0.0, "fusion_lat": 0.0, "type": "electric_scooter", "name": "aba0fdb4c42e695169fee7808e2a766e", "is_disabled": 0, "rental_uris": {"ios": "https://dc.lft.to/lastmile_qr_scan", "android": "https://dc.lft.to/lastmile_qr_scan"}, "is_reserved": 0}, {"lon": -77.04340233333333, "bike_id": "a2ebf53f3f55337944dd11d604eae092", "lat": 38.92968033333333, "fusion_lon": 0.0, "fusion_lat": 0.0, "type": "electric_scooter", "name": "a2ebf53f3f55337944dd11d604eae092", "is_disabled": 0, "rental_uris": {"ios": "https://dc.lft.to/lastmile_qr_scan", "android": "https://dc.lft.to/lastmile_qr_scan"}, "is_reserved": 0}, {"lon": -77.03168266666667, "bike_id": "fea26be6adfe938edd72ffa485c522fe", "lat": 38.8873455, "fusion_lon": 0.0, "fusion_lat": 0.0, "type": "electric_scooter", "name": "fea26be6adfe938edd72ffa485c522fe", "is_disabled": 0, "rental_uris": {"ios": "https://dc.lft.to/lastmile_qr_scan", "android": "https://dc.lft.to/lastmile_qr_scan"}, "is_reserved": 0}, {"lon": -77.02822416666666, "bike_id": "84bfbc325e0d0bf855822227e6eb1513", "lat": 38.90257616666667, "fusion_lon": 0.0, "fusion_lat": 0.0, "type": "electric_scooter", "name": "84bfbc325e0d0bf855822227e6eb1513", "is_disabled": 0, "rental_uris": {"ios": "https://dc.lft.to/lastmile_qr_scan", "android": "https://dc.lft.to/lastmile_qr_scan"}, "is_reserved": 0}, {"lon": -76.9836735, "bike_id": "9e7cfb85f318b574ec7e19e0e31e7af3", "lat": 38.899781833333336, "fusion_lon": 0.0, "fusion_lat": 0.0, "type": "electric_scooter", "name": "9e7cfb85f318b574ec7e19e0e31e7af3", "is_disabled": 0, "rental_uris": {"ios": "https://dc.lft.to/lastmile_qr_scan", "android": "https://dc.lft.to/lastmile_qr_scan"}, "is_reserved": 0}, {"lon": -77.03849966666667, "bike_id": "8b16deededac0f3d424e331a37e9125d", "lat": 38.916656333333336, "fusion_lon": 0.0, "fusion_lat": 0.0, "type": "electric_scooter", "name": "8b16deededac0f3d424e331a37e9125d", "is_disabled": 0, "rental_uris": {"ios": "https://dc.lft.to/lastmile_qr_scan", "android": "https://dc.lft.to/lastmile_qr_scan"}, "is_reserved": 0}, {"lon": -77.0326725, "bike_id": "495825102e373b5aa8b35a79f7fee338", "lat": 38.91993466666667, "fusion_lon": 0.0, "fusion_lat": 0.0, "type": "electric_scooter", "name": "495825102e373b5aa8b35a79f7fee338", "is_disabled": 0, "rental_uris": {"ios": "https://dc.lft.to/lastmile_qr_scan", "android": "https://dc.lft.to/lastmile_qr_scan"}, "is_reserved": 0}, {"lon": -77.0592525, "bike_id": "5bbdb61bdc49be07da5a30f092a6b41d", "lat": 38.8624865, "fusion_lon": 0.0, "fusion_lat": 0.0, "type": "electric_scooter", "name": "5bbdb61bdc49be07da5a30f092a6b41d", "is_disabled": 0, "rental_uris": {"ios": "https://dc.lft.to/lastmile_qr_scan", "android": "https://dc.lft.to/lastmile_qr_scan"}, "is_reserved": 0}, {"lon": -77.03826233333334, "bike_id": "0d70c3aca49384e634a0cf438abc4f4c", "lat": 38.906689666666665, "fusion_lon": 0.0, "fusion_lat": 0.0, "type": "electric_scooter", "name": "0d70c3aca49384e634a0cf438abc4f4c", "is_disabled": 0, "rental_uris": {"ios": "https://dc.lft.to/lastmile_qr_scan", "android": "https://dc.lft.to/lastmile_qr_scan"}, "is_reserved": 0}, {"lon": -77.035236, "bike_id": "04a5a197c53c24b247469528b5c0f643", "lat": 38.923354, "fusion_lon": 0.0, "fusion_lat": 0.0, "type": "electric_scooter", "name": "04a5a197c53c24b247469528b5c0f643", "is_disabled": 0, "rental_uris": {"ios": "https://dc.lft.to/lastmile_qr_scan", "android": "https://dc.lft.to/lastmile_qr_scan"}, "is_reserved": 0}, {"lon": -77.03191916666667, "bike_id": "42d979d1994e14644637820193f3df24", "lat": 38.91905166666667, "fusion_lon": 0.0, "fusion_lat": 0.0, "type": "electric_scooter", "name": "42d979d1994e14644637820193f3df24", "is_disabled": 0, "rental_uris": {"ios": "https://dc.lft.to/lastmile_qr_scan", "android": "https://dc.lft.to/lastmile_qr_scan"}, "is_reserved": 0}, {"lon": -77.008392, "bike_id": "82a1679b7f6f4daa29a3a037591ca494", "lat": 38.91625833333333, "fusion_lon": 0.0, "fusion_lat": 0.0, "type": "electric_scooter", "name": "82a1679b7f6f4daa29a3a037591ca494", "is_disabled": 0, "rental_uris": {"ios": "https://dc.lft.to/lastmile_qr_scan", "android": "https://dc.lft.to/lastmile_qr_scan"}, "is_reserved": 0}, {"lon": -76.9889365, "bike_id": "763d95683d2bb0eddc31d275c177ea43", "lat": 38.913432666666665, "fusion_lon": 0.0, "fusion_lat": 0.0, "type": "electric_scooter", "name": "763d95683d2bb0eddc31d275c177ea43", "is_disabled": 0, "rental_uris": {"ios": "https://dc.lft.to/lastmile_qr_scan", "android": "https://dc.lft.to/lastmile_qr_scan"}, "is_reserved": 0}, {"lon": -77.05322516666666, "bike_id": "3842b16224e6d493fa5428c7cfe54d1f", "lat": 38.902005333333335, "fusion_lon": 0.0, "fusion_lat": 0.0, "type": "electric_scooter", "name": "3842b16224e6d493fa5428c7cfe54d1f", "is_disabled": 0, "rental_uris": {"ios": "https://dc.lft.to/lastmile_qr_scan", "android": "https://dc.lft.to/lastmile_qr_scan"}, "is_reserved": 0}, {"lon": -77.001253, "bike_id": "b8459a4c88b48e2fadedb2877ef21f0c", "lat": 38.905018166666665, "fusion_lon": 0.0, "fusion_lat": 0.0, "type": "electric_scooter", "name": "b8459a4c88b48e2fadedb2877ef21f0c", "is_disabled": 0, "rental_uris": {"ios": "https://dc.lft.to/lastmile_qr_scan", "android": "https://dc.lft.to/lastmile_qr_scan"}, "is_reserved": 0}, {"lon": -77.01649883333333, "bike_id": "88fdea0b2ece29734349534e12e41881", "lat": 38.89996133333333, "fusion_lon": 0.0, "fusion_lat": 0.0, "type": "electric_scooter", "name": "88fdea0b2ece29734349534e12e41881", "is_disabled": 0, "rental_uris": {"ios": "https://dc.lft.to/lastmile_qr_scan", "android": "https://dc.lft.to/lastmile_qr_scan"}, "is_reserved": 0}, {"lon": -77.02091883333334, "bike_id": "1e5296fbb666ea9c7209a48c850bf7f7", "lat": 38.92908383333334, "fusion_lon": 0.0, "fusion_lat": 0.0, "type": "electric_scooter", "name": "1e5296fbb666ea9c7209a48c850bf7f7", "is_disabled": 0, "rental_uris": {"ios": "https://dc.lft.to/lastmile_qr_scan", "android": "https://dc.lft.to/lastmile_qr_scan"}, "is_reserved": 0}, {"lon": -76.93275233333334, "bike_id": "49055d5f313dd39a43a758a34fe08d48", "lat": 38.954249833333336, "fusion_lon": 0.0, "fusion_lat": 0.0, "type": "electric_bike", "name": "49055d5f313dd39a43a758a34fe08d48", "is_disabled": 0, "rental_uris": {"ios": "https://dc.lft.to/lastmile_qr_scan", "android": "https://dc.lft.to/lastmile_qr_scan"}, "is_reserved": 0}, {"lon": -77.03217233333334, "bike_id": "533856cb7bc54a1f59ede365bae8b1ee", "lat": 38.936166666666665, "fusion_lon": 0.0, "fusion_lat": 0.0, "type": "electric_scooter", "name": "533856cb7bc54a1f59ede365bae8b1ee", "is_disabled": 0, "rental_uris": {"ios": "https://dc.lft.to/lastmile_qr_scan", "android": "https://dc.lft.to/lastmile_qr_scan"}, "is_reserved": 0}, {"lon": -77.05598533333334, "bike_id": "c0b1bf54563835fb87cd24f40d19004f", "lat": 38.93703, "fusion_lon": 0.0, "fusion_lat": 0.0, "type": "electric_scooter", "name": "c0b1bf54563835fb87cd24f40d19004f", "is_disabled": 0, "rental_uris": {"ios": "https://dc.lft.to/lastmile_qr_scan", "android": "https://dc.lft.to/lastmile_qr_scan"}, "is_reserved": 0}, {"lon": -77.03633866666667, "bike_id": "b5b8704aadd8d150370ad5178bfb9448", "lat": 38.915527, "fusion_lon": 0.0, "fusion_lat": 0.0, "type": "electric_scooter", "name": "b5b8704aadd8d150370ad5178bfb9448", "is_disabled": 0, "rental_uris": {"ios": "https://dc.lft.to/lastmile_qr_scan", "android": "https://dc.lft.to/lastmile_qr_scan"}, "is_reserved": 0}, {"lon": -77.01764683333333, "bike_id": "2d886ced822234cc827d6773a91e29fe", "lat": 38.903687166666664, "fusion_lon": 0.0, "fusion_lat": 0.0, "type": "electric_scooter", "name": "2d886ced822234cc827d6773a91e29fe", "is_disabled": 0, "rental_uris": {"ios": "https://dc.lft.to/lastmile_qr_scan", "android": "https://dc.lft.to/lastmile_qr_scan"}, "is_reserved": 0}, {"lon": -77.07356133333333, "bike_id": "a9df8b15b11a93ff540f9aaf3bb69f23", "lat": 38.933546666666665, "fusion_lon": 0.0, "fusion_lat": 0.0, "type": "electric_scooter", "name": "a9df8b15b11a93ff540f9aaf3bb69f23", "is_disabled": 0, "rental_uris": {"ios": "https://dc.lft.to/lastmile_qr_scan", "android": "https://dc.lft.to/lastmile_qr_scan"}, "is_reserved": 0}, {"lon": -77.00534366666666, "bike_id": "65fe1f435ef9c14b02612eaa6af3ceb9", "lat": 38.87543016666667, "fusion_lon": 0.0, "fusion_lat": 0.0, "type": "electric_scooter", "name": "65fe1f435ef9c14b02612eaa6af3ceb9", "is_disabled": 0, "rental_uris": {"ios": "https://dc.lft.to/lastmile_qr_scan", "android": "https://dc.lft.to/lastmile_qr_scan"}, "is_reserved": 0}, {"lon": -77.00126216666666, "bike_id": "56f1b1b9d5b08f7975a17dae845f001b", "lat": 38.878148, "fusion_lon": 0.0, "fusion_lat": 0.0, "type": "electric_scooter", "name": "56f1b1b9d5b08f7975a17dae845f001b", "is_disabled": 0, "rental_uris": {"ios": "https://dc.lft.to/lastmile_qr_scan", "android": "https://dc.lft.to/lastmile_qr_scan"}, "is_reserved": 0}, {"lon": -77.044991, "bike_id": "e99e3d0e46e63d4573794967442cd3a3", "lat": 38.911099666666665, "fusion_lon": 0.0, "fusion_lat": 0.0, "type": "electric_scooter", "name": "e99e3d0e46e63d4573794967442cd3a3", "is_disabled": 0, "rental_uris": {"ios": "https://dc.lft.to/lastmile_qr_scan", "android": "https://dc.lft.to/lastmile_qr_scan"}, "is_reserved": 0}, {"lon": -77.0470155, "bike_id": "53080001bbbd7826e51a50b9871e690d", "lat": 38.91664633333333, "fusion_lon": 0.0, "fusion_lat": 0.0, "type": "electric_bike", "name": "53080001bbbd7826e51a50b9871e690d", "is_disabled": 0, "rental_uris": {"ios": "https://dc.lft.to/lastmile_qr_scan", "android": "https://dc.lft.to/lastmile_qr_scan"}, "is_reserved": 0}, {"lon": -77.02378266666666, "bike_id": "b564126207195d317ac357f6b93e436c", "lat": 38.9062835, "fusion_lon": 0.0, "fusion_lat": 0.0, "type": "electric_scooter", "name": "b564126207195d317ac357f6b93e436c", "is_disabled": 0, "rental_uris": {"ios": "https://dc.lft.to/lastmile_qr_scan", "android": "https://dc.lft.to/lastmile_qr_scan"}, "is_reserved": 0}, {"lon": -77.0349965, "bike_id": "78293b986be1d0c575542ac4354d39f6", "lat": 38.9118515, "fusion_lon": 0.0, "fusion_lat": 0.0, "type": "electric_scooter", "name": "78293b986be1d0c575542ac4354d39f6", "is_disabled": 0, "rental_uris": {"ios": "https://dc.lft.to/lastmile_qr_scan", "android": "https://dc.lft.to/lastmile_qr_scan"}, "is_reserved": 0}, {"lon": -77.04221083333333, "bike_id": "b4976fa665329b78e77292d74452e076", "lat": 38.91705733333333, "fusion_lon": 0.0, "fusion_lat": 0.0, "type": "electric_scooter", "name": "b4976fa665329b78e77292d74452e076", "is_disabled": 0, "rental_uris": {"ios": "https://dc.lft.to/lastmile_qr_scan", "android": "https://dc.lft.to/lastmile_qr_scan"}, "is_reserved": 0}, {"lon": -77.01018033333334, "bike_id": "af8fb1f8b194e0ebd9c3506bdb73383d", "lat": 38.89480666666667, "fusion_lon": 0.0, "fusion_lat": 0.0, "type": "electric_scooter", "name": "af8fb1f8b194e0ebd9c3506bdb73383d", "is_disabled": 0, "rental_uris": {"ios": "https://dc.lft.to/lastmile_qr_scan", "android": "https://dc.lft.to/lastmile_qr_scan"}, "is_reserved": 0}, {"lon": -76.99533316666667, "bike_id": "410ab8f304e053fb705a90add362f280", "lat": 38.8837565, "fusion_lon": 0.0, "fusion_lat": 0.0, "type": "electric_scooter", "name": "410ab8f304e053fb705a90add362f280", "is_disabled": 0, "rental_uris": {"ios": "https://dc.lft.to/lastmile_qr_scan", "android": "https://dc.lft.to/lastmile_qr_scan"}, "is_reserved": 0}, {"lon": -77.02627433333333, "bike_id": "d083495cbe1bef1fe4802a4225014f85", "lat": 38.962362666666664, "fusion_lon": 0.0, "fusion_lat": 0.0, "type": "electric_bike", "name": "d083495cbe1bef1fe4802a4225014f85", "is_disabled": 0, "rental_uris": {"ios": "https://dc.lft.to/lastmile_qr_scan", "android": "https://dc.lft.to/lastmile_qr_scan"}, "is_reserved": 0}, {"lon": -77.0190715, "bike_id": "5640ba74576df74a77144e1ff9d97b1c", "lat": 38.886247166666664, "fusion_lon": 0.0, "fusion_lat": 0.0, "type": "electric_scooter", "name": "5640ba74576df74a77144e1ff9d97b1c", "is_disabled": 0, "rental_uris": {"ios": "https://dc.lft.to/lastmile_qr_scan", "android": "https://dc.lft.to/lastmile_qr_scan"}, "is_reserved": 0}, {"lon": -77.02530416666667, "bike_id": "3e6e6cd6fe215ca7715de0f125177c06", "lat": 38.9274505, "fusion_lon": 0.0, "fusion_lat": 0.0, "type": "electric_scooter", "name": "3e6e6cd6fe215ca7715de0f125177c06", "is_disabled": 0, "rental_uris": {"ios": "https://dc.lft.to/lastmile_qr_scan", "android": "https://dc.lft.to/lastmile_qr_scan"}, "is_reserved": 0}, {"lon": -77.03431116666667, "bike_id": "df838dbc291ea3fdf12f7637b9bb63f5", "lat": 38.91924783333333, "fusion_lon": 0.0, "fusion_lat": 0.0, "type": "electric_scooter", "name": "df838dbc291ea3fdf12f7637b9bb63f5", "is_disabled": 0, "rental_uris": {"ios": "https://dc.lft.to/lastmile_qr_scan", "android": "https://dc.lft.to/lastmile_qr_scan"}, "is_reserved": 0}, {"lon": -76.94291716666666, "bike_id": "a2901f663700b98cad2edd4b19538e3f", "lat": 38.938691166666665, "fusion_lon": 0.0, "fusion_lat": 0.0, "type": "electric_bike", "name": "a2901f663700b98cad2edd4b19538e3f", "is_disabled": 0, "rental_uris": {"ios": "https://dc.lft.to/lastmile_qr_scan", "android": "https://dc.lft.to/lastmile_qr_scan"}, "is_reserved": 0}, {"lon": -77.02624233333333, "bike_id": "43435cd93126bd859e958ce603e7daa4", "lat": 38.962345166666665, "fusion_lon": 0.0, "fusion_lat": 0.0, "type": "electric_bike", "name": "43435cd93126bd859e958ce603e7daa4", "is_disabled": 0, "rental_uris": {"ios": "https://dc.lft.to/lastmile_qr_scan", "android": "https://dc.lft.to/lastmile_qr_scan"}, "is_reserved": 0}, {"lon": -77.006883, "bike_id": "908d14fdb3165e8c5bd2c0d7320acc9d", "lat": 38.87948516666667, "fusion_lon": 0.0, "fusion_lat": 0.0, "type": "electric_scooter", "name": "908d14fdb3165e8c5bd2c0d7320acc9d", "is_disabled": 0, "rental_uris": {"ios": "https://dc.lft.to/lastmile_qr_scan", "android": "https://dc.lft.to/lastmile_qr_scan"}, "is_reserved": 0}, {"lon": -76.95482516666667, "bike_id": "1cb3eaf336fbf83e267a5edcd69fdc47", "lat": 38.884705, "fusion_lon": 0.0, "fusion_lat": 0.0, "type": "electric_scooter", "name": "1cb3eaf336fbf83e267a5edcd69fdc47", "is_disabled": 0, "rental_uris": {"ios": "https://dc.lft.to/lastmile_qr_scan", "android": "https://dc.lft.to/lastmile_qr_scan"}, "is_reserved": 0}, {"lon": -77.0019825, "bike_id": "d929e00f8baea021bf63d28500a606d8", "lat": 38.900352, "fusion_lon": 0.0, "fusion_lat": 0.0, "type": "electric_scooter", "name": "d929e00f8baea021bf63d28500a606d8", "is_disabled": 0, "rental_uris": {"ios": "https://dc.lft.to/lastmile_qr_scan", "android": "https://dc.lft.to/lastmile_qr_scan"}, "is_reserved": 0}, {"lon": -76.98882033333334, "bike_id": "cbc9c7e387ee2726f0cf5c2675c0fb05", "lat": 38.866600166666665, "fusion_lon": 0.0, "fusion_lat": 0.0, "type": "electric_scooter", "name": "cbc9c7e387ee2726f0cf5c2675c0fb05", "is_disabled": 0, "rental_uris": {"ios": "https://dc.lft.to/lastmile_qr_scan", "android": "https://dc.lft.to/lastmile_qr_scan"}, "is_reserved": 0}, {"lon": -76.98593383333333, "bike_id": "cf60289dfe99bd4f63220956492a6fcc", "lat": 38.908146333333335, "fusion_lon": 0.0, "fusion_lat": 0.0, "type": "electric_scooter", "name": "cf60289dfe99bd4f63220956492a6fcc", "is_disabled": 0, "rental_uris": {"ios": "https://dc.lft.to/lastmile_qr_scan", "android": "https://dc.lft.to/lastmile_qr_scan"}, "is_reserved": 0}, {"lon": -76.98259666666667, "bike_id": "5094fbe94894656033f8bd23f17dfd30", "lat": 38.90854866666667, "fusion_lon": 0.0, "fusion_lat": 0.0, "type": "electric_scooter", "name": "5094fbe94894656033f8bd23f17dfd30", "is_disabled": 0, "rental_uris": {"ios": "https://dc.lft.to/lastmile_qr_scan", "android": "https://dc.lft.to/lastmile_qr_scan"}, "is_reserved": 0}, {"lon": -76.99482683333333, "bike_id": "811c702c772ef2dbbc1829a30351e37e", "lat": 38.91572383333333, "fusion_lon": 0.0, "fusion_lat": 0.0, "type": "electric_scooter", "name": "811c702c772ef2dbbc1829a30351e37e", "is_disabled": 0, "rental_uris": {"ios": "https://dc.lft.to/lastmile_qr_scan", "android": "https://dc.lft.to/lastmile_qr_scan"}, "is_reserved": 0}, {"lon": -77.064819, "bike_id": "babff8afc79e71cae875e6053dd9961a", "lat": 38.946473, "fusion_lon": 0.0, "fusion_lat": 0.0, "type": "electric_scooter", "name": "babff8afc79e71cae875e6053dd9961a", "is_disabled": 0, "rental_uris": {"ios": "https://dc.lft.to/lastmile_qr_scan", "android": "https://dc.lft.to/lastmile_qr_scan"}, "is_reserved": 0}, {"lon": -76.93372266666667, "bike_id": "1155500695a0510dc9914106568ac48a", "lat": 38.8991305, "fusion_lon": 0.0, "fusion_lat": 0.0, "type": "electric_scooter", "name": "1155500695a0510dc9914106568ac48a", "is_disabled": 0, "rental_uris": {"ios": "https://dc.lft.to/lastmile_qr_scan", "android": "https://dc.lft.to/lastmile_qr_scan"}, "is_reserved": 0}, {"lon": -77.0409115, "bike_id": "d1596918e7317d0d6c2433e1d0552aef", "lat": 38.92035816666667, "fusion_lon": 0.0, "fusion_lat": 0.0, "type": "electric_scooter", "name": "d1596918e7317d0d6c2433e1d0552aef", "is_disabled": 0, "rental_uris": {"ios": "https://dc.lft.to/lastmile_qr_scan", "android": "https://dc.lft.to/lastmile_qr_scan"}, "is_reserved": 0}, {"lon": -76.98896133333334, "bike_id": "c0d3168f6d7505df9b436bb18438ea8c", "lat": 38.91346, "fusion_lon": 0.0, "fusion_lat": 0.0, "type": "electric_scooter", "name": "c0d3168f6d7505df9b436bb18438ea8c", "is_disabled": 0, "rental_uris": {"ios": "https://dc.lft.to/lastmile_qr_scan", "android": "https://dc.lft.to/lastmile_qr_scan"}, "is_reserved": 0}, {"lon": -77.100908, "bike_id": "fa4c8ee44fd8785889492ec4cbbdf52e", "lat": 38.95959633333333, "fusion_lon": 0.0, "fusion_lat": 0.0, "type": "electric_bike", "name": "fa4c8ee44fd8785889492ec4cbbdf52e", "is_disabled": 0, "rental_uris": {"ios": "https://dc.lft.to/lastmile_qr_scan", "android": "https://dc.lft.to/lastmile_qr_scan"}, "is_reserved": 0}, {"lon": -77.0365675, "bike_id": "89e7eaf6085124bde6db52644ebdea1a", "lat": 38.941787833333336, "fusion_lon": 0.0, "fusion_lat": 0.0, "type": "electric_scooter", "name": "89e7eaf6085124bde6db52644ebdea1a", "is_disabled": 0, "rental_uris": {"ios": "https://dc.lft.to/lastmile_qr_scan", "android": "https://dc.lft.to/lastmile_qr_scan"}, "is_reserved": 0}, {"lon": -76.99406216666667, "bike_id": "3445e3c4a00c74664d8cc629b13ef549", "lat": 38.83138133333333, "fusion_lon": 0.0, "fusion_lat": 0.0, "type": "electric_bike", "name": "3445e3c4a00c74664d8cc629b13ef549", "is_disabled": 0, "rental_uris": {"ios": "https://dc.lft.to/lastmile_qr_scan", "android": "https://dc.lft.to/lastmile_qr_scan"}, "is_reserved": 0}, {"lon": -76.981789, "bike_id": "b9416087fd41927b988f409f100773ce", "lat": 38.92607733333333, "fusion_lon": 0.0, "fusion_lat": 0.0, "type": "electric_scooter", "name": "b9416087fd41927b988f409f100773ce", "is_disabled": 0, "rental_uris": {"ios": "https://dc.lft.to/lastmile_qr_scan", "android": "https://dc.lft.to/lastmile_qr_scan"}, "is_reserved": 0}, {"lon": -77.04703866666667, "bike_id": "f617902bccb0777ce7b1ddb807971ce3", "lat": 38.9223615, "fusion_lon": 0.0, "fusion_lat": 0.0, "type": "electric_scooter", "name": "f617902bccb0777ce7b1ddb807971ce3", "is_disabled": 0, "rental_uris": {"ios": "https://dc.lft.to/lastmile_qr_scan", "android": "https://dc.lft.to/lastmile_qr_scan"}, "is_reserved": 0}, {"lon": -77.00920416666666, "bike_id": "41b8c8b1515e3b19c543903c14862d12", "lat": 38.82782066666667, "fusion_lon": 0.0, "fusion_lat": 0.0, "type": "electric_bike", "name": "41b8c8b1515e3b19c543903c14862d12", "is_disabled": 0, "rental_uris": {"ios": "https://dc.lft.to/lastmile_qr_scan", "android": "https://dc.lft.to/lastmile_qr_scan"}, "is_reserved": 0}, {"lon": -77.021113, "bike_id": "6005d1e2946993d9d82d0455f5377a62", "lat": 38.9369705, "fusion_lon": 0.0, "fusion_lat": 0.0, "type": "electric_scooter", "name": "6005d1e2946993d9d82d0455f5377a62", "is_disabled": 0, "rental_uris": {"ios": "https://dc.lft.to/lastmile_qr_scan", "android": "https://dc.lft.to/lastmile_qr_scan"}, "is_reserved": 0}, {"lon": -77.0318995, "bike_id": "af2be5086f72af54d22319592250e3cc", "lat": 38.919216, "fusion_lon": 0.0, "fusion_lat": 0.0, "type": "electric_scooter", "name": "af2be5086f72af54d22319592250e3cc", "is_disabled": 0, "rental_uris": {"ios": "https://dc.lft.to/lastmile_qr_scan", "android": "https://dc.lft.to/lastmile_qr_scan"}, "is_reserved": 0}, {"lon": -76.97620833333333, "bike_id": "308f90023188724a1a67591cfba58097", "lat": 38.903823, "fusion_lon": 0.0, "fusion_lat": 0.0, "type": "electric_scooter", "name": "308f90023188724a1a67591cfba58097", "is_disabled": 0, "rental_uris": {"ios": "https://dc.lft.to/lastmile_qr_scan", "android": "https://dc.lft.to/lastmile_qr_scan"}, "is_reserved": 0}, {"lon": -77.031851, "bike_id": "ab1011011fd312fda7a49ceab20bb615", "lat": 38.9055015, "fusion_lon": 0.0, "fusion_lat": 0.0, "type": "electric_scooter", "name": "ab1011011fd312fda7a49ceab20bb615", "is_disabled": 0, "rental_uris": {"ios": "https://dc.lft.to/lastmile_qr_scan", "android": "https://dc.lft.to/lastmile_qr_scan"}, "is_reserved": 0}, {"lon": -77.0006025, "bike_id": "b91bf5615135eb8f1cb069aa36b3d06d", "lat": 38.924373833333334, "fusion_lon": 0.0, "fusion_lat": 0.0, "type": "electric_scooter", "name": "b91bf5615135eb8f1cb069aa36b3d06d", "is_disabled": 0, "rental_uris": {"ios": "https://dc.lft.to/lastmile_qr_scan", "android": "https://dc.lft.to/lastmile_qr_scan"}, "is_reserved": 0}, {"lon": -76.99761766666667, "bike_id": "6c11bfbf90ac258f74682e136f042c04", "lat": 38.92274716666667, "fusion_lon": 0.0, "fusion_lat": 0.0, "type": "electric_scooter", "name": "6c11bfbf90ac258f74682e136f042c04", "is_disabled": 0, "rental_uris": {"ios": "https://dc.lft.to/lastmile_qr_scan", "android": "https://dc.lft.to/lastmile_qr_scan"}, "is_reserved": 0}, {"lon": -76.963581, "bike_id": "3b7823af8d99132aed8a8438eea039d3", "lat": 38.93498116666667, "fusion_lon": 0.0, "fusion_lat": 0.0, "type": "electric_scooter", "name": "3b7823af8d99132aed8a8438eea039d3", "is_disabled": 0, "rental_uris": {"ios": "https://dc.lft.to/lastmile_qr_scan", "android": "https://dc.lft.to/lastmile_qr_scan"}, "is_reserved": 0}, {"lon": -77.12649683333333, "bike_id": "3373ad0bc07b437039667599c5a9e131", "lat": 38.815157166666665, "fusion_lon": 0.0, "fusion_lat": 0.0, "type": "electric_bike", "name": "3373ad0bc07b437039667599c5a9e131", "is_disabled": 0, "rental_uris": {"ios": "https://dc.lft.to/lastmile_qr_scan", "android": "https://dc.lft.to/lastmile_qr_scan"}, "is_reserved": 0}, {"lon": -77.04503683333333, "bike_id": "e85c48319ed1804baac619ce6f1c4758", "lat": 38.916338, "fusion_lon": 0.0, "fusion_lat": 0.0, "type": "electric_scooter", "name": "e85c48319ed1804baac619ce6f1c4758", "is_disabled": 0, "rental_uris": {"ios": "https://dc.lft.to/lastmile_qr_scan", "android": "https://dc.lft.to/lastmile_qr_scan"}, "is_reserved": 0}, {"lon": -77.04631766666667, "bike_id": "1401c2c737202194ecbc58dddb2262a2", "lat": 38.91917816666667, "fusion_lon": 0.0, "fusion_lat": 0.0, "type": "electric_scooter", "name": "1401c2c737202194ecbc58dddb2262a2", "is_disabled": 0, "rental_uris": {"ios": "https://dc.lft.to/lastmile_qr_scan", "android": "https://dc.lft.to/lastmile_qr_scan"}, "is_reserved": 0}, {"lon": -77.00212983333333, "bike_id": "a92ca15e4ba6c56de1eb57ad404e7780", "lat": 38.8812835, "fusion_lon": 0.0, "fusion_lat": 0.0, "type": "electric_scooter", "name": "a92ca15e4ba6c56de1eb57ad404e7780", "is_disabled": 0, "rental_uris": {"ios": "https://dc.lft.to/lastmile_qr_scan", "android": "https://dc.lft.to/lastmile_qr_scan"}, "is_reserved": 0}, {"lon": -77.04821916666667, "bike_id": "f10da1ac1c43e9dbb055f5299f39bc8e", "lat": 38.907181666666666, "fusion_lon": 0.0, "fusion_lat": 0.0, "type": "electric_scooter", "name": "f10da1ac1c43e9dbb055f5299f39bc8e", "is_disabled": 0, "rental_uris": {"ios": "https://dc.lft.to/lastmile_qr_scan", "android": "https://dc.lft.to/lastmile_qr_scan"}, "is_reserved": 0}, {"lon": -77.0234825, "bike_id": "f1558998e0aac75903cb6e36809e7858", "lat": 38.93532616666667, "fusion_lon": 0.0, "fusion_lat": 0.0, "type": "electric_scooter", "name": "f1558998e0aac75903cb6e36809e7858", "is_disabled": 0, "rental_uris": {"ios": "https://dc.lft.to/lastmile_qr_scan", "android": "https://dc.lft.to/lastmile_qr_scan"}, "is_reserved": 0}, {"lon": -77.04449683333333, "bike_id": "8b2093e2b797c999cc0eb95ce6973e49", "lat": 38.91870816666667, "fusion_lon": 0.0, "fusion_lat": 0.0, "type": "electric_scooter", "name": "8b2093e2b797c999cc0eb95ce6973e49", "is_disabled": 0, "rental_uris": {"ios": "https://dc.lft.to/lastmile_qr_scan", "android": "https://dc.lft.to/lastmile_qr_scan"}, "is_reserved": 0}, {"lon": -76.9335875, "bike_id": "dd9ee2a88155cfc4ac042f892249cf17", "lat": 38.8990705, "fusion_lon": 0.0, "fusion_lat": 0.0, "type": "electric_scooter", "name": "dd9ee2a88155cfc4ac042f892249cf17", "is_disabled": 0, "rental_uris": {"ios": "https://dc.lft.to/lastmile_qr_scan", "android": "https://dc.lft.to/lastmile_qr_scan"}, "is_reserved": 0}, {"lon": -77.02351766666666, "bike_id": "17de99bf748b209dbc251ec8612c543a", "lat": 38.92063566666667, "fusion_lon": 0.0, "fusion_lat": 0.0, "type": "electric_scooter", "name": "17de99bf748b209dbc251ec8612c543a", "is_disabled": 0, "rental_uris": {"ios": "https://dc.lft.to/lastmile_qr_scan", "android": "https://dc.lft.to/lastmile_qr_scan"}, "is_reserved": 0}, {"lon": -76.93327066666667, "bike_id": "feb0b096f647c40b672218bae440bae1", "lat": 38.910635666666664, "fusion_lon": 0.0, "fusion_lat": 0.0, "type": "electric_scooter", "name": "feb0b096f647c40b672218bae440bae1", "is_disabled": 0, "rental_uris": {"ios": "https://dc.lft.to/lastmile_qr_scan", "android": "https://dc.lft.to/lastmile_qr_scan"}, "is_reserved": 0}, {"lon": -77.04798016666666, "bike_id": "e5dce9627a3ae7f4d3f493bc3f431164", "lat": 38.90961683333333, "fusion_lon": 0.0, "fusion_lat": 0.0, "type": "electric_scooter", "name": "e5dce9627a3ae7f4d3f493bc3f431164", "is_disabled": 0, "rental_uris": {"ios": "https://dc.lft.to/lastmile_qr_scan", "android": "https://dc.lft.to/lastmile_qr_scan"}, "is_reserved": 0}, {"lon": -77.02711516666666, "bike_id": "a729109f63c2b19512fb6f20abe7be7e", "lat": 38.927705333333336, "fusion_lon": 0.0, "fusion_lat": 0.0, "type": "electric_scooter", "name": "a729109f63c2b19512fb6f20abe7be7e", "is_disabled": 0, "rental_uris": {"ios": "https://dc.lft.to/lastmile_qr_scan", "android": "https://dc.lft.to/lastmile_qr_scan"}, "is_reserved": 0}, {"lon": -76.927375, "bike_id": "5a79d45f788a410cd2572af25a32a481", "lat": 38.88965183333333, "fusion_lon": 0.0, "fusion_lat": 0.0, "type": "electric_scooter", "name": "5a79d45f788a410cd2572af25a32a481", "is_disabled": 0, "rental_uris": {"ios": "https://dc.lft.to/lastmile_qr_scan", "android": "https://dc.lft.to/lastmile_qr_scan"}, "is_reserved": 0}, {"lon": -76.985523, "bike_id": "538e332dc499149a87db42cdef8d98f1", "lat": 38.899573333333336, "fusion_lon": 0.0, "fusion_lat": 0.0, "type": "electric_scooter", "name": "538e332dc499149a87db42cdef8d98f1", "is_disabled": 0, "rental_uris": {"ios": "https://dc.lft.to/lastmile_qr_scan", "android": "https://dc.lft.to/lastmile_qr_scan"}, "is_reserved": 0}, {"lon": -76.99108766666667, "bike_id": "23af1a99406ccb81ece9511ad51174f8", "lat": 38.903192833333335, "fusion_lon": 0.0, "fusion_lat": 0.0, "type": "electric_scooter", "name": "23af1a99406ccb81ece9511ad51174f8", "is_disabled": 0, "rental_uris": {"ios": "https://dc.lft.to/lastmile_qr_scan", "android": "https://dc.lft.to/lastmile_qr_scan"}, "is_reserved": 0}, {"lon": -76.9819395, "bike_id": "af86a67cf7f6648e9acb1e57bfbd9c00", "lat": 38.9260705, "fusion_lon": 0.0, "fusion_lat": 0.0, "type": "electric_scooter", "name": "af86a67cf7f6648e9acb1e57bfbd9c00", "is_disabled": 0, "rental_uris": {"ios": "https://dc.lft.to/lastmile_qr_scan", "android": "https://dc.lft.to/lastmile_qr_scan"}, "is_reserved": 0}, {"lon": -76.98351766666667, "bike_id": "87175f621e18ad1c2d70b0319802171b", "lat": 38.904496333333334, "fusion_lon": 0.0, "fusion_lat": 0.0, "type": "electric_scooter", "name": "87175f621e18ad1c2d70b0319802171b", "is_disabled": 0, "rental_uris": {"ios": "https://dc.lft.to/lastmile_qr_scan", "android": "https://dc.lft.to/lastmile_qr_scan"}, "is_reserved": 0}, {"lon": -77.03324016666667, "bike_id": "8f8ef1704bb8ea88dc95139041b101a0", "lat": 38.91974533333333, "fusion_lon": 0.0, "fusion_lat": 0.0, "type": "electric_scooter", "name": "8f8ef1704bb8ea88dc95139041b101a0", "is_disabled": 0, "rental_uris": {"ios": "https://dc.lft.to/lastmile_qr_scan", "android": "https://dc.lft.to/lastmile_qr_scan"}, "is_reserved": 0}, {"lon": -77.05864666666666, "bike_id": "19b3612ca0d57d76478673ce70845ac9", "lat": 38.93606583333333, "fusion_lon": 0.0, "fusion_lat": 0.0, "type": "electric_scooter", "name": "19b3612ca0d57d76478673ce70845ac9", "is_disabled": 0, "rental_uris": {"ios": "https://dc.lft.to/lastmile_qr_scan", "android": "https://dc.lft.to/lastmile_qr_scan"}, "is_reserved": 0}, {"lon": -76.9492445, "bike_id": "506b9cb02aec7a09747a1f6dd556b24c", "lat": 38.8935625, "fusion_lon": 0.0, "fusion_lat": 0.0, "type": "electric_scooter", "name": "506b9cb02aec7a09747a1f6dd556b24c", "is_disabled": 0, "rental_uris": {"ios": "https://dc.lft.to/lastmile_qr_scan", "android": "https://dc.lft.to/lastmile_qr_scan"}, "is_reserved": 0}, {"lon": -77.040183, "bike_id": "c308f987e3d99a2f19688f041d4615c7", "lat": 38.923897, "fusion_lon": 0.0, "fusion_lat": 0.0, "type": "electric_scooter", "name": "c308f987e3d99a2f19688f041d4615c7", "is_disabled": 0, "rental_uris": {"ios": "https://dc.lft.to/lastmile_qr_scan", "android": "https://dc.lft.to/lastmile_qr_scan"}, "is_reserved": 0}, {"lon": -77.00012966666667, "bike_id": "b37b3207e93f3b5f2573d1cd75a43cf0", "lat": 38.919768, "fusion_lon": 0.0, "fusion_lat": 0.0, "type": "electric_scooter", "name": "b37b3207e93f3b5f2573d1cd75a43cf0", "is_disabled": 0, "rental_uris": {"ios": "https://dc.lft.to/lastmile_qr_scan", "android": "https://dc.lft.to/lastmile_qr_scan"}, "is_reserved": 0}, {"lon": -77.02026916666667, "bike_id": "24cc888e0d2277e79d0ca8ea115dbeb0", "lat": 38.924340666666666, "fusion_lon": 0.0, "fusion_lat": 0.0, "type": "electric_scooter", "name": "24cc888e0d2277e79d0ca8ea115dbeb0", "is_disabled": 0, "rental_uris": {"ios": "https://dc.lft.to/lastmile_qr_scan", "android": "https://dc.lft.to/lastmile_qr_scan"}, "is_reserved": 0}, {"lon": -77.07435433333333, "bike_id": "798478f0925fde1227ac5f73ecaffc03", "lat": 38.99948166666667, "fusion_lon": 0.0, "fusion_lat": 0.0, "type": "electric_bike", "name": "798478f0925fde1227ac5f73ecaffc03", "is_disabled": 0, "rental_uris": {"ios": "https://dc.lft.to/lastmile_qr_scan", "android": "https://dc.lft.to/lastmile_qr_scan"}, "is_reserved": 0}, {"lon": -77.00616266666667, "bike_id": "9ef6cee34708e7d1c193301147662149", "lat": 38.90647633333333, "fusion_lon": 0.0, "fusion_lat": 0.0, "type": "electric_bike", "name": "9ef6cee34708e7d1c193301147662149", "is_disabled": 0, "rental_uris": {"ios": "https://dc.lft.to/lastmile_qr_scan", "android": "https://dc.lft.to/lastmile_qr_scan"}, "is_reserved": 0}, {"lon": -76.9871835, "bike_id": "458565618063d58546fcc562273bc55d", "lat": 38.8662835, "fusion_lon": 0.0, "fusion_lat": 0.0, "type": "electric_scooter", "name": "458565618063d58546fcc562273bc55d", "is_disabled": 0, "rental_uris": {"ios": "https://dc.lft.to/lastmile_qr_scan", "android": "https://dc.lft.to/lastmile_qr_scan"}, "is_reserved": 0}, {"lon": -77.03185116666667, "bike_id": "46bc313fa1693bf5086301e350a8c336", "lat": 38.91343833333333, "fusion_lon": 0.0, "fusion_lat": 0.0, "type": "electric_scooter", "name": "46bc313fa1693bf5086301e350a8c336", "is_disabled": 0, "rental_uris": {"ios": "https://dc.lft.to/lastmile_qr_scan", "android": "https://dc.lft.to/lastmile_qr_scan"}, "is_reserved": 0}, {"lon": -77.07328583333333, "bike_id": "ba00cffb30d4107efb004e111d55dede", "lat": 38.92397183333333, "fusion_lon": 0.0, "fusion_lat": 0.0, "type": "electric_scooter", "name": "ba00cffb30d4107efb004e111d55dede", "is_disabled": 0, "rental_uris": {"ios": "https://dc.lft.to/lastmile_qr_scan", "android": "https://dc.lft.to/lastmile_qr_scan"}, "is_reserved": 0}, {"lon": -77.01372016666667, "bike_id": "4b14f4b84896d09fe5701375b370d72c", "lat": 38.88674816666666, "fusion_lon": 0.0, "fusion_lat": 0.0, "type": "electric_scooter", "name": "4b14f4b84896d09fe5701375b370d72c", "is_disabled": 0, "rental_uris": {"ios": "https://dc.lft.to/lastmile_qr_scan", "android": "https://dc.lft.to/lastmile_qr_scan"}, "is_reserved": 0}, {"lon": -77.02187683333334, "bike_id": "2a42ca8c6afa5df9917c4de4f83493dc", "lat": 38.90032516666667, "fusion_lon": 0.0, "fusion_lat": 0.0, "type": "electric_scooter", "name": "2a42ca8c6afa5df9917c4de4f83493dc", "is_disabled": 0, "rental_uris": {"ios": "https://dc.lft.to/lastmile_qr_scan", "android": "https://dc.lft.to/lastmile_qr_scan"}, "is_reserved": 0}, {"lon": -77.00977516666667, "bike_id": "a71007f986483c870d67c2fd701729b0", "lat": 38.894879833333334, "fusion_lon": 0.0, "fusion_lat": 0.0, "type": "electric_scooter", "name": "a71007f986483c870d67c2fd701729b0", "is_disabled": 0, "rental_uris": {"ios": "https://dc.lft.to/lastmile_qr_scan", "android": "https://dc.lft.to/lastmile_qr_scan"}, "is_reserved": 0}, {"lon": -77.0280565, "bike_id": "306935053c69e1e93cb07392abab2f84", "lat": 38.930778833333335, "fusion_lon": 0.0, "fusion_lat": 0.0, "type": "electric_scooter", "name": "306935053c69e1e93cb07392abab2f84", "is_disabled": 0, "rental_uris": {"ios": "https://dc.lft.to/lastmile_qr_scan", "android": "https://dc.lft.to/lastmile_qr_scan"}, "is_reserved": 0}, {"lon": -77.02776283333333, "bike_id": "346151b6b60a005b806107e21da610ae", "lat": 38.954350833333336, "fusion_lon": 0.0, "fusion_lat": 0.0, "type": "electric_scooter", "name": "346151b6b60a005b806107e21da610ae", "is_disabled": 0, "rental_uris": {"ios": "https://dc.lft.to/lastmile_qr_scan", "android": "https://dc.lft.to/lastmile_qr_scan"}, "is_reserved": 0}, {"lon": -76.9808595, "bike_id": "2e8fa5a12d4b879903e69a3e508311f1", "lat": 38.9070715, "fusion_lon": 0.0, "fusion_lat": 0.0, "type": "electric_scooter", "name": "2e8fa5a12d4b879903e69a3e508311f1", "is_disabled": 0, "rental_uris": {"ios": "https://dc.lft.to/lastmile_qr_scan", "android": "https://dc.lft.to/lastmile_qr_scan"}, "is_reserved": 0}, {"lon": -77.05235916666666, "bike_id": "725439c8d21c7512ffa004b4a796eeec", "lat": 38.923385333333336, "fusion_lon": 0.0, "fusion_lat": 0.0, "type": "electric_scooter", "name": "725439c8d21c7512ffa004b4a796eeec", "is_disabled": 0, "rental_uris": {"ios": "https://dc.lft.to/lastmile_qr_scan", "android": "https://dc.lft.to/lastmile_qr_scan"}, "is_reserved": 0}, {"lon": -77.03217466666666, "bike_id": "a14f8f643f2f44b656820f10fb9c19e4", "lat": 38.9171095, "fusion_lon": 0.0, "fusion_lat": 0.0, "type": "electric_scooter", "name": "a14f8f643f2f44b656820f10fb9c19e4", "is_disabled": 0, "rental_uris": {"ios": "https://dc.lft.to/lastmile_qr_scan", "android": "https://dc.lft.to/lastmile_qr_scan"}, "is_reserved": 0}, {"lon": -76.99002783333333, "bike_id": "a393a72074ffc8547d8048d6c90cb563", "lat": 38.86505833333333, "fusion_lon": 0.0, "fusion_lat": 0.0, "type": "electric_scooter", "name": "a393a72074ffc8547d8048d6c90cb563", "is_disabled": 0, "rental_uris": {"ios": "https://dc.lft.to/lastmile_qr_scan", "android": "https://dc.lft.to/lastmile_qr_scan"}, "is_reserved": 0}, {"lon": -77.068338, "bike_id": "c11495aec71194bf163e8be24551ca06", "lat": 38.80571416666667, "fusion_lon": 0.0, "fusion_lat": 0.0, "type": "electric_bike", "name": "c11495aec71194bf163e8be24551ca06", "is_disabled": 0, "rental_uris": {"ios": "https://dc.lft.to/lastmile_qr_scan", "android": "https://dc.lft.to/lastmile_qr_scan"}, "is_reserved": 0}, {"lon": -77.032636, "bike_id": "44e20fce5cf181cef1cf9445372922fd", "lat": 38.937005, "fusion_lon": 0.0, "fusion_lat": 0.0, "type": "electric_scooter", "name": "44e20fce5cf181cef1cf9445372922fd", "is_disabled": 0, "rental_uris": {"ios": "https://dc.lft.to/lastmile_qr_scan", "android": "https://dc.lft.to/lastmile_qr_scan"}, "is_reserved": 0}, {"lon": -77.00327266666666, "bike_id": "387a84f5af7c40ab71978dbfe5d406a6", "lat": 38.897258666666666, "fusion_lon": 0.0, "fusion_lat": 0.0, "type": "electric_scooter", "name": "387a84f5af7c40ab71978dbfe5d406a6", "is_disabled": 0, "rental_uris": {"ios": "https://dc.lft.to/lastmile_qr_scan", "android": "https://dc.lft.to/lastmile_qr_scan"}, "is_reserved": 0}, {"lon": -77.00520916666666, "bike_id": "21c8515d32d6eedd90ce8ababf050633", "lat": 38.87545583333333, "fusion_lon": 0.0, "fusion_lat": 0.0, "type": "electric_scooter", "name": "21c8515d32d6eedd90ce8ababf050633", "is_disabled": 0, "rental_uris": {"ios": "https://dc.lft.to/lastmile_qr_scan", "android": "https://dc.lft.to/lastmile_qr_scan"}, "is_reserved": 0},