{"data": {"bikes": [{"lat": 38.89805066666667, "is_disabled": 0, "type": "electric_scooter", "lon": -77.0005685, "bike_id": "1b1fad09e375285e2e8b0b7d6a560e6f", "fusion_lat": 0.0, "name": "1b1fad09e375285e2e8b0b7d6a560e6f", "is_reserved": 0, "rental_uris": {"android": "https://dc.lft.to/lastmile_qr_scan", "ios": "https://dc.lft.to/lastmile_qr_scan"}, "fusion_lon": 0.0}, {"lat": 38.880993333333336, "is_disabled": 0, "type": "electric_scooter", "lon": -76.99852766666666, "bike_id": "f6cd985409debd2e0a8880e4988600df", "fusion_lat": 0.0, "name": "f6cd985409debd2e0a8880e4988600df", "is_reserved": 0, "rental_uris": {"android": "https://dc.lft.to/lastmile_qr_scan", "ios": "https://dc.lft.to/lastmile_qr_scan"}, "fusion_lon": 0.0}, {"lat": 38.842806, "is_disabled": 0, "type": "electric_bike", "lon": -76.98843266666667, "bike_id": "fe6e949f364c28576e6b84d5e4bf9681", "fusion_lat": 0.0, "name": "fe6e949f364c28576e6b84d5e4bf9681", "is_reserved": 0, "rental_uris": {"android": "https://dc.lft.to/lastmile_qr_scan", "ios": "https://dc.lft.to/lastmile_qr_scan"}, "fusion_lon": 0.0}, {"lat": 38.95624683333333, "is_disabled": 0, "type": "electric_bike", "lon": -76.93891833333333, "bike_id": "9177729886869c9b3b98fbac7c01e0f2", "fusion_lat": 0.0, "name": "9177729886869c9b3b98fbac7c01e0f2", "is_reserved": 0, "rental_uris": {"android": "https://dc.lft.to/lastmile_qr_scan", "ios": "https://dc.lft.to/lastmile_qr_scan"}, "fusion_lon": 0.0}, {"lat": 38.91758166666666, "is_disabled": 0, "type": "electric_scooter", "lon": -77.0160265, "bike_id": "83cb677a893d08c3ccbb251f66a650d1", "fusion_lat": 0.0, "name": "83cb677a893d08c3ccbb251f66a650d1", "is_reserved": 0, "rental_uris": {"android": "https://dc.lft.to/lastmile_qr_scan", "ios": "https://dc.lft.to/lastmile_qr_scan"}, "fusion_lon": 0.0}, {"lat": 38.9008175, "is_disabled": 0, "type": "electric_scooter", "lon": -77.04957083333333, "bike_id": "84bea60009c516f57de303240985eec7", "fusion_lat": 0.0, "name": "84bea60009c516f57de303240985eec7", "is_reserved": 0, "rental_uris": {"android": "https://dc.lft.to/lastmile_qr_scan", "ios": "https://dc.lft.to/lastmile_qr_scan"}, "fusion_lon": 0.0}, {"lat": 38.919648333333335, "is_disabled": 0, "type": "electric_scooter", "lon": -77.01211933333333, "bike_id": "6f650455df99bfcb540ef76bcac0e9ac", "fusion_lat": 0.0, "name": "6f650455df99bfcb540ef76bcac0e9ac", "is_reserved": 0, "rental_uris": {"android": "https://dc.lft.to/lastmile_qr_scan", "ios": "https://dc.lft.to/lastmile_qr_scan"}, "fusion_lon": 0.0}, {"lat": 38.90356966666667, "is_disabled": 0, "type": "electric_scooter", "lon": -77.03103933333334, "bike_id": "ce44dcb4124d7e069020120b023479be", "fusion_lat": 0.0, "name": "ce44dcb4124d7e069020120b023479be", "is_reserved": 0, "rental_uris": {"android": "https://dc.lft.to/lastmile_qr_scan", "ios": "https://dc.lft.to/lastmile_qr_scan"}, "fusion_lon": 0.0}, {"lat": 38.90614583333333, "is_disabled": 0, "type": "electric_scooter", "lon": -77.01526066666666, "bike_id": "fdffc3a43e9941d45afed50285d1a862", "fusion_lat": 0.0, "name": "fdffc3a43e9941d45afed50285d1a862", "is_reserved": 0, "rental_uris": {"android": "https://dc.lft.to/lastmile_qr_scan", "ios": "https://dc.lft.to/lastmile_qr_scan"}, "fusion_lon": 0.0}, {"lat": 38.927424, "is_disabled": 0, "type": "electric_scooter", "lon": -76.99714166666666, "bike_id": "970a5adadb4a3e3ce6875d979a3b54ab", "fusion_lat": 0.0, "name": "970a5adadb4a3e3ce6875d979a3b54ab", "is_reserved": 0, "rental_uris": {"android": "https://dc.lft.to/lastmile_qr_scan", "ios": "https://dc.lft.to/lastmile_qr_scan"}, "fusion_lon": 0.0}, {"lat": 38.8977175, "is_disabled": 0, "type": "electric_bike", "lon": -76.904422, "bike_id": "41196e839da7e9af84c2c5c5b9ab210a", "fusion_lat": 0.0, "name": "41196e839da7e9af84c2c5c5b9ab210a", "is_reserved": 0, "rental_uris": {"android": "https://dc.lft.to/lastmile_qr_scan", "ios": "https://dc.lft.to/lastmile_qr_scan"}, "fusion_lon": 0.0}, {"lat": 38.92572466666667, "is_disabled": 0, "type": "electric_scooter", "lon": -77.0574615, "bike_id": "547760927c42ea748bd695e55efdc5a0", "fusion_lat": 0.0, "name": "547760927c42ea748bd695e55efdc5a0", "is_reserved": 0, "rental_uris": {"android": "https://dc.lft.to/lastmile_qr_scan", "ios": "https://dc.lft.to/lastmile_qr_scan"}, "fusion_lon": 0.0}, {"lat": 38.9015865, "is_disabled": 0, "type": "electric_scooter", "lon": -76.98629916666667, "bike_id": "ff6a36d1acd136051e4f90906bcbc35f", "fusion_lat": 0.0, "name": "ff6a36d1acd136051e4f90906bcbc35f", "is_reserved": 0, "rental_uris": {"android": "https://dc.lft.to/lastmile_qr_scan", "ios": "https://dc.lft.to/lastmile_qr_scan"}, "fusion_lon": 0.0}, {"lat": 38.91709183333333, "is_disabled": 0, "type": "electric_scooter", "lon": -77.0347355, "bike_id": "391d7ad8c7e9e76538d76cb55fc84959", "fusion_lat": 0.0, "name": "391d7ad8c7e9e76538d76cb55fc84959", "is_reserved": 0, "rental_uris": {"android": "https://dc.lft.to/lastmile_qr_scan", "ios": "https://dc.lft.to/lastmile_qr_scan"}, "fusion_lon": 0.0}, {"lat": 38.9709005, "is_disabled": 0, "type": "electric_bike", "lon": -77.06959416666666, "bike_id": "0d12f1589440454d6f2740102b67e01c", "fusion_lat": 0.0, "name": "0d12f1589440454d6f2740102b67e01c", "is_reserved": 0, "rental_uris": {"android": "https://dc.lft.to/lastmile_qr_scan", "ios": "https://dc.lft.to/lastmile_qr_scan"}, "fusion_lon": 0.0}, {"lat": 38.92679966666667, "is_disabled": 0, "type": "electric_scooter", "lon": -77.02859333333333, "bike_id": "d1d79c8ddfd03645421db31d38c6728c", "fusion_lat": 0.0, "name": "d1d79c8ddfd03645421db31d38c6728c", "is_reserved": 0, "rental_uris": {"android": "https://dc.lft.to/lastmile_qr_scan", "ios": "https://dc.lft.to/lastmile_qr_scan"}, "fusion_lon": 0.0}, {"lat": 38.852069666666665, "is_disabled": 0, "type": "electric_bike", "lon": -77.10127616666666, "bike_id": "b299822a4612545a7042370043a12a42", "fusion_lat": 0.0, "name": "b299822a4612545a7042370043a12a42", "is_reserved": 0, "rental_uris": {"android": "https://dc.lft.to/lastmile_qr_scan", "ios": "https://dc.lft.to/lastmile_qr_scan"}, "fusion_lon": 0.0}, {"lat": 38.92343133333333, "is_disabled": 0, "type": "electric_scooter", "lon": -77.035697, "bike_id": "91bdafc01264e00614286752cf347e70", "fusion_lat": 0.0, "name": "91bdafc01264e00614286752cf347e70", "is_reserved": 0, "rental_uris": {"android": "https://dc.lft.to/lastmile_qr_scan", "ios": "https://dc.lft.to/lastmile_qr_scan"}, "fusion_lon": 0.0}, {"lat": 38.91010883333333, "is_disabled": 0, "type": "electric_scooter", "lon": -77.02689833333334, "bike_id": "952a57b3a95d4e2f3cb2cb89daf9d0f4", "fusion_lat": 0.0, "name": "952a57b3a95d4e2f3cb2cb89daf9d0f4", "is_reserved": 0, "rental_uris": {"android": "https://dc.lft.to/lastmile_qr_scan", "ios": "https://dc.lft.to/lastmile_qr_scan"}, "fusion_lon": 0.0}, {"lat": 38.895123, "is_disabled": 0, "type": "electric_scooter", "lon": -76.94902466666667, "bike_id": "58721608df24ac3e4eec8556e0d30605", "fusion_lat": 0.0, "name": "58721608df24ac3e4eec8556e0d30605", "is_reserved": 0, "rental_uris": {"android": "https://dc.lft.to/lastmile_qr_scan", "ios": "https://dc.lft.to/lastmile_qr_scan"}, "fusion_lon": 0.0}, {"lat": 38.91296216666667, "is_disabled": 0, "type": "electric_scooter", "lon": -77.04021383333334, "bike_id": "8c68303136f65a2b1b537e7c3030096b", "fusion_lat": 0.0, "name": "8c68303136f65a2b1b537e7c3030096b", "is_reserved": 0, "rental_uris": {"android": "https://dc.lft.to/lastmile_qr_scan", "ios": "https://dc.lft.to/lastmile_qr_scan"}, "fusion_lon": 0.0}, {"lat": 38.9065255, "is_disabled": 0, "type": "electric_scooter", "lon": -77.00831866666667, "bike_id": "550420f96e933918cfcdc7c17fe6f26a", "fusion_lat": 0.0, "name": "550420f96e933918cfcdc7c17fe6f26a", "is_reserved": 0, "rental_uris": {"android": "https://dc.lft.to/lastmile_qr_scan", "ios": "https://dc.lft.to/lastmile_qr_scan"}, "fusion_lon": 0.0}, {"lat": 38.93375833333333, "is_disabled": 0, "type": "electric_scooter", "lon": -77.03555383333334, "bike_id": "0e6ba1742396db986e23b46dd55ea9b5", "fusion_lat": 0.0, "name": "0e6ba1742396db986e23b46dd55ea9b5", "is_reserved": 0, "rental_uris": {"android": "https://dc.lft.to/lastmile_qr_scan", "ios": "https://dc.lft.to/lastmile_qr_scan"}, "fusion_lon": 0.0}, {"lat": 38.886793, "is_disabled": 0, "type": "electric_bike", "lon": -77.16242883333334, "bike_id": "efe0cea7438ac9b42fe5f3494717b9d8", "fusion_lat": 0.0, "name": "efe0cea7438ac9b42fe5f3494717b9d8", "is_reserved": 0, "rental_uris": {"android": "https://dc.lft.to/lastmile_qr_scan", "ios": "https://dc.lft.to/lastmile_qr_scan"}, "fusion_lon": 0.0}, {"lat": 38.903907333333336, "is_disabled": 0, "type": "electric_scooter", "lon": -76.99003833333333, "bike_id": "375cedeaa3a24843d0494a3fb625783b", "fusion_lat": 0.0, "name": "375cedeaa3a24843d0494a3fb625783b", "is_reserved": 0, "rental_uris": {"android": "https://dc.lft.to/lastmile_qr_scan", "ios": "https://dc.lft.to/lastmile_qr_scan"}, "fusion_lon": 0.0}, {"lat": 38.8861205, "is_disabled": 0, "type": "electric_scooter", "lon": -77.0189955, "bike_id": "4f723668773b5ed5847d75f10835cc1d", "fusion_lat": 0.0, "name": "4f723668773b5ed5847d75f10835cc1d", "is_reserved": 0, "rental_uris": {"android": "https://dc.lft.to/lastmile_qr_scan", "ios": "https://dc.lft.to/lastmile_qr_scan"}, "fusion_lon": 0.0}, {"lat": 38.91969316666667, "is_disabled": 0, "type": "electric_scooter", "lon": -77.01432916666667, "bike_id": "6fef6838f31a1073d0752b976483358d", "fusion_lat": 0.0, "name": "6fef6838f31a1073d0752b976483358d", "is_reserved": 0, "rental_uris": {"android": "https://dc.lft.to/lastmile_qr_scan", "ios": "https://dc.lft.to/lastmile_qr_scan"}, "fusion_lon": 0.0}, {"lat": 38.957105166666665, "is_disabled": 0, "type": "electric_scooter", "lon": -77.02398283333333, "bike_id": "02b35e5155b7ea0281d34829774a3146", "fusion_lat": 0.0, "name": "02b35e5155b7ea0281d34829774a3146", "is_reserved": 0, "rental_uris": {"android": "https://dc.lft.to/lastmile_qr_scan", "ios": "https://dc.lft.to/lastmile_qr_scan"}, "fusion_lon": 0.0}, {"lat": 38.91551, "is_disabled": 0, "type": "electric_scooter", "lon": -77.0319685, "bike_id": "5e4f072d9d9d9f5cb7de02e5f1904b34", "fusion_lat": 0.0, "name": "5e4f072d9d9d9f5cb7de02e5f1904b34", "is_reserved": 0, "rental_uris": {"android": "https://dc.lft.to/lastmile_qr_scan", "ios": "https://dc.lft.to/lastmile_qr_scan"}, "fusion_lon": 0.0}, {"lat": 38.89991783333333, "is_disabled": 0, "type": "electric_scooter", "lon": -77.042282, "bike_id": "64bed3ee72f6e3357716b294c1155b5f", "fusion_lat": 0.0, "name": "64bed3ee72f6e3357716b294c1155b5f", "is_reserved": 0, "rental_uris": {"android": "https://dc.lft.to/lastmile_qr_scan", "ios": "https://dc.lft.to/lastmile_qr_scan"}, "fusion_lon": 0.0}, {"lat": 38.88547916666667, "is_disabled": 0, "type": "electric_bike", "lon": -77.11786366666666, "bike_id": "2ff8cebca03e78134776b75073960e30", "fusion_lat": 0.0, "name": "2ff8cebca03e78134776b75073960e30", "is_reserved": 0, "rental_uris": {"android": "https://dc.lft.to/lastmile_qr_scan", "ios": "https://dc.lft.to/lastmile_qr_scan"}, "fusion_lon": 0.0}, {"lat": 38.90555616666666, "is_disabled": 0, "type": "electric_scooter", "lon": -77.00499533333333, "bike_id": "1d228392033f7ed852a54473772f5b90", "fusion_lat": 0.0, "name": "1d228392033f7ed852a54473772f5b90", "is_reserved": 0, "rental_uris": {"android": "https://dc.lft.to/lastmile_qr_scan", "ios": "https://dc.lft.to/lastmile_qr_scan"}, "fusion_lon": 0.0}, {"lat": 38.9482315, "is_disabled": 0, "type": "electric_scooter", "lon": -76.99904133333334, "bike_id": "89233c28a1f3c479dc06d92a8d2cade2", "fusion_lat": 0.0, "name": "89233c28a1f3c479dc06d92a8d2cade2", "is_reserved": 0, "rental_uris": {"android": "https://dc.lft.to/lastmile_qr_scan", "ios": "https://dc.lft.to/lastmile_qr_scan"}, "fusion_lon": 0.0}, {"lat": 38.884412, "is_disabled": 0, "type": "electric_scooter", "lon": -76.92952066666666, "bike_id": "797bd3515252ca700cbe8aecfa8037c6", "fusion_lat": 0.0, "name": "797bd3515252ca700cbe8aecfa8037c6", "is_reserved": 0, "rental_uris": {"android": "https://dc.lft.to/lastmile_qr_scan", "ios": "https://dc.lft.to/lastmile_qr_scan"}, "fusion_lon": 0.0}, {"lat": 38.9296395, "is_disabled": 0, "type": "electric_scooter", "lon": -77.03068933333333, "bike_id": "c83b40825cd6812ce11fcada8a555f1c", "fusion_lat": 0.0, "name": "c83b40825cd6812ce11fcada8a555f1c", "is_reserved": 0, "rental_uris": {"android": "https://dc.lft.to/lastmile_qr_scan", "ios": "https://dc.lft.to/lastmile_qr_scan"}, "fusion_lon": 0.0}, {"lat": 38.90573116666667, "is_disabled": 0, "type": "electric_scooter", "lon": -77.02212033333333, "bike_id": "199a05274e3cfb7320fcd36abc2bdba3", "fusion_lat": 0.0, "name": "199a05274e3cfb7320fcd36abc2bdba3", "is_reserved": 0, "rental_uris": {"android": "https://dc.lft.to/lastmile_qr_scan", "ios": "https://dc.lft.to/lastmile_qr_scan"}, "fusion_lon": 0.0}, {"lat": 38.902710666666664, "is_disabled": 0, "type": "electric_scooter", "lon": -77.03190916666667, "bike_id": "c04fa61707787a30d153e614f29450ae", "fusion_lat": 0.0, "name": "c04fa61707787a30d153e614f29450ae", "is_reserved": 0, "rental_uris": {"android": "https://dc.lft.to/lastmile_qr_scan", "ios": "https://dc.lft.to/lastmile_qr_scan"}, "fusion_lon": 0.0}, {"lat": 38.858549, "is_disabled": 0, "type": "electric_bike", "lon": -77.097515, "bike_id": "290c035beda2a3fba5149bcab2c50c1a", "fusion_lat": 0.0, "name": "290c035beda2a3fba5149bcab2c50c1a", "is_reserved": 0, "rental_uris": {"android": "https://dc.lft.to/lastmile_qr_scan", "ios": "https://dc.lft.to/lastmile_qr_scan"}, "fusion_lon": 0.0}, {"lat": 38.89040633333333, "is_disabled": 0, "type": "electric_scooter", "lon": -76.94070016666667, "bike_id": "d03418cee66e43c52ea5030e57f3ed6e", "fusion_lat": 0.0, "name": "d03418cee66e43c52ea5030e57f3ed6e", "is_reserved": 0, "rental_uris": {"android": "https://dc.lft.to/lastmile_qr_scan", "ios": "https://dc.lft.to/lastmile_qr_scan"}, "fusion_lon": 0.0}, {"lat": 38.911705, "is_disabled": 0, "type": "electric_scooter", "lon": -77.03855616666667, "bike_id": "19d4f054fcf9e78cf5ab9e7464649734", "fusion_lat": 0.0, "name": "19d4f054fcf9e78cf5ab9e7464649734", "is_reserved": 0, "rental_uris": {"android": "https://dc.lft.to/lastmile_qr_scan", "ios": "https://dc.lft.to/lastmile_qr_scan"}, "fusion_lon": 0.0}, {"lat": 38.907307333333335, "is_disabled": 0, "type": "electric_scooter", "lon": -77.04216766666667, "bike_id": "6ae7a7f690aef3f2ca97d0391cff195f", "fusion_lat": 0.0, "name": "6ae7a7f690aef3f2ca97d0391cff195f", "is_reserved": 0, "rental_uris": {"android": "https://dc.lft.to/lastmile_qr_scan", "ios": "https://dc.lft.to/lastmile_qr_scan"}, "fusion_lon": 0.0}, {"lat": 38.958768666666664, "is_disabled": 0, "type": "electric_bike", "lon": -76.9248425, "bike_id": "b0d59adfa115c5524120c5bc3472e29c", "fusion_lat": 0.0, "name": "b0d59adfa115c5524120c5bc3472e29c", "is_reserved": 0, "rental_uris": {"android": "https://dc.lft.to/lastmile_qr_scan", "ios": "https://dc.lft.to/lastmile_qr_scan"}, "fusion_lon": 0.0}, {"lat": 38.92114216666667, "is_disabled": 0, "type": "electric_bike", "lon": -76.98574716666667, "bike_id": "183c90a5054bcccaaf440dd3cb884bc5", "fusion_lat": 0.0, "name": "183c90a5054bcccaaf440dd3cb884bc5", "is_reserved": 0, "rental_uris": {"android": "https://dc.lft.to/lastmile_qr_scan", "ios": "https://dc.lft.to/lastmile_qr_scan"}, "fusion_lon": 0.0}, {"lat": 38.9179605, "is_disabled": 0, "type": "electric_scooter", "lon": -77.04423466666667, "bike_id": "3d2e478a6bfd9e701a7e106dfaa0b5c7", "fusion_lat": 0.0, "name": "3d2e478a6bfd9e701a7e106dfaa0b5c7", "is_reserved": 0, "rental_uris": {"android": "https://dc.lft.to/lastmile_qr_scan", "ios": "https://dc.lft.to/lastmile_qr_scan"}, "fusion_lon": 0.0}, {"lat": 38.930978833333334, "is_disabled": 0, "type": "electric_scooter", "lon": -77.024944, "bike_id": "1e3d0a84775c8451c7e4fa0d89c8ea51", "fusion_lat": 0.0, "name": "1e3d0a84775c8451c7e4fa0d89c8ea51", "is_reserved": 0, "rental_uris": {"android": "https://dc.lft.to/lastmile_qr_scan", "ios": "https://dc.lft.to/lastmile_qr_scan"}, "fusion_lon": 0.0}, {"lat": 38.9311225, "is_disabled": 0, "type": "electric_scooter", "lon": -77.03397433333333, "bike_id": "0166fce22bbebac2f7df58f438d7af19", "fusion_lat": 0.0, "name": "0166fce22bbebac2f7df58f438d7af19", "is_reserved": 0, "rental_uris": {"android": "https://dc.lft.to/lastmile_qr_scan", "ios": "https://dc.lft.to/lastmile_qr_scan"}, "fusion_lon": 0.0}, {"lat": 38.94041333333333, "is_disabled": 0, "type": "electric_bike", "lon": -77.05154633333333, "bike_id": "1eb51cea945b421dc87dfd8e1057ec15", "fusion_lat": 0.0, "name": "1eb51cea945b421dc87dfd8e1057ec15", "is_reserved": 0, "rental_uris": {"android": "https://dc.lft.to/lastmile_qr_scan", "ios": "https://dc.lft.to/lastmile_qr_scan"}, "fusion_lon": 0.0}, {"lat": 38.92068116666667, "is_disabled": 0, "type": "electric_scooter", "lon": -77.0142895, "bike_id": "cdbee66c9f56c97450a94eff614606cb", "fusion_lat": 0.0, "name": "cdbee66c9f56c97450a94eff614606cb", "is_reserved": 0, "rental_uris": {"android": "https://dc.lft.to/lastmile_qr_scan", "ios": "https://dc.lft.to/lastmile_qr_scan"}, "fusion_lon": 0.0}, {"lat": 38.9225305, "is_disabled": 0, "type": "electric_scooter", "lon": -77.03099816666666, "bike_id": "91431f1a0a6cf4295f173079b9bc211c", "fusion_lat": 0.0, "name": "91431f1a0a6cf4295f173079b9bc211c", "is_reserved": 0, "rental_uris": {"android": "https://dc.lft.to/lastmile_qr_scan", "ios": "https://dc.lft.to/lastmile_qr_scan"}, "fusion_lon": 0.0}, {"lat": 38.913834333333334, "is_disabled": 0, "type": "electric_scooter", "lon": -77.0189485, "bike_id": "d9749aabbb2fb105a02f2c8560b02c01", "fusion_lat": 0.0, "name": "d9749aabbb2fb105a02f2c8560b02c01", "is_reserved": 0, "rental_uris": {"android": "https://dc.lft.to/lastmile_qr_scan", "ios": "https://dc.lft.to/lastmile_qr_scan"}, "fusion_lon": 0.0}, {"lat": 38.90280833333333, "is_disabled": 0, "type": "electric_scooter", "lon": -77.06357166666666, "bike_id": "fe37febace87aa393ef071f83e277434", "fusion_lat": 0.0, "name": "fe37febace87aa393ef071f83e277434", "is_reserved": 0, "rental_uris": {"android": "https://dc.lft.to/lastmile_qr_scan", "ios": "https://dc.lft.to/lastmile_qr_scan"}, "fusion_lon": 0.0}, {"lat": 38.90111066666667, "is_disabled": 0, "type": "electric_scooter", "lon": -77.03335983333334, "bike_id": "ce84e3d0e8eb85373d52005acf1ddaf7", "fusion_lat": 0.0, "name": "ce84e3d0e8eb85373d52005acf1ddaf7", "is_reserved": 0, "rental_uris": {"android": "https://dc.lft.to/lastmile_qr_scan", "ios": "https://dc.lft.to/lastmile_qr_scan"}, "fusion_lon": 0.0}, {"lat": 38.90106383333333, "is_disabled": 0, "type": "electric_scooter", "lon": -77.05905066666666, "bike_id": "96b27ebc141d65ed3745e2ea30979137", "fusion_lat": 0.0, "name": "96b27ebc141d65ed3745e2ea30979137", "is_reserved": 0, "rental_uris": {"android": "https://dc.lft.to/lastmile_qr_scan", "ios": "https://dc.lft.to/lastmile_qr_scan"}, "fusion_lon": 0.0}, {"lat": 38.91691016666667, "is_disabled": 0, "type": "electric_scooter", "lon": -77.04598466666667, "bike_id": "97a5d3a03afa6a810f95473bb29ccd71", "fusion_lat": 0.0, "name": "97a5d3a03afa6a810f95473bb29ccd71", "is_reserved": 0, "rental_uris": {"android": "https://dc.lft.to/lastmile_qr_scan", "ios": "https://dc.lft.to/lastmile_qr_scan"}, "fusion_lon": 0.0}, {"lat": 38.922998666666665, "is_disabled": 0, "type": "electric_scooter", "lon": -77.02332433333333, "bike_id": "99a6326439e42f6f6fa4dbd5f7c038fd", "fusion_lat": 0.0, "name": "99a6326439e42f6f6fa4dbd5f7c038fd", "is_reserved": 0, "rental_uris": {"android": "https://dc.lft.to/lastmile_qr_scan", "ios": "https://dc.lft.to/lastmile_qr_scan"}, "fusion_lon": 0.0}, {"lat": 38.93978083333333, "is_disabled": 0, "type": "electric_scooter", "lon": -77.02627566666666, "bike_id": "b76d7e0f6023bd35140ef91db51b1c1d", "fusion_lat": 0.0, "name": "b76d7e0f6023bd35140ef91db51b1c1d", "is_reserved": 0, "rental_uris": {"android": "https://dc.lft.to/lastmile_qr_scan", "ios": "https://dc.lft.to/lastmile_qr_scan"}, "fusion_lon": 0.0}, {"lat": 38.90739033333333, "is_disabled": 0, "type": "electric_scooter", "lon": -77.0294815, "bike_id": "f6048366cec482da0adafa3362e1070c", "fusion_lat": 0.0, "name": "f6048366cec482da0adafa3362e1070c", "is_reserved": 0, "rental_uris": {"android": "https://dc.lft.to/lastmile_qr_scan", "ios": "https://dc.lft.to/lastmile_qr_scan"}, "fusion_lon": 0.0}, {"lat": 38.93295833333333, "is_disabled": 0, "type": "electric_scooter", "lon": -77.02190066666667, "bike_id": "2386169c2f972596620709381f6af195", "fusion_lat": 0.0, "name": "2386169c2f972596620709381f6af195", "is_reserved": 0, "rental_uris": {"android": "https://dc.lft.to/lastmile_qr_scan", "ios": "https://dc.lft.to/lastmile_qr_scan"}, "fusion_lon": 0.0}, {"lat": 38.89891183333334, "is_disabled": 0, "type": "electric_scooter", "lon": -77.072368, "bike_id": "8d38ba619c4be50f511821771468a225", "fusion_lat": 0.0, "name": "8d38ba619c4be50f511821771468a225", "is_reserved": 0, "rental_uris": {"android": "https://dc.lft.to/lastmile_qr_scan", "ios": "https://dc.lft.to/lastmile_qr_scan"}, "fusion_lon": 0.0}, {"lat": 38.872931, "is_disabled": 0, "type": "electric_scooter", "lon": -77.00923633333333, "bike_id": "7cc645a1f215a5c9c2b317e7e5a36e71", "fusion_lat": 0.0, "name": "7cc645a1f215a5c9c2b317e7e5a36e71", "is_reserved": 0, "rental_uris": {"android": "https://dc.lft.to/lastmile_qr_scan", "ios": "https://dc.lft.to/lastmile_qr_scan"}, "fusion_lon": 0.0}, {"lat": 38.9124545, "is_disabled": 0, "type": "electric_scooter", "lon": -77.04664083333333, "bike_id": "dcfee6a92f41b400cfe29e097e49f340", "fusion_lat": 0.0, "name": "dcfee6a92f41b400cfe29e097e49f340", "is_reserved": 0, "rental_uris": {"android": "https://dc.lft.to/lastmile_qr_scan", "ios": "https://dc.lft.to/lastmile_qr_scan"}, "fusion_lon": 0.0}, {"lat": 38.932993, "is_disabled": 0, "type": "electric_scooter", "lon": -77.04532433333334, "bike_id": "f784e3389904a28b2e859d141e0a0fb7", "fusion_lat": 0.0, "name": "f784e3389904a28b2e859d141e0a0fb7", "is_reserved": 0, "rental_uris": {"android": "https://dc.lft.to/lastmile_qr_scan", "ios": "https://dc.lft.to/lastmile_qr_scan"}, "fusion_lon": 0.0}, {"lat": 38.924824, "is_disabled": 0, "type": "electric_bike", "lon": -77.03751583333333, "bike_id": "412ccd51bfe3b95c31543e41b8144b4d", "fusion_lat": 0.0, "name": "412ccd51bfe3b95c31543e41b8144b4d", "is_reserved": 0, "rental_uris": {"android": "https://dc.lft.to/lastmile_qr_scan", "ios": "https://dc.lft.to/lastmile_qr_scan"}, "fusion_lon": 0.0}, {"lat": 38.9843435, "is_disabled": 0, "type": "electric_scooter", "lon": -77.02670116666667, "bike_id": "14b96be9b7c1d849354d57daae4c4356", "fusion_lat": 0.0, "name": "14b96be9b7c1d849354d57daae4c4356", "is_reserved": 0, "rental_uris": {"android": "https://dc.lft.to/lastmile_qr_scan", "ios": "https://dc.lft.to/lastmile_qr_scan"}, "fusion_lon": 0.0}, {"lat": 38.91467016666667, "is_disabled": 0, "type": "electric_scooter", "lon": -77.01429833333333, "bike_id": "f95290d5be1d45ce5d48efacb262d8c2", "fusion_lat": 0.0, "name": "f95290d5be1d45ce5d48efacb262d8c2", "is_reserved": 0, "rental_uris": {"android": "https://dc.lft.to/lastmile_qr_scan", "ios": "https://dc.lft.to/lastmile_qr_scan"}, "fusion_lon": 0.0}, {"lat": 38.8773265, "is_disabled": 0, "type": "electric_scooter", "lon": -77.0034395, "bike_id": "32380e635f3ad0bd5f73a4ab85381d2c", "fusion_lat": 0.0, "name": "32380e635f3ad0bd5f73a4ab85381d2c", "is_reserved": 0, "rental_uris": {"android": "https://dc.lft.to/lastmile_qr_scan", "ios": "https://dc.lft.to/lastmile_qr_scan"}, "fusion_lon": 0.0}, {"lat": 38.870722666666666, "is_disabled": 0, "type": "electric_bike", "lon": -76.97842416666667, "bike_id": "c18120f7b752d5ff5c7ccb8f2f48a87f", "fusion_lat": 0.0, "name": "c18120f7b752d5ff5c7ccb8f2f48a87f", "is_reserved": 0, "rental_uris": {"android": "https://dc.lft.to/lastmile_qr_scan", "ios": "https://dc.lft.to/lastmile_qr_scan"}, "fusion_lon": 0.0}, {"lat": 38.88795616666667, "is_disabled": 0, "type": "electric_scooter", "lon": -76.93362583333334, "bike_id": "c89ed1225373e9e6d36bbdf67a5af756", "fusion_lat": 0.0, "name": "c89ed1225373e9e6d36bbdf67a5af756", "is_reserved": 0, "rental_uris": {"android": "https://dc.lft.to/lastmile_qr_scan", "ios": "https://dc.lft.to/lastmile_qr_scan"}, "fusion_lon": 0.0}, {"lat": 38.92326116666667, "is_disabled": 0, "type": "electric_scooter", "lon": -77.0542695, "bike_id": "8651b9a560d419670f3b97ae9b54f384", "fusion_lat": 0.0, "name": "8651b9a560d419670f3b97ae9b54f384", "is_reserved": 0, "rental_uris": {"android": "https://dc.lft.to/lastmile_qr_scan", "ios": "https://dc.lft.to/lastmile_qr_scan"}, "fusion_lon": 0.0}, {"lat": 38.8278195, "is_disabled": 0, "type": "electric_bike", "lon": -77.00911033333334, "bike_id": "aeae22ba384139f9f73ea6d215a8452b", "fusion_lat": 0.0, "name": "aeae22ba384139f9f73ea6d215a8452b", "is_reserved": 0, "rental_uris": {"android": "https://dc.lft.to/lastmile_qr_scan", "ios": "https://dc.lft.to/lastmile_qr_scan"}, "fusion_lon": 0.0}, {"lat": 38.915651833333335, "is_disabled": 0, "type": "electric_scooter", "lon": -77.0104635, "bike_id": "3b17bee2950e8d0bbd470f15232d45ee", "fusion_lat": 0.0, "name": "3b17bee2950e8d0bbd470f15232d45ee", "is_reserved": 0, "rental_uris": {"android": "https://dc.lft.to/lastmile_qr_scan", "ios": "https://dc.lft.to/lastmile_qr_scan"}, "fusion_lon": 0.0}, {"lat": 38.9097805, "is_disabled": 0, "type": "electric_bike", "lon": -77.088192, "bike_id": "cf88148df0f6a2bd3159de32e3ec8d09", "fusion_lat": 0.0, "name": "cf88148df0f6a2bd3159de32e3ec8d09", "is_reserved": 0, "rental_uris": {"android": "https://dc.lft.to/lastmile_qr_scan", "ios": "https://dc.lft.to/lastmile_qr_scan"}, "fusion_lon": 0.0}, {"lat": 38.90075216666666, "is_disabled": 0, "type": "electric_scooter", "lon": -77.04912866666666, "bike_id": "7eeaa954d7a33e2df8115bb3f1f6ac0c", "fusion_lat": 0.0, "name": "7eeaa954d7a33e2df8115bb3f1f6ac0c", "is_reserved": 0, "rental_uris": {"android": "https://dc.lft.to/lastmile_qr_scan", "ios": "https://dc.lft.to/lastmile_qr_scan"}, "fusion_lon": 0.0}, {"lat": 38.932985, "is_disabled": 0, "type": "electric_scooter", "lon": -77.02844616666667, "bike_id": "7cc5c0e39c9732e4dcbdf2a66be540c1", "fusion_lat": 0.0, "name": "7cc5c0e39c9732e4dcbdf2a66be540c1", "is_reserved": 0, "rental_uris": {"android": "https://dc.lft.to/lastmile_qr_scan", "ios": "https://dc.lft.to/lastmile_qr_scan"}, "fusion_lon": 0.0}, {"lat": 38.9279485, "is_disabled": 0, "type": "electric_scooter", "lon": -77.05518416666666, "bike_id": "cf930c2de56040f2befe108cf060961d", "fusion_lat": 0.0, "name": "cf930c2de56040f2befe108cf060961d", "is_reserved": 0, "rental_uris": {"android": "https://dc.lft.to/lastmile_qr_scan", "ios": "https://dc.lft.to/lastmile_qr_scan"}, "fusion_lon": 0.0}, {"lat": 38.93876616666667, "is_disabled": 0, "type": "electric_scooter", "lon": -77.020068, "bike_id": "b9cc199eaeb9e6717a0836ce7096a8ea", "fusion_lat": 0.0, "name": "b9cc199eaeb9e6717a0836ce7096a8ea", "is_reserved": 0, "rental_uris": {"android": "https://dc.lft.to/lastmile_qr_scan", "ios": "https://dc.lft.to/lastmile_qr_scan"}, "fusion_lon": 0.0}, {"lat": 38.93373116666667, "is_disabled": 0, "type": "electric_scooter", "lon": -77.02384066666667, "bike_id": "e416d1e02b557721b2a79b8c42113001", "fusion_lat": 0.0, "name": "e416d1e02b557721b2a79b8c42113001", "is_reserved": 0, "rental_uris": {"android": "https://dc.lft.to/lastmile_qr_scan", "ios": "https://dc.lft.to/lastmile_qr_scan"}, "fusion_lon": 0.0}, {"lat": 38.902719166666664, "is_disabled": 0, "type": "electric_scooter", "lon": -77.03310466666667, "bike_id": "86d1390b375742379ee7f83e7f7b7642", "fusion_lat": 0.0, "name": "86d1390b375742379ee7f83e7f7b7642", "is_reserved": 0, "rental_uris": {"android": "https://dc.lft.to/lastmile_qr_scan", "ios": "https://dc.lft.to/lastmile_qr_scan"}, "fusion_lon": 0.0}, {"lat": 39.000064333333334, "is_disabled": 0, "type": "electric_bike", "lon": -76.91080216666667, "bike_id": "37eceb3b74564ff31c6265525e0951ae", "fusion_lat": 0.0, "name": "37eceb3b74564ff31c6265525e0951ae", "is_reserved": 0, "rental_uris": {"android": "https://dc.lft.to/lastmile_qr_scan", "ios": "https://dc.lft.to/lastmile_qr_scan"}, "fusion_lon": 0.0}, {"lat": 38.95330116666667, "is_disabled": 0, "type": "electric_bike", "lon": -76.97361666666667, "bike_id": "b2e46459b8d4b8722f270d1b74225419", "fusion_lat": 0.0, "name": "b2e46459b8d4b8722f270d1b74225419", "is_reserved": 0, "rental_uris": {"android": "https://dc.lft.to/lastmile_qr_scan", "ios": "https://dc.lft.to/lastmile_qr_scan"}, "fusion_lon": 0.0}, {"lat": 38.925880166666666, "is_disabled": 0, "type": "electric_scooter", "lon": -77.02835966666666, "bike_id": "9fba710d3beb9a189616a21de4106c7d", "fusion_lat": 0.0, "name": "9fba710d3beb9a189616a21de4106c7d", "is_reserved": 0, "rental_uris": {"android": "https://dc.lft.to/lastmile_qr_scan", "ios": "https://dc.lft.to/lastmile_qr_scan"}, "fusion_lon": 0.0}, {"lat": 38.86386816666667, "is_disabled": 0, "type": "electric_bike", "lon": -76.98991516666666, "bike_id": "e421e9720bda0796f6a55110c4fb6725", "fusion_lat": 0.0, "name": "e421e9720bda0796f6a55110c4fb6725", "is_reserved": 0, "rental_uris": {"android": "https://dc.lft.to/lastmile_qr_scan", "ios": "https://dc.lft.to/lastmile_qr_scan"}, "fusion_lon": 0.0}, {"lat": 38.85311816666667, "is_disabled": 0, "type": "electric_bike", "lon": -76.98012583333333, "bike_id": "d6b0348ad000e7b927f3dc86a73eac2c", "fusion_lat": 0.0, "name": "d6b0348ad000e7b927f3dc86a73eac2c", "is_reserved": 0, "rental_uris": {"android": "https://dc.lft.to/lastmile_qr_scan", "ios": "https://dc.lft.to/lastmile_qr_scan"}, "fusion_lon": 0.0}, {"lat": 38.86557066666667, "is_disabled": 0, "type": "electric_scooter", "lon": -76.97413816666666, "bike_id": "b1cc22bd1b5b676c7b89a6dab2fd183a", "fusion_lat": 0.0, "name": "b1cc22bd1b5b676c7b89a6dab2fd183a", "is_reserved": 0, "rental_uris": {"android": "https://dc.lft.to/lastmile_qr_scan", "ios": "https://dc.lft.to/lastmile_qr_scan"}, "fusion_lon": 0.0}, {"lat": 38.902190833333336, "is_disabled": 0, "type": "electric_scooter", "lon": -76.9458685, "bike_id": "e857b348cb36770d83e29d4ac1c4f265", "fusion_lat": 0.0, "name": "e857b348cb36770d83e29d4ac1c4f265", "is_reserved": 0, "rental_uris": {"android": "https://dc.lft.to/lastmile_qr_scan", "ios": "https://dc.lft.to/lastmile_qr_scan"}, "fusion_lon": 0.0}, {"lat": 38.93010616666667, "is_disabled": 0, "type": "electric_bike", "lon": -77.2164765, "bike_id": "0a1a279ea78e766f021caa74074661fd", "fusion_lat": 0.0, "name": "0a1a279ea78e766f021caa74074661fd", "is_reserved": 0, "rental_uris": {"android": "https://dc.lft.to/lastmile_qr_scan", "ios": "https://dc.lft.to/lastmile_qr_scan"}, "fusion_lon": 0.0}, {"lat": 38.897660333333334, "is_disabled": 0, "type": "electric_scooter", "lon": -77.04365566666667, "bike_id": "495d0f214a549c7bb83edf6043342363", "fusion_lat": 0.0, "name": "495d0f214a549c7bb83edf6043342363", "is_reserved": 0, "rental_uris": {"android": "https://dc.lft.to/lastmile_qr_scan", "ios": "https://dc.lft.to/lastmile_qr_scan"}, "fusion_lon": 0.0}, {"lat": 38.92240283333334, "is_disabled": 0, "type": "electric_scooter", "lon": -77.03071566666667, "bike_id": "7b1df1120f45236f8a1851f450f52e8a", "fusion_lat": 0.0, "name": "7b1df1120f45236f8a1851f450f52e8a", "is_reserved": 0, "rental_uris": {"android": "https://dc.lft.to/lastmile_qr_scan", "ios": "https://dc.lft.to/lastmile_qr_scan"}, "fusion_lon": 0.0}, {"lat": 38.9015305, "is_disabled": 0, "type": "electric_bike", "lon": -76.98643533333333, "bike_id": "b02c6c8a32f084ccf6b0cb70fc667925", "fusion_lat": 0.0, "name": "b02c6c8a32f084ccf6b0cb70fc667925", "is_reserved": 0, "rental_uris": {"android": "https://dc.lft.to/lastmile_qr_scan", "ios": "https://dc.lft.to/lastmile_qr_scan"}, "fusion_lon": 0.0}, {"lat": 38.91962933333333, "is_disabled": 0, "type": "electric_bike", "lon": -76.972653, "bike_id": "dcd84c9d8f1c476622a8c3dca89f6e8d", "fusion_lat": 0.0, "name": "dcd84c9d8f1c476622a8c3dca89f6e8d", "is_reserved": 0, "rental_uris": {"android": "https://dc.lft.to/lastmile_qr_scan", "ios": "https://dc.lft.to/lastmile_qr_scan"}, "fusion_lon": 0.0}, {"lat": 38.93379933333333, "is_disabled": 0, "type": "electric_scooter", "lon": -77.03793883333333, "bike_id": "7d46a4e3e309d8723eaa45afef02116a", "fusion_lat": 0.0, "name": "7d46a4e3e309d8723eaa45afef02116a", "is_reserved": 0, "rental_uris": {"android": "https://dc.lft.to/lastmile_qr_scan", "ios": "https://dc.lft.to/lastmile_qr_scan"}, "fusion_lon": 0.0}, {"lat": 38.96272583333333, "is_disabled": 0, "type": "electric_bike", "lon": -77.03254566666666, "bike_id": "17a985aeb1839d7bf76a71bc2bdbb0a6", "fusion_lat": 0.0, "name": "17a985aeb1839d7bf76a71bc2bdbb0a6", "is_reserved": 0, "rental_uris": {"android": "https://dc.lft.to/lastmile_qr_scan", "ios": "https://dc.lft.to/lastmile_qr_scan"}, "fusion_lon": 0.0}, {"lat": 38.91955183333334, "is_disabled": 0, "type": "electric_scooter", "lon": -77.04876166666666, "bike_id": "eb73bfa6a106fe023d5262155ee8e8e0", "fusion_lat": 0.0, "name": "eb73bfa6a106fe023d5262155ee8e8e0", "is_reserved": 0, "rental_uris": {"android": "https://dc.lft.to/lastmile_qr_scan", "ios": "https://dc.lft.to/lastmile_qr_scan"}, "fusion_lon": 0.0}, {"lat": 38.90057516666667, "is_disabled": 0, "type": "electric_scooter", "lon": -77.05054483333333, "bike_id": "c7a1bdc904a7190753b47c18aa00e831", "fusion_lat": 0.0, "name": "c7a1bdc904a7190753b47c18aa00e831", "is_reserved": 0, "rental_uris": {"android": "https://dc.lft.to/lastmile_qr_scan", "ios": "https://dc.lft.to/lastmile_qr_scan"}, "fusion_lon": 0.0}, {"lat": 38.923459666666666, "is_disabled": 0, "type": "electric_scooter", "lon": -77.03416216666666, "bike_id": "3e93dac35ae0431c1de2907d54a51ff6", "fusion_lat": 0.0, "name": "3e93dac35ae0431c1de2907d54a51ff6", "is_reserved": 0, "rental_uris": {"android": "https://dc.lft.to/lastmile_qr_scan", "ios": "https://dc.lft.to/lastmile_qr_scan"}, "fusion_lon": 0.0}, {"lat": 38.864161, "is_disabled": 0, "type": "electric_bike", "lon": -76.97431816666666, "bike_id": "c6e824aef410980fe8696f571481178d", "fusion_lat": 0.0, "name": "c6e824aef410980fe8696f571481178d", "is_reserved": 0, "rental_uris": {"android": "https://dc.lft.to/lastmile_qr_scan", "ios": "https://dc.lft.to/lastmile_qr_scan"}, "fusion_lon": 0.0}, {"lat": 38.80576633333333, "is_disabled": 0, "type": "electric_bike", "lon": -77.06859333333334, "bike_id": "7f05bb793c2f1bdebb9588d485c5a7e4", "fusion_lat": 0.0, "name": "7f05bb793c2f1bdebb9588d485c5a7e4", "is_reserved": 0, "rental_uris": {"android": "https://dc.lft.to/lastmile_qr_scan", "ios": "https://dc.lft.to/lastmile_qr_scan"}, "fusion_lon": 0.0}, {"lat": 38.920315333333335, "is_disabled": 0, "type": "electric_scooter", "lon": -77.03041283333333, "bike_id": "9cdd7e1d9404a6f49330012581a0e211", "fusion_lat": 0.0, "name": "9cdd7e1d9404a6f49330012581a0e211", "is_reserved": 0, "rental_uris": {"android": "https://dc.lft.to/lastmile_qr_scan", "ios": "https://dc.lft.to/lastmile_qr_scan"}, "fusion_lon": 0.0}, {"lat": 38.985113, "is_disabled": 0, "type": "electric_bike", "lon": -76.98207083333334, "bike_id": "d50233cf34f169483a08d98abac8d387", "fusion_lat": 0.0, "name": "d50233cf34f169483a08d98abac8d387", "is_reserved": 0, "rental_uris": {"android": "https://dc.lft.to/lastmile_qr_scan", "ios": "https://dc.lft.to/lastmile_qr_scan"}, "fusion_lon": 0.0}, {"lat": 38.93077133333333, "is_disabled": 0, "type": "electric_scooter", "lon": -77.0340985, "bike_id": "cf0fe65ec410b15e6aceb77fd2cc0192", "fusion_lat": 0.0, "name": "cf0fe65ec410b15e6aceb77fd2cc0192", "is_reserved": 0, "rental_uris": {"android": "https://dc.lft.to/lastmile_qr_scan", "ios": "https://dc.lft.to/lastmile_qr_scan"}, "fusion_lon": 0.0}, {"lat": 38.89548, "is_disabled": 0, "type": "electric_scooter", "lon": -77.02280733333333, "bike_id": "24331e7a65db4c405503f131419ed6f7", "fusion_lat": 0.0, "name": "24331e7a65db4c405503f131419ed6f7", "is_reserved": 0, "rental_uris": {"android": "https://dc.lft.to/lastmile_qr_scan", "ios": "https://dc.lft.to/lastmile_qr_scan"}, "fusion_lon": 0.0}, {"lat": 38.920403666666665, "is_disabled": 0, "type": "electric_scooter", "lon": -77.02456133333334, "bike_id": "cfcc82d0ea6cb4e2fffcadab86cea6c2", "fusion_lat": 0.0, "name": "cfcc82d0ea6cb4e2fffcadab86cea6c2", "is_reserved": 0, "rental_uris": {"android": "https://dc.lft.to/lastmile_qr_scan", "ios": "https://dc.lft.to/lastmile_qr_scan"}, "fusion_lon": 0.0}, {"lat": 38.920156, "is_disabled": 0, "type": "electric_scooter", "lon": -77.03139, "bike_id": "6879d5e726e3fd6b42f862c42d81741e", "fusion_lat": 0.0, "name": "6879d5e726e3fd6b42f862c42d81741e", "is_reserved": 0, "rental_uris": {"android": "https://dc.lft.to/lastmile_qr_scan", "ios": "https://dc.lft.to/lastmile_qr_scan"}, "fusion_lon": 0.0}, {"lat": 38.892488666666665, "is_disabled": 0, "type": "electric_scooter", "lon": -77.03953966666667, "bike_id": "567f28386f2e1e48ad7b84d3d04bf982", "fusion_lat": 0.0, "name": "567f28386f2e1e48ad7b84d3d04bf982", "is_reserved": 0, "rental_uris": {"android": "https://dc.lft.to/lastmile_qr_scan", "ios": "https://dc.lft.to/lastmile_qr_scan"}, "fusion_lon": 0.0}, {"lat": 38.92012883333334, "is_disabled": 0, "type": "electric_bike", "lon": -77.045322, "bike_id": "1ee28bbe55a3634be74ab32334417a71", "fusion_lat": 0.0, "name": "1ee28bbe55a3634be74ab32334417a71", "is_reserved": 0, "rental_uris": {"android": "https://dc.lft.to/lastmile_qr_scan", "ios": "https://dc.lft.to/lastmile_qr_scan"}, "fusion_lon": 0.0}, {"lat": 38.901182, "is_disabled": 0, "type": "electric_scooter", "lon": -77.049876, "bike_id": "4e99e4f0f09d21e38b8b73f80719f62c", "fusion_lat": 0.0, "name": "4e99e4f0f09d21e38b8b73f80719f62c", "is_reserved": 0, "rental_uris": {"android": "https://dc.lft.to/lastmile_qr_scan", "ios": "https://dc.lft.to/lastmile_qr_scan"}, "fusion_lon": 0.0}, {"lat": 38.900140666666665, "is_disabled": 0, "type": "electric_scooter", "lon": -76.99566883333334, "bike_id": "e607dfc5794d0cdc62480afe2fa6a8a8", "fusion_lat": 0.0, "name": "e607dfc5794d0cdc62480afe2fa6a8a8", "is_reserved": 0, "rental_uris": {"android": "https://dc.lft.to/lastmile_qr_scan", "ios": "https://dc.lft.to/lastmile_qr_scan"}, "fusion_lon": 0.0}, {"lat": 38.9391355, "is_disabled": 0, "type": "electric_scooter", "lon": -77.02467183333333, "bike_id": "4198bb98a4bfc306ee9a350c1f637fc8", "fusion_lat": 0.0, "name": "4198bb98a4bfc306ee9a350c1f637fc8", "is_reserved": 0, "rental_uris": {"android": "https://dc.lft.to/lastmile_qr_scan", "ios": "https://dc.lft.to/lastmile_qr_scan"}, "fusion_lon": 0.0}, {"lat": 38.9036115, "is_disabled": 0, "type": "electric_scooter", "lon": -77.01617166666666, "bike_id": "4aaec09a0c6fe5031af7e3da4f3e7cd6", "fusion_lat": 0.0, "name": "4aaec09a0c6fe5031af7e3da4f3e7cd6", "is_reserved": 0, "rental_uris": {"android": "https://dc.lft.to/lastmile_qr_scan", "ios": "https://dc.lft.to/lastmile_qr_scan"}, "fusion_lon": 0.0}, {"lat": 38.95182633333334, "is_disabled": 0, "type": "electric_bike", "lon": -76.93545533333334, "bike_id": "498a3f554c809d9401cf06ad5dccc949", "fusion_lat": 0.0, "name": "498a3f554c809d9401cf06ad5dccc949", "is_reserved": 0, "rental_uris": {"android": "https://dc.lft.to/lastmile_qr_scan", "ios": "https://dc.lft.to/lastmile_qr_scan"}, "fusion_lon": 0.0}, {"lat": 38.9066195, "is_disabled": 0, "type": "electric_scooter", "lon": -77.01530283333334, "bike_id": "c3982add2f8512dbd98ab786804630c4", "fusion_lat": 0.0, "name": "c3982add2f8512dbd98ab786804630c4", "is_reserved": 0, "rental_uris": {"android": "https://dc.lft.to/lastmile_qr_scan", "ios": "https://dc.lft.to/lastmile_qr_scan"}, "fusion_lon": 0.0}, {"lat": 38.90744883333333, "is_disabled": 0, "type": "electric_scooter", "lon": -77.04204383333334, "bike_id": "f73b0223ea4d0022239a1a5e3af58ac9", "fusion_lat": 0.0, "name": "f73b0223ea4d0022239a1a5e3af58ac9", "is_reserved": 0, "rental_uris": {"android": "https://dc.lft.to/lastmile_qr_scan", "ios": "https://dc.lft.to/lastmile_qr_scan"}, "fusion_lon": 0.0}, {"lat": 38.87732916666667, "is_disabled": 0, "type": "electric_bike", "lon": -77.118504, "bike_id": "501febd6ba97b6c0d5e9c50a2753ad62", "fusion_lat": 0.0, "name": "501febd6ba97b6c0d5e9c50a2753ad62", "is_reserved": 0, "rental_uris": {"android": "https://dc.lft.to/lastmile_qr_scan", "ios": "https://dc.lft.to/lastmile_qr_scan"}, "fusion_lon": 0.0}, {"lat": 38.86262833333333, "is_disabled": 0, "type": "electric_scooter", "lon": -76.98693316666666, "bike_id": "314c78a5fdeeaac1c2dee6816c537da1", "fusion_lat": 0.0, "name": "314c78a5fdeeaac1c2dee6816c537da1", "is_reserved": 0, "rental_uris": {"android": "https://dc.lft.to/lastmile_qr_scan", "ios": "https://dc.lft.to/lastmile_qr_scan"}, "fusion_lon": 0.0}, {"lat": 38.91049966666667, "is_disabled": 0, "type": "electric_scooter", "lon": -77.01511616666667, "bike_id": "27affa1883adf2f9130dc19c0d326cee", "fusion_lat": 0.0, "name": "27affa1883adf2f9130dc19c0d326cee", "is_reserved": 0, "rental_uris": {"android": "https://dc.lft.to/lastmile_qr_scan", "ios": "https://dc.lft.to/lastmile_qr_scan"}, "fusion_lon": 0.0}, {"lat": 38.9149635, "is_disabled": 0, "type": "electric_scooter", "lon": -76.98364066666667, "bike_id": "130afe30ed3193f58b96733cff36be6e", "fusion_lat": 0.0, "name": "130afe30ed3193f58b96733cff36be6e", "is_reserved": 0, "rental_uris": {"android": "https://dc.lft.to/lastmile_qr_scan", "ios": "https://dc.lft.to/lastmile_qr_scan"}, "fusion_lon": 0.0}, {"lat": 38.894373, "is_disabled": 0, "type": "electric_scooter", "lon": -77.02103633333333, "bike_id": "85e7d809101a17e53856ec9a37bec0e3", "fusion_lat": 0.0, "name": "85e7d809101a17e53856ec9a37bec0e3", "is_reserved": 0, "rental_uris": {"android": "https://dc.lft.to/lastmile_qr_scan", "ios": "https://dc.lft.to/lastmile_qr_scan"}, "fusion_lon": 0.0}, {"lat": 38.95737616666667, "is_disabled": 0, "type": "electric_scooter", "lon": -77.02383016666667, "bike_id": "3036b8e6fe4adb01a43f739761d22f80", "fusion_lat": 0.0, "name": "3036b8e6fe4adb01a43f739761d22f80", "is_reserved": 0, "rental_uris": {"android": "https://dc.lft.to/lastmile_qr_scan", "ios": "https://dc.lft.to/lastmile_qr_scan"}, "fusion_lon": 0.0}, {"lat": 38.88278583333334, "is_disabled": 0, "type": "electric_bike", "lon": -76.93234583333333, "bike_id": "b779570b70735f90b5f9bc03aea43249", "fusion_lat": 0.0, "name": "b779570b70735f90b5f9bc03aea43249", "is_reserved": 0, "rental_uris": {"android": "https://dc.lft.to/lastmile_qr_scan", "ios": "https://dc.lft.to/lastmile_qr_scan"}, "fusion_lon": 0.0}, {"lat": 38.88767983333334, "is_disabled": 0, "type": "electric_scooter", "lon": -76.98352083333333, "bike_id": "b2c28d1e78128529c7079a25b7cd6e34", "fusion_lat": 0.0, "name": "b2c28d1e78128529c7079a25b7cd6e34", "is_reserved": 0, "rental_uris": {"android": "https://dc.lft.to/lastmile_qr_scan", "ios": "https://dc.lft.to/lastmile_qr_scan"}, "fusion_lon": 0.0}, {"lat": 38.935769, "is_disabled": 0, "type": "electric_scooter", "lon": -77.03749666666667, "bike_id": "89f71f27db09dfb4b69c1f0b9e5d39d8", "fusion_lat": 0.0, "name": "89f71f27db09dfb4b69c1f0b9e5d39d8", "is_reserved": 0, "rental_uris": {"android": "https://dc.lft.to/lastmile_qr_scan", "ios": "https://dc.lft.to/lastmile_qr_scan"}, "fusion_lon": 0.0}, {"lat": 38.907524, "is_disabled": 0, "type": "electric_scooter", "lon": -77.04144866666667, "bike_id": "58210e2b1a3a7b6c42fc8e38392c5613", "fusion_lat": 0.0, "name": "58210e2b1a3a7b6c42fc8e38392c5613", "is_reserved": 0, "rental_uris": {"android": "https://dc.lft.to/lastmile_qr_scan", "ios": "https://dc.lft.to/lastmile_qr_scan"}, "fusion_lon": 0.0}, {"lat": 38.903372833333336, "is_disabled": 0, "type": "electric_scooter", "lon": -76.9705585, "bike_id": "86e68c4a99622279e5125d791d8ed62e", "fusion_lat": 0.0, "name": "86e68c4a99622279e5125d791d8ed62e", "is_reserved": 0, "rental_uris": {"android": "https://dc.lft.to/lastmile_qr_scan", "ios": "https://dc.lft.to/lastmile_qr_scan"}, "fusion_lon": 0.0}, {"lat": 38.8622415, "is_disabled": 0, "type": "electric_scooter", "lon": -76.98355966666666, "bike_id": "d772b5f35c8e2f77647a7508cfef6fa3", "fusion_lat": 0.0, "name": "d772b5f35c8e2f77647a7508cfef6fa3", "is_reserved": 0, "rental_uris": {"android": "https://dc.lft.to/lastmile_qr_scan", "ios": "https://dc.lft.to/lastmile_qr_scan"}, "fusion_lon": 0.0}, {"lat": 38.90856633333333, "is_disabled": 0, "type": "electric_scooter", "lon": -77.0101345, "bike_id": "37a1583f3cd69f88a2c0eb55483b594d", "fusion_lat": 0.0, "name": "37a1583f3cd69f88a2c0eb55483b594d", "is_reserved": 0, "rental_uris": {"android": "https://dc.lft.to/lastmile_qr_scan", "ios": "https://dc.lft.to/lastmile_qr_scan"}, "fusion_lon": 0.0}, {"lat": 38.91204966666667, "is_disabled": 0, "type": "electric_scooter", "lon": -77.0447645, "bike_id": "6337eed40eab5d58e62cc20fd2552bf5", "fusion_lat": 0.0, "name": "6337eed40eab5d58e62cc20fd2552bf5", "is_reserved": 0, "rental_uris": {"android": "https://dc.lft.to/lastmile_qr_scan", "ios": "https://dc.lft.to/lastmile_qr_scan"}, "fusion_lon": 0.0}, {"lat": 38.900595333333335, "is_disabled": 0, "type": "electric_scooter", "lon": -77.05062383333333, "bike_id": "cbf6ac9fce8c7caf6d2aa66410e210ca", "fusion_lat": 0.0, "name": "cbf6ac9fce8c7caf6d2aa66410e210ca", "is_reserved": 0, "rental_uris": {"android": "https://dc.lft.to/lastmile_qr_scan", "ios": "https://dc.lft.to/lastmile_qr_scan"}, "fusion_lon": 0.0}, {"lat": 38.95078383333333, "is_disabled": 0, "type": "electric_bike", "lon": -77.01192666666667, "bike_id": "dd67576d1bbe9a74c86c0dc6fc4e4466", "fusion_lat": 0.0, "name": "dd67576d1bbe9a74c86c0dc6fc4e4466", "is_reserved": 0, "rental_uris": {"android": "https://dc.lft.to/lastmile_qr_scan", "ios": "https://dc.lft.to/lastmile_qr_scan"}, "fusion_lon": 0.0}, {"lat": 38.866179333333335, "is_disabled": 0, "type": "electric_scooter", "lon": -76.9866035, "bike_id": "49d60f1696271b0db1207508035d2c7c", "fusion_lat": 0.0, "name": "49d60f1696271b0db1207508035d2c7c", "is_reserved": 0, "rental_uris": {"android": "https://dc.lft.to/lastmile_qr_scan", "ios": "https://dc.lft.to/lastmile_qr_scan"}, "fusion_lon": 0.0}, {"lat": 38.915618333333335, "is_disabled": 0, "type": "electric_scooter", "lon": -77.00979966666667, "bike_id": "5c0fd6684d19aa55b87122aef8d97c64", "fusion_lat": 0.0, "name": "5c0fd6684d19aa55b87122aef8d97c64", "is_reserved": 0, "rental_uris": {"android": "https://dc.lft.to/lastmile_qr_scan", "ios": "https://dc.lft.to/lastmile_qr_scan"}, "fusion_lon": 0.0}, {"lat": 38.90886, "is_disabled": 0, "type": "electric_scooter", "lon": -77.03661816666667, "bike_id": "05d95b23b733c1adb6a53239117c4db0", "fusion_lat": 0.0, "name": "05d95b23b733c1adb6a53239117c4db0", "is_reserved": 0, "rental_uris": {"android": "https://dc.lft.to/lastmile_qr_scan", "ios": "https://dc.lft.to/lastmile_qr_scan"}, "fusion_lon": 0.0}, {"lat": 38.925888, "is_disabled": 0, "type": "electric_scooter", "lon": -77.02491766666667, "bike_id": "8014abafa216eadcc40e03c5d380c237", "fusion_lat": 0.0, "name": "8014abafa216eadcc40e03c5d380c237", "is_reserved": 0, "rental_uris": {"android": "https://dc.lft.to/lastmile_qr_scan", "ios": "https://dc.lft.to/lastmile_qr_scan"}, "fusion_lon": 0.0}, {"lat": 38.89633083333333, "is_disabled": 0, "type": "electric_scooter", "lon": -77.04509166666666, "bike_id": "1abca20d682b4b1925d175886c046677", "fusion_lat": 0.0, "name": "1abca20d682b4b1925d175886c046677", "is_reserved": 0, "rental_uris": {"android": "https://dc.lft.to/lastmile_qr_scan", "ios": "https://dc.lft.to/lastmile_qr_scan"}, "fusion_lon": 0.0}, {"lat": 38.960709, "is_disabled": 0, "type": "electric_scooter", "lon": -77.07299866666666, "bike_id": "36b02eb07af528b216dc866dec57003b", "fusion_lat": 0.0, "name": "36b02eb07af528b216dc866dec57003b", "is_reserved": 0, "rental_uris": {"android": "https://dc.lft.to/lastmile_qr_scan", "ios": "https://dc.lft.to/lastmile_qr_scan"}, "fusion_lon": 0.0}, {"lat": 38.914904166666666, "is_disabled": 0, "type": "electric_scooter", "lon": -77.03236116666666, "bike_id": "c444310c16b4b5e77789aa6a22950ceb", "fusion_lat": 0.0, "name": "c444310c16b4b5e77789aa6a22950ceb", "is_reserved": 0, "rental_uris": {"android": "https://dc.lft.to/lastmile_qr_scan", "ios": "https://dc.lft.to/lastmile_qr_scan"}, "fusion_lon": 0.0}, {"lat": 38.918776, "is_disabled": 0, "type": "electric_scooter", "lon": -77.03507366666666, "bike_id": "02cc6a1e16b4433335bd372031266211", "fusion_lat": 0.0, "name": "02cc6a1e16b4433335bd372031266211", "is_reserved": 0, "rental_uris": {"android": "https://dc.lft.to/lastmile_qr_scan", "ios": "https://dc.lft.to/lastmile_qr_scan"}, "fusion_lon": 0.0}, {"lat": 38.892293333333335, "is_disabled": 0, "type": "electric_scooter", "lon": -77.0500385, "bike_id": "4fcc8152e0e619c84fd5337d4a41fe88", "fusion_lat": 0.0, "name": "4fcc8152e0e619c84fd5337d4a41fe88", "is_reserved": 0, "rental_uris": {"android": "https://dc.lft.to/lastmile_qr_scan", "ios": "https://dc.lft.to/lastmile_qr_scan"}, "fusion_lon": 0.0}, {"lat": 38.895537, "is_disabled": 0, "type": "electric_scooter", "lon": -76.9337295, "bike_id": "67cc2b5109ea1b13a9b929b18f11b91d", "fusion_lat": 0.0, "name": "67cc2b5109ea1b13a9b929b18f11b91d", "is_reserved": 0, "rental_uris": {"android": "https://dc.lft.to/lastmile_qr_scan", "ios": "https://dc.lft.to/lastmile_qr_scan"}, "fusion_lon": 0.0}, {"lat": 38.92664166666667, "is_disabled": 0, "type": "electric_scooter", "lon": -77.0559905, "bike_id": "a2a103c0e52101d68c5cf1c1be02c9cf", "fusion_lat": 0.0, "name": "a2a103c0e52101d68c5cf1c1be02c9cf", "is_reserved": 0, "rental_uris": {"android": "https://dc.lft.to/lastmile_qr_scan", "ios": "https://dc.lft.to/lastmile_qr_scan"}, "fusion_lon": 0.0}, {"lat": 38.874717833333335, "is_disabled": 0, "type": "electric_scooter", "lon": -77.00518866666667, "bike_id": "511254a399aba63fcd4df347526531ab", "fusion_lat": 0.0, "name": "511254a399aba63fcd4df347526531ab", "is_reserved": 0, "rental_uris": {"android": "https://dc.lft.to/lastmile_qr_scan", "ios": "https://dc.lft.to/lastmile_qr_scan"}, "fusion_lon": 0.0}, {"lat": 38.935330666666665, "is_disabled": 0, "type": "electric_scooter", "lon": -77.0235045, "bike_id": "aeb1467159019de7dd61a658e7ddfdfc", "fusion_lat": 0.0, "name": "aeb1467159019de7dd61a658e7ddfdfc", "is_reserved": 0, "rental_uris": {"android": "https://dc.lft.to/lastmile_qr_scan", "ios": "https://dc.lft.to/lastmile_qr_scan"}, "fusion_lon": 0.0}, {"lat": 38.876845, "is_disabled": 0, "type": "electric_bike", "lon": -77.01610333333333, "bike_id": "38c06038ff506235fe0575c32d8514a8", "fusion_lat": 0.0, "name": "38c06038ff506235fe0575c32d8514a8", "is_reserved": 0, "rental_uris": {"android": "https://dc.lft.to/lastmile_qr_scan", "ios": "https://dc.lft.to/lastmile_qr_scan"}, "fusion_lon": 0.0}, {"lat": 38.9285955, "is_disabled": 0, "type": "electric_scooter", "lon": -77.02995616666666, "bike_id": "ca9a013a774d9c73097fcb87e3903203", "fusion_lat": 0.0, "name": "ca9a013a774d9c73097fcb87e3903203", "is_reserved": 0, "rental_uris": {"android": "https://dc.lft.to/lastmile_qr_scan", "ios": "https://dc.lft.to/lastmile_qr_scan"}, "fusion_lon": 0.0}, {"lat": 38.902118, "is_disabled": 0, "type": "electric_scooter", "lon": -76.98831616666666, "bike_id": "5df6d80b59df401a7ccdafa460a090fd", "fusion_lat": 0.0, "name": "5df6d80b59df401a7ccdafa460a090fd", "is_reserved": 0, "rental_uris": {"android": "https://dc.lft.to/lastmile_qr_scan", "ios": "https://dc.lft.to/lastmile_qr_scan"}, "fusion_lon": 0.0}, {"lat": 38.91473283333333, "is_disabled": 0, "type": "electric_scooter", "lon": -77.042617, "bike_id": "e8ec93bcab68569f049334d770645154", "fusion_lat": 0.0, "name": "e8ec93bcab68569f049334d770645154", "is_reserved": 0, "rental_uris": {"android": "https://dc.lft.to/lastmile_qr_scan", "ios": "https://dc.lft.to/lastmile_qr_scan"}, "fusion_lon": 0.0}, {"lat": 38.903639, "is_disabled": 0, "type": "electric_scooter", "lon": -76.9764835, "bike_id": "0fa16913c7f25d70c468e81bc8498cbf", "fusion_lat": 0.0, "name": "0fa16913c7f25d70c468e81bc8498cbf", "is_reserved": 0, "rental_uris": {"android": "https://dc.lft.to/lastmile_qr_scan", "ios": "https://dc.lft.to/lastmile_qr_scan"}, "fusion_lon": 0.0}, {"lat": 38.9345655, "is_disabled": 0, "type": "electric_scooter", "lon": -77.02841116666667, "bike_id": "fc47e47b098c84bde8c622208932ec85", "fusion_lat": 0.0, "name": "fc47e47b098c84bde8c622208932ec85", "is_reserved": 0, "rental_uris": {"android": "https://dc.lft.to/lastmile_qr_scan", "ios": "https://dc.lft.to/lastmile_qr_scan"}, "fusion_lon": 0.0}, {"lat": 38.919401, "is_disabled": 0, "type": "electric_scooter", "lon": -77.07060883333334, "bike_id": "a9846f4652d7de3fcb68cb3545e56e39", "fusion_lat": 0.0, "name": "a9846f4652d7de3fcb68cb3545e56e39", "is_reserved": 0, "rental_uris": {"android": "https://dc.lft.to/lastmile_qr_scan", "ios": "https://dc.lft.to/lastmile_qr_scan"}, "fusion_lon": 0.0}, {"lat": 38.93347, "is_disabled": 0, "type": "electric_scooter", "lon": -77.0249815, "bike_id": "7a8d0f2ccf579c3e6c857652956f3e97", "fusion_lat": 0.0, "name": "7a8d0f2ccf579c3e6c857652956f3e97", "is_reserved": 0, "rental_uris": {"android": "https://dc.lft.to/lastmile_qr_scan", "ios": "https://dc.lft.to/lastmile_qr_scan"}, "fusion_lon": 0.0}, {"lat": 38.954051, "is_disabled": 0, "type": "electric_scooter", "lon": -77.02743966666667, "bike_id": "07a7dfc0f3d0d4cd4168bdd39a3f7c12", "fusion_lat": 0.0, "name": "07a7dfc0f3d0d4cd4168bdd39a3f7c12", "is_reserved": 0, "rental_uris": {"android": "https://dc.lft.to/lastmile_qr_scan", "ios": "https://dc.lft.to/lastmile_qr_scan"}, "fusion_lon": 0.0}, {"lat": 38.8027015, "is_disabled": 0, "type": "electric_bike", "lon": -77.08111766666667, "bike_id": "925d7eafdd016e542c9c661758a2cfb4", "fusion_lat": 0.0, "name": "925d7eafdd016e542c9c661758a2cfb4", "is_reserved": 0, "rental_uris": {"android": "https://dc.lft.to/lastmile_qr_scan", "ios": "https://dc.lft.to/lastmile_qr_scan"}, "fusion_lon": 0.0}, {"lat": 38.89240483333333, "is_disabled": 0, "type": "electric_scooter", "lon": -77.05030366666666, "bike_id": "cf3121eb376fed62a8ec377eb2e2e8c0", "fusion_lat": 0.0, "name": "cf3121eb376fed62a8ec377eb2e2e8c0", "is_reserved": 0, "rental_uris": {"android": "https://dc.lft.to/lastmile_qr_scan", "ios": "https://dc.lft.to/lastmile_qr_scan"}, "fusion_lon": 0.0}, {"lat": 38.920367, "is_disabled": 0, "type": "electric_scooter", "lon": -77.023902, "bike_id": "d2d752a1437be0c73abd5e2316450a13", "fusion_lat": 0.0, "name": "d2d752a1437be0c73abd5e2316450a13", "is_reserved": 0, "rental_uris": {"android": "https://dc.lft.to/lastmile_qr_scan", "ios": "https://dc.lft.to/lastmile_qr_scan"}, "fusion_lon": 0.0}, {"lat": 38.86258083333333, "is_disabled": 0, "type": "electric_scooter", "lon": -76.99514216666667, "bike_id": "556e88527b52c94a7ee3bb35c329bcc3", "fusion_lat": 0.0, "name": "556e88527b52c94a7ee3bb35c329bcc3", "is_reserved": 0, "rental_uris": {"android": "https://dc.lft.to/lastmile_qr_scan", "ios": "https://dc.lft.to/lastmile_qr_scan"}, "fusion_lon": 0.0}, {"lat": 38.93858633333333, "is_disabled": 0, "type": "electric_scooter", "lon": -77.0232175, "bike_id": "87b26ef13295944d01fbbb270e6f0896", "fusion_lat": 0.0, "name": "87b26ef13295944d01fbbb270e6f0896", "is_reserved": 0, "rental_uris": {"android": "https://dc.lft.to/lastmile_qr_scan", "ios": "https://dc.lft.to/lastmile_qr_scan"}, "fusion_lon": 0.0}, {"lat": 38.89708816666667, "is_disabled": 0, "type": "electric_scooter", "lon": -77.0501725, "bike_id": "48c241717baf30627a849f19945fdf7e", "fusion_lat": 0.0, "name": "48c241717baf30627a849f19945fdf7e", "is_reserved": 0, "rental_uris": {"android": "https://dc.lft.to/lastmile_qr_scan", "ios": "https://dc.lft.to/lastmile_qr_scan"}, "fusion_lon": 0.0}, {"lat": 38.882814833333335, "is_disabled": 0, "type": "electric_bike", "lon": -76.987806, "bike_id": "10fedce83378a2379cc6faa420375884", "fusion_lat": 0.0, "name": "10fedce83378a2379cc6faa420375884", "is_reserved": 0, "rental_uris": {"android": "https://dc.lft.to/lastmile_qr_scan", "ios": "https://dc.lft.to/lastmile_qr_scan"}, "fusion_lon": 0.0}, {"lat": 38.898808, "is_disabled": 0, "type": "electric_scooter", "lon": -77.05337183333333, "bike_id": "b197caf06e7a5331a84635ce6fc2d572", "fusion_lat": 0.0, "name": "b197caf06e7a5331a84635ce6fc2d572", "is_reserved": 0, "rental_uris": {"android": "https://dc.lft.to/lastmile_qr_scan", "ios": "https://dc.lft.to/lastmile_qr_scan"}, "fusion_lon": 0.0}, {"lat": 38.89921233333333, "is_disabled": 0, "type": "electric_scooter", "lon": -76.93376133333334, "bike_id": "5b7cc0cf7c3452e487d3c76bcc333306", "fusion_lat": 0.0, "name": "5b7cc0cf7c3452e487d3c76bcc333306", "is_reserved": 0, "rental_uris": {"android": "https://dc.lft.to/lastmile_qr_scan", "ios": "https://dc.lft.to/lastmile_qr_scan"}, "fusion_lon": 0.0}, {"lat": 38.955556666666666, "is_disabled": 0, "type": "electric_bike", "lon": -76.9354905, "bike_id": "bdc502623c602cdeb56428b9e34d52ec", "fusion_lat": 0.0, "name": "bdc502623c602cdeb56428b9e34d52ec", "is_reserved": 0, "rental_uris": {"android": "https://dc.lft.to/lastmile_qr_scan", "ios": "https://dc.lft.to/lastmile_qr_scan"}, "fusion_lon": 0.0}, {"lat": 38.926817, "is_disabled": 0, "type": "electric_scooter", "lon": -77.05100666666667, "bike_id": "6cb20ae755a1cc992218261ce92e1125", "fusion_lat": 0.0, "name": "6cb20ae755a1cc992218261ce92e1125", "is_reserved": 0, "rental_uris": {"android": "https://dc.lft.to/lastmile_qr_scan", "ios": "https://dc.lft.to/lastmile_qr_scan"}, "fusion_lon": 0.0}, {"lat": 38.9155305, "is_disabled": 0, "type": "electric_scooter", "lon": -77.02426016666666, "bike_id": "56c699177664cbf921d57a4d3de9b71c", "fusion_lat": 0.0, "name": "56c699177664cbf921d57a4d3de9b71c", "is_reserved": 0, "rental_uris": {"android": "https://dc.lft.to/lastmile_qr_scan", "ios": "https://dc.lft.to/lastmile_qr_scan"}, "fusion_lon": 0.0}, {"lat": 38.86346233333333, "is_disabled": 0, "type": "electric_scooter", "lon": -76.98997183333333, "bike_id": "a00eb6aebe8f0248f36db7f4806981b3", "fusion_lat": 0.0, "name": "a00eb6aebe8f0248f36db7f4806981b3", "is_reserved": 0, "rental_uris": {"android": "https://dc.lft.to/lastmile_qr_scan", "ios": "https://dc.lft.to/lastmile_qr_scan"}, "fusion_lon": 0.0}, {"lat": 38.848650166666665, "is_disabled": 0, "type": "electric_scooter", "lon": -76.97689383333334, "bike_id": "efae289ec13814c778136fdfdad64411", "fusion_lat": 0.0, "name": "efae289ec13814c778136fdfdad64411", "is_reserved": 0, "rental_uris": {"android": "https://dc.lft.to/lastmile_qr_scan", "ios": "https://dc.lft.to/lastmile_qr_scan"}, "fusion_lon": 0.0}, {"lat": 38.914131, "is_disabled": 0, "type": "electric_scooter", "lon": -77.02022233333334, "bike_id": "d41aec1c9e190d2b17782a56e51958e7", "fusion_lat": 0.0, "name": "d41aec1c9e190d2b17782a56e51958e7", "is_reserved": 0, "rental_uris": {"android": "https://dc.lft.to/lastmile_qr_scan", "ios": "https://dc.lft.to/lastmile_qr_scan"}, "fusion_lon": 0.0}, {"lat": 38.898128, "is_disabled": 0, "type": "electric_scooter", "lon": -77.050208, "bike_id": "c5b2e2060d2f8fbff8fb06d1b957ef11", "fusion_lat": 0.0, "name": "c5b2e2060d2f8fbff8fb06d1b957ef11", "is_reserved": 0, "rental_uris": {"android": "https://dc.lft.to/lastmile_qr_scan", "ios": "https://dc.lft.to/lastmile_qr_scan"}, "fusion_lon": 0.0}, {"lat": 38.883336166666666, "is_disabled": 0, "type": "electric_scooter", "lon": -77.00927083333333, "bike_id": "03d403b73b69515be373b64e227ec627", "fusion_lat": 0.0, "name": "03d403b73b69515be373b64e227ec627", "is_reserved": 0, "rental_uris": {"android": "https://dc.lft.to/lastmile_qr_scan", "ios": "https://dc.lft.to/lastmile_qr_scan"}, "fusion_lon": 0.0}, {"lat": 38.91534383333333, "is_disabled": 0, "type": "electric_scooter", "lon": -77.00343466666666, "bike_id": "3b88d21e6c02a98c52331d2ceee8e52b", "fusion_lat": 0.0, "name": "3b88d21e6c02a98c52331d2ceee8e52b", "is_reserved": 0, "rental_uris": {"android": "https://dc.lft.to/lastmile_qr_scan", "ios": "https://dc.lft.to/lastmile_qr_scan"}, "fusion_lon": 0.0}, {"lat": 38.940876833333334, "is_disabled": 0, "type": "electric_scooter", "lon": -77.0612915, "bike_id": "1746fe341a54f9e96de975e4407c720c", "fusion_lat": 0.0, "name": "1746fe341a54f9e96de975e4407c720c", "is_reserved": 0, "rental_uris": {"android": "https://dc.lft.to/lastmile_qr_scan", "ios": "https://dc.lft.to/lastmile_qr_scan"}, "fusion_lon": 0.0}, {"lat": 38.92683533333334, "is_disabled": 0, "type": "electric_scooter", "lon": -77.0156965, "bike_id": "f7405bd4d2f890e662fe2ff933241031", "fusion_lat": 0.0, "name": "f7405bd4d2f890e662fe2ff933241031", "is_reserved": 0, "rental_uris": {"android": "https://dc.lft.to/lastmile_qr_scan", "ios": "https://dc.lft.to/lastmile_qr_scan"}, "fusion_lon": 0.0}, {"lat": 38.92184816666666, "is_disabled": 0, "type": "electric_scooter", "lon": -77.04344433333333, "bike_id": "2c929d32bc6fbfbd6ac8781880a16825", "fusion_lat": 0.0, "name": "2c929d32bc6fbfbd6ac8781880a16825", "is_reserved": 0, "rental_uris": {"android": "https://dc.lft.to/lastmile_qr_scan", "ios": "https://dc.lft.to/lastmile_qr_scan"}, "fusion_lon": 0.0}, {"lat": 38.90854983333333, "is_disabled": 0, "type": "electric_scooter", "lon": -77.00396, "bike_id": "c593138edcb5e51f514182625400542b", "fusion_lat": 0.0, "name": "c593138edcb5e51f514182625400542b", "is_reserved": 0, "rental_uris": {"android": "https://dc.lft.to/lastmile_qr_scan", "ios": "https://dc.lft.to/lastmile_qr_scan"}, "fusion_lon": 0.0}, {"lat": 38.939831833333336, "is_disabled": 0, "type": "electric_scooter", "lon": -77.02894, "bike_id": "9d6e1adb0ee61a70f6a39814fd21eaa7", "fusion_lat": 0.0, "name": "9d6e1adb0ee61a70f6a39814fd21eaa7", "is_reserved": 0, "rental_uris": {"android": "https://dc.lft.to/lastmile_qr_scan", "ios": "https://dc.lft.to/lastmile_qr_scan"}, "fusion_lon": 0.0}, {"lat": 38.949036, "is_disabled": 0, "type": "electric_bike", "lon": -76.972365, "bike_id": "9935caecfd3347ff0ce51531835a9d36", "fusion_lat": 0.0, "name": "9935caecfd3347ff0ce51531835a9d36", "is_reserved": 0, "rental_uris": {"android": "https://dc.lft.to/lastmile_qr_scan", "ios": "https://dc.lft.to/lastmile_qr_scan"}, "fusion_lon": 0.0}, {"lat": 38.894333333333336, "is_disabled": 0, "type": "electric_scooter", "lon": -77.0318755, "bike_id": "7b7755b28dfcd20fce14c5da4d6a32cb", "fusion_lat": 0.0, "name": "7b7755b28dfcd20fce14c5da4d6a32cb", "is_reserved": 0, "rental_uris": {"android": "https://dc.lft.to/lastmile_qr_scan", "ios": "https://dc.lft.to/lastmile_qr_scan"}, "fusion_lon": 0.0}, {"lat": 38.9525695, "is_disabled": 0, "type": "electric_bike", "lon": -77.02390416666667, "bike_id": "60207dfc24f3be65ad256c6e294ce978", "fusion_lat": 0.0, "name": "60207dfc24f3be65ad256c6e294ce978", "is_reserved": 0, "rental_uris": {"android": "https://dc.lft.to/lastmile_qr_scan", "ios": "https://dc.lft.to/lastmile_qr_scan"}, "fusion_lon": 0.0}, {"lat": 38.916845, "is_disabled": 0, "type": "electric_scooter", "lon": -77.02964666666666, "bike_id": "32dc21edee748d020e8314ade3c81fe5", "fusion_lat": 0.0, "name": "32dc21edee748d020e8314ade3c81fe5", "is_reserved": 0, "rental_uris": {"android": "https://dc.lft.to/lastmile_qr_scan", "ios": "https://dc.lft.to/lastmile_qr_scan"}, "fusion_lon": 0.0}, {"lat": 38.910045833333335, "is_disabled": 0, "type": "electric_scooter", "lon": -76.986123, "bike_id": "8619757c3e7f599d9013994e56bcde54", "fusion_lat": 0.0, "name": "8619757c3e7f599d9013994e56bcde54", "is_reserved": 0, "rental_uris": {"android": "https://dc.lft.to/lastmile_qr_scan", "ios": "https://dc.lft.to/lastmile_qr_scan"}, "fusion_lon": 0.0}, {"lat": 38.89961433333333, "is_disabled": 0, "type": "electric_scooter", "lon": -77.033985, "bike_id": "daff3453aa05702bf2c3784ae129ea06", "fusion_lat": 0.0, "name": "daff3453aa05702bf2c3784ae129ea06", "is_reserved": 0, "rental_uris": {"android": "https://dc.lft.to/lastmile_qr_scan", "ios": "https://dc.lft.to/lastmile_qr_scan"}, "fusion_lon": 0.0}, {"lat": 38.92420833333333, "is_disabled": 0, "type": "electric_scooter", "lon": -77.02972333333334, "bike_id": "be706a939c99d610e12d604c5874afd9", "fusion_lat": 0.0, "name": "be706a939c99d610e12d604c5874afd9", "is_reserved": 0, "rental_uris": {"android": "https://dc.lft.to/lastmile_qr_scan", "ios": "https://dc.lft.to/lastmile_qr_scan"}, "fusion_lon": 0.0}, {"lat": 38.901323166666664, "is_disabled": 0, "type": "electric_scooter", "lon": -77.015908, "bike_id": "c06f95f23701c6339fe98af3a99a5d21", "fusion_lat": 0.0, "name": "c06f95f23701c6339fe98af3a99a5d21", "is_reserved": 0, "rental_uris": {"android": "https://dc.lft.to/lastmile_qr_scan", "ios": "https://dc.lft.to/lastmile_qr_scan"}, "fusion_lon": 0.0}, {"lat": 38.930869, "is_disabled": 0, "type": "electric_scooter", "lon": -77.07748533333333, "bike_id": "abc047e29909af9cac25a14ece2ed18b", "fusion_lat": 0.0, "name": "abc047e29909af9cac25a14ece2ed18b", "is_reserved": 0, "rental_uris": {"android": "https://dc.lft.to/lastmile_qr_scan", "ios": "https://dc.lft.to/lastmile_qr_scan"}, "fusion_lon": 0.0}, {"lat": 38.93530116666667, "is_disabled": 0, "type": "electric_scooter", "lon": -77.03400766666667, "bike_id": "a57267b6269d3fe0ab585a63fc2e830f", "fusion_lat": 0.0, "name": "a57267b6269d3fe0ab585a63fc2e830f", "is_reserved": 0, "rental_uris": {"android": "https://dc.lft.to/lastmile_qr_scan", "ios": "https://dc.lft.to/lastmile_qr_scan"}, "fusion_lon": 0.0}, {"lat": 38.867003833333335, "is_disabled": 0, "type": "electric_scooter", "lon": -76.98713683333334, "bike_id": "4b9ff71c7fa82f91af48b24ba4d9becb", "fusion_lat": 0.0, "name": "4b9ff71c7fa82f91af48b24ba4d9becb", "is_reserved": 0, "rental_uris": {"android": "https://dc.lft.to/lastmile_qr_scan", "ios": "https://dc.lft.to/lastmile_qr_scan"}, "fusion_lon": 0.0}, {"lat": 38.933589166666664, "is_disabled": 0, "type": "electric_bike", "lon": -77.09960183333334, "bike_id": "cf20ee780937680d6638ed78ce3666bd", "fusion_lat": 0.0, "name": "cf20ee780937680d6638ed78ce3666bd", "is_reserved": 0, "rental_uris": {"android": "https://dc.lft.to/lastmile_qr_scan", "ios": "https://dc.lft.to/lastmile_qr_scan"}, "fusion_lon": 0.0}, {"lat": 38.92708866666667, "is_disabled": 0, "type": "electric_scooter", "lon": -77.021008, "bike_id": "a970547500dfb7659651b8fae13aa656", "fusion_lat": 0.0, "name": "a970547500dfb7659651b8fae13aa656", "is_reserved": 0, "rental_uris": {"android": "https://dc.lft.to/lastmile_qr_scan", "ios": "https://dc.lft.to/lastmile_qr_scan"}, "fusion_lon": 0.0}, {"lat": 38.928487, "is_disabled": 0, "type": "electric_scooter", "lon": -77.01381483333333, "bike_id": "f4a944a6f301b2f830b9022a1e95b84b", "fusion_lat": 0.0, "name": "f4a944a6f301b2f830b9022a1e95b84b", "is_reserved": 0, "rental_uris": {"android": "https://dc.lft.to/lastmile_qr_scan", "ios": "https://dc.lft.to/lastmile_qr_scan"}, "fusion_lon": 0.0}, {"lat": 38.958223333333336, "is_disabled": 0, "type": "electric_bike", "lon": -76.940914, "bike_id": "ea42f3014029fce68966931fa3f899cf", "fusion_lat": 0.0, "name": "ea42f3014029fce68966931fa3f899cf", "is_reserved": 0, "rental_uris": {"android": "https://dc.lft.to/lastmile_qr_scan", "ios": "https://dc.lft.to/lastmile_qr_scan"}, "fusion_lon": 0.0}, {"lat": 38.90078716666667, "is_disabled": 0, "type": "electric_scooter", "lon": -77.00207533333334, "bike_id": "32b9442da93bf107a0d43bcd8ccd951f", "fusion_lat": 0.0, "name": "32b9442da93bf107a0d43bcd8ccd951f", "is_reserved": 0, "rental_uris": {"android": "https://dc.lft.to/lastmile_qr_scan", "ios": "https://dc.lft.to/lastmile_qr_scan"}, "fusion_lon": 0.0}, {"lat": 38.91812316666667, "is_disabled": 0, "type": "electric_scooter", "lon": -77.000524, "bike_id": "0d133073054b3bb65353fd3a66b0996e", "fusion_lat": 0.0, "name": "0d133073054b3bb65353fd3a66b0996e", "is_reserved": 0, "rental_uris": {"android": "https://dc.lft.to/lastmile_qr_scan", "ios": "https://dc.lft.to/lastmile_qr_scan"}, "fusion_lon": 0.0}, {"lat": 38.910449666666665, "is_disabled": 0, "type": "electric_scooter", "lon": -77.01498683333334, "bike_id": "db0b8ec14e2022ee7daf145e780bf65a", "fusion_lat": 0.0, "name": "db0b8ec14e2022ee7daf145e780bf65a", "is_reserved": 0, "rental_uris": {"android": "https://dc.lft.to/lastmile_qr_scan", "ios": "https://dc.lft.to/lastmile_qr_scan"}, "fusion_lon": 0.0}, {"lat": 38.9027265, "is_disabled": 0, "type": "electric_scooter", "lon": -77.03961533333333, "bike_id": "e1d50b02066deee2f95a47fc1a56b2d6", "fusion_lat": 0.0, "name": "e1d50b02066deee2f95a47fc1a56b2d6", "is_reserved": 0, "rental_uris": {"android": "https://dc.lft.to/lastmile_qr_scan", "ios": "https://dc.lft.to/lastmile_qr_scan"}, "fusion_lon": 0.0}, {"lat": 38.89201966666667, "is_disabled": 0, "type": "electric_bike", "lon": -76.97050333333334, "bike_id": "c2b018f4b9381563e5d9cd6cd50322c4", "fusion_lat": 0.0, "name": "c2b018f4b9381563e5d9cd6cd50322c4", "is_reserved": 0, "rental_uris": {"android": "https://dc.lft.to/lastmile_qr_scan", "ios": "https://dc.lft.to/lastmile_qr_scan"}, "fusion_lon": 0.0}, {"lat": 38.921193833333334, "is_disabled": 0, "type": "electric_scooter", "lon": -77.04190033333333, "bike_id": "421bf6a2504c3480d8d17c30f485c0ef", "fusion_lat": 0.0, "name": "421bf6a2504c3480d8d17c30f485c0ef", "is_reserved": 0, "rental_uris": {"android": "https://dc.lft.to/lastmile_qr_scan", "ios": "https://dc.lft.to/lastmile_qr_scan"}, "fusion_lon": 0.0}, {"lat": 38.98817416666667, "is_disabled": 0, "type": "electric_bike", "lon": -77.02648916666666, "bike_id": "bf53936bcfb600c009bfe181fd4fdc6f", "fusion_lat": 0.0, "name": "bf53936bcfb600c009bfe181fd4fdc6f", "is_reserved": 0, "rental_uris": {"android": "https://dc.lft.to/lastmile_qr_scan", "ios": "https://dc.lft.to/lastmile_qr_scan"}, "fusion_lon": 0.0}, {"lat": 38.896854, "is_disabled": 0, "type": "electric_scooter", "lon": -76.9360475, "bike_id": "2b2ed7cc50f26ee3bb85cd2f1c54ce9a", "fusion_lat": 0.0, "name": "2b2ed7cc50f26ee3bb85cd2f1c54ce9a", "is_reserved": 0, "rental_uris": {"android": "https://dc.lft.to/lastmile_qr_scan", "ios": "https://dc.lft.to/lastmile_qr_scan"}, "fusion_lon": 0.0}, {"lat": 38.948228666666665, "is_disabled": 0, "type": "electric_scooter", "lon": -76.999024, "bike_id": "c2ebc26d96933b419b75196ee891088d", "fusion_lat": 0.0, "name": "c2ebc26d96933b419b75196ee891088d", "is_reserved": 0, "rental_uris": {"android": "https://dc.lft.to/lastmile_qr_scan", "ios": "https://dc.lft.to/lastmile_qr_scan"}, "fusion_lon": 0.0}, {"lat": 38.88451, "is_disabled": 0, "type": "electric_scooter", "lon": -76.95096933333333, "bike_id": "7b0120e9477df53e727acfb1333846c9", "fusion_lat": 0.0, "name": "7b0120e9477df53e727acfb1333846c9", "is_reserved": 0, "rental_uris": {"android": "https://dc.lft.to/lastmile_qr_scan", "ios": "https://dc.lft.to/lastmile_qr_scan"}, "fusion_lon": 0.0}, {"lat": 38.90119933333333, "is_disabled": 0, "type": "electric_scooter", "lon": -77.01781266666667, "bike_id": "7f088cf8bdb783ced19678e44f1035b1", "fusion_lat": 0.0, "name": "7f088cf8bdb783ced19678e44f1035b1", "is_reserved": 0, "rental_uris": {"android": "https://dc.lft.to/lastmile_qr_scan", "ios": "https://dc.lft.to/lastmile_qr_scan"}, "fusion_lon": 0.0}, {"lat": 38.924341166666665, "is_disabled": 0, "type": "electric_scooter", "lon": -77.04245933333333, "bike_id": "7b3683de829d4eaa078ecf70c23178f0", "fusion_lat": 0.0, "name": "7b3683de829d4eaa078ecf70c23178f0", "is_reserved": 0, "rental_uris": {"android": "https://dc.lft.to/lastmile_qr_scan", "ios": "https://dc.lft.to/lastmile_qr_scan"}, "fusion_lon": 0.0}, {"lat": 38.93061133333333, "is_disabled": 0, "type": "electric_scooter", "lon": -77.03397416666667, "bike_id": "d269cc474d9b227a80e1092a3c0132c1", "fusion_lat": 0.0, "name": "d269cc474d9b227a80e1092a3c0132c1", "is_reserved": 0, "rental_uris": {"android": "https://dc.lft.to/lastmile_qr_scan", "ios": "https://dc.lft.to/lastmile_qr_scan"}, "fusion_lon": 0.0}, {"lat": 38.944579166666664, "is_disabled": 0, "type": "electric_scooter", "lon": -77.06030766666667, "bike_id": "65d097151791c93df0ffaf57db66a709", "fusion_lat": 0.0, "name": "65d097151791c93df0ffaf57db66a709", "is_reserved": 0, "rental_uris": {"android": "https://dc.lft.to/lastmile_qr_scan", "ios": "https://dc.lft.to/lastmile_qr_scan"}, "fusion_lon": 0.0}, {"lat": 38.8321725, "is_disabled": 0, "type": "electric_bike", "lon": -76.94623333333334, "bike_id": "591b417b95e31b5160ea024b37806a43", "fusion_lat": 0.0, "name": "591b417b95e31b5160ea024b37806a43", "is_reserved": 0, "rental_uris": {"android": "https://dc.lft.to/lastmile_qr_scan", "ios": "https://dc.lft.to/lastmile_qr_scan"}, "fusion_lon": 0.0}, {"lat": 38.993287333333335, "is_disabled": 0, "type": "electric_bike", "lon": -77.0329545, "bike_id": "ac4aa225c86766560b7dd37ab21809cd", "fusion_lat": 0.0, "name": "ac4aa225c86766560b7dd37ab21809cd", "is_reserved": 0, "rental_uris": {"android": "https://dc.lft.to/lastmile_qr_scan", "ios": "https://dc.lft.to/lastmile_qr_scan"}, "fusion_lon": 0.0}, {"lat": 38.8733835, "is_disabled": 0, "type": "electric_bike", "lon": -77.01862066666666, "bike_id": "d7da0d40d6fb968c0c4611977a5e31c7", "fusion_lat": 0.0, "name": "d7da0d40d6fb968c0c4611977a5e31c7", "is_reserved": 0, "rental_uris": {"android": "https://dc.lft.to/lastmile_qr_scan", "ios": "https://dc.lft.to/lastmile_qr_scan"}, "fusion_lon": 0.0}, {"lat": 38.89992133333333, "is_disabled": 0, "type": "electric_scooter", "lon": -77.05256716666666, "bike_id": "570359574793a7ace40ddd460a692b85", "fusion_lat": 0.0, "name": "570359574793a7ace40ddd460a692b85", "is_reserved": 0, "rental_uris": {"android": "https://dc.lft.to/lastmile_qr_scan", "ios": "https://dc.lft.to/lastmile_qr_scan"}, "fusion_lon": 0.0}, {"lat": 38.909886166666666, "is_disabled": 0, "type": "electric_scooter", "lon": -77.0269455, "bike_id": "4be5aa05712e63676354b41979b42e91", "fusion_lat": 0.0, "name": "4be5aa05712e63676354b41979b42e91", "is_reserved": 0, "rental_uris": {"android": "https://dc.lft.to/lastmile_qr_scan", "ios": "https://dc.lft.to/lastmile_qr_scan"}, "fusion_lon": 0.0}, {"lat": 38.904127833333334, "is_disabled": 0, "type": "electric_scooter", "lon": -76.99279783333333, "bike_id": "e3e41862b7fa256d08e344e69c9bd05f", "fusion_lat": 0.0, "name": "e3e41862b7fa256d08e344e69c9bd05f", "is_reserved": 0, "rental_uris": {"android": "https://dc.lft.to/lastmile_qr_scan", "ios": "https://dc.lft.to/lastmile_qr_scan"}, "fusion_lon": 0.0}, {"lat": 38.8877085, "is_disabled": 0, "type": "electric_scooter", "lon": -77.04353033333334, "bike_id": "bbfc07ed44ad9b42003a6444470de47f", "fusion_lat": 0.0, "name": "bbfc07ed44ad9b42003a6444470de47f", "is_reserved": 0, "rental_uris": {"android": "https://dc.lft.to/lastmile_qr_scan", "ios": "https://dc.lft.to/lastmile_qr_scan"}, "fusion_lon": 0.0}, {"lat": 38.89995533333333, "is_disabled": 0, "type": "electric_scooter", "lon": -77.0212885, "bike_id": "50746830e0e78a8a9f3ac4874515d9b3", "fusion_lat": 0.0, "name": "50746830e0e78a8a9f3ac4874515d9b3", "is_reserved": 0, "rental_uris": {"android": "https://dc.lft.to/lastmile_qr_scan", "ios": "https://dc.lft.to/lastmile_qr_scan"}, "fusion_lon": 0.0}, {"lat": 38.90376583333333, "is_disabled": 0, "type": "electric_scooter", "lon": -77.04457633333334, "bike_id": "cc541f61b2ae4d0a98f762adaa29616f", "fusion_lat": 0.0, "name": "cc541f61b2ae4d0a98f762adaa29616f", "is_reserved": 0, "rental_uris": {"android": "https://dc.lft.to/lastmile_qr_scan", "ios": "https://dc.lft.to/lastmile_qr_scan"}, "fusion_lon": 0.0}, {"lat": 38.897725, "is_disabled": 0, "type": "electric_scooter", "lon": -77.05009416666667, "bike_id": "ba30c9e9ebd27d609dc6fdf10add104a", "fusion_lat": 0.0, "name": "ba30c9e9ebd27d609dc6fdf10add104a", "is_reserved": 0, "rental_uris": {"android": "https://dc.lft.to/lastmile_qr_scan", "ios": "https://dc.lft.to/lastmile_qr_scan"}, "fusion_lon": 0.0}, {"lat": 38.90198783333334, "is_disabled": 0, "type": "electric_scooter", "lon": -77.02463833333333, "bike_id": "b751f82a2639be45cf7f2ce1d3516429", "fusion_lat": 0.0, "name": "b751f82a2639be45cf7f2ce1d3516429", "is_reserved": 0, "rental_uris": {"android": "https://dc.lft.to/lastmile_qr_scan", "ios": "https://dc.lft.to/lastmile_qr_scan"}, "fusion_lon": 0.0}, {"lat": 38.93072166666666, "is_disabled": 0, "type": "electric_scooter", "lon": -77.07765616666667, "bike_id": "96d5ca6c0b0ec6a025ef4bddf5edeca4", "fusion_lat": 0.0, "name": "96d5ca6c0b0ec6a025ef4bddf5edeca4", "is_reserved": 0, "rental_uris": {"android": "https://dc.lft.to/lastmile_qr_scan", "ios": "https://dc.lft.to/lastmile_qr_scan"}, "fusion_lon": 0.0}, {"lat": 38.88485416666666, "is_disabled": 0, "type": "electric_scooter", "lon": -76.94521683333333, "bike_id": "3c5b8e18312415b45b6247ebd4d34085", "fusion_lat": 0.0, "name": "3c5b8e18312415b45b6247ebd4d34085", "is_reserved": 0, "rental_uris": {"android": "https://dc.lft.to/lastmile_qr_scan", "ios": "https://dc.lft.to/lastmile_qr_scan"}, "fusion_lon": 0.0}, {"lat": 38.9174325, "is_disabled": 0, "type": "electric_scooter", "lon": -77.02253783333333, "bike_id": "5d0956d18bfcecc7c4f8ce956acd713e", "fusion_lat": 0.0, "name": "5d0956d18bfcecc7c4f8ce956acd713e", "is_reserved": 0, "rental_uris": {"android": "https://dc.lft.to/lastmile_qr_scan", "ios": "https://dc.lft.to/lastmile_qr_scan"}, "fusion_lon": 0.0}, {"lat": 38.900299, "is_disabled": 0, "type": "electric_scooter", "lon": -76.98371383333334, "bike_id": "a8f9f6ec46bceeff56b64d9db8498db2", "fusion_lat": 0.0, "name": "a8f9f6ec46bceeff56b64d9db8498db2", "is_reserved": 0, "rental_uris": {"android": "https://dc.lft.to/lastmile_qr_scan", "ios": "https://dc.lft.to/lastmile_qr_scan"}, "fusion_lon": 0.0}, {"lat": 38.931514666666665, "is_disabled": 0, "type": "electric_scooter", "lon": -77.02152583333333, "bike_id": "e6a73166ad5a698c57edcbaf7810e701", "fusion_lat": 0.0, "name": "e6a73166ad5a698c57edcbaf7810e701", "is_reserved": 0, "rental_uris": {"android": "https://dc.lft.to/lastmile_qr_scan", "ios": "https://dc.lft.to/lastmile_qr_scan"}, "fusion_lon": 0.0}, {"lat": 38.85028633333334, "is_disabled": 0, "type": "electric_bike", "lon": -77.09802266666667, "bike_id": "89634b762cc535fc26051fdbd9a3afd3", "fusion_lat": 0.0, "name": "89634b762cc535fc26051fdbd9a3afd3", "is_reserved": 0, "rental_uris": {"android": "https://dc.lft.to/lastmile_qr_scan", "ios": "https://dc.lft.to/lastmile_qr_scan"}, "fusion_lon": 0.0}, {"lat": 38.94066333333333, "is_disabled": 0, "type": "electric_scooter", "lon": -76.99453733333333, "bike_id": "a8dea4a1e1c27286bdcc7a1d638a93d5", "fusion_lat": 0.0, "name": "a8dea4a1e1c27286bdcc7a1d638a93d5", "is_reserved": 0, "rental_uris": {"android": "https://dc.lft.to/lastmile_qr_scan", "ios": "https://dc.lft.to/lastmile_qr_scan"}, "fusion_lon": 0.0}, {"lat": 38.90265016666667, "is_disabled": 0, "type": "electric_scooter", "lon": -77.019807, "bike_id": "03b4902c0e3b603039297db6c2157a69", "fusion_lat": 0.0, "name": "03b4902c0e3b603039297db6c2157a69", "is_reserved": 0, "rental_uris": {"android": "https://dc.lft.to/lastmile_qr_scan", "ios": "https://dc.lft.to/lastmile_qr_scan"}, "fusion_lon": 0.0}, {"lat": 38.828760333333335, "is_disabled": 0, "type": "electric_bike", "lon": -77.1121585, "bike_id": "f1fc21dbb99008309a3cbbf64296d1e8", "fusion_lat": 0.0, "name": "f1fc21dbb99008309a3cbbf64296d1e8", "is_reserved": 0, "rental_uris": {"android": "https://dc.lft.to/lastmile_qr_scan", "ios": "https://dc.lft.to/lastmile_qr_scan"}, "fusion_lon": 0.0}, {"lat": 38.909887, "is_disabled": 0, "type": "electric_scooter", "lon": -76.99736633333333, "bike_id": "720f018bb4fd11fbefc5692b87871432", "fusion_lat": 0.0, "name": "720f018bb4fd11fbefc5692b87871432", "is_reserved": 0, "rental_uris": {"android": "https://dc.lft.to/lastmile_qr_scan", "ios": "https://dc.lft.to/lastmile_qr_scan"}, "fusion_lon": 0.0}, {"lat": 38.917770833333336, "is_disabled": 0, "type": "electric_scooter", "lon": -77.0364885, "bike_id": "c2c678345ef15c6b5b4ee15e232716e8", "fusion_lat": 0.0, "name": "c2c678345ef15c6b5b4ee15e232716e8", "is_reserved": 0, "rental_uris": {"android": "https://dc.lft.to/lastmile_qr_scan", "ios": "https://dc.lft.to/lastmile_qr_scan"}, "fusion_lon": 0.0}, {"lat": 38.893951666666666, "is_disabled": 0, "type": "electric_scooter", "lon": -77.04998083333334, "bike_id": "824ba34f1ab4f478fba167d510418e6b", "fusion_lat": 0.0, "name": "824ba34f1ab4f478fba167d510418e6b", "is_reserved": 0, "rental_uris": {"android": "https://dc.lft.to/lastmile_qr_scan", "ios": "https://dc.lft.to/lastmile_qr_scan"}, "fusion_lon": 0.0}, {"lat": 38.9231965, "is_disabled": 0, "type": "electric_scooter", "lon": -77.02800066666667, "bike_id": "e2a6d978eff00bf26eb943a9b5e2298d", "fusion_lat": 0.0, "name": "e2a6d978eff00bf26eb943a9b5e2298d", "is_reserved": 0, "rental_uris": {"android": "https://dc.lft.to/lastmile_qr_scan", "ios": "https://dc.lft.to/lastmile_qr_scan"}, "fusion_lon": 0.0}, {"lat": 38.928716666666666, "is_disabled": 0, "type": "electric_scooter", "lon": -77.01942166666667, "bike_id": "c8a5451d414fbf609e5166a759195509", "fusion_lat": 0.0, "name": "c8a5451d414fbf609e5166a759195509", "is_reserved": 0, "rental_uris": {"android": "https://dc.lft.to/lastmile_qr_scan", "ios": "https://dc.lft.to/lastmile_qr_scan"}, "fusion_lon": 0.0}, {"lat": 38.900766, "is_disabled": 0, "type": "electric_scooter", "lon": -77.0020645, "bike_id": "affcbdd09e7ba4079838c5362c7a703f", "fusion_lat": 0.0, "name": "affcbdd09e7ba4079838c5362c7a703f", "is_reserved": 0, "rental_uris": {"android": "https://dc.lft.to/lastmile_qr_scan", "ios": "https://dc.lft.to/lastmile_qr_scan"}, "fusion_lon": 0.0}, {"lat": 38.92763166666667, "is_disabled": 0, "type": "electric_scooter", "lon": -77.03256833333333, "bike_id": "b7db0fde8342054bbfcf4c08177973f8", "fusion_lat": 0.0, "name": "b7db0fde8342054bbfcf4c08177973f8", "is_reserved": 0, "rental_uris": {"android": "https://dc.lft.to/lastmile_qr_scan", "ios": "https://dc.lft.to/lastmile_qr_scan"}, "fusion_lon": 0.0}, {"lat": 38.918337666666666, "is_disabled": 0, "type": "electric_scooter", "lon": -77.023857, "bike_id": "735e3876350a8abd00c82d7d46afef27", "fusion_lat": 0.0, "name": "735e3876350a8abd00c82d7d46afef27", "is_reserved": 0, "rental_uris": {"android": "https://dc.lft.to/lastmile_qr_scan", "ios": "https://dc.lft.to/lastmile_qr_scan"}, "fusion_lon": 0.0}, {"lat": 39.004802166666664, "is_disabled": 0, "type": "electric_bike", "lon": -76.901261, "bike_id": "95294a052ca944d02313cd2ac1efc94e", "fusion_lat": 0.0, "name": "95294a052ca944d02313cd2ac1efc94e", "is_reserved": 0, "rental_uris": {"android": "https://dc.lft.to/lastmile_qr_scan", "ios": "https://dc.lft.to/lastmile_qr_scan"}, "fusion_lon": 0.0}, {"lat": 38.88299583333333, "is_disabled": 0, "type": "electric_scooter", "lon": -77.01746933333334, "bike_id": "4b2bfd87f27a2195d42b29d9a8c7c921", "fusion_lat": 0.0, "name": "4b2bfd87f27a2195d42b29d9a8c7c921", "is_reserved": 0, "rental_uris": {"android": "https://dc.lft.to/lastmile_qr_scan", "ios": "https://dc.lft.to/lastmile_qr_scan"}, "fusion_lon": 0.0}, {"lat": 38.91711266666667, "is_disabled": 0, "type": "electric_scooter", "lon": -77.0386495, "bike_id": "1a5166f383a5c3cac59d6f25f65d0dd5", "fusion_lat": 0.0, "name": "1a5166f383a5c3cac59d6f25f65d0dd5", "is_reserved": 0, "rental_uris": {"android": "https://dc.lft.to/lastmile_qr_scan", "ios": "https://dc.lft.to/lastmile_qr_scan"}, "fusion_lon": 0.0}, {"lat": 38.90564783333333, "is_disabled": 0, "type": "electric_scooter", "lon": -77.00722566666667, "bike_id": "00fca212b645a2a098c2ba328ef6e8bd", "fusion_lat": 0.0, "name": "00fca212b645a2a098c2ba328ef6e8bd", "is_reserved": 0, "rental_uris": {"android": "https://dc.lft.to/lastmile_qr_scan", "ios": "https://dc.lft.to/lastmile_qr_scan"}, "fusion_lon": 0.0}, {"lat": 38.9279825, "is_disabled": 0, "type": "electric_scooter", "lon": -77.03815933333334, "bike_id": "4d0e4f504f8ff3677ba6cce272c386c9", "fusion_lat": 0.0, "name": "4d0e4f504f8ff3677ba6cce272c386c9", "is_reserved": 0, "rental_uris": {"android": "https://dc.lft.to/lastmile_qr_scan", "ios": "https://dc.lft.to/lastmile_qr_scan"}, "fusion_lon": 0.0}, {"lat": 38.932471, "is_disabled": 0, "type": "electric_scooter", "lon": -77.02942383333334, "bike_id": "6ee56da440cb51e22b559ec83ae6c903", "fusion_lat": 0.0, "name": "6ee56da440cb51e22b559ec83ae6c903", "is_reserved": 0, "rental_uris": {"android": "https://dc.lft.to/lastmile_qr_scan", "ios": "https://dc.lft.to/lastmile_qr_scan"}, "fusion_lon": 0.0}, {"lat": 38.8850415, "is_disabled": 0, "type": "electric_scooter", "lon": -77.00566183333333, "bike_id": "cf4e53de69195a73e39b2de59134e340", "fusion_lat": 0.0, "name": "cf4e53de69195a73e39b2de59134e340", "is_reserved": 0, "rental_uris": {"android": "https://dc.lft.to/lastmile_qr_scan", "ios": "https://dc.lft.to/lastmile_qr_scan"}, "fusion_lon": 0.0}, {"lat": 38.97840266666667, "is_disabled": 0, "type": "electric_bike", "lon": -77.0264405, "bike_id": "d8ace52e8575b30821613102cd6d0939", "fusion_lat": 0.0, "name": "d8ace52e8575b30821613102cd6d0939", "is_reserved": 0, "rental_uris": {"android": "https://dc.lft.to/lastmile_qr_scan", "ios": "https://dc.lft.to/lastmile_qr_scan"}, "fusion_lon": 0.0}, {"lat": 38.890017, "is_disabled": 0, "type": "electric_scooter", "lon": -77.04890566666667, "bike_id": "88b0256a673fe82992f8621bfdfa7c40", "fusion_lat": 0.0, "name": "88b0256a673fe82992f8621bfdfa7c40", "is_reserved": 0, "rental_uris": {"android": "https://dc.lft.to/lastmile_qr_scan", "ios": "https://dc.lft.to/lastmile_qr_scan"}, "fusion_lon": 0.0}, {"lat": 38.86381983333333, "is_disabled": 0, "type": "electric_scooter", "lon": -76.99246933333333, "bike_id": "c663ec757109789dfd7440ad23497d94", "fusion_lat": 0.0, "name": "c663ec757109789dfd7440ad23497d94", "is_reserved": 0, "rental_uris": {"android": "https://dc.lft.to/lastmile_qr_scan", "ios": "https://dc.lft.to/lastmile_qr_scan"}, "fusion_lon": 0.0}, {"lat": 38.9177865, "is_disabled": 0, "type": "electric_scooter", "lon": -77.04421366666666, "bike_id": "f780beb285c032803fff4321d772a0ea", "fusion_lat": 0.0, "name": "f780beb285c032803fff4321d772a0ea", "is_reserved": 0, "rental_uris": {"android": "https://dc.lft.to/lastmile_qr_scan", "ios": "https://dc.lft.to/lastmile_qr_scan"}, "fusion_lon": 0.0}, {"lat": 38.92791066666667, "is_disabled": 0, "type": "electric_bike", "lon": -76.97223266666667, "bike_id": "0701e2f0d4d1d672d0c1a5566404593f", "fusion_lat": 0.0, "name": "0701e2f0d4d1d672d0c1a5566404593f", "is_reserved": 0, "rental_uris": {"android": "https://dc.lft.to/lastmile_qr_scan", "ios": "https://dc.lft.to/lastmile_qr_scan"}, "fusion_lon": 0.0}, {"lat": 38.855236166666664, "is_disabled": 0, "type": "electric_bike", "lon": -77.12032733333334, "bike_id": "fb9d370e4251b3bdd08e4a27e6012e06", "fusion_lat": 0.0, "name": "fb9d370e4251b3bdd08e4a27e6012e06", "is_reserved": 0, "rental_uris": {"android": "https://dc.lft.to/lastmile_qr_scan", "ios": "https://dc.lft.to/lastmile_qr_scan"}, "fusion_lon": 0.0}, {"lat": 38.92356083333333, "is_disabled": 0, "type": "electric_scooter", "lon": -77.04390016666666, "bike_id": "4aefd2dedc1c8620d39520bbc8da4c58", "fusion_lat": 0.0, "name": "4aefd2dedc1c8620d39520bbc8da4c58", "is_reserved": 0, "rental_uris": {"android": "https://dc.lft.to/lastmile_qr_scan", "ios": "https://dc.lft.to/lastmile_qr_scan"}, "fusion_lon": 0.0}, {"lat": 38.943177666666664, "is_disabled": 0, "type": "electric_scooter", "lon": -77.05930616666667, "bike_id": "a8c4b788e9d1001247ff8ccd4123f30f", "fusion_lat": 0.0, "name": "a8c4b788e9d1001247ff8ccd4123f30f", "is_reserved": 0, "rental_uris": {"android": "https://dc.lft.to/lastmile_qr_scan", "ios": "https://dc.lft.to/lastmile_qr_scan"}, "fusion_lon": 0.0}, {"lat": 38.86584633333333, "is_disabled": 0, "type": "electric_bike", "lon": -76.97299033333333, "bike_id": "6e42135a59ed223003890fe4739bf456", "fusion_lat": 0.0, "name": "6e42135a59ed223003890fe4739bf456", "is_reserved": 0, "rental_uris": {"android": "https://dc.lft.to/lastmile_qr_scan", "ios": "https://dc.lft.to/lastmile_qr_scan"}, "fusion_lon": 0.0}, {"lat": 38.92445583333333, "is_disabled": 0, "type": "electric_scooter", "lon": -77.02030766666667, "bike_id": "8c04cca49321ba190452963611147fa8", "fusion_lat": 0.0, "name": "8c04cca49321ba190452963611147fa8", "is_reserved": 0, "rental_uris": {"android": "https://dc.lft.to/lastmile_qr_scan", "ios": "https://dc.lft.to/lastmile_qr_scan"}, "fusion_lon": 0.0}, {"lat": 38.85463166666667, "is_disabled": 0, "type": "electric_scooter", "lon": -76.972366, "bike_id": "83e7dd14494dc0b2bb750b0c3897b5ce", "fusion_lat": 0.0, "name": "83e7dd14494dc0b2bb750b0c3897b5ce", "is_reserved": 0, "rental_uris": {"android": "https://dc.lft.to/lastmile_qr_scan", "ios": "https://dc.lft.to/lastmile_qr_scan"}, "fusion_lon": 0.0}, {"lat": 38.929772666666665, "is_disabled": 0, "type": "electric_scooter", "lon": -77.01299883333333, "bike_id": "3ef820495ee0622fb72229365c24a845", "fusion_lat": 0.0, "name": "3ef820495ee0622fb72229365c24a845", "is_reserved": 0, "rental_uris": {"android": "https://dc.lft.to/lastmile_qr_scan", "ios": "https://dc.lft.to/lastmile_qr_scan"}, "fusion_lon": 0.0}, {"lat": 38.923725, "is_disabled": 0, "type": "electric_scooter", "lon": -77.03152816666666, "bike_id": "a1d4a04ad2cc10c55c690de48d7abd87", "fusion_lat": 0.0, "name": "a1d4a04ad2cc10c55c690de48d7abd87", "is_reserved": 0, "rental_uris": {"android": "https://dc.lft.to/lastmile_qr_scan", "ios": "https://dc.lft.to/lastmile_qr_scan"}, "fusion_lon": 0.0}, {"lat": 38.897338500000004, "is_disabled": 0, "type": "electric_scooter", "lon": -77.047628, "bike_id": "4bd0e9e30e182b61e91c1642468f266b", "fusion_lat": 0.0, "name": "4bd0e9e30e182b61e91c1642468f266b", "is_reserved": 0, "rental_uris": {"android": "https://dc.lft.to/lastmile_qr_scan", "ios": "https://dc.lft.to/lastmile_qr_scan"}, "fusion_lon": 0.0}, {"lat": 38.89736833333333, "is_disabled": 0, "type": "electric_scooter", "lon": -77.0477375, "bike_id": "119b9db217d7d4799555587dc533f30a", "fusion_lat": 0.0, "name": "119b9db217d7d4799555587dc533f30a", "is_reserved": 0, "rental_uris": {"android": "https://dc.lft.to/lastmile_qr_scan", "ios": "https://dc.lft.to/lastmile_qr_scan"}, "fusion_lon": 0.0}, {"lat": 38.8714635, "is_disabled": 0, "type": "electric_bike", "lon": -76.9369675, "bike_id": "7bb2aad8f440a494844ae4d425f061f7", "fusion_lat": 0.0, "name": "7bb2aad8f440a494844ae4d425f061f7", "is_reserved": 0, "rental_uris": {"android": "https://dc.lft.to/lastmile_qr_scan", "ios": "https://dc.lft.to/lastmile_qr_scan"}, "fusion_lon": 0.0}, {"lat": 38.9073055, "is_disabled": 0, "type": "electric_scooter", "lon": -77.03457, "bike_id": "caa57d77f50e0ba13e3540441e0be05e", "fusion_lat": 0.0, "name": "caa57d77f50e0ba13e3540441e0be05e", "is_reserved": 0, "rental_uris": {"android": "https://dc.lft.to/lastmile_qr_scan", "ios": "https://dc.lft.to/lastmile_qr_scan"}, "fusion_lon": 0.0}, {"lat": 38.96138766666667, "is_disabled": 0, "type": "electric_scooter", "lon": -77.0222935, "bike_id": "9f8470040bd337be000881b20213ec1a", "fusion_lat": 0.0, "name": "9f8470040bd337be000881b20213ec1a", "is_reserved": 0, "rental_uris": {"android": "https://dc.lft.to/lastmile_qr_scan", "ios": "https://dc.lft.to/lastmile_qr_scan"}, "fusion_lon": 0.0}, {"lat": 38.85707083333333, "is_disabled": 0, "type": "electric_bike", "lon": -76.97119416666666, "bike_id": "4936120e164fc03b644f51dfb9db7a9e", "fusion_lat": 0.0, "name": "4936120e164fc03b644f51dfb9db7a9e", "is_reserved": 0, "rental_uris": {"android": "https://dc.lft.to/lastmile_qr_scan", "ios": "https://dc.lft.to/lastmile_qr_scan"}, "fusion_lon": 0.0}, {"lat": 38.866222, "is_disabled": 0, "type": "electric_scooter", "lon": -76.986374, "bike_id": "7387b0778e1733b4118c3ce3836ff5f4", "fusion_lat": 0.0, "name": "7387b0778e1733b4118c3ce3836ff5f4", "is_reserved": 0, "rental_uris": {"android": "https://dc.lft.to/lastmile_qr_scan", "ios": "https://dc.lft.to/lastmile_qr_scan"}, "fusion_lon": 0.0}, {"lat": 38.93751316666667, "is_disabled": 0, "type": "electric_scooter", "lon": -77.0345265, "bike_id": "f6d28b182ea3073b2931661231c0a565", "fusion_lat": 0.0, "name": "f6d28b182ea3073b2931661231c0a565", "is_reserved": 0, "rental_uris": {"android": "https://dc.lft.to/lastmile_qr_scan", "ios": "https://dc.lft.to/lastmile_qr_scan"}, "fusion_lon": 0.0}, {"lat": 38.90642716666667, "is_disabled": 0, "type": "electric_scooter", "lon": -76.99027216666667, "bike_id": "206aacb76ba1de6ea8dd0b2fe5178d45", "fusion_lat": 0.0, "name": "206aacb76ba1de6ea8dd0b2fe5178d45", "is_reserved": 0, "rental_uris": {"android": "https://dc.lft.to/lastmile_qr_scan", "ios": "https://dc.lft.to/lastmile_qr_scan"}, "fusion_lon": 0.0}, {"lat": 38.8442865, "is_disabled": 0, "type": "electric_scooter", "lon": -76.997806, "bike_id": "5934551502b79138010bbbf137a58136", "fusion_lat": 0.0, "name": "5934551502b79138010bbbf137a58136", "is_reserved": 0, "rental_uris": {"android": "https://dc.lft.to/lastmile_qr_scan", "ios": "https://dc.lft.to/lastmile_qr_scan"}, "fusion_lon": 0.0}, {"lat": 38.956112, "is_disabled": 0, "type": "electric_scooter", "lon": -77.01009783333333, "bike_id": "2af4784a53d6ad2b1fe1ee415ce886b1", "fusion_lat": 0.0, "name": "2af4784a53d6ad2b1fe1ee415ce886b1", "is_reserved": 0, "rental_uris": {"android": "https://dc.lft.to/lastmile_qr_scan", "ios": "https://dc.lft.to/lastmile_qr_scan"}, "fusion_lon": 0.0}, {"lat": 38.85214216666667, "is_disabled": 0, "type": "electric_bike", "lon": -76.99578216666667, "bike_id": "3d59fdd9edabae609d685ca87e4f9008", "fusion_lat": 0.0, "name": "3d59fdd9edabae609d685ca87e4f9008", "is_reserved": 0, "rental_uris": {"android": "https://dc.lft.to/lastmile_qr_scan", "ios": "https://dc.lft.to/lastmile_qr_scan"}, "fusion_lon": 0.0}, {"lat": 38.91837316666667, "is_disabled": 0, "type": "electric_scooter", "lon": -77.02302083333333, "bike_id": "dca6867738e4d8af874b1ad36c4dc0b1", "fusion_lat": 0.0, "name": "dca6867738e4d8af874b1ad36c4dc0b1", "is_reserved": 0, "rental_uris": {"android": "https://dc.lft.to/lastmile_qr_scan", "ios": "https://dc.lft.to/lastmile_qr_scan"}, "fusion_lon": 0.0}, {"lat": 38.9210115, "is_disabled": 0, "type": "electric_scooter", "lon": -77.03914983333334, "bike_id": "7667b3f5980dc7d1bed27ecfea4a598d", "fusion_lat": 0.0, "name": "7667b3f5980dc7d1bed27ecfea4a598d", "is_reserved": 0, "rental_uris": {"android": "https://dc.lft.to/lastmile_qr_scan", "ios": "https://dc.lft.to/lastmile_qr_scan"}, "fusion_lon": 0.0}, {"lat": 38.90773466666667, "is_disabled": 0, "type": "electric_scooter", "lon": -77.00214733333334, "bike_id": "f41b783bdb50bdff03e48f748b4a2f6f", "fusion_lat": 0.0, "name": "f41b783bdb50bdff03e48f748b4a2f6f", "is_reserved": 0, "rental_uris": {"android": "https://dc.lft.to/lastmile_qr_scan", "ios": "https://dc.lft.to/lastmile_qr_scan"}, "fusion_lon": 0.0}, {"lat": 38.87692666666667, "is_disabled": 0, "type": "electric_scooter", "lon": -77.00410983333333, "bike_id": "db628a1e8e58d7138b9d2ebf27f3083c", "fusion_lat": 0.0, "name": "db628a1e8e58d7138b9d2ebf27f3083c", "is_reserved": 0, "rental_uris": {"android": "https://dc.lft.to/lastmile_qr_scan", "ios": "https://dc.lft.to/lastmile_qr_scan"}, "fusion_lon": 0.0}, {"lat": 38.805019, "is_disabled": 0, "type": "electric_bike", "lon": -77.04133166666666, "bike_id": "8a0f3a39f38e23efb4267cfc807636e4", "fusion_lat": 0.0, "name": "8a0f3a39f38e23efb4267cfc807636e4", "is_reserved": 0, "rental_uris": {"android": "https://dc.lft.to/lastmile_qr_scan", "ios": "https://dc.lft.to/lastmile_qr_scan"}, "fusion_lon": 0.0}, {"lat": 38.921221333333335, "is_disabled": 0, "type": "electric_scooter", "lon": -77.04111133333333, "bike_id": "f7b477bb7e9adb3f373d2e04b1c0fc8b", "fusion_lat": 0.0, "name": "f7b477bb7e9adb3f373d2e04b1c0fc8b", "is_reserved": 0, "rental_uris": {"android": "https://dc.lft.to/lastmile_qr_scan", "ios": "https://dc.lft.to/lastmile_qr_scan"}, "fusion_lon": 0.0}, {"lat": 38.95297033333333, "is_disabled": 0, "type": "electric_bike", "lon": -76.98206566666667, "bike_id": "40f36067812de5089336e22378208b9d", "fusion_lat": 0.0, "name": "40f36067812de5089336e22378208b9d", "is_reserved": 0, "rental_uris": {"android": "https://dc.lft.to/lastmile_qr_scan", "ios": "https://dc.lft.to/lastmile_qr_scan"}, "fusion_lon": 0.0}, {"lat": 38.93337016666667, "is_disabled": 0, "type": "electric_scooter", "lon": -76.9930455, "bike_id": "35f7d2f9586b8d2553c513f196d35dd2", "fusion_lat": 0.0, "name": "35f7d2f9586b8d2553c513f196d35dd2", "is_reserved": 0, "rental_uris": {"android": "https://dc.lft.to/lastmile_qr_scan", "ios": "https://dc.lft.to/lastmile_qr_scan"}, "fusion_lon": 0.0}, {"lat": 38.922428, "is_disabled": 0, "type": "electric_scooter", "lon": -77.04572383333333, "bike_id": "adf10e20ae2d210245a0b769c6dc28b2", "fusion_lat": 0.0, "name": "adf10e20ae2d210245a0b769c6dc28b2", "is_reserved": 0, "rental_uris": {"android": "https://dc.lft.to/lastmile_qr_scan", "ios": "https://dc.lft.to/lastmile_qr_scan"}, "fusion_lon": 0.0}, {"lat": 38.9031895, "is_disabled": 0, "type": "electric_scooter", "lon": -77.03789216666667, "bike_id": "93c526d86899e3ef88914873a2ff0e08", "fusion_lat": 0.0, "name": "93c526d86899e3ef88914873a2ff0e08", "is_reserved": 0, "rental_uris": {"android": "https://dc.lft.to/lastmile_qr_scan", "ios": "https://dc.lft.to/lastmile_qr_scan"}, "fusion_lon": 0.0}, {"lat": 38.972240666666664, "is_disabled": 0, "type": "electric_bike", "lon": -76.99346866666667, "bike_id": "b94474b990b87726607932e024ce8646", "fusion_lat": 0.0, "name": "b94474b990b87726607932e024ce8646", "is_reserved": 0, "rental_uris": {"android": "https://dc.lft.to/lastmile_qr_scan", "ios": "https://dc.lft.to/lastmile_qr_scan"}, "fusion_lon": 0.0}, {"lat": 38.933196833333334, "is_disabled": 0, "type": "electric_scooter", "lon": -77.045282, "bike_id": "a278bba9673da65f20eb2dba8a1203c8", "fusion_lat": 0.0, "name": "a278bba9673da65f20eb2dba8a1203c8", "is_reserved": 0, "rental_uris": {"android": "https://dc.lft.to/lastmile_qr_scan", "ios": "https://dc.lft.to/lastmile_qr_scan"}, "fusion_lon": 0.0}, {"lat": 38.948990333333334, "is_disabled": 0, "type": "electric_scooter", "lon": -77.03047466666666, "bike_id": "bb665e3e43481c58ff8dd46cd777ea70", "fusion_lat": 0.0, "name": "bb665e3e43481c58ff8dd46cd777ea70", "is_reserved": 0, "rental_uris": {"android": "https://dc.lft.to/lastmile_qr_scan", "ios": "https://dc.lft.to/lastmile_qr_scan"}, "fusion_lon": 0.0}, {"lat": 38.933761833333335, "is_disabled": 0, "type": "electric_scooter", "lon": -77.03799816666667, "bike_id": "f269b18eb300c0cf65a29777529c63c5", "fusion_lat": 0.0, "name": "f269b18eb300c0cf65a29777529c63c5", "is_reserved": 0, "rental_uris": {"android": "https://dc.lft.to/lastmile_qr_scan", "ios": "https://dc.lft.to/lastmile_qr_scan"}, "fusion_lon": 0.0}, {"lat": 38.892224666666664, "is_disabled": 0, "type": "electric_scooter", "lon": -77.02093766666667, "bike_id": "b9d58bf60ee1ef5db1bcbef1b7f5ea4f", "fusion_lat": 0.0, "name": "b9d58bf60ee1ef5db1bcbef1b7f5ea4f", "is_reserved": 0, "rental_uris": {"android": "https://dc.lft.to/lastmile_qr_scan", "ios": "https://dc.lft.to/lastmile_qr_scan"}, "fusion_lon": 0.0}, {"lat": 38.912583166666664, "is_disabled": 0, "type": "electric_scooter", "lon": -77.03863266666667, "bike_id": "f004d71df94042e5e3cff42ad2851510", "fusion_lat": 0.0, "name": "f004d71df94042e5e3cff42ad2851510", "is_reserved": 0, "rental_uris": {"android": "https://dc.lft.to/lastmile_qr_scan", "ios": "https://dc.lft.to/lastmile_qr_scan"}, "fusion_lon": 0.0}, {"lat": 38.91057633333333, "is_disabled": 0, "type": "electric_scooter", "lon": -77.05243433333334, "bike_id": "45bcf0c70a3f7457227282a7c238e601", "fusion_lat": 0.0, "name": "45bcf0c70a3f7457227282a7c238e601", "is_reserved": 0, "rental_uris": {"android": "https://dc.lft.to/lastmile_qr_scan", "ios": "https://dc.lft.to/lastmile_qr_scan"}, "fusion_lon": 0.0}, {"lat": 38.885979166666665, "is_disabled": 0, "type": "electric_scooter", "lon": -77.0219805, "bike_id": "d5c896f6326e2668696e9540e1d636af", "fusion_lat": 0.0, "name": "d5c896f6326e2668696e9540e1d636af", "is_reserved": 0, "rental_uris": {"android": "https://dc.lft.to/lastmile_qr_scan", "ios": "https://dc.lft.to/lastmile_qr_scan"}, "fusion_lon": 0.0}, {"lat": 38.92049133333333, "is_disabled": 0, "type": "electric_scooter", "lon": -77.0287745, "bike_id": "58c70d04ec292dee3c62e29316c4425d", "fusion_lat": 0.0, "name": "58c70d04ec292dee3c62e29316c4425d", "is_reserved": 0, "rental_uris": {"android": "https://dc.lft.to/lastmile_qr_scan", "ios": "https://dc.lft.to/lastmile_qr_scan"}, "fusion_lon": 0.0}, {"lat": 38.921532, "is_disabled": 0, "type": "electric_scooter", "lon": -77.03376416666667, "bike_id": "917a385cd0327a425be4ac3e8ae27dc5", "fusion_lat": 0.0, "name": "917a385cd0327a425be4ac3e8ae27dc5", "is_reserved": 0, "rental_uris": {"android": "https://dc.lft.to/lastmile_qr_scan", "ios": "https://dc.lft.to/lastmile_qr_scan"}, "fusion_lon": 0.0},