{"data": {"bikes": [{"lon": -77.02910083333333, "fusion_lat": 0.0, "type": "electric_scooter", "lat": 38.9236635, "is_disabled": 0, "name": "902c5522a334b9ab1a17e12223c41d5f", "is_reserved": 0, "bike_id": "902c5522a334b9ab1a17e12223c41d5f", "fusion_lon": 0.0, "rental_uris": {"ios": "https://dc.lft.to/lastmile_qr_scan", "android": "https://dc.lft.to/lastmile_qr_scan"}}, {"lon": -77.0628275, "fusion_lat": 0.0, "type": "electric_bike", "lat": 38.905408, "is_disabled": 0, "name": "386523a0343beae2936675fcb350c064", "is_reserved": 0, "bike_id": "386523a0343beae2936675fcb350c064", "fusion_lon": 0.0, "rental_uris": {"ios": "https://dc.lft.to/lastmile_qr_scan", "android": "https://dc.lft.to/lastmile_qr_scan"}}, {"lon": -77.05032183333333, "fusion_lat": 0.0, "type": "electric_scooter", "lat": 38.923678333333335, "is_disabled": 0, "name": "25a69a40aeb3452647c2d3576d07d0e4", "is_reserved": 0, "bike_id": "25a69a40aeb3452647c2d3576d07d0e4", "fusion_lon": 0.0, "rental_uris": {"ios": "https://dc.lft.to/lastmile_qr_scan", "android": "https://dc.lft.to/lastmile_qr_scan"}}, {"lon": -77.01705266666667, "fusion_lat": 0.0, "type": "electric_scooter", "lat": 38.902523333333335, "is_disabled": 0, "name": "d91b36dfb78a18cd915b22268110a637", "is_reserved": 0, "bike_id": "d91b36dfb78a18cd915b22268110a637", "fusion_lon": 0.0, "rental_uris": {"ios": "https://dc.lft.to/lastmile_qr_scan", "android": "https://dc.lft.to/lastmile_qr_scan"}}, {"lon": -77.021566, "fusion_lat": 0.0, "type": "electric_scooter", "lat": 38.92601766666667, "is_disabled": 0, "name": "398bdd83acae872e06f513c87aa1a29e", "is_reserved": 0, "bike_id": "398bdd83acae872e06f513c87aa1a29e", "fusion_lon": 0.0, "rental_uris": {"ios": "https://dc.lft.to/lastmile_qr_scan", "android": "https://dc.lft.to/lastmile_qr_scan"}}, {"lon": -77.00978566666667, "fusion_lat": 0.0, "type": "electric_scooter", "lat": 38.897865, "is_disabled": 0, "name": "1e2b5edc4adaeeda8bc66513eea25491", "is_reserved": 0, "bike_id": "1e2b5edc4adaeeda8bc66513eea25491", "fusion_lon": 0.0, "rental_uris": {"ios": "https://dc.lft.to/lastmile_qr_scan", "android": "https://dc.lft.to/lastmile_qr_scan"}}, {"lon": -77.03210983333334, "fusion_lat": 0.0, "type": "electric_scooter", "lat": 38.9109505, "is_disabled": 0, "name": "668ec2a9ed0ba45adc6757e89e6ac3e1", "is_reserved": 0, "bike_id": "668ec2a9ed0ba45adc6757e89e6ac3e1", "fusion_lon": 0.0, "rental_uris": {"ios": "https://dc.lft.to/lastmile_qr_scan", "android": "https://dc.lft.to/lastmile_qr_scan"}}, {"lon": -77.0611995, "fusion_lat": 0.0, "type": "electric_scooter", "lat": 38.90191466666667, "is_disabled": 0, "name": "7eeb20716a89400909bb05c81a604cbd", "is_reserved": 0, "bike_id": "7eeb20716a89400909bb05c81a604cbd", "fusion_lon": 0.0, "rental_uris": {"ios": "https://dc.lft.to/lastmile_qr_scan", "android": "https://dc.lft.to/lastmile_qr_scan"}}, {"lon": -77.0364725, "fusion_lat": 0.0, "type": "electric_scooter", "lat": 38.936629333333336, "is_disabled": 0, "name": "8dceb5b63d1b7b378f3a9ebb82cb8553", "is_reserved": 0, "bike_id": "8dceb5b63d1b7b378f3a9ebb82cb8553", "fusion_lon": 0.0, "rental_uris": {"ios": "https://dc.lft.to/lastmile_qr_scan", "android": "https://dc.lft.to/lastmile_qr_scan"}}, {"lon": -77.02432816666666, "fusion_lat": 0.0, "type": "electric_scooter", "lat": 38.95623583333333, "is_disabled": 0, "name": "4116966b1e5ed77309d95d1d70ec60cd", "is_reserved": 0, "bike_id": "4116966b1e5ed77309d95d1d70ec60cd", "fusion_lon": 0.0, "rental_uris": {"ios": "https://dc.lft.to/lastmile_qr_scan", "android": "https://dc.lft.to/lastmile_qr_scan"}}, {"lon": -77.03171216666667, "fusion_lat": 0.0, "type": "electric_scooter", "lat": 38.914138, "is_disabled": 0, "name": "96099311e7c78062eafc53edd7a7db95", "is_reserved": 0, "bike_id": "96099311e7c78062eafc53edd7a7db95", "fusion_lon": 0.0, "rental_uris": {"ios": "https://dc.lft.to/lastmile_qr_scan", "android": "https://dc.lft.to/lastmile_qr_scan"}}, {"lon": -77.06016583333333, "fusion_lat": 0.0, "type": "electric_scooter", "lat": 38.90444083333333, "is_disabled": 0, "name": "186b224a4b418ec158aeff1b3612ea82", "is_reserved": 0, "bike_id": "186b224a4b418ec158aeff1b3612ea82", "fusion_lon": 0.0, "rental_uris": {"ios": "https://dc.lft.to/lastmile_qr_scan", "android": "https://dc.lft.to/lastmile_qr_scan"}}, {"lon": -76.98369283333334, "fusion_lat": 0.0, "type": "electric_scooter", "lat": 38.91501983333333, "is_disabled": 0, "name": "0b7695a3fd57ad693802bf748cf4cd40", "is_reserved": 0, "bike_id": "0b7695a3fd57ad693802bf748cf4cd40", "fusion_lon": 0.0, "rental_uris": {"ios": "https://dc.lft.to/lastmile_qr_scan", "android": "https://dc.lft.to/lastmile_qr_scan"}}, {"lon": -77.0378225, "fusion_lat": 0.0, "type": "electric_bike", "lat": 38.996786666666665, "is_disabled": 0, "name": "b8a10a597b9477ff08efc3e1165c910a", "is_reserved": 0, "bike_id": "b8a10a597b9477ff08efc3e1165c910a", "fusion_lon": 0.0, "rental_uris": {"ios": "https://dc.lft.to/lastmile_qr_scan", "android": "https://dc.lft.to/lastmile_qr_scan"}}, {"lon": -77.02415616666667, "fusion_lat": 0.0, "type": "electric_scooter", "lat": 38.9207325, "is_disabled": 0, "name": "307a1fa8066f081ecb929244e75856ec", "is_reserved": 0, "bike_id": "307a1fa8066f081ecb929244e75856ec", "fusion_lon": 0.0, "rental_uris": {"ios": "https://dc.lft.to/lastmile_qr_scan", "android": "https://dc.lft.to/lastmile_qr_scan"}}, {"lon": -77.011153, "fusion_lat": 0.0, "type": "electric_scooter", "lat": 38.90691483333333, "is_disabled": 0, "name": "895b216b70c68c9b82926dfc7585faad", "is_reserved": 0, "bike_id": "895b216b70c68c9b82926dfc7585faad", "fusion_lon": 0.0, "rental_uris": {"ios": "https://dc.lft.to/lastmile_qr_scan", "android": "https://dc.lft.to/lastmile_qr_scan"}}, {"lon": -77.02697233333333, "fusion_lat": 0.0, "type": "electric_scooter", "lat": 38.8993365, "is_disabled": 0, "name": "9f53955368580eb08e8da0faf52fee86", "is_reserved": 0, "bike_id": "9f53955368580eb08e8da0faf52fee86", "fusion_lon": 0.0, "rental_uris": {"ios": "https://dc.lft.to/lastmile_qr_scan", "android": "https://dc.lft.to/lastmile_qr_scan"}}, {"lon": -77.01607216666666, "fusion_lat": 0.0, "type": "electric_scooter", "lat": 38.899605333333334, "is_disabled": 0, "name": "9b39a5cd27ba528973fcef5574dfa475", "is_reserved": 0, "bike_id": "9b39a5cd27ba528973fcef5574dfa475", "fusion_lon": 0.0, "rental_uris": {"ios": "https://dc.lft.to/lastmile_qr_scan", "android": "https://dc.lft.to/lastmile_qr_scan"}}, {"lon": -77.010368, "fusion_lat": 0.0, "type": "electric_scooter", "lat": 38.9202855, "is_disabled": 0, "name": "06b4f499f9764ed9fa67b5dacf175a76", "is_reserved": 0, "bike_id": "06b4f499f9764ed9fa67b5dacf175a76", "fusion_lon": 0.0, "rental_uris": {"ios": "https://dc.lft.to/lastmile_qr_scan", "android": "https://dc.lft.to/lastmile_qr_scan"}}, {"lon": -77.02122816666666, "fusion_lat": 0.0, "type": "electric_scooter", "lat": 38.89942966666667, "is_disabled": 0, "name": "88fa0e07dae762513e683c8498a0bb67", "is_reserved": 0, "bike_id": "88fa0e07dae762513e683c8498a0bb67", "fusion_lon": 0.0, "rental_uris": {"ios": "https://dc.lft.to/lastmile_qr_scan", "android": "https://dc.lft.to/lastmile_qr_scan"}}, {"lon": -77.032168, "fusion_lat": 0.0, "type": "electric_scooter", "lat": 38.903596666666665, "is_disabled": 0, "name": "ee9f63a1a0807f838515718ef63bf35f", "is_reserved": 0, "bike_id": "ee9f63a1a0807f838515718ef63bf35f", "fusion_lon": 0.0, "rental_uris": {"ios": "https://dc.lft.to/lastmile_qr_scan", "android": "https://dc.lft.to/lastmile_qr_scan"}}, {"lon": -77.02229333333334, "fusion_lat": 0.0, "type": "electric_scooter", "lat": 38.926211333333335, "is_disabled": 0, "name": "0dcf76dd5edc57db020c19acd1c1fe4e", "is_reserved": 0, "bike_id": "0dcf76dd5edc57db020c19acd1c1fe4e", "fusion_lon": 0.0, "rental_uris": {"ios": "https://dc.lft.to/lastmile_qr_scan", "android": "https://dc.lft.to/lastmile_qr_scan"}}, {"lon": -77.040571, "fusion_lat": 0.0, "type": "electric_scooter", "lat": 38.925464, "is_disabled": 0, "name": "35f29df6e5ed549df57d423b84bb01e4", "is_reserved": 0, "bike_id": "35f29df6e5ed549df57d423b84bb01e4", "fusion_lon": 0.0, "rental_uris": {"ios": "https://dc.lft.to/lastmile_qr_scan", "android": "https://dc.lft.to/lastmile_qr_scan"}}, {"lon": -77.02592466666667, "fusion_lat": 0.0, "type": "electric_scooter", "lat": 38.904261166666664, "is_disabled": 0, "name": "3c054f0799649ae177fc9d7b7d9130ce", "is_reserved": 0, "bike_id": "3c054f0799649ae177fc9d7b7d9130ce", "fusion_lon": 0.0, "rental_uris": {"ios": "https://dc.lft.to/lastmile_qr_scan", "android": "https://dc.lft.to/lastmile_qr_scan"}}, {"lon": -77.022025, "fusion_lat": 0.0, "type": "electric_scooter", "lat": 38.887106, "is_disabled": 0, "name": "ecf3cd4659d296c583fd730f55345ac1", "is_reserved": 0, "bike_id": "ecf3cd4659d296c583fd730f55345ac1", "fusion_lon": 0.0, "rental_uris": {"ios": "https://dc.lft.to/lastmile_qr_scan", "android": "https://dc.lft.to/lastmile_qr_scan"}}, {"lon": -77.03251366666667, "fusion_lat": 0.0, "type": "electric_scooter", "lat": 38.933749, "is_disabled": 0, "name": "89313960cf054ba6e0d8e19af8fb77f8", "is_reserved": 0, "bike_id": "89313960cf054ba6e0d8e19af8fb77f8", "fusion_lon": 0.0, "rental_uris": {"ios": "https://dc.lft.to/lastmile_qr_scan", "android": "https://dc.lft.to/lastmile_qr_scan"}}, {"lon": -77.0188165, "fusion_lat": 0.0, "type": "electric_scooter", "lat": 38.92161433333333, "is_disabled": 0, "name": "aa5ee31c1bee3a72f3b0d1c8b8845577", "is_reserved": 0, "bike_id": "aa5ee31c1bee3a72f3b0d1c8b8845577", "fusion_lon": 0.0, "rental_uris": {"ios": "https://dc.lft.to/lastmile_qr_scan", "android": "https://dc.lft.to/lastmile_qr_scan"}}, {"lon": -77.0487115, "fusion_lat": 0.0, "type": "electric_scooter", "lat": 38.892200833333334, "is_disabled": 0, "name": "fcef011a21ec34e1bb07922ae9517aa5", "is_reserved": 0, "bike_id": "fcef011a21ec34e1bb07922ae9517aa5", "fusion_lon": 0.0, "rental_uris": {"ios": "https://dc.lft.to/lastmile_qr_scan", "android": "https://dc.lft.to/lastmile_qr_scan"}}, {"lon": -77.0552515, "fusion_lat": 0.0, "type": "electric_scooter", "lat": 38.89719183333333, "is_disabled": 0, "name": "4f78e4179350d0473547194b41cc5f1c", "is_reserved": 0, "bike_id": "4f78e4179350d0473547194b41cc5f1c", "fusion_lon": 0.0, "rental_uris": {"ios": "https://dc.lft.to/lastmile_qr_scan", "android": "https://dc.lft.to/lastmile_qr_scan"}}, {"lon": -77.04171316666667, "fusion_lat": 0.0, "type": "electric_scooter", "lat": 38.90744, "is_disabled": 0, "name": "14300ecc15949100e7ff4283824a8045", "is_reserved": 0, "bike_id": "14300ecc15949100e7ff4283824a8045", "fusion_lon": 0.0, "rental_uris": {"ios": "https://dc.lft.to/lastmile_qr_scan", "android": "https://dc.lft.to/lastmile_qr_scan"}}, {"lon": -77.03458766666667, "fusion_lat": 0.0, "type": "electric_scooter", "lat": 38.920642666666666, "is_disabled": 0, "name": "2955a383996c4816f746ce4fca2abafa", "is_reserved": 0, "bike_id": "2955a383996c4816f746ce4fca2abafa", "fusion_lon": 0.0, "rental_uris": {"ios": "https://dc.lft.to/lastmile_qr_scan", "android": "https://dc.lft.to/lastmile_qr_scan"}}, {"lon": -77.0418955, "fusion_lat": 0.0, "type": "electric_scooter", "lat": 38.904773666666664, "is_disabled": 0, "name": "c385b1fa870fe81925e576f4dd327182", "is_reserved": 0, "bike_id": "c385b1fa870fe81925e576f4dd327182", "fusion_lon": 0.0, "rental_uris": {"ios": "https://dc.lft.to/lastmile_qr_scan", "android": "https://dc.lft.to/lastmile_qr_scan"}}, {"lon": -76.99800316666666, "fusion_lat": 0.0, "type": "electric_scooter", "lat": 38.874916999999996, "is_disabled": 0, "name": "226ed99db8c681d25b51dbbb973da481", "is_reserved": 0, "bike_id": "226ed99db8c681d25b51dbbb973da481", "fusion_lon": 0.0, "rental_uris": {"ios": "https://dc.lft.to/lastmile_qr_scan", "android": "https://dc.lft.to/lastmile_qr_scan"}}, {"lon": -77.0340685, "fusion_lat": 0.0, "type": "electric_scooter", "lat": 38.92392433333333, "is_disabled": 0, "name": "d2985ad32de75868b3447d6901a17fed", "is_reserved": 0, "bike_id": "d2985ad32de75868b3447d6901a17fed", "fusion_lon": 0.0, "rental_uris": {"ios": "https://dc.lft.to/lastmile_qr_scan", "android": "https://dc.lft.to/lastmile_qr_scan"}}, {"lon": -77.01952016666667, "fusion_lat": 0.0, "type": "electric_scooter", "lat": 38.92420666666666, "is_disabled": 0, "name": "8be2145f3ab5cec43e681dec511aaad7", "is_reserved": 0, "bike_id": "8be2145f3ab5cec43e681dec511aaad7", "fusion_lon": 0.0, "rental_uris": {"ios": "https://dc.lft.to/lastmile_qr_scan", "android": "https://dc.lft.to/lastmile_qr_scan"}}, {"lon": -77.0296975, "fusion_lat": 0.0, "type": "electric_scooter", "lat": 38.926832166666664, "is_disabled": 0, "name": "99e8aedd604b43a1be1734dad3eaadf2", "is_reserved": 0, "bike_id": "99e8aedd604b43a1be1734dad3eaadf2", "fusion_lon": 0.0, "rental_uris": {"ios": "https://dc.lft.to/lastmile_qr_scan", "android": "https://dc.lft.to/lastmile_qr_scan"}}, {"lon": -77.030335, "fusion_lat": 0.0, "type": "electric_scooter", "lat": 38.8983045, "is_disabled": 0, "name": "bbf00f01d9873792eb53e52c25354cb7", "is_reserved": 0, "bike_id": "bbf00f01d9873792eb53e52c25354cb7", "fusion_lon": 0.0, "rental_uris": {"ios": "https://dc.lft.to/lastmile_qr_scan", "android": "https://dc.lft.to/lastmile_qr_scan"}}, {"lon": -77.02678666666667, "fusion_lat": 0.0, "type": "electric_scooter", "lat": 38.898234333333335, "is_disabled": 0, "name": "832a58fe50c2505ff008e29b03396f96", "is_reserved": 0, "bike_id": "832a58fe50c2505ff008e29b03396f96", "fusion_lon": 0.0, "rental_uris": {"ios": "https://dc.lft.to/lastmile_qr_scan", "android": "https://dc.lft.to/lastmile_qr_scan"}}, {"lon": -77.01364383333333, "fusion_lat": 0.0, "type": "electric_scooter", "lat": 38.863637833333335, "is_disabled": 0, "name": "20c84569ac3587f50b25817a84faca62", "is_reserved": 0, "bike_id": "20c84569ac3587f50b25817a84faca62", "fusion_lon": 0.0, "rental_uris": {"ios": "https://dc.lft.to/lastmile_qr_scan", "android": "https://dc.lft.to/lastmile_qr_scan"}}, {"lon": -77.1115675, "fusion_lat": 0.0, "type": "electric_bike", "lat": 38.882485, "is_disabled": 0, "name": "9038fa976b6e004a4f3829954e4006b6", "is_reserved": 0, "bike_id": "9038fa976b6e004a4f3829954e4006b6", "fusion_lon": 0.0, "rental_uris": {"ios": "https://dc.lft.to/lastmile_qr_scan", "android": "https://dc.lft.to/lastmile_qr_scan"}}, {"lon": -77.0320165, "fusion_lat": 0.0, "type": "electric_scooter", "lat": 38.91676133333333, "is_disabled": 0, "name": "054d0c33bd9c71f9ea6ed10d822a1d50", "is_reserved": 0, "bike_id": "054d0c33bd9c71f9ea6ed10d822a1d50", "fusion_lon": 0.0, "rental_uris": {"ios": "https://dc.lft.to/lastmile_qr_scan", "android": "https://dc.lft.to/lastmile_qr_scan"}}, {"lon": -77.032182, "fusion_lat": 0.0, "type": "electric_scooter", "lat": 38.917803666666664, "is_disabled": 0, "name": "7817f13a92ac8b442976a36c514d0fe2", "is_reserved": 0, "bike_id": "7817f13a92ac8b442976a36c514d0fe2", "fusion_lon": 0.0, "rental_uris": {"ios": "https://dc.lft.to/lastmile_qr_scan", "android": "https://dc.lft.to/lastmile_qr_scan"}}, {"lon": -77.012784, "fusion_lat": 0.0, "type": "electric_scooter", "lat": 38.95647433333333, "is_disabled": 0, "name": "b078137aa4b297b3e8a92d0a5318c2ac", "is_reserved": 0, "bike_id": "b078137aa4b297b3e8a92d0a5318c2ac", "fusion_lon": 0.0, "rental_uris": {"ios": "https://dc.lft.to/lastmile_qr_scan", "android": "https://dc.lft.to/lastmile_qr_scan"}}, {"lon": -77.04028333333333, "fusion_lat": 0.0, "type": "electric_scooter", "lat": 38.91786716666667, "is_disabled": 0, "name": "468975841c5fb40d8d77d0719c81e7ea", "is_reserved": 0, "bike_id": "468975841c5fb40d8d77d0719c81e7ea", "fusion_lon": 0.0, "rental_uris": {"ios": "https://dc.lft.to/lastmile_qr_scan", "android": "https://dc.lft.to/lastmile_qr_scan"}}, {"lon": -77.04555033333334, "fusion_lat": 0.0, "type": "electric_scooter", "lat": 38.92416933333333, "is_disabled": 0, "name": "f133d655ff78b747a0db179a9f3cd0c3", "is_reserved": 0, "bike_id": "f133d655ff78b747a0db179a9f3cd0c3", "fusion_lon": 0.0, "rental_uris": {"ios": "https://dc.lft.to/lastmile_qr_scan", "android": "https://dc.lft.to/lastmile_qr_scan"}}, {"lon": -77.0302675, "fusion_lat": 0.0, "type": "electric_scooter", "lat": 38.89224816666667, "is_disabled": 0, "name": "16f94f9b09e0d4bbab039ae9e924dbbc", "is_reserved": 0, "bike_id": "16f94f9b09e0d4bbab039ae9e924dbbc", "fusion_lon": 0.0, "rental_uris": {"ios": "https://dc.lft.to/lastmile_qr_scan", "android": "https://dc.lft.to/lastmile_qr_scan"}}, {"lon": -76.95635433333334, "fusion_lat": 0.0, "type": "electric_bike", "lat": 38.88508866666667, "is_disabled": 0, "name": "cff24bccb11d6fa0da16a409a0b27c2f", "is_reserved": 0, "bike_id": "cff24bccb11d6fa0da16a409a0b27c2f", "fusion_lon": 0.0, "rental_uris": {"ios": "https://dc.lft.to/lastmile_qr_scan", "android": "https://dc.lft.to/lastmile_qr_scan"}}, {"lon": -77.0386985, "fusion_lat": 0.0, "type": "electric_scooter", "lat": 38.912668833333335, "is_disabled": 0, "name": "dfcb445a422c4d5325fc9ce985a27102", "is_reserved": 0, "bike_id": "dfcb445a422c4d5325fc9ce985a27102", "fusion_lon": 0.0, "rental_uris": {"ios": "https://dc.lft.to/lastmile_qr_scan", "android": "https://dc.lft.to/lastmile_qr_scan"}}, {"lon": -77.00891316666667, "fusion_lat": 0.0, "type": "electric_scooter", "lat": 38.90645833333333, "is_disabled": 0, "name": "5039dbae58aa80e8d8bcc7974c714aca", "is_reserved": 0, "bike_id": "5039dbae58aa80e8d8bcc7974c714aca", "fusion_lon": 0.0, "rental_uris": {"ios": "https://dc.lft.to/lastmile_qr_scan", "android": "https://dc.lft.to/lastmile_qr_scan"}}, {"lon": -76.98023766666667, "fusion_lat": 0.0, "type": "electric_scooter", "lat": 38.906658, "is_disabled": 0, "name": "0687114f6c0765263e18975d17b5d2ff", "is_reserved": 0, "bike_id": "0687114f6c0765263e18975d17b5d2ff", "fusion_lon": 0.0, "rental_uris": {"ios": "https://dc.lft.to/lastmile_qr_scan", "android": "https://dc.lft.to/lastmile_qr_scan"}}, {"lon": -77.0123005, "fusion_lat": 0.0, "type": "electric_scooter", "lat": 38.915795833333334, "is_disabled": 0, "name": "c2d365c4a9ba58bc32dccc8604969b7b", "is_reserved": 0, "bike_id": "c2d365c4a9ba58bc32dccc8604969b7b", "fusion_lon": 0.0, "rental_uris": {"ios": "https://dc.lft.to/lastmile_qr_scan", "android": "https://dc.lft.to/lastmile_qr_scan"}}, {"lon": -77.02212933333334, "fusion_lat": 0.0, "type": "electric_scooter", "lat": 38.907296333333335, "is_disabled": 0, "name": "70fcef476cb2002d33bcf12fcd7b1dfa", "is_reserved": 0, "bike_id": "70fcef476cb2002d33bcf12fcd7b1dfa", "fusion_lon": 0.0, "rental_uris": {"ios": "https://dc.lft.to/lastmile_qr_scan", "android": "https://dc.lft.to/lastmile_qr_scan"}}, {"lon": -77.0406005, "fusion_lat": 0.0, "type": "electric_scooter", "lat": 38.89997983333333, "is_disabled": 0, "name": "f9704f0cca49eb4983e49be792ab57aa", "is_reserved": 0, "bike_id": "f9704f0cca49eb4983e49be792ab57aa", "fusion_lon": 0.0, "rental_uris": {"ios": "https://dc.lft.to/lastmile_qr_scan", "android": "https://dc.lft.to/lastmile_qr_scan"}}, {"lon": -77.0185625, "fusion_lat": 0.0, "type": "electric_scooter", "lat": 38.900817333333336, "is_disabled": 0, "name": "d90acbce4199ee723cba388efc5268fb", "is_reserved": 0, "bike_id": "d90acbce4199ee723cba388efc5268fb", "fusion_lon": 0.0, "rental_uris": {"ios": "https://dc.lft.to/lastmile_qr_scan", "android": "https://dc.lft.to/lastmile_qr_scan"}}, {"lon": -77.02244866666666, "fusion_lat": 0.0, "type": "electric_scooter", "lat": 38.9248525, "is_disabled": 0, "name": "b11faaad121554bac5dabe66f6067b3f", "is_reserved": 0, "bike_id": "b11faaad121554bac5dabe66f6067b3f", "fusion_lon": 0.0, "rental_uris": {"ios": "https://dc.lft.to/lastmile_qr_scan", "android": "https://dc.lft.to/lastmile_qr_scan"}}, {"lon": -77.026875, "fusion_lat": 0.0, "type": "electric_scooter", "lat": 38.94333483333333, "is_disabled": 0, "name": "c2185b5f79acb6c24ea5fcd44fda9f2f", "is_reserved": 0, "bike_id": "c2185b5f79acb6c24ea5fcd44fda9f2f", "fusion_lon": 0.0, "rental_uris": {"ios": "https://dc.lft.to/lastmile_qr_scan", "android": "https://dc.lft.to/lastmile_qr_scan"}}, {"lon": -77.03361966666667, "fusion_lat": 0.0, "type": "electric_scooter", "lat": 38.89723983333333, "is_disabled": 0, "name": "f6ff11aaf82c92964534123b92e407d9", "is_reserved": 0, "bike_id": "f6ff11aaf82c92964534123b92e407d9", "fusion_lon": 0.0, "rental_uris": {"ios": "https://dc.lft.to/lastmile_qr_scan", "android": "https://dc.lft.to/lastmile_qr_scan"}}, {"lon": -77.05411483333333, "fusion_lat": 0.0, "type": "electric_scooter", "lat": 38.927950833333334, "is_disabled": 0, "name": "865f94c2cb3662b09bcaf60f9c857627", "is_reserved": 0, "bike_id": "865f94c2cb3662b09bcaf60f9c857627", "fusion_lon": 0.0, "rental_uris": {"ios": "https://dc.lft.to/lastmile_qr_scan", "android": "https://dc.lft.to/lastmile_qr_scan"}}, {"lon": -77.0485855, "fusion_lat": 0.0, "type": "electric_scooter", "lat": 38.899565833333334, "is_disabled": 0, "name": "96d60fc31e565f7138f8af9fea8e3f42", "is_reserved": 0, "bike_id": "96d60fc31e565f7138f8af9fea8e3f42", "fusion_lon": 0.0, "rental_uris": {"ios": "https://dc.lft.to/lastmile_qr_scan", "android": "https://dc.lft.to/lastmile_qr_scan"}}, {"lon": -77.0236195, "fusion_lat": 0.0, "type": "electric_scooter", "lat": 38.91552033333333, "is_disabled": 0, "name": "03f442b6218c7fdc3b70cd36ecbe392b", "is_reserved": 0, "bike_id": "03f442b6218c7fdc3b70cd36ecbe392b", "fusion_lon": 0.0, "rental_uris": {"ios": "https://dc.lft.to/lastmile_qr_scan", "android": "https://dc.lft.to/lastmile_qr_scan"}}, {"lon": -77.030986, "fusion_lat": 0.0, "type": "electric_scooter", "lat": 38.9324635, "is_disabled": 0, "name": "43a5c3fdcbf30d8066d38bc9b85ea240", "is_reserved": 0, "bike_id": "43a5c3fdcbf30d8066d38bc9b85ea240", "fusion_lon": 0.0, "rental_uris": {"ios": "https://dc.lft.to/lastmile_qr_scan", "android": "https://dc.lft.to/lastmile_qr_scan"}}, {"lon": -77.02230883333333, "fusion_lat": 0.0, "type": "electric_scooter", "lat": 38.924661666666665, "is_disabled": 0, "name": "74bc207c9a81c128a18746c3aad6fd44", "is_reserved": 0, "bike_id": "74bc207c9a81c128a18746c3aad6fd44", "fusion_lon": 0.0, "rental_uris": {"ios": "https://dc.lft.to/lastmile_qr_scan", "android": "https://dc.lft.to/lastmile_qr_scan"}}, {"lon": -77.02212383333334, "fusion_lat": 0.0, "type": "electric_scooter", "lat": 38.89567366666667, "is_disabled": 0, "name": "4a2b62842757b227fa72ed4708625398", "is_reserved": 0, "bike_id": "4a2b62842757b227fa72ed4708625398", "fusion_lon": 0.0, "rental_uris": {"ios": "https://dc.lft.to/lastmile_qr_scan", "android": "https://dc.lft.to/lastmile_qr_scan"}}, {"lon": -77.01673016666666, "fusion_lat": 0.0, "type": "electric_scooter", "lat": 38.8973445, "is_disabled": 0, "name": "e8a07f7d9541f062f621e47cb00c4a02", "is_reserved": 0, "bike_id": "e8a07f7d9541f062f621e47cb00c4a02", "fusion_lon": 0.0, "rental_uris": {"ios": "https://dc.lft.to/lastmile_qr_scan", "android": "https://dc.lft.to/lastmile_qr_scan"}}, {"lon": -77.00295033333333, "fusion_lat": 0.0, "type": "electric_scooter", "lat": 38.9054835, "is_disabled": 0, "name": "898183918dc3a3f1e75da14fb31f449e", "is_reserved": 0, "bike_id": "898183918dc3a3f1e75da14fb31f449e", "fusion_lon": 0.0, "rental_uris": {"ios": "https://dc.lft.to/lastmile_qr_scan", "android": "https://dc.lft.to/lastmile_qr_scan"}}, {"lon": -76.93178566666667, "fusion_lat": 0.0, "type": "electric_scooter", "lat": 38.89883733333333, "is_disabled": 0, "name": "a0e367eb798b3a0ea6c17de1200d9618", "is_reserved": 0, "bike_id": "a0e367eb798b3a0ea6c17de1200d9618", "fusion_lon": 0.0, "rental_uris": {"ios": "https://dc.lft.to/lastmile_qr_scan", "android": "https://dc.lft.to/lastmile_qr_scan"}}, {"lon": -77.02130933333333, "fusion_lat": 0.0, "type": "electric_scooter", "lat": 38.902052833333336, "is_disabled": 0, "name": "2062e6003df2e297a9a1cc3ba845acf5", "is_reserved": 0, "bike_id": "2062e6003df2e297a9a1cc3ba845acf5", "fusion_lon": 0.0, "rental_uris": {"ios": "https://dc.lft.to/lastmile_qr_scan", "android": "https://dc.lft.to/lastmile_qr_scan"}}, {"lon": -77.0482405, "fusion_lat": 0.0, "type": "electric_scooter", "lat": 38.900571166666666, "is_disabled": 0, "name": "95db8d2f19e6f17744de5c86954e8691", "is_reserved": 0, "bike_id": "95db8d2f19e6f17744de5c86954e8691", "fusion_lon": 0.0, "rental_uris": {"ios": "https://dc.lft.to/lastmile_qr_scan", "android": "https://dc.lft.to/lastmile_qr_scan"}}, {"lon": -77.03941866666666, "fusion_lat": 0.0, "type": "electric_scooter", "lat": 38.899179, "is_disabled": 0, "name": "ab8866eb46775dcaef345d24f516f1d5", "is_reserved": 0, "bike_id": "ab8866eb46775dcaef345d24f516f1d5", "fusion_lon": 0.0, "rental_uris": {"ios": "https://dc.lft.to/lastmile_qr_scan", "android": "https://dc.lft.to/lastmile_qr_scan"}}, {"lon": -77.03979933333333, "fusion_lat": 0.0, "type": "electric_scooter", "lat": 38.91807566666667, "is_disabled": 0, "name": "08bb9edbf08616db1af4a61a47a5dce8", "is_reserved": 0, "bike_id": "08bb9edbf08616db1af4a61a47a5dce8", "fusion_lon": 0.0, "rental_uris": {"ios": "https://dc.lft.to/lastmile_qr_scan", "android": "https://dc.lft.to/lastmile_qr_scan"}}, {"lon": -77.0222635, "fusion_lat": 0.0, "type": "electric_scooter", "lat": 38.912670166666665, "is_disabled": 0, "name": "2663bb8df495b6ce2a500e612458961b", "is_reserved": 0, "bike_id": "2663bb8df495b6ce2a500e612458961b", "fusion_lon": 0.0, "rental_uris": {"ios": "https://dc.lft.to/lastmile_qr_scan", "android": "https://dc.lft.to/lastmile_qr_scan"}}, {"lon": -77.025014, "fusion_lat": 0.0, "type": "electric_scooter", "lat": 38.9017725, "is_disabled": 0, "name": "0848f8aace48a2f1130e1a76c53be6a9", "is_reserved": 0, "bike_id": "0848f8aace48a2f1130e1a76c53be6a9", "fusion_lon": 0.0, "rental_uris": {"ios": "https://dc.lft.to/lastmile_qr_scan", "android": "https://dc.lft.to/lastmile_qr_scan"}}, {"lon": -77.04368416666667, "fusion_lat": 0.0, "type": "electric_scooter", "lat": 38.89221916666666, "is_disabled": 0, "name": "cd5b29325365df47c370701dae0814bf", "is_reserved": 0, "bike_id": "cd5b29325365df47c370701dae0814bf", "fusion_lon": 0.0, "rental_uris": {"ios": "https://dc.lft.to/lastmile_qr_scan", "android": "https://dc.lft.to/lastmile_qr_scan"}}, {"lon": -77.0185455, "fusion_lat": 0.0, "type": "electric_scooter", "lat": 38.909665, "is_disabled": 0, "name": "7f9f6208f8d5878699177fac7a616f89", "is_reserved": 0, "bike_id": "7f9f6208f8d5878699177fac7a616f89", "fusion_lon": 0.0, "rental_uris": {"ios": "https://dc.lft.to/lastmile_qr_scan", "android": "https://dc.lft.to/lastmile_qr_scan"}}, {"lon": -77.04610183333334, "fusion_lat": 0.0, "type": "electric_scooter", "lat": 38.898234, "is_disabled": 0, "name": "84e0fd1aa83fe2b3a2d4d5e899ed0958", "is_reserved": 0, "bike_id": "84e0fd1aa83fe2b3a2d4d5e899ed0958", "fusion_lon": 0.0, "rental_uris": {"ios": "https://dc.lft.to/lastmile_qr_scan", "android": "https://dc.lft.to/lastmile_qr_scan"}}, {"lon": -77.02396, "fusion_lat": 0.0, "type": "electric_scooter", "lat": 38.900409833333335, "is_disabled": 0, "name": "c42d7f16dbe771fe2cbed1c29a974688", "is_reserved": 0, "bike_id": "c42d7f16dbe771fe2cbed1c29a974688", "fusion_lon": 0.0, "rental_uris": {"ios": "https://dc.lft.to/lastmile_qr_scan", "android": "https://dc.lft.to/lastmile_qr_scan"}}, {"lon": -77.02672466666667, "fusion_lat": 0.0, "type": "electric_scooter", "lat": 38.896181, "is_disabled": 0, "name": "1f74e79b57fd71c9149196229bc9c618", "is_reserved": 0, "bike_id": "1f74e79b57fd71c9149196229bc9c618", "fusion_lon": 0.0, "rental_uris": {"ios": "https://dc.lft.to/lastmile_qr_scan", "android": "https://dc.lft.to/lastmile_qr_scan"}}, {"lon": -77.02503666666667, "fusion_lat": 0.0, "type": "electric_scooter", "lat": 38.927844, "is_disabled": 0, "name": "2be7af8dff44b713dbe7c09493764733", "is_reserved": 0, "bike_id": "2be7af8dff44b713dbe7c09493764733", "fusion_lon": 0.0, "rental_uris": {"ios": "https://dc.lft.to/lastmile_qr_scan", "android": "https://dc.lft.to/lastmile_qr_scan"}}, {"lon": -77.04495183333333, "fusion_lat": 0.0, "type": "electric_scooter", "lat": 38.914810833333334, "is_disabled": 0, "name": "d5b6a90f952fe93a898856a9135af89d", "is_reserved": 0, "bike_id": "d5b6a90f952fe93a898856a9135af89d", "fusion_lon": 0.0, "rental_uris": {"ios": "https://dc.lft.to/lastmile_qr_scan", "android": "https://dc.lft.to/lastmile_qr_scan"}}, {"lon": -77.03957916666667, "fusion_lat": 0.0, "type": "electric_scooter", "lat": 38.8924665, "is_disabled": 0, "name": "0872b15e821266622f7776bd5f018fe6", "is_reserved": 0, "bike_id": "0872b15e821266622f7776bd5f018fe6", "fusion_lon": 0.0, "rental_uris": {"ios": "https://dc.lft.to/lastmile_qr_scan", "android": "https://dc.lft.to/lastmile_qr_scan"}}, {"lon": -77.02006383333334, "fusion_lat": 0.0, "type": "electric_scooter", "lat": 38.9027045, "is_disabled": 0, "name": "9c98f308c9befc3950c25ea70058b5b4", "is_reserved": 0, "bike_id": "9c98f308c9befc3950c25ea70058b5b4", "fusion_lon": 0.0, "rental_uris": {"ios": "https://dc.lft.to/lastmile_qr_scan", "android": "https://dc.lft.to/lastmile_qr_scan"}}, {"lon": -76.93915816666667, "fusion_lat": 0.0, "type": "electric_scooter", "lat": 38.882189833333335, "is_disabled": 0, "name": "4c065ee5f1f5f94106acd7aa541a457d", "is_reserved": 0, "bike_id": "4c065ee5f1f5f94106acd7aa541a457d", "fusion_lon": 0.0, "rental_uris": {"ios": "https://dc.lft.to/lastmile_qr_scan", "android": "https://dc.lft.to/lastmile_qr_scan"}}, {"lon": -77.02221183333333, "fusion_lat": 0.0, "type": "electric_scooter", "lat": 38.891926833333336, "is_disabled": 0, "name": "2851d7a0f793c0bf5f5d222d3317f408", "is_reserved": 0, "bike_id": "2851d7a0f793c0bf5f5d222d3317f408", "fusion_lon": 0.0, "rental_uris": {"ios": "https://dc.lft.to/lastmile_qr_scan", "android": "https://dc.lft.to/lastmile_qr_scan"}}, {"lon": -77.03602666666667, "fusion_lat": 0.0, "type": "electric_scooter", "lat": 38.923199, "is_disabled": 0, "name": "4db9de4249ba3235b7ead52443d4cf86", "is_reserved": 0, "bike_id": "4db9de4249ba3235b7ead52443d4cf86", "fusion_lon": 0.0, "rental_uris": {"ios": "https://dc.lft.to/lastmile_qr_scan", "android": "https://dc.lft.to/lastmile_qr_scan"}}, {"lon": -76.910902, "fusion_lat": 0.0, "type": "electric_bike", "lat": 38.88316316666667, "is_disabled": 0, "name": "58fca3773d4471c7ac4c00d80b2de7f3", "is_reserved": 0, "bike_id": "58fca3773d4471c7ac4c00d80b2de7f3", "fusion_lon": 0.0, "rental_uris": {"ios": "https://dc.lft.to/lastmile_qr_scan", "android": "https://dc.lft.to/lastmile_qr_scan"}}, {"lon": -76.9742085, "fusion_lat": 0.0, "type": "electric_scooter", "lat": 38.9023505, "is_disabled": 0, "name": "4727c36832ead89c1239cdcfe2c84b2e", "is_reserved": 0, "bike_id": "4727c36832ead89c1239cdcfe2c84b2e", "fusion_lon": 0.0, "rental_uris": {"ios": "https://dc.lft.to/lastmile_qr_scan", "android": "https://dc.lft.to/lastmile_qr_scan"}}, {"lon": -76.9977045, "fusion_lat": 0.0, "type": "electric_scooter", "lat": 38.8941995, "is_disabled": 0, "name": "40688c845e5b54f399939d78f607b042", "is_reserved": 0, "bike_id": "40688c845e5b54f399939d78f607b042", "fusion_lon": 0.0, "rental_uris": {"ios": "https://dc.lft.to/lastmile_qr_scan", "android": "https://dc.lft.to/lastmile_qr_scan"}}, {"lon": -77.002586, "fusion_lat": 0.0, "type": "electric_scooter", "lat": 38.876561333333335, "is_disabled": 0, "name": "55398df0217cde02d043bcaee5a49310", "is_reserved": 0, "bike_id": "55398df0217cde02d043bcaee5a49310", "fusion_lon": 0.0, "rental_uris": {"ios": "https://dc.lft.to/lastmile_qr_scan", "android": "https://dc.lft.to/lastmile_qr_scan"}}, {"lon": -77.04229816666667, "fusion_lat": 0.0, "type": "electric_bike", "lat": 39.03810933333333, "is_disabled": 0, "name": "867bffc2a9cea88209b414e850bbe63f", "is_reserved": 0, "bike_id": "867bffc2a9cea88209b414e850bbe63f", "fusion_lon": 0.0, "rental_uris": {"ios": "https://dc.lft.to/lastmile_qr_scan", "android": "https://dc.lft.to/lastmile_qr_scan"}}, {"lon": -77.04162733333334, "fusion_lat": 0.0, "type": "electric_scooter", "lat": 38.923587166666664, "is_disabled": 0, "name": "7a1c2b67d98472c089a0a68c28b87f58", "is_reserved": 0, "bike_id": "7a1c2b67d98472c089a0a68c28b87f58", "fusion_lon": 0.0, "rental_uris": {"ios": "https://dc.lft.to/lastmile_qr_scan", "android": "https://dc.lft.to/lastmile_qr_scan"}}, {"lon": -77.02643983333333, "fusion_lat": 0.0, "type": "electric_scooter", "lat": 38.89430466666666, "is_disabled": 0, "name": "3713e348ec44932f475dc5e224cedb47", "is_reserved": 0, "bike_id": "3713e348ec44932f475dc5e224cedb47", "fusion_lon": 0.0, "rental_uris": {"ios": "https://dc.lft.to/lastmile_qr_scan", "android": "https://dc.lft.to/lastmile_qr_scan"}}, {"lon": -77.04253233333333, "fusion_lat": 0.0, "type": "electric_scooter", "lat": 38.92631083333333, "is_disabled": 0, "name": "af917aa0341fa1d13e6b0e7b77631295", "is_reserved": 0, "bike_id": "af917aa0341fa1d13e6b0e7b77631295", "fusion_lon": 0.0, "rental_uris": {"ios": "https://dc.lft.to/lastmile_qr_scan", "android": "https://dc.lft.to/lastmile_qr_scan"}}, {"lon": -76.99958683333334, "fusion_lat": 0.0, "type": "electric_scooter", "lat": 38.925633833333336, "is_disabled": 0, "name": "aca727a89b27663a69830cec3040d963", "is_reserved": 0, "bike_id": "aca727a89b27663a69830cec3040d963", "fusion_lon": 0.0, "rental_uris": {"ios": "https://dc.lft.to/lastmile_qr_scan", "android": "https://dc.lft.to/lastmile_qr_scan"}}, {"lon": -77.0220815, "fusion_lat": 0.0, "type": "electric_scooter", "lat": 38.90361433333333, "is_disabled": 0, "name": "c6c0bcdf636c1e9be59f8df44e50e6df", "is_reserved": 0, "bike_id": "c6c0bcdf636c1e9be59f8df44e50e6df", "fusion_lon": 0.0, "rental_uris": {"ios": "https://dc.lft.to/lastmile_qr_scan", "android": "https://dc.lft.to/lastmile_qr_scan"}}, {"lon": -77.0197635, "fusion_lat": 0.0, "type": "electric_scooter", "lat": 38.919023, "is_disabled": 0, "name": "7dc20fb8e34b7635a4df3886ad508cb4", "is_reserved": 0, "bike_id": "7dc20fb8e34b7635a4df3886ad508cb4", "fusion_lon": 0.0, "rental_uris": {"ios": "https://dc.lft.to/lastmile_qr_scan", "android": "https://dc.lft.to/lastmile_qr_scan"}}, {"lon": -77.031339, "fusion_lat": 0.0, "type": "electric_scooter", "lat": 38.9168865, "is_disabled": 0, "name": "6bea094bc567645d385df02498a6d0b8", "is_reserved": 0, "bike_id": "6bea094bc567645d385df02498a6d0b8", "fusion_lon": 0.0, "rental_uris": {"ios": "https://dc.lft.to/lastmile_qr_scan", "android": "https://dc.lft.to/lastmile_qr_scan"}}, {"lon": -77.03205666666666, "fusion_lat": 0.0, "type": "electric_scooter", "lat": 38.9134195, "is_disabled": 0, "name": "2b5c3e0bec39e8e9fc925ea7f3ba7a21", "is_reserved": 0, "bike_id": "2b5c3e0bec39e8e9fc925ea7f3ba7a21", "fusion_lon": 0.0, "rental_uris": {"ios": "https://dc.lft.to/lastmile_qr_scan", "android": "https://dc.lft.to/lastmile_qr_scan"}}, {"lon": -77.03174483333333, "fusion_lat": 0.0, "type": "electric_scooter", "lat": 38.887373833333335, "is_disabled": 0, "name": "9ba00401941e5d4bf8003d7839d8d93b", "is_reserved": 0, "bike_id": "9ba00401941e5d4bf8003d7839d8d93b", "fusion_lon": 0.0, "rental_uris": {"ios": "https://dc.lft.to/lastmile_qr_scan", "android": "https://dc.lft.to/lastmile_qr_scan"}}, {"lon": -77.00250266666667, "fusion_lat": 0.0, "type": "electric_scooter", "lat": 38.88701983333333, "is_disabled": 0, "name": "6e61e8d4254b4dd175c7dd0979c56a8d", "is_reserved": 0, "bike_id": "6e61e8d4254b4dd175c7dd0979c56a8d", "fusion_lon": 0.0, "rental_uris": {"ios": "https://dc.lft.to/lastmile_qr_scan", "android": "https://dc.lft.to/lastmile_qr_scan"}}, {"lon": -76.99283516666667, "fusion_lat": 0.0, "type": "electric_scooter", "lat": 38.88120983333334, "is_disabled": 0, "name": "a6dffde4e23d6d10f5ef9e662adf3399", "is_reserved": 0, "bike_id": "a6dffde4e23d6d10f5ef9e662adf3399", "fusion_lon": 0.0, "rental_uris": {"ios": "https://dc.lft.to/lastmile_qr_scan", "android": "https://dc.lft.to/lastmile_qr_scan"}}, {"lon": -77.029599, "fusion_lat": 0.0, "type": "electric_scooter", "lat": 38.910435166666666, "is_disabled": 0, "name": "29b38cb03099987d9ffcdbf37fcc8a2b", "is_reserved": 0, "bike_id": "29b38cb03099987d9ffcdbf37fcc8a2b", "fusion_lon": 0.0, "rental_uris": {"ios": "https://dc.lft.to/lastmile_qr_scan", "android": "https://dc.lft.to/lastmile_qr_scan"}}, {"lon": -77.00198266666666, "fusion_lat": 0.0, "type": "electric_scooter", "lat": 38.886762833333336, "is_disabled": 0, "name": "6c14aeb9b784416f54f365aef0891c88", "is_reserved": 0, "bike_id": "6c14aeb9b784416f54f365aef0891c88", "fusion_lon": 0.0, "rental_uris": {"ios": "https://dc.lft.to/lastmile_qr_scan", "android": "https://dc.lft.to/lastmile_qr_scan"}}, {"lon": -76.9995675, "fusion_lat": 0.0, "type": "electric_scooter", "lat": 38.92346783333333, "is_disabled": 0, "name": "e11067f513fa9a5d55e6026a3036ab88", "is_reserved": 0, "bike_id": "e11067f513fa9a5d55e6026a3036ab88", "fusion_lon": 0.0, "rental_uris": {"ios": "https://dc.lft.to/lastmile_qr_scan", "android": "https://dc.lft.to/lastmile_qr_scan"}}, {"lon": -76.99852783333333, "fusion_lat": 0.0, "type": "electric_scooter", "lat": 38.896239333333334, "is_disabled": 0, "name": "01a4099e61f42f289f1b25010cf0adc8", "is_reserved": 0, "bike_id": "01a4099e61f42f289f1b25010cf0adc8", "fusion_lon": 0.0, "rental_uris": {"ios": "https://dc.lft.to/lastmile_qr_scan", "android": "https://dc.lft.to/lastmile_qr_scan"}}, {"lon": -77.01751783333333, "fusion_lat": 0.0, "type": "electric_scooter", "lat": 38.887347, "is_disabled": 0, "name": "65f6d921957b45c65c32d69765b79e7d", "is_reserved": 0, "bike_id": "65f6d921957b45c65c32d69765b79e7d", "fusion_lon": 0.0, "rental_uris": {"ios": "https://dc.lft.to/lastmile_qr_scan", "android": "https://dc.lft.to/lastmile_qr_scan"}}, {"lon": -77.02196983333333, "fusion_lat": 0.0, "type": "electric_scooter", "lat": 38.9165275, "is_disabled": 0, "name": "a3e561397da2c9a4b6c4f3fc822e816d", "is_reserved": 0, "bike_id": "a3e561397da2c9a4b6c4f3fc822e816d", "fusion_lon": 0.0, "rental_uris": {"ios": "https://dc.lft.to/lastmile_qr_scan", "android": "https://dc.lft.to/lastmile_qr_scan"}}, {"lon": -76.98658516666667, "fusion_lat": 0.0, "type": "electric_scooter", "lat": 38.868699, "is_disabled": 0, "name": "fe4aab965145bc7cb4ba6d12d57a970c", "is_reserved": 0, "bike_id": "fe4aab965145bc7cb4ba6d12d57a970c", "fusion_lon": 0.0, "rental_uris": {"ios": "https://dc.lft.to/lastmile_qr_scan", "android": "https://dc.lft.to/lastmile_qr_scan"}}, {"lon": -77.04529566666666, "fusion_lat": 0.0, "type": "electric_scooter", "lat": 38.90570866666667, "is_disabled": 0, "name": "acad135a622c35dac7d4481a2d0b3348", "is_reserved": 0, "bike_id": "acad135a622c35dac7d4481a2d0b3348", "fusion_lon": 0.0, "rental_uris": {"ios": "https://dc.lft.to/lastmile_qr_scan", "android": "https://dc.lft.to/lastmile_qr_scan"}}, {"lon": -77.03458566666667, "fusion_lat": 0.0, "type": "electric_scooter", "lat": 38.90559066666667, "is_disabled": 0, "name": "1e2ea454a2ceee73d6430a6a512f9c43", "is_reserved": 0, "bike_id": "1e2ea454a2ceee73d6430a6a512f9c43", "fusion_lon": 0.0, "rental_uris": {"ios": "https://dc.lft.to/lastmile_qr_scan", "android": "https://dc.lft.to/lastmile_qr_scan"}}, {"lon": -77.0242155, "fusion_lat": 0.0, "type": "electric_scooter", "lat": 38.87956283333333, "is_disabled": 0, "name": "f94552faf3e9058c31e61d876a0d7dd7", "is_reserved": 0, "bike_id": "f94552faf3e9058c31e61d876a0d7dd7", "fusion_lon": 0.0, "rental_uris": {"ios": "https://dc.lft.to/lastmile_qr_scan", "android": "https://dc.lft.to/lastmile_qr_scan"}}, {"lon": -77.038547, "fusion_lat": 0.0, "type": "electric_scooter", "lat": 38.911984833333335, "is_disabled": 0, "name": "6047ec58633cbcd721bec25f569aebe5", "is_reserved": 0, "bike_id": "6047ec58633cbcd721bec25f569aebe5", "fusion_lon": 0.0, "rental_uris": {"ios": "https://dc.lft.to/lastmile_qr_scan", "android": "https://dc.lft.to/lastmile_qr_scan"}}, {"lon": -77.02705166666667, "fusion_lat": 0.0, "type": "electric_scooter", "lat": 38.924604, "is_disabled": 0, "name": "2b9790c647f16da0e6426b777b97935d", "is_reserved": 0, "bike_id": "2b9790c647f16da0e6426b777b97935d", "fusion_lon": 0.0, "rental_uris": {"ios": "https://dc.lft.to/lastmile_qr_scan", "android": "https://dc.lft.to/lastmile_qr_scan"}}, {"lon": -77.03380516666667, "fusion_lat": 0.0, "type": "electric_scooter", "lat": 38.8945955, "is_disabled": 0, "name": "f18a0abf786f3732a290534d1392514f", "is_reserved": 0, "bike_id": "f18a0abf786f3732a290534d1392514f", "fusion_lon": 0.0, "rental_uris": {"ios": "https://dc.lft.to/lastmile_qr_scan", "android": "https://dc.lft.to/lastmile_qr_scan"}}, {"lon": -77.02314183333333, "fusion_lat": 0.0, "type": "electric_scooter", "lat": 38.9088585, "is_disabled": 0, "name": "cca1e1d5975c5ca1e544bd04940d02d9", "is_reserved": 0, "bike_id": "cca1e1d5975c5ca1e544bd04940d02d9", "fusion_lon": 0.0, "rental_uris": {"ios": "https://dc.lft.to/lastmile_qr_scan", "android": "https://dc.lft.to/lastmile_qr_scan"}}, {"lon": -77.050762, "fusion_lat": 0.0, "type": "electric_scooter", "lat": 38.92357233333333, "is_disabled": 0, "name": "4165ef55e04c175dda182a4e36fcbc47", "is_reserved": 0, "bike_id": "4165ef55e04c175dda182a4e36fcbc47", "fusion_lon": 0.0, "rental_uris": {"ios": "https://dc.lft.to/lastmile_qr_scan", "android": "https://dc.lft.to/lastmile_qr_scan"}}, {"lon": -77.058383, "fusion_lat": 0.0, "type": "electric_scooter", "lat": 38.90920233333333, "is_disabled": 0, "name": "e438a333cde13d2a9529b3790fbd31a8", "is_reserved": 0, "bike_id": "e438a333cde13d2a9529b3790fbd31a8", "fusion_lon": 0.0, "rental_uris": {"ios": "https://dc.lft.to/lastmile_qr_scan", "android": "https://dc.lft.to/lastmile_qr_scan"}}, {"lon": -77.02512016666667, "fusion_lat": 0.0, "type": "electric_scooter", "lat": 38.92095783333333, "is_disabled": 0, "name": "f4657117837eb5ca6ce4713972d3e0d7", "is_reserved": 0, "bike_id": "f4657117837eb5ca6ce4713972d3e0d7", "fusion_lon": 0.0, "rental_uris": {"ios": "https://dc.lft.to/lastmile_qr_scan", "android": "https://dc.lft.to/lastmile_qr_scan"}}, {"lon": -77.0400355, "fusion_lat": 0.0, "type": "electric_scooter", "lat": 38.888668, "is_disabled": 0, "name": "49c5722e461e5bc47954847d8eef9ff7", "is_reserved": 0, "bike_id": "49c5722e461e5bc47954847d8eef9ff7", "fusion_lon": 0.0, "rental_uris": {"ios": "https://dc.lft.to/lastmile_qr_scan", "android": "https://dc.lft.to/lastmile_qr_scan"}}, {"lon": -77.02398483333333, "fusion_lat": 0.0, "type": "electric_scooter", "lat": 38.913255, "is_disabled": 0, "name": "749bea6fddfe8d6bcf58230dab9128c4", "is_reserved": 0, "bike_id": "749bea6fddfe8d6bcf58230dab9128c4", "fusion_lon": 0.0, "rental_uris": {"ios": "https://dc.lft.to/lastmile_qr_scan", "android": "https://dc.lft.to/lastmile_qr_scan"}}, {"lon": -77.03228916666667, "fusion_lat": 0.0, "type": "electric_scooter", "lat": 38.920015666666664, "is_disabled": 0, "name": "f1318acb3c7e360a470ffdf746ea9741", "is_reserved": 0, "bike_id": "f1318acb3c7e360a470ffdf746ea9741", "fusion_lon": 0.0, "rental_uris": {"ios": "https://dc.lft.to/lastmile_qr_scan", "android": "https://dc.lft.to/lastmile_qr_scan"}}, {"lon": -77.01960983333333, "fusion_lat": 0.0, "type": "electric_scooter", "lat": 38.923196833333336, "is_disabled": 0, "name": "2d6cd24ebcec2139223f3229f6249a71", "is_reserved": 0, "bike_id": "2d6cd24ebcec2139223f3229f6249a71", "fusion_lon": 0.0, "rental_uris": {"ios": "https://dc.lft.to/lastmile_qr_scan", "android": "https://dc.lft.to/lastmile_qr_scan"}}, {"lon": -77.02812683333333, "fusion_lat": 0.0, "type": "electric_scooter", "lat": 38.90729366666667, "is_disabled": 0, "name": "1faa3128e4ff9e6739c0fc2ebc084ae8", "is_reserved": 0, "bike_id": "1faa3128e4ff9e6739c0fc2ebc084ae8", "fusion_lon": 0.0, "rental_uris": {"ios": "https://dc.lft.to/lastmile_qr_scan", "android": "https://dc.lft.to/lastmile_qr_scan"}}, {"lon": -77.04385483333333, "fusion_lat": 0.0, "type": "electric_scooter", "lat": 38.90149566666667, "is_disabled": 0, "name": "6f0896d5d4780d26fa1bde0ad86c76fd", "is_reserved": 0, "bike_id": "6f0896d5d4780d26fa1bde0ad86c76fd", "fusion_lon": 0.0, "rental_uris": {"ios": "https://dc.lft.to/lastmile_qr_scan", "android": "https://dc.lft.to/lastmile_qr_scan"}}, {"lon": -77.00339116666666, "fusion_lat": 0.0, "type": "electric_scooter", "lat": 38.89352483333333, "is_disabled": 0, "name": "34a743ad6d9aee2e09ae91a853a8d33b", "is_reserved": 0, "bike_id": "34a743ad6d9aee2e09ae91a853a8d33b", "fusion_lon": 0.0, "rental_uris": {"ios": "https://dc.lft.to/lastmile_qr_scan", "android": "https://dc.lft.to/lastmile_qr_scan"}}, {"lon": -77.02718883333333, "fusion_lat": 0.0, "type": "electric_scooter", "lat": 38.896693, "is_disabled": 0, "name": "1a3adb73180ee2c0a218c94fd76a776c", "is_reserved": 0, "bike_id": "1a3adb73180ee2c0a218c94fd76a776c", "fusion_lon": 0.0, "rental_uris": {"ios": "https://dc.lft.to/lastmile_qr_scan", "android": "https://dc.lft.to/lastmile_qr_scan"}}, {"lon": -77.050118, "fusion_lat": 0.0, "type": "electric_scooter", "lat": 38.90670566666667, "is_disabled": 0, "name": "83492cecf9763f5bd781ed83a7b6e2bb", "is_reserved": 0, "bike_id": "83492cecf9763f5bd781ed83a7b6e2bb", "fusion_lon": 0.0, "rental_uris": {"ios": "https://dc.lft.to/lastmile_qr_scan", "android": "https://dc.lft.to/lastmile_qr_scan"}}, {"lon": -77.02927233333334, "fusion_lat": 0.0, "type": "electric_scooter", "lat": 38.91033683333333, "is_disabled": 0, "name": "9d685a57db80c8b0aabb97fa1cebb7e2", "is_reserved": 0, "bike_id": "9d685a57db80c8b0aabb97fa1cebb7e2", "fusion_lon": 0.0, "rental_uris": {"ios": "https://dc.lft.to/lastmile_qr_scan", "android": "https://dc.lft.to/lastmile_qr_scan"}}, {"lon": -77.03701166666667, "fusion_lat": 0.0, "type": "electric_scooter", "lat": 38.9166585, "is_disabled": 0, "name": "e7cc943b1ffc2bd3bc3386f5fcb75d8e", "is_reserved": 0, "bike_id": "e7cc943b1ffc2bd3bc3386f5fcb75d8e", "fusion_lon": 0.0, "rental_uris": {"ios": "https://dc.lft.to/lastmile_qr_scan", "android": "https://dc.lft.to/lastmile_qr_scan"}}, {"lon": -77.01381533333333, "fusion_lat": 0.0, "type": "electric_scooter", "lat": 38.92853383333333, "is_disabled": 0, "name": "67a18255f4ebef80d19c79004fd509bf", "is_reserved": 0, "bike_id": "67a18255f4ebef80d19c79004fd509bf", "fusion_lon": 0.0, "rental_uris": {"ios": "https://dc.lft.to/lastmile_qr_scan", "android": "https://dc.lft.to/lastmile_qr_scan"}}, {"lon": -77.02465583333333, "fusion_lat": 0.0, "type": "electric_scooter", "lat": 38.932998166666664, "is_disabled": 0, "name": "b10439153cde4795b6dfa0b943d54b2a", "is_reserved": 0, "bike_id": "b10439153cde4795b6dfa0b943d54b2a", "fusion_lon": 0.0, "rental_uris": {"ios": "https://dc.lft.to/lastmile_qr_scan", "android": "https://dc.lft.to/lastmile_qr_scan"}}, {"lon": -77.02819566666666, "fusion_lat": 0.0, "type": "electric_scooter", "lat": 38.91086833333333, "is_disabled": 0, "name": "99459716bacc5eac96e2b38a982a8506", "is_reserved": 0, "bike_id": "99459716bacc5eac96e2b38a982a8506", "fusion_lon": 0.0, "rental_uris": {"ios": "https://dc.lft.to/lastmile_qr_scan", "android": "https://dc.lft.to/lastmile_qr_scan"}}, {"lon": -76.988406, "fusion_lat": 0.0, "type": "electric_scooter", "lat": 38.90174183333333, "is_disabled": 0, "name": "4cfba571046a847ff768105310a0a852", "is_reserved": 0, "bike_id": "4cfba571046a847ff768105310a0a852", "fusion_lon": 0.0, "rental_uris": {"ios": "https://dc.lft.to/lastmile_qr_scan", "android": "https://dc.lft.to/lastmile_qr_scan"}}, {"lon": -76.9192495, "fusion_lat": 0.0, "type": "electric_scooter", "lat": 38.890876166666665, "is_disabled": 0, "name": "73e76303ec853252f7512dca5098fc89", "is_reserved": 0, "bike_id": "73e76303ec853252f7512dca5098fc89", "fusion_lon": 0.0, "rental_uris": {"ios": "https://dc.lft.to/lastmile_qr_scan", "android": "https://dc.lft.to/lastmile_qr_scan"}}, {"lon": -76.97528933333334, "fusion_lat": 0.0, "type": "electric_scooter", "lat": 38.92231533333333, "is_disabled": 0, "name": "ad0034675eec72f4959225d3097d65f8", "is_reserved": 0, "bike_id": "ad0034675eec72f4959225d3097d65f8", "fusion_lon": 0.0, "rental_uris": {"ios": "https://dc.lft.to/lastmile_qr_scan", "android": "https://dc.lft.to/lastmile_qr_scan"}}, {"lon": -77.018994, "fusion_lat": 0.0, "type": "electric_scooter", "lat": 38.923332, "is_disabled": 0, "name": "f49005a610423d8a04c2d62a62eb6a19", "is_reserved": 0, "bike_id": "f49005a610423d8a04c2d62a62eb6a19", "fusion_lon": 0.0, "rental_uris": {"ios": "https://dc.lft.to/lastmile_qr_scan", "android": "https://dc.lft.to/lastmile_qr_scan"}}, {"lon": -77.04919583333333, "fusion_lat": 0.0, "type": "electric_bike", "lat": 39.0027445, "is_disabled": 0, "name": "689d3bbb0366f4ebb53316f68ec97722", "is_reserved": 0, "bike_id": "689d3bbb0366f4ebb53316f68ec97722", "fusion_lon": 0.0, "rental_uris": {"ios": "https://dc.lft.to/lastmile_qr_scan", "android": "https://dc.lft.to/lastmile_qr_scan"}}, {"lon": -77.03353, "fusion_lat": 0.0, "type": "electric_scooter", "lat": 38.89265833333333, "is_disabled": 0, "name": "94e40d0a8aeb934dea757023c9a52dab", "is_reserved": 0, "bike_id": "94e40d0a8aeb934dea757023c9a52dab", "fusion_lon": 0.0, "rental_uris": {"ios": "https://dc.lft.to/lastmile_qr_scan", "android": "https://dc.lft.to/lastmile_qr_scan"}}, {"lon": -77.09594666666666, "fusion_lat": 0.0, "type": "electric_bike", "lat": 38.9807725, "is_disabled": 0, "name": "2e67588fc710bdb5c165f479ef18ce76", "is_reserved": 0, "bike_id": "2e67588fc710bdb5c165f479ef18ce76", "fusion_lon": 0.0, "rental_uris": {"ios": "https://dc.lft.to/lastmile_qr_scan", "android": "https://dc.lft.to/lastmile_qr_scan"}}, {"lon": -77.049612, "fusion_lat": 0.0, "type": "electric_bike", "lat": 39.01091983333333, "is_disabled": 0, "name": "1337e4881d76380854f0e24d57d4e07e", "is_reserved": 0, "bike_id": "1337e4881d76380854f0e24d57d4e07e", "fusion_lon": 0.0, "rental_uris": {"ios": "https://dc.lft.to/lastmile_qr_scan", "android": "https://dc.lft.to/lastmile_qr_scan"}}, {"lon": -77.03793766666666, "fusion_lat": 0.0, "type": "electric_scooter", "lat": 38.925044166666666, "is_disabled": 0, "name": "db3f53b421219eba535eb991fb79f435", "is_reserved": 0, "bike_id": "db3f53b421219eba535eb991fb79f435", "fusion_lon": 0.0, "rental_uris": {"ios": "https://dc.lft.to/lastmile_qr_scan", "android": "https://dc.lft.to/lastmile_qr_scan"}}, {"lon": -77.02815183333334, "fusion_lat": 0.0, "type": "electric_scooter", "lat": 38.90387233333333, "is_disabled": 0, "name": "c5035c015736ab29ce719a934228f022", "is_reserved": 0, "bike_id": "c5035c015736ab29ce719a934228f022", "fusion_lon": 0.0, "rental_uris": {"ios": "https://dc.lft.to/lastmile_qr_scan", "android": "https://dc.lft.to/lastmile_qr_scan"}}, {"lon": -77.02143616666666, "fusion_lat": 0.0, "type": "electric_scooter", "lat": 38.92502666666667, "is_disabled": 0, "name": "00dc858f40a4650d1bff273b6ac0a43f", "is_reserved": 0, "bike_id": "00dc858f40a4650d1bff273b6ac0a43f", "fusion_lon": 0.0, "rental_uris": {"ios": "https://dc.lft.to/lastmile_qr_scan", "android": "https://dc.lft.to/lastmile_qr_scan"}}, {"lon": -77.02252416666667, "fusion_lat": 0.0, "type": "electric_scooter", "lat": 38.9232325, "is_disabled": 0, "name": "93db44bd224b8eef5114111f4140ccbb", "is_reserved": 0, "bike_id": "93db44bd224b8eef5114111f4140ccbb", "fusion_lon": 0.0, "rental_uris": {"ios": "https://dc.lft.to/lastmile_qr_scan", "android": "https://dc.lft.to/lastmile_qr_scan"}}, {"lon": -77.03249533333333, "fusion_lat": 0.0, "type": "electric_scooter", "lat": 38.91474816666667, "is_disabled": 0, "name": "d803f05af1587625df8c3560e2c19b2f", "is_reserved": 0, "bike_id": "d803f05af1587625df8c3560e2c19b2f", "fusion_lon": 0.0, "rental_uris": {"ios": "https://dc.lft.to/lastmile_qr_scan", "android": "https://dc.lft.to/lastmile_qr_scan"}}, {"lon": -77.03933433333333, "fusion_lat": 0.0, "type": "electric_scooter", "lat": 38.912578, "is_disabled": 0, "name": "7e2e9c881efd2e951c97e1659c9198f4", "is_reserved": 0, "bike_id": "7e2e9c881efd2e951c97e1659c9198f4", "fusion_lon": 0.0, "rental_uris": {"ios": "https://dc.lft.to/lastmile_qr_scan", "android": "https://dc.lft.to/lastmile_qr_scan"}}, {"lon": -77.00221, "fusion_lat": 0.0, "type": "electric_scooter", "lat": 38.88501083333333, "is_disabled": 0, "name": "af3de120d88209ccd90116e029b702c6", "is_reserved": 0, "bike_id": "af3de120d88209ccd90116e029b702c6", "fusion_lon": 0.0, "rental_uris": {"ios": "https://dc.lft.to/lastmile_qr_scan", "android": "https://dc.lft.to/lastmile_qr_scan"}}, {"lon": -77.00059416666667, "fusion_lat": 0.0, "type": "electric_scooter", "lat": 38.8764495, "is_disabled": 0, "name": "89592ff223fea83240efc3b4f4997e09", "is_reserved": 0, "bike_id": "89592ff223fea83240efc3b4f4997e09", "fusion_lon": 0.0, "rental_uris": {"ios": "https://dc.lft.to/lastmile_qr_scan", "android": "https://dc.lft.to/lastmile_qr_scan"}}, {"lon": -77.0057605, "fusion_lat": 0.0, "type": "electric_scooter", "lat": 38.87400516666666, "is_disabled": 0, "name": "6cd1a02385c61c803961b4e2dff87ae4", "is_reserved": 0, "bike_id": "6cd1a02385c61c803961b4e2dff87ae4", "fusion_lon": 0.0, "rental_uris": {"ios": "https://dc.lft.to/lastmile_qr_scan", "android": "https://dc.lft.to/lastmile_qr_scan"}}, {"lon": -77.0268985, "fusion_lat": 0.0, "type": "electric_scooter", "lat": 38.92381566666667, "is_disabled": 0, "name": "f1fe6fac938a43c21ae34de9cecffc71", "is_reserved": 0, "bike_id": "f1fe6fac938a43c21ae34de9cecffc71", "fusion_lon": 0.0, "rental_uris": {"ios": "https://dc.lft.to/lastmile_qr_scan", "android": "https://dc.lft.to/lastmile_qr_scan"}}, {"lon": -77.03995333333333, "fusion_lat": 0.0, "type": "electric_scooter", "lat": 38.892210666666664, "is_disabled": 0, "name": "56dc47f4a366f4947094ae31aadb6d13", "is_reserved": 0, "bike_id": "56dc47f4a366f4947094ae31aadb6d13", "fusion_lon": 0.0, "rental_uris": {"ios": "https://dc.lft.to/lastmile_qr_scan", "android": "https://dc.lft.to/lastmile_qr_scan"}}, {"lon": -77.04923616666666, "fusion_lat": 0.0, "type": "electric_scooter", "lat": 38.91935383333333, "is_disabled": 0, "name": "de55966aa805467f91580a4980cf9687", "is_reserved": 0, "bike_id": "de55966aa805467f91580a4980cf9687", "fusion_lon": 0.0, "rental_uris": {"ios": "https://dc.lft.to/lastmile_qr_scan", "android": "https://dc.lft.to/lastmile_qr_scan"}}, {"lon": -76.9943095, "fusion_lat": 0.0, "type": "electric_scooter", "lat": 38.852169833333335, "is_disabled": 0, "name": "9f5f0e2ed1003fd2189fec7a74fddcd7", "is_reserved": 0, "bike_id": "9f5f0e2ed1003fd2189fec7a74fddcd7", "fusion_lon": 0.0, "rental_uris": {"ios": "https://dc.lft.to/lastmile_qr_scan", "android": "https://dc.lft.to/lastmile_qr_scan"}}, {"lon": -76.98902916666667, "fusion_lat": 0.0, "type": "electric_scooter", "lat": 38.9134725, "is_disabled": 0, "name": "cab482253bd7221f1a7d08e5af5fb124", "is_reserved": 0, "bike_id": "cab482253bd7221f1a7d08e5af5fb124", "fusion_lon": 0.0, "rental_uris": {"ios": "https://dc.lft.to/lastmile_qr_scan", "android": "https://dc.lft.to/lastmile_qr_scan"}}, {"lon": -77.04617533333334, "fusion_lat": 0.0, "type": "electric_scooter", "lat": 38.909547, "is_disabled": 0, "name": "df3c848f42db81d76ed3a66319c9aa87", "is_reserved": 0, "bike_id": "df3c848f42db81d76ed3a66319c9aa87", "fusion_lon": 0.0, "rental_uris": {"ios": "https://dc.lft.to/lastmile_qr_scan", "android": "https://dc.lft.to/lastmile_qr_scan"}}, {"lon": -77.0315835, "fusion_lat": 0.0, "type": "electric_scooter", "lat": 38.91707366666667, "is_disabled": 0, "name": "0937844792ab0be1195a2008e84afab7", "is_reserved": 0, "bike_id": "0937844792ab0be1195a2008e84afab7", "fusion_lon": 0.0, "rental_uris": {"ios": "https://dc.lft.to/lastmile_qr_scan", "android": "https://dc.lft.to/lastmile_qr_scan"}}, {"lon": -76.9925935, "fusion_lat": 0.0, "type": "electric_scooter", "lat": 38.881068666666664, "is_disabled": 0, "name": "d84cc07b8fc130236aa81dfc830b18df", "is_reserved": 0, "bike_id": "d84cc07b8fc130236aa81dfc830b18df", "fusion_lon": 0.0, "rental_uris": {"ios": "https://dc.lft.to/lastmile_qr_scan", "android": "https://dc.lft.to/lastmile_qr_scan"}}, {"lon": -77.03217183333334, "fusion_lat": 0.0, "type": "electric_scooter", "lat": 38.936105, "is_disabled": 0, "name": "61d75d741ea9df4a5a32a4a04a413bb0", "is_reserved": 0, "bike_id": "61d75d741ea9df4a5a32a4a04a413bb0", "fusion_lon": 0.0, "rental_uris": {"ios": "https://dc.lft.to/lastmile_qr_scan", "android": "https://dc.lft.to/lastmile_qr_scan"}}, {"lon": -76.92134466666667, "fusion_lat": 0.0, "type": "electric_scooter", "lat": 38.901565166666664, "is_disabled": 0, "name": "8a81b023c39ffaaf25e0041e2f7141d2", "is_reserved": 0, "bike_id": "8a81b023c39ffaaf25e0041e2f7141d2", "fusion_lon": 0.0, "rental_uris": {"ios": "https://dc.lft.to/lastmile_qr_scan", "android": "https://dc.lft.to/lastmile_qr_scan"}}, {"lon": -77.0021155, "fusion_lat": 0.0, "type": "electric_scooter", "lat": 38.89098233333333, "is_disabled": 0, "name": "28f6e8879283365aa53891562a7756a2", "is_reserved": 0, "bike_id": "28f6e8879283365aa53891562a7756a2", "fusion_lon": 0.0, "rental_uris": {"ios": "https://dc.lft.to/lastmile_qr_scan", "android": "https://dc.lft.to/lastmile_qr_scan"}}, {"lon": -77.00049966666667, "fusion_lat": 0.0, "type": "electric_scooter", "lat": 38.920319666666664, "is_disabled": 0, "name": "7e5c53b44efb11b49e5011527139bf5b", "is_reserved": 0, "bike_id": "7e5c53b44efb11b49e5011527139bf5b", "fusion_lon": 0.0, "rental_uris": {"ios": "https://dc.lft.to/lastmile_qr_scan", "android": "https://dc.lft.to/lastmile_qr_scan"}}, {"lon": -77.03361966666667, "fusion_lat": 0.0, "type": "electric_scooter", "lat": 38.895256, "is_disabled": 0, "name": "a311d4efec35aee68f24b76814badc1a", "is_reserved": 0, "bike_id": "a311d4efec35aee68f24b76814badc1a", "fusion_lon": 0.0, "rental_uris": {"ios": "https://dc.lft.to/lastmile_qr_scan", "android": "https://dc.lft.to/lastmile_qr_scan"}}, {"lon": -77.0362825, "fusion_lat": 0.0, "type": "electric_scooter", "lat": 38.924196333333335, "is_disabled": 0, "name": "1093545de6588ab26cb9b90461403950", "is_reserved": 0, "bike_id": "1093545de6588ab26cb9b90461403950", "fusion_lon": 0.0, "rental_uris": {"ios": "https://dc.lft.to/lastmile_qr_scan", "android": "https://dc.lft.to/lastmile_qr_scan"}}, {"lon": -77.02089966666666, "fusion_lat": 0.0, "type": "electric_scooter", "lat": 38.9216195, "is_disabled": 0, "name": "930f71ba99aa75003c3d31afb200b8e1", "is_reserved": 0, "bike_id": "930f71ba99aa75003c3d31afb200b8e1", "fusion_lon": 0.0, "rental_uris": {"ios": "https://dc.lft.to/lastmile_qr_scan", "android": "https://dc.lft.to/lastmile_qr_scan"}}, {"lon": -77.01947266666667, "fusion_lat": 0.0, "type": "electric_scooter", "lat": 38.92415616666667, "is_disabled": 0, "name": "856f46336ad7cc67b7114d5d73047c14", "is_reserved": 0, "bike_id": "856f46336ad7cc67b7114d5d73047c14", "fusion_lon": 0.0, "rental_uris": {"ios": "https://dc.lft.to/lastmile_qr_scan", "android": "https://dc.lft.to/lastmile_qr_scan"}}, {"lon": -77.1017755, "fusion_lat": 0.0, "type": "electric_bike", "lat": 38.918935833333336, "is_disabled": 0, "name": "386a3c119694a07e0f8f9e8532340491", "is_reserved": 0, "bike_id": "386a3c119694a07e0f8f9e8532340491", "fusion_lon": 0.0, "rental_uris": {"ios": "https://dc.lft.to/lastmile_qr_scan", "android": "https://dc.lft.to/lastmile_qr_scan"}}, {"lon": -76.976334, "fusion_lat": 0.0, "type": "electric_scooter", "lat": 38.9048705, "is_disabled": 0, "name": "bed1cc388a9f4bf53c84371760a1763e", "is_reserved": 0, "bike_id": "bed1cc388a9f4bf53c84371760a1763e", "fusion_lon": 0.0, "rental_uris": {"ios": "https://dc.lft.to/lastmile_qr_scan", "android": "https://dc.lft.to/lastmile_qr_scan"}}, {"lon": -77.00568716666666, "fusion_lat": 0.0, "type": "electric_scooter", "lat": 38.90231266666667, "is_disabled": 0, "name": "1e473f35588cb2b679b8e67e9647ba4c", "is_reserved": 0, "bike_id": "1e473f35588cb2b679b8e67e9647ba4c", "fusion_lon": 0.0, "rental_uris": {"ios": "https://dc.lft.to/lastmile_qr_scan", "android": "https://dc.lft.to/lastmile_qr_scan"}}, {"lon": -77.00320483333333, "fusion_lat": 0.0, "type": "electric_scooter", "lat": 38.889885666666665, "is_disabled": 0, "name": "d69f8c4c712600a71cbc8c81e6701cf0", "is_reserved": 0, "bike_id": "d69f8c4c712600a71cbc8c81e6701cf0", "fusion_lon": 0.0, "rental_uris": {"ios": "https://dc.lft.to/lastmile_qr_scan", "android": "https://dc.lft.to/lastmile_qr_scan"}}, {"lon": -76.99567683333333, "fusion_lat": 0.0, "type": "electric_scooter", "lat": 38.95540833333333, "is_disabled": 0, "name": "a66f33f046cedd7848fab20ce56479ba", "is_reserved": 0, "bike_id": "a66f33f046cedd7848fab20ce56479ba", "fusion_lon": 0.0, "rental_uris": {"ios": "https://dc.lft.to/lastmile_qr_scan", "android": "https://dc.lft.to/lastmile_qr_scan"}}, {"lon": -77.05083833333333, "fusion_lat": 0.0, "type": "electric_scooter", "lat": 38.923431666666666, "is_disabled": 0, "name": "549a91fc7e9ceeabc23c527587411f8d", "is_reserved": 0, "bike_id": "549a91fc7e9ceeabc23c527587411f8d", "fusion_lon": 0.0, "rental_uris": {"ios": "https://dc.lft.to/lastmile_qr_scan", "android": "https://dc.lft.to/lastmile_qr_scan"}}, {"lon": -77.04654066666667, "fusion_lat": 0.0, "type": "electric_scooter", "lat": 38.916002166666665, "is_disabled": 0, "name": "bc9c8dfcda23c9450f70bb93bd8ec6bb", "is_reserved": 0, "bike_id": "bc9c8dfcda23c9450f70bb93bd8ec6bb", "fusion_lon": 0.0, "rental_uris": {"ios": "https://dc.lft.to/lastmile_qr_scan", "android": "https://dc.lft.to/lastmile_qr_scan"}}, {"lon": -77.02139633333333, "fusion_lat": 0.0, "type": "electric_scooter", "lat": 38.923832833333336, "is_disabled": 0, "name": "e87988300fc7422a6875684ed0fb79e7", "is_reserved": 0, "bike_id": "e87988300fc7422a6875684ed0fb79e7", "fusion_lon": 0.0, "rental_uris": {"ios": "https://dc.lft.to/lastmile_qr_scan", "android": "https://dc.lft.to/lastmile_qr_scan"}}, {"lon": -76.99279116666666, "fusion_lat": 0.0, "type": "electric_bike", "lat": 38.97256633333333, "is_disabled": 0, "name": "cb64ebb82387a9353df90aff0348fc72", "is_reserved": 0, "bike_id": "cb64ebb82387a9353df90aff0348fc72", "fusion_lon": 0.0, "rental_uris": {"ios": "https://dc.lft.to/lastmile_qr_scan", "android": "https://dc.lft.to/lastmile_qr_scan"}}, {"lon": -77.01936566666667, "fusion_lat": 0.0, "type": "electric_scooter", "lat": 38.894901833333336, "is_disabled": 0, "name": "24d51e9310ea187e4edfd9949a52bb7e", "is_reserved": 0, "bike_id": "24d51e9310ea187e4edfd9949a52bb7e", "fusion_lon": 0.0, "rental_uris": {"ios": "https://dc.lft.to/lastmile_qr_scan", "android": "https://dc.lft.to/lastmile_qr_scan"}}, {"lon": -77.02198416666667, "fusion_lat": 0.0, "type": "electric_scooter", "lat": 38.914601, "is_disabled": 0, "name": "43bf91b99469bbb8ef13c02889c3b58b", "is_reserved": 0, "bike_id": "43bf91b99469bbb8ef13c02889c3b58b", "fusion_lon": 0.0, "rental_uris": {"ios": "https://dc.lft.to/lastmile_qr_scan", "android": "https://dc.lft.to/lastmile_qr_scan"}}, {"lon": -77.00735083333333, "fusion_lat": 0.0, "type": "electric_scooter", "lat": 38.9118975, "is_disabled": 0, "name": "091204f91ff423a8b6c962f9005732f8", "is_reserved": 0, "bike_id": "091204f91ff423a8b6c962f9005732f8", "fusion_lon": 0.0, "rental_uris": {"ios": "https://dc.lft.to/lastmile_qr_scan", "android": "https://dc.lft.to/lastmile_qr_scan"}}, {"lon": -76.98379766666666, "fusion_lat": 0.0, "type": "electric_scooter", "lat": 38.887266333333336, "is_disabled": 0, "name": "10ad85ce5aa0624948280b2c84fb0fd6", "is_reserved": 0, "bike_id": "10ad85ce5aa0624948280b2c84fb0fd6", "fusion_lon": 0.0, "rental_uris": {"ios": "https://dc.lft.to/lastmile_qr_scan", "android": "https://dc.lft.to/lastmile_qr_scan"}}, {"lon": -77.048998, "fusion_lat": 0.0, "type": "electric_scooter", "lat": 38.90081633333333, "is_disabled": 0, "name": "a4748a4c9368ac6ce35b3c58672e5c36", "is_reserved": 0, "bike_id": "a4748a4c9368ac6ce35b3c58672e5c36", "fusion_lon": 0.0, "rental_uris": {"ios": "https://dc.lft.to/lastmile_qr_scan", "android": "https://dc.lft.to/lastmile_qr_scan"}}, {"lon": -77.0343835, "fusion_lat": 0.0, "type": "electric_scooter", "lat": 38.94497583333333, "is_disabled": 0, "name": "3281291e56196cb076fc373e026e93a4", "is_reserved": 0, "bike_id": "3281291e56196cb076fc373e026e93a4", "fusion_lon": 0.0, "rental_uris": {"ios": "https://dc.lft.to/lastmile_qr_scan", "android": "https://dc.lft.to/lastmile_qr_scan"}}, {"lon": -77.02213883333333, "fusion_lat": 0.0, "type": "electric_scooter", "lat": 38.8985455, "is_disabled": 0, "name": "dc20f6fd07f037acc75fc5f031c2fd66", "is_reserved": 0, "bike_id": "dc20f6fd07f037acc75fc5f031c2fd66", "fusion_lon": 0.0, "rental_uris": {"ios": "https://dc.lft.to/lastmile_qr_scan", "android": "https://dc.lft.to/lastmile_qr_scan"}}, {"lon": -77.02009083333333, "fusion_lat": 0.0, "type": "electric_scooter", "lat": 38.903960833333336, "is_disabled": 0, "name": "2f1f4ca69b512bc07cf165aa5fe23358", "is_reserved": 0, "bike_id": "2f1f4ca69b512bc07cf165aa5fe23358", "fusion_lon": 0.0, "rental_uris": {"ios": "https://dc.lft.to/lastmile_qr_scan", "android": "https://dc.lft.to/lastmile_qr_scan"}}, {"lon": -77.03205933333334, "fusion_lat": 0.0, "type": "electric_scooter", "lat": 38.91572166666667, "is_disabled": 0, "name": "ae8b1891fe33042cfed12ba27a41cd6c", "is_reserved": 0, "bike_id": "ae8b1891fe33042cfed12ba27a41cd6c", "fusion_lon": 0.0, "rental_uris": {"ios": "https://dc.lft.to/lastmile_qr_scan", "android": "https://dc.lft.to/lastmile_qr_scan"}}, {"lon": -77.02479216666667, "fusion_lat": 0.0, "type": "electric_scooter", "lat": 38.916577833333335, "is_disabled": 0, "name": "d2e4a965668a6b97df2312b76ce69dc2", "is_reserved": 0, "bike_id": "d2e4a965668a6b97df2312b76ce69dc2", "fusion_lon": 0.0, "rental_uris": {"ios": "https://dc.lft.to/lastmile_qr_scan", "android": "https://dc.lft.to/lastmile_qr_scan"}}, {"lon": -77.04563716666667, "fusion_lat": 0.0, "type": "electric_scooter", "lat": 38.89879716666667, "is_disabled": 0, "name": "a2c0f309513a846da6c33325162d3ef5", "is_reserved": 0, "bike_id": "a2c0f309513a846da6c33325162d3ef5", "fusion_lon": 0.0, "rental_uris": {"ios": "https://dc.lft.to/lastmile_qr_scan", "android": "https://dc.lft.to/lastmile_qr_scan"}}, {"lon": -77.00595833333334, "fusion_lat": 0.0, "type": "electric_scooter", "lat": 38.87562233333333, "is_disabled": 0, "name": "59c5f180ff2d94ba9ff9fb53b6047aea", "is_reserved": 0, "bike_id": "59c5f180ff2d94ba9ff9fb53b6047aea", "fusion_lon": 0.0, "rental_uris": {"ios": "https://dc.lft.to/lastmile_qr_scan", "android": "https://dc.lft.to/lastmile_qr_scan"}}, {"lon": -77.06923316666666, "fusion_lat": 0.0, "type": "electric_scooter", "lat": 38.9122985, "is_disabled": 0, "name": "d31d446c7029adfd3392f1f0043dda28", "is_reserved": 0, "bike_id": "d31d446c7029adfd3392f1f0043dda28", "fusion_lon": 0.0, "rental_uris": {"ios": "https://dc.lft.to/lastmile_qr_scan", "android": "https://dc.lft.to/lastmile_qr_scan"}}, {"lon": -77.02471233333333, "fusion_lat": 0.0, "type": "electric_scooter", "lat": 38.93850783333333, "is_disabled": 0, "name": "7192ac976002f74b57a2367272a211ab", "is_reserved": 0, "bike_id": "7192ac976002f74b57a2367272a211ab", "fusion_lon": 0.0, "rental_uris": {"ios": "https://dc.lft.to/lastmile_qr_scan", "android": "https://dc.lft.to/lastmile_qr_scan"}}, {"lon": -77.023739, "fusion_lat": 0.0, "type": "electric_scooter", "lat": 38.917789166666665, "is_disabled": 0, "name": "01bd76e528d264efc900a2579b9534fa", "is_reserved": 0, "bike_id": "01bd76e528d264efc900a2579b9534fa", "fusion_lon": 0.0, "rental_uris": {"ios": "https://dc.lft.to/lastmile_qr_scan", "android": "https://dc.lft.to/lastmile_qr_scan"}}, {"lon": -77.04313816666667, "fusion_lat": 0.0, "type": "electric_scooter", "lat": 38.901333, "is_disabled": 0, "name": "00b047457f09124e809a20157128bfc6", "is_reserved": 0, "bike_id": "00b047457f09124e809a20157128bfc6", "fusion_lon": 0.0, "rental_uris": {"ios": "https://dc.lft.to/lastmile_qr_scan", "android": "https://dc.lft.to/lastmile_qr_scan"}}, {"lon": -77.02957266666667, "fusion_lat": 0.0, "type": "electric_scooter", "lat": 38.915723166666666, "is_disabled": 0, "name": "9d6a1e5d5268cc19764466aa4c1ccc95", "is_reserved": 0, "bike_id": "9d6a1e5d5268cc19764466aa4c1ccc95", "fusion_lon": 0.0, "rental_uris": {"ios": "https://dc.lft.to/lastmile_qr_scan", "android": "https://dc.lft.to/lastmile_qr_scan"}}, {"lon": -77.04864433333333, "fusion_lat": 0.0, "type": "electric_scooter", "lat": 38.8994905, "is_disabled": 0, "name": "572f91995a92719c48871a04f19f05ce", "is_reserved": 0, "bike_id": "572f91995a92719c48871a04f19f05ce", "fusion_lon": 0.0, "rental_uris": {"ios": "https://dc.lft.to/lastmile_qr_scan", "android": "https://dc.lft.to/lastmile_qr_scan"}}, {"lon": -77.04099966666666, "fusion_lat": 0.0, "type": "electric_scooter", "lat": 38.910391, "is_disabled": 0, "name": "65d7d08af1dfcffccea768c78993a92d", "is_reserved": 0, "bike_id": "65d7d08af1dfcffccea768c78993a92d", "fusion_lon": 0.0, "rental_uris": {"ios": "https://dc.lft.to/lastmile_qr_scan", "android": "https://dc.lft.to/lastmile_qr_scan"}}, {"lon": -77.02200916666666, "fusion_lat": 0.0, "type": "electric_scooter", "lat": 38.9152915, "is_disabled": 0, "name": "07af7910dd77fb044a621950cc0a9c06", "is_reserved": 0, "bike_id": "07af7910dd77fb044a621950cc0a9c06", "fusion_lon": 0.0, "rental_uris": {"ios": "https://dc.lft.to/lastmile_qr_scan", "android": "https://dc.lft.to/lastmile_qr_scan"}}, {"lon": -77.052704, "fusion_lat": 0.0, "type": "electric_scooter", "lat": 38.92757, "is_disabled": 0, "name": "83d4796996c88f06031a7cf8033a9421", "is_reserved": 0, "bike_id": "83d4796996c88f06031a7cf8033a9421", "fusion_lon": 0.0, "rental_uris": {"ios": "https://dc.lft.to/lastmile_qr_scan", "android": "https://dc.lft.to/lastmile_qr_scan"}}, {"lon": -77.00257833333333, "fusion_lat": 0.0, "type": "electric_scooter", "lat": 38.87662066666667, "is_disabled": 0, "name": "d5e14d4ebd7ed1852ea83e861b22e3c4", "is_reserved": 0, "bike_id": "d5e14d4ebd7ed1852ea83e861b22e3c4", "fusion_lon": 0.0, "rental_uris": {"ios": "https://dc.lft.to/lastmile_qr_scan", "android": "https://dc.lft.to/lastmile_qr_scan"}}, {"lon": -77.049966, "fusion_lat": 0.0, "type": "electric_scooter", "lat": 38.900652, "is_disabled": 0, "name": "cb8feba00d697f0ba7d5367eaba61551", "is_reserved": 0, "bike_id": "cb8feba00d697f0ba7d5367eaba61551", "fusion_lon": 0.0, "rental_uris": {"ios": "https://dc.lft.to/lastmile_qr_scan", "android": "https://dc.lft.to/lastmile_qr_scan"}}, {"lon": -76.995098, "fusion_lat": 0.0, "type": "electric_scooter", "lat": 38.87679283333333, "is_disabled": 0, "name": "bae18d8df0f43e4bebad007c3b0d0536", "is_reserved": 0, "bike_id": "bae18d8df0f43e4bebad007c3b0d0536", "fusion_lon": 0.0, "rental_uris": {"ios": "https://dc.lft.to/lastmile_qr_scan", "android": "https://dc.lft.to/lastmile_qr_scan"}}, {"lon": -77.02319533333333, "fusion_lat": 0.0, "type": "electric_scooter", "lat": 38.92513983333333, "is_disabled": 0, "name": "a9adae571a6fe114346ebdd041a8afd0", "is_reserved": 0, "bike_id": "a9adae571a6fe114346ebdd041a8afd0", "fusion_lon": 0.0, "rental_uris": {"ios": "https://dc.lft.to/lastmile_qr_scan", "android": "https://dc.lft.to/lastmile_qr_scan"}}, {"lon": -77.02615916666667, "fusion_lat": 0.0, "type": "electric_scooter", "lat": 38.899884, "is_disabled": 0, "name": "ef987213059787404029a1470fb55213", "is_reserved": 0, "bike_id": "ef987213059787404029a1470fb55213", "fusion_lon": 0.0, "rental_uris": {"ios": "https://dc.lft.to/lastmile_qr_scan", "android": "https://dc.lft.to/lastmile_qr_scan"}}, {"lon": -77.02160283333333, "fusion_lat": 0.0, "type": "electric_scooter", "lat": 38.9329935, "is_disabled": 0, "name": "edf020432bc1db219dd5d2b4ab0068be", "is_reserved": 0, "bike_id": "edf020432bc1db219dd5d2b4ab0068be", "fusion_lon": 0.0, "rental_uris": {"ios": "https://dc.lft.to/lastmile_qr_scan", "android": "https://dc.lft.to/lastmile_qr_scan"}}, {"lon": -77.04170416666666, "fusion_lat": 0.0, "type": "electric_scooter", "lat": 38.907435666666665, "is_disabled": 0, "name": "b37873f4219764a064719c0a3cc515f4", "is_reserved": 0, "bike_id": "b37873f4219764a064719c0a3cc515f4", "fusion_lon": 0.0, "rental_uris": {"ios": "https://dc.lft.to/lastmile_qr_scan", "android": "https://dc.lft.to/lastmile_qr_scan"}}, {"lon": -77.021882, "fusion_lat": 0.0, "type": "electric_scooter", "lat": 38.909517, "is_disabled": 0, "name": "8775c7e3041b584a066ec1f738f91451", "is_reserved": 0, "bike_id": "8775c7e3041b584a066ec1f738f91451", "fusion_lon": 0.0, "rental_uris": {"ios": "https://dc.lft.to/lastmile_qr_scan", "android": "https://dc.lft.to/lastmile_qr_scan"}}, {"lon": -77.00588866666666, "fusion_lat": 0.0, "type": "electric_scooter", "lat": 38.875629833333335, "is_disabled": 0, "name": "253dfe5c2a33804fa49b06e4211c1070", "is_reserved": 0, "bike_id": "253dfe5c2a33804fa49b06e4211c1070", "fusion_lon": 0.0, "rental_uris": {"ios": "https://dc.lft.to/lastmile_qr_scan", "android": "https://dc.lft.to/lastmile_qr_scan"}}, {"lon": -77.036457, "fusion_lat": 0.0, "type": "electric_scooter", "lat": 38.90675433333333, "is_disabled": 0, "name": "589baef19b65b57cd13015732db4bce4", "is_reserved": 0, "bike_id": "589baef19b65b57cd13015732db4bce4", "fusion_lon": 0.0, "rental_uris": {"ios": "https://dc.lft.to/lastmile_qr_scan", "android": "https://dc.lft.to/lastmile_qr_scan"}}, {"lon": -77.01728266666667, "fusion_lat": 0.0, "type": "electric_scooter", "lat": 38.94312816666667, "is_disabled": 0, "name": "2fc0f119d346c746b805ab3991ed03b4", "is_reserved": 0, "bike_id": "2fc0f119d346c746b805ab3991ed03b4", "fusion_lon": 0.0, "rental_uris": {"ios": "https://dc.lft.to/lastmile_qr_scan", "android": "https://dc.lft.to/lastmile_qr_scan"}}, {"lon": -77.0502635, "fusion_lat": 0.0, "type": "electric_scooter", "lat": 38.906729166666665, "is_disabled": 0, "name": "d68f33512cbbba530bdddb9ab535aac2", "is_reserved": 0, "bike_id": "d68f33512cbbba530bdddb9ab535aac2", "fusion_lon": 0.0, "rental_uris": {"ios": "https://dc.lft.to/lastmile_qr_scan", "android": "https://dc.lft.to/lastmile_qr_scan"}}, {"lon": -77.0230085, "fusion_lat": 0.0, "type": "electric_scooter", "lat": 38.91789083333333, "is_disabled": 0, "name": "ac84868d681a2c022cc0ed60148dbb4e", "is_reserved": 0, "bike_id": "ac84868d681a2c022cc0ed60148dbb4e", "fusion_lon": 0.0, "rental_uris": {"ios": "https://dc.lft.to/lastmile_qr_scan", "android": "https://dc.lft.to/lastmile_qr_scan"}}, {"lon": -77.05913216666667, "fusion_lat": 0.0, "type": "electric_scooter", "lat": 38.90155716666666, "is_disabled": 0, "name": "58ba4cb2f46ba543a86e13caef875ea9", "is_reserved": 0, "bike_id": "58ba4cb2f46ba543a86e13caef875ea9", "fusion_lon": 0.0, "rental_uris": {"ios": "https://dc.lft.to/lastmile_qr_scan", "android": "https://dc.lft.to/lastmile_qr_scan"}}, {"lon": -77.0284625, "fusion_lat": 0.0, "type": "electric_scooter", "lat": 38.89710866666667, "is_disabled": 0, "name": "1a2dbef0046fae0099f7fc8d73ba7a53", "is_reserved": 0, "bike_id": "1a2dbef0046fae0099f7fc8d73ba7a53", "fusion_lon": 0.0, "rental_uris": {"ios": "https://dc.lft.to/lastmile_qr_scan", "android": "https://dc.lft.to/lastmile_qr_scan"}}, {"lon": -76.9996205, "fusion_lat": 0.0, "type": "electric_scooter", "lat": 38.92564, "is_disabled": 0, "name": "b106ed5914f4c71c009d276746afa6ef", "is_reserved": 0, "bike_id": "b106ed5914f4c71c009d276746afa6ef", "fusion_lon": 0.0, "rental_uris": {"ios": "https://dc.lft.to/lastmile_qr_scan", "android": "https://dc.lft.to/lastmile_qr_scan"}}, {"lon": -76.98273466666667, "fusion_lat": 0.0, "type": "electric_scooter", "lat": 38.913297166666666, "is_disabled": 0, "name": "2f213a6927cbae50639c9ded9e607b4f", "is_reserved": 0, "bike_id": "2f213a6927cbae50639c9ded9e607b4f", "fusion_lon": 0.0, "rental_uris": {"ios": "https://dc.lft.to/lastmile_qr_scan", "android": "https://dc.lft.to/lastmile_qr_scan"}}, {"lon": -77.02812283333333, "fusion_lat": 0.0, "type": "electric_scooter", "lat": 38.902538, "is_disabled": 0, "name": "8fd952657fa0f630ec9f4fe1c007d87c", "is_reserved": 0, "bike_id": "8fd952657fa0f630ec9f4fe1c007d87c", "fusion_lon": 0.0, "rental_uris": {"ios": "https://dc.lft.to/lastmile_qr_scan", "android": "https://dc.lft.to/lastmile_qr_scan"}}, {"lon": -77.12886266666666, "fusion_lat": 0.0, "type": "electric_bike", "lat": 38.906092, "is_disabled": 0, "name": "71f417f0eba5cecb97c5b93b29102445", "is_reserved": 0, "bike_id": "71f417f0eba5cecb97c5b93b29102445", "fusion_lon": 0.0, "rental_uris": {"ios": "https://dc.lft.to/lastmile_qr_scan", "android": "https://dc.lft.to/lastmile_qr_scan"}}, {"lon": -77.01932066666667, "fusion_lat": 0.0, "type": "electric_scooter", "lat": 38.919285333333335, "is_disabled": 0, "name": "33f37d82a637cb5bc20331577f946d1e", "is_reserved": 0, "bike_id": "33f37d82a637cb5bc20331577f946d1e", "fusion_lon": 0.0, "rental_uris": {"ios": "https://dc.lft.to/lastmile_qr_scan", "android": "https://dc.lft.to/lastmile_qr_scan"}}, {"lon": -76.99862566666667, "fusion_lat": 0.0, "type": "electric_scooter", "lat": 38.864314, "is_disabled": 0, "name": "751ea882b8389a0c37380bf94ba618b8", "is_reserved": 0, "bike_id": "751ea882b8389a0c37380bf94ba618b8", "fusion_lon": 0.0, "rental_uris": {"ios": "https://dc.lft.to/lastmile_qr_scan", "android": "https://dc.lft.to/lastmile_qr_scan"}}, {"lon": -77.037875, "fusion_lat": 0.0, "type": "electric_scooter", "lat": 38.92429516666667, "is_disabled": 0, "name": "06a05c73a352acd561e6c826813bbd8b", "is_reserved": 0, "bike_id": "06a05c73a352acd561e6c826813bbd8b", "fusion_lon": 0.0, "rental_uris": {"ios": "https://dc.lft.to/lastmile_qr_scan", "android": "https://dc.lft.to/lastmile_qr_scan"}}, {"lon": -77.01179583333334, "fusion_lat": 0.0, "type": "electric_scooter", "lat": 38.880732, "is_disabled": 0, "name": "6efe83e91e764ee5bfa70abf10730872", "is_reserved": 0, "bike_id": "6efe83e91e764ee5bfa70abf10730872", "fusion_lon": 0.0, "rental_uris": {"ios": "https://dc.lft.to/lastmile_qr_scan", "android": "https://dc.lft.to/lastmile_qr_scan"}}, {"lon": -76.98702683333333, "fusion_lat": 0.0, "type": "electric_scooter", "lat": 38.90055, "is_disabled": 0, "name": "4d46b1e38c64d61eb3e17ebf2020becd", "is_reserved": 0, "bike_id": "4d46b1e38c64d61eb3e17ebf2020becd", "fusion_lon": 0.0, "rental_uris": {"ios": "https://dc.lft.to/lastmile_qr_scan", "android": "https://dc.lft.to/lastmile_qr_scan"}}, {"lon": -76.9968965, "fusion_lat": 0.0, "type": "electric_scooter", "lat": 38.921993, "is_disabled": 0, "name": "709006efd35ed207aa7953102e5fa053", "is_reserved": 0, "bike_id": "709006efd35ed207aa7953102e5fa053", "fusion_lon": 0.0, "rental_uris": {"ios": "https://dc.lft.to/lastmile_qr_scan", "android": "https://dc.lft.to/lastmile_qr_scan"}}, {"lon": -77.0347905, "fusion_lat": 0.0, "type": "electric_scooter", "lat": 38.92883533333333, "is_disabled": 0, "name": "b2a15c393b0e9576f63813d93ee4cf1a", "is_reserved": 0, "bike_id": "b2a15c393b0e9576f63813d93ee4cf1a", "fusion_lon": 0.0, "rental_uris": {"ios": "https://dc.lft.to/lastmile_qr_scan", "android": "https://dc.lft.to/lastmile_qr_scan"}}, {"lon": -77.03861633333334, "fusion_lat": 0.0, "type": "electric_scooter", "lat": 38.91195716666667, "is_disabled": 0, "name": "24897bf82b56a461a89033e5f00627c7", "is_reserved": 0, "bike_id": "24897bf82b56a461a89033e5f00627c7", "fusion_lon": 0.0, "rental_uris": {"ios": "https://dc.lft.to/lastmile_qr_scan", "android": "https://dc.lft.to/lastmile_qr_scan"}}, {"lon": -77.046746, "fusion_lat": 0.0, "type": "electric_scooter", "lat": 38.903287666666664, "is_disabled": 0, "name": "68064d4af9bf2026c0234527b2739d26", "is_reserved": 0, "bike_id": "68064d4af9bf2026c0234527b2739d26", "fusion_lon": 0.0, "rental_uris": {"ios": "https://dc.lft.to/lastmile_qr_scan", "android": "https://dc.lft.to/lastmile_qr_scan"}}, {"lon": -77.04671366666666, "fusion_lat": 0.0, "type": "electric_scooter", "lat": 38.901662, "is_disabled": 0, "name": "7387e3a1621717dbe28c0331894c54ee", "is_reserved": 0, "bike_id": "7387e3a1621717dbe28c0331894c54ee", "fusion_lon": 0.0, "rental_uris": {"ios": "https://dc.lft.to/lastmile_qr_scan", "android": "https://dc.lft.to/lastmile_qr_scan"}}, {"lon": -77.02179583333333, "fusion_lat": 0.0, "type": "electric_scooter", "lat": 38.905753833333335, "is_disabled": 0, "name": "d2cf961975e30bad89a280eba3263e95", "is_reserved": 0, "bike_id": "d2cf961975e30bad89a280eba3263e95", "fusion_lon": 0.0, "rental_uris": {"ios": "https://dc.lft.to/lastmile_qr_scan", "android": "https://dc.lft.to/lastmile_qr_scan"}}, {"lon": -77.07207383333333, "fusion_lat": 0.0, "type": "electric_scooter", "lat": 38.922462, "is_disabled": 0, "name": "b57c6d1be94ee770faae3807d68e6cf5", "is_reserved": 0, "bike_id": "b57c6d1be94ee770faae3807d68e6cf5", "fusion_lon": 0.0, "rental_uris": {"ios": "https://dc.lft.to/lastmile_qr_scan", "android": "https://dc.lft.to/lastmile_qr_scan"}}, {"lon": -76.93485666666666, "fusion_lat": 0.0, "type": "electric_scooter", "lat": 38.90733983333333, "is_disabled": 0, "name": "e1cd15d4551fbcfc0248103332a973c0", "is_reserved": 0, "bike_id": "e1cd15d4551fbcfc0248103332a973c0", "fusion_lon": 0.0, "rental_uris": {"ios": "https://dc.lft.to/lastmile_qr_scan", "android": "https://dc.lft.to/lastmile_qr_scan"}}, {"lon": -77.03646866666666, "fusion_lat": 0.0, "type": "electric_scooter", "lat": 38.92340683333333, "is_disabled": 0, "name": "eae5d1844612b066f33d2a55077869e9", "is_reserved": 0, "bike_id": "eae5d1844612b066f33d2a55077869e9", "fusion_lon": 0.0, "rental_uris": {"ios": "https://dc.lft.to/lastmile_qr_scan", "android": "https://dc.lft.to/lastmile_qr_scan"}}, {"lon": -77.05698383333333, "fusion_lat": 0.0, "type": "electric_scooter", "lat": 38.93359183333333, "is_disabled": 0, "name": "e52c7864ae0effd11ddaa3896552a85a", "is_reserved": 0, "bike_id": "e52c7864ae0effd11ddaa3896552a85a", "fusion_lon": 0.0, "rental_uris": {"ios": "https://dc.lft.to/lastmile_qr_scan", "android": "https://dc.lft.to/lastmile_qr_scan"}}, {"lon": -77.02390866666667, "fusion_lat": 0.0, "type": "electric_scooter", "lat": 38.8960565, "is_disabled": 0, "name": "a6cc9e3929161207d84aa9435505dc74", "is_reserved": 0, "bike_id": "a6cc9e3929161207d84aa9435505dc74", "fusion_lon": 0.0, "rental_uris": {"ios": "https://dc.lft.to/lastmile_qr_scan", "android": "https://dc.lft.to/lastmile_qr_scan"}}, {"lon": -77.0346705, "fusion_lat": 0.0, "type": "electric_scooter", "lat": 38.91574033333333, "is_disabled": 0, "name": "f2ddb532ebcd36ef58e693cc67116f35", "is_reserved": 0, "bike_id": "f2ddb532ebcd36ef58e693cc67116f35", "fusion_lon": 0.0, "rental_uris": {"ios": "https://dc.lft.to/lastmile_qr_scan", "android": "https://dc.lft.to/lastmile_qr_scan"}}, {"lon": -77.01535883333334, "fusion_lat": 0.0, "type": "electric_scooter", "lat": 38.88485883333333, "is_disabled": 0, "name": "539e12793a0aeee4d70dbd7b2e759062", "is_reserved": 0, "bike_id": "539e12793a0aeee4d70dbd7b2e759062", "fusion_lon": 0.0, "rental_uris": {"ios": "https://dc.lft.to/lastmile_qr_scan", "android": "https://dc.lft.to/lastmile_qr_scan"}}, {"lon": -77.03203933333333, "fusion_lat": 0.0, "type": "electric_scooter", "lat": 38.914671, "is_disabled": 0, "name": "e9c9a08ef1577d1d54237a978f7fb9b6", "is_reserved": 0, "bike_id": "e9c9a08ef1577d1d54237a978f7fb9b6", "fusion_lon": 0.0, "rental_uris": {"ios": "https://dc.lft.to/lastmile_qr_scan", "android": "https://dc.lft.to/lastmile_qr_scan"}}, {"lon": -77.03187333333334, "fusion_lat": 0.0, "type": "electric_scooter", "lat": 38.91394316666667, "is_disabled": 0, "name": "eb6c68dcdef4353e087073d5a0def35b", "is_reserved": 0, "bike_id": "eb6c68dcdef4353e087073d5a0def35b", "fusion_lon": 0.0, "rental_uris": {"ios": "https://dc.lft.to/lastmile_qr_scan", "android": "https://dc.lft.to/lastmile_qr_scan"}}, {"lon": -77.02012883333333, "fusion_lat": 0.0, "type": "electric_scooter", "lat": 38.93495766666667, "is_disabled": 0, "name": "db36b73e79e0c1a462353a3c2007bb64", "is_reserved": 0, "bike_id": "db36b73e79e0c1a462353a3c2007bb64", "fusion_lon": 0.0, "rental_uris": {"ios": "https://dc.lft.to/lastmile_qr_scan", "android": "https://dc.lft.to/lastmile_qr_scan"}}, {"lon": -77.02652816666667, "fusion_lat": 0.0, "type": "electric_scooter", "lat": 38.8948325, "is_disabled": 0, "name": "192c6239997dd99dfa408eaad7806a73", "is_reserved": 0, "bike_id": "192c6239997dd99dfa408eaad7806a73", "fusion_lon": 0.0, "rental_uris": {"ios": "https://dc.lft.to/lastmile_qr_scan", "android": "https://dc.lft.to/lastmile_qr_scan"}}, {"lon": -77.00186283333333, "fusion_lat": 0.0, "type": "electric_scooter", "lat": 38.902452833333335, "is_disabled": 0, "name": "155a8b209e477bc952ae99352a530b14", "is_reserved": 0, "bike_id": "155a8b209e477bc952ae99352a530b14", "fusion_lon": 0.0, "rental_uris": {"ios": "https://dc.lft.to/lastmile_qr_scan", "android": "https://dc.lft.to/lastmile_qr_scan"}}, {"lon": -76.995751, "fusion_lat": 0.0, "type": "electric_scooter", "lat": 38.892071666666666, "is_disabled": 0, "name": "2bcdc683f8dec7c8ef000983fa1a6b2e", "is_reserved": 0, "bike_id": "2bcdc683f8dec7c8ef000983fa1a6b2e", "fusion_lon": 0.0, "rental_uris": {"ios": "https://dc.lft.to/lastmile_qr_scan", "android": "https://dc.lft.to/lastmile_qr_scan"}}, {"lon": -77.03279883333333, "fusion_lat": 0.0, "type": "electric_scooter", "lat": 38.932485, "is_disabled": 0, "name": "34e2bdf54e3cf35aa253644bc8260fd4", "is_reserved": 0, "bike_id": "34e2bdf54e3cf35aa253644bc8260fd4", "fusion_lon": 0.0, "rental_uris": {"ios": "https://dc.lft.to/lastmile_qr_scan", "android": "https://dc.lft.to/lastmile_qr_scan"}}, {"lon": -76.97620383333333, "fusion_lat": 0.0, "type": "electric_bike", "lat": 38.8402705, "is_disabled": 0, "name": "ba3afbd537ae7589aaa774ffb6acd313", "is_reserved": 0, "bike_id": "ba3afbd537ae7589aaa774ffb6acd313", "fusion_lon": 0.0, "rental_uris": {"ios": "https://dc.lft.to/lastmile_qr_scan", "android": "https://dc.lft.to/lastmile_qr_scan"}}, {"lon": -77.02788883333334, "fusion_lat": 0.0, "type": "electric_scooter", "lat": 38.89606666666667, "is_disabled": 0, "name": "2bc8e87e124c7831925b0008fecc4f83", "is_reserved": 0, "bike_id": "2bc8e87e124c7831925b0008fecc4f83", "fusion_lon": 0.0, "rental_uris": {"ios": "https://dc.lft.to/lastmile_qr_scan", "android": "https://dc.lft.to/lastmile_qr_scan"}}, {"lon": -77.0319715, "fusion_lat": 0.0, "type": "electric_scooter", "lat": 38.91835433333333, "is_disabled": 0, "name": "168bada092572b072693d5bd090feda9", "is_reserved": 0, "bike_id": "168bada092572b072693d5bd090feda9", "fusion_lon": 0.0, "rental_uris": {"ios": "https://dc.lft.to/lastmile_qr_scan", "android": "https://dc.lft.to/lastmile_qr_scan"}}, {"lon": -76.94744083333333, "fusion_lat": 0.0, "type": "electric_scooter", "lat": 38.89685383333333, "is_disabled": 0, "name": "beb51d25c595e013bb5bfa53a057fb99", "is_reserved": 0, "bike_id": "beb51d25c595e013bb5bfa53a057fb99", "fusion_lon": 0.0, "rental_uris": {"ios": "https://dc.lft.to/lastmile_qr_scan", "android": "https://dc.lft.to/lastmile_qr_scan"}}, {"lon": -77.191326, "fusion_lat": 0.0, "type": "electric_bike", "lat": 38.89460566666666, "is_disabled": 0, "name": "7b9e2e8bbf67bfe4b74daf06c29c2a5c", "is_reserved": 0, "bike_id": "7b9e2e8bbf67bfe4b74daf06c29c2a5c", "fusion_lon": 0.0, "rental_uris": {"ios": "https://dc.lft.to/lastmile_qr_scan", "android": "https://dc.lft.to/lastmile_qr_scan"}}, {"lon": -77.02297816666666, "fusion_lat": 0.0, "type": "electric_scooter", "lat": 38.91610166666667, "is_disabled": 0, "name": "6b1e3f6c79a9c4af0388ae68d2d04447", "is_reserved": 0, "bike_id": "6b1e3f6c79a9c4af0388ae68d2d04447", "fusion_lon": 0.0, "rental_uris": {"ios": "https://dc.lft.to/lastmile_qr_scan", "android": "https://dc.lft.to/lastmile_qr_scan"}}, {"lon": -77.00682933333333, "fusion_lat": 0.0, "type": "electric_scooter", "lat": 38.900087666666664, "is_disabled": 0, "name": "68921b287770787e1b0e7fbc4cd112d9", "is_reserved": 0, "bike_id": "68921b287770787e1b0e7fbc4cd112d9", "fusion_lon": 0.0, "rental_uris": {"ios": "https://dc.lft.to/lastmile_qr_scan", "android": "https://dc.lft.to/lastmile_qr_scan"}}, {"lon": -77.1169275, "fusion_lat": 0.0, "type": "electric_bike", "lat": 38.88552833333333, "is_disabled": 0, "name": "cd82ca9512cc56919a193d3df9a4b11d", "is_reserved": 0, "bike_id": "cd82ca9512cc56919a193d3df9a4b11d", "fusion_lon": 0.0, "rental_uris": {"ios": "https://dc.lft.to/lastmile_qr_scan", "android": "https://dc.lft.to/lastmile_qr_scan"}}, {"lon": -76.931885, "fusion_lat": 0.0, "type": "electric_scooter", "lat": 38.89870916666667, "is_disabled": 0, "name": "68dc5dac16eb8c0d8b730e185e566ffc", "is_reserved": 0, "bike_id": "68dc5dac16eb8c0d8b730e185e566ffc", "fusion_lon": 0.0, "rental_uris": {"ios": "https://dc.lft.to/lastmile_qr_scan", "android": "https://dc.lft.to/lastmile_qr_scan"}}, {"lon": -77.018241, "fusion_lat": 0.0, "type": "electric_scooter", "lat": 38.92226083333333, "is_disabled": 0, "name": "2f20f1c63bdc6669d8381c2a4ff907ec", "is_reserved": 0, "bike_id": "2f20f1c63bdc6669d8381c2a4ff907ec", "fusion_lon": 0.0, "rental_uris": {"ios": "https://dc.lft.to/lastmile_qr_scan", "android": "https://dc.lft.to/lastmile_qr_scan"}}, {"lon": -76.93719116666666, "fusion_lat": 0.0, "type": "electric_scooter", "lat": 38.890165333333336, "is_disabled": 0, "name": "7d24ec25d51bc6ce7be83aa37f94135f", "is_reserved": 0, "bike_id": "7d24ec25d51bc6ce7be83aa37f94135f", "fusion_lon": 0.0, "rental_uris": {"ios": "https://dc.lft.to/lastmile_qr_scan", "android": "https://dc.lft.to/lastmile_qr_scan"}}, {"lon": -77.0246485, "fusion_lat": 0.0, "type": "electric_scooter", "lat": 38.89725933333333, "is_disabled": 0, "name": "7cdd94d370104dafd128d9b0f5e25676", "is_reserved": 0, "bike_id": "7cdd94d370104dafd128d9b0f5e25676", "fusion_lon": 0.0, "rental_uris": {"ios": "https://dc.lft.to/lastmile_qr_scan", "android": "https://dc.lft.to/lastmile_qr_scan"}}, {"lon": -77.046619, "fusion_lat": 0.0, "type": "electric_scooter", "lat": 38.89246216666667, "is_disabled": 0, "name": "209878b54b449ce64ec25e85dcec4513", "is_reserved": 0, "bike_id": "209878b54b449ce64ec25e85dcec4513", "fusion_lon": 0.0, "rental_uris": {"ios": "https://dc.lft.to/lastmile_qr_scan", "android": "https://dc.lft.to/lastmile_qr_scan"}}, {"lon": -77.05152233333334, "fusion_lat": 0.0, "type": "electric_scooter", "lat": 38.89799033333333, "is_disabled": 0, "name": "f2dc401fcce540a7fecf96ce27130ecf", "is_reserved": 0, "bike_id": "f2dc401fcce540a7fecf96ce27130ecf", "fusion_lon": 0.0, "rental_uris": {"ios": "https://dc.lft.to/lastmile_qr_scan", "android": "https://dc.lft.to/lastmile_qr_scan"}}, {"lon": -76.98989833333333, "fusion_lat": 0.0, "type": "electric_bike", "lat": 38.936679833333336, "is_disabled": 0, "name": "3815b5e001e21816051958761c93f3ab", "is_reserved": 0, "bike_id": "3815b5e001e21816051958761c93f3ab", "fusion_lon": 0.0, "rental_uris": {"ios": "https://dc.lft.to/lastmile_qr_scan", "android": "https://dc.lft.to/lastmile_qr_scan"}}, {"lon": -77.03511783333333, "fusion_lat": 0.0, "type": "electric_scooter", "lat": 38.916229, "is_disabled": 0, "name": "4b24249ef7206f5d05cfdaeedb82f345", "is_reserved": 0, "bike_id": "4b24249ef7206f5d05cfdaeedb82f345", "fusion_lon": 0.0, "rental_uris": {"ios": "https://dc.lft.to/lastmile_qr_scan", "android": "https://dc.lft.to/lastmile_qr_scan"}}, {"lon": -77.03451316666667, "fusion_lat": 0.0, "type": "electric_scooter", "lat": 38.921381333333336, "is_disabled": 0, "name": "685ebf3acb7a04c33c1149e969f88e43", "is_reserved": 0, "bike_id": "685ebf3acb7a04c33c1149e969f88e43", "fusion_lon": 0.0, "rental_uris": {"ios": "https://dc.lft.to/lastmile_qr_scan", "android": "https://dc.lft.to/lastmile_qr_scan"}}, {"lon": -77.095779, "fusion_lat": 0.0, "type": "electric_bike", "lat": 38.91703783333333, "is_disabled": 0, "name": "e78796af4a7afaeb3139acedf3aa92d0", "is_reserved": 0, "bike_id": "e78796af4a7afaeb3139acedf3aa92d0", "fusion_lon": 0.0, "rental_uris": {"ios": "https://dc.lft.to/lastmile_qr_scan", "android": "https://dc.lft.to/lastmile_qr_scan"}}, {"lon": -76.94789916666667, "fusion_lat": 0.0, "type": "electric_scooter", "lat": 38.896377666666666, "is_disabled": 0, "name": "2fa1595353cf0f6818638af9285087b6", "is_reserved": 0, "bike_id": "2fa1595353cf0f6818638af9285087b6", "fusion_lon": 0.0, "rental_uris": {"ios": "https://dc.lft.to/lastmile_qr_scan", "android": "https://dc.lft.to/lastmile_qr_scan"}}, {"lon": -77.0407785, "fusion_lat": 0.0, "type": "electric_scooter", "lat": 38.8934385, "is_disabled": 0, "name": "2b5ac7af21b003d3b434013e90aff35b", "is_reserved": 0, "bike_id": "2b5ac7af21b003d3b434013e90aff35b", "fusion_lon": 0.0, "rental_uris": {"ios": "https://dc.lft.to/lastmile_qr_scan", "android": "https://dc.lft.to/lastmile_qr_scan"}}, {"lon": -77.05091716666666, "fusion_lat": 0.0, "type": "electric_scooter", "lat": 38.900363, "is_disabled": 0, "name": "f146825b91347740c1c464dcdf0e972b", "is_reserved": 0, "bike_id": "f146825b91347740c1c464dcdf0e972b", "fusion_lon": 0.0, "rental_uris": {"ios": "https://dc.lft.to/lastmile_qr_scan", "android": "https://dc.lft.to/lastmile_qr_scan"}}, {"lon": -77.03668183333333, "fusion_lat": 0.0, "type": "electric_scooter", "lat": 38.90389533333333, "is_disabled": 0, "name": "5bb3733ed3ca319a67ff6b8fd7325744", "is_reserved": 0, "bike_id": "5bb3733ed3ca319a67ff6b8fd7325744", "fusion_lon": 0.0, "rental_uris": {"ios": "https://dc.lft.to/lastmile_qr_scan", "android": "https://dc.lft.to/lastmile_qr_scan"}}, {"lon": -77.03254783333334, "fusion_lat": 0.0, "type": "electric_scooter", "lat": 38.9191985, "is_disabled": 0, "name": "cd9d7998b75c620acdbe874fe0797281", "is_reserved": 0, "bike_id": "cd9d7998b75c620acdbe874fe0797281", "fusion_lon": 0.0, "rental_uris": {"ios": "https://dc.lft.to/lastmile_qr_scan", "android": "https://dc.lft.to/lastmile_qr_scan"}}, {"lon": -76.98676783333333, "fusion_lat": 0.0, "type": "electric_scooter", "lat": 38.90014816666667, "is_disabled": 0, "name": "0f59d728cd8bb34f02dc0d00ed26c9b4", "is_reserved": 0, "bike_id": "0f59d728cd8bb34f02dc0d00ed26c9b4", "fusion_lon": 0.0, "rental_uris": {"ios": "https://dc.lft.to/lastmile_qr_scan", "android": "https://dc.lft.to/lastmile_qr_scan"}}, {"lon": -76.98537433333334, "fusion_lat": 0.0, "type": "electric_scooter", "lat": 38.885256, "is_disabled": 0, "name": "fde45caf485de779bca87378008a5741", "is_reserved": 0, "bike_id": "fde45caf485de779bca87378008a5741", "fusion_lon": 0.0, "rental_uris": {"ios": "https://dc.lft.to/lastmile_qr_scan", "android": "https://dc.lft.to/lastmile_qr_scan"}}, {"lon": -77.01110283333334, "fusion_lat": 0.0, "type": "electric_scooter", "lat": 38.89500016666667, "is_disabled": 0, "name": "64d159468ee3a82914959eb5febae28e", "is_reserved": 0, "bike_id": "64d159468ee3a82914959eb5febae28e", "fusion_lon": 0.0, "rental_uris": {"ios": "https://dc.lft.to/lastmile_qr_scan", "android": "https://dc.lft.to/lastmile_qr_scan"}}, {"lon": -77.03914833333333, "fusion_lat": 0.0, "type": "electric_bike", "lat": 39.035618166666666, "is_disabled": 0, "name": "5e15eb1c7308f3008c122ca7083d55d4", "is_reserved": 0, "bike_id": "5e15eb1c7308f3008c122ca7083d55d4", "fusion_lon": 0.0, "rental_uris": {"ios": "https://dc.lft.to/lastmile_qr_scan", "android": "https://dc.lft.to/lastmile_qr_scan"}}, {"lon": -77.032146, "fusion_lat": 0.0, "type": "electric_scooter", "lat": 38.911834166666665, "is_disabled": 0, "name": "d55c857e35788f00f4ac64b3655c34ac", "is_reserved": 0, "bike_id": "d55c857e35788f00f4ac64b3655c34ac", "fusion_lon": 0.0, "rental_uris": {"ios": "https://dc.lft.to/lastmile_qr_scan", "android": "https://dc.lft.to/lastmile_qr_scan"}}, {"lon": -77.031968, "fusion_lat": 0.0, "type": "electric_scooter", "lat": 38.893258333333335, "is_disabled": 0, "name": "3c84a33bf1dd19e0a2d5fe8510776160", "is_reserved": 0, "bike_id": "3c84a33bf1dd19e0a2d5fe8510776160", "fusion_lon": 0.0, "rental_uris": {"ios": "https://dc.lft.to/lastmile_qr_scan", "android": "https://dc.lft.to/lastmile_qr_scan"}}, {"lon": -77.015534, "fusion_lat": 0.0, "type": "electric_scooter", "lat": 38.907739166666666, "is_disabled": 0, "name": "1a85068b9e9fd2f7c65cdb391415c9c0", "is_reserved": 0, "bike_id": "1a85068b9e9fd2f7c65cdb391415c9c0", "fusion_lon": 0.0, "rental_uris": {"ios": "https://dc.lft.to/lastmile_qr_scan", "android": "https://dc.lft.to/lastmile_qr_scan"}}, {"lon": -77.02730183333334, "fusion_lat": 0.0, "type": "electric_scooter", "lat": 38.8965345, "is_disabled": 0, "name": "8e726f0ad0daa170dc2348dcfb2ef7da", "is_reserved": 0, "bike_id": "8e726f0ad0daa170dc2348dcfb2ef7da", "fusion_lon": 0.0, "rental_uris": {"ios": "https://dc.lft.to/lastmile_qr_scan", "android": "https://dc.lft.to/lastmile_qr_scan"}}, {"lon": -77.03222816666667, "fusion_lat": 0.0, "type": "electric_scooter", "lat": 38.89777483333334, "is_disabled": 0, "name": "49f20f8cf6b1adc9e43c852a04443179", "is_reserved": 0, "bike_id": "49f20f8cf6b1adc9e43c852a04443179", "fusion_lon": 0.0, "rental_uris": {"ios": "https://dc.lft.to/lastmile_qr_scan", "android": "https://dc.lft.to/lastmile_qr_scan"}}, {"lon": -77.0711065, "fusion_lat": 0.0, "type": "electric_scooter", "lat": 38.919721, "is_disabled": 0, "name": "0709a526cb1d5ca1ed94b5607e1f9e41", "is_reserved": 0, "bike_id": "0709a526cb1d5ca1ed94b5607e1f9e41", "fusion_lon": 0.0, "rental_uris": {"ios": "https://dc.lft.to/lastmile_qr_scan", "android": "https://dc.lft.to/lastmile_qr_scan"}}, {"lon": -77.0148355, "fusion_lat": 0.0, "type": "electric_scooter", "lat": 38.92687683333333, "is_disabled": 0, "name": "6ebcc970a53e1c803f9ae975b0f9f50b", "is_reserved": 0, "bike_id": "6ebcc970a53e1c803f9ae975b0f9f50b", "fusion_lon": 0.0, "rental_uris": {"ios": "https://dc.lft.to/lastmile_qr_scan", "android": "https://dc.lft.to/lastmile_qr_scan"}}, {"lon": -77.005819, "fusion_lat": 0.0, "type": "electric_scooter", "lat": 38.8757035, "is_disabled": 0, "name": "fe9ec6bf8117eaf66aab2115d6be6641", "is_reserved": 0, "bike_id": "fe9ec6bf8117eaf66aab2115d6be6641", "fusion_lon": 0.0, "rental_uris": {"ios": "https://dc.lft.to/lastmile_qr_scan", "android": "https://dc.lft.to/lastmile_qr_scan"}}, {"lon": -76.99783283333333, "fusion_lat": 0.0, "type": "electric_scooter", "lat": 38.9355895, "is_disabled": 0, "name": "a47bca2e016c1b82dfae161a0ce67307", "is_reserved": 0, "bike_id": "a47bca2e016c1b82dfae161a0ce67307", "fusion_lon": 0.0, "rental_uris": {"ios": "https://dc.lft.to/lastmile_qr_scan", "android": "https://dc.lft.to/lastmile_qr_scan"}}, {"lon": -76.98610666666667, "fusion_lat": 0.0, "type": "electric_bike", "lat": 38.884016, "is_disabled": 0, "name": "db7c6120b6f588fb73c621f88382e9a5", "is_reserved": 0, "bike_id": "db7c6120b6f588fb73c621f88382e9a5", "fusion_lon": 0.0, "rental_uris": {"ios": "https://dc.lft.to/lastmile_qr_scan", "android": "https://dc.lft.to/lastmile_qr_scan"}}, {"lon": -77.00127983333333, "fusion_lat": 0.0, "type": "electric_scooter", "lat": 38.873655, "is_disabled": 0, "name": "b1939a3c08b2cc178b2d5b9a4d1ad336", "is_reserved": 0, "bike_id": "b1939a3c08b2cc178b2d5b9a4d1ad336", "fusion_lon": 0.0, "rental_uris": {"ios": "https://dc.lft.to/lastmile_qr_scan", "android": "https://dc.lft.to/lastmile_qr_scan"}}, {"lon": -77.02855166666667, "fusion_lat": 0.0, "type": "electric_scooter", "lat": 38.935236333333336, "is_disabled": 0, "name": "acb8f9e63455350bfde025cdc72946d3", "is_reserved": 0, "bike_id": "acb8f9e63455350bfde025cdc72946d3", "fusion_lon": 0.0, "rental_uris": {"ios": "https://dc.lft.to/lastmile_qr_scan", "android": "https://dc.lft.to/lastmile_qr_scan"}}, {"lon": -77.01506933333333, "fusion_lat": 0.0, "type": "electric_scooter", "lat": 38.909943, "is_disabled": 0, "name": "0ce0454ed31adbe8f6de71efc8b4d8be", "is_reserved": 0, "bike_id": "0ce0454ed31adbe8f6de71efc8b4d8be", "fusion_lon": 0.0, "rental_uris": {"ios": "https://dc.lft.to/lastmile_qr_scan", "android": "https://dc.lft.to/lastmile_qr_scan"}}, {"lon": -77.01763766666667, "fusion_lat": 0.0, "type": "electric_scooter", "lat": 38.90259016666667, "is_disabled": 0, "name": "d083dcfedb22927c070146156cb9eb1e", "is_reserved": 0, "bike_id": "d083dcfedb22927c070146156cb9eb1e", "fusion_lon": 0.0, "rental_uris": {"ios": "https://dc.lft.to/lastmile_qr_scan", "android": "https://dc.lft.to/lastmile_qr_scan"}}, {"lon": -77.0489575, "fusion_lat": 0.0, "type": "electric_scooter", "lat": 38.905358166666666, "is_disabled": 0, "name": "582d161bf78921cfa9ec6fc74999115e", "is_reserved": 0, "bike_id": "582d161bf78921cfa9ec6fc74999115e", "fusion_lon": 0.0, "rental_uris": {"ios": "https://dc.lft.to/lastmile_qr_scan", "android": "https://dc.lft.to/lastmile_qr_scan"}}, {"lon": -76.97046666666667, "fusion_lat": 0.0, "type": "electric_bike", "lat": 38.958892666666664, "is_disabled": 0, "name": "5c2fe3d6542c729953a11b126a9f7bb5", "is_reserved": 0, "bike_id": "5c2fe3d6542c729953a11b126a9f7bb5", "fusion_lon": 0.0, "rental_uris": {"ios": "https://dc.lft.to/lastmile_qr_scan", "android": "https://dc.lft.to/lastmile_qr_scan"}}, {"lon": -77.00494433333333, "fusion_lat": 0.0, "type": "electric_scooter", "lat": 38.905818333333336, "is_disabled": 0, "name": "adbd38716eb48b5ab1c54e28962b44b4", "is_reserved": 0, "bike_id": "adbd38716eb48b5ab1c54e28962b44b4", "fusion_lon": 0.0, "rental_uris": {"ios": "https://dc.lft.to/lastmile_qr_scan", "android": "https://dc.lft.to/lastmile_qr_scan"}},