{"data": {"bikes": [{"rental_uris": {"android": "https://dc.lft.to/lastmile_qr_scan", "ios": "https://dc.lft.to/lastmile_qr_scan"}, "is_reserved": 0, "is_disabled": 0, "name": "4cd647a64b0c58585f2a14bf380ea185", "bike_id": "4cd647a64b0c58585f2a14bf380ea185", "fusion_lat": 0.0, "lon": -77.0446495, "type": "electric_scooter", "fusion_lon": 0.0, "lat": 38.92465416666667}, {"rental_uris": {"android": "https://dc.lft.to/lastmile_qr_scan", "ios": "https://dc.lft.to/lastmile_qr_scan"}, "is_reserved": 0, "is_disabled": 0, "name": "05e3648178b27f0cb3cbf8c24975119f", "bike_id": "05e3648178b27f0cb3cbf8c24975119f", "fusion_lat": 0.0, "lon": -77.0220085, "type": "electric_scooter", "fusion_lon": 0.0, "lat": 38.911226166666665}, {"rental_uris": {"android": "https://dc.lft.to/lastmile_qr_scan", "ios": "https://dc.lft.to/lastmile_qr_scan"}, "is_reserved": 0, "is_disabled": 0, "name": "fb694ec7665fab2c3e4d2ee3359558a7", "bike_id": "fb694ec7665fab2c3e4d2ee3359558a7", "fusion_lat": 0.0, "lon": -77.04267483333334, "type": "electric_scooter", "fusion_lon": 0.0, "lat": 38.92229833333333}, {"rental_uris": {"android": "https://dc.lft.to/lastmile_qr_scan", "ios": "https://dc.lft.to/lastmile_qr_scan"}, "is_reserved": 0, "is_disabled": 0, "name": "bbadadff31a3ecf9dac53588afb7bdf0", "bike_id": "bbadadff31a3ecf9dac53588afb7bdf0", "fusion_lat": 0.0, "lon": -77.025895, "type": "electric_scooter", "fusion_lon": 0.0, "lat": 38.920929}, {"rental_uris": {"android": "https://dc.lft.to/lastmile_qr_scan", "ios": "https://dc.lft.to/lastmile_qr_scan"}, "is_reserved": 0, "is_disabled": 0, "name": "4a8c5f6e6f894ad21fdc461e6686dec3", "bike_id": "4a8c5f6e6f894ad21fdc461e6686dec3", "fusion_lat": 0.0, "lon": -77.02804666666667, "type": "electric_scooter", "fusion_lon": 0.0, "lat": 38.91745016666667}, {"rental_uris": {"android": "https://dc.lft.to/lastmile_qr_scan", "ios": "https://dc.lft.to/lastmile_qr_scan"}, "is_reserved": 0, "is_disabled": 0, "name": "3924be5a3abefce1b198870f9ae14e23", "bike_id": "3924be5a3abefce1b198870f9ae14e23", "fusion_lat": 0.0, "lon": -77.01207083333334, "type": "electric_bike", "fusion_lon": 0.0, "lat": 38.950725166666665}, {"rental_uris": {"android": "https://dc.lft.to/lastmile_qr_scan", "ios": "https://dc.lft.to/lastmile_qr_scan"}, "is_reserved": 0, "is_disabled": 0, "name": "f2ad27f6a106c97c4627c32fe1896950", "bike_id": "f2ad27f6a106c97c4627c32fe1896950", "fusion_lat": 0.0, "lon": -77.01542916666666, "type": "electric_scooter", "fusion_lon": 0.0, "lat": 38.891630166666666}, {"rental_uris": {"android": "https://dc.lft.to/lastmile_qr_scan", "ios": "https://dc.lft.to/lastmile_qr_scan"}, "is_reserved": 0, "is_disabled": 0, "name": "b7946e14c4772dd66b1afc579f986382", "bike_id": "b7946e14c4772dd66b1afc579f986382", "fusion_lat": 0.0, "lon": -77.02974133333333, "type": "electric_scooter", "fusion_lon": 0.0, "lat": 38.942932166666665}, {"rental_uris": {"android": "https://dc.lft.to/lastmile_qr_scan", "ios": "https://dc.lft.to/lastmile_qr_scan"}, "is_reserved": 0, "is_disabled": 0, "name": "3200f7a9ad6595ec5c8241bc1494cebf", "bike_id": "3200f7a9ad6595ec5c8241bc1494cebf", "fusion_lat": 0.0, "lon": -77.017818, "type": "electric_scooter", "fusion_lon": 0.0, "lat": 38.919970666666664}, {"rental_uris": {"android": "https://dc.lft.to/lastmile_qr_scan", "ios": "https://dc.lft.to/lastmile_qr_scan"}, "is_reserved": 0, "is_disabled": 0, "name": "0660e816a32b5909198c18726c48fee1", "bike_id": "0660e816a32b5909198c18726c48fee1", "fusion_lat": 0.0, "lon": -77.0106615, "type": "electric_scooter", "fusion_lon": 0.0, "lat": 38.8951975}, {"rental_uris": {"android": "https://dc.lft.to/lastmile_qr_scan", "ios": "https://dc.lft.to/lastmile_qr_scan"}, "is_reserved": 0, "is_disabled": 0, "name": "4586378c011bb09280a2da78aabdf933", "bike_id": "4586378c011bb09280a2da78aabdf933", "fusion_lat": 0.0, "lon": -77.0355235, "type": "electric_scooter", "fusion_lon": 0.0, "lat": 38.92419066666667}, {"rental_uris": {"android": "https://dc.lft.to/lastmile_qr_scan", "ios": "https://dc.lft.to/lastmile_qr_scan"}, "is_reserved": 0, "is_disabled": 0, "name": "4e964e4290d5d93adc8e2b6494517fa8", "bike_id": "4e964e4290d5d93adc8e2b6494517fa8", "fusion_lat": 0.0, "lon": -77.023748, "type": "electric_scooter", "fusion_lon": 0.0, "lat": 38.892233166666664}, {"rental_uris": {"android": "https://dc.lft.to/lastmile_qr_scan", "ios": "https://dc.lft.to/lastmile_qr_scan"}, "is_reserved": 0, "is_disabled": 0, "name": "8a2f864277f7a0a953844235376b2b29", "bike_id": "8a2f864277f7a0a953844235376b2b29", "fusion_lat": 0.0, "lon": -77.02093516666666, "type": "electric_scooter", "fusion_lon": 0.0, "lat": 38.923673}, {"rental_uris": {"android": "https://dc.lft.to/lastmile_qr_scan", "ios": "https://dc.lft.to/lastmile_qr_scan"}, "is_reserved": 0, "is_disabled": 0, "name": "40378d3a723611087e8c335128924316", "bike_id": "40378d3a723611087e8c335128924316", "fusion_lat": 0.0, "lon": -76.95561283333333, "type": "electric_bike", "fusion_lon": 0.0, "lat": 38.985028666666665}, {"rental_uris": {"android": "https://dc.lft.to/lastmile_qr_scan", "ios": "https://dc.lft.to/lastmile_qr_scan"}, "is_reserved": 0, "is_disabled": 0, "name": "17c9311f581e7e961681e2af01369e55", "bike_id": "17c9311f581e7e961681e2af01369e55", "fusion_lat": 0.0, "lon": -77.02491866666666, "type": "electric_scooter", "fusion_lon": 0.0, "lat": 38.91920016666667}, {"rental_uris": {"android": "https://dc.lft.to/lastmile_qr_scan", "ios": "https://dc.lft.to/lastmile_qr_scan"}, "is_reserved": 0, "is_disabled": 0, "name": "7730233fb042f3654c02c5e1f36f7170", "bike_id": "7730233fb042f3654c02c5e1f36f7170", "fusion_lat": 0.0, "lon": -77.0395245, "type": "electric_scooter", "fusion_lon": 0.0, "lat": 38.90265133333333}, {"rental_uris": {"android": "https://dc.lft.to/lastmile_qr_scan", "ios": "https://dc.lft.to/lastmile_qr_scan"}, "is_reserved": 0, "is_disabled": 0, "name": "5763929e6cebc8dab028db481715d3b6", "bike_id": "5763929e6cebc8dab028db481715d3b6", "fusion_lat": 0.0, "lon": -77.0147775, "type": "electric_scooter", "fusion_lon": 0.0, "lat": 38.91406283333333}, {"rental_uris": {"android": "https://dc.lft.to/lastmile_qr_scan", "ios": "https://dc.lft.to/lastmile_qr_scan"}, "is_reserved": 0, "is_disabled": 0, "name": "0bbdd7c8128cde77f1b98bff3901d96f", "bike_id": "0bbdd7c8128cde77f1b98bff3901d96f", "fusion_lat": 0.0, "lon": -77.01981483333333, "type": "electric_scooter", "fusion_lon": 0.0, "lat": 38.887207833333335}, {"rental_uris": {"android": "https://dc.lft.to/lastmile_qr_scan", "ios": "https://dc.lft.to/lastmile_qr_scan"}, "is_reserved": 0, "is_disabled": 0, "name": "22adace2fb8bd34eb8d0eac947d09e48", "bike_id": "22adace2fb8bd34eb8d0eac947d09e48", "fusion_lat": 0.0, "lon": -77.03188733333333, "type": "electric_scooter", "fusion_lon": 0.0, "lat": 38.902046}, {"rental_uris": {"android": "https://dc.lft.to/lastmile_qr_scan", "ios": "https://dc.lft.to/lastmile_qr_scan"}, "is_reserved": 0, "is_disabled": 0, "name": "261dfa4f87626dd6b2476bf05476c6a2", "bike_id": "261dfa4f87626dd6b2476bf05476c6a2", "fusion_lat": 0.0, "lon": -77.06298433333333, "type": "electric_scooter", "fusion_lon": 0.0, "lat": 38.903986}, {"rental_uris": {"android": "https://dc.lft.to/lastmile_qr_scan", "ios": "https://dc.lft.to/lastmile_qr_scan"}, "is_reserved": 0, "is_disabled": 0, "name": "7b8415f8433f3f7b99dadb0b2adce1d5", "bike_id": "7b8415f8433f3f7b99dadb0b2adce1d5", "fusion_lat": 0.0, "lon": -77.05041633333333, "type": "electric_scooter", "fusion_lon": 0.0, "lat": 38.92363533333334}, {"rental_uris": {"android": "https://dc.lft.to/lastmile_qr_scan", "ios": "https://dc.lft.to/lastmile_qr_scan"}, "is_reserved": 0, "is_disabled": 0, "name": "61451b2bccb4862766898171272f32e2", "bike_id": "61451b2bccb4862766898171272f32e2", "fusion_lat": 0.0, "lon": -77.02233933333333, "type": "electric_scooter", "fusion_lon": 0.0, "lat": 38.91253016666667}, {"rental_uris": {"android": "https://dc.lft.to/lastmile_qr_scan", "ios": "https://dc.lft.to/lastmile_qr_scan"}, "is_reserved": 0, "is_disabled": 0, "name": "b653b312f07251c5aef5e8e673ebf94a", "bike_id": "b653b312f07251c5aef5e8e673ebf94a", "fusion_lat": 0.0, "lon": -77.00206266666666, "type": "electric_scooter", "fusion_lon": 0.0, "lat": 38.902335666666666}, {"rental_uris": {"android": "https://dc.lft.to/lastmile_qr_scan", "ios": "https://dc.lft.to/lastmile_qr_scan"}, "is_reserved": 0, "is_disabled": 0, "name": "99567d21b1006f2beed85cb79ced056d", "bike_id": "99567d21b1006f2beed85cb79ced056d", "fusion_lat": 0.0, "lon": -77.03075133333333, "type": "electric_scooter", "fusion_lon": 0.0, "lat": 38.89840133333333}, {"rental_uris": {"android": "https://dc.lft.to/lastmile_qr_scan", "ios": "https://dc.lft.to/lastmile_qr_scan"}, "is_reserved": 0, "is_disabled": 0, "name": "6d92d86d024b4c71b8481b17a698179b", "bike_id": "6d92d86d024b4c71b8481b17a698179b", "fusion_lat": 0.0, "lon": -76.99079733333333, "type": "electric_scooter", "fusion_lon": 0.0, "lat": 38.85562183333333}, {"rental_uris": {"android": "https://dc.lft.to/lastmile_qr_scan", "ios": "https://dc.lft.to/lastmile_qr_scan"}, "is_reserved": 0, "is_disabled": 0, "name": "c3f9df23baaff505da580bc9e24fc34b", "bike_id": "c3f9df23baaff505da580bc9e24fc34b", "fusion_lat": 0.0, "lon": -77.02125933333333, "type": "electric_bike", "fusion_lon": 0.0, "lat": 38.93577583333333}, {"rental_uris": {"android": "https://dc.lft.to/lastmile_qr_scan", "ios": "https://dc.lft.to/lastmile_qr_scan"}, "is_reserved": 0, "is_disabled": 0, "name": "825ce8b5b6fb52fd625c906facfe560f", "bike_id": "825ce8b5b6fb52fd625c906facfe560f", "fusion_lat": 0.0, "lon": -77.02418383333334, "type": "electric_scooter", "fusion_lon": 0.0, "lat": 38.93356266666667}, {"rental_uris": {"android": "https://dc.lft.to/lastmile_qr_scan", "ios": "https://dc.lft.to/lastmile_qr_scan"}, "is_reserved": 0, "is_disabled": 0, "name": "fbb9b33a61eadc8badd7e0231bc9317f", "bike_id": "fbb9b33a61eadc8badd7e0231bc9317f", "fusion_lat": 0.0, "lon": -77.03209783333334, "type": "electric_scooter", "fusion_lon": 0.0, "lat": 38.9073965}, {"rental_uris": {"android": "https://dc.lft.to/lastmile_qr_scan", "ios": "https://dc.lft.to/lastmile_qr_scan"}, "is_reserved": 0, "is_disabled": 0, "name": "7f09a8e6222b93a5c13e30e2ab09da50", "bike_id": "7f09a8e6222b93a5c13e30e2ab09da50", "fusion_lat": 0.0, "lon": -77.02357416666666, "type": "electric_scooter", "fusion_lon": 0.0, "lat": 38.9353525}, {"rental_uris": {"android": "https://dc.lft.to/lastmile_qr_scan", "ios": "https://dc.lft.to/lastmile_qr_scan"}, "is_reserved": 0, "is_disabled": 0, "name": "c69e8370275bce412619fcd187536223", "bike_id": "c69e8370275bce412619fcd187536223", "fusion_lat": 0.0, "lon": -77.0059105, "type": "electric_scooter", "fusion_lon": 0.0, "lat": 38.905828166666666}, {"rental_uris": {"android": "https://dc.lft.to/lastmile_qr_scan", "ios": "https://dc.lft.to/lastmile_qr_scan"}, "is_reserved": 0, "is_disabled": 0, "name": "3603774657fba67be06482c0c1233dc2", "bike_id": "3603774657fba67be06482c0c1233dc2", "fusion_lat": 0.0, "lon": -77.043505, "type": "electric_scooter", "fusion_lon": 0.0, "lat": 38.91092533333333}, {"rental_uris": {"android": "https://dc.lft.to/lastmile_qr_scan", "ios": "https://dc.lft.to/lastmile_qr_scan"}, "is_reserved": 0, "is_disabled": 0, "name": "a1ef51b806bc52528ec0c6a2b722636e", "bike_id": "a1ef51b806bc52528ec0c6a2b722636e", "fusion_lat": 0.0, "lon": -77.0157745, "type": "electric_bike", "fusion_lon": 0.0, "lat": 38.87310033333333}, {"rental_uris": {"android": "https://dc.lft.to/lastmile_qr_scan", "ios": "https://dc.lft.to/lastmile_qr_scan"}, "is_reserved": 0, "is_disabled": 0, "name": "6bd40434b8d855030e2a76a164739b59", "bike_id": "6bd40434b8d855030e2a76a164739b59", "fusion_lat": 0.0, "lon": -77.04624816666667, "type": "electric_scooter", "fusion_lon": 0.0, "lat": 38.90963933333333}, {"rental_uris": {"android": "https://dc.lft.to/lastmile_qr_scan", "ios": "https://dc.lft.to/lastmile_qr_scan"}, "is_reserved": 0, "is_disabled": 0, "name": "0dcf21fee4003248fc3eda1b169c0e26", "bike_id": "0dcf21fee4003248fc3eda1b169c0e26", "fusion_lat": 0.0, "lon": -77.01889083333333, "type": "electric_scooter", "fusion_lon": 0.0, "lat": 38.89748933333333}, {"rental_uris": {"android": "https://dc.lft.to/lastmile_qr_scan", "ios": "https://dc.lft.to/lastmile_qr_scan"}, "is_reserved": 0, "is_disabled": 0, "name": "cadb1bf72c1d949f253f6e5706ccefa8", "bike_id": "cadb1bf72c1d949f253f6e5706ccefa8", "fusion_lat": 0.0, "lon": -77.04073533333333, "type": "electric_scooter", "fusion_lon": 0.0, "lat": 38.91422516666667}, {"rental_uris": {"android": "https://dc.lft.to/lastmile_qr_scan", "ios": "https://dc.lft.to/lastmile_qr_scan"}, "is_reserved": 0, "is_disabled": 0, "name": "d3eefd5f83ddbef20445143f19f70254", "bike_id": "d3eefd5f83ddbef20445143f19f70254", "fusion_lat": 0.0, "lon": -77.02376466666666, "type": "electric_scooter", "fusion_lon": 0.0, "lat": 38.89217933333333}, {"rental_uris": {"android": "https://dc.lft.to/lastmile_qr_scan", "ios": "https://dc.lft.to/lastmile_qr_scan"}, "is_reserved": 0, "is_disabled": 0, "name": "27f59e2612f856c44ecebb2a2be3490a", "bike_id": "27f59e2612f856c44ecebb2a2be3490a", "fusion_lat": 0.0, "lon": -77.021317, "type": "electric_scooter", "fusion_lon": 0.0, "lat": 38.92415116666667}, {"rental_uris": {"android": "https://dc.lft.to/lastmile_qr_scan", "ios": "https://dc.lft.to/lastmile_qr_scan"}, "is_reserved": 0, "is_disabled": 0, "name": "1a4787d33df9268cb4ccd07f9dadff92", "bike_id": "1a4787d33df9268cb4ccd07f9dadff92", "fusion_lat": 0.0, "lon": -77.02802916666667, "type": "electric_scooter", "fusion_lon": 0.0, "lat": 38.91057766666667}, {"rental_uris": {"android": "https://dc.lft.to/lastmile_qr_scan", "ios": "https://dc.lft.to/lastmile_qr_scan"}, "is_reserved": 0, "is_disabled": 0, "name": "5c355e43bd97f6921e18ff2e36d814d6", "bike_id": "5c355e43bd97f6921e18ff2e36d814d6", "fusion_lat": 0.0, "lon": -77.0309105, "type": "electric_scooter", "fusion_lon": 0.0, "lat": 38.92387266666667}, {"rental_uris": {"android": "https://dc.lft.to/lastmile_qr_scan", "ios": "https://dc.lft.to/lastmile_qr_scan"}, "is_reserved": 0, "is_disabled": 0, "name": "8af496e9c50ef6070e123ba2caa4c168", "bike_id": "8af496e9c50ef6070e123ba2caa4c168", "fusion_lat": 0.0, "lon": -77.039958, "type": "electric_scooter", "fusion_lon": 0.0, "lat": 38.901448333333335}, {"rental_uris": {"android": "https://dc.lft.to/lastmile_qr_scan", "ios": "https://dc.lft.to/lastmile_qr_scan"}, "is_reserved": 0, "is_disabled": 0, "name": "b5e4be8338515d9bc0c18f58574603a1", "bike_id": "b5e4be8338515d9bc0c18f58574603a1", "fusion_lat": 0.0, "lon": -77.0631805, "type": "electric_scooter", "fusion_lon": 0.0, "lat": 38.91339883333333}, {"rental_uris": {"android": "https://dc.lft.to/lastmile_qr_scan", "ios": "https://dc.lft.to/lastmile_qr_scan"}, "is_reserved": 0, "is_disabled": 0, "name": "af468f3827b072879052aae9ebfa5fa2", "bike_id": "af468f3827b072879052aae9ebfa5fa2", "fusion_lat": 0.0, "lon": -76.983734, "type": "electric_scooter", "fusion_lon": 0.0, "lat": 38.89264033333333}, {"rental_uris": {"android": "https://dc.lft.to/lastmile_qr_scan", "ios": "https://dc.lft.to/lastmile_qr_scan"}, "is_reserved": 0, "is_disabled": 0, "name": "250ffc0d96409381366d2d0e14b3e374", "bike_id": "250ffc0d96409381366d2d0e14b3e374", "fusion_lat": 0.0, "lon": -76.9969665, "type": "electric_scooter", "fusion_lon": 0.0, "lat": 38.884356333333336}, {"rental_uris": {"android": "https://dc.lft.to/lastmile_qr_scan", "ios": "https://dc.lft.to/lastmile_qr_scan"}, "is_reserved": 0, "is_disabled": 0, "name": "b727b33ded6881c98daa1a1ca4d8b004", "bike_id": "b727b33ded6881c98daa1a1ca4d8b004", "fusion_lat": 0.0, "lon": -77.046163, "type": "electric_scooter", "fusion_lon": 0.0, "lat": 38.915743166666665}, {"rental_uris": {"android": "https://dc.lft.to/lastmile_qr_scan", "ios": "https://dc.lft.to/lastmile_qr_scan"}, "is_reserved": 0, "is_disabled": 0, "name": "963347370155132214b9357a4a94a10b", "bike_id": "963347370155132214b9357a4a94a10b", "fusion_lat": 0.0, "lon": -77.06361683333333, "type": "electric_scooter", "fusion_lon": 0.0, "lat": 38.92017966666667}, {"rental_uris": {"android": "https://dc.lft.to/lastmile_qr_scan", "ios": "https://dc.lft.to/lastmile_qr_scan"}, "is_reserved": 0, "is_disabled": 0, "name": "6eb5fb4dbb8f02f66dd432501bc29eef", "bike_id": "6eb5fb4dbb8f02f66dd432501bc29eef", "fusion_lat": 0.0, "lon": -77.023341, "type": "electric_scooter", "fusion_lon": 0.0, "lat": 38.930490166666665}, {"rental_uris": {"android": "https://dc.lft.to/lastmile_qr_scan", "ios": "https://dc.lft.to/lastmile_qr_scan"}, "is_reserved": 0, "is_disabled": 0, "name": "181d4ad0a50e296a62c9a66ab21ef66d", "bike_id": "181d4ad0a50e296a62c9a66ab21ef66d", "fusion_lat": 0.0, "lon": -76.99847816666667, "type": "electric_scooter", "fusion_lon": 0.0, "lat": 38.90057516666667}, {"rental_uris": {"android": "https://dc.lft.to/lastmile_qr_scan", "ios": "https://dc.lft.to/lastmile_qr_scan"}, "is_reserved": 0, "is_disabled": 0, "name": "e5d97a14e7aee7db0dc100962847496f", "bike_id": "e5d97a14e7aee7db0dc100962847496f", "fusion_lat": 0.0, "lon": -76.99837816666667, "type": "electric_scooter", "fusion_lon": 0.0, "lat": 38.900762666666665}, {"rental_uris": {"android": "https://dc.lft.to/lastmile_qr_scan", "ios": "https://dc.lft.to/lastmile_qr_scan"}, "is_reserved": 0, "is_disabled": 0, "name": "d0ab4aaff4db106986b5fc940cfb42b0", "bike_id": "d0ab4aaff4db106986b5fc940cfb42b0", "fusion_lat": 0.0, "lon": -77.04216333333333, "type": "electric_scooter", "fusion_lon": 0.0, "lat": 38.90926066666667}, {"rental_uris": {"android": "https://dc.lft.to/lastmile_qr_scan", "ios": "https://dc.lft.to/lastmile_qr_scan"}, "is_reserved": 0, "is_disabled": 0, "name": "e308a7b7ad61f9a6f11a9f5a856e6d91", "bike_id": "e308a7b7ad61f9a6f11a9f5a856e6d91", "fusion_lat": 0.0, "lon": -77.023554, "type": "electric_scooter", "fusion_lon": 0.0, "lat": 38.94197716666667}, {"rental_uris": {"android": "https://dc.lft.to/lastmile_qr_scan", "ios": "https://dc.lft.to/lastmile_qr_scan"}, "is_reserved": 0, "is_disabled": 0, "name": "2b1a7f36dcd2b431998df76dbebfb134", "bike_id": "2b1a7f36dcd2b431998df76dbebfb134", "fusion_lat": 0.0, "lon": -77.06656883333333, "type": "electric_scooter", "fusion_lon": 0.0, "lat": 38.950689833333335}, {"rental_uris": {"android": "https://dc.lft.to/lastmile_qr_scan", "ios": "https://dc.lft.to/lastmile_qr_scan"}, "is_reserved": 0, "is_disabled": 0, "name": "bedb65925e793161e6f07335dd9acf37", "bike_id": "bedb65925e793161e6f07335dd9acf37", "fusion_lat": 0.0, "lon": -77.23409383333333, "type": "electric_bike", "fusion_lon": 0.0, "lat": 38.875786166666664}, {"rental_uris": {"android": "https://dc.lft.to/lastmile_qr_scan", "ios": "https://dc.lft.to/lastmile_qr_scan"}, "is_reserved": 0, "is_disabled": 0, "name": "afd40afc1d11dd77da4236a7f7b62b8c", "bike_id": "afd40afc1d11dd77da4236a7f7b62b8c", "fusion_lat": 0.0, "lon": -77.02280866666666, "type": "electric_scooter", "fusion_lon": 0.0, "lat": 38.91688933333333}, {"rental_uris": {"android": "https://dc.lft.to/lastmile_qr_scan", "ios": "https://dc.lft.to/lastmile_qr_scan"}, "is_reserved": 0, "is_disabled": 0, "name": "fdb6a9eac1020998bef337e86cfc201d", "bike_id": "fdb6a9eac1020998bef337e86cfc201d", "fusion_lat": 0.0, "lon": -77.05338716666667, "type": "electric_scooter", "fusion_lon": 0.0, "lat": 38.90156733333333}, {"rental_uris": {"android": "https://dc.lft.to/lastmile_qr_scan", "ios": "https://dc.lft.to/lastmile_qr_scan"}, "is_reserved": 0, "is_disabled": 0, "name": "63eb78265d06e61292a27ab9a8f5d514", "bike_id": "63eb78265d06e61292a27ab9a8f5d514", "fusion_lat": 0.0, "lon": -76.99033116666666, "type": "electric_scooter", "fusion_lon": 0.0, "lat": 38.88853016666667}, {"rental_uris": {"android": "https://dc.lft.to/lastmile_qr_scan", "ios": "https://dc.lft.to/lastmile_qr_scan"}, "is_reserved": 0, "is_disabled": 0, "name": "309609c7f9f07e81932a23386c69eee2", "bike_id": "309609c7f9f07e81932a23386c69eee2", "fusion_lat": 0.0, "lon": -77.02939466666666, "type": "electric_scooter", "fusion_lon": 0.0, "lat": 38.907189}, {"rental_uris": {"android": "https://dc.lft.to/lastmile_qr_scan", "ios": "https://dc.lft.to/lastmile_qr_scan"}, "is_reserved": 0, "is_disabled": 0, "name": "0bacc323adcba4dffee220677d5c7638", "bike_id": "0bacc323adcba4dffee220677d5c7638", "fusion_lat": 0.0, "lon": -76.99511133333333, "type": "electric_scooter", "fusion_lon": 0.0, "lat": 38.88078866666667}, {"rental_uris": {"android": "https://dc.lft.to/lastmile_qr_scan", "ios": "https://dc.lft.to/lastmile_qr_scan"}, "is_reserved": 0, "is_disabled": 0, "name": "4dcf111acbff2f9fe3b67e357f2d76c4", "bike_id": "4dcf111acbff2f9fe3b67e357f2d76c4", "fusion_lat": 0.0, "lon": -77.03206783333333, "type": "electric_scooter", "fusion_lon": 0.0, "lat": 38.897018}, {"rental_uris": {"android": "https://dc.lft.to/lastmile_qr_scan", "ios": "https://dc.lft.to/lastmile_qr_scan"}, "is_reserved": 0, "is_disabled": 0, "name": "ed42bafa2cf057208ee06ab678d1692a", "bike_id": "ed42bafa2cf057208ee06ab678d1692a", "fusion_lat": 0.0, "lon": -77.06123783333334, "type": "electric_scooter", "fusion_lon": 0.0, "lat": 38.90226216666667}, {"rental_uris": {"android": "https://dc.lft.to/lastmile_qr_scan", "ios": "https://dc.lft.to/lastmile_qr_scan"}, "is_reserved": 0, "is_disabled": 0, "name": "fd7ece081d56a60321f848ed00763110", "bike_id": "fd7ece081d56a60321f848ed00763110", "fusion_lat": 0.0, "lon": -77.0303835, "type": "electric_scooter", "fusion_lon": 0.0, "lat": 38.9085875}, {"rental_uris": {"android": "https://dc.lft.to/lastmile_qr_scan", "ios": "https://dc.lft.to/lastmile_qr_scan"}, "is_reserved": 0, "is_disabled": 0, "name": "8dcdcde42b95b14ab3d80bb5d48831e4", "bike_id": "8dcdcde42b95b14ab3d80bb5d48831e4", "fusion_lat": 0.0, "lon": -77.02589683333333, "type": "electric_scooter", "fusion_lon": 0.0, "lat": 38.904361}, {"rental_uris": {"android": "https://dc.lft.to/lastmile_qr_scan", "ios": "https://dc.lft.to/lastmile_qr_scan"}, "is_reserved": 0, "is_disabled": 0, "name": "570f754e0f4436c2bc453621ca60ef20", "bike_id": "570f754e0f4436c2bc453621ca60ef20", "fusion_lat": 0.0, "lon": -76.98801133333333, "type": "electric_scooter", "fusion_lon": 0.0, "lat": 38.90030316666667}, {"rental_uris": {"android": "https://dc.lft.to/lastmile_qr_scan", "ios": "https://dc.lft.to/lastmile_qr_scan"}, "is_reserved": 0, "is_disabled": 0, "name": "d7471099a74f9e5017a2ed504e4770fe", "bike_id": "d7471099a74f9e5017a2ed504e4770fe", "fusion_lat": 0.0, "lon": -76.949324, "type": "electric_scooter", "fusion_lon": 0.0, "lat": 38.89532583333333}, {"rental_uris": {"android": "https://dc.lft.to/lastmile_qr_scan", "ios": "https://dc.lft.to/lastmile_qr_scan"}, "is_reserved": 0, "is_disabled": 0, "name": "b48b16d930ead465f3ab2b8e32b5649a", "bike_id": "b48b16d930ead465f3ab2b8e32b5649a", "fusion_lat": 0.0, "lon": -77.0766255, "type": "electric_scooter", "fusion_lon": 0.0, "lat": 38.9108145}, {"rental_uris": {"android": "https://dc.lft.to/lastmile_qr_scan", "ios": "https://dc.lft.to/lastmile_qr_scan"}, "is_reserved": 0, "is_disabled": 0, "name": "af65e84499eb2fd580c31ca65ac0745c", "bike_id": "af65e84499eb2fd580c31ca65ac0745c", "fusion_lat": 0.0, "lon": -77.0733565, "type": "electric_scooter", "fusion_lon": 0.0, "lat": 38.96089166666667}, {"rental_uris": {"android": "https://dc.lft.to/lastmile_qr_scan", "ios": "https://dc.lft.to/lastmile_qr_scan"}, "is_reserved": 0, "is_disabled": 0, "name": "3458364572a54389d4f531e0dbbf159e", "bike_id": "3458364572a54389d4f531e0dbbf159e", "fusion_lat": 0.0, "lon": -76.9579435, "type": "electric_bike", "fusion_lon": 0.0, "lat": 38.98046383333333}, {"rental_uris": {"android": "https://dc.lft.to/lastmile_qr_scan", "ios": "https://dc.lft.to/lastmile_qr_scan"}, "is_reserved": 0, "is_disabled": 0, "name": "e010f35e1920e313a3c64ce227c2334d", "bike_id": "e010f35e1920e313a3c64ce227c2334d", "fusion_lat": 0.0, "lon": -77.0601635, "type": "electric_scooter", "fusion_lon": 0.0, "lat": 38.88649816666667}, {"rental_uris": {"android": "https://dc.lft.to/lastmile_qr_scan", "ios": "https://dc.lft.to/lastmile_qr_scan"}, "is_reserved": 0, "is_disabled": 0, "name": "bb17093727e4fcdb0d6b751668ebdaaa", "bike_id": "bb17093727e4fcdb0d6b751668ebdaaa", "fusion_lat": 0.0, "lon": -77.00123216666667, "type": "electric_scooter", "fusion_lon": 0.0, "lat": 38.8766815}, {"rental_uris": {"android": "https://dc.lft.to/lastmile_qr_scan", "ios": "https://dc.lft.to/lastmile_qr_scan"}, "is_reserved": 0, "is_disabled": 0, "name": "064bb2a2859f0525b3fcc81f78344768", "bike_id": "064bb2a2859f0525b3fcc81f78344768", "fusion_lat": 0.0, "lon": -76.97569466666667, "type": "electric_scooter", "fusion_lon": 0.0, "lat": 38.944199166666664}, {"rental_uris": {"android": "https://dc.lft.to/lastmile_qr_scan", "ios": "https://dc.lft.to/lastmile_qr_scan"}, "is_reserved": 0, "is_disabled": 0, "name": "c929c6c662d21e2fc5bf13350d52c848", "bike_id": "c929c6c662d21e2fc5bf13350d52c848", "fusion_lat": 0.0, "lon": -77.02200566666667, "type": "electric_scooter", "fusion_lon": 0.0, "lat": 38.91544616666667}, {"rental_uris": {"android": "https://dc.lft.to/lastmile_qr_scan", "ios": "https://dc.lft.to/lastmile_qr_scan"}, "is_reserved": 0, "is_disabled": 0, "name": "5c85cda31c2552c0ff98a0b4070fc857", "bike_id": "5c85cda31c2552c0ff98a0b4070fc857", "fusion_lat": 0.0, "lon": -77.01226066666666, "type": "electric_scooter", "fusion_lon": 0.0, "lat": 38.915171}, {"rental_uris": {"android": "https://dc.lft.to/lastmile_qr_scan", "ios": "https://dc.lft.to/lastmile_qr_scan"}, "is_reserved": 0, "is_disabled": 0, "name": "5de883813d519b108818e2fefc8aa3bf", "bike_id": "5de883813d519b108818e2fefc8aa3bf", "fusion_lat": 0.0, "lon": -77.021874, "type": "electric_scooter", "fusion_lon": 0.0, "lat": 38.9018895}, {"rental_uris": {"android": "https://dc.lft.to/lastmile_qr_scan", "ios": "https://dc.lft.to/lastmile_qr_scan"}, "is_reserved": 0, "is_disabled": 0, "name": "3232260b266ef25cba8e860efe6fc324", "bike_id": "3232260b266ef25cba8e860efe6fc324", "fusion_lat": 0.0, "lon": -76.95292633333334, "type": "electric_scooter", "fusion_lon": 0.0, "lat": 38.890267333333334}, {"rental_uris": {"android": "https://dc.lft.to/lastmile_qr_scan", "ios": "https://dc.lft.to/lastmile_qr_scan"}, "is_reserved": 0, "is_disabled": 0, "name": "1f2e20912c566521a13f1c384217298e", "bike_id": "1f2e20912c566521a13f1c384217298e", "fusion_lat": 0.0, "lon": -77.00133966666667, "type": "electric_bike", "fusion_lon": 0.0, "lat": 38.99497066666667}, {"rental_uris": {"android": "https://dc.lft.to/lastmile_qr_scan", "ios": "https://dc.lft.to/lastmile_qr_scan"}, "is_reserved": 0, "is_disabled": 0, "name": "8a5e42be62a27effb117d18fada8c20f", "bike_id": "8a5e42be62a27effb117d18fada8c20f", "fusion_lat": 0.0, "lon": -77.0560175, "type": "electric_scooter", "fusion_lon": 0.0, "lat": 38.93698166666667}, {"rental_uris": {"android": "https://dc.lft.to/lastmile_qr_scan", "ios": "https://dc.lft.to/lastmile_qr_scan"}, "is_reserved": 0, "is_disabled": 0, "name": "9941e440eed3c6729956fc109c5d699c", "bike_id": "9941e440eed3c6729956fc109c5d699c", "fusion_lat": 0.0, "lon": -77.02581233333333, "type": "electric_scooter", "fusion_lon": 0.0, "lat": 38.90000416666667}, {"rental_uris": {"android": "https://dc.lft.to/lastmile_qr_scan", "ios": "https://dc.lft.to/lastmile_qr_scan"}, "is_reserved": 0, "is_disabled": 0, "name": "4a31fecc6b719ac399a0ffa3c93bea4b", "bike_id": "4a31fecc6b719ac399a0ffa3c93bea4b", "fusion_lat": 0.0, "lon": -76.98971266666666, "type": "electric_bike", "fusion_lon": 0.0, "lat": 38.930712}, {"rental_uris": {"android": "https://dc.lft.to/lastmile_qr_scan", "ios": "https://dc.lft.to/lastmile_qr_scan"}, "is_reserved": 0, "is_disabled": 0, "name": "789e2278706a8dbf0ba68f8d3988adb1", "bike_id": "789e2278706a8dbf0ba68f8d3988adb1", "fusion_lat": 0.0, "lon": -77.0461415, "type": "electric_scooter", "fusion_lon": 0.0, "lat": 38.91508916666667}, {"rental_uris": {"android": "https://dc.lft.to/lastmile_qr_scan", "ios": "https://dc.lft.to/lastmile_qr_scan"}, "is_reserved": 0, "is_disabled": 0, "name": "aad3045a8ba3a85d323d6fc91ca1d76e", "bike_id": "aad3045a8ba3a85d323d6fc91ca1d76e", "fusion_lat": 0.0, "lon": -77.04769066666667, "type": "electric_scooter", "fusion_lon": 0.0, "lat": 38.90078483333333}, {"rental_uris": {"android": "https://dc.lft.to/lastmile_qr_scan", "ios": "https://dc.lft.to/lastmile_qr_scan"}, "is_reserved": 0, "is_disabled": 0, "name": "639fc56ec02c82e3d002270f27d6b400", "bike_id": "639fc56ec02c82e3d002270f27d6b400", "fusion_lat": 0.0, "lon": -77.00767983333333, "type": "electric_scooter", "fusion_lon": 0.0, "lat": 38.92670183333333}, {"rental_uris": {"android": "https://dc.lft.to/lastmile_qr_scan", "ios": "https://dc.lft.to/lastmile_qr_scan"}, "is_reserved": 0, "is_disabled": 0, "name": "cd0a51f8eb90d81ea19d3ff65ee1e089", "bike_id": "cd0a51f8eb90d81ea19d3ff65ee1e089", "fusion_lat": 0.0, "lon": -77.03658316666667, "type": "electric_scooter", "fusion_lon": 0.0, "lat": 38.9359875}, {"rental_uris": {"android": "https://dc.lft.to/lastmile_qr_scan", "ios": "https://dc.lft.to/lastmile_qr_scan"}, "is_reserved": 0, "is_disabled": 0, "name": "f58b3c6fb070a5617388bf77e05584bc", "bike_id": "f58b3c6fb070a5617388bf77e05584bc", "fusion_lat": 0.0, "lon": -77.07333266666667, "type": "electric_scooter", "fusion_lon": 0.0, "lat": 38.9260215}, {"rental_uris": {"android": "https://dc.lft.to/lastmile_qr_scan", "ios": "https://dc.lft.to/lastmile_qr_scan"}, "is_reserved": 0, "is_disabled": 0, "name": "a39f9c4c4703379d64119a74506a4ff7", "bike_id": "a39f9c4c4703379d64119a74506a4ff7", "fusion_lat": 0.0, "lon": -77.01568883333333, "type": "electric_scooter", "fusion_lon": 0.0, "lat": 38.88348333333333}, {"rental_uris": {"android": "https://dc.lft.to/lastmile_qr_scan", "ios": "https://dc.lft.to/lastmile_qr_scan"}, "is_reserved": 0, "is_disabled": 0, "name": "6e682d20111bfb84c49bcda1f0d0f247", "bike_id": "6e682d20111bfb84c49bcda1f0d0f247", "fusion_lat": 0.0, "lon": -76.98614833333333, "type": "electric_scooter", "fusion_lon": 0.0, "lat": 38.90726683333333}, {"rental_uris": {"android": "https://dc.lft.to/lastmile_qr_scan", "ios": "https://dc.lft.to/lastmile_qr_scan"}, "is_reserved": 0, "is_disabled": 0, "name": "0926f6deb9018aa0e9fb6c98812e9e5d", "bike_id": "0926f6deb9018aa0e9fb6c98812e9e5d", "fusion_lat": 0.0, "lon": -77.01312733333333, "type": "electric_scooter", "fusion_lon": 0.0, "lat": 38.89732033333333}, {"rental_uris": {"android": "https://dc.lft.to/lastmile_qr_scan", "ios": "https://dc.lft.to/lastmile_qr_scan"}, "is_reserved": 0, "is_disabled": 0, "name": "bebcca435ac821ca9f647144d650d6cc", "bike_id": "bebcca435ac821ca9f647144d650d6cc", "fusion_lat": 0.0, "lon": -77.03517433333333, "type": "electric_scooter", "fusion_lon": 0.0, "lat": 38.93590316666667}, {"rental_uris": {"android": "https://dc.lft.to/lastmile_qr_scan", "ios": "https://dc.lft.to/lastmile_qr_scan"}, "is_reserved": 0, "is_disabled": 0, "name": "d852206662c143e9c318550c56968db9", "bike_id": "d852206662c143e9c318550c56968db9", "fusion_lat": 0.0, "lon": -77.02466483333333, "type": "electric_scooter", "fusion_lon": 0.0, "lat": 38.897292}, {"rental_uris": {"android": "https://dc.lft.to/lastmile_qr_scan", "ios": "https://dc.lft.to/lastmile_qr_scan"}, "is_reserved": 0, "is_disabled": 0, "name": "1b8e1dd49d8635c1ea0d06bba230c104", "bike_id": "1b8e1dd49d8635c1ea0d06bba230c104", "fusion_lat": 0.0, "lon": -77.034948, "type": "electric_scooter", "fusion_lon": 0.0, "lat": 38.92141266666667}, {"rental_uris": {"android": "https://dc.lft.to/lastmile_qr_scan", "ios": "https://dc.lft.to/lastmile_qr_scan"}, "is_reserved": 0, "is_disabled": 0, "name": "c3413786939678b7939f6db4fbbeb8e9", "bike_id": "c3413786939678b7939f6db4fbbeb8e9", "fusion_lat": 0.0, "lon": -77.0504145, "type": "electric_scooter", "fusion_lon": 0.0, "lat": 38.92362}, {"rental_uris": {"android": "https://dc.lft.to/lastmile_qr_scan", "ios": "https://dc.lft.to/lastmile_qr_scan"}, "is_reserved": 0, "is_disabled": 0, "name": "8402a8cd24f88e599b7ae2513382e35b", "bike_id": "8402a8cd24f88e599b7ae2513382e35b", "fusion_lat": 0.0, "lon": -76.95064233333333, "type": "electric_bike", "fusion_lon": 0.0, "lat": 39.085088}, {"rental_uris": {"android": "https://dc.lft.to/lastmile_qr_scan", "ios": "https://dc.lft.to/lastmile_qr_scan"}, "is_reserved": 0, "is_disabled": 0, "name": "3c8a958a311cbf437d397766713d7678", "bike_id": "3c8a958a311cbf437d397766713d7678", "fusion_lat": 0.0, "lon": -77.03482483333333, "type": "electric_scooter", "fusion_lon": 0.0, "lat": 38.92478333333333}, {"rental_uris": {"android": "https://dc.lft.to/lastmile_qr_scan", "ios": "https://dc.lft.to/lastmile_qr_scan"}, "is_reserved": 0, "is_disabled": 0, "name": "0a69a260ed36092555ded4fdc87e6b1e", "bike_id": "0a69a260ed36092555ded4fdc87e6b1e", "fusion_lat": 0.0, "lon": -77.01493966666666, "type": "electric_scooter", "fusion_lon": 0.0, "lat": 38.906143666666665}, {"rental_uris": {"android": "https://dc.lft.to/lastmile_qr_scan", "ios": "https://dc.lft.to/lastmile_qr_scan"}, "is_reserved": 0, "is_disabled": 0, "name": "7f7f7d3c41a4594658d3ec83256f9a02", "bike_id": "7f7f7d3c41a4594658d3ec83256f9a02", "fusion_lat": 0.0, "lon": -77.033444, "type": "electric_scooter", "fusion_lon": 0.0, "lat": 38.935083}, {"rental_uris": {"android": "https://dc.lft.to/lastmile_qr_scan", "ios": "https://dc.lft.to/lastmile_qr_scan"}, "is_reserved": 0, "is_disabled": 0, "name": "b8a7000eb3c29f98925bde44058874f6", "bike_id": "b8a7000eb3c29f98925bde44058874f6", "fusion_lat": 0.0, "lon": -77.01897516666666, "type": "electric_scooter", "fusion_lon": 0.0, "lat": 38.917245}, {"rental_uris": {"android": "https://dc.lft.to/lastmile_qr_scan", "ios": "https://dc.lft.to/lastmile_qr_scan"}, "is_reserved": 0, "is_disabled": 0, "name": "755582346098d05e21075799a7af6043", "bike_id": "755582346098d05e21075799a7af6043", "fusion_lat": 0.0, "lon": -77.03585983333333, "type": "electric_bike", "fusion_lon": 0.0, "lat": 38.992255}, {"rental_uris": {"android": "https://dc.lft.to/lastmile_qr_scan", "ios": "https://dc.lft.to/lastmile_qr_scan"}, "is_reserved": 0, "is_disabled": 0, "name": "9aec5b707fd30ec9b19f50b5728d387f", "bike_id": "9aec5b707fd30ec9b19f50b5728d387f", "fusion_lat": 0.0, "lon": -77.01950933333333, "type": "electric_scooter", "fusion_lon": 0.0, "lat": 38.92416133333333}, {"rental_uris": {"android": "https://dc.lft.to/lastmile_qr_scan", "ios": "https://dc.lft.to/lastmile_qr_scan"}, "is_reserved": 0, "is_disabled": 0, "name": "8c063e0fd907bf1a2e16661e9080dee7", "bike_id": "8c063e0fd907bf1a2e16661e9080dee7", "fusion_lat": 0.0, "lon": -77.01858333333334, "type": "electric_scooter", "fusion_lon": 0.0, "lat": 38.94921316666667}, {"rental_uris": {"android": "https://dc.lft.to/lastmile_qr_scan", "ios": "https://dc.lft.to/lastmile_qr_scan"}, "is_reserved": 0, "is_disabled": 0, "name": "78008a2aef534c36ee58425d0873b8be", "bike_id": "78008a2aef534c36ee58425d0873b8be", "fusion_lat": 0.0, "lon": -76.985294, "type": "electric_scooter", "fusion_lon": 0.0, "lat": 38.900070166666666}, {"rental_uris": {"android": "https://dc.lft.to/lastmile_qr_scan", "ios": "https://dc.lft.to/lastmile_qr_scan"}, "is_reserved": 0, "is_disabled": 0, "name": "2b344007a6bad1a9a970015682f7df19", "bike_id": "2b344007a6bad1a9a970015682f7df19", "fusion_lat": 0.0, "lon": -77.002746, "type": "electric_bike", "fusion_lon": 0.0, "lat": 38.838048666666666}, {"rental_uris": {"android": "https://dc.lft.to/lastmile_qr_scan", "ios": "https://dc.lft.to/lastmile_qr_scan"}, "is_reserved": 0, "is_disabled": 0, "name": "da221289a31a20da21e0e19cde76c5ff", "bike_id": "da221289a31a20da21e0e19cde76c5ff", "fusion_lat": 0.0, "lon": -77.027184, "type": "electric_scooter", "fusion_lon": 0.0, "lat": 38.906851833333334}, {"rental_uris": {"android": "https://dc.lft.to/lastmile_qr_scan", "ios": "https://dc.lft.to/lastmile_qr_scan"}, "is_reserved": 0, "is_disabled": 0, "name": "6a75bc0a5dfa0a4de5a761f8b9927db4", "bike_id": "6a75bc0a5dfa0a4de5a761f8b9927db4", "fusion_lat": 0.0, "lon": -77.05904966666667, "type": "electric_scooter", "fusion_lon": 0.0, "lat": 38.901657166666666}, {"rental_uris": {"android": "https://dc.lft.to/lastmile_qr_scan", "ios": "https://dc.lft.to/lastmile_qr_scan"}, "is_reserved": 0, "is_disabled": 0, "name": "f63b0c3d192b50511e1eaeaa7793f76c", "bike_id": "f63b0c3d192b50511e1eaeaa7793f76c", "fusion_lat": 0.0, "lon": -77.02787616666667, "type": "electric_scooter", "fusion_lon": 0.0, "lat": 38.96161566666667}, {"rental_uris": {"android": "https://dc.lft.to/lastmile_qr_scan", "ios": "https://dc.lft.to/lastmile_qr_scan"}, "is_reserved": 0, "is_disabled": 0, "name": "541213c1f9869e617c2a39f9fa293bef", "bike_id": "541213c1f9869e617c2a39f9fa293bef", "fusion_lat": 0.0, "lon": -77.02696483333334, "type": "electric_scooter", "fusion_lon": 0.0, "lat": 38.916739166666666}, {"rental_uris": {"android": "https://dc.lft.to/lastmile_qr_scan", "ios": "https://dc.lft.to/lastmile_qr_scan"}, "is_reserved": 0, "is_disabled": 0, "name": "e26fe1faa1195f94fadbff2e7ef00f9d", "bike_id": "e26fe1faa1195f94fadbff2e7ef00f9d", "fusion_lat": 0.0, "lon": -77.0317295, "type": "electric_scooter", "fusion_lon": 0.0, "lat": 38.916272166666666}, {"rental_uris": {"android": "https://dc.lft.to/lastmile_qr_scan", "ios": "https://dc.lft.to/lastmile_qr_scan"}, "is_reserved": 0, "is_disabled": 0, "name": "c6e7a69da944109d32ed7b80a61626d7", "bike_id": "c6e7a69da944109d32ed7b80a61626d7", "fusion_lat": 0.0, "lon": -76.96324566666667, "type": "electric_bike", "fusion_lon": 0.0, "lat": 38.938914833333335}, {"rental_uris": {"android": "https://dc.lft.to/lastmile_qr_scan", "ios": "https://dc.lft.to/lastmile_qr_scan"}, "is_reserved": 0, "is_disabled": 0, "name": "66ea314686a5afcd91997d96cfbe1572", "bike_id": "66ea314686a5afcd91997d96cfbe1572", "fusion_lat": 0.0, "lon": -76.98743933333333, "type": "electric_scooter", "fusion_lon": 0.0, "lat": 38.8796455}, {"rental_uris": {"android": "https://dc.lft.to/lastmile_qr_scan", "ios": "https://dc.lft.to/lastmile_qr_scan"}, "is_reserved": 0, "is_disabled": 0, "name": "591c64125e0570d0518400aeefc7b7e8", "bike_id": "591c64125e0570d0518400aeefc7b7e8", "fusion_lat": 0.0, "lon": -77.003774, "type": "electric_bike", "fusion_lon": 0.0, "lat": 38.8360185}, {"rental_uris": {"android": "https://dc.lft.to/lastmile_qr_scan", "ios": "https://dc.lft.to/lastmile_qr_scan"}, "is_reserved": 0, "is_disabled": 0, "name": "33e78e2217f2e305bcb0471039b86d03", "bike_id": "33e78e2217f2e305bcb0471039b86d03", "fusion_lat": 0.0, "lon": -77.0207325, "type": "electric_scooter", "fusion_lon": 0.0, "lat": 38.93024833333333}, {"rental_uris": {"android": "https://dc.lft.to/lastmile_qr_scan", "ios": "https://dc.lft.to/lastmile_qr_scan"}, "is_reserved": 0, "is_disabled": 0, "name": "129e83a3bf9c8e1e6ea3252f040a6ec1", "bike_id": "129e83a3bf9c8e1e6ea3252f040a6ec1", "fusion_lat": 0.0, "lon": -77.02778366666666, "type": "electric_scooter", "fusion_lon": 0.0, "lat": 38.899264}, {"rental_uris": {"android": "https://dc.lft.to/lastmile_qr_scan", "ios": "https://dc.lft.to/lastmile_qr_scan"}, "is_reserved": 0, "is_disabled": 0, "name": "6ec024a3a22b2cfce1cbd92344cce9c3", "bike_id": "6ec024a3a22b2cfce1cbd92344cce9c3", "fusion_lat": 0.0, "lon": -77.0332985, "type": "electric_scooter", "fusion_lon": 0.0, "lat": 38.900105}, {"rental_uris": {"android": "https://dc.lft.to/lastmile_qr_scan", "ios": "https://dc.lft.to/lastmile_qr_scan"}, "is_reserved": 0, "is_disabled": 0, "name": "82c85df8516c79c08f4a2ccba80b3152", "bike_id": "82c85df8516c79c08f4a2ccba80b3152", "fusion_lat": 0.0, "lon": -77.034576, "type": "electric_scooter", "fusion_lon": 0.0, "lat": 38.921525}, {"rental_uris": {"android": "https://dc.lft.to/lastmile_qr_scan", "ios": "https://dc.lft.to/lastmile_qr_scan"}, "is_reserved": 0, "is_disabled": 0, "name": "a1e12bb3b2892705e1d7e8926e9de363", "bike_id": "a1e12bb3b2892705e1d7e8926e9de363", "fusion_lat": 0.0, "lon": -77.01372066666667, "type": "electric_scooter", "fusion_lon": 0.0, "lat": 38.87617}, {"rental_uris": {"android": "https://dc.lft.to/lastmile_qr_scan", "ios": "https://dc.lft.to/lastmile_qr_scan"}, "is_reserved": 0, "is_disabled": 0, "name": "2640cf22c3546ec8d9ddb8a6f5eea8f9", "bike_id": "2640cf22c3546ec8d9ddb8a6f5eea8f9", "fusion_lat": 0.0, "lon": -76.953644, "type": "electric_scooter", "fusion_lon": 0.0, "lat": 38.889496333333334}, {"rental_uris": {"android": "https://dc.lft.to/lastmile_qr_scan", "ios": "https://dc.lft.to/lastmile_qr_scan"}, "is_reserved": 0, "is_disabled": 0, "name": "6f5ef6d680f87bbda33ec9865c5a15db", "bike_id": "6f5ef6d680f87bbda33ec9865c5a15db", "fusion_lat": 0.0, "lon": -77.0072875, "type": "electric_scooter", "fusion_lon": 0.0, "lat": 38.911918}, {"rental_uris": {"android": "https://dc.lft.to/lastmile_qr_scan", "ios": "https://dc.lft.to/lastmile_qr_scan"}, "is_reserved": 0, "is_disabled": 0, "name": "1aeb834a2d5ae92402b34c8b722bbba4", "bike_id": "1aeb834a2d5ae92402b34c8b722bbba4", "fusion_lat": 0.0, "lon": -77.03142166666666, "type": "electric_scooter", "fusion_lon": 0.0, "lat": 38.9223845}, {"rental_uris": {"android": "https://dc.lft.to/lastmile_qr_scan", "ios": "https://dc.lft.to/lastmile_qr_scan"}, "is_reserved": 0, "is_disabled": 0, "name": "0ddd85eee0d8486b23e1b1ea133e18bd", "bike_id": "0ddd85eee0d8486b23e1b1ea133e18bd", "fusion_lat": 0.0, "lon": -77.03665916666667, "type": "electric_scooter", "fusion_lon": 0.0, "lat": 38.90327666666666}, {"rental_uris": {"android": "https://dc.lft.to/lastmile_qr_scan", "ios": "https://dc.lft.to/lastmile_qr_scan"}, "is_reserved": 0, "is_disabled": 0, "name": "af0aeb3aede758065d16d539dccb3f4d", "bike_id": "af0aeb3aede758065d16d539dccb3f4d", "fusion_lat": 0.0, "lon": -77.03472166666667, "type": "electric_scooter", "fusion_lon": 0.0, "lat": 38.91383483333333}, {"rental_uris": {"android": "https://dc.lft.to/lastmile_qr_scan", "ios": "https://dc.lft.to/lastmile_qr_scan"}, "is_reserved": 0, "is_disabled": 0, "name": "19993960255410f938dcaf6c40387b98", "bike_id": "19993960255410f938dcaf6c40387b98", "fusion_lat": 0.0, "lon": -77.01815666666667, "type": "electric_scooter", "fusion_lon": 0.0, "lat": 38.913986333333334}, {"rental_uris": {"android": "https://dc.lft.to/lastmile_qr_scan", "ios": "https://dc.lft.to/lastmile_qr_scan"}, "is_reserved": 0, "is_disabled": 0, "name": "4f6dcbecb55b0cc0feb0097a36d116a2", "bike_id": "4f6dcbecb55b0cc0feb0097a36d116a2", "fusion_lat": 0.0, "lon": -77.027879, "type": "electric_scooter", "fusion_lon": 0.0, "lat": 38.961647}, {"rental_uris": {"android": "https://dc.lft.to/lastmile_qr_scan", "ios": "https://dc.lft.to/lastmile_qr_scan"}, "is_reserved": 0, "is_disabled": 0, "name": "010547feab702a71dd930ede9c46ddd6", "bike_id": "010547feab702a71dd930ede9c46ddd6", "fusion_lat": 0.0, "lon": -77.0302005, "type": "electric_bike", "fusion_lon": 0.0, "lat": 38.90028133333333}, {"rental_uris": {"android": "https://dc.lft.to/lastmile_qr_scan", "ios": "https://dc.lft.to/lastmile_qr_scan"}, "is_reserved": 0, "is_disabled": 0, "name": "2921df8853d5fe3f4ae709e68fd3c691", "bike_id": "2921df8853d5fe3f4ae709e68fd3c691", "fusion_lat": 0.0, "lon": -77.01626133333333, "type": "electric_scooter", "fusion_lon": 0.0, "lat": 38.887350833333336}, {"rental_uris": {"android": "https://dc.lft.to/lastmile_qr_scan", "ios": "https://dc.lft.to/lastmile_qr_scan"}, "is_reserved": 0, "is_disabled": 0, "name": "3e6e3e360e81283114197be3d0d2adad", "bike_id": "3e6e3e360e81283114197be3d0d2adad", "fusion_lat": 0.0, "lon": -77.04196916666666, "type": "electric_scooter", "fusion_lon": 0.0, "lat": 38.9187135}, {"rental_uris": {"android": "https://dc.lft.to/lastmile_qr_scan", "ios": "https://dc.lft.to/lastmile_qr_scan"}, "is_reserved": 0, "is_disabled": 0, "name": "43e70a2f003ec5af7ddecd923911ba2e", "bike_id": "43e70a2f003ec5af7ddecd923911ba2e", "fusion_lat": 0.0, "lon": -77.05913566666666, "type": "electric_scooter", "fusion_lon": 0.0, "lat": 38.9015}, {"rental_uris": {"android": "https://dc.lft.to/lastmile_qr_scan", "ios": "https://dc.lft.to/lastmile_qr_scan"}, "is_reserved": 0, "is_disabled": 0, "name": "805521f0680b968e83948e3353102279", "bike_id": "805521f0680b968e83948e3353102279", "fusion_lat": 0.0, "lon": -77.01079066666667, "type": "electric_scooter", "fusion_lon": 0.0, "lat": 38.903226333333336}, {"rental_uris": {"android": "https://dc.lft.to/lastmile_qr_scan", "ios": "https://dc.lft.to/lastmile_qr_scan"}, "is_reserved": 0, "is_disabled": 0, "name": "f32fca43134f1667d6f7bb669248800a", "bike_id": "f32fca43134f1667d6f7bb669248800a", "fusion_lat": 0.0, "lon": -76.98082333333333, "type": "electric_scooter", "fusion_lon": 0.0, "lat": 38.894338166666664}, {"rental_uris": {"android": "https://dc.lft.to/lastmile_qr_scan", "ios": "https://dc.lft.to/lastmile_qr_scan"}, "is_reserved": 0, "is_disabled": 0, "name": "997f02240e32686f11d04a3058037b49", "bike_id": "997f02240e32686f11d04a3058037b49", "fusion_lat": 0.0, "lon": -77.0332265, "type": "electric_scooter", "fusion_lon": 0.0, "lat": 38.89866216666667}, {"rental_uris": {"android": "https://dc.lft.to/lastmile_qr_scan", "ios": "https://dc.lft.to/lastmile_qr_scan"}, "is_reserved": 0, "is_disabled": 0, "name": "b153d6eaf33272396db6c62d9b4de4f8", "bike_id": "b153d6eaf33272396db6c62d9b4de4f8", "fusion_lat": 0.0, "lon": -77.03980866666667, "type": "electric_scooter", "fusion_lon": 0.0, "lat": 38.91556216666667}, {"rental_uris": {"android": "https://dc.lft.to/lastmile_qr_scan", "ios": "https://dc.lft.to/lastmile_qr_scan"}, "is_reserved": 0, "is_disabled": 0, "name": "50f2552dd9a98fa4d1f9427d84ecc0c7", "bike_id": "50f2552dd9a98fa4d1f9427d84ecc0c7", "fusion_lat": 0.0, "lon": -77.009188, "type": "electric_scooter", "fusion_lon": 0.0, "lat": 38.89550166666667}, {"rental_uris": {"android": "https://dc.lft.to/lastmile_qr_scan", "ios": "https://dc.lft.to/lastmile_qr_scan"}, "is_reserved": 0, "is_disabled": 0, "name": "b9b647588d6ab2e34e1183bd52006e56", "bike_id": "b9b647588d6ab2e34e1183bd52006e56", "fusion_lat": 0.0, "lon": -77.02172716666666, "type": "electric_scooter", "fusion_lon": 0.0, "lat": 38.92603533333333}, {"rental_uris": {"android": "https://dc.lft.to/lastmile_qr_scan", "ios": "https://dc.lft.to/lastmile_qr_scan"}, "is_reserved": 0, "is_disabled": 0, "name": "1e79d6a40630f25e5ca10d9887e8dba3", "bike_id": "1e79d6a40630f25e5ca10d9887e8dba3", "fusion_lat": 0.0, "lon": -77.02383183333333, "type": "electric_scooter", "fusion_lon": 0.0, "lat": 38.89196183333333}, {"rental_uris": {"android": "https://dc.lft.to/lastmile_qr_scan", "ios": "https://dc.lft.to/lastmile_qr_scan"}, "is_reserved": 0, "is_disabled": 0, "name": "90bbe1f9f46a05f56c7bcad67b712ba2", "bike_id": "90bbe1f9f46a05f56c7bcad67b712ba2", "fusion_lat": 0.0, "lon": -76.94582083333333, "type": "electric_scooter", "fusion_lon": 0.0, "lat": 38.89928733333333}, {"rental_uris": {"android": "https://dc.lft.to/lastmile_qr_scan", "ios": "https://dc.lft.to/lastmile_qr_scan"}, "is_reserved": 0, "is_disabled": 0, "name": "c892e55777b0d0ac811fdb48a096e05d", "bike_id": "c892e55777b0d0ac811fdb48a096e05d", "fusion_lat": 0.0, "lon": -77.127392, "type": "electric_bike", "fusion_lon": 0.0, "lat": 38.895658}, {"rental_uris": {"android": "https://dc.lft.to/lastmile_qr_scan", "ios": "https://dc.lft.to/lastmile_qr_scan"}, "is_reserved": 0, "is_disabled": 0, "name": "b52e69428ae96fafb859a1434b3da1e4", "bike_id": "b52e69428ae96fafb859a1434b3da1e4", "fusion_lat": 0.0, "lon": -77.0388025, "type": "electric_bike", "fusion_lon": 0.0, "lat": 39.02622933333333}, {"rental_uris": {"android": "https://dc.lft.to/lastmile_qr_scan", "ios": "https://dc.lft.to/lastmile_qr_scan"}, "is_reserved": 0, "is_disabled": 0, "name": "4858ccd161d98e5dd63a8a01a11c351a", "bike_id": "4858ccd161d98e5dd63a8a01a11c351a", "fusion_lat": 0.0, "lon": -77.004626, "type": "electric_scooter", "fusion_lon": 0.0, "lat": 38.91156316666667}, {"rental_uris": {"android": "https://dc.lft.to/lastmile_qr_scan", "ios": "https://dc.lft.to/lastmile_qr_scan"}, "is_reserved": 0, "is_disabled": 0, "name": "3f6732d596d0abb9b515925d5ba326df", "bike_id": "3f6732d596d0abb9b515925d5ba326df", "fusion_lat": 0.0, "lon": -77.04564216666667, "type": "electric_scooter", "fusion_lon": 0.0, "lat": 38.9070335}, {"rental_uris": {"android": "https://dc.lft.to/lastmile_qr_scan", "ios": "https://dc.lft.to/lastmile_qr_scan"}, "is_reserved": 0, "is_disabled": 0, "name": "97b8ff35a46632e6012e1a6dc3819c57", "bike_id": "97b8ff35a46632e6012e1a6dc3819c57", "fusion_lat": 0.0, "lon": -76.9791665, "type": "electric_bike", "fusion_lon": 0.0, "lat": 38.9585235}, {"rental_uris": {"android": "https://dc.lft.to/lastmile_qr_scan", "ios": "https://dc.lft.to/lastmile_qr_scan"}, "is_reserved": 0, "is_disabled": 0, "name": "10cf2354d4e6b0c103677bd870a8d445", "bike_id": "10cf2354d4e6b0c103677bd870a8d445", "fusion_lat": 0.0, "lon": -77.01142533333334, "type": "electric_scooter", "fusion_lon": 0.0, "lat": 38.8964605}, {"rental_uris": {"android": "https://dc.lft.to/lastmile_qr_scan", "ios": "https://dc.lft.to/lastmile_qr_scan"}, "is_reserved": 0, "is_disabled": 0, "name": "63c35ed76af3c41cbeaaaca8718220c5", "bike_id": "63c35ed76af3c41cbeaaaca8718220c5", "fusion_lat": 0.0, "lon": -77.027223, "type": "electric_scooter", "fusion_lon": 0.0, "lat": 38.92222566666667}, {"rental_uris": {"android": "https://dc.lft.to/lastmile_qr_scan", "ios": "https://dc.lft.to/lastmile_qr_scan"}, "is_reserved": 0, "is_disabled": 0, "name": "474f20bb90151882df07628e014b5fee", "bike_id": "474f20bb90151882df07628e014b5fee", "fusion_lat": 0.0, "lon": -77.0150025, "type": "electric_scooter", "fusion_lon": 0.0, "lat": 38.89340266666667}, {"rental_uris": {"android": "https://dc.lft.to/lastmile_qr_scan", "ios": "https://dc.lft.to/lastmile_qr_scan"}, "is_reserved": 0, "is_disabled": 0, "name": "a3859f65776be6d6be6dc3d696b6f5ed", "bike_id": "a3859f65776be6d6be6dc3d696b6f5ed", "fusion_lat": 0.0, "lon": -77.04874633333333, "type": "electric_scooter", "fusion_lon": 0.0, "lat": 38.903960833333336}, {"rental_uris": {"android": "https://dc.lft.to/lastmile_qr_scan", "ios": "https://dc.lft.to/lastmile_qr_scan"}, "is_reserved": 0, "is_disabled": 0, "name": "e106a6dffefcfc621c5186bc3e341e53", "bike_id": "e106a6dffefcfc621c5186bc3e341e53", "fusion_lat": 0.0, "lon": -77.01180883333333, "type": "electric_scooter", "fusion_lon": 0.0, "lat": 38.9002405}, {"rental_uris": {"android": "https://dc.lft.to/lastmile_qr_scan", "ios": "https://dc.lft.to/lastmile_qr_scan"}, "is_reserved": 0, "is_disabled": 0, "name": "e2d2defe03fe8d5db39a917e34709128", "bike_id": "e2d2defe03fe8d5db39a917e34709128", "fusion_lat": 0.0, "lon": -77.02116683333334, "type": "electric_bike", "fusion_lon": 0.0, "lat": 38.93595966666667}, {"rental_uris": {"android": "https://dc.lft.to/lastmile_qr_scan", "ios": "https://dc.lft.to/lastmile_qr_scan"}, "is_reserved": 0, "is_disabled": 0, "name": "c272670be03847f8e59d2746f566d569", "bike_id": "c272670be03847f8e59d2746f566d569", "fusion_lat": 0.0, "lon": -77.03461483333334, "type": "electric_scooter", "fusion_lon": 0.0, "lat": 38.911744166666665}, {"rental_uris": {"android": "https://dc.lft.to/lastmile_qr_scan", "ios": "https://dc.lft.to/lastmile_qr_scan"}, "is_reserved": 0, "is_disabled": 0, "name": "1329c7047317eac8df172fbe4e90b6e4", "bike_id": "1329c7047317eac8df172fbe4e90b6e4", "fusion_lat": 0.0, "lon": -77.05392766666667, "type": "electric_scooter", "fusion_lon": 0.0, "lat": 38.910547333333334}, {"rental_uris": {"android": "https://dc.lft.to/lastmile_qr_scan", "ios": "https://dc.lft.to/lastmile_qr_scan"}, "is_reserved": 0, "is_disabled": 0, "name": "2db28b3710912ebdeb631f6974e6b6cd", "bike_id": "2db28b3710912ebdeb631f6974e6b6cd", "fusion_lat": 0.0, "lon": -77.03339133333333, "type": "electric_scooter", "fusion_lon": 0.0, "lat": 38.921693166666664}, {"rental_uris": {"android": "https://dc.lft.to/lastmile_qr_scan", "ios": "https://dc.lft.to/lastmile_qr_scan"}, "is_reserved": 0, "is_disabled": 0, "name": "78715e486fb41dc615982ef0293040a7", "bike_id": "78715e486fb41dc615982ef0293040a7", "fusion_lat": 0.0, "lon": -77.03443516666667, "type": "electric_scooter", "fusion_lon": 0.0, "lat": 38.90642583333333}, {"rental_uris": {"android": "https://dc.lft.to/lastmile_qr_scan", "ios": "https://dc.lft.to/lastmile_qr_scan"}, "is_reserved": 0, "is_disabled": 0, "name": "79dcd9c032e385b3c5d7bc488879a466", "bike_id": "79dcd9c032e385b3c5d7bc488879a466", "fusion_lat": 0.0, "lon": -76.99573816666667, "type": "electric_scooter", "fusion_lon": 0.0, "lat": 38.9000625}, {"rental_uris": {"android": "https://dc.lft.to/lastmile_qr_scan", "ios": "https://dc.lft.to/lastmile_qr_scan"}, "is_reserved": 0, "is_disabled": 0, "name": "303a1c872cce2fa47b3eecde57bdb7d6", "bike_id": "303a1c872cce2fa47b3eecde57bdb7d6", "fusion_lat": 0.0, "lon": -77.07757216666667, "type": "electric_bike", "fusion_lon": 0.0, "lat": 38.84193616666667}, {"rental_uris": {"android": "https://dc.lft.to/lastmile_qr_scan", "ios": "https://dc.lft.to/lastmile_qr_scan"}, "is_reserved": 0, "is_disabled": 0, "name": "5d2c1b55f94440ebd33f2a3f252df745", "bike_id": "5d2c1b55f94440ebd33f2a3f252df745", "fusion_lat": 0.0, "lon": -77.0432765, "type": "electric_scooter", "fusion_lon": 0.0, "lat": 38.892206}, {"rental_uris": {"android": "https://dc.lft.to/lastmile_qr_scan", "ios": "https://dc.lft.to/lastmile_qr_scan"}, "is_reserved": 0, "is_disabled": 0, "name": "40e89aa2294a275d36c392e5b14babe4", "bike_id": "40e89aa2294a275d36c392e5b14babe4", "fusion_lat": 0.0, "lon": -77.0730975, "type": "electric_scooter", "fusion_lon": 0.0, "lat": 38.92201633333333}, {"rental_uris": {"android": "https://dc.lft.to/lastmile_qr_scan", "ios": "https://dc.lft.to/lastmile_qr_scan"}, "is_reserved": 0, "is_disabled": 0, "name": "9da91e2bd0fe2fd5a5c3cc75be0b4907", "bike_id": "9da91e2bd0fe2fd5a5c3cc75be0b4907", "fusion_lat": 0.0, "lon": -77.03384383333334, "type": "electric_scooter", "fusion_lon": 0.0, "lat": 38.924676166666664}, {"rental_uris": {"android": "https://dc.lft.to/lastmile_qr_scan", "ios": "https://dc.lft.to/lastmile_qr_scan"}, "is_reserved": 0, "is_disabled": 0, "name": "2a630ae3b37fd52d3a6e2f0e7a2759fe", "bike_id": "2a630ae3b37fd52d3a6e2f0e7a2759fe", "fusion_lat": 0.0, "lon": -77.04899716666667, "type": "electric_scooter", "fusion_lon": 0.0, "lat": 38.9054865}, {"rental_uris": {"android": "https://dc.lft.to/lastmile_qr_scan", "ios": "https://dc.lft.to/lastmile_qr_scan"}, "is_reserved": 0, "is_disabled": 0, "name": "89bc5cc4c45181f324e0a42a3bf613de", "bike_id": "89bc5cc4c45181f324e0a42a3bf613de", "fusion_lat": 0.0, "lon": -77.027626, "type": "electric_scooter", "fusion_lon": 0.0, "lat": 38.954165333333336}, {"rental_uris": {"android": "https://dc.lft.to/lastmile_qr_scan", "ios": "https://dc.lft.to/lastmile_qr_scan"}, "is_reserved": 0, "is_disabled": 0, "name": "608e32e79a8af5152279537adc757690", "bike_id": "608e32e79a8af5152279537adc757690", "fusion_lat": 0.0, "lon": -76.9837295, "type": "electric_scooter", "fusion_lon": 0.0, "lat": 38.892626166666666}, {"rental_uris": {"android": "https://dc.lft.to/lastmile_qr_scan", "ios": "https://dc.lft.to/lastmile_qr_scan"}, "is_reserved": 0, "is_disabled": 0, "name": "6ffb57c81a61bc88d862e471d568f60d", "bike_id": "6ffb57c81a61bc88d862e471d568f60d", "fusion_lat": 0.0, "lon": -77.02229683333333, "type": "electric_scooter", "fusion_lon": 0.0, "lat": 38.9125305}, {"rental_uris": {"android": "https://dc.lft.to/lastmile_qr_scan", "ios": "https://dc.lft.to/lastmile_qr_scan"}, "is_reserved": 0, "is_disabled": 0, "name": "79f0b1cf3d71e2b38b8f68ea50e275b5", "bike_id": "79f0b1cf3d71e2b38b8f68ea50e275b5", "fusion_lat": 0.0, "lon": -77.02325933333333, "type": "electric_scooter", "fusion_lon": 0.0, "lat": 38.9073305}, {"rental_uris": {"android": "https://dc.lft.to/lastmile_qr_scan", "ios": "https://dc.lft.to/lastmile_qr_scan"}, "is_reserved": 0, "is_disabled": 0, "name": "e9782861e843ff72cc633486ef8412ff", "bike_id": "e9782861e843ff72cc633486ef8412ff", "fusion_lat": 0.0, "lon": -77.04480933333333, "type": "electric_scooter", "fusion_lon": 0.0, "lat": 38.90291583333333}, {"rental_uris": {"android": "https://dc.lft.to/lastmile_qr_scan", "ios": "https://dc.lft.to/lastmile_qr_scan"}, "is_reserved": 0, "is_disabled": 0, "name": "f0a962e5992c7dded61c8fca9b402d5d", "bike_id": "f0a962e5992c7dded61c8fca9b402d5d", "fusion_lat": 0.0, "lon": -77.03177983333333, "type": "electric_scooter", "fusion_lon": 0.0, "lat": 38.90745716666667}, {"rental_uris": {"android": "https://dc.lft.to/lastmile_qr_scan", "ios": "https://dc.lft.to/lastmile_qr_scan"}, "is_reserved": 0, "is_disabled": 0, "name": "090a3bbd3f0efc123bf32fa87ba4894f", "bike_id": "090a3bbd3f0efc123bf32fa87ba4894f", "fusion_lat": 0.0, "lon": -77.0464945, "type": "electric_bike", "fusion_lon": 0.0, "lat": 38.8154475}, {"rental_uris": {"android": "https://dc.lft.to/lastmile_qr_scan", "ios": "https://dc.lft.to/lastmile_qr_scan"}, "is_reserved": 0, "is_disabled": 0, "name": "9c79290ce28356a3395bb7022aa6ca0c", "bike_id": "9c79290ce28356a3395bb7022aa6ca0c", "fusion_lat": 0.0, "lon": -77.03180283333333, "type": "electric_scooter", "fusion_lon": 0.0, "lat": 38.91924866666667}, {"rental_uris": {"android": "https://dc.lft.to/lastmile_qr_scan", "ios": "https://dc.lft.to/lastmile_qr_scan"}, "is_reserved": 0, "is_disabled": 0, "name": "68ea8ad6e604e0ce0b2ab764c193e86d", "bike_id": "68ea8ad6e604e0ce0b2ab764c193e86d", "fusion_lat": 0.0, "lon": -77.03038216666667, "type": "electric_scooter", "fusion_lon": 0.0, "lat": 38.931222}, {"rental_uris": {"android": "https://dc.lft.to/lastmile_qr_scan", "ios": "https://dc.lft.to/lastmile_qr_scan"}, "is_reserved": 0, "is_disabled": 0, "name": "a5236a1a89d1dcf358ae12ecd62b39ab", "bike_id": "a5236a1a89d1dcf358ae12ecd62b39ab", "fusion_lat": 0.0, "lon": -77.02656016666667, "type": "electric_scooter", "fusion_lon": 0.0, "lat": 38.902710166666665}, {"rental_uris": {"android": "https://dc.lft.to/lastmile_qr_scan", "ios": "https://dc.lft.to/lastmile_qr_scan"}, "is_reserved": 0, "is_disabled": 0, "name": "6c4c22a625a8f6337c22749c2bf45d09", "bike_id": "6c4c22a625a8f6337c22749c2bf45d09", "fusion_lat": 0.0, "lon": -77.02733616666667, "type": "electric_scooter", "fusion_lon": 0.0, "lat": 38.91817616666667}, {"rental_uris": {"android": "https://dc.lft.to/lastmile_qr_scan", "ios": "https://dc.lft.to/lastmile_qr_scan"}, "is_reserved": 0, "is_disabled": 0, "name": "82e19b044555cb71d5dafef588628f33", "bike_id": "82e19b044555cb71d5dafef588628f33", "fusion_lat": 0.0, "lon": -77.04067133333334, "type": "electric_scooter", "fusion_lon": 0.0, "lat": 38.90601733333333}, {"rental_uris": {"android": "https://dc.lft.to/lastmile_qr_scan", "ios": "https://dc.lft.to/lastmile_qr_scan"}, "is_reserved": 0, "is_disabled": 0, "name": "8dd395f45753aa1b132c668f70945a4b", "bike_id": "8dd395f45753aa1b132c668f70945a4b", "fusion_lat": 0.0, "lon": -76.95243616666667, "type": "electric_bike", "fusion_lon": 0.0, "lat": 38.9069425}, {"rental_uris": {"android": "https://dc.lft.to/lastmile_qr_scan", "ios": "https://dc.lft.to/lastmile_qr_scan"}, "is_reserved": 0, "is_disabled": 0, "name": "e9304196dc45f3235dc9330efe4df4d5", "bike_id": "e9304196dc45f3235dc9330efe4df4d5", "fusion_lat": 0.0, "lon": -76.983366, "type": "electric_scooter", "fusion_lon": 0.0, "lat": 38.895502}, {"rental_uris": {"android": "https://dc.lft.to/lastmile_qr_scan", "ios": "https://dc.lft.to/lastmile_qr_scan"}, "is_reserved": 0, "is_disabled": 0, "name": "d2dcbdef05c60e4686591a91ee8f684f", "bike_id": "d2dcbdef05c60e4686591a91ee8f684f", "fusion_lat": 0.0, "lon": -76.98807933333333, "type": "electric_scooter", "fusion_lon": 0.0, "lat": 38.8936415}, {"rental_uris": {"android": "https://dc.lft.to/lastmile_qr_scan", "ios": "https://dc.lft.to/lastmile_qr_scan"}, "is_reserved": 0, "is_disabled": 0, "name": "73e971bf831c4e9704301c81f4a61c25", "bike_id": "73e971bf831c4e9704301c81f4a61c25", "fusion_lat": 0.0, "lon": -77.0233595, "type": "electric_scooter", "fusion_lon": 0.0, "lat": 38.93047283333333}, {"rental_uris": {"android": "https://dc.lft.to/lastmile_qr_scan", "ios": "https://dc.lft.to/lastmile_qr_scan"}, "is_reserved": 0, "is_disabled": 0, "name": "605dd8454d296c2cf90e94ad7987de78", "bike_id": "605dd8454d296c2cf90e94ad7987de78", "fusion_lat": 0.0, "lon": -77.04472883333334, "type": "electric_scooter", "fusion_lon": 0.0, "lat": 38.91854883333333}, {"rental_uris": {"android": "https://dc.lft.to/lastmile_qr_scan", "ios": "https://dc.lft.to/lastmile_qr_scan"}, "is_reserved": 0, "is_disabled": 0, "name": "01f4f185430a3ecec5d98914b9813d04", "bike_id": "01f4f185430a3ecec5d98914b9813d04", "fusion_lat": 0.0, "lon": -76.97966383333333, "type": "electric_scooter", "fusion_lon": 0.0, "lat": 38.89792633333333}, {"rental_uris": {"android": "https://dc.lft.to/lastmile_qr_scan", "ios": "https://dc.lft.to/lastmile_qr_scan"}, "is_reserved": 0, "is_disabled": 0, "name": "5d9214386f85bf1d5bbf98a802c469df", "bike_id": "5d9214386f85bf1d5bbf98a802c469df", "fusion_lat": 0.0, "lon": -77.00021083333333, "type": "electric_scooter", "fusion_lon": 0.0, "lat": 38.87401216666667}, {"rental_uris": {"android": "https://dc.lft.to/lastmile_qr_scan", "ios": "https://dc.lft.to/lastmile_qr_scan"}, "is_reserved": 0, "is_disabled": 0, "name": "e5de9eba137addc4d70e5de21d739ecd", "bike_id": "e5de9eba137addc4d70e5de21d739ecd", "fusion_lat": 0.0, "lon": -77.04054716666667, "type": "electric_scooter", "fusion_lon": 0.0, "lat": 38.908713666666664}, {"rental_uris": {"android": "https://dc.lft.to/lastmile_qr_scan", "ios": "https://dc.lft.to/lastmile_qr_scan"}, "is_reserved": 0, "is_disabled": 0, "name": "f3b697d15e08b8c83045d177ce719992", "bike_id": "f3b697d15e08b8c83045d177ce719992", "fusion_lat": 0.0, "lon": -77.0343375, "type": "electric_scooter", "fusion_lon": 0.0, "lat": 38.90268733333333}, {"rental_uris": {"android": "https://dc.lft.to/lastmile_qr_scan", "ios": "https://dc.lft.to/lastmile_qr_scan"}, "is_reserved": 0, "is_disabled": 0, "name": "646668c78abae12f676fdf2a7e971aab", "bike_id": "646668c78abae12f676fdf2a7e971aab", "fusion_lat": 0.0, "lon": -77.03274933333333, "type": "electric_scooter", "fusion_lon": 0.0, "lat": 38.937373666666666}, {"rental_uris": {"android": "https://dc.lft.to/lastmile_qr_scan", "ios": "https://dc.lft.to/lastmile_qr_scan"}, "is_reserved": 0, "is_disabled": 0, "name": "f8edb78388d033e5c34e0c88eba29bc9", "bike_id": "f8edb78388d033e5c34e0c88eba29bc9", "fusion_lat": 0.0, "lon": -77.040808, "type": "electric_scooter", "fusion_lon": 0.0, "lat": 38.903950333333334}, {"rental_uris": {"android": "https://dc.lft.to/lastmile_qr_scan", "ios": "https://dc.lft.to/lastmile_qr_scan"}, "is_reserved": 0, "is_disabled": 0, "name": "9aa1b78c84a134cd009f962477a19655", "bike_id": "9aa1b78c84a134cd009f962477a19655", "fusion_lat": 0.0, "lon": -77.02379266666667, "type": "electric_scooter", "fusion_lon": 0.0, "lat": 38.9527265}, {"rental_uris": {"android": "https://dc.lft.to/lastmile_qr_scan", "ios": "https://dc.lft.to/lastmile_qr_scan"}, "is_reserved": 0, "is_disabled": 0, "name": "c63d86a4dfb32cc611427e1784f77e21", "bike_id": "c63d86a4dfb32cc611427e1784f77e21", "fusion_lat": 0.0, "lon": -77.04315166666666, "type": "electric_scooter", "fusion_lon": 0.0, "lat": 38.918755833333336}, {"rental_uris": {"android": "https://dc.lft.to/lastmile_qr_scan", "ios": "https://dc.lft.to/lastmile_qr_scan"}, "is_reserved": 0, "is_disabled": 0, "name": "fb975bd46e0173bcceb92db8299e4086", "bike_id": "fb975bd46e0173bcceb92db8299e4086", "fusion_lat": 0.0, "lon": -77.02188266666667, "type": "electric_scooter", "fusion_lon": 0.0, "lat": 38.909537}, {"rental_uris": {"android": "https://dc.lft.to/lastmile_qr_scan", "ios": "https://dc.lft.to/lastmile_qr_scan"}, "is_reserved": 0, "is_disabled": 0, "name": "a59a127fffceb78440ec739ada49faa4", "bike_id": "a59a127fffceb78440ec739ada49faa4", "fusion_lat": 0.0, "lon": -77.0033145, "type": "electric_scooter", "fusion_lon": 0.0, "lat": 38.90275333333334}, {"rental_uris": {"android": "https://dc.lft.to/lastmile_qr_scan", "ios": "https://dc.lft.to/lastmile_qr_scan"}, "is_reserved": 0, "is_disabled": 0, "name": "78ed804f9abad569cec7bc9079b3d2bc", "bike_id": "78ed804f9abad569cec7bc9079b3d2bc", "fusion_lat": 0.0, "lon": -77.03184433333334, "type": "electric_scooter", "fusion_lon": 0.0, "lat": 38.91345866666666}, {"rental_uris": {"android": "https://dc.lft.to/lastmile_qr_scan", "ios": "https://dc.lft.to/lastmile_qr_scan"}, "is_reserved": 0, "is_disabled": 0, "name": "4035bdf4c808f0b8023ce799de321222", "bike_id": "4035bdf4c808f0b8023ce799de321222", "fusion_lat": 0.0, "lon": -77.03806983333334, "type": "electric_scooter", "fusion_lon": 0.0, "lat": 38.93068533333334}, {"rental_uris": {"android": "https://dc.lft.to/lastmile_qr_scan", "ios": "https://dc.lft.to/lastmile_qr_scan"}, "is_reserved": 0, "is_disabled": 0, "name": "b86e8e2df2fc6de3be5c513564aee860", "bike_id": "b86e8e2df2fc6de3be5c513564aee860", "fusion_lat": 0.0, "lon": -76.9408835, "type": "electric_scooter", "fusion_lon": 0.0, "lat": 38.89125216666667}, {"rental_uris": {"android": "https://dc.lft.to/lastmile_qr_scan", "ios": "https://dc.lft.to/lastmile_qr_scan"}, "is_reserved": 0, "is_disabled": 0, "name": "764a64ca085b5f6db53c7e3b24a4f822", "bike_id": "764a64ca085b5f6db53c7e3b24a4f822", "fusion_lat": 0.0, "lon": -77.0635115, "type": "electric_scooter", "fusion_lon": 0.0, "lat": 38.94440216666667}, {"rental_uris": {"android": "https://dc.lft.to/lastmile_qr_scan", "ios": "https://dc.lft.to/lastmile_qr_scan"}, "is_reserved": 0, "is_disabled": 0, "name": "cdc2bdff77fb032110fa3b0b45214a8a", "bike_id": "cdc2bdff77fb032110fa3b0b45214a8a", "fusion_lat": 0.0, "lon": -77.05321166666667, "type": "electric_scooter", "fusion_lon": 0.0, "lat": 38.905169666666666}, {"rental_uris": {"android": "https://dc.lft.to/lastmile_qr_scan", "ios": "https://dc.lft.to/lastmile_qr_scan"}, "is_reserved": 0, "is_disabled": 0, "name": "206eba106cdfae1c7d13ea5d30afe4ec", "bike_id": "206eba106cdfae1c7d13ea5d30afe4ec", "fusion_lat": 0.0, "lon": -77.02323483333333, "type": "electric_scooter", "fusion_lon": 0.0, "lat": 38.91846483333333}, {"rental_uris": {"android": "https://dc.lft.to/lastmile_qr_scan", "ios": "https://dc.lft.to/lastmile_qr_scan"}, "is_reserved": 0, "is_disabled": 0, "name": "4230379a302d1615276b83ebf4f3aa2a", "bike_id": "4230379a302d1615276b83ebf4f3aa2a", "fusion_lat": 0.0, "lon": -77.0056095, "type": "electric_scooter", "fusion_lon": 0.0, "lat": 38.87934766666667}, {"rental_uris": {"android": "https://dc.lft.to/lastmile_qr_scan", "ios": "https://dc.lft.to/lastmile_qr_scan"}, "is_reserved": 0, "is_disabled": 0, "name": "4d2eaa7238f8c6d36bdf5ac6ed2851b3", "bike_id": "4d2eaa7238f8c6d36bdf5ac6ed2851b3", "fusion_lat": 0.0, "lon": -77.03688216666667, "type": "electric_scooter", "fusion_lon": 0.0, "lat": 38.936645}, {"rental_uris": {"android": "https://dc.lft.to/lastmile_qr_scan", "ios": "https://dc.lft.to/lastmile_qr_scan"}, "is_reserved": 0, "is_disabled": 0, "name": "7a166ae91de786b4053811a5bea846d1", "bike_id": "7a166ae91de786b4053811a5bea846d1", "fusion_lat": 0.0, "lon": -77.026782, "type": "electric_scooter", "fusion_lon": 0.0, "lat": 38.895556666666664}, {"rental_uris": {"android": "https://dc.lft.to/lastmile_qr_scan", "ios": "https://dc.lft.to/lastmile_qr_scan"}, "is_reserved": 0, "is_disabled": 0, "name": "c3b7cad97b933a70e43d85626fd0b4e8", "bike_id": "c3b7cad97b933a70e43d85626fd0b4e8", "fusion_lat": 0.0, "lon": -77.05063183333333, "type": "electric_scooter", "fusion_lon": 0.0, "lat": 38.903964}, {"rental_uris": {"android": "https://dc.lft.to/lastmile_qr_scan", "ios": "https://dc.lft.to/lastmile_qr_scan"}, "is_reserved": 0, "is_disabled": 0, "name": "dfabb77d7c88ded675cc62e766b8b072", "bike_id": "dfabb77d7c88ded675cc62e766b8b072", "fusion_lat": 0.0, "lon": -77.0601005, "type": "electric_scooter", "fusion_lon": 0.0, "lat": 38.90247133333333}, {"rental_uris": {"android": "https://dc.lft.to/lastmile_qr_scan", "ios": "https://dc.lft.to/lastmile_qr_scan"}, "is_reserved": 0, "is_disabled": 0, "name": "b5726c434a629394c27d9c58f291391d", "bike_id": "b5726c434a629394c27d9c58f291391d", "fusion_lat": 0.0, "lon": -77.02532133333334, "type": "electric_scooter", "fusion_lon": 0.0, "lat": 38.920928333333336}, {"rental_uris": {"android": "https://dc.lft.to/lastmile_qr_scan", "ios": "https://dc.lft.to/lastmile_qr_scan"}, "is_reserved": 0, "is_disabled": 0, "name": "a0a9ac26ac122f0a3b88823d138e0b5e", "bike_id": "a0a9ac26ac122f0a3b88823d138e0b5e", "fusion_lat": 0.0, "lon": -76.98815733333333, "type": "electric_bike", "fusion_lon": 0.0, "lat": 38.842695166666665}, {"rental_uris": {"android": "https://dc.lft.to/lastmile_qr_scan", "ios": "https://dc.lft.to/lastmile_qr_scan"}, "is_reserved": 0, "is_disabled": 0, "name": "cf804f98fe044f4873e7b826041d4f5e", "bike_id": "cf804f98fe044f4873e7b826041d4f5e", "fusion_lat": 0.0, "lon": -77.03841983333334, "type": "electric_scooter", "fusion_lon": 0.0, "lat": 38.9099295}, {"rental_uris": {"android": "https://dc.lft.to/lastmile_qr_scan", "ios": "https://dc.lft.to/lastmile_qr_scan"}, "is_reserved": 0, "is_disabled": 0, "name": "7c64299a4bb16e05e796ec6eee9382c3", "bike_id": "7c64299a4bb16e05e796ec6eee9382c3", "fusion_lat": 0.0, "lon": -77.02002083333333, "type": "electric_scooter", "fusion_lon": 0.0, "lat": 38.913621166666665}, {"rental_uris": {"android": "https://dc.lft.to/lastmile_qr_scan", "ios": "https://dc.lft.to/lastmile_qr_scan"}, "is_reserved": 0, "is_disabled": 0, "name": "317c95dc2bfcb7497a5d4e71122c6089", "bike_id": "317c95dc2bfcb7497a5d4e71122c6089", "fusion_lat": 0.0, "lon": -77.021987, "type": "electric_scooter", "fusion_lon": 0.0, "lat": 38.91123533333333}, {"rental_uris": {"android": "https://dc.lft.to/lastmile_qr_scan", "ios": "https://dc.lft.to/lastmile_qr_scan"}, "is_reserved": 0, "is_disabled": 0, "name": "9b5f946a210eef8c8fbbd0e280cc9938", "bike_id": "9b5f946a210eef8c8fbbd0e280cc9938", "fusion_lat": 0.0, "lon": -77.06849766666667, "type": "electric_scooter", "fusion_lon": 0.0, "lat": 38.90387166666667}, {"rental_uris": {"android": "https://dc.lft.to/lastmile_qr_scan", "ios": "https://dc.lft.to/lastmile_qr_scan"}, "is_reserved": 0, "is_disabled": 0, "name": "f7d58a3034a48eafdfdad1f773093c94", "bike_id": "f7d58a3034a48eafdfdad1f773093c94", "fusion_lat": 0.0, "lon": -77.02914733333333, "type": "electric_scooter", "fusion_lon": 0.0, "lat": 38.91649266666667}, {"rental_uris": {"android": "https://dc.lft.to/lastmile_qr_scan", "ios": "https://dc.lft.to/lastmile_qr_scan"}, "is_reserved": 0, "is_disabled": 0, "name": "3072d6a5c6fcceb31c9ab2caead13304", "bike_id": "3072d6a5c6fcceb31c9ab2caead13304", "fusion_lat": 0.0, "lon": -77.03317383333334, "type": "electric_scooter", "fusion_lon": 0.0, "lat": 38.924418333333335}, {"rental_uris": {"android": "https://dc.lft.to/lastmile_qr_scan", "ios": "https://dc.lft.to/lastmile_qr_scan"}, "is_reserved": 0, "is_disabled": 0, "name": "5fd2b787bbd7b647629eafcb16168a46", "bike_id": "5fd2b787bbd7b647629eafcb16168a46", "fusion_lat": 0.0, "lon": -76.9885895, "type": "electric_scooter", "fusion_lon": 0.0, "lat": 38.84419583333333}, {"rental_uris": {"android": "https://dc.lft.to/lastmile_qr_scan", "ios": "https://dc.lft.to/lastmile_qr_scan"}, "is_reserved": 0, "is_disabled": 0, "name": "acba271801b0cc191810d2bc3e96711c", "bike_id": "acba271801b0cc191810d2bc3e96711c", "fusion_lat": 0.0, "lon": -77.05896716666666, "type": "electric_scooter", "fusion_lon": 0.0, "lat": 38.9360675}, {"rental_uris": {"android": "https://dc.lft.to/lastmile_qr_scan", "ios": "https://dc.lft.to/lastmile_qr_scan"}, "is_reserved": 0, "is_disabled": 0, "name": "13307e8ab6b9e1628a6b9db08dd8fb10", "bike_id": "13307e8ab6b9e1628a6b9db08dd8fb10", "fusion_lat": 0.0, "lon": -77.025952, "type": "electric_scooter", "fusion_lon": 0.0, "lat": 38.90711733333333}, {"rental_uris": {"android": "https://dc.lft.to/lastmile_qr_scan", "ios": "https://dc.lft.to/lastmile_qr_scan"}, "is_reserved": 0, "is_disabled": 0, "name": "cf6ccad81e975b667609e7cf9ea9cf9b", "bike_id": "cf6ccad81e975b667609e7cf9ea9cf9b", "fusion_lat": 0.0, "lon": -77.03332833333333, "type": "electric_scooter", "fusion_lon": 0.0, "lat": 38.93509666666667}, {"rental_uris": {"android": "https://dc.lft.to/lastmile_qr_scan", "ios": "https://dc.lft.to/lastmile_qr_scan"}, "is_reserved": 0, "is_disabled": 0, "name": "a66b73d4c3332839caf4ffb074dc374f", "bike_id": "a66b73d4c3332839caf4ffb074dc374f", "fusion_lat": 0.0, "lon": -76.94176216666666, "type": "electric_scooter", "fusion_lon": 0.0, "lat": 38.892717}, {"rental_uris": {"android": "https://dc.lft.to/lastmile_qr_scan", "ios": "https://dc.lft.to/lastmile_qr_scan"}, "is_reserved": 0, "is_disabled": 0, "name": "3b5bd5a5fbbdc00e1c1bc2009e988965", "bike_id": "3b5bd5a5fbbdc00e1c1bc2009e988965", "fusion_lat": 0.0, "lon": -77.03902166666667, "type": "electric_scooter", "fusion_lon": 0.0, "lat": 38.922032333333334}, {"rental_uris": {"android": "https://dc.lft.to/lastmile_qr_scan", "ios": "https://dc.lft.to/lastmile_qr_scan"}, "is_reserved": 0, "is_disabled": 0, "name": "c7c4de3ee37e94369d881ff56e211de4", "bike_id": "c7c4de3ee37e94369d881ff56e211de4", "fusion_lat": 0.0, "lon": -77.02469616666667, "type": "electric_scooter", "fusion_lon": 0.0, "lat": 38.93854283333334}, {"rental_uris": {"android": "https://dc.lft.to/lastmile_qr_scan", "ios": "https://dc.lft.to/lastmile_qr_scan"}, "is_reserved": 0, "is_disabled": 0, "name": "ddd9dd71b39bb19edc0eeeca049c9a87", "bike_id": "ddd9dd71b39bb19edc0eeeca049c9a87", "fusion_lat": 0.0, "lon": -76.98934683333333, "type": "electric_scooter", "fusion_lon": 0.0, "lat": 38.903952333333336}, {"rental_uris": {"android": "https://dc.lft.to/lastmile_qr_scan", "ios": "https://dc.lft.to/lastmile_qr_scan"}, "is_reserved": 0, "is_disabled": 0, "name": "f6256a64adaf51ce0fd9e6ce71a9e9a9", "bike_id": "f6256a64adaf51ce0fd9e6ce71a9e9a9", "fusion_lat": 0.0, "lon": -77.1273175, "type": "electric_bike", "fusion_lon": 0.0, "lat": 38.89560783333334}, {"rental_uris": {"android": "https://dc.lft.to/lastmile_qr_scan", "ios": "https://dc.lft.to/lastmile_qr_scan"}, "is_reserved": 0, "is_disabled": 0, "name": "9adf95b398671ff3d426f869ccffda6b", "bike_id": "9adf95b398671ff3d426f869ccffda6b", "fusion_lat": 0.0, "lon": -77.01868183333333, "type": "electric_scooter", "fusion_lon": 0.0, "lat": 38.9291255}, {"rental_uris": {"android": "https://dc.lft.to/lastmile_qr_scan", "ios": "https://dc.lft.to/lastmile_qr_scan"}, "is_reserved": 0, "is_disabled": 0, "name": "d4c341dd1c79b9cbc8b96a21bab68096", "bike_id": "d4c341dd1c79b9cbc8b96a21bab68096", "fusion_lat": 0.0, "lon": -76.95700283333333, "type": "electric_bike", "fusion_lon": 0.0, "lat": 38.8509035}, {"rental_uris": {"android": "https://dc.lft.to/lastmile_qr_scan", "ios": "https://dc.lft.to/lastmile_qr_scan"}, "is_reserved": 0, "is_disabled": 0, "name": "28d82e4194245616a0a51ac4d5cc7ea6", "bike_id": "28d82e4194245616a0a51ac4d5cc7ea6", "fusion_lat": 0.0, "lon": -77.03376616666667, "type": "electric_scooter", "fusion_lon": 0.0, "lat": 38.922361}, {"rental_uris": {"android": "https://dc.lft.to/lastmile_qr_scan", "ios": "https://dc.lft.to/lastmile_qr_scan"}, "is_reserved": 0, "is_disabled": 0, "name": "4083374f22a043ccd10b5a249a9733ed", "bike_id": "4083374f22a043ccd10b5a249a9733ed", "fusion_lat": 0.0, "lon": -77.02200633333334, "type": "electric_scooter", "fusion_lon": 0.0, "lat": 38.90041566666667}, {"rental_uris": {"android": "https://dc.lft.to/lastmile_qr_scan", "ios": "https://dc.lft.to/lastmile_qr_scan"}, "is_reserved": 0, "is_disabled": 0, "name": "f6d12e9c77e54f503d9c6ebac05ef67b", "bike_id": "f6d12e9c77e54f503d9c6ebac05ef67b", "fusion_lat": 0.0, "lon": -77.0331305, "type": "electric_scooter", "fusion_lon": 0.0, "lat": 38.89900316666667}, {"rental_uris": {"android": "https://dc.lft.to/lastmile_qr_scan", "ios": "https://dc.lft.to/lastmile_qr_scan"}, "is_reserved": 0, "is_disabled": 0, "name": "1a2187f029503b333f653938e49fe534", "bike_id": "1a2187f029503b333f653938e49fe534", "fusion_lat": 0.0, "lon": -77.031801, "type": "electric_scooter", "fusion_lon": 0.0, "lat": 38.907914166666664}, {"rental_uris": {"android": "https://dc.lft.to/lastmile_qr_scan", "ios": "https://dc.lft.to/lastmile_qr_scan"}, "is_reserved": 0, "is_disabled": 0, "name": "1c862d848f8a517a8bd9b8ac521682e8", "bike_id": "1c862d848f8a517a8bd9b8ac521682e8", "fusion_lat": 0.0, "lon": -77.0259065, "type": "electric_scooter", "fusion_lon": 0.0, "lat": 38.895921}, {"rental_uris": {"android": "https://dc.lft.to/lastmile_qr_scan", "ios": "https://dc.lft.to/lastmile_qr_scan"}, "is_reserved": 0, "is_disabled": 0, "name": "942658035e5f7f373f421d9ef95b4bfd", "bike_id": "942658035e5f7f373f421d9ef95b4bfd", "fusion_lat": 0.0, "lon": -77.0902105, "type": "electric_bike", "fusion_lon": 0.0, "lat": 38.9264695}, {"rental_uris": {"android": "https://dc.lft.to/lastmile_qr_scan", "ios": "https://dc.lft.to/lastmile_qr_scan"}, "is_reserved": 0, "is_disabled": 0, "name": "50a5c2b127765d48b2636a23160dfabe", "bike_id": "50a5c2b127765d48b2636a23160dfabe", "fusion_lat": 0.0, "lon": -77.0019505, "type": "electric_scooter", "fusion_lon": 0.0, "lat": 38.911931}, {"rental_uris": {"android": "https://dc.lft.to/lastmile_qr_scan", "ios": "https://dc.lft.to/lastmile_qr_scan"}, "is_reserved": 0, "is_disabled": 0, "name": "5a8fbd1ca07ea409325cabdc62e27924", "bike_id": "5a8fbd1ca07ea409325cabdc62e27924", "fusion_lat": 0.0, "lon": -77.02831283333333, "type": "electric_scooter", "fusion_lon": 0.0, "lat": 38.938837666666664}, {"rental_uris": {"android": "https://dc.lft.to/lastmile_qr_scan", "ios": "https://dc.lft.to/lastmile_qr_scan"}, "is_reserved": 0, "is_disabled": 0, "name": "ab1479107ccd0b50ffd478c1bf298df5", "bike_id": "ab1479107ccd0b50ffd478c1bf298df5", "fusion_lat": 0.0, "lon": -77.02466083333333, "type": "electric_scooter", "fusion_lon": 0.0, "lat": 38.91873316666667}, {"rental_uris": {"android": "https://dc.lft.to/lastmile_qr_scan", "ios": "https://dc.lft.to/lastmile_qr_scan"}, "is_reserved": 0, "is_disabled": 0, "name": "04a3219e1dc8436e6f2ca00183094d78", "bike_id": "04a3219e1dc8436e6f2ca00183094d78", "fusion_lat": 0.0, "lon": -77.034462, "type": "electric_scooter", "fusion_lon": 0.0, "lat": 38.91801866666667}, {"rental_uris": {"android": "https://dc.lft.to/lastmile_qr_scan", "ios": "https://dc.lft.to/lastmile_qr_scan"}, "is_reserved": 0, "is_disabled": 0, "name": "ddb69874db27f4e968cb59d8f7993268", "bike_id": "ddb69874db27f4e968cb59d8f7993268", "fusion_lat": 0.0, "lon": -77.0189505, "type": "electric_scooter", "fusion_lon": 0.0, "lat": 38.90358233333333}, {"rental_uris": {"android": "https://dc.lft.to/lastmile_qr_scan", "ios": "https://dc.lft.to/lastmile_qr_scan"}, "is_reserved": 0, "is_disabled": 0, "name": "494683ee330ef3fa12e7cdecc91431aa", "bike_id": "494683ee330ef3fa12e7cdecc91431aa", "fusion_lat": 0.0, "lon": -77.046909, "type": "electric_scooter", "fusion_lon": 0.0, "lat": 38.8960925}, {"rental_uris": {"android": "https://dc.lft.to/lastmile_qr_scan", "ios": "https://dc.lft.to/lastmile_qr_scan"}, "is_reserved": 0, "is_disabled": 0, "name": "6159642096855b56d1e2be10d50d3581", "bike_id": "6159642096855b56d1e2be10d50d3581", "fusion_lat": 0.0, "lon": -76.98691466666666, "type": "electric_bike", "fusion_lon": 0.0, "lat": 38.9447175}, {"rental_uris": {"android": "https://dc.lft.to/lastmile_qr_scan", "ios": "https://dc.lft.to/lastmile_qr_scan"}, "is_reserved": 0, "is_disabled": 0, "name": "9679adf4946c8b271beadd90db943cff", "bike_id": "9679adf4946c8b271beadd90db943cff", "fusion_lat": 0.0, "lon": -77.025078, "type": "electric_scooter", "fusion_lon": 0.0, "lat": 38.919251333333335}, {"rental_uris": {"android": "https://dc.lft.to/lastmile_qr_scan", "ios": "https://dc.lft.to/lastmile_qr_scan"}, "is_reserved": 0, "is_disabled": 0, "name": "96081767df791a93552ed05566284cf6", "bike_id": "96081767df791a93552ed05566284cf6", "fusion_lat": 0.0, "lon": -77.0152925, "type": "electric_scooter", "fusion_lon": 0.0, "lat": 38.9094475}, {"rental_uris": {"android": "https://dc.lft.to/lastmile_qr_scan", "ios": "https://dc.lft.to/lastmile_qr_scan"}, "is_reserved": 0, "is_disabled": 0, "name": "9c090deef44369ee1a2fcdd7703338cb", "bike_id": "9c090deef44369ee1a2fcdd7703338cb", "fusion_lat": 0.0, "lon": -77.06634183333334, "type": "electric_bike", "fusion_lon": 0.0, "lat": 38.949706666666664}, {"rental_uris": {"android": "https://dc.lft.to/lastmile_qr_scan", "ios": "https://dc.lft.to/lastmile_qr_scan"}, "is_reserved": 0, "is_disabled": 0, "name": "4b94a6a915d94ae4be4eb9ea73c58904", "bike_id": "4b94a6a915d94ae4be4eb9ea73c58904", "fusion_lat": 0.0, "lon": -77.02874283333334, "type": "electric_scooter", "fusion_lon": 0.0, "lat": 38.917095}, {"rental_uris": {"android": "https://dc.lft.to/lastmile_qr_scan", "ios": "https://dc.lft.to/lastmile_qr_scan"}, "is_reserved": 0, "is_disabled": 0, "name": "53ad3753b1ef08ae21bd4019aadc7895", "bike_id": "53ad3753b1ef08ae21bd4019aadc7895", "fusion_lat": 0.0, "lon": -77.0338505, "type": "electric_scooter", "fusion_lon": 0.0, "lat": 38.90136833333333}, {"rental_uris": {"android": "https://dc.lft.to/lastmile_qr_scan", "ios": "https://dc.lft.to/lastmile_qr_scan"}, "is_reserved": 0, "is_disabled": 0, "name": "435e8b1932d2da3245301c81c4a229be", "bike_id": "435e8b1932d2da3245301c81c4a229be", "fusion_lat": 0.0, "lon": -77.0118605, "type": "electric_scooter", "fusion_lon": 0.0, "lat": 38.90009466666667}, {"rental_uris": {"android": "https://dc.lft.to/lastmile_qr_scan", "ios": "https://dc.lft.to/lastmile_qr_scan"}, "is_reserved": 0, "is_disabled": 0, "name": "e0f5fdfc56803e3aaa31f340478dea3f", "bike_id": "e0f5fdfc56803e3aaa31f340478dea3f", "fusion_lat": 0.0, "lon": -77.0255745, "type": "electric_scooter", "fusion_lon": 0.0, "lat": 38.89196833333333}, {"rental_uris": {"android": "https://dc.lft.to/lastmile_qr_scan", "ios": "https://dc.lft.to/lastmile_qr_scan"}, "is_reserved": 0, "is_disabled": 0, "name": "6deb3b0b97eab2b3d3ec5d88d84e666a", "bike_id": "6deb3b0b97eab2b3d3ec5d88d84e666a", "fusion_lat": 0.0, "lon": -77.01786433333334, "type": "electric_scooter", "fusion_lon": 0.0, "lat": 38.90053616666667}, {"rental_uris": {"android": "https://dc.lft.to/lastmile_qr_scan", "ios": "https://dc.lft.to/lastmile_qr_scan"}, "is_reserved": 0, "is_disabled": 0, "name": "d7c08b022aa98081b0ea831bd21e07d3", "bike_id": "d7c08b022aa98081b0ea831bd21e07d3", "fusion_lat": 0.0, "lon": -77.01769183333333, "type": "electric_scooter", "fusion_lon": 0.0, "lat": 38.920393833333335}, {"rental_uris": {"android": "https://dc.lft.to/lastmile_qr_scan", "ios": "https://dc.lft.to/lastmile_qr_scan"}, "is_reserved": 0, "is_disabled": 0, "name": "bf377f56fdfc39225ad23afb0018d916", "bike_id": "bf377f56fdfc39225ad23afb0018d916", "fusion_lat": 0.0, "lon": -77.03088916666667, "type": "electric_scooter", "fusion_lon": 0.0, "lat": 38.922341}, {"rental_uris": {"android": "https://dc.lft.to/lastmile_qr_scan", "ios": "https://dc.lft.to/lastmile_qr_scan"}, "is_reserved": 0, "is_disabled": 0, "name": "4d548a264b76488b2f4ec214b85546de", "bike_id": "4d548a264b76488b2f4ec214b85546de", "fusion_lat": 0.0, "lon": -77.03972266666666, "type": "electric_scooter", "fusion_lon": 0.0, "lat": 38.901841833333336}, {"rental_uris": {"android": "https://dc.lft.to/lastmile_qr_scan", "ios": "https://dc.lft.to/lastmile_qr_scan"}, "is_reserved": 0, "is_disabled": 0, "name": "29a977642536bbd9f0589304c4004b9b", "bike_id": "29a977642536bbd9f0589304c4004b9b", "fusion_lat": 0.0, "lon": -77.03320633333334, "type": "electric_scooter", "fusion_lon": 0.0, "lat": 38.8987185}, {"rental_uris": {"android": "https://dc.lft.to/lastmile_qr_scan", "ios": "https://dc.lft.to/lastmile_qr_scan"}, "is_reserved": 0, "is_disabled": 0, "name": "d7a3022a2ba2479e2c4f93526e1e1ec9", "bike_id": "d7a3022a2ba2479e2c4f93526e1e1ec9", "fusion_lat": 0.0, "lon": -77.034459, "type": "electric_scooter", "fusion_lon": 0.0, "lat": 38.90300466666667}, {"rental_uris": {"android": "https://dc.lft.to/lastmile_qr_scan", "ios": "https://dc.lft.to/lastmile_qr_scan"}, "is_reserved": 0, "is_disabled": 0, "name": "8ea61bf6bc302a9efd41de9c9a76daac", "bike_id": "8ea61bf6bc302a9efd41de9c9a76daac", "fusion_lat": 0.0, "lon": -77.0019425, "type": "electric_scooter", "fusion_lon": 0.0, "lat": 38.900341}, {"rental_uris": {"android": "https://dc.lft.to/lastmile_qr_scan", "ios": "https://dc.lft.to/lastmile_qr_scan"}, "is_reserved": 0, "is_disabled": 0, "name": "75716298c23fc2eb48b459b8e643461e", "bike_id": "75716298c23fc2eb48b459b8e643461e", "fusion_lat": 0.0, "lon": -77.01919333333333, "type": "electric_scooter", "fusion_lon": 0.0, "lat": 38.92369933333333}, {"rental_uris": {"android": "https://dc.lft.to/lastmile_qr_scan", "ios": "https://dc.lft.to/lastmile_qr_scan"}, "is_reserved": 0, "is_disabled": 0, "name": "f62cb24c38d65369aaff9edd538b863c", "bike_id": "f62cb24c38d65369aaff9edd538b863c", "fusion_lat": 0.0, "lon": -77.03586483333333, "type": "electric_scooter", "fusion_lon": 0.0, "lat": 38.917612166666665}, {"rental_uris": {"android": "https://dc.lft.to/lastmile_qr_scan", "ios": "https://dc.lft.to/lastmile_qr_scan"}, "is_reserved": 0, "is_disabled": 0, "name": "d9ed1b1b2eabda779bad5c4a3c30eaaa", "bike_id": "d9ed1b1b2eabda779bad5c4a3c30eaaa", "fusion_lat": 0.0, "lon": -77.0346705, "type": "electric_scooter", "fusion_lon": 0.0, "lat": 38.928717166666665}, {"rental_uris": {"android": "https://dc.lft.to/lastmile_qr_scan", "ios": "https://dc.lft.to/lastmile_qr_scan"}, "is_reserved": 0, "is_disabled": 0, "name": "43030a7e77ccaed3eee8e0cce3bfe532", "bike_id": "43030a7e77ccaed3eee8e0cce3bfe532", "fusion_lat": 0.0, "lon": -77.07274216666667, "type": "electric_scooter", "fusion_lon": 0.0, "lat": 38.91584966666667}, {"rental_uris": {"android": "https://dc.lft.to/lastmile_qr_scan", "ios": "https://dc.lft.to/lastmile_qr_scan"}, "is_reserved": 0, "is_disabled": 0, "name": "79bc9501644f270b93f1a0d7d8e1f520", "bike_id": "79bc9501644f270b93f1a0d7d8e1f520", "fusion_lat": 0.0, "lon": -77.03229033333334, "type": "electric_scooter", "fusion_lon": 0.0, "lat": 38.90975816666667}, {"rental_uris": {"android": "https://dc.lft.to/lastmile_qr_scan", "ios": "https://dc.lft.to/lastmile_qr_scan"}, "is_reserved": 0, "is_disabled": 0, "name": "db1985d71c68bebbc47bf40dbe139081", "bike_id": "db1985d71c68bebbc47bf40dbe139081", "fusion_lat": 0.0, "lon": -77.021596, "type": "electric_scooter", "fusion_lon": 0.0, "lat": 38.9016835}, {"rental_uris": {"android": "https://dc.lft.to/lastmile_qr_scan", "ios": "https://dc.lft.to/lastmile_qr_scan"}, "is_reserved": 0, "is_disabled": 0, "name": "204de9925030b8a0107611fbb1122187", "bike_id": "204de9925030b8a0107611fbb1122187", "fusion_lat": 0.0, "lon": -77.01372033333334, "type": "electric_scooter", "fusion_lon": 0.0, "lat": 38.878125}, {"rental_uris": {"android": "https://dc.lft.to/lastmile_qr_scan", "ios": "https://dc.lft.to/lastmile_qr_scan"}, "is_reserved": 0, "is_disabled": 0, "name": "a976eec81f8e1d384b055895bbba16ac", "bike_id": "a976eec81f8e1d384b055895bbba16ac", "fusion_lat": 0.0, "lon": -77.040807, "type": "electric_bike", "fusion_lon": 0.0, "lat": 38.830628}, {"rental_uris": {"android": "https://dc.lft.to/lastmile_qr_scan", "ios": "https://dc.lft.to/lastmile_qr_scan"}, "is_reserved": 0, "is_disabled": 0, "name": "4636a4f4799a71660707983011b04387", "bike_id": "4636a4f4799a71660707983011b04387", "fusion_lat": 0.0, "lon": -77.02407716666667, "type": "electric_scooter", "fusion_lon": 0.0, "lat": 38.90185133333333}, {"rental_uris": {"android": "https://dc.lft.to/lastmile_qr_scan", "ios": "https://dc.lft.to/lastmile_qr_scan"}, "is_reserved": 0, "is_disabled": 0, "name": "30c2c49dd776081fecea24bf8b2d4548", "bike_id": "30c2c49dd776081fecea24bf8b2d4548", "fusion_lat": 0.0, "lon": -77.00088883333333, "type": "electric_scooter", "fusion_lon": 0.0, "lat": 38.92547883333334}, {"rental_uris": {"android": "https://dc.lft.to/lastmile_qr_scan", "ios": "https://dc.lft.to/lastmile_qr_scan"}, "is_reserved": 0, "is_disabled": 0, "name": "c6b27744fb0d8c40698255213bf4078c", "bike_id": "c6b27744fb0d8c40698255213bf4078c", "fusion_lat": 0.0, "lon": -77.02908933333333, "type": "electric_scooter", "fusion_lon": 0.0, "lat": 38.932921}, {"rental_uris": {"android": "https://dc.lft.to/lastmile_qr_scan", "ios": "https://dc.lft.to/lastmile_qr_scan"}, "is_reserved": 0, "is_disabled": 0, "name": "ebee452369fac86d03cd9f6c8c199464", "bike_id": "ebee452369fac86d03cd9f6c8c199464", "fusion_lat": 0.0, "lon": -76.99514866666667, "type": "electric_scooter", "fusion_lon": 0.0, "lat": 38.902535666666665}, {"rental_uris": {"android": "https://dc.lft.to/lastmile_qr_scan", "ios": "https://dc.lft.to/lastmile_qr_scan"}, "is_reserved": 0, "is_disabled": 0, "name": "f8f8a4746dd4cdf8361cb8e6e9e3a384", "bike_id": "f8f8a4746dd4cdf8361cb8e6e9e3a384", "fusion_lat": 0.0, "lon": -77.01336716666667, "type": "electric_scooter", "fusion_lon": 0.0, "lat": 38.8811865}, {"rental_uris": {"android": "https://dc.lft.to/lastmile_qr_scan", "ios": "https://dc.lft.to/lastmile_qr_scan"}, "is_reserved": 0, "is_disabled": 0, "name": "3e94244c562cf25a11d83287ebcd74cf", "bike_id": "3e94244c562cf25a11d83287ebcd74cf", "fusion_lat": 0.0, "lon": -77.02604633333333, "type": "electric_scooter", "fusion_lon": 0.0, "lat": 38.9258565}, {"rental_uris": {"android": "https://dc.lft.to/lastmile_qr_scan", "ios": "https://dc.lft.to/lastmile_qr_scan"}, "is_reserved": 0, "is_disabled": 0, "name": "2ebc0eb849b996c176fae2d4da65709b", "bike_id": "2ebc0eb849b996c176fae2d4da65709b", "fusion_lat": 0.0, "lon": -77.03047333333333, "type": "electric_scooter", "fusion_lon": 0.0, "lat": 38.909851333333336}, {"rental_uris": {"android": "https://dc.lft.to/lastmile_qr_scan", "ios": "https://dc.lft.to/lastmile_qr_scan"}, "is_reserved": 0, "is_disabled": 0, "name": "b8c662d0ff8559785f0138510f6429cc", "bike_id": "b8c662d0ff8559785f0138510f6429cc", "fusion_lat": 0.0, "lon": -77.02147133333334, "type": "electric_scooter", "fusion_lon": 0.0, "lat": 38.89418783333333}, {"rental_uris": {"android": "https://dc.lft.to/lastmile_qr_scan", "ios": "https://dc.lft.to/lastmile_qr_scan"}, "is_reserved": 0, "is_disabled": 0, "name": "fe9095cd9ca1f93b6a48eb2a5dac3a55", "bike_id": "fe9095cd9ca1f93b6a48eb2a5dac3a55", "fusion_lat": 0.0, "lon": -77.030095, "type": "electric_scooter", "fusion_lon": 0.0, "lat": 38.8953335}, {"rental_uris": {"android": "https://dc.lft.to/lastmile_qr_scan", "ios": "https://dc.lft.to/lastmile_qr_scan"}, "is_reserved": 0, "is_disabled": 0, "name": "573e44ebceaea98964c5fe9cb6e863b6", "bike_id": "573e44ebceaea98964c5fe9cb6e863b6", "fusion_lat": 0.0, "lon": -77.02255683333334, "type": "electric_scooter", "fusion_lon": 0.0, "lat": 38.893665666666664}, {"rental_uris": {"android": "https://dc.lft.to/lastmile_qr_scan", "ios": "https://dc.lft.to/lastmile_qr_scan"}, "is_reserved": 0, "is_disabled": 0, "name": "cc95c276b273db760afba575872d1ac2", "bike_id": "cc95c276b273db760afba575872d1ac2", "fusion_lat": 0.0, "lon": -77.0399975, "type": "electric_scooter", "fusion_lon": 0.0, "lat": 38.91758983333333}, {"rental_uris": {"android": "https://dc.lft.to/lastmile_qr_scan", "ios": "https://dc.lft.to/lastmile_qr_scan"}, "is_reserved": 0, "is_disabled": 0, "name": "c7270d6d8c67442b1708e8532fd3ee58", "bike_id": "c7270d6d8c67442b1708e8532fd3ee58", "fusion_lat": 0.0, "lon": -77.02105533333334, "type": "electric_scooter", "fusion_lon": 0.0, "lat": 38.905595166666664}, {"rental_uris": {"android": "https://dc.lft.to/lastmile_qr_scan", "ios": "https://dc.lft.to/lastmile_qr_scan"}, "is_reserved": 0, "is_disabled": 0, "name": "52bc7daa33b60d1eeec630b6add4b82a", "bike_id": "52bc7daa33b60d1eeec630b6add4b82a", "fusion_lat": 0.0, "lon": -77.0832585, "type": "electric_bike", "fusion_lon": 0.0, "lat": 38.93347883333333}, {"rental_uris": {"android": "https://dc.lft.to/lastmile_qr_scan", "ios": "https://dc.lft.to/lastmile_qr_scan"}, "is_reserved": 0, "is_disabled": 0, "name": "b06101859b57796526bea6936f435784", "bike_id": "b06101859b57796526bea6936f435784", "fusion_lat": 0.0, "lon": -77.034442, "type": "electric_scooter", "fusion_lon": 0.0, "lat": 38.90946016666667}, {"rental_uris": {"android": "https://dc.lft.to/lastmile_qr_scan", "ios": "https://dc.lft.to/lastmile_qr_scan"}, "is_reserved": 0, "is_disabled": 0, "name": "ac0adbb360f11de714e9e0328fa609e4", "bike_id": "ac0adbb360f11de714e9e0328fa609e4", "fusion_lat": 0.0, "lon": -76.98583316666667, "type": "electric_scooter", "fusion_lon": 0.0, "lat": 38.900296833333336}, {"rental_uris": {"android": "https://dc.lft.to/lastmile_qr_scan", "ios": "https://dc.lft.to/lastmile_qr_scan"}, "is_reserved": 0, "is_disabled": 0, "name": "d72be9f3c6de5c9fec2b354c79de4f6e", "bike_id": "d72be9f3c6de5c9fec2b354c79de4f6e", "fusion_lat": 0.0, "lon": -77.0560105, "type": "electric_scooter", "fusion_lon": 0.0, "lat": 38.89422866666666}, {"rental_uris": {"android": "https://dc.lft.to/lastmile_qr_scan", "ios": "https://dc.lft.to/lastmile_qr_scan"}, "is_reserved": 0, "is_disabled": 0, "name": "7e2f3b0ce2bcafbe80730375fcd508af", "bike_id": "7e2f3b0ce2bcafbe80730375fcd508af", "fusion_lat": 0.0, "lon": -77.03462033333334, "type": "electric_scooter", "fusion_lon": 0.0, "lat": 38.9179325}, {"rental_uris": {"android": "https://dc.lft.to/lastmile_qr_scan", "ios": "https://dc.lft.to/lastmile_qr_scan"}, "is_reserved": 0, "is_disabled": 0, "name": "4c72ad74d062fe8405fe2e207e0b2f95", "bike_id": "4c72ad74d062fe8405fe2e207e0b2f95", "fusion_lat": 0.0, "lon": -77.02782516666667, "type": "electric_scooter", "fusion_lon": 0.0, "lat": 38.918180666666665}, {"rental_uris": {"android": "https://dc.lft.to/lastmile_qr_scan", "ios": "https://dc.lft.to/lastmile_qr_scan"}, "is_reserved": 0, "is_disabled": 0, "name": "764bbe6aa48397f2e4c45b4ace64a054", "bike_id": "764bbe6aa48397f2e4c45b4ace64a054", "fusion_lat": 0.0, "lon": -77.04742816666666, "type": "electric_scooter", "fusion_lon": 0.0, "lat": 38.90053783333333}, {"rental_uris": {"android": "https://dc.lft.to/lastmile_qr_scan", "ios": "https://dc.lft.to/lastmile_qr_scan"}, "is_reserved": 0, "is_disabled": 0, "name": "8b4f3e5e5483e5c9c6779dbb2e84504a", "bike_id": "8b4f3e5e5483e5c9c6779dbb2e84504a", "fusion_lat": 0.0, "lon": -77.02785133333333, "type": "electric_scooter", "fusion_lon": 0.0, "lat": 38.9621765}, {"rental_uris": {"android": "https://dc.lft.to/lastmile_qr_scan", "ios": "https://dc.lft.to/lastmile_qr_scan"}, "is_reserved": 0, "is_disabled": 0, "name": "259d592209a84fcf62cf18a93993866f", "bike_id": "259d592209a84fcf62cf18a93993866f", "fusion_lat": 0.0, "lon": -77.03190933333333, "type": "electric_scooter", "fusion_lon": 0.0, "lat": 38.91608733333333}, {"rental_uris": {"android": "https://dc.lft.to/lastmile_qr_scan", "ios": "https://dc.lft.to/lastmile_qr_scan"}, "is_reserved": 0, "is_disabled": 0, "name": "1d3efa5049952710dcd48f6a0df30eb4", "bike_id": "1d3efa5049952710dcd48f6a0df30eb4", "fusion_lat": 0.0, "lon": -77.0718665, "type": "electric_scooter", "fusion_lon": 0.0, "lat": 38.90754733333333}, {"rental_uris": {"android": "https://dc.lft.to/lastmile_qr_scan", "ios": "https://dc.lft.to/lastmile_qr_scan"}, "is_reserved": 0, "is_disabled": 0, "name": "c9710c103c5452650c9789f6d1e6de75", "bike_id": "c9710c103c5452650c9789f6d1e6de75", "fusion_lat": 0.0, "lon": -77.032535, "type": "electric_bike", "fusion_lon": 0.0, "lat": 38.93514033333334}, {"rental_uris": {"android": "https://dc.lft.to/lastmile_qr_scan", "ios": "https://dc.lft.to/lastmile_qr_scan"}, "is_reserved": 0, "is_disabled": 0, "name": "57d5c12931b8da716cebaebf7f78839e", "bike_id": "57d5c12931b8da716cebaebf7f78839e", "fusion_lat": 0.0, "lon": -77.0211385, "type": "electric_scooter", "fusion_lon": 0.0, "lat": 38.9059745}, {"rental_uris": {"android": "https://dc.lft.to/lastmile_qr_scan", "ios": "https://dc.lft.to/lastmile_qr_scan"}, "is_reserved": 0, "is_disabled": 0, "name": "e5d1efc01e4b71ae8477284a09575dde", "bike_id": "e5d1efc01e4b71ae8477284a09575dde", "fusion_lat": 0.0, "lon": -77.02052183333333, "type": "electric_scooter", "fusion_lon": 0.0, "lat": 38.921754166666666}, {"rental_uris": {"android": "https://dc.lft.to/lastmile_qr_scan", "ios": "https://dc.lft.to/lastmile_qr_scan"}, "is_reserved": 0, "is_disabled": 0, "name": "45e3ea2b9e72c6988cba265f767acced", "bike_id": "45e3ea2b9e72c6988cba265f767acced", "fusion_lat": 0.0, "lon": -77.02699783333334, "type": "electric_scooter", "fusion_lon": 0.0, "lat": 38.9498125}, {"rental_uris": {"android": "https://dc.lft.to/lastmile_qr_scan", "ios": "https://dc.lft.to/lastmile_qr_scan"}, "is_reserved": 0, "is_disabled": 0, "name": "9e848267246388ee8ccab81168ab2269", "bike_id": "9e848267246388ee8ccab81168ab2269", "fusion_lat": 0.0, "lon": -77.0216055, "type": "electric_scooter", "fusion_lon": 0.0, "lat": 38.88737616666667}, {"rental_uris": {"android": "https://dc.lft.to/lastmile_qr_scan", "ios": "https://dc.lft.to/lastmile_qr_scan"}, "is_reserved": 0, "is_disabled": 0, "name": "fec0f979890935154c6358670f5d53e3", "bike_id": "fec0f979890935154c6358670f5d53e3", "fusion_lat": 0.0, "lon": -77.0319325, "type": "electric_scooter", "fusion_lon": 0.0, "lat": 38.90403933333333}, {"rental_uris": {"android": "https://dc.lft.to/lastmile_qr_scan", "ios": "https://dc.lft.to/lastmile_qr_scan"}, "is_reserved": 0, "is_disabled": 0, "name": "a82f9afb9dbb427c7e6233732e788f7c", "bike_id": "a82f9afb9dbb427c7e6233732e788f7c", "fusion_lat": 0.0, "lon": -77.04399783333334, "type": "electric_scooter", "fusion_lon": 0.0, "lat": 38.9012975}, {"rental_uris": {"android": "https://dc.lft.to/lastmile_qr_scan", "ios": "https://dc.lft.to/lastmile_qr_scan"}, "is_reserved": 0, "is_disabled": 0, "name": "90b834bc8520ee0fde5584f5b6c87dab", "bike_id": "90b834bc8520ee0fde5584f5b6c87dab", "fusion_lat": 0.0, "lon": -77.03517816666667, "type": "electric_scooter", "fusion_lon": 0.0, "lat": 38.9360955}, {"rental_uris": {"android": "https://dc.lft.to/lastmile_qr_scan", "ios": "https://dc.lft.to/lastmile_qr_scan"}, "is_reserved": 0, "is_disabled": 0, "name": "00e2e456f8c613e60a5d564239c1eeae", "bike_id": "00e2e456f8c613e60a5d564239c1eeae", "fusion_lat": 0.0, "lon": -77.04124266666666, "type": "electric_scooter", "fusion_lon": 0.0, "lat": 38.91179783333333}, {"rental_uris": {"android": "https://dc.lft.to/lastmile_qr_scan", "ios": "https://dc.lft.to/lastmile_qr_scan"}, "is_reserved": 0, "is_disabled": 0, "name": "65f6db566991a47f063deb328ee04145", "bike_id": "65f6db566991a47f063deb328ee04145", "fusion_lat": 0.0, "lon": -77.00563833333334, "type": "electric_scooter", "fusion_lon": 0.0, "lat": 38.87644366666667}, {"rental_uris": {"android": "https://dc.lft.to/lastmile_qr_scan", "ios": "https://dc.lft.to/lastmile_qr_scan"}, "is_reserved": 0, "is_disabled": 0, "name": "d29a94f39c72f68b3e2351f477f84943", "bike_id": "d29a94f39c72f68b3e2351f477f84943", "fusion_lat": 0.0, "lon": -77.0251185, "type": "electric_scooter", "fusion_lon": 0.0, "lat": 38.92100466666667}, {"rental_uris": {"android": "https://dc.lft.to/lastmile_qr_scan", "ios": "https://dc.lft.to/lastmile_qr_scan"}, "is_reserved": 0, "is_disabled": 0, "name": "2d6f83ad92a703cd313461b6feabd254", "bike_id": "2d6f83ad92a703cd313461b6feabd254", "fusion_lat": 0.0, "lon": -76.99769966666666, "type": "electric_scooter", "fusion_lon": 0.0, "lat": 38.922908}, {"rental_uris": {"android": "https://dc.lft.to/lastmile_qr_scan", "ios": "https://dc.lft.to/lastmile_qr_scan"}, "is_reserved": 0, "is_disabled": 0, "name": "1a24bdb1b2a3d3fb391469beb2ebb1a0", "bike_id": "1a24bdb1b2a3d3fb391469beb2ebb1a0", "fusion_lat": 0.0, "lon": -77.01882266666667, "type": "electric_scooter", "fusion_lon": 0.0, "lat": 38.9056015}, {"rental_uris": {"android": "https://dc.lft.to/lastmile_qr_scan", "ios": "https://dc.lft.to/lastmile_qr_scan"}, "is_reserved": 0, "is_disabled": 0, "name": "24e2aceff733aa362fe5286d87e21300", "bike_id": "24e2aceff733aa362fe5286d87e21300", "fusion_lat": 0.0, "lon": -77.04180683333334, "type": "electric_scooter", "fusion_lon": 0.0, "lat": 38.9204835}, {"rental_uris": {"android": "https://dc.lft.to/lastmile_qr_scan", "ios": "https://dc.lft.to/lastmile_qr_scan"}, "is_reserved": 0, "is_disabled": 0, "name": "b3376ea4944cf878c5f47e0a4548a781", "bike_id": "b3376ea4944cf878c5f47e0a4548a781", "fusion_lat": 0.0, "lon": -76.936339, "type": "electric_scooter", "fusion_lon": 0.0, "lat": 38.883493333333334}, {"rental_uris": {"android": "https://dc.lft.to/lastmile_qr_scan", "ios": "https://dc.lft.to/lastmile_qr_scan"}, "is_reserved": 0, "is_disabled": 0, "name": "960f12e53f13725df2e1ba0e0874ffc9", "bike_id": "960f12e53f13725df2e1ba0e0874ffc9", "fusion_lat": 0.0, "lon": -77.04007033333333, "type": "electric_scooter", "fusion_lon": 0.0, "lat": 38.9342845}, {"rental_uris": {"android": "https://dc.lft.to/lastmile_qr_scan", "ios": "https://dc.lft.to/lastmile_qr_scan"},