{"data": {"bikes": [{"rental_uris": {"ios": "https://dc.lft.to/lastmile_qr_scan", "android": "https://dc.lft.to/lastmile_qr_scan"}, "lon": -76.9655915, "type": "electric_scooter", "fusion_lat": 0.0, "lat": 38.91868316666667, "name": "a970dc817d08480ade29a56ecda3ef04", "fusion_lon": 0.0, "bike_id": "a970dc817d08480ade29a56ecda3ef04", "is_disabled": 0, "is_reserved": 0}, {"rental_uris": {"ios": "https://dc.lft.to/lastmile_qr_scan", "android": "https://dc.lft.to/lastmile_qr_scan"}, "lon": -77.0464475, "type": "electric_bike", "fusion_lat": 0.0, "lat": 38.85209533333333, "name": "9568460f709d99457df1b41a243a7a64", "fusion_lon": 0.0, "bike_id": "9568460f709d99457df1b41a243a7a64", "is_disabled": 0, "is_reserved": 0}, {"rental_uris": {"ios": "https://dc.lft.to/lastmile_qr_scan", "android": "https://dc.lft.to/lastmile_qr_scan"}, "lon": -77.05862416666666, "type": "electric_scooter", "fusion_lat": 0.0, "lat": 38.936082666666664, "name": "8c2ef19aa3f38fe5257657011dd8b58a", "fusion_lon": 0.0, "bike_id": "8c2ef19aa3f38fe5257657011dd8b58a", "is_disabled": 0, "is_reserved": 0}, {"rental_uris": {"ios": "https://dc.lft.to/lastmile_qr_scan", "android": "https://dc.lft.to/lastmile_qr_scan"}, "lon": -77.03078683333334, "type": "electric_scooter", "fusion_lat": 0.0, "lat": 38.899742, "name": "882548c7bb87fc78022d878033b88d21", "fusion_lon": 0.0, "bike_id": "882548c7bb87fc78022d878033b88d21", "is_disabled": 0, "is_reserved": 0}, {"rental_uris": {"ios": "https://dc.lft.to/lastmile_qr_scan", "android": "https://dc.lft.to/lastmile_qr_scan"}, "lon": -77.0489445, "type": "electric_scooter", "fusion_lat": 0.0, "lat": 38.901981166666666, "name": "75e56175bd72da3989a922f91c7c12d2", "fusion_lon": 0.0, "bike_id": "75e56175bd72da3989a922f91c7c12d2", "is_disabled": 0, "is_reserved": 0}, {"rental_uris": {"ios": "https://dc.lft.to/lastmile_qr_scan", "android": "https://dc.lft.to/lastmile_qr_scan"}, "lon": -77.01594, "type": "electric_scooter", "fusion_lat": 0.0, "lat": 38.9018, "name": "963521d9f351ba1d22db13491a3ea1f6", "fusion_lon": 0.0, "bike_id": "963521d9f351ba1d22db13491a3ea1f6", "is_disabled": 0, "is_reserved": 0}, {"rental_uris": {"ios": "https://dc.lft.to/lastmile_qr_scan", "android": "https://dc.lft.to/lastmile_qr_scan"}, "lon": -77.0552255, "type": "electric_scooter", "fusion_lat": 0.0, "lat": 38.89724266666666, "name": "ceec8bf6b1fd10ce0b76bf1cef13efd9", "fusion_lon": 0.0, "bike_id": "ceec8bf6b1fd10ce0b76bf1cef13efd9", "is_disabled": 0, "is_reserved": 0}, {"rental_uris": {"ios": "https://dc.lft.to/lastmile_qr_scan", "android": "https://dc.lft.to/lastmile_qr_scan"}, "lon": -76.93245533333334, "type": "electric_scooter", "fusion_lat": 0.0, "lat": 38.89406483333333, "name": "79b69d861aadcca699ab85d95506021b", "fusion_lon": 0.0, "bike_id": "79b69d861aadcca699ab85d95506021b", "is_disabled": 0, "is_reserved": 0}, {"rental_uris": {"ios": "https://dc.lft.to/lastmile_qr_scan", "android": "https://dc.lft.to/lastmile_qr_scan"}, "lon": -77.0394395, "type": "electric_scooter", "fusion_lat": 0.0, "lat": 38.90257, "name": "8f18b79fb512345b97ee314461d6ab42", "fusion_lon": 0.0, "bike_id": "8f18b79fb512345b97ee314461d6ab42", "is_disabled": 0, "is_reserved": 0}, {"rental_uris": {"ios": "https://dc.lft.to/lastmile_qr_scan", "android": "https://dc.lft.to/lastmile_qr_scan"}, "lon": -77.02432733333333, "type": "electric_scooter", "fusion_lat": 0.0, "lat": 38.907169333333336, "name": "48be4b64336d5634cd950335bed5d0b7", "fusion_lon": 0.0, "bike_id": "48be4b64336d5634cd950335bed5d0b7", "is_disabled": 0, "is_reserved": 0}, {"rental_uris": {"ios": "https://dc.lft.to/lastmile_qr_scan", "android": "https://dc.lft.to/lastmile_qr_scan"}, "lon": -77.01287066666667, "type": "electric_bike", "fusion_lat": 0.0, "lat": 39.00381933333333, "name": "7fb3565a1f5942d302ba7a0a2c1c1fe1", "fusion_lon": 0.0, "bike_id": "7fb3565a1f5942d302ba7a0a2c1c1fe1", "is_disabled": 0, "is_reserved": 0}, {"rental_uris": {"ios": "https://dc.lft.to/lastmile_qr_scan", "android": "https://dc.lft.to/lastmile_qr_scan"}, "lon": -76.99058866666667, "type": "electric_scooter", "fusion_lat": 0.0, "lat": 38.8634605, "name": "26e9baeaafda0ccf48d422257840d5f6", "fusion_lon": 0.0, "bike_id": "26e9baeaafda0ccf48d422257840d5f6", "is_disabled": 0, "is_reserved": 0}, {"rental_uris": {"ios": "https://dc.lft.to/lastmile_qr_scan", "android": "https://dc.lft.to/lastmile_qr_scan"}, "lon": -77.03164616666666, "type": "electric_scooter", "fusion_lat": 0.0, "lat": 38.8975825, "name": "35f90700f0528c1169cc40d8946b3eb7", "fusion_lon": 0.0, "bike_id": "35f90700f0528c1169cc40d8946b3eb7", "is_disabled": 0, "is_reserved": 0}, {"rental_uris": {"ios": "https://dc.lft.to/lastmile_qr_scan", "android": "https://dc.lft.to/lastmile_qr_scan"}, "lon": -77.05525083333333, "type": "electric_scooter", "fusion_lat": 0.0, "lat": 38.89728183333333, "name": "ade9667a5dd60ad0c015f69c51f4b595", "fusion_lon": 0.0, "bike_id": "ade9667a5dd60ad0c015f69c51f4b595", "is_disabled": 0, "is_reserved": 0}, {"rental_uris": {"ios": "https://dc.lft.to/lastmile_qr_scan", "android": "https://dc.lft.to/lastmile_qr_scan"}, "lon": -77.03185633333334, "type": "electric_scooter", "fusion_lat": 0.0, "lat": 38.90999583333333, "name": "1cc18a75ec1d6d20d432a137a7cf828d", "fusion_lon": 0.0, "bike_id": "1cc18a75ec1d6d20d432a137a7cf828d", "is_disabled": 0, "is_reserved": 0}, {"rental_uris": {"ios": "https://dc.lft.to/lastmile_qr_scan", "android": "https://dc.lft.to/lastmile_qr_scan"}, "lon": -77.01395533333333, "type": "electric_scooter", "fusion_lat": 0.0, "lat": 38.91947416666667, "name": "59cb87db40a1a58b894367352ef16772", "fusion_lon": 0.0, "bike_id": "59cb87db40a1a58b894367352ef16772", "is_disabled": 0, "is_reserved": 0}, {"rental_uris": {"ios": "https://dc.lft.to/lastmile_qr_scan", "android": "https://dc.lft.to/lastmile_qr_scan"}, "lon": -76.96561733333333, "type": "electric_scooter", "fusion_lat": 0.0, "lat": 38.918630666666665, "name": "eab736ee8eb2c30484376528c69e6e5e", "fusion_lon": 0.0, "bike_id": "eab736ee8eb2c30484376528c69e6e5e", "is_disabled": 0, "is_reserved": 0}, {"rental_uris": {"ios": "https://dc.lft.to/lastmile_qr_scan", "android": "https://dc.lft.to/lastmile_qr_scan"}, "lon": -77.0376295, "type": "electric_scooter", "fusion_lat": 0.0, "lat": 38.9290135, "name": "29951948655d7ed91f37a30ed423d2a1", "fusion_lon": 0.0, "bike_id": "29951948655d7ed91f37a30ed423d2a1", "is_disabled": 0, "is_reserved": 0}, {"rental_uris": {"ios": "https://dc.lft.to/lastmile_qr_scan", "android": "https://dc.lft.to/lastmile_qr_scan"}, "lon": -77.05638016666667, "type": "electric_scooter", "fusion_lat": 0.0, "lat": 38.9275745, "name": "fba91a911125ae762c401efbfad02988", "fusion_lon": 0.0, "bike_id": "fba91a911125ae762c401efbfad02988", "is_disabled": 0, "is_reserved": 0}, {"rental_uris": {"ios": "https://dc.lft.to/lastmile_qr_scan", "android": "https://dc.lft.to/lastmile_qr_scan"}, "lon": -77.04250583333334, "type": "electric_scooter", "fusion_lat": 0.0, "lat": 38.92235316666667, "name": "2e5b2643892d9dc4cbec48baebe47da6", "fusion_lon": 0.0, "bike_id": "2e5b2643892d9dc4cbec48baebe47da6", "is_disabled": 0, "is_reserved": 0}, {"rental_uris": {"ios": "https://dc.lft.to/lastmile_qr_scan", "android": "https://dc.lft.to/lastmile_qr_scan"}, "lon": -77.04226316666667, "type": "electric_scooter", "fusion_lat": 0.0, "lat": 38.9215705, "name": "1ba50f1c9dc6b6e0db2763535ef9ac70", "fusion_lon": 0.0, "bike_id": "1ba50f1c9dc6b6e0db2763535ef9ac70", "is_disabled": 0, "is_reserved": 0}, {"rental_uris": {"ios": "https://dc.lft.to/lastmile_qr_scan", "android": "https://dc.lft.to/lastmile_qr_scan"}, "lon": -77.0320345, "type": "electric_scooter", "fusion_lat": 0.0, "lat": 38.9082305, "name": "249e8cb879ebc60dda54c3848936ca60", "fusion_lon": 0.0, "bike_id": "249e8cb879ebc60dda54c3848936ca60", "is_disabled": 0, "is_reserved": 0}, {"rental_uris": {"ios": "https://dc.lft.to/lastmile_qr_scan", "android": "https://dc.lft.to/lastmile_qr_scan"}, "lon": -77.0050695, "type": "electric_scooter", "fusion_lat": 0.0, "lat": 38.89589333333333, "name": "6e941e4f6e5b2cadfb249da946f42916", "fusion_lon": 0.0, "bike_id": "6e941e4f6e5b2cadfb249da946f42916", "is_disabled": 0, "is_reserved": 0}, {"rental_uris": {"ios": "https://dc.lft.to/lastmile_qr_scan", "android": "https://dc.lft.to/lastmile_qr_scan"}, "lon": -77.0409395, "type": "electric_scooter", "fusion_lat": 0.0, "lat": 38.917838, "name": "f4f939daeb4bac202eea73745984a34c", "fusion_lon": 0.0, "bike_id": "f4f939daeb4bac202eea73745984a34c", "is_disabled": 0, "is_reserved": 0}, {"rental_uris": {"ios": "https://dc.lft.to/lastmile_qr_scan", "android": "https://dc.lft.to/lastmile_qr_scan"}, "lon": -77.00527766666667, "type": "electric_scooter", "fusion_lat": 0.0, "lat": 38.92899033333333, "name": "bc706233af319c1e8a8dec296122c411", "fusion_lon": 0.0, "bike_id": "bc706233af319c1e8a8dec296122c411", "is_disabled": 0, "is_reserved": 0}, {"rental_uris": {"ios": "https://dc.lft.to/lastmile_qr_scan", "android": "https://dc.lft.to/lastmile_qr_scan"}, "lon": -77.08027816666667, "type": "electric_scooter", "fusion_lat": 0.0, "lat": 38.950459333333335, "name": "f913e442b85da99c81e207a5f131160d", "fusion_lon": 0.0, "bike_id": "f913e442b85da99c81e207a5f131160d", "is_disabled": 0, "is_reserved": 0}, {"rental_uris": {"ios": "https://dc.lft.to/lastmile_qr_scan", "android": "https://dc.lft.to/lastmile_qr_scan"}, "lon": -77.01177133333333, "type": "electric_scooter", "fusion_lat": 0.0, "lat": 38.900175, "name": "077fc28f872a75104b62aca0d0d0ef42", "fusion_lon": 0.0, "bike_id": "077fc28f872a75104b62aca0d0d0ef42", "is_disabled": 0, "is_reserved": 0}, {"rental_uris": {"ios": "https://dc.lft.to/lastmile_qr_scan", "android": "https://dc.lft.to/lastmile_qr_scan"}, "lon": -77.05674516666667, "type": "electric_scooter", "fusion_lat": 0.0, "lat": 38.923371833333334, "name": "770b32f57f97b568244fcba786c8134d", "fusion_lon": 0.0, "bike_id": "770b32f57f97b568244fcba786c8134d", "is_disabled": 0, "is_reserved": 0}, {"rental_uris": {"ios": "https://dc.lft.to/lastmile_qr_scan", "android": "https://dc.lft.to/lastmile_qr_scan"}, "lon": -77.0486235, "type": "electric_scooter", "fusion_lat": 0.0, "lat": 38.892205833333335, "name": "0b1343338a22aa896447a7115c9e5bfa", "fusion_lon": 0.0, "bike_id": "0b1343338a22aa896447a7115c9e5bfa", "is_disabled": 0, "is_reserved": 0}, {"rental_uris": {"ios": "https://dc.lft.to/lastmile_qr_scan", "android": "https://dc.lft.to/lastmile_qr_scan"}, "lon": -77.0063325, "type": "electric_scooter", "fusion_lat": 0.0, "lat": 38.8292805, "name": "e9497af55dd6adfeb5dc80ce846fdf50", "fusion_lon": 0.0, "bike_id": "e9497af55dd6adfeb5dc80ce846fdf50", "is_disabled": 0, "is_reserved": 0}, {"rental_uris": {"ios": "https://dc.lft.to/lastmile_qr_scan", "android": "https://dc.lft.to/lastmile_qr_scan"}, "lon": -77.0192795, "type": "electric_scooter", "fusion_lat": 0.0, "lat": 38.956859333333334, "name": "058c0d6a1d3f16d356ac495f172d39e1", "fusion_lon": 0.0, "bike_id": "058c0d6a1d3f16d356ac495f172d39e1", "is_disabled": 0, "is_reserved": 0}, {"rental_uris": {"ios": "https://dc.lft.to/lastmile_qr_scan", "android": "https://dc.lft.to/lastmile_qr_scan"}, "lon": -77.02367066666666, "type": "electric_scooter", "fusion_lat": 0.0, "lat": 38.90305583333333, "name": "b2470b83c24fa2e886ce6e271e04469d", "fusion_lon": 0.0, "bike_id": "b2470b83c24fa2e886ce6e271e04469d", "is_disabled": 0, "is_reserved": 0}, {"rental_uris": {"ios": "https://dc.lft.to/lastmile_qr_scan", "android": "https://dc.lft.to/lastmile_qr_scan"}, "lon": -77.0460945, "type": "electric_scooter", "fusion_lat": 0.0, "lat": 38.898246666666665, "name": "224d4c193e31bb526ffe15bc3e55c225", "fusion_lon": 0.0, "bike_id": "224d4c193e31bb526ffe15bc3e55c225", "is_disabled": 0, "is_reserved": 0}, {"rental_uris": {"ios": "https://dc.lft.to/lastmile_qr_scan", "android": "https://dc.lft.to/lastmile_qr_scan"}, "lon": -76.96551116666667, "type": "electric_scooter", "fusion_lat": 0.0, "lat": 38.91862, "name": "4e1b367d95ca85576a8f3e371717d50e", "fusion_lon": 0.0, "bike_id": "4e1b367d95ca85576a8f3e371717d50e", "is_disabled": 0, "is_reserved": 0}, {"rental_uris": {"ios": "https://dc.lft.to/lastmile_qr_scan", "android": "https://dc.lft.to/lastmile_qr_scan"}, "lon": -77.03630416666667, "type": "electric_scooter", "fusion_lat": 0.0, "lat": 38.928527333333335, "name": "1fe0e69c5a25d4e2709fe49ad4d4b962", "fusion_lon": 0.0, "bike_id": "1fe0e69c5a25d4e2709fe49ad4d4b962", "is_disabled": 0, "is_reserved": 0}, {"rental_uris": {"ios": "https://dc.lft.to/lastmile_qr_scan", "android": "https://dc.lft.to/lastmile_qr_scan"}, "lon": -77.03340383333334, "type": "electric_scooter", "fusion_lat": 0.0, "lat": 38.92887733333333, "name": "181a5e70d7acb5530f20725ad58bf14c", "fusion_lon": 0.0, "bike_id": "181a5e70d7acb5530f20725ad58bf14c", "is_disabled": 0, "is_reserved": 0}, {"rental_uris": {"ios": "https://dc.lft.to/lastmile_qr_scan", "android": "https://dc.lft.to/lastmile_qr_scan"}, "lon": -77.0258135, "type": "electric_scooter", "fusion_lat": 0.0, "lat": 38.918162833333334, "name": "1743139b4da5323e7559b900c18045b6", "fusion_lon": 0.0, "bike_id": "1743139b4da5323e7559b900c18045b6", "is_disabled": 0, "is_reserved": 0}, {"rental_uris": {"ios": "https://dc.lft.to/lastmile_qr_scan", "android": "https://dc.lft.to/lastmile_qr_scan"}, "lon": -77.02668983333334, "type": "electric_scooter", "fusion_lat": 0.0, "lat": 38.900021833333334, "name": "0b2f7c1bcb151c5d91a1c05b08ad0750", "fusion_lon": 0.0, "bike_id": "0b2f7c1bcb151c5d91a1c05b08ad0750", "is_disabled": 0, "is_reserved": 0}, {"rental_uris": {"ios": "https://dc.lft.to/lastmile_qr_scan", "android": "https://dc.lft.to/lastmile_qr_scan"}, "lon": -77.0526925, "type": "electric_scooter", "fusion_lat": 0.0, "lat": 38.91012633333333, "name": "fa06bbb2ab9728eacd1b1acb6560fd51", "fusion_lon": 0.0, "bike_id": "fa06bbb2ab9728eacd1b1acb6560fd51", "is_disabled": 0, "is_reserved": 0}, {"rental_uris": {"ios": "https://dc.lft.to/lastmile_qr_scan", "android": "https://dc.lft.to/lastmile_qr_scan"}, "lon": -76.973266, "type": "electric_bike", "fusion_lat": 0.0, "lat": 38.8506285, "name": "8b880f6249453b2488069e299ac482ac", "fusion_lon": 0.0, "bike_id": "8b880f6249453b2488069e299ac482ac", "is_disabled": 0, "is_reserved": 0}, {"rental_uris": {"ios": "https://dc.lft.to/lastmile_qr_scan", "android": "https://dc.lft.to/lastmile_qr_scan"}, "lon": -77.039555, "type": "electric_scooter", "fusion_lat": 0.0, "lat": 38.90266183333333, "name": "2bccf0e0ab2f02453ed0ad8dd26d8a13", "fusion_lon": 0.0, "bike_id": "2bccf0e0ab2f02453ed0ad8dd26d8a13", "is_disabled": 0, "is_reserved": 0}, {"rental_uris": {"ios": "https://dc.lft.to/lastmile_qr_scan", "android": "https://dc.lft.to/lastmile_qr_scan"}, "lon": -77.04174133333333, "type": "electric_scooter", "fusion_lat": 0.0, "lat": 38.917682, "name": "6c176151d12e10f7ea354bb22a3aa2ea", "fusion_lon": 0.0, "bike_id": "6c176151d12e10f7ea354bb22a3aa2ea", "is_disabled": 0, "is_reserved": 0}, {"rental_uris": {"ios": "https://dc.lft.to/lastmile_qr_scan", "android": "https://dc.lft.to/lastmile_qr_scan"}, "lon": -77.02455233333333, "type": "electric_scooter", "fusion_lat": 0.0, "lat": 38.9793425, "name": "b260f7594756cb603574b389a8d9f6f6", "fusion_lon": 0.0, "bike_id": "b260f7594756cb603574b389a8d9f6f6", "is_disabled": 0, "is_reserved": 0}, {"rental_uris": {"ios": "https://dc.lft.to/lastmile_qr_scan", "android": "https://dc.lft.to/lastmile_qr_scan"}, "lon": -77.03814166666666, "type": "electric_scooter", "fusion_lat": 0.0, "lat": 38.9039415, "name": "d3ee206c9ba5b93225b1740c843bd088", "fusion_lon": 0.0, "bike_id": "d3ee206c9ba5b93225b1740c843bd088", "is_disabled": 0, "is_reserved": 0}, {"rental_uris": {"ios": "https://dc.lft.to/lastmile_qr_scan", "android": "https://dc.lft.to/lastmile_qr_scan"}, "lon": -77.03223916666667, "type": "electric_scooter", "fusion_lat": 0.0, "lat": 38.91818633333333, "name": "e1825c824d0300732257b264f5c03db5", "fusion_lon": 0.0, "bike_id": "e1825c824d0300732257b264f5c03db5", "is_disabled": 0, "is_reserved": 0}, {"rental_uris": {"ios": "https://dc.lft.to/lastmile_qr_scan", "android": "https://dc.lft.to/lastmile_qr_scan"}, "lon": -77.03629166666667, "type": "electric_scooter", "fusion_lat": 0.0, "lat": 38.956412, "name": "b8bcfed3667664104e6d716e2313381a", "fusion_lon": 0.0, "bike_id": "b8bcfed3667664104e6d716e2313381a", "is_disabled": 0, "is_reserved": 0}, {"rental_uris": {"ios": "https://dc.lft.to/lastmile_qr_scan", "android": "https://dc.lft.to/lastmile_qr_scan"}, "lon": -77.03861083333334, "type": "electric_scooter", "fusion_lat": 0.0, "lat": 38.932544, "name": "08814d251aef3c55568db4729c59b43d", "fusion_lon": 0.0, "bike_id": "08814d251aef3c55568db4729c59b43d", "is_disabled": 0, "is_reserved": 0}, {"rental_uris": {"ios": "https://dc.lft.to/lastmile_qr_scan", "android": "https://dc.lft.to/lastmile_qr_scan"}, "lon": -77.04536966666667, "type": "electric_scooter", "fusion_lat": 0.0, "lat": 38.919369, "name": "20054d93b64d2a74a8fa5a25dbe018fe", "fusion_lon": 0.0, "bike_id": "20054d93b64d2a74a8fa5a25dbe018fe", "is_disabled": 0, "is_reserved": 0}, {"rental_uris": {"ios": "https://dc.lft.to/lastmile_qr_scan", "android": "https://dc.lft.to/lastmile_qr_scan"}, "lon": -77.02201416666666, "type": "electric_scooter", "fusion_lat": 0.0, "lat": 38.880533166666666, "name": "ed400cbe9daddd4badbfda7a38748978", "fusion_lon": 0.0, "bike_id": "ed400cbe9daddd4badbfda7a38748978", "is_disabled": 0, "is_reserved": 0}, {"rental_uris": {"ios": "https://dc.lft.to/lastmile_qr_scan", "android": "https://dc.lft.to/lastmile_qr_scan"}, "lon": -77.03860666666667, "type": "electric_scooter", "fusion_lat": 0.0, "lat": 38.9076665, "name": "2a31286a88a048813c1cc1231458199a", "fusion_lon": 0.0, "bike_id": "2a31286a88a048813c1cc1231458199a", "is_disabled": 0, "is_reserved": 0}, {"rental_uris": {"ios": "https://dc.lft.to/lastmile_qr_scan", "android": "https://dc.lft.to/lastmile_qr_scan"}, "lon": -76.9722385, "type": "electric_bike", "fusion_lat": 0.0, "lat": 38.84475233333333, "name": "6b6a85167cace2da4f5f1fa2c120caa7", "fusion_lon": 0.0, "bike_id": "6b6a85167cace2da4f5f1fa2c120caa7", "is_disabled": 0, "is_reserved": 0}, {"rental_uris": {"ios": "https://dc.lft.to/lastmile_qr_scan", "android": "https://dc.lft.to/lastmile_qr_scan"}, "lon": -76.96552183333333, "type": "electric_scooter", "fusion_lat": 0.0, "lat": 38.91867383333334, "name": "73a718514c7b4e2b23d8bea667bc33bb", "fusion_lon": 0.0, "bike_id": "73a718514c7b4e2b23d8bea667bc33bb", "is_disabled": 0, "is_reserved": 0}, {"rental_uris": {"ios": "https://dc.lft.to/lastmile_qr_scan", "android": "https://dc.lft.to/lastmile_qr_scan"}, "lon": -77.02488783333334, "type": "electric_scooter", "fusion_lat": 0.0, "lat": 38.90316683333333, "name": "0131e3286561ad86a7785b328967be95", "fusion_lon": 0.0, "bike_id": "0131e3286561ad86a7785b328967be95", "is_disabled": 0, "is_reserved": 0}, {"rental_uris": {"ios": "https://dc.lft.to/lastmile_qr_scan", "android": "https://dc.lft.to/lastmile_qr_scan"}, "lon": -77.01776116666667, "type": "electric_scooter", "fusion_lat": 0.0, "lat": 38.919507333333335, "name": "c3ad2ffcba05154da267b30a19d93341", "fusion_lon": 0.0, "bike_id": "c3ad2ffcba05154da267b30a19d93341", "is_disabled": 0, "is_reserved": 0}, {"rental_uris": {"ios": "https://dc.lft.to/lastmile_qr_scan", "android": "https://dc.lft.to/lastmile_qr_scan"}, "lon": -77.022038, "type": "electric_scooter", "fusion_lat": 0.0, "lat": 38.900609333333335, "name": "9e716bdbd6c3b6d6eee174e02e901c4b", "fusion_lon": 0.0, "bike_id": "9e716bdbd6c3b6d6eee174e02e901c4b", "is_disabled": 0, "is_reserved": 0}, {"rental_uris": {"ios": "https://dc.lft.to/lastmile_qr_scan", "android": "https://dc.lft.to/lastmile_qr_scan"}, "lon": -76.944384, "type": "electric_bike", "fusion_lat": 0.0, "lat": 38.902956833333334, "name": "b3fe2ab167b1094c9e3b1fa73aec6b44", "fusion_lon": 0.0, "bike_id": "b3fe2ab167b1094c9e3b1fa73aec6b44", "is_disabled": 0, "is_reserved": 0}, {"rental_uris": {"ios": "https://dc.lft.to/lastmile_qr_scan", "android": "https://dc.lft.to/lastmile_qr_scan"}, "lon": -77.02179316666667, "type": "electric_scooter", "fusion_lat": 0.0, "lat": 38.93948966666667, "name": "3c08c8f33bee2b9d951229838b8143cd", "fusion_lon": 0.0, "bike_id": "3c08c8f33bee2b9d951229838b8143cd", "is_disabled": 0, "is_reserved": 0}, {"rental_uris": {"ios": "https://dc.lft.to/lastmile_qr_scan", "android": "https://dc.lft.to/lastmile_qr_scan"}, "lon": -76.9826085, "type": "electric_scooter", "fusion_lat": 0.0, "lat": 38.908674166666664, "name": "91397c8e5c4c0d713021f9e3f3fb03e0", "fusion_lon": 0.0, "bike_id": "91397c8e5c4c0d713021f9e3f3fb03e0", "is_disabled": 0, "is_reserved": 0}, {"rental_uris": {"ios": "https://dc.lft.to/lastmile_qr_scan", "android": "https://dc.lft.to/lastmile_qr_scan"}, "lon": -77.00980483333333, "type": "electric_scooter", "fusion_lat": 0.0, "lat": 38.919188166666665, "name": "e9e8b5d3ed204ac982347d741f1d36f3", "fusion_lon": 0.0, "bike_id": "e9e8b5d3ed204ac982347d741f1d36f3", "is_disabled": 0, "is_reserved": 0}, {"rental_uris": {"ios": "https://dc.lft.to/lastmile_qr_scan", "android": "https://dc.lft.to/lastmile_qr_scan"}, "lon": -77.03186416666667, "type": "electric_scooter", "fusion_lat": 0.0, "lat": 38.91322266666667, "name": "1c1e30ed8a4dd3756ff3bd1c99aef936", "fusion_lon": 0.0, "bike_id": "1c1e30ed8a4dd3756ff3bd1c99aef936", "is_disabled": 0, "is_reserved": 0}, {"rental_uris": {"ios": "https://dc.lft.to/lastmile_qr_scan", "android": "https://dc.lft.to/lastmile_qr_scan"}, "lon": -77.03139533333334, "type": "electric_scooter", "fusion_lat": 0.0, "lat": 38.91262716666667, "name": "4910a2650f365cf93f0e56f108cd3223", "fusion_lon": 0.0, "bike_id": "4910a2650f365cf93f0e56f108cd3223", "is_disabled": 0, "is_reserved": 0}, {"rental_uris": {"ios": "https://dc.lft.to/lastmile_qr_scan", "android": "https://dc.lft.to/lastmile_qr_scan"}, "lon": -76.90960833333334, "type": "electric_bike", "fusion_lat": 0.0, "lat": 38.8541675, "name": "69f026fc6754ee9e7f1b5ffa5665c809", "fusion_lon": 0.0, "bike_id": "69f026fc6754ee9e7f1b5ffa5665c809", "is_disabled": 0, "is_reserved": 0}, {"rental_uris": {"ios": "https://dc.lft.to/lastmile_qr_scan", "android": "https://dc.lft.to/lastmile_qr_scan"}, "lon": -77.046771, "type": "electric_scooter", "fusion_lat": 0.0, "lat": 38.9013055, "name": "398797e0c8167c4f8d43e784ca79a34c", "fusion_lon": 0.0, "bike_id": "398797e0c8167c4f8d43e784ca79a34c", "is_disabled": 0, "is_reserved": 0}, {"rental_uris": {"ios": "https://dc.lft.to/lastmile_qr_scan", "android": "https://dc.lft.to/lastmile_qr_scan"}, "lon": -76.9489065, "type": "electric_scooter", "fusion_lat": 0.0, "lat": 38.89528416666667, "name": "865cebda29e0654738de8f6afcaf5dfb", "fusion_lon": 0.0, "bike_id": "865cebda29e0654738de8f6afcaf5dfb", "is_disabled": 0, "is_reserved": 0}, {"rental_uris": {"ios": "https://dc.lft.to/lastmile_qr_scan", "android": "https://dc.lft.to/lastmile_qr_scan"}, "lon": -76.96558483333334, "type": "electric_scooter", "fusion_lat": 0.0, "lat": 38.918688, "name": "709f0042a2064e555eb1c4daa9a9dccc", "fusion_lon": 0.0, "bike_id": "709f0042a2064e555eb1c4daa9a9dccc", "is_disabled": 0, "is_reserved": 0}, {"rental_uris": {"ios": "https://dc.lft.to/lastmile_qr_scan", "android": "https://dc.lft.to/lastmile_qr_scan"}, "lon": -76.981791, "type": "electric_scooter", "fusion_lat": 0.0, "lat": 38.895785000000004, "name": "de5ce9fd625549424ef6d8ceb1af4e33", "fusion_lon": 0.0, "bike_id": "de5ce9fd625549424ef6d8ceb1af4e33", "is_disabled": 0, "is_reserved": 0}, {"rental_uris": {"ios": "https://dc.lft.to/lastmile_qr_scan", "android": "https://dc.lft.to/lastmile_qr_scan"}, "lon": -77.02460683333334, "type": "electric_scooter", "fusion_lat": 0.0, "lat": 38.9168865, "name": "93a06383ae15f648d24219ac36ee520a", "fusion_lon": 0.0, "bike_id": "93a06383ae15f648d24219ac36ee520a", "is_disabled": 0, "is_reserved": 0}, {"rental_uris": {"ios": "https://dc.lft.to/lastmile_qr_scan", "android": "https://dc.lft.to/lastmile_qr_scan"}, "lon": -77.04097816666666, "type": "electric_scooter", "fusion_lat": 0.0, "lat": 38.91773666666667, "name": "343aecf23810f03448949e658874377e", "fusion_lon": 0.0, "bike_id": "343aecf23810f03448949e658874377e", "is_disabled": 0, "is_reserved": 0}, {"rental_uris": {"ios": "https://dc.lft.to/lastmile_qr_scan", "android": "https://dc.lft.to/lastmile_qr_scan"}, "lon": -77.02761283333334, "type": "electric_scooter", "fusion_lat": 0.0, "lat": 38.9561065, "name": "e26de77602b3c36c790946dc99d22bf9", "fusion_lon": 0.0, "bike_id": "e26de77602b3c36c790946dc99d22bf9", "is_disabled": 0, "is_reserved": 0}, {"rental_uris": {"ios": "https://dc.lft.to/lastmile_qr_scan", "android": "https://dc.lft.to/lastmile_qr_scan"}, "lon": -77.02257583333333, "type": "electric_scooter", "fusion_lat": 0.0, "lat": 38.923084833333334, "name": "7ebb3e8804681b8a640fe24206eb316e", "fusion_lon": 0.0, "bike_id": "7ebb3e8804681b8a640fe24206eb316e", "is_disabled": 0, "is_reserved": 0}, {"rental_uris": {"ios": "https://dc.lft.to/lastmile_qr_scan", "android": "https://dc.lft.to/lastmile_qr_scan"}, "lon": -77.00367416666667, "type": "electric_scooter", "fusion_lat": 0.0, "lat": 38.8380355, "name": "d1b0ef18f55e096a9adfa680393f808d", "fusion_lon": 0.0, "bike_id": "d1b0ef18f55e096a9adfa680393f808d", "is_disabled": 0, "is_reserved": 0}, {"rental_uris": {"ios": "https://dc.lft.to/lastmile_qr_scan", "android": "https://dc.lft.to/lastmile_qr_scan"}, "lon": -77.0519695, "type": "electric_scooter", "fusion_lat": 0.0, "lat": 38.924059166666666, "name": "6758d9153e31fdcc8c037bd0fc6086d7", "fusion_lon": 0.0, "bike_id": "6758d9153e31fdcc8c037bd0fc6086d7", "is_disabled": 0, "is_reserved": 0}, {"rental_uris": {"ios": "https://dc.lft.to/lastmile_qr_scan", "android": "https://dc.lft.to/lastmile_qr_scan"}, "lon": -76.99061933333333, "type": "electric_scooter", "fusion_lat": 0.0, "lat": 38.86356766666667, "name": "3645b1a91d965c4cf204bb3f7246583a", "fusion_lon": 0.0, "bike_id": "3645b1a91d965c4cf204bb3f7246583a", "is_disabled": 0, "is_reserved": 0}, {"rental_uris": {"ios": "https://dc.lft.to/lastmile_qr_scan", "android": "https://dc.lft.to/lastmile_qr_scan"}, "lon": -77.09551583333334, "type": "electric_bike", "fusion_lat": 0.0, "lat": 38.837287333333336, "name": "f72158690fabc5905c0c14c9cff40d79", "fusion_lon": 0.0, "bike_id": "f72158690fabc5905c0c14c9cff40d79", "is_disabled": 0, "is_reserved": 0}, {"rental_uris": {"ios": "https://dc.lft.to/lastmile_qr_scan", "android": "https://dc.lft.to/lastmile_qr_scan"}, "lon": -77.003803, "type": "electric_bike", "fusion_lat": 0.0, "lat": 38.83603983333333, "name": "4ba078a39c2cc5e739ce672547f06399", "fusion_lon": 0.0, "bike_id": "4ba078a39c2cc5e739ce672547f06399", "is_disabled": 0, "is_reserved": 0}, {"rental_uris": {"ios": "https://dc.lft.to/lastmile_qr_scan", "android": "https://dc.lft.to/lastmile_qr_scan"}, "lon": -77.03379783333334, "type": "electric_scooter", "fusion_lat": 0.0, "lat": 38.89224266666667, "name": "25865ed089d6003527435efb17fdaf44", "fusion_lon": 0.0, "bike_id": "25865ed089d6003527435efb17fdaf44", "is_disabled": 0, "is_reserved": 0}, {"rental_uris": {"ios": "https://dc.lft.to/lastmile_qr_scan", "android": "https://dc.lft.to/lastmile_qr_scan"}, "lon": -77.02757483333333, "type": "electric_scooter", "fusion_lat": 0.0, "lat": 38.9018115, "name": "dee61dfb783e89c5ef8d0ff704ea04f6", "fusion_lon": 0.0, "bike_id": "dee61dfb783e89c5ef8d0ff704ea04f6", "is_disabled": 0, "is_reserved": 0}, {"rental_uris": {"ios": "https://dc.lft.to/lastmile_qr_scan", "android": "https://dc.lft.to/lastmile_qr_scan"}, "lon": -77.03073016666667, "type": "electric_scooter", "fusion_lat": 0.0, "lat": 38.89972983333333, "name": "516ad458f39f22cd3108b516c2881abe", "fusion_lon": 0.0, "bike_id": "516ad458f39f22cd3108b516c2881abe", "is_disabled": 0, "is_reserved": 0}, {"rental_uris": {"ios": "https://dc.lft.to/lastmile_qr_scan", "android": "https://dc.lft.to/lastmile_qr_scan"}, "lon": -77.02328833333333, "type": "electric_scooter", "fusion_lat": 0.0, "lat": 38.88484316666667, "name": "93a4a596d219ba136f994cce3684d376", "fusion_lon": 0.0, "bike_id": "93a4a596d219ba136f994cce3684d376", "is_disabled": 0, "is_reserved": 0}, {"rental_uris": {"ios": "https://dc.lft.to/lastmile_qr_scan", "android": "https://dc.lft.to/lastmile_qr_scan"}, "lon": -77.00399966666667, "type": "electric_scooter", "fusion_lat": 0.0, "lat": 38.911859166666666, "name": "2391f7d9b358013038f1aba967d97097", "fusion_lon": 0.0, "bike_id": "2391f7d9b358013038f1aba967d97097", "is_disabled": 0, "is_reserved": 0}, {"rental_uris": {"ios": "https://dc.lft.to/lastmile_qr_scan", "android": "https://dc.lft.to/lastmile_qr_scan"}, "lon": -77.02388383333333, "type": "electric_scooter", "fusion_lat": 0.0, "lat": 38.8985005, "name": "97686890d3e49861b76e778e27737b3d", "fusion_lon": 0.0, "bike_id": "97686890d3e49861b76e778e27737b3d", "is_disabled": 0, "is_reserved": 0}, {"rental_uris": {"ios": "https://dc.lft.to/lastmile_qr_scan", "android": "https://dc.lft.to/lastmile_qr_scan"}, "lon": -77.02301066666666, "type": "electric_scooter", "fusion_lat": 0.0, "lat": 38.91294033333333, "name": "904e3f7788118210e076211bc10344fe", "fusion_lon": 0.0, "bike_id": "904e3f7788118210e076211bc10344fe", "is_disabled": 0, "is_reserved": 0}, {"rental_uris": {"ios": "https://dc.lft.to/lastmile_qr_scan", "android": "https://dc.lft.to/lastmile_qr_scan"}, "lon": -77.02691666666666, "type": "electric_bike", "fusion_lat": 0.0, "lat": 38.911373833333336, "name": "9f2a1aad1a6babdd132fdf873fd1797d", "fusion_lon": 0.0, "bike_id": "9f2a1aad1a6babdd132fdf873fd1797d", "is_disabled": 0, "is_reserved": 0}, {"rental_uris": {"ios": "https://dc.lft.to/lastmile_qr_scan", "android": "https://dc.lft.to/lastmile_qr_scan"}, "lon": -77.05904233333334, "type": "electric_scooter", "fusion_lat": 0.0, "lat": 38.90080616666667, "name": "2351580881d2d3a610f4f6b61086b061", "fusion_lon": 0.0, "bike_id": "2351580881d2d3a610f4f6b61086b061", "is_disabled": 0, "is_reserved": 0}, {"rental_uris": {"ios": "https://dc.lft.to/lastmile_qr_scan", "android": "https://dc.lft.to/lastmile_qr_scan"}, "lon": -77.03741383333333, "type": "electric_scooter", "fusion_lat": 0.0, "lat": 38.951549, "name": "047bc57a0f954902baa659ad375114e6", "fusion_lon": 0.0, "bike_id": "047bc57a0f954902baa659ad375114e6", "is_disabled": 0, "is_reserved": 0}, {"rental_uris": {"ios": "https://dc.lft.to/lastmile_qr_scan", "android": "https://dc.lft.to/lastmile_qr_scan"}, "lon": -77.02556366666667, "type": "electric_scooter", "fusion_lat": 0.0, "lat": 38.918173, "name": "05283da1b705b2ef0f3810bfcfc6c7ae", "fusion_lon": 0.0, "bike_id": "05283da1b705b2ef0f3810bfcfc6c7ae", "is_disabled": 0, "is_reserved": 0}, {"rental_uris": {"ios": "https://dc.lft.to/lastmile_qr_scan", "android": "https://dc.lft.to/lastmile_qr_scan"}, "lon": -77.03996166666667, "type": "electric_scooter", "fusion_lat": 0.0, "lat": 38.9039335, "name": "b7ed3c30ac9bb812d00a7662178b6ba6", "fusion_lon": 0.0, "bike_id": "b7ed3c30ac9bb812d00a7662178b6ba6", "is_disabled": 0, "is_reserved": 0}, {"rental_uris": {"ios": "https://dc.lft.to/lastmile_qr_scan", "android": "https://dc.lft.to/lastmile_qr_scan"}, "lon": -77.0031, "type": "electric_scooter", "fusion_lat": 0.0, "lat": 38.8876055, "name": "0e8c407c71874027f862db1e479b8193", "fusion_lon": 0.0, "bike_id": "0e8c407c71874027f862db1e479b8193", "is_disabled": 0, "is_reserved": 0}, {"rental_uris": {"ios": "https://dc.lft.to/lastmile_qr_scan", "android": "https://dc.lft.to/lastmile_qr_scan"}, "lon": -77.06119766666667, "type": "electric_scooter", "fusion_lat": 0.0, "lat": 38.91293866666667, "name": "09708004dc06b630b07519eea27289df", "fusion_lon": 0.0, "bike_id": "09708004dc06b630b07519eea27289df", "is_disabled": 0, "is_reserved": 0}, {"rental_uris": {"ios": "https://dc.lft.to/lastmile_qr_scan", "android": "https://dc.lft.to/lastmile_qr_scan"}, "lon": -76.96550833333333, "type": "electric_scooter", "fusion_lat": 0.0, "lat": 38.918653166666665, "name": "7628b92f6df4616b6b7ee79cc8bc4869", "fusion_lon": 0.0, "bike_id": "7628b92f6df4616b6b7ee79cc8bc4869", "is_disabled": 0, "is_reserved": 0}, {"rental_uris": {"ios": "https://dc.lft.to/lastmile_qr_scan", "android": "https://dc.lft.to/lastmile_qr_scan"}, "lon": -77.04245766666666, "type": "electric_scooter", "fusion_lat": 0.0, "lat": 38.921535, "name": "2472b3d05db984b58950fd9528417498", "fusion_lon": 0.0, "bike_id": "2472b3d05db984b58950fd9528417498", "is_disabled": 0, "is_reserved": 0}, {"rental_uris": {"ios": "https://dc.lft.to/lastmile_qr_scan", "android": "https://dc.lft.to/lastmile_qr_scan"}, "lon": -77.0073855, "type": "electric_scooter", "fusion_lat": 0.0, "lat": 38.955207, "name": "5ff218e04784f9f9ca88d7ca3f1be7d6", "fusion_lon": 0.0, "bike_id": "5ff218e04784f9f9ca88d7ca3f1be7d6", "is_disabled": 0, "is_reserved": 0}, {"rental_uris": {"ios": "https://dc.lft.to/lastmile_qr_scan", "android": "https://dc.lft.to/lastmile_qr_scan"}, "lon": -77.03992666666667, "type": "electric_scooter", "fusion_lat": 0.0, "lat": 38.900276833333336, "name": "10504ca04b28240fa411122dc6157358", "fusion_lon": 0.0, "bike_id": "10504ca04b28240fa411122dc6157358", "is_disabled": 0, "is_reserved": 0}, {"rental_uris": {"ios": "https://dc.lft.to/lastmile_qr_scan", "android": "https://dc.lft.to/lastmile_qr_scan"}, "lon": -77.032233, "type": "electric_scooter", "fusion_lat": 0.0, "lat": 38.912439, "name": "24c7f7e5be5260b3c110a14b5a560289", "fusion_lon": 0.0, "bike_id": "24c7f7e5be5260b3c110a14b5a560289", "is_disabled": 0, "is_reserved": 0}, {"rental_uris": {"ios": "https://dc.lft.to/lastmile_qr_scan", "android": "https://dc.lft.to/lastmile_qr_scan"}, "lon": -76.98998783333333, "type": "electric_scooter", "fusion_lat": 0.0, "lat": 38.865037, "name": "5c195c7a52d92fde6afbbb9c08b01cb4", "fusion_lon": 0.0, "bike_id": "5c195c7a52d92fde6afbbb9c08b01cb4", "is_disabled": 0, "is_reserved": 0}, {"rental_uris": {"ios": "https://dc.lft.to/lastmile_qr_scan", "android": "https://dc.lft.to/lastmile_qr_scan"}, "lon": -77.05599266666667, "type": "electric_scooter", "fusion_lat": 0.0, "lat": 38.9277875, "name": "3fdc4780073e5f3be089f625cec5eb36", "fusion_lon": 0.0, "bike_id": "3fdc4780073e5f3be089f625cec5eb36", "is_disabled": 0, "is_reserved": 0}, {"rental_uris": {"ios": "https://dc.lft.to/lastmile_qr_scan", "android": "https://dc.lft.to/lastmile_qr_scan"}, "lon": -77.012369, "type": "electric_scooter", "fusion_lat": 0.0, "lat": 38.869764333333336, "name": "7849a5ce25a08abc48bcba59fe1a11f5", "fusion_lon": 0.0, "bike_id": "7849a5ce25a08abc48bcba59fe1a11f5", "is_disabled": 0, "is_reserved": 0}, {"rental_uris": {"ios": "https://dc.lft.to/lastmile_qr_scan", "android": "https://dc.lft.to/lastmile_qr_scan"}, "lon": -77.03101483333333, "type": "electric_scooter", "fusion_lat": 0.0, "lat": 38.91806666666667, "name": "582a623ea068ffa7d62f32c8845f38b9", "fusion_lon": 0.0, "bike_id": "582a623ea068ffa7d62f32c8845f38b9", "is_disabled": 0, "is_reserved": 0}, {"rental_uris": {"ios": "https://dc.lft.to/lastmile_qr_scan", "android": "https://dc.lft.to/lastmile_qr_scan"}, "lon": -77.0372915, "type": "electric_scooter", "fusion_lat": 0.0, "lat": 38.928375, "name": "7b9fca46e6069d7bb60c552fdd5fddca", "fusion_lon": 0.0, "bike_id": "7b9fca46e6069d7bb60c552fdd5fddca", "is_disabled": 0, "is_reserved": 0}, {"rental_uris": {"ios": "https://dc.lft.to/lastmile_qr_scan", "android": "https://dc.lft.to/lastmile_qr_scan"}, "lon": -77.0952505, "type": "electric_bike", "fusion_lat": 0.0, "lat": 38.83811, "name": "0f573f90cb01cf1a1e531ae9778db95b", "fusion_lon": 0.0, "bike_id": "0f573f90cb01cf1a1e531ae9778db95b", "is_disabled": 0, "is_reserved": 0}, {"rental_uris": {"ios": "https://dc.lft.to/lastmile_qr_scan", "android": "https://dc.lft.to/lastmile_qr_scan"}, "lon": -77.04131383333333, "type": "electric_scooter", "fusion_lat": 0.0, "lat": 38.92142116666667, "name": "484f49e87b26f25463476b55ad65d1c3", "fusion_lon": 0.0, "bike_id": "484f49e87b26f25463476b55ad65d1c3", "is_disabled": 0, "is_reserved": 0}, {"rental_uris": {"ios": "https://dc.lft.to/lastmile_qr_scan", "android": "https://dc.lft.to/lastmile_qr_scan"}, "lon": -77.03252216666667, "type": "electric_scooter", "fusion_lat": 0.0, "lat": 38.9181335, "name": "b3db5ec6ceaac3d989c9605413d8181d", "fusion_lon": 0.0, "bike_id": "b3db5ec6ceaac3d989c9605413d8181d", "is_disabled": 0, "is_reserved": 0}, {"rental_uris": {"ios": "https://dc.lft.to/lastmile_qr_scan", "android": "https://dc.lft.to/lastmile_qr_scan"}, "lon": -77.02141116666667, "type": "electric_scooter", "fusion_lat": 0.0, "lat": 38.89606, "name": "84452fa08df2b15ba2bb520fe28d8733", "fusion_lon": 0.0, "bike_id": "84452fa08df2b15ba2bb520fe28d8733", "is_disabled": 0, "is_reserved": 0}, {"rental_uris": {"ios": "https://dc.lft.to/lastmile_qr_scan", "android": "https://dc.lft.to/lastmile_qr_scan"}, "lon": -76.95820566666667, "type": "electric_scooter", "fusion_lat": 0.0, "lat": 38.890553, "name": "2bc651b6dc99bbc147fe3eed8c0a5ac9", "fusion_lon": 0.0, "bike_id": "2bc651b6dc99bbc147fe3eed8c0a5ac9", "is_disabled": 0, "is_reserved": 0}, {"rental_uris": {"ios": "https://dc.lft.to/lastmile_qr_scan", "android": "https://dc.lft.to/lastmile_qr_scan"}, "lon": -77.05827616666667, "type": "electric_scooter", "fusion_lat": 0.0, "lat": 38.934198333333335, "name": "921a3d5e05eaa4903aa82d4f12278f99", "fusion_lon": 0.0, "bike_id": "921a3d5e05eaa4903aa82d4f12278f99", "is_disabled": 0, "is_reserved": 0}, {"rental_uris": {"ios": "https://dc.lft.to/lastmile_qr_scan", "android": "https://dc.lft.to/lastmile_qr_scan"}, "lon": -76.98620733333334, "type": "electric_scooter", "fusion_lat": 0.0, "lat": 38.868167666666665, "name": "7313e72a7cb91dcb7e5de5145e09516d", "fusion_lon": 0.0, "bike_id": "7313e72a7cb91dcb7e5de5145e09516d", "is_disabled": 0, "is_reserved": 0}, {"rental_uris": {"ios": "https://dc.lft.to/lastmile_qr_scan", "android": "https://dc.lft.to/lastmile_qr_scan"}, "lon": -77.03215666666667, "type": "electric_scooter", "fusion_lat": 0.0, "lat": 38.91744766666667, "name": "55ee02034fba646ac435cb9164eb70bf", "fusion_lon": 0.0, "bike_id": "55ee02034fba646ac435cb9164eb70bf", "is_disabled": 0, "is_reserved": 0}, {"rental_uris": {"ios": "https://dc.lft.to/lastmile_qr_scan", "android": "https://dc.lft.to/lastmile_qr_scan"}, "lon": -77.02596633333333, "type": "electric_scooter", "fusion_lat": 0.0, "lat": 38.883510333333334, "name": "fe6ad4eaf0980fb6b93aa0ff69a1c279", "fusion_lon": 0.0, "bike_id": "fe6ad4eaf0980fb6b93aa0ff69a1c279", "is_disabled": 0, "is_reserved": 0}, {"rental_uris": {"ios": "https://dc.lft.to/lastmile_qr_scan", "android": "https://dc.lft.to/lastmile_qr_scan"}, "lon": -77.00712283333333, "type": "electric_scooter", "fusion_lat": 0.0, "lat": 38.884915, "name": "c02f06abac25b7f82f4dd64f5e599d3e", "fusion_lon": 0.0, "bike_id": "c02f06abac25b7f82f4dd64f5e599d3e", "is_disabled": 0, "is_reserved": 0}, {"rental_uris": {"ios": "https://dc.lft.to/lastmile_qr_scan", "android": "https://dc.lft.to/lastmile_qr_scan"}, "lon": -76.97597633333334, "type": "electric_scooter", "fusion_lat": 0.0, "lat": 38.90330983333333, "name": "08fa12d2fe75e50b9a15a35f16674a68", "fusion_lon": 0.0, "bike_id": "08fa12d2fe75e50b9a15a35f16674a68", "is_disabled": 0, "is_reserved": 0}, {"rental_uris": {"ios": "https://dc.lft.to/lastmile_qr_scan", "android": "https://dc.lft.to/lastmile_qr_scan"}, "lon": -76.94621916666667, "type": "electric_bike", "fusion_lat": 0.0, "lat": 38.83233116666667, "name": "494543ce12e41f4aa1c037d262134576", "fusion_lon": 0.0, "bike_id": "494543ce12e41f4aa1c037d262134576", "is_disabled": 0, "is_reserved": 0}, {"rental_uris": {"ios": "https://dc.lft.to/lastmile_qr_scan", "android": "https://dc.lft.to/lastmile_qr_scan"}, "lon": -77.00364016666667, "type": "electric_scooter", "fusion_lat": 0.0, "lat": 38.877764666666664, "name": "0a1371e75bea52323f355bb8ff211f80", "fusion_lon": 0.0, "bike_id": "0a1371e75bea52323f355bb8ff211f80", "is_disabled": 0, "is_reserved": 0}, {"rental_uris": {"ios": "https://dc.lft.to/lastmile_qr_scan", "android": "https://dc.lft.to/lastmile_qr_scan"}, "lon": -76.99517633333333, "type": "electric_scooter", "fusion_lat": 0.0, "lat": 38.900107166666665, "name": "cb081ad7d680af2dc75caf79b1b03442", "fusion_lon": 0.0, "bike_id": "cb081ad7d680af2dc75caf79b1b03442", "is_disabled": 0, "is_reserved": 0}, {"rental_uris": {"ios": "https://dc.lft.to/lastmile_qr_scan", "android": "https://dc.lft.to/lastmile_qr_scan"}, "lon": -77.04364916666667, "type": "electric_scooter", "fusion_lat": 0.0, "lat": 38.93331666666667, "name": "c82a4a0a0da531dec11e6452939f0bb9", "fusion_lon": 0.0, "bike_id": "c82a4a0a0da531dec11e6452939f0bb9", "is_disabled": 0, "is_reserved": 0}, {"rental_uris": {"ios": "https://dc.lft.to/lastmile_qr_scan", "android": "https://dc.lft.to/lastmile_qr_scan"}, "lon": -76.96563533333334, "type": "electric_scooter", "fusion_lat": 0.0, "lat": 38.918544833333335, "name": "6bb1fc8e63d93ffa6c7ebe6a00925ab6", "fusion_lon": 0.0, "bike_id": "6bb1fc8e63d93ffa6c7ebe6a00925ab6", "is_disabled": 0, "is_reserved": 0}, {"rental_uris": {"ios": "https://dc.lft.to/lastmile_qr_scan", "android": "https://dc.lft.to/lastmile_qr_scan"}, "lon": -77.05462966666667, "type": "electric_scooter", "fusion_lat": 0.0, "lat": 38.896676166666666, "name": "6c6854db4501abf5a518d474b1683f32", "fusion_lon": 0.0, "bike_id": "6c6854db4501abf5a518d474b1683f32", "is_disabled": 0, "is_reserved": 0}, {"rental_uris": {"ios": "https://dc.lft.to/lastmile_qr_scan", "android": "https://dc.lft.to/lastmile_qr_scan"}, "lon": -77.03967366666667, "type": "electric_scooter", "fusion_lat": 0.0, "lat": 38.903554, "name": "da72439ed1b1747518e04eb94e0154cb", "fusion_lon": 0.0, "bike_id": "da72439ed1b1747518e04eb94e0154cb", "is_disabled": 0, "is_reserved": 0}, {"rental_uris": {"ios": "https://dc.lft.to/lastmile_qr_scan", "android": "https://dc.lft.to/lastmile_qr_scan"}, "lon": -77.04172616666666, "type": "electric_scooter", "fusion_lat": 0.0, "lat": 38.91767633333333, "name": "2036b1b20ac8958f9f3d2e016d808ae8", "fusion_lon": 0.0, "bike_id": "2036b1b20ac8958f9f3d2e016d808ae8", "is_disabled": 0, "is_reserved": 0}, {"rental_uris": {"ios": "https://dc.lft.to/lastmile_qr_scan", "android": "https://dc.lft.to/lastmile_qr_scan"}, "lon": -76.98343416666667, "type": "electric_scooter", "fusion_lat": 0.0, "lat": 38.90737816666667, "name": "0d3217a231fe78d08d4aff0a07eee5d1", "fusion_lon": 0.0, "bike_id": "0d3217a231fe78d08d4aff0a07eee5d1", "is_disabled": 0, "is_reserved": 0}, {"rental_uris": {"ios": "https://dc.lft.to/lastmile_qr_scan", "android": "https://dc.lft.to/lastmile_qr_scan"}, "lon": -77.04008666666667, "type": "electric_scooter", "fusion_lat": 0.0, "lat": 38.90999333333333, "name": "95b945973b9105d8645f0089a3291dd8", "fusion_lon": 0.0, "bike_id": "95b945973b9105d8645f0089a3291dd8", "is_disabled": 0, "is_reserved": 0}, {"rental_uris": {"ios": "https://dc.lft.to/lastmile_qr_scan", "android": "https://dc.lft.to/lastmile_qr_scan"}, "lon": -77.02179216666667, "type": "electric_scooter", "fusion_lat": 0.0, "lat": 38.9149225, "name": "1c6e0184b24c46774690453dfff831d5", "fusion_lon": 0.0, "bike_id": "1c6e0184b24c46774690453dfff831d5", "is_disabled": 0, "is_reserved": 0}, {"rental_uris": {"ios": "https://dc.lft.to/lastmile_qr_scan", "android": "https://dc.lft.to/lastmile_qr_scan"}, "lon": -77.03471633333334, "type": "electric_scooter", "fusion_lat": 0.0, "lat": 38.91267533333333, "name": "0622d907b4ce6868e1293236bdbdb7c4", "fusion_lon": 0.0, "bike_id": "0622d907b4ce6868e1293236bdbdb7c4", "is_disabled": 0, "is_reserved": 0}, {"rental_uris": {"ios": "https://dc.lft.to/lastmile_qr_scan", "android": "https://dc.lft.to/lastmile_qr_scan"}, "lon": -77.041218, "type": "electric_scooter", "fusion_lat": 0.0, "lat": 38.9245415, "name": "492428bbae59eabc1be1d4b16c71d1e2", "fusion_lon": 0.0, "bike_id": "492428bbae59eabc1be1d4b16c71d1e2", "is_disabled": 0, "is_reserved": 0}, {"rental_uris": {"ios": "https://dc.lft.to/lastmile_qr_scan", "android": "https://dc.lft.to/lastmile_qr_scan"}, "lon": -76.97496316666667, "type": "electric_bike", "fusion_lat": 0.0, "lat": 38.920045333333334, "name": "1fb69b48e98ab22ef5ca3069840ac47a", "fusion_lon": 0.0, "bike_id": "1fb69b48e98ab22ef5ca3069840ac47a", "is_disabled": 0, "is_reserved": 0}, {"rental_uris": {"ios": "https://dc.lft.to/lastmile_qr_scan", "android": "https://dc.lft.to/lastmile_qr_scan"}, "lon": -77.04244966666667, "type": "electric_scooter", "fusion_lat": 0.0, "lat": 38.9226925, "name": "6f1304515fc2f730ff5637ab74dfdee8", "fusion_lon": 0.0, "bike_id": "6f1304515fc2f730ff5637ab74dfdee8", "is_disabled": 0, "is_reserved": 0}, {"rental_uris": {"ios": "https://dc.lft.to/lastmile_qr_scan", "android": "https://dc.lft.to/lastmile_qr_scan"}, "lon": -77.03346916666666, "type": "electric_scooter", "fusion_lat": 0.0, "lat": 38.911772666666664, "name": "c6471b4e3b93d57e93507521acce9cfc", "fusion_lon": 0.0, "bike_id": "c6471b4e3b93d57e93507521acce9cfc", "is_disabled": 0, "is_reserved": 0}, {"rental_uris": {"ios": "https://dc.lft.to/lastmile_qr_scan", "android": "https://dc.lft.to/lastmile_qr_scan"}, "lon": -77.00228216666666, "type": "electric_scooter", "fusion_lat": 0.0, "lat": 38.911934333333335, "name": "2f63acfb956ec3367bf801e728c19535", "fusion_lon": 0.0, "bike_id": "2f63acfb956ec3367bf801e728c19535", "is_disabled": 0, "is_reserved": 0}, {"rental_uris": {"ios": "https://dc.lft.to/lastmile_qr_scan", "android": "https://dc.lft.to/lastmile_qr_scan"}, "lon": -76.97408483333334, "type": "electric_scooter", "fusion_lat": 0.0, "lat": 38.901559, "name": "e0258bb287db4ed56e23e29ddccc1ae6", "fusion_lon": 0.0, "bike_id": "e0258bb287db4ed56e23e29ddccc1ae6", "is_disabled": 0, "is_reserved": 0}, {"rental_uris": {"ios": "https://dc.lft.to/lastmile_qr_scan", "android": "https://dc.lft.to/lastmile_qr_scan"}, "lon": -76.93716016666667, "type": "electric_scooter", "fusion_lat": 0.0, "lat": 38.895882, "name": "d8901d0aa814680cfe0f6414e8223d9e", "fusion_lon": 0.0, "bike_id": "d8901d0aa814680cfe0f6414e8223d9e", "is_disabled": 0, "is_reserved": 0}, {"rental_uris": {"ios": "https://dc.lft.to/lastmile_qr_scan", "android": "https://dc.lft.to/lastmile_qr_scan"}, "lon": -77.02557616666667, "type": "electric_scooter", "fusion_lat": 0.0, "lat": 38.91815283333333, "name": "3247e3174f61b151ba6803edd4e89420", "fusion_lon": 0.0, "bike_id": "3247e3174f61b151ba6803edd4e89420", "is_disabled": 0, "is_reserved": 0}, {"rental_uris": {"ios": "https://dc.lft.to/lastmile_qr_scan", "android": "https://dc.lft.to/lastmile_qr_scan"}, "lon": -77.00806966666667, "type": "electric_scooter", "fusion_lat": 0.0, "lat": 38.8832765, "name": "714d4c1a61db0b38a5e7914bf734cb89", "fusion_lon": 0.0, "bike_id": "714d4c1a61db0b38a5e7914bf734cb89", "is_disabled": 0, "is_reserved": 0}, {"rental_uris": {"ios": "https://dc.lft.to/lastmile_qr_scan", "android": "https://dc.lft.to/lastmile_qr_scan"}, "lon": -77.01129, "type": "electric_scooter", "fusion_lat": 0.0, "lat": 38.903413666666665, "name": "1832c0123c68ff9122283a49cf1a7f88", "fusion_lon": 0.0, "bike_id": "1832c0123c68ff9122283a49cf1a7f88", "is_disabled": 0, "is_reserved": 0}, {"rental_uris": {"ios": "https://dc.lft.to/lastmile_qr_scan", "android": "https://dc.lft.to/lastmile_qr_scan"}, "lon": -77.03895533333333, "type": "electric_scooter", "fusion_lat": 0.0, "lat": 38.921850666666664, "name": "298558bfc28111f8d668bc0ecd090f06", "fusion_lon": 0.0, "bike_id": "298558bfc28111f8d668bc0ecd090f06", "is_disabled": 0, "is_reserved": 0}, {"rental_uris": {"ios": "https://dc.lft.to/lastmile_qr_scan", "android": "https://dc.lft.to/lastmile_qr_scan"}, "lon": -77.01343616666666, "type": "electric_bike", "fusion_lat": 0.0, "lat": 38.999982833333334, "name": "f6e5e161dfab17c7d40ab9defeadf0bf", "fusion_lon": 0.0, "bike_id": "f6e5e161dfab17c7d40ab9defeadf0bf", "is_disabled": 0, "is_reserved": 0}, {"rental_uris": {"ios": "https://dc.lft.to/lastmile_qr_scan", "android": "https://dc.lft.to/lastmile_qr_scan"}, "lon": -76.965553, "type": "electric_scooter", "fusion_lat": 0.0, "lat": 38.91868316666667, "name": "a00cfc5292dec6f2ae373bafebefa98e", "fusion_lon": 0.0, "bike_id": "a00cfc5292dec6f2ae373bafebefa98e", "is_disabled": 0, "is_reserved": 0}, {"rental_uris": {"ios": "https://dc.lft.to/lastmile_qr_scan", "android": "https://dc.lft.to/lastmile_qr_scan"}, "lon": -77.01380016666667, "type": "electric_scooter", "fusion_lat": 0.0, "lat": 38.86952333333333, "name": "57aae6af4ef4f82f5015057fa4943000", "fusion_lon": 0.0, "bike_id": "57aae6af4ef4f82f5015057fa4943000", "is_disabled": 0, "is_reserved": 0}, {"rental_uris": {"ios": "https://dc.lft.to/lastmile_qr_scan", "android": "https://dc.lft.to/lastmile_qr_scan"}, "lon": -77.0296895, "type": "electric_scooter", "fusion_lat": 0.0, "lat": 38.9171415, "name": "f8b196add7971dcf3095789b79e8509a", "fusion_lon": 0.0, "bike_id": "f8b196add7971dcf3095789b79e8509a", "is_disabled": 0, "is_reserved": 0}, {"rental_uris": {"ios": "https://dc.lft.to/lastmile_qr_scan", "android": "https://dc.lft.to/lastmile_qr_scan"}, "lon": -76.98747766666666, "type": "electric_scooter", "fusion_lat": 0.0, "lat": 38.910163833333336, "name": "a2495263c83da989e9a563db67c3c621", "fusion_lon": 0.0, "bike_id": "a2495263c83da989e9a563db67c3c621", "is_disabled": 0, "is_reserved": 0}, {"rental_uris": {"ios": "https://dc.lft.to/lastmile_qr_scan", "android": "https://dc.lft.to/lastmile_qr_scan"}, "lon": -77.03570133333334, "type": "electric_scooter", "fusion_lat": 0.0, "lat": 38.93979066666667, "name": "d3f94684bda0aa469e46a173b3402dfc", "fusion_lon": 0.0, "bike_id": "d3f94684bda0aa469e46a173b3402dfc", "is_disabled": 0, "is_reserved": 0}, {"rental_uris": {"ios": "https://dc.lft.to/lastmile_qr_scan", "android": "https://dc.lft.to/lastmile_qr_scan"}, "lon": -76.974101, "type": "electric_scooter", "fusion_lat": 0.0, "lat": 38.902358166666666, "name": "608fb85c55417eb925947babe9a90979", "fusion_lon": 0.0, "bike_id": "608fb85c55417eb925947babe9a90979", "is_disabled": 0, "is_reserved": 0}, {"rental_uris": {"ios": "https://dc.lft.to/lastmile_qr_scan", "android": "https://dc.lft.to/lastmile_qr_scan"}, "lon": -77.03511116666667, "type": "electric_scooter", "fusion_lat": 0.0, "lat": 38.92149283333333, "name": "488d9f8cb0fb366314982ed681eabe30", "fusion_lon": 0.0, "bike_id": "488d9f8cb0fb366314982ed681eabe30", "is_disabled": 0, "is_reserved": 0}, {"rental_uris": {"ios": "https://dc.lft.to/lastmile_qr_scan", "android": "https://dc.lft.to/lastmile_qr_scan"}, "lon": -77.03406066666666, "type": "electric_scooter", "fusion_lat": 0.0, "lat": 38.924236666666665, "name": "8cf4e81d05991eef4a05ad4cbf81b126", "fusion_lon": 0.0, "bike_id": "8cf4e81d05991eef4a05ad4cbf81b126", "is_disabled": 0, "is_reserved": 0}, {"rental_uris": {"ios": "https://dc.lft.to/lastmile_qr_scan", "android": "https://dc.lft.to/lastmile_qr_scan"}, "lon": -77.080533, "type": "electric_bike", "fusion_lat": 0.0, "lat": 38.8483975, "name": "26e0d806ab41ce26a159ee5acad8fa9b", "fusion_lon": 0.0, "bike_id": "26e0d806ab41ce26a159ee5acad8fa9b", "is_disabled": 0, "is_reserved": 0}, {"rental_uris": {"ios": "https://dc.lft.to/lastmile_qr_scan", "android": "https://dc.lft.to/lastmile_qr_scan"}, "lon": -76.939637, "type": "electric_scooter", "fusion_lat": 0.0, "lat": 38.899663333333336, "name": "5d14fc837a4d99a85ed57c8b8bfa8ec4", "fusion_lon": 0.0, "bike_id": "5d14fc837a4d99a85ed57c8b8bfa8ec4", "is_disabled": 0, "is_reserved": 0}, {"rental_uris": {"ios": "https://dc.lft.to/lastmile_qr_scan", "android": "https://dc.lft.to/lastmile_qr_scan"}, "lon": -77.03874816666666, "type": "electric_scooter", "fusion_lat": 0.0, "lat": 38.907646, "name": "27628ea8189669a3c3a748f1dd135425", "fusion_lon": 0.0, "bike_id": "27628ea8189669a3c3a748f1dd135425", "is_disabled": 0, "is_reserved": 0}, {"rental_uris": {"ios": "https://dc.lft.to/lastmile_qr_scan", "android": "https://dc.lft.to/lastmile_qr_scan"}, "lon": -77.05553866666666, "type": "electric_scooter", "fusion_lat": 0.0, "lat": 38.92527783333333, "name": "04470f2aaba1d7c6c6b320abd36ae7f6", "fusion_lon": 0.0, "bike_id": "04470f2aaba1d7c6c6b320abd36ae7f6", "is_disabled": 0, "is_reserved": 0}, {"rental_uris": {"ios": "https://dc.lft.to/lastmile_qr_scan", "android": "https://dc.lft.to/lastmile_qr_scan"}, "lon": -77.0420445, "type": "electric_scooter", "fusion_lat": 0.0, "lat": 38.903690166666664, "name": "e5ed0bac15b7fe8d4a6ea208b1914b5c", "fusion_lon": 0.0, "bike_id": "e5ed0bac15b7fe8d4a6ea208b1914b5c", "is_disabled": 0, "is_reserved": 0}, {"rental_uris": {"ios": "https://dc.lft.to/lastmile_qr_scan", "android": "https://dc.lft.to/lastmile_qr_scan"}, "lon": -77.03220716666667, "type": "electric_scooter", "fusion_lat": 0.0, "lat": 38.90720483333333, "name": "4fa9145d53d9d4d6716a6938268b2004", "fusion_lon": 0.0, "bike_id": "4fa9145d53d9d4d6716a6938268b2004", "is_disabled": 0, "is_reserved": 0}, {"rental_uris": {"ios": "https://dc.lft.to/lastmile_qr_scan", "android": "https://dc.lft.to/lastmile_qr_scan"}, "lon": -76.92877283333334, "type": "electric_scooter", "fusion_lat": 0.0, "lat": 38.884383666666665, "name": "208bd665b11648af7622c0631b23b5f5", "fusion_lon": 0.0, "bike_id": "208bd665b11648af7622c0631b23b5f5", "is_disabled": 0, "is_reserved": 0}, {"rental_uris": {"ios": "https://dc.lft.to/lastmile_qr_scan", "android": "https://dc.lft.to/lastmile_qr_scan"}, "lon": -77.0229985, "type": "electric_scooter", "fusion_lat": 0.0, "lat": 38.915536333333336, "name": "541431056acc9d14a9ad9fd658e8a8a6", "fusion_lon": 0.0, "bike_id": "541431056acc9d14a9ad9fd658e8a8a6", "is_disabled": 0, "is_reserved": 0}, {"rental_uris": {"ios": "https://dc.lft.to/lastmile_qr_scan", "android": "https://dc.lft.to/lastmile_qr_scan"}, "lon": -76.95759116666666, "type": "electric_scooter", "fusion_lat": 0.0, "lat": 38.884252000000004, "name": "f8c6893036081cc63afaf5683e7ed432", "fusion_lon": 0.0, "bike_id": "f8c6893036081cc63afaf5683e7ed432", "is_disabled": 0, "is_reserved": 0}, {"rental_uris": {"ios": "https://dc.lft.to/lastmile_qr_scan", "android": "https://dc.lft.to/lastmile_qr_scan"}, "lon": -76.994602, "type": "electric_scooter", "fusion_lat": 0.0, "lat": 38.8516055, "name": "db28426f81c21f90e605aeafca60bb9d", "fusion_lon": 0.0, "bike_id": "db28426f81c21f90e605aeafca60bb9d", "is_disabled": 0, "is_reserved": 0}, {"rental_uris": {"ios": "https://dc.lft.to/lastmile_qr_scan", "android": "https://dc.lft.to/lastmile_qr_scan"}, "lon": -76.93814066666667, "type": "electric_scooter", "fusion_lat": 0.0, "lat": 38.8908205, "name": "8f6a2abafac7943ccbd78a7187f1b541", "fusion_lon": 0.0, "bike_id": "8f6a2abafac7943ccbd78a7187f1b541", "is_disabled": 0, "is_reserved": 0}, {"rental_uris": {"ios": "https://dc.lft.to/lastmile_qr_scan", "android": "https://dc.lft.to/lastmile_qr_scan"}, "lon": -77.05053316666667, "type": "electric_scooter", "fusion_lat": 0.0, "lat": 38.9007765, "name": "a0ce3a0530014967e2a62e5bff3ed5f5", "fusion_lon": 0.0, "bike_id": "a0ce3a0530014967e2a62e5bff3ed5f5", "is_disabled": 0, "is_reserved": 0}, {"rental_uris": {"ios": "https://dc.lft.to/lastmile_qr_scan", "android": "https://dc.lft.to/lastmile_qr_scan"}, "lon": -76.95212716666667, "type": "electric_scooter", "fusion_lat": 0.0, "lat": 38.89247266666667, "name": "1fab42d190df4c917474409e1370d40c", "fusion_lon": 0.0, "bike_id": "1fab42d190df4c917474409e1370d40c", "is_disabled": 0, "is_reserved": 0}, {"rental_uris": {"ios": "https://dc.lft.to/lastmile_qr_scan", "android": "https://dc.lft.to/lastmile_qr_scan"}, "lon": -77.13094016666666, "type": "electric_bike", "fusion_lat": 0.0, "lat": 38.86160683333333, "name": "f0ce38f3103fd06755b1662db3a16230", "fusion_lon": 0.0, "bike_id": "f0ce38f3103fd06755b1662db3a16230", "is_disabled": 0, "is_reserved": 0}, {"rental_uris": {"ios": "https://dc.lft.to/lastmile_qr_scan", "android": "https://dc.lft.to/lastmile_qr_scan"}, "lon": -77.09169116666666, "type": "electric_bike", "fusion_lat": 0.0, "lat": 38.9675595, "name": "8758dd0c3d7219ef5e2120f60f401bd8", "fusion_lon": 0.0, "bike_id": "8758dd0c3d7219ef5e2120f60f401bd8", "is_disabled": 0, "is_reserved": 0}, {"rental_uris": {"ios": "https://dc.lft.to/lastmile_qr_scan", "android": "https://dc.lft.to/lastmile_qr_scan"}, "lon": -77.0211565, "type": "electric_bike", "fusion_lat": 0.0, "lat": 38.937000833333336, "name": "f3a6cccf4128c59e4ebf941f1e0210e1", "fusion_lon": 0.0, "bike_id": "f3a6cccf4128c59e4ebf941f1e0210e1", "is_disabled": 0, "is_reserved": 0}, {"rental_uris": {"ios": "https://dc.lft.to/lastmile_qr_scan", "android": "https://dc.lft.to/lastmile_qr_scan"}, "lon": -77.0418085, "type": "electric_scooter", "fusion_lat": 0.0, "lat": 38.91853833333333, "name": "a35f6c94661b2ffe415b506afcc7d6cc", "fusion_lon": 0.0, "bike_id": "a35f6c94661b2ffe415b506afcc7d6cc", "is_disabled": 0, "is_reserved": 0}, {"rental_uris": {"ios": "https://dc.lft.to/lastmile_qr_scan", "android": "https://dc.lft.to/lastmile_qr_scan"}, "lon": -77.0455285, "type": "electric_scooter", "fusion_lat": 0.0, "lat": 38.91322016666667, "name": "5044e7175f3258a3dce847a9bf7d1e5c", "fusion_lon": 0.0, "bike_id": "5044e7175f3258a3dce847a9bf7d1e5c", "is_disabled": 0, "is_reserved": 0}, {"rental_uris": {"ios": "https://dc.lft.to/lastmile_qr_scan", "android": "https://dc.lft.to/lastmile_qr_scan"}, "lon": -77.0418185, "type": "electric_scooter", "fusion_lat": 0.0, "lat": 38.91985616666667, "name": "3c1c54d46acce2bb13cea4e4c0802bf7", "fusion_lon": 0.0, "bike_id": "3c1c54d46acce2bb13cea4e4c0802bf7", "is_disabled": 0, "is_reserved": 0}, {"rental_uris": {"ios": "https://dc.lft.to/lastmile_qr_scan", "android": "https://dc.lft.to/lastmile_qr_scan"}, "lon": -76.96570533333333, "type": "electric_scooter", "fusion_lat": 0.0, "lat": 38.91859783333334, "name": "21b462dfecf897184e8bc7c9705ecf06", "fusion_lon": 0.0, "bike_id": "21b462dfecf897184e8bc7c9705ecf06", "is_disabled": 0, "is_reserved": 0}, {"rental_uris": {"ios": "https://dc.lft.to/lastmile_qr_scan", "android": "https://dc.lft.to/lastmile_qr_scan"}, "lon": -77.03295233333333, "type": "electric_scooter", "fusion_lat": 0.0, "lat": 38.925556, "name": "42104f27f8a4270d1e11ece8cb213f7d", "fusion_lon": 0.0, "bike_id": "42104f27f8a4270d1e11ece8cb213f7d", "is_disabled": 0, "is_reserved": 0}, {"rental_uris": {"ios": "https://dc.lft.to/lastmile_qr_scan", "android": "https://dc.lft.to/lastmile_qr_scan"}, "lon": -77.04698866666666, "type": "electric_scooter", "fusion_lat": 0.0, "lat": 38.9057995, "name": "66b26367ecbb9050800980f4cc952a00", "fusion_lon": 0.0, "bike_id": "66b26367ecbb9050800980f4cc952a00", "is_disabled": 0, "is_reserved": 0}, {"rental_uris": {"ios": "https://dc.lft.to/lastmile_qr_scan", "android": "https://dc.lft.to/lastmile_qr_scan"}, "lon": -77.03858966666667, "type": "electric_scooter", "fusion_lat": 0.0, "lat": 38.910178333333334, "name": "153b66d6f6981948d6969da6801427dc", "fusion_lon": 0.0, "bike_id": "153b66d6f6981948d6969da6801427dc", "is_disabled": 0, "is_reserved": 0}, {"rental_uris": {"ios": "https://dc.lft.to/lastmile_qr_scan", "android": "https://dc.lft.to/lastmile_qr_scan"}, "lon": -77.02328783333333, "type": "electric_scooter", "fusion_lat": 0.0, "lat": 38.883494166666665, "name": "18325d4079f089635e69b0840b594389", "fusion_lon": 0.0, "bike_id": "18325d4079f089635e69b0840b594389", "is_disabled": 0, "is_reserved": 0}, {"rental_uris": {"ios": "https://dc.lft.to/lastmile_qr_scan", "android": "https://dc.lft.to/lastmile_qr_scan"}, "lon": -77.02151633333334, "type": "electric_scooter", "fusion_lat": 0.0, "lat": 38.909677333333335, "name": "d00bd1c1a7f678952c31b7ea4844ce92", "fusion_lon": 0.0, "bike_id": "d00bd1c1a7f678952c31b7ea4844ce92", "is_disabled": 0, "is_reserved": 0}, {"rental_uris": {"ios": "https://dc.lft.to/lastmile_qr_scan", "android": "https://dc.lft.to/lastmile_qr_scan"}, "lon": -77.0492885, "type": "electric_scooter", "fusion_lat": 0.0, "lat": 38.89606233333333, "name": "50a95a4e1eb05ff225ed754c66d2f524", "fusion_lon": 0.0, "bike_id": "50a95a4e1eb05ff225ed754c66d2f524", "is_disabled": 0, "is_reserved": 0}, {"rental_uris": {"ios": "https://dc.lft.to/lastmile_qr_scan", "android": "https://dc.lft.to/lastmile_qr_scan"}, "lon": -76.92998283333333, "type": "electric_bike", "fusion_lat": 0.0, "lat": 38.887972833333336, "name": "72d8adb5a596c7686e81bced63795ae1", "fusion_lon": 0.0, "bike_id": "72d8adb5a596c7686e81bced63795ae1", "is_disabled": 0, "is_reserved": 0}, {"rental_uris": {"ios": "https://dc.lft.to/lastmile_qr_scan", "android": "https://dc.lft.to/lastmile_qr_scan"}, "lon": -77.027192, "type": "electric_scooter", "fusion_lat": 0.0, "lat": 38.9179065, "name": "bc62dc6952cf429d16ac594919e65fb7", "fusion_lon": 0.0, "bike_id": "bc62dc6952cf429d16ac594919e65fb7", "is_disabled": 0, "is_reserved": 0}, {"rental_uris": {"ios": "https://dc.lft.to/lastmile_qr_scan", "android": "https://dc.lft.to/lastmile_qr_scan"}, "lon": -77.00725616666666, "type": "electric_scooter", "fusion_lat": 0.0, "lat": 38.9133905, "name": "3fd37d58d649a70a69b164c3d03b145a", "fusion_lon": 0.0, "bike_id": "3fd37d58d649a70a69b164c3d03b145a", "is_disabled": 0, "is_reserved": 0}, {"rental_uris": {"ios": "https://dc.lft.to/lastmile_qr_scan", "android": "https://dc.lft.to/lastmile_qr_scan"}, "lon": -77.0779545, "type": "electric_scooter", "fusion_lat": 0.0, "lat": 38.94072466666667, "name": "4c36e838eacc9d71c0df4d3a5829a33e", "fusion_lon": 0.0, "bike_id": "4c36e838eacc9d71c0df4d3a5829a33e", "is_disabled": 0, "is_reserved": 0}, {"rental_uris": {"ios": "https://dc.lft.to/lastmile_qr_scan", "android": "https://dc.lft.to/lastmile_qr_scan"}, "lon": -76.939598, "type": "electric_scooter", "fusion_lat": 0.0, "lat": 38.894162333333334, "name": "d650f3598f4446ae75c000c3c1cdaf3b", "fusion_lon": 0.0, "bike_id": "d650f3598f4446ae75c000c3c1cdaf3b", "is_disabled": 0, "is_reserved": 0}, {"rental_uris": {"ios": "https://dc.lft.to/lastmile_qr_scan", "android": "https://dc.lft.to/lastmile_qr_scan"}, "lon": -77.015908, "type": "electric_scooter", "fusion_lat": 0.0, "lat": 38.89616, "name": "58b771175ab2d09c117522a91a867287", "fusion_lon": 0.0, "bike_id": "58b771175ab2d09c117522a91a867287", "is_disabled": 0, "is_reserved": 0}, {"rental_uris": {"ios": "https://dc.lft.to/lastmile_qr_scan", "android": "https://dc.lft.to/lastmile_qr_scan"}, "lon": -77.05274366666667, "type": "electric_scooter", "fusion_lat": 0.0, "lat": 38.91005083333334, "name": "d7b76820be6550e8386cbf911a01e4ed", "fusion_lon": 0.0, "bike_id": "d7b76820be6550e8386cbf911a01e4ed", "is_disabled": 0, "is_reserved": 0}, {"rental_uris": {"ios": "https://dc.lft.to/lastmile_qr_scan", "android": "https://dc.lft.to/lastmile_qr_scan"}, "lon": -77.03281866666667, "type": "electric_scooter", "fusion_lat": 0.0, "lat": 38.937759166666666, "name": "c16d76724211eba08e70268aaac80c60", "fusion_lon": 0.0, "bike_id": "c16d76724211eba08e70268aaac80c60", "is_disabled": 0, "is_reserved": 0}, {"rental_uris": {"ios": "https://dc.lft.to/lastmile_qr_scan", "android": "https://dc.lft.to/lastmile_qr_scan"}, "lon": -77.0257555, "type": "electric_scooter", "fusion_lat": 0.0, "lat": 38.895898833333334, "name": "69ca8366550b3591a01693f08f7af77d", "fusion_lon": 0.0, "bike_id": "69ca8366550b3591a01693f08f7af77d", "is_disabled": 0, "is_reserved": 0}, {"rental_uris": {"ios": "https://dc.lft.to/lastmile_qr_scan", "android": "https://dc.lft.to/lastmile_qr_scan"}, "lon": -77.027358, "type": "electric_scooter", "fusion_lat": 0.0, "lat": 38.895046666666666, "name": "a9ab20e18ae064144494806563db456e", "fusion_lon": 0.0, "bike_id": "a9ab20e18ae064144494806563db456e", "is_disabled": 0, "is_reserved": 0}, {"rental_uris": {"ios": "https://dc.lft.to/lastmile_qr_scan", "android": "https://dc.lft.to/lastmile_qr_scan"}, "lon": -77.123746, "type": "electric_bike", "fusion_lat": 0.0, "lat": 38.8473955, "name": "82b44f706ac5e53f1491610684bb0ef0", "fusion_lon": 0.0, "bike_id": "82b44f706ac5e53f1491610684bb0ef0", "is_disabled": 0, "is_reserved": 0}, {"rental_uris": {"ios": "https://dc.lft.to/lastmile_qr_scan", "android": "https://dc.lft.to/lastmile_qr_scan"}, "lon": -77.04259683333333, "type": "electric_scooter", "fusion_lat": 0.0, "lat": 38.922023, "name": "14f38daa60f2c7f0e81bb35e1af093f3", "fusion_lon": 0.0, "bike_id": "14f38daa60f2c7f0e81bb35e1af093f3", "is_disabled": 0, "is_reserved": 0}, {"rental_uris": {"ios": "https://dc.lft.to/lastmile_qr_scan", "android": "https://dc.lft.to/lastmile_qr_scan"}, "lon": -77.070622, "type": "electric_scooter", "fusion_lat": 0.0, "lat": 38.90111533333334, "name": "0dfce237e6506fc1c6769f2328f923c3", "fusion_lon": 0.0, "bike_id": "0dfce237e6506fc1c6769f2328f923c3", "is_disabled": 0, "is_reserved": 0}, {"rental_uris": {"ios": "https://dc.lft.to/lastmile_qr_scan", "android": "https://dc.lft.to/lastmile_qr_scan"}, "lon": -77.0178025, "type": "electric_scooter", "fusion_lat": 0.0, "lat": 38.887171, "name": "2d89c656097f47269fbf5544c1849df5", "fusion_lon": 0.0, "bike_id": "2d89c656097f47269fbf5544c1849df5", "is_disabled": 0, "is_reserved": 0}, {"rental_uris": {"ios": "https://dc.lft.to/lastmile_qr_scan", "android": "https://dc.lft.to/lastmile_qr_scan"}, "lon": -77.03363616666667, "type": "electric_scooter", "fusion_lat": 0.0, "lat": 38.89959783333333, "name": "2489941db659e2a0b9de68021f138a5f", "fusion_lon": 0.0, "bike_id": "2489941db659e2a0b9de68021f138a5f", "is_disabled": 0, "is_reserved": 0}, {"rental_uris": {"ios": "https://dc.lft.to/lastmile_qr_scan", "android": "https://dc.lft.to/lastmile_qr_scan"}, "lon": -77.00546016666667, "type": "electric_scooter", "fusion_lat": 0.0, "lat": 38.874568, "name": "3ed3fb680cc4ee472c1aa02ad7407cbb", "fusion_lon": 0.0, "bike_id": "3ed3fb680cc4ee472c1aa02ad7407cbb", "is_disabled": 0, "is_reserved": 0}, {"rental_uris": {"ios": "https://dc.lft.to/lastmile_qr_scan", "android": "https://dc.lft.to/lastmile_qr_scan"}, "lon": -77.0219335, "type": "electric_scooter", "fusion_lat": 0.0, "lat": 38.9147655, "name": "aac8c90e25b81c68af58fd3f25f4070d", "fusion_lon": 0.0, "bike_id": "aac8c90e25b81c68af58fd3f25f4070d", "is_disabled": 0, "is_reserved": 0}, {"rental_uris": {"ios": "https://dc.lft.to/lastmile_qr_scan", "android": "https://dc.lft.to/lastmile_qr_scan"}, "lon": -77.03202466666667, "type": "electric_scooter", "fusion_lat": 0.0, "lat": 38.91238766666667, "name": "44fb4d10afd5d775ad06e1c84e5ae530", "fusion_lon": 0.0, "bike_id": "44fb4d10afd5d775ad06e1c84e5ae530", "is_disabled": 0, "is_reserved": 0}, {"rental_uris": {"ios": "https://dc.lft.to/lastmile_qr_scan", "android": "https://dc.lft.to/lastmile_qr_scan"}, "lon": -77.0447375, "type": "electric_scooter", "fusion_lat": 0.0, "lat": 38.90073683333333, "name": "c297fd374b5a39304256ffb04f041e97", "fusion_lon": 0.0, "bike_id": "c297fd374b5a39304256ffb04f041e97", "is_disabled": 0, "is_reserved": 0}, {"rental_uris": {"ios": "https://dc.lft.to/lastmile_qr_scan", "android": "https://dc.lft.to/lastmile_qr_scan"}, "lon": -76.98831516666667, "type": "electric_scooter", "fusion_lat": 0.0, "lat": 38.88026283333333, "name": "f139b4329d9fc757f842908cb8200cf8", "fusion_lon": 0.0, "bike_id": "f139b4329d9fc757f842908cb8200cf8", "is_disabled": 0, "is_reserved": 0}, {"rental_uris": {"ios": "https://dc.lft.to/lastmile_qr_scan", "android": "https://dc.lft.to/lastmile_qr_scan"}, "lon": -77.05524883333334, "type": "electric_scooter", "fusion_lat": 0.0, "lat": 38.89942, "name": "555cd4e2fe0fb3d489b1b574fffbda28", "fusion_lon": 0.0, "bike_id": "555cd4e2fe0fb3d489b1b574fffbda28", "is_disabled": 0, "is_reserved": 0}, {"rental_uris": {"ios": "https://dc.lft.to/lastmile_qr_scan", "android": "https://dc.lft.to/lastmile_qr_scan"}, "lon": -77.03261783333333, "type": "electric_scooter", "fusion_lat": 0.0, "lat": 38.929083166666665, "name": "c5f2ff5e07412a80c34011d28e8a3476", "fusion_lon": 0.0, "bike_id": "c5f2ff5e07412a80c34011d28e8a3476", "is_disabled": 0, "is_reserved": 0}, {"rental_uris": {"ios": "https://dc.lft.to/lastmile_qr_scan", "android": "https://dc.lft.to/lastmile_qr_scan"}, "lon": -77.03352483333333, "type": "electric_scooter", "fusion_lat": 0.0, "lat": 38.892366333333335, "name": "9a9157eba12cc9e02972a53cddc98879", "fusion_lon": 0.0, "bike_id": "9a9157eba12cc9e02972a53cddc98879", "is_disabled": 0, "is_reserved": 0}, {"rental_uris": {"ios": "https://dc.lft.to/lastmile_qr_scan", "android": "https://dc.lft.to/lastmile_qr_scan"}, "lon": -76.9994345, "type": "electric_scooter", "fusion_lat": 0.0, "lat": 38.84288866666667, "name": "a4672e50bcd86bce0f3b87badae4a04c", "fusion_lon": 0.0, "bike_id": "a4672e50bcd86bce0f3b87badae4a04c", "is_disabled": 0, "is_reserved": 0}, {"rental_uris": {"ios": "https://dc.lft.to/lastmile_qr_scan", "android": "https://dc.lft.to/lastmile_qr_scan"}, "lon": -76.99179416666666, "type": "electric_scooter", "fusion_lat": 0.0, "lat": 38.90452066666667, "name": "29377ac82b7a32d1f6ae1bd816e591a2", "fusion_lon": 0.0, "bike_id": "29377ac82b7a32d1f6ae1bd816e591a2", "is_disabled": 0, "is_reserved": 0}, {"rental_uris": {"ios": "https://dc.lft.to/lastmile_qr_scan", "android": "https://dc.lft.to/lastmile_qr_scan"}, "lon": -76.9082875, "type": "electric_bike", "fusion_lat": 0.0, "lat": 39.002506333333336, "name": "e9e70b1cceddb14921fabf3b16e2af0b", "fusion_lon": 0.0, "bike_id": "e9e70b1cceddb14921fabf3b16e2af0b", "is_disabled": 0, "is_reserved": 0}, {"rental_uris": {"ios": "https://dc.lft.to/lastmile_qr_scan", "android": "https://dc.lft.to/lastmile_qr_scan"}, "lon": -77.11224516666667, "type": "electric_bike", "fusion_lat": 0.0, "lat": 38.82867433333333, "name": "cfd71d832f2b560daa71ea0e8c114cdc", "fusion_lon": 0.0, "bike_id": "cfd71d832f2b560daa71ea0e8c114cdc", "is_disabled": 0, "is_reserved": 0}, {"rental_uris": {"ios": "https://dc.lft.to/lastmile_qr_scan", "android": "https://dc.lft.to/lastmile_qr_scan"}, "lon": -76.9655255, "type": "electric_scooter", "fusion_lat": 0.0, "lat": 38.9186555, "name": "077940d794da69673aaeb21fbbd44d9a", "fusion_lon": 0.0, "bike_id": "077940d794da69673aaeb21fbbd44d9a", "is_disabled": 0, "is_reserved": 0}, {"rental_uris": {"ios": "https://dc.lft.to/lastmile_qr_scan", "android": "https://dc.lft.to/lastmile_qr_scan"}, "lon": -77.042561, "type": "electric_scooter", "fusion_lat": 0.0, "lat": 38.922318, "name": "c598accbe19186096cf97f9478e099b5", "fusion_lon": 0.0, "bike_id": "c598accbe19186096cf97f9478e099b5", "is_disabled": 0, "is_reserved": 0}, {"rental_uris": {"ios": "https://dc.lft.to/lastmile_qr_scan", "android": "https://dc.lft.to/lastmile_qr_scan"}, "lon": -77.027032, "type": "electric_scooter", "fusion_lat": 0.0, "lat": 38.949994833333335, "name": "440ddeadd051ce3d949cc03c7b91a284", "fusion_lon": 0.0, "bike_id": "440ddeadd051ce3d949cc03c7b91a284", "is_disabled": 0, "is_reserved": 0}, {"rental_uris": {"ios": "https://dc.lft.to/lastmile_qr_scan", "android": "https://dc.lft.to/lastmile_qr_scan"}, "lon": -77.045463, "type": "electric_scooter", "fusion_lat": 0.0, "lat": 38.934094333333334, "name": "d423567e75aa98948119a683abf70d37", "fusion_lon": 0.0, "bike_id": "d423567e75aa98948119a683abf70d37", "is_disabled": 0, "is_reserved": 0}, {"rental_uris": {"ios": "https://dc.lft.to/lastmile_qr_scan", "android": "https://dc.lft.to/lastmile_qr_scan"}, "lon": -77.0259315, "type": "electric_scooter", "fusion_lat": 0.0, "lat": 38.9298145, "name": "9b7f596c5901a23b33c90a3968d3137e", "fusion_lon": 0.0, "bike_id": "9b7f596c5901a23b33c90a3968d3137e", "is_disabled": 0, "is_reserved": 0}, {"rental_uris": {"ios": "https://dc.lft.to/lastmile_qr_scan", "android": "https://dc.lft.to/lastmile_qr_scan"}, "lon": -76.98905966666666, "type": "electric_scooter", "fusion_lat": 0.0, "lat": 38.90011583333333, "name": "2cef30e3766186a8f24aabd398e22265", "fusion_lon": 0.0, "bike_id": "2cef30e3766186a8f24aabd398e22265", "is_disabled": 0, "is_reserved": 0}, {"rental_uris": {"ios": "https://dc.lft.to/lastmile_qr_scan", "android": "https://dc.lft.to/lastmile_qr_scan"}, "lon": -77.01381683333334, "type": "electric_scooter", "fusion_lat": 0.0, "lat": 38.899087, "name": "40daf46fa7814fbd5cfc4801f8816d33", "fusion_lon": 0.0, "bike_id": "40daf46fa7814fbd5cfc4801f8816d33", "is_disabled": 0, "is_reserved": 0}, {"rental_uris": {"ios": "https://dc.lft.to/lastmile_qr_scan", "android": "https://dc.lft.to/lastmile_qr_scan"}, "lon": -76.94632816666666, "type": "electric_scooter", "fusion_lat": 0.0, "lat": 38.89828966666666, "name": "49213753b5d97aac537359de32f0e1fd", "fusion_lon": 0.0, "bike_id": "49213753b5d97aac537359de32f0e1fd", "is_disabled": 0, "is_reserved": 0}, {"rental_uris": {"ios": "https://dc.lft.to/lastmile_qr_scan", "android": "https://dc.lft.to/lastmile_qr_scan"}, "lon": -77.0318455, "type": "electric_scooter", "fusion_lat": 0.0, "lat": 38.913244166666665, "name": "9f553f00b2e145327eeb4bd2162a1734", "fusion_lon": 0.0, "bike_id": "9f553f00b2e145327eeb4bd2162a1734", "is_disabled": 0, "is_reserved": 0}, {"rental_uris": {"ios": "https://dc.lft.to/lastmile_qr_scan", "android": "https://dc.lft.to/lastmile_qr_scan"}, "lon": -77.01225683333334, "type": "electric_scooter", "fusion_lat": 0.0, "lat": 38.917103, "name": "ed8a44b02511fa55a36e341842e2eea5", "fusion_lon": 0.0, "bike_id": "ed8a44b02511fa55a36e341842e2eea5", "is_disabled": 0, "is_reserved": 0}, {"rental_uris": {"ios": "https://dc.lft.to/lastmile_qr_scan", "android": "https://dc.lft.to/lastmile_qr_scan"}, "lon": -76.97936766666666, "type": "electric_scooter", "fusion_lat": 0.0, "lat": 38.906697666666666, "name": "7fd12469986db1eb5b255acb0c2ff189", "fusion_lon": 0.0, "bike_id": "7fd12469986db1eb5b255acb0c2ff189", "is_disabled": 0, "is_reserved": 0}, {"rental_uris": {"ios": "https://dc.lft.to/lastmile_qr_scan", "android": "https://dc.lft.to/lastmile_qr_scan"}, "lon": -77.02204716666667, "type": "electric_scooter", "fusion_lat": 0.0, "lat": 38.91272383333333, "name": "674931c4fb6e16f5c81504ee58c17d40", "fusion_lon": 0.0, "bike_id": "674931c4fb6e16f5c81504ee58c17d40", "is_disabled": 0, "is_reserved": 0}, {"rental_uris": {"ios": "https://dc.lft.to/lastmile_qr_scan", "android": "https://dc.lft.to/lastmile_qr_scan"}, "lon": -77.10459733333333, "type": "electric_bike", "fusion_lat": 0.0, "lat": 38.896369166666666, "name": "076f6d2fbbd01328357c69dc4b49bcf9", "fusion_lon": 0.0, "bike_id": "076f6d2fbbd01328357c69dc4b49bcf9", "is_disabled": 0, "is_reserved": 0}, {"rental_uris": {"ios": "https://dc.lft.to/lastmile_qr_scan", "android": "https://dc.lft.to/lastmile_qr_scan"}, "lon": -76.96553, "type": "electric_scooter", "fusion_lat": 0.0, "lat": 38.918682, "name": "f0969859c35807658851777c76a33fc4", "fusion_lon": 0.0, "bike_id": "f0969859c35807658851777c76a33fc4", "is_disabled": 0, "is_reserved": 0}, {"rental_uris": {"ios": "https://dc.lft.to/lastmile_qr_scan", "android": "https://dc.lft.to/lastmile_qr_scan"}, "lon": -76.9650655, "type": "electric_scooter", "fusion_lat": 0.0, "lat": 38.876454833333334, "name": "6b1bbcbe1e922e1ba4e78948f8471326", "fusion_lon": 0.0, "bike_id": "6b1bbcbe1e922e1ba4e78948f8471326", "is_disabled": 0, "is_reserved": 0}, {"rental_uris": {"ios": "https://dc.lft.to/lastmile_qr_scan", "android": "https://dc.lft.to/lastmile_qr_scan"}, "lon": -77.02381466666667, "type": "electric_scooter", "fusion_lat": 0.0, "lat": 38.93200733333333, "name": "a5712bf43565ddfa4efbbeded9382165", "fusion_lon": 0.0, "bike_id": "a5712bf43565ddfa4efbbeded9382165", "is_disabled": 0, "is_reserved": 0}, {"rental_uris": {"ios": "https://dc.lft.to/lastmile_qr_scan", "android": "https://dc.lft.to/lastmile_qr_scan"}, "lon": -77.02966166666667, "type": "electric_scooter", "fusion_lat": 0.0, "lat": 38.904908, "name": "c22ff2cf04c6743349108655aa9451d1", "fusion_lon": 0.0, "bike_id": "c22ff2cf04c6743349108655aa9451d1", "is_disabled": 0, "is_reserved": 0}, {"rental_uris": {"ios": "https://dc.lft.to/lastmile_qr_scan", "android": "https://dc.lft.to/lastmile_qr_scan"}, "lon": -76.938325, "type": "electric_scooter", "fusion_lat": 0.0, "lat": 38.8976375, "name": "836e0771346c0a4299a87ff955337380", "fusion_lon": 0.0, "bike_id": "836e0771346c0a4299a87ff955337380", "is_disabled": 0, "is_reserved": 0}, {"rental_uris": {"ios": "https://dc.lft.to/lastmile_qr_scan", "android": "https://dc.lft.to/lastmile_qr_scan"}, "lon": -77.00432833333333, "type": "electric_scooter", "fusion_lat": 0.0, "lat": 38.90394083333333, "name": "d3f98eb871e42a63a96556ebe761d4e3", "fusion_lon": 0.0, "bike_id": "d3f98eb871e42a63a96556ebe761d4e3", "is_disabled": 0, "is_reserved": 0}, {"rental_uris": {"ios": "https://dc.lft.to/lastmile_qr_scan", "android": "https://dc.lft.to/lastmile_qr_scan"}, "lon": -77.03508466666666, "type": "electric_scooter", "fusion_lat": 0.0, "lat": 38.921503333333334, "name": "e430b3f7605819f004ef790a7e91b1dd", "fusion_lon": 0.0, "bike_id": "e430b3f7605819f004ef790a7e91b1dd", "is_disabled": 0, "is_reserved": 0}, {"rental_uris": {"ios": "https://dc.lft.to/lastmile_qr_scan", "android": "https://dc.lft.to/lastmile_qr_scan"}, "lon": -77.03213533333333, "type": "electric_scooter", "fusion_lat": 0.0, "lat": 38.914291, "name": "3f59e4ee86095ede960b7fa40854d197", "fusion_lon": 0.0, "bike_id": "3f59e4ee86095ede960b7fa40854d197", "is_disabled": 0, "is_reserved": 0}, {"rental_uris": {"ios": "https://dc.lft.to/lastmile_qr_scan", "android": "https://dc.lft.to/lastmile_qr_scan"}, "lon": -77.04208533333333, "type": "electric_scooter", "fusion_lat": 0.0, "lat": 38.920295333333335, "name": "13b4bd04990abfdef269b2a5d6b77282", "fusion_lon": 0.0, "bike_id": "13b4bd04990abfdef269b2a5d6b77282", "is_disabled": 0, "is_reserved": 0}, {"rental_uris": {"ios": "https://dc.lft.to/lastmile_qr_scan", "android": "https://dc.lft.to/lastmile_qr_scan"}, "lon": -77.03014933333333, "type": "electric_scooter", "fusion_lat": 0.0, "lat": 38.89757816666667, "name": "9311d4db53998a1ec877951cc7610ad3", "fusion_lon": 0.0, "bike_id": "9311d4db53998a1ec877951cc7610ad3", "is_disabled": 0, "is_reserved": 0}, {"rental_uris": {"ios": "https://dc.lft.to/lastmile_qr_scan", "android": "https://dc.lft.to/lastmile_qr_scan"}, "lon": -77.00116583333333, "type": "electric_scooter", "fusion_lat": 0.0, "lat": 38.894347833333335, "name": "bd74685535f97c6d0262d8d43740994e", "fusion_lon": 0.0, "bike_id": "bd74685535f97c6d0262d8d43740994e", "is_disabled": 0, "is_reserved": 0}, {"rental_uris": {"ios": "https://dc.lft.to/lastmile_qr_scan", "android": "https://dc.lft.to/lastmile_qr_scan"}, "lon": -77.05520566666667, "type": "electric_scooter", "fusion_lat": 0.0, "lat": 38.89727233333333, "name": "ff65012673bb01686f6d8980eae9876f", "fusion_lon": 0.0, "bike_id": "ff65012673bb01686f6d8980eae9876f", "is_disabled": 0, "is_reserved": 0}, {"rental_uris": {"ios": "https://dc.lft.to/lastmile_qr_scan", "android": "https://dc.lft.to/lastmile_qr_scan"}, "lon": -77.01512266666667, "type": "electric_scooter", "fusion_lat": 0.0, "lat": 38.88736933333333, "name": "1b373c4780b5b029b2a61ccea254832c", "fusion_lon": 0.0, "bike_id": "1b373c4780b5b029b2a61ccea254832c", "is_disabled": 0, "is_reserved": 0}, {"rental_uris": {"ios": "https://dc.lft.to/lastmile_qr_scan", "android": "https://dc.lft.to/lastmile_qr_scan"}, "lon": -77.02437533333334, "type": "electric_scooter", "fusion_lat": 0.0, "lat": 38.92256066666667, "name": "94e7e5f87b8f091b3273237028df6714", "fusion_lon": 0.0, "bike_id": "94e7e5f87b8f091b3273237028df6714", "is_disabled": 0, "is_reserved": 0}, {"rental_uris": {"ios": "https://dc.lft.to/lastmile_qr_scan", "android": "https://dc.lft.to/lastmile_qr_scan"}, "lon": -76.9906745, "type": "electric_scooter", "fusion_lat": 0.0, "lat": 38.863543666666665, "name": "c9ae93684dc9cdccef0ea28886f7dabe", "fusion_lon": 0.0, "bike_id": "c9ae93684dc9cdccef0ea28886f7dabe", "is_disabled": 0, "is_reserved": 0}, {"rental_uris": {"ios": "https://dc.lft.to/lastmile_qr_scan", "android": "https://dc.lft.to/lastmile_qr_scan"}, "lon": -76.95468266666667, "type": "electric_bike", "fusion_lat": 0.0, "lat": 38.88641883333333, "name": "8bfe9c7c6337f00c2ffdc5c974e2ee27", "fusion_lon": 0.0, "bike_id": "8bfe9c7c6337f00c2ffdc5c974e2ee27", "is_disabled": 0, "is_reserved": 0}, {"rental_uris": {"ios": "https://dc.lft.to/lastmile_qr_scan", "android": "https://dc.lft.to/lastmile_qr_scan"}, "lon": -76.98358716666667, "type": "electric_scooter", "fusion_lat": 0.0, "lat": 38.91527, "name": "1e1a8583b43baa84eaebf5a0fc25b2e1", "fusion_lon": 0.0, "bike_id": "1e1a8583b43baa84eaebf5a0fc25b2e1", "is_disabled": 0, "is_reserved": 0}, {"rental_uris": {"ios": "https://dc.lft.to/lastmile_qr_scan", "android": "https://dc.lft.to/lastmile_qr_scan"}, "lon": -76.96553416666667, "type": "electric_scooter", "fusion_lat": 0.0, "lat": 38.918616, "name": "b1f287a36cacd8f1c747c8e724c413f6", "fusion_lon": 0.0, "bike_id": "b1f287a36cacd8f1c747c8e724c413f6", "is_disabled": 0, "is_reserved": 0}, {"rental_uris": {"ios": "https://dc.lft.to/lastmile_qr_scan", "android": "https://dc.lft.to/lastmile_qr_scan"}, "lon": -76.9744075, "type": "electric_scooter", "fusion_lat": 0.0, "lat": 38.8652495, "name": "d17f58339178a86e205773449c4d7bbb", "fusion_lon": 0.0, "bike_id": "d17f58339178a86e205773449c4d7bbb", "is_disabled": 0, "is_reserved": 0}, {"rental_uris": {"ios": "https://dc.lft.to/lastmile_qr_scan", "android": "https://dc.lft.to/lastmile_qr_scan"}, "lon": -77.025063, "type": "electric_scooter", "fusion_lat": 0.0, "lat": 38.91706283333333, "name": "7d66539d8cab9f411832558e305c3132", "fusion_lon": 0.0, "bike_id": "7d66539d8cab9f411832558e305c3132", "is_disabled": 0, "is_reserved": 0}, {"rental_uris": {"ios": "https://dc.lft.to/lastmile_qr_scan", "android": "https://dc.lft.to/lastmile_qr_scan"}, "lon": -77.03847616666667, "type": "electric_scooter", "fusion_lat": 0.0, "lat": 38.9263995, "name": "1d532073780cc58a358bb3f430f67e12", "fusion_lon": 0.0, "bike_id": "1d532073780cc58a358bb3f430f67e12", "is_disabled": 0, "is_reserved": 0}, {"rental_uris": {"ios": "https://dc.lft.to/lastmile_qr_scan", "android": "https://dc.lft.to/lastmile_qr_scan"}, "lon": -77.03203183333333, "type": "electric_scooter", "fusion_lat": 0.0, "lat": 38.90018666666667, "name": "527f660dd83bca4000ae046f877fc18f", "fusion_lon": 0.0, "bike_id": "527f660dd83bca4000ae046f877fc18f", "is_disabled": 0, "is_reserved": 0}, {"rental_uris": {"ios": "https://dc.lft.to/lastmile_qr_scan", "android": "https://dc.lft.to/lastmile_qr_scan"}, "lon": -77.05982016666667, "type": "electric_scooter", "fusion_lat": 0.0, "lat": 38.9354455, "name": "6f07277fc7be8877a62120e32663bf0f", "fusion_lon": 0.0, "bike_id": "6f07277fc7be8877a62120e32663bf0f", "is_disabled": 0, "is_reserved": 0}, {"rental_uris": {"ios": "https://dc.lft.to/lastmile_qr_scan", "android": "https://dc.lft.to/lastmile_qr_scan"}, "lon": -77.04083016666667, "type": "electric_scooter", "fusion_lat": 0.0, "lat": 38.91979333333333, "name": "bbd4bd8e684167fa582d9bf278fd8ee6", "fusion_lon": 0.0, "bike_id": "bbd4bd8e684167fa582d9bf278fd8ee6", "is_disabled": 0, "is_reserved": 0}, {"rental_uris": {"ios": "https://dc.lft.to/lastmile_qr_scan", "android": "https://dc.lft.to/lastmile_qr_scan"}, "lon": -77.04727166666666, "type": "electric_scooter", "fusion_lat": 0.0, "lat": 38.897382, "name": "9b00dd828c62e3458cd038ff42280a38", "fusion_lon": 0.0, "bike_id": "9b00dd828c62e3458cd038ff42280a38", "is_disabled": 0, "is_reserved": 0}, {"rental_uris": {"ios": "https://dc.lft.to/lastmile_qr_scan", "android": "https://dc.lft.to/lastmile_qr_scan"}, "lon": -77.0297765, "type": "electric_scooter", "fusion_lat": 0.0, "lat": 38.90476233333333, "name": "947f7e4f519528c59303330bbf9e691a", "fusion_lon": 0.0, "bike_id": "947f7e4f519528c59303330bbf9e691a", "is_disabled": 0, "is_reserved": 0}, {"rental_uris": {"ios": "https://dc.lft.to/lastmile_qr_scan", "android": "https://dc.lft.to/lastmile_qr_scan"}, "lon": -77.009387, "type": "electric_scooter", "fusion_lat": 0.0, "lat": 38.872011666666666, "name": "de34ef171baa831228c80bf25ca0fcf8", "fusion_lon": 0.0, "bike_id": "de34ef171baa831228c80bf25ca0fcf8", "is_disabled": 0, "is_reserved": 0}, {"rental_uris": {"ios": "https://dc.lft.to/lastmile_qr_scan", "android": "https://dc.lft.to/lastmile_qr_scan"}, "lon": -77.01209483333334, "type": "electric_scooter", "fusion_lat": 0.0, "lat": 38.91494733333333, "name": "a433ecabe246e7b9ec02b76f8a470e43", "fusion_lon": 0.0, "bike_id": "a433ecabe246e7b9ec02b76f8a470e43", "is_disabled": 0, "is_reserved": 0}, {"rental_uris": {"ios": "https://dc.lft.to/lastmile_qr_scan", "android": "https://dc.lft.to/lastmile_qr_scan"}, "lon": -77.06525533333334, "type": "electric_bike", "fusion_lat": 0.0, "lat": 38.905511, "name": "805fc5326d7435fa7fe7b8da5b8969f6", "fusion_lon": 0.0, "bike_id": "805fc5326d7435fa7fe7b8da5b8969f6", "is_disabled": 0, "is_reserved": 0}, {"rental_uris": {"ios": "https://dc.lft.to/lastmile_qr_scan", "android": "https://dc.lft.to/lastmile_qr_scan"}, "lon": -77.0706805, "type": "electric_scooter", "fusion_lat": 0.0, "lat": 38.95218066666666, "name": "784ab885726ae623dd89c228bad079c6", "fusion_lon": 0.0, "bike_id": "784ab885726ae623dd89c228bad079c6", "is_disabled": 0, "is_reserved": 0}, {"rental_uris": {"ios": "https://dc.lft.to/lastmile_qr_scan", "android": "https://dc.lft.to/lastmile_qr_scan"}, "lon": -77.05510566666666, "type": "electric_scooter", "fusion_lat": 0.0, "lat": 38.92972416666667, "name": "07f4abd89a9d79ebc614aca425b5c4d9", "fusion_lon": 0.0, "bike_id": "07f4abd89a9d79ebc614aca425b5c4d9", "is_disabled": 0, "is_reserved": 0}, {"rental_uris": {"ios": "https://dc.lft.to/lastmile_qr_scan", "android": "https://dc.lft.to/lastmile_qr_scan"}, "lon": -76.94892483333334, "type": "electric_scooter", "fusion_lat": 0.0, "lat": 38.89527533333333, "name": "e6814a08e9b56df16d743cce85c8b5ac", "fusion_lon": 0.0, "bike_id": "e6814a08e9b56df16d743cce85c8b5ac", "is_disabled": 0, "is_reserved": 0}, {"rental_uris": {"ios": "https://dc.lft.to/lastmile_qr_scan", "android": "https://dc.lft.to/lastmile_qr_scan"}, "lon": -77.04192133333333, "type": "electric_scooter", "fusion_lat": 0.0, "lat": 38.9034075, "name": "6e3abc869fac2c7fb5259bfd435fda6e", "fusion_lon": 0.0, "bike_id": "6e3abc869fac2c7fb5259bfd435fda6e", "is_disabled": 0, "is_reserved": 0}, {"rental_uris": {"ios": "https://dc.lft.to/lastmile_qr_scan", "android": "https://dc.lft.to/lastmile_qr_scan"}, "lon": -77.037169, "type": "electric_scooter", "fusion_lat": 0.0, "lat": 38.92867366666667, "name": "cee1e1da52f7a24f076e0982bed8ba5b", "fusion_lon": 0.0, "bike_id": "cee1e1da52f7a24f076e0982bed8ba5b", "is_disabled": 0, "is_reserved": 0}, {"rental_uris": {"ios": "https://dc.lft.to/lastmile_qr_scan", "android": "https://dc.lft.to/lastmile_qr_scan"}, "lon": -77.02835283333333, "type": "electric_scooter", "fusion_lat": 0.0, "lat": 38.896381166666664, "name": "a7d662bb288887a6c955627121a976f0", "fusion_lon": 0.0, "bike_id": "a7d662bb288887a6c955627121a976f0", "is_disabled": 0, "is_reserved": 0}, {"rental_uris": {"ios": "https://dc.lft.to/lastmile_qr_scan", "android": "https://dc.lft.to/lastmile_qr_scan"}, "lon": -76.98999916666666, "type": "electric_scooter", "fusion_lat": 0.0, "lat": 38.865046, "name": "765df80b3c0b52d6952d97696ec794d7", "fusion_lon": 0.0, "bike_id": "765df80b3c0b52d6952d97696ec794d7", "is_disabled": 0, "is_reserved": 0}, {"rental_uris": {"ios": "https://dc.lft.to/lastmile_qr_scan", "android": "https://dc.lft.to/lastmile_qr_scan"}, "lon": -77.03143616666667, "type": "electric_scooter", "fusion_lat": 0.0, "lat": 38.914149, "name": "eff47053f42e1ef77a34933e46654276", "fusion_lon": 0.0, "bike_id": "eff47053f42e1ef77a34933e46654276", "is_disabled": 0, "is_reserved": 0}, {"rental_uris": {"ios": "https://dc.lft.to/lastmile_qr_scan", "android": "https://dc.lft.to/lastmile_qr_scan"}, "lon": -77.01949466666667, "type": "electric_scooter", "fusion_lat": 0.0, "lat": 38.924166, "name": "10b6d33e31924f690ee4c1fb4e90a69e", "fusion_lon": 0.0, "bike_id": "10b6d33e31924f690ee4c1fb4e90a69e", "is_disabled": 0, "is_reserved": 0}, {"rental_uris": {"ios": "https://dc.lft.to/lastmile_qr_scan", "android": "https://dc.lft.to/lastmile_qr_scan"}, "lon": -77.047217, "type": "electric_scooter", "fusion_lat": 0.0, "lat": 38.9223465, "name": "89579c2aa1a94977237dc6dbc4b20c7f", "fusion_lon": 0.0, "bike_id": "89579c2aa1a94977237dc6dbc4b20c7f", "is_disabled": 0, "is_reserved": 0}, {"rental_uris": {"ios": "https://dc.lft.to/lastmile_qr_scan", "android": "https://dc.lft.to/lastmile_qr_scan"}, "lon": -77.05402883333333, "type": "electric_scooter", "fusion_lat": 0.0, "lat": 38.9026275, "name": "207a7b8fd8a716705a537629ef74309b", "fusion_lon": 0.0, "bike_id": "207a7b8fd8a716705a537629ef74309b", "is_disabled": 0, "is_reserved": 0}, {"rental_uris": {"ios": "https://dc.lft.to/lastmile_qr_scan", "android": "https://dc.lft.to/lastmile_qr_scan"}, "lon": -77.017635, "type": "electric_scooter", "fusion_lat": 0.0, "lat": 38.920985333333334, "name": "05f82a10ef3bbd9c8ee2577ddfe608a2", "fusion_lon": 0.0, "bike_id": "05f82a10ef3bbd9c8ee2577ddfe608a2", "is_disabled": 0, "is_reserved": 0}, {"rental_uris": {"ios": "https://dc.lft.to/lastmile_qr_scan", "android": "https://dc.lft.to/lastmile_qr_scan"}, "lon": -77.0086225, "type": "electric_bike", "fusion_lat": 0.0, "lat": 38.82727716666667, "name": "25088f778156358974426b8762b89c78", "fusion_lon": 0.0, "bike_id": "25088f778156358974426b8762b89c78", "is_disabled": 0, "is_reserved": 0}, {"rental_uris": {"ios": "https://dc.lft.to/lastmile_qr_scan", "android": "https://dc.lft.to/lastmile_qr_scan"}, "lon": -76.98572916666667, "type": "electric_scooter", "fusion_lat": 0.0, "lat": 38.855852, "name": "213ed0e0d9798ff468de6af5dbcb8265", "fusion_lon": 0.0, "bike_id": "213ed0e0d9798ff468de6af5dbcb8265", "is_disabled": 0, "is_reserved": 0}, {"rental_uris": {"ios": "https://dc.lft.to/lastmile_qr_scan", "android": "https://dc.lft.to/lastmile_qr_scan"}, "lon": -76.996763, "type": "electric_scooter", "fusion_lat": 0.0, "lat": 38.910104, "name": "57c0795289c80cf8bba14bae2e8c606e", "fusion_lon": 0.0, "bike_id": "57c0795289c80cf8bba14bae2e8c606e", "is_disabled": 0, "is_reserved": 0}, {"rental_uris": {"ios": "https://dc.lft.to/lastmile_qr_scan", "android": "https://dc.lft.to/lastmile_qr_scan"}, "lon": -77.00602666666667, "type": "electric_scooter", "fusion_lat": 0.0, "lat": 38.90592, "name": "0024711cf071406c75d2617b06f29633", "fusion_lon": 0.0, "bike_id": "0024711cf071406c75d2617b06f29633", "is_disabled": 0, "is_reserved": 0}, {"rental_uris": {"ios": "https://dc.lft.to/lastmile_qr_scan", "android": "https://dc.lft.to/lastmile_qr_scan"}, "lon": -77.02493633333333, "type": "electric_scooter", "fusion_lat": 0.0, "lat": 38.9180415, "name": "45965225088b87b6edaa2d2329fc13ac", "fusion_lon": 0.0, "bike_id": "45965225088b87b6edaa2d2329fc13ac", "is_disabled": 0, "is_reserved": 0}, {"rental_uris": {"ios": "https://dc.lft.to/lastmile_qr_scan", "android": "https://dc.lft.to/lastmile_qr_scan"}, "lon": -76.995641, "type": "electric_scooter", "fusion_lat": 0.0, "lat": 38.92875133333333, "name": "1d8b0c77fdc30ac2efbfc2788e7a3aaf", "fusion_lon": 0.0, "bike_id": "1d8b0c77fdc30ac2efbfc2788e7a3aaf", "is_disabled": 0, "is_reserved": 0}, {"rental_uris": {"ios": "https://dc.lft.to/lastmile_qr_scan", "android": "https://dc.lft.to/lastmile_qr_scan"}, "lon": -77.02816416666667, "type": "electric_scooter", "fusion_lat": 0.0, "lat": 38.881748333333334, "name": "50df93a9ef588b03d6dd4fa5801da17b", "fusion_lon": 0.0, "bike_id": "50df93a9ef588b03d6dd4fa5801da17b", "is_disabled": 0, "is_reserved": 0}, {"rental_uris": {"ios": "https://dc.lft.to/lastmile_qr_scan", "android": "https://dc.lft.to/lastmile_qr_scan"}, "lon": -76.93883816666667, "type": "electric_scooter", "fusion_lat": 0.0, "lat": 38.90085666666667, "name": "db878a79136229c04ef791847ad40749", "fusion_lon": 0.0, "bike_id": "db878a79136229c04ef791847ad40749", "is_disabled": 0, "is_reserved": 0}, {"rental_uris": {"ios": "https://dc.lft.to/lastmile_qr_scan", "android": "https://dc.lft.to/lastmile_qr_scan"}, "lon": -77.02221433333334, "type": "electric_scooter", "fusion_lat": 0.0, "lat": 38.90297416666667, "name": "b73c4bcacd5384b84ec9d8f27bc4b43e", "fusion_lon": 0.0, "bike_id": "b73c4bcacd5384b84ec9d8f27bc4b43e", "is_disabled": 0, "is_reserved": 0}, {"rental_uris": {"ios": "https://dc.lft.to/lastmile_qr_scan", "android": "https://dc.lft.to/lastmile_qr_scan"}, "lon": -76.98655633333334, "type": "electric_scooter", "fusion_lat": 0.0, "lat": 38.858060333333334, "name": "f3b66f87cb5030609cf8d9151619cd6c", "fusion_lon": 0.0, "bike_id": "f3b66f87cb5030609cf8d9151619cd6c", "is_disabled": 0, "is_reserved": 0}, {"rental_uris": {"ios": "https://dc.lft.to/lastmile_qr_scan", "android": "https://dc.lft.to/lastmile_qr_scan"}, "lon": -77.0451165, "type": "electric_scooter", "fusion_lat": 0.0, "lat": 38.90001816666667, "name": "1e52a1f6295c81dd46696947392a6c95", "fusion_lon": 0.0, "bike_id": "1e52a1f6295c81dd46696947392a6c95", "is_disabled": 0, "is_reserved": 0}, {"rental_uris": {"ios": "https://dc.lft.to/lastmile_qr_scan", "android": "https://dc.lft.to/lastmile_qr_scan"}, "lon": -77.0298455, "type": "electric_scooter", "fusion_lat": 0.0, "lat": 38.895559666666664, "name": "172ff51647434a5745aa14abbc16942a", "fusion_lon": 0.0, "bike_id": "172ff51647434a5745aa14abbc16942a", "is_disabled": 0, "is_reserved": 0}, {"rental_uris": {"ios": "https://dc.lft.to/lastmile_qr_scan", "android": "https://dc.lft.to/lastmile_qr_scan"}, "lon": -77.02350283333334, "type": "electric_scooter", "fusion_lat": 0.0, "lat": 38.933832833333334, "name": "71cda188cd8ba0d0b7aee0aafc21fcd6", "fusion_lon": 0.0, "bike_id": "71cda188cd8ba0d0b7aee0aafc21fcd6", "is_disabled": 0, "is_reserved": 0}, {"rental_uris": {"ios": "https://dc.lft.to/lastmile_qr_scan", "android": "https://dc.lft.to/lastmile_qr_scan"}, "lon": -77.07907183333333, "type": "electric_bike", "fusion_lat": 0.0, "lat": 38.8392915, "name": "cadfcce19968d540f8003213ec86f6f4", "fusion_lon": 0.0, "bike_id": "cadfcce19968d540f8003213ec86f6f4", "is_disabled": 0, "is_reserved": 0}, {"rental_uris": {"ios": "https://dc.lft.to/lastmile_qr_scan", "android": "https://dc.lft.to/lastmile_qr_scan"}, "lon": -77.01289116666666, "type": "electric_scooter", "fusion_lat": 0.0, "lat": 38.915376, "name": "79861cf7e70d2a8f27aeb45b7370cee9", "fusion_lon": 0.0, "bike_id": "79861cf7e70d2a8f27aeb45b7370cee9", "is_disabled": 0, "is_reserved": 0}, {"rental_uris": {"ios": "https://dc.lft.to/lastmile_qr_scan", "android": "https://dc.lft.to/lastmile_qr_scan"}, "lon": -77.00542016666667, "type": "electric_scooter", "fusion_lat": 0.0, "lat": 38.8745575, "name": "3753327d42282fdf832035b3456d228a", "fusion_lon": 0.0, "bike_id": "3753327d42282fdf832035b3456d228a", "is_disabled": 0, "is_reserved": 0}, {"rental_uris": {"ios": "https://dc.lft.to/lastmile_qr_scan", "android": "https://dc.lft.to/lastmile_qr_scan"}, "lon": -76.98087133333334, "type": "electric_bike", "fusion_lat": 0.0, "lat": 38.90282633333333, "name": "8dff1ba6e33d82c226f3383541ecff24", "fusion_lon": 0.0, "bike_id": "8dff1ba6e33d82c226f3383541ecff24", "is_disabled": 0, "is_reserved": 0}, {"rental_uris": {"ios": "https://dc.lft.to/lastmile_qr_scan", "android": "https://dc.lft.to/lastmile_qr_scan"}, "lon": -77.11923216666666, "type": "electric_bike", "fusion_lat": 0.0, "lat": 38.84098216666667, "name": "892caac97bdfd232218d38f9f8f9dc57", "fusion_lon": 0.0, "bike_id": "892caac97bdfd232218d38f9f8f9dc57", "is_disabled": 0, "is_reserved": 0}, {"rental_uris": {"ios": "https://dc.lft.to/lastmile_qr_scan", "android": "https://dc.lft.to/lastmile_qr_scan"}, "lon": -76.93617066666667, "type": "electric_bike", "fusion_lat": 0.0, "lat": 38.970650166666665, "name": "da0d51345116d5a2a1774702ba4a90b9", "fusion_lon": 0.0, "bike_id": "da0d51345116d5a2a1774702ba4a90b9", "is_disabled": 0, "is_reserved": 0}, {"rental_uris": {"ios": "https://dc.lft.to/lastmile_qr_scan", "android": "https://dc.lft.to/lastmile_qr_scan"}, "lon": -77.03206233333333, "type": "electric_scooter", "fusion_lat": 0.0, "lat": 38.91673766666667, "name": "cd4a3019c9dec3ce438df75d39c31929", "fusion_lon": 0.0, "bike_id": "cd4a3019c9dec3ce438df75d39c31929", "is_disabled": 0, "is_reserved": 0}, {"rental_uris": {"ios": "https://dc.lft.to/lastmile_qr_scan", "android": "https://dc.lft.to/lastmile_qr_scan"}, "lon": -77.00767066666667, "type": "electric_scooter", "fusion_lat": 0.0, "lat": 38.871123, "name": "3cccfac950ecba9cf4c097145fd1639a", "fusion_lon": 0.0, "bike_id": "3cccfac950ecba9cf4c097145fd1639a", "is_disabled": 0, "is_reserved": 0}, {"rental_uris": {"ios": "https://dc.lft.to/lastmile_qr_scan", "android": "https://dc.lft.to/lastmile_qr_scan"}, "lon": -76.94630383333333, "type": "electric_scooter", "fusion_lat": 0.0, "lat": 38.898433833333335, "name": "4052cd0184057226ef380854b1fdcf53", "fusion_lon": 0.0, "bike_id": "4052cd0184057226ef380854b1fdcf53", "is_disabled": 0, "is_reserved": 0}, {"rental_uris": {"ios": "https://dc.lft.to/lastmile_qr_scan", "android": "https://dc.lft.to/lastmile_qr_scan"}, "lon": -76.96564083333334, "type": "electric_scooter", "fusion_lat": 0.0, "lat": 38.918622, "name": "fd23548bca3f0782b84b8fb6c42b825a", "fusion_lon": 0.0, "bike_id": "fd23548bca3f0782b84b8fb6c42b825a", "is_disabled": 0, "is_reserved": 0}, {"rental_uris": {"ios": "https://dc.lft.to/lastmile_qr_scan", "android": "https://dc.lft.to/lastmile_qr_scan"}, "lon": -77.03232333333334, "type": "electric_scooter", "fusion_lat": 0.0, "lat": 38.914015166666665, "name": "53a00a5f37572d0701c23e79a8e18385", "fusion_lon": 0.0, "bike_id": "53a00a5f37572d0701c23e79a8e18385", "is_disabled": 0, "is_reserved": 0}, {"rental_uris": {"ios": "https://dc.lft.to/lastmile_qr_scan", "android": "https://dc.lft.to/lastmile_qr_scan"}, "lon": -76.9834765, "type": "electric_scooter", "fusion_lat": 0.0, "lat": 38.915332666666664, "name": "9c177a74b85f4792c963fa4a84fb486c", "fusion_lon": 0.0, "bike_id": "9c177a74b85f4792c963fa4a84fb486c", "is_disabled": 0, "is_reserved": 0}, {"rental_uris": {"ios": "https://dc.lft.to/lastmile_qr_scan", "android": "https://dc.lft.to/lastmile_qr_scan"}, "lon": -77.03217716666667, "type": "electric_scooter", "fusion_lat": 0.0, "lat": 38.911949, "name": "ca0678cf0e1ff0e9edc895348de8c824", "fusion_lon": 0.0, "bike_id": "ca0678cf0e1ff0e9edc895348de8c824", "is_disabled": 0, "is_reserved": 0}, {"rental_uris": {"ios": "https://dc.lft.to/lastmile_qr_scan", "android": "https://dc.lft.to/lastmile_qr_scan"}, "lon": -77.02186433333334, "type": "electric_scooter", "fusion_lat": 0.0, "lat": 38.8841435, "name": "50543e7a94a3aa9c848c9b014069f04e", "fusion_lon": 0.0, "bike_id": "50543e7a94a3aa9c848c9b014069f04e", "is_disabled": 0, "is_reserved": 0}, {"rental_uris": {"ios": "https://dc.lft.to/lastmile_qr_scan", "android": "https://dc.lft.to/lastmile_qr_scan"}, "lon": -77.023501, "type": "electric_scooter", "fusion_lat": 0.0, "lat": 38.91547716666667, "name": "03b68b018b97926532e4607d16809a66", "fusion_lon": 0.0, "bike_id": "03b68b018b97926532e4607d16809a66", "is_disabled": 0, "is_reserved": 0}, {"rental_uris": {"ios": "https://dc.lft.to/lastmile_qr_scan", "android": "https://dc.lft.to/lastmile_qr_scan"}, "lon": -77.00251433333334, "type": "electric_scooter", "fusion_lat": 0.0, "lat": 38.919191833333336, "name": "f20771c3466ede4538cd82a889b9e227", "fusion_lon": 0.0, "bike_id": "f20771c3466ede4538cd82a889b9e227", "is_disabled": 0, "is_reserved": 0}, {"rental_uris": {"ios": "https://dc.lft.to/lastmile_qr_scan", "android": "https://dc.lft.to/lastmile_qr_scan"}, "lon": -77.04125833333333, "type": "electric_scooter", "fusion_lat": 0.0, "lat": 38.9188865, "name": "b3eb93007fee38df468b1d70ea7d8da9", "fusion_lon": 0.0, "bike_id": "b3eb93007fee38df468b1d70ea7d8da9", "is_disabled": 0, "is_reserved": 0}, {"rental_uris": {"ios": "https://dc.lft.to/lastmile_qr_scan", "android": "https://dc.lft.to/lastmile_qr_scan"}, "lon": -77.03206166666666, "type": "electric_scooter", "fusion_lat": 0.0, "lat": 38.91990966666667, "name": "fea1be8bf2e337f22fc4a47e5c72ca7e", "fusion_lon": 0.0, "bike_id": "fea1be8bf2e337f22fc4a47e5c72ca7e", "is_disabled": 0, "is_reserved": 0}, {"rental_uris": {"ios": "https://dc.lft.to/lastmile_qr_scan", "android": "https://dc.lft.to/lastmile_qr_scan"}, "lon": -76.994695, "type": "electric_scooter", "fusion_lat": 0.0, "lat": 38.86209766666666, "name": "862401c09cd637dbf64013fde0109511", "fusion_lon": 0.0, "bike_id": "862401c09cd637dbf64013fde0109511", "is_disabled": 0, "is_reserved": 0}, {"rental_uris": {"ios": "https://dc.lft.to/lastmile_qr_scan", "android": "https://dc.lft.to/lastmile_qr_scan"}, "lon": -76.94998, "type": "electric_scooter", "fusion_lat": 0.0, "lat": 38.893704666666665, "name": "78023571907ae35009a4a7e94961f594", "fusion_lon": 0.0, "bike_id": "78023571907ae35009a4a7e94961f594", "is_disabled": 0, "is_reserved": 0}, {"rental_uris": {"ios": "https://dc.lft.to/lastmile_qr_scan", "android": "https://dc.lft.to/lastmile_qr_scan"},