{"data": {"bikes": [{"name": "e31d9e7cebee889dfc7e77f268915c5d", "is_disabled": 0, "fusion_lat": 0.0, "fusion_lon": 0.0, "type": "electric_scooter", "lat": 38.91682433333333, "bike_id": "e31d9e7cebee889dfc7e77f268915c5d", "is_reserved": 0, "lon": -77.02973133333333, "rental_uris": {"android": "https://dc.lft.to/lastmile_qr_scan", "ios": "https://dc.lft.to/lastmile_qr_scan"}}, {"name": "fd0a69f4c0a18854c8389b693715613e", "is_disabled": 0, "fusion_lat": 0.0, "fusion_lon": 0.0, "type": "electric_scooter", "lat": 38.88881816666667, "bike_id": "fd0a69f4c0a18854c8389b693715613e", "is_reserved": 0, "lon": -76.94779533333333, "rental_uris": {"android": "https://dc.lft.to/lastmile_qr_scan", "ios": "https://dc.lft.to/lastmile_qr_scan"}}, {"name": "2ff2187280929cff01fb22ddd595a5f1", "is_disabled": 0, "fusion_lat": 0.0, "fusion_lon": 0.0, "type": "electric_scooter", "lat": 38.97723916666666, "bike_id": "2ff2187280929cff01fb22ddd595a5f1", "is_reserved": 0, "lon": -77.01729616666667, "rental_uris": {"android": "https://dc.lft.to/lastmile_qr_scan", "ios": "https://dc.lft.to/lastmile_qr_scan"}}, {"name": "5982e48a4b39948e2c672b984f4a9188", "is_disabled": 0, "fusion_lat": 0.0, "fusion_lon": 0.0, "type": "electric_scooter", "lat": 38.887366, "bike_id": "5982e48a4b39948e2c672b984f4a9188", "is_reserved": 0, "lon": -77.02206383333333, "rental_uris": {"android": "https://dc.lft.to/lastmile_qr_scan", "ios": "https://dc.lft.to/lastmile_qr_scan"}}, {"name": "78172937d7bfcf35108cdc76c5d456a9", "is_disabled": 0, "fusion_lat": 0.0, "fusion_lon": 0.0, "type": "electric_bike", "lat": 38.97322, "bike_id": "78172937d7bfcf35108cdc76c5d456a9", "is_reserved": 0, "lon": -77.03427983333333, "rental_uris": {"android": "https://dc.lft.to/lastmile_qr_scan", "ios": "https://dc.lft.to/lastmile_qr_scan"}}, {"name": "5456b1285155898a453e7b231f137627", "is_disabled": 0, "fusion_lat": 0.0, "fusion_lon": 0.0, "type": "electric_scooter", "lat": 38.8932, "bike_id": "5456b1285155898a453e7b231f137627", "is_reserved": 0, "lon": -77.01796416666667, "rental_uris": {"android": "https://dc.lft.to/lastmile_qr_scan", "ios": "https://dc.lft.to/lastmile_qr_scan"}}, {"name": "f9a07aaaee2b3c8bcd34ed17472bc07b", "is_disabled": 0, "fusion_lat": 0.0, "fusion_lon": 0.0, "type": "electric_scooter", "lat": 38.91115116666667, "bike_id": "f9a07aaaee2b3c8bcd34ed17472bc07b", "is_reserved": 0, "lon": -77.00363766666666, "rental_uris": {"android": "https://dc.lft.to/lastmile_qr_scan", "ios": "https://dc.lft.to/lastmile_qr_scan"}}, {"name": "653b6dced264addb98ffbe56a8fbbbaa", "is_disabled": 0, "fusion_lat": 0.0, "fusion_lon": 0.0, "type": "electric_bike", "lat": 38.796756, "bike_id": "653b6dced264addb98ffbe56a8fbbbaa", "is_reserved": 0, "lon": -76.99332716666666, "rental_uris": {"android": "https://dc.lft.to/lastmile_qr_scan", "ios": "https://dc.lft.to/lastmile_qr_scan"}}, {"name": "bf71aaa1d7bf2c243744dcd2712f6344", "is_disabled": 0, "fusion_lat": 0.0, "fusion_lon": 0.0, "type": "electric_scooter", "lat": 38.885922666666666, "bike_id": "bf71aaa1d7bf2c243744dcd2712f6344", "is_reserved": 0, "lon": -77.00580566666666, "rental_uris": {"android": "https://dc.lft.to/lastmile_qr_scan", "ios": "https://dc.lft.to/lastmile_qr_scan"}}, {"name": "fc5fe1974aa89a405a0637caca78d63a", "is_disabled": 0, "fusion_lat": 0.0, "fusion_lon": 0.0, "type": "electric_bike", "lat": 38.80655633333333, "bike_id": "fc5fe1974aa89a405a0637caca78d63a", "is_reserved": 0, "lon": -77.08762016666667, "rental_uris": {"android": "https://dc.lft.to/lastmile_qr_scan", "ios": "https://dc.lft.to/lastmile_qr_scan"}}, {"name": "64a9ce2754fac9cb7fa2ea174d260f7f", "is_disabled": 0, "fusion_lat": 0.0, "fusion_lon": 0.0, "type": "electric_scooter", "lat": 38.950721333333334, "bike_id": "64a9ce2754fac9cb7fa2ea174d260f7f", "is_reserved": 0, "lon": -76.99565216666667, "rental_uris": {"android": "https://dc.lft.to/lastmile_qr_scan", "ios": "https://dc.lft.to/lastmile_qr_scan"}}, {"name": "e3fe0bbbe4c6f07c699ddd73500e0185", "is_disabled": 0, "fusion_lat": 0.0, "fusion_lon": 0.0, "type": "electric_bike", "lat": 38.92948916666667, "bike_id": "e3fe0bbbe4c6f07c699ddd73500e0185", "is_reserved": 0, "lon": -77.22569333333334, "rental_uris": {"android": "https://dc.lft.to/lastmile_qr_scan", "ios": "https://dc.lft.to/lastmile_qr_scan"}}, {"name": "06561c068419059b02bdbc0ec664814c", "is_disabled": 0, "fusion_lat": 0.0, "fusion_lon": 0.0, "type": "electric_scooter", "lat": 38.90824716666667, "bike_id": "06561c068419059b02bdbc0ec664814c", "is_reserved": 0, "lon": -77.07411966666666, "rental_uris": {"android": "https://dc.lft.to/lastmile_qr_scan", "ios": "https://dc.lft.to/lastmile_qr_scan"}}, {"name": "95f139390849e974b7a2c2bc54c8c279", "is_disabled": 0, "fusion_lat": 0.0, "fusion_lon": 0.0, "type": "electric_scooter", "lat": 38.90235283333333, "bike_id": "95f139390849e974b7a2c2bc54c8c279", "is_reserved": 0, "lon": -77.02691916666667, "rental_uris": {"android": "https://dc.lft.to/lastmile_qr_scan", "ios": "https://dc.lft.to/lastmile_qr_scan"}}, {"name": "cbd1ab6529172ed888123b4eaaf24550", "is_disabled": 0, "fusion_lat": 0.0, "fusion_lon": 0.0, "type": "electric_scooter", "lat": 38.904021666666665, "bike_id": "cbd1ab6529172ed888123b4eaaf24550", "is_reserved": 0, "lon": -77.04333333333334, "rental_uris": {"android": "https://dc.lft.to/lastmile_qr_scan", "ios": "https://dc.lft.to/lastmile_qr_scan"}}, {"name": "4b7e1734f8fe5142f19187209de2fadd", "is_disabled": 0, "fusion_lat": 0.0, "fusion_lon": 0.0, "type": "electric_scooter", "lat": 38.90368183333333, "bike_id": "4b7e1734f8fe5142f19187209de2fadd", "is_reserved": 0, "lon": -77.039407, "rental_uris": {"android": "https://dc.lft.to/lastmile_qr_scan", "ios": "https://dc.lft.to/lastmile_qr_scan"}}, {"name": "f4701621b8eb33315af0a47d3361bb23", "is_disabled": 0, "fusion_lat": 0.0, "fusion_lon": 0.0, "type": "electric_scooter", "lat": 38.895405833333335, "bike_id": "f4701621b8eb33315af0a47d3361bb23", "is_reserved": 0, "lon": -77.0565925, "rental_uris": {"android": "https://dc.lft.to/lastmile_qr_scan", "ios": "https://dc.lft.to/lastmile_qr_scan"}}, {"name": "bb4e0779b70fbd080d7257407d7fef31", "is_disabled": 0, "fusion_lat": 0.0, "fusion_lon": 0.0, "type": "electric_scooter", "lat": 38.908313166666666, "bike_id": "bb4e0779b70fbd080d7257407d7fef31", "is_reserved": 0, "lon": -77.03318283333333, "rental_uris": {"android": "https://dc.lft.to/lastmile_qr_scan", "ios": "https://dc.lft.to/lastmile_qr_scan"}}, {"name": "2d56f42d39c00e7e9714ce6ec6ce85c5", "is_disabled": 0, "fusion_lat": 0.0, "fusion_lon": 0.0, "type": "electric_bike", "lat": 38.908422333333334, "bike_id": "2d56f42d39c00e7e9714ce6ec6ce85c5", "is_reserved": 0, "lon": -77.04025316666667, "rental_uris": {"android": "https://dc.lft.to/lastmile_qr_scan", "ios": "https://dc.lft.to/lastmile_qr_scan"}}, {"name": "4ed5d5d857bf70971a0be04efb710966", "is_disabled": 0, "fusion_lat": 0.0, "fusion_lon": 0.0, "type": "electric_scooter", "lat": 38.90557, "bike_id": "4ed5d5d857bf70971a0be04efb710966", "is_reserved": 0, "lon": -77.041949, "rental_uris": {"android": "https://dc.lft.to/lastmile_qr_scan", "ios": "https://dc.lft.to/lastmile_qr_scan"}}, {"name": "84bdd674a992093fa620842e68840b15", "is_disabled": 0, "fusion_lat": 0.0, "fusion_lon": 0.0, "type": "electric_scooter", "lat": 38.90842, "bike_id": "84bdd674a992093fa620842e68840b15", "is_reserved": 0, "lon": -77.03939033333333, "rental_uris": {"android": "https://dc.lft.to/lastmile_qr_scan", "ios": "https://dc.lft.to/lastmile_qr_scan"}}, {"name": "9d8c9dc37c3968b0a9e673bde8942ca5", "is_disabled": 0, "fusion_lat": 0.0, "fusion_lon": 0.0, "type": "electric_scooter", "lat": 38.93958516666667, "bike_id": "9d8c9dc37c3968b0a9e673bde8942ca5", "is_reserved": 0, "lon": -77.02751383333333, "rental_uris": {"android": "https://dc.lft.to/lastmile_qr_scan", "ios": "https://dc.lft.to/lastmile_qr_scan"}}, {"name": "c5fc3be4e6df1a24deef6418279d9564", "is_disabled": 0, "fusion_lat": 0.0, "fusion_lon": 0.0, "type": "electric_scooter", "lat": 38.87794866666667, "bike_id": "c5fc3be4e6df1a24deef6418279d9564", "is_reserved": 0, "lon": -76.930963, "rental_uris": {"android": "https://dc.lft.to/lastmile_qr_scan", "ios": "https://dc.lft.to/lastmile_qr_scan"}}, {"name": "f2ef27302cf7fc8b46f8d3479aa87f48", "is_disabled": 0, "fusion_lat": 0.0, "fusion_lon": 0.0, "type": "electric_scooter", "lat": 38.9149195, "bike_id": "f2ef27302cf7fc8b46f8d3479aa87f48", "is_reserved": 0, "lon": -77.01855866666666, "rental_uris": {"android": "https://dc.lft.to/lastmile_qr_scan", "ios": "https://dc.lft.to/lastmile_qr_scan"}}, {"name": "1ef1415018bccc7da58d3b7fd2517f1b", "is_disabled": 0, "fusion_lat": 0.0, "fusion_lon": 0.0, "type": "electric_scooter", "lat": 38.91721416666667, "bike_id": "1ef1415018bccc7da58d3b7fd2517f1b", "is_reserved": 0, "lon": -77.0297475, "rental_uris": {"android": "https://dc.lft.to/lastmile_qr_scan", "ios": "https://dc.lft.to/lastmile_qr_scan"}}, {"name": "064472c0e39769a1c7fc5fc8096f8edb", "is_disabled": 0, "fusion_lat": 0.0, "fusion_lon": 0.0, "type": "electric_scooter", "lat": 38.90142916666667, "bike_id": "064472c0e39769a1c7fc5fc8096f8edb", "is_reserved": 0, "lon": -77.04618933333333, "rental_uris": {"android": "https://dc.lft.to/lastmile_qr_scan", "ios": "https://dc.lft.to/lastmile_qr_scan"}}, {"name": "ed2661bf7105de58c033d0ce2f03caad", "is_disabled": 0, "fusion_lat": 0.0, "fusion_lon": 0.0, "type": "electric_scooter", "lat": 38.86504466666667, "bike_id": "ed2661bf7105de58c033d0ce2f03caad", "is_reserved": 0, "lon": -76.990048, "rental_uris": {"android": "https://dc.lft.to/lastmile_qr_scan", "ios": "https://dc.lft.to/lastmile_qr_scan"}}, {"name": "24409a2e652533abd3e9445cbd0eeee8", "is_disabled": 0, "fusion_lat": 0.0, "fusion_lon": 0.0, "type": "electric_scooter", "lat": 38.923263666666664, "bike_id": "24409a2e652533abd3e9445cbd0eeee8", "is_reserved": 0, "lon": -77.04312016666667, "rental_uris": {"android": "https://dc.lft.to/lastmile_qr_scan", "ios": "https://dc.lft.to/lastmile_qr_scan"}}, {"name": "3e5216d9e92d93a246052b0e7bcbf200", "is_disabled": 0, "fusion_lat": 0.0, "fusion_lon": 0.0, "type": "electric_scooter", "lat": 38.905682166666665, "bike_id": "3e5216d9e92d93a246052b0e7bcbf200", "is_reserved": 0, "lon": -77.04162916666667, "rental_uris": {"android": "https://dc.lft.to/lastmile_qr_scan", "ios": "https://dc.lft.to/lastmile_qr_scan"}}, {"name": "bcbc0780f9035e5db00ddf963a4d753f", "is_disabled": 0, "fusion_lat": 0.0, "fusion_lon": 0.0, "type": "electric_scooter", "lat": 38.910351166666665, "bike_id": "bcbc0780f9035e5db00ddf963a4d753f", "is_reserved": 0, "lon": -76.99342233333333, "rental_uris": {"android": "https://dc.lft.to/lastmile_qr_scan", "ios": "https://dc.lft.to/lastmile_qr_scan"}}, {"name": "9c2084c10d024614e7d6a9b5d70c976c", "is_disabled": 0, "fusion_lat": 0.0, "fusion_lon": 0.0, "type": "electric_scooter", "lat": 38.93539883333333, "bike_id": "9c2084c10d024614e7d6a9b5d70c976c", "is_reserved": 0, "lon": -77.057487, "rental_uris": {"android": "https://dc.lft.to/lastmile_qr_scan", "ios": "https://dc.lft.to/lastmile_qr_scan"}}, {"name": "cb205b1de3581f8b875a179c0d0dab21", "is_disabled": 0, "fusion_lat": 0.0, "fusion_lon": 0.0, "type": "electric_scooter", "lat": 38.92054266666667, "bike_id": "cb205b1de3581f8b875a179c0d0dab21", "is_reserved": 0, "lon": -77.0298585, "rental_uris": {"android": "https://dc.lft.to/lastmile_qr_scan", "ios": "https://dc.lft.to/lastmile_qr_scan"}}, {"name": "a3ce23ba76d6ce8f2248eef054849ab2", "is_disabled": 0, "fusion_lat": 0.0, "fusion_lon": 0.0, "type": "electric_scooter", "lat": 38.9294465, "bike_id": "a3ce23ba76d6ce8f2248eef054849ab2", "is_reserved": 0, "lon": -77.05503516666667, "rental_uris": {"android": "https://dc.lft.to/lastmile_qr_scan", "ios": "https://dc.lft.to/lastmile_qr_scan"}}, {"name": "93b2aea829a2339dba1cc7317c125f79", "is_disabled": 0, "fusion_lat": 0.0, "fusion_lon": 0.0, "type": "electric_scooter", "lat": 38.8921875, "bike_id": "93b2aea829a2339dba1cc7317c125f79", "is_reserved": 0, "lon": -77.04262466666667, "rental_uris": {"android": "https://dc.lft.to/lastmile_qr_scan", "ios": "https://dc.lft.to/lastmile_qr_scan"}}, {"name": "585f73c29a163b881710cee7c8c9fb6c", "is_disabled": 0, "fusion_lat": 0.0, "fusion_lon": 0.0, "type": "electric_scooter", "lat": 38.93161416666667, "bike_id": "585f73c29a163b881710cee7c8c9fb6c", "is_reserved": 0, "lon": -77.05606916666666, "rental_uris": {"android": "https://dc.lft.to/lastmile_qr_scan", "ios": "https://dc.lft.to/lastmile_qr_scan"}}, {"name": "b31ea9440fe3cf91b317dfcacbcc93ec", "is_disabled": 0, "fusion_lat": 0.0, "fusion_lon": 0.0, "type": "electric_scooter", "lat": 38.922583, "bike_id": "b31ea9440fe3cf91b317dfcacbcc93ec", "is_reserved": 0, "lon": -77.019469, "rental_uris": {"android": "https://dc.lft.to/lastmile_qr_scan", "ios": "https://dc.lft.to/lastmile_qr_scan"}}, {"name": "fb1aa8d829c83b439d0ba6535dfff0b3", "is_disabled": 0, "fusion_lat": 0.0, "fusion_lon": 0.0, "type": "electric_scooter", "lat": 38.917935666666665, "bike_id": "fb1aa8d829c83b439d0ba6535dfff0b3", "is_reserved": 0, "lon": -77.0228935, "rental_uris": {"android": "https://dc.lft.to/lastmile_qr_scan", "ios": "https://dc.lft.to/lastmile_qr_scan"}}, {"name": "ffd9bb3f51dcbb179cc40d08260296ec", "is_disabled": 0, "fusion_lat": 0.0, "fusion_lon": 0.0, "type": "electric_scooter", "lat": 38.90525183333333, "bike_id": "ffd9bb3f51dcbb179cc40d08260296ec", "is_reserved": 0, "lon": -77.06380116666666, "rental_uris": {"android": "https://dc.lft.to/lastmile_qr_scan", "ios": "https://dc.lft.to/lastmile_qr_scan"}}, {"name": "7f8b5c57d8eff7ff5cd3c3e837824662", "is_disabled": 0, "fusion_lat": 0.0, "fusion_lon": 0.0, "type": "electric_scooter", "lat": 38.9117255, "bike_id": "7f8b5c57d8eff7ff5cd3c3e837824662", "is_reserved": 0, "lon": -77.04444416666666, "rental_uris": {"android": "https://dc.lft.to/lastmile_qr_scan", "ios": "https://dc.lft.to/lastmile_qr_scan"}}, {"name": "da9862113a6d475a2c10b602748f37b4", "is_disabled": 0, "fusion_lat": 0.0, "fusion_lon": 0.0, "type": "electric_scooter", "lat": 38.90080566666666, "bike_id": "da9862113a6d475a2c10b602748f37b4", "is_reserved": 0, "lon": -77.05064716666666, "rental_uris": {"android": "https://dc.lft.to/lastmile_qr_scan", "ios": "https://dc.lft.to/lastmile_qr_scan"}}, {"name": "f09d6000abce00595fa9c5fb136ef4e4", "is_disabled": 0, "fusion_lat": 0.0, "fusion_lon": 0.0, "type": "electric_scooter", "lat": 38.9169255, "bike_id": "f09d6000abce00595fa9c5fb136ef4e4", "is_reserved": 0, "lon": -77.02598316666666, "rental_uris": {"android": "https://dc.lft.to/lastmile_qr_scan", "ios": "https://dc.lft.to/lastmile_qr_scan"}}, {"name": "13c370531abbe94576103c1bf653fb71", "is_disabled": 0, "fusion_lat": 0.0, "fusion_lon": 0.0, "type": "electric_scooter", "lat": 38.906851333333336, "bike_id": "13c370531abbe94576103c1bf653fb71", "is_reserved": 0, "lon": -77.04331983333333, "rental_uris": {"android": "https://dc.lft.to/lastmile_qr_scan", "ios": "https://dc.lft.to/lastmile_qr_scan"}}, {"name": "6d12a1a767db1a98afe2141453ebb3a9", "is_disabled": 0, "fusion_lat": 0.0, "fusion_lon": 0.0, "type": "electric_scooter", "lat": 38.9232405, "bike_id": "6d12a1a767db1a98afe2141453ebb3a9", "is_reserved": 0, "lon": -76.9989725, "rental_uris": {"android": "https://dc.lft.to/lastmile_qr_scan", "ios": "https://dc.lft.to/lastmile_qr_scan"}}, {"name": "01c510eee95cd4abac504a568deeeede", "is_disabled": 0, "fusion_lat": 0.0, "fusion_lon": 0.0, "type": "electric_scooter", "lat": 38.88024983333333, "bike_id": "01c510eee95cd4abac504a568deeeede", "is_reserved": 0, "lon": -76.98478083333333, "rental_uris": {"android": "https://dc.lft.to/lastmile_qr_scan", "ios": "https://dc.lft.to/lastmile_qr_scan"}}, {"name": "06876fefab54b2cde0f494aeecbfd9c2", "is_disabled": 0, "fusion_lat": 0.0, "fusion_lon": 0.0, "type": "electric_bike", "lat": 38.88244133333333, "bike_id": "06876fefab54b2cde0f494aeecbfd9c2", "is_reserved": 0, "lon": -76.96254266666666, "rental_uris": {"android": "https://dc.lft.to/lastmile_qr_scan", "ios": "https://dc.lft.to/lastmile_qr_scan"}}, {"name": "0adf29534050dd8002de6b7f1c84279a", "is_disabled": 0, "fusion_lat": 0.0, "fusion_lon": 0.0, "type": "electric_scooter", "lat": 38.905781833333336, "bike_id": "0adf29534050dd8002de6b7f1c84279a", "is_reserved": 0, "lon": -77.008886, "rental_uris": {"android": "https://dc.lft.to/lastmile_qr_scan", "ios": "https://dc.lft.to/lastmile_qr_scan"}}, {"name": "6a793221be637eb94644cc280e6971ab", "is_disabled": 0, "fusion_lat": 0.0, "fusion_lon": 0.0, "type": "electric_scooter", "lat": 38.8804865, "bike_id": "6a793221be637eb94644cc280e6971ab", "is_reserved": 0, "lon": -77.005745, "rental_uris": {"android": "https://dc.lft.to/lastmile_qr_scan", "ios": "https://dc.lft.to/lastmile_qr_scan"}}, {"name": "a33b46c4b04252af94efc4cb31c2a11f", "is_disabled": 0, "fusion_lat": 0.0, "fusion_lon": 0.0, "type": "electric_scooter", "lat": 38.9006475, "bike_id": "a33b46c4b04252af94efc4cb31c2a11f", "is_reserved": 0, "lon": -77.048459, "rental_uris": {"android": "https://dc.lft.to/lastmile_qr_scan", "ios": "https://dc.lft.to/lastmile_qr_scan"}}, {"name": "6681b2242a29099fd9174b8e89aa26f2", "is_disabled": 0, "fusion_lat": 0.0, "fusion_lon": 0.0, "type": "electric_scooter", "lat": 38.911457166666665, "bike_id": "6681b2242a29099fd9174b8e89aa26f2", "is_reserved": 0, "lon": -77.00440566666667, "rental_uris": {"android": "https://dc.lft.to/lastmile_qr_scan", "ios": "https://dc.lft.to/lastmile_qr_scan"}}, {"name": "7fbc6859947bb1cccc0af93a4d5ef2b2", "is_disabled": 0, "fusion_lat": 0.0, "fusion_lon": 0.0, "type": "electric_scooter", "lat": 38.919293333333336, "bike_id": "7fbc6859947bb1cccc0af93a4d5ef2b2", "is_reserved": 0, "lon": -77.0241955, "rental_uris": {"android": "https://dc.lft.to/lastmile_qr_scan", "ios": "https://dc.lft.to/lastmile_qr_scan"}}, {"name": "a249c60f7ac4e5832c17814d53734e4d", "is_disabled": 0, "fusion_lat": 0.0, "fusion_lon": 0.0, "type": "electric_scooter", "lat": 38.9085355, "bike_id": "a249c60f7ac4e5832c17814d53734e4d", "is_reserved": 0, "lon": -77.04047916666667, "rental_uris": {"android": "https://dc.lft.to/lastmile_qr_scan", "ios": "https://dc.lft.to/lastmile_qr_scan"}}, {"name": "13de8cfab15ad1ec28ac58a428965e5c", "is_disabled": 0, "fusion_lat": 0.0, "fusion_lon": 0.0, "type": "electric_scooter", "lat": 38.90415316666667, "bike_id": "13de8cfab15ad1ec28ac58a428965e5c", "is_reserved": 0, "lon": -77.05326766666667, "rental_uris": {"android": "https://dc.lft.to/lastmile_qr_scan", "ios": "https://dc.lft.to/lastmile_qr_scan"}}, {"name": "5e5aabf18489df3575305489aaac09d8", "is_disabled": 0, "fusion_lat": 0.0, "fusion_lon": 0.0, "type": "electric_scooter", "lat": 38.9045155, "bike_id": "5e5aabf18489df3575305489aaac09d8", "is_reserved": 0, "lon": -77.03243883333333, "rental_uris": {"android": "https://dc.lft.to/lastmile_qr_scan", "ios": "https://dc.lft.to/lastmile_qr_scan"}}, {"name": "ae6372c19b48f5b118a643aaa42e2aa7", "is_disabled": 0, "fusion_lat": 0.0, "fusion_lon": 0.0, "type": "electric_scooter", "lat": 38.9167975, "bike_id": "ae6372c19b48f5b118a643aaa42e2aa7", "is_reserved": 0, "lon": -77.02971, "rental_uris": {"android": "https://dc.lft.to/lastmile_qr_scan", "ios": "https://dc.lft.to/lastmile_qr_scan"}}, {"name": "45ba9df19d1e51247fc463fb597ada52", "is_disabled": 0, "fusion_lat": 0.0, "fusion_lon": 0.0, "type": "electric_scooter", "lat": 38.898576, "bike_id": "45ba9df19d1e51247fc463fb597ada52", "is_reserved": 0, "lon": -76.99017666666667, "rental_uris": {"android": "https://dc.lft.to/lastmile_qr_scan", "ios": "https://dc.lft.to/lastmile_qr_scan"}}, {"name": "451a660b6f09f00fe0049c50ec4a64a9", "is_disabled": 0, "fusion_lat": 0.0, "fusion_lon": 0.0, "type": "electric_scooter", "lat": 38.884901166666666, "bike_id": "451a660b6f09f00fe0049c50ec4a64a9", "is_reserved": 0, "lon": -77.00712983333334, "rental_uris": {"android": "https://dc.lft.to/lastmile_qr_scan", "ios": "https://dc.lft.to/lastmile_qr_scan"}}, {"name": "357d694d83158248dab72715267c38f6", "is_disabled": 0, "fusion_lat": 0.0, "fusion_lon": 0.0, "type": "electric_scooter", "lat": 38.89219533333333, "bike_id": "357d694d83158248dab72715267c38f6", "is_reserved": 0, "lon": -77.0430915, "rental_uris": {"android": "https://dc.lft.to/lastmile_qr_scan", "ios": "https://dc.lft.to/lastmile_qr_scan"}}, {"name": "ba36721adf6cb3b6780dd39cffeecb70", "is_disabled": 0, "fusion_lat": 0.0, "fusion_lon": 0.0, "type": "electric_scooter", "lat": 38.892292833333336, "bike_id": "ba36721adf6cb3b6780dd39cffeecb70", "is_reserved": 0, "lon": -77.04500233333333, "rental_uris": {"android": "https://dc.lft.to/lastmile_qr_scan", "ios": "https://dc.lft.to/lastmile_qr_scan"}}, {"name": "d1ab87c4453ca41394a56632ec7ee306", "is_disabled": 0, "fusion_lat": 0.0, "fusion_lon": 0.0, "type": "electric_scooter", "lat": 38.934269666666665, "bike_id": "d1ab87c4453ca41394a56632ec7ee306", "is_reserved": 0, "lon": -77.039967, "rental_uris": {"android": "https://dc.lft.to/lastmile_qr_scan", "ios": "https://dc.lft.to/lastmile_qr_scan"}}, {"name": "4bcc052f9de2a6ecd943905160faed84", "is_disabled": 0, "fusion_lat": 0.0, "fusion_lon": 0.0, "type": "electric_scooter", "lat": 38.90749733333333, "bike_id": "4bcc052f9de2a6ecd943905160faed84", "is_reserved": 0, "lon": -77.0455575, "rental_uris": {"android": "https://dc.lft.to/lastmile_qr_scan", "ios": "https://dc.lft.to/lastmile_qr_scan"}}, {"name": "f497531dc73af874caef387a5ae6a1c6", "is_disabled": 0, "fusion_lat": 0.0, "fusion_lon": 0.0, "type": "electric_scooter", "lat": 38.90478683333333, "bike_id": "f497531dc73af874caef387a5ae6a1c6", "is_reserved": 0, "lon": -77.03556266666666, "rental_uris": {"android": "https://dc.lft.to/lastmile_qr_scan", "ios": "https://dc.lft.to/lastmile_qr_scan"}}, {"name": "9c704b6e3e31c97e4a6fa64895899574", "is_disabled": 0, "fusion_lat": 0.0, "fusion_lon": 0.0, "type": "electric_scooter", "lat": 38.902313166666666, "bike_id": "9c704b6e3e31c97e4a6fa64895899574", "is_reserved": 0, "lon": -76.98930216666666, "rental_uris": {"android": "https://dc.lft.to/lastmile_qr_scan", "ios": "https://dc.lft.to/lastmile_qr_scan"}}, {"name": "68088deed1e367038e2616751abba5a4", "is_disabled": 0, "fusion_lat": 0.0, "fusion_lon": 0.0, "type": "electric_scooter", "lat": 38.915011666666665, "bike_id": "68088deed1e367038e2616751abba5a4", "is_reserved": 0, "lon": -77.03639666666666, "rental_uris": {"android": "https://dc.lft.to/lastmile_qr_scan", "ios": "https://dc.lft.to/lastmile_qr_scan"}}, {"name": "f5f0257d51a2645f66e3332e45c80927", "is_disabled": 0, "fusion_lat": 0.0, "fusion_lon": 0.0, "type": "electric_scooter", "lat": 38.9038515, "bike_id": "f5f0257d51a2645f66e3332e45c80927", "is_reserved": 0, "lon": -77.03828516666667, "rental_uris": {"android": "https://dc.lft.to/lastmile_qr_scan", "ios": "https://dc.lft.to/lastmile_qr_scan"}}, {"name": "6e515ae90c321cedccf015a5d348ca7e", "is_disabled": 0, "fusion_lat": 0.0, "fusion_lon": 0.0, "type": "electric_scooter", "lat": 38.90015983333333, "bike_id": "6e515ae90c321cedccf015a5d348ca7e", "is_reserved": 0, "lon": -77.003057, "rental_uris": {"android": "https://dc.lft.to/lastmile_qr_scan", "ios": "https://dc.lft.to/lastmile_qr_scan"}}, {"name": "95a3cc5f20b521c76f2f4ad02b127e37", "is_disabled": 0, "fusion_lat": 0.0, "fusion_lon": 0.0, "type": "electric_scooter", "lat": 38.902593, "bike_id": "95a3cc5f20b521c76f2f4ad02b127e37", "is_reserved": 0, "lon": -77.03893116666667, "rental_uris": {"android": "https://dc.lft.to/lastmile_qr_scan", "ios": "https://dc.lft.to/lastmile_qr_scan"}}, {"name": "93abc466beca52487f2d31dcb59572b9", "is_disabled": 0, "fusion_lat": 0.0, "fusion_lon": 0.0, "type": "electric_scooter", "lat": 38.90406616666667, "bike_id": "93abc466beca52487f2d31dcb59572b9", "is_reserved": 0, "lon": -77.03429566666667, "rental_uris": {"android": "https://dc.lft.to/lastmile_qr_scan", "ios": "https://dc.lft.to/lastmile_qr_scan"}}, {"name": "7832ab30edbed19e2992606047f44a44", "is_disabled": 0, "fusion_lat": 0.0, "fusion_lon": 0.0, "type": "electric_scooter", "lat": 38.92048283333333, "bike_id": "7832ab30edbed19e2992606047f44a44", "is_reserved": 0, "lon": -77.0418585, "rental_uris": {"android": "https://dc.lft.to/lastmile_qr_scan", "ios": "https://dc.lft.to/lastmile_qr_scan"}}, {"name": "e37db2e7bdc1b1b5fe41ea23fbf420b5", "is_disabled": 0, "fusion_lat": 0.0, "fusion_lon": 0.0, "type": "electric_scooter", "lat": 38.914502, "bike_id": "e37db2e7bdc1b1b5fe41ea23fbf420b5", "is_reserved": 0, "lon": -77.022094, "rental_uris": {"android": "https://dc.lft.to/lastmile_qr_scan", "ios": "https://dc.lft.to/lastmile_qr_scan"}}, {"name": "fbb59592c8e6198260d942e76bf62941", "is_disabled": 0, "fusion_lat": 0.0, "fusion_lon": 0.0, "type": "electric_scooter", "lat": 38.95523, "bike_id": "fbb59592c8e6198260d942e76bf62941", "is_reserved": 0, "lon": -77.02216116666666, "rental_uris": {"android": "https://dc.lft.to/lastmile_qr_scan", "ios": "https://dc.lft.to/lastmile_qr_scan"}}, {"name": "5ec32572203674e91dd05eabdd0ab508", "is_disabled": 0, "fusion_lat": 0.0, "fusion_lon": 0.0, "type": "electric_scooter", "lat": 38.906497, "bike_id": "5ec32572203674e91dd05eabdd0ab508", "is_reserved": 0, "lon": -77.04657466666667, "rental_uris": {"android": "https://dc.lft.to/lastmile_qr_scan", "ios": "https://dc.lft.to/lastmile_qr_scan"}}, {"name": "0dbb2d2141f427c34b571a714fb9cb57", "is_disabled": 0, "fusion_lat": 0.0, "fusion_lon": 0.0, "type": "electric_scooter", "lat": 38.900654, "bike_id": "0dbb2d2141f427c34b571a714fb9cb57", "is_reserved": 0, "lon": -77.04887083333334, "rental_uris": {"android": "https://dc.lft.to/lastmile_qr_scan", "ios": "https://dc.lft.to/lastmile_qr_scan"}}, {"name": "cc81ba0a1ef04cbf80e2f196edeea376", "is_disabled": 0, "fusion_lat": 0.0, "fusion_lon": 0.0, "type": "electric_scooter", "lat": 38.911169, "bike_id": "cc81ba0a1ef04cbf80e2f196edeea376", "is_reserved": 0, "lon": -77.03148433333334, "rental_uris": {"android": "https://dc.lft.to/lastmile_qr_scan", "ios": "https://dc.lft.to/lastmile_qr_scan"}}, {"name": "6489794079f2aa90e2a9d1db490c1090", "is_disabled": 0, "fusion_lat": 0.0, "fusion_lon": 0.0, "type": "electric_scooter", "lat": 38.9226675, "bike_id": "6489794079f2aa90e2a9d1db490c1090", "is_reserved": 0, "lon": -77.01916466666667, "rental_uris": {"android": "https://dc.lft.to/lastmile_qr_scan", "ios": "https://dc.lft.to/lastmile_qr_scan"}}, {"name": "ccd8ef15c6b62449ab3bffdfdb2b7a85", "is_disabled": 0, "fusion_lat": 0.0, "fusion_lon": 0.0, "type": "electric_bike", "lat": 38.857864, "bike_id": "ccd8ef15c6b62449ab3bffdfdb2b7a85", "is_reserved": 0, "lon": -77.12019666666667, "rental_uris": {"android": "https://dc.lft.to/lastmile_qr_scan", "ios": "https://dc.lft.to/lastmile_qr_scan"}}, {"name": "377d80e03be8585ca0cef2deedbefb0c", "is_disabled": 0, "fusion_lat": 0.0, "fusion_lon": 0.0, "type": "electric_scooter", "lat": 38.905613833333334, "bike_id": "377d80e03be8585ca0cef2deedbefb0c", "is_reserved": 0, "lon": -77.02509266666667, "rental_uris": {"android": "https://dc.lft.to/lastmile_qr_scan", "ios": "https://dc.lft.to/lastmile_qr_scan"}}, {"name": "e070dae5a348d2ab880e47ffec0d7976", "is_disabled": 0, "fusion_lat": 0.0, "fusion_lon": 0.0, "type": "electric_bike", "lat": 38.8787085, "bike_id": "e070dae5a348d2ab880e47ffec0d7976", "is_reserved": 0, "lon": -76.99017116666667, "rental_uris": {"android": "https://dc.lft.to/lastmile_qr_scan", "ios": "https://dc.lft.to/lastmile_qr_scan"}}, {"name": "8eaf2e7985aea909807c74c2a3f7234c", "is_disabled": 0, "fusion_lat": 0.0, "fusion_lon": 0.0, "type": "electric_scooter", "lat": 38.89469783333333, "bike_id": "8eaf2e7985aea909807c74c2a3f7234c", "is_reserved": 0, "lon": -76.9496255, "rental_uris": {"android": "https://dc.lft.to/lastmile_qr_scan", "ios": "https://dc.lft.to/lastmile_qr_scan"}}, {"name": "865fab0e6589e18fe864e60b2b6e31b7", "is_disabled": 0, "fusion_lat": 0.0, "fusion_lon": 0.0, "type": "electric_scooter", "lat": 38.9056625, "bike_id": "865fab0e6589e18fe864e60b2b6e31b7", "is_reserved": 0, "lon": -77.043325, "rental_uris": {"android": "https://dc.lft.to/lastmile_qr_scan", "ios": "https://dc.lft.to/lastmile_qr_scan"}}, {"name": "72b05447565a008c58763ef8a1510459", "is_disabled": 0, "fusion_lat": 0.0, "fusion_lon": 0.0, "type": "electric_scooter", "lat": 38.900359, "bike_id": "72b05447565a008c58763ef8a1510459", "is_reserved": 0, "lon": -76.996277, "rental_uris": {"android": "https://dc.lft.to/lastmile_qr_scan", "ios": "https://dc.lft.to/lastmile_qr_scan"}}, {"name": "a76f1ebf781a25255f84d8cbb7e9c3ab", "is_disabled": 0, "fusion_lat": 0.0, "fusion_lon": 0.0, "type": "electric_scooter", "lat": 38.9092695, "bike_id": "a76f1ebf781a25255f84d8cbb7e9c3ab", "is_reserved": 0, "lon": -77.07274066666666, "rental_uris": {"android": "https://dc.lft.to/lastmile_qr_scan", "ios": "https://dc.lft.to/lastmile_qr_scan"}}, {"name": "fa3339a1310b1fc8b65d5448e88aa044", "is_disabled": 0, "fusion_lat": 0.0, "fusion_lon": 0.0, "type": "electric_scooter", "lat": 38.893138, "bike_id": "fa3339a1310b1fc8b65d5448e88aa044", "is_reserved": 0, "lon": -76.93980533333334, "rental_uris": {"android": "https://dc.lft.to/lastmile_qr_scan", "ios": "https://dc.lft.to/lastmile_qr_scan"}}, {"name": "5025303dd6919c5357fae8be2df28081", "is_disabled": 0, "fusion_lat": 0.0, "fusion_lon": 0.0, "type": "electric_scooter", "lat": 38.92136466666667, "bike_id": "5025303dd6919c5357fae8be2df28081", "is_reserved": 0, "lon": -77.0251915, "rental_uris": {"android": "https://dc.lft.to/lastmile_qr_scan", "ios": "https://dc.lft.to/lastmile_qr_scan"}}, {"name": "fc085c92b9aa084bf46f03c52db202b5", "is_disabled": 0, "fusion_lat": 0.0, "fusion_lon": 0.0, "type": "electric_scooter", "lat": 38.9013485, "bike_id": "fc085c92b9aa084bf46f03c52db202b5", "is_reserved": 0, "lon": -77.013122, "rental_uris": {"android": "https://dc.lft.to/lastmile_qr_scan", "ios": "https://dc.lft.to/lastmile_qr_scan"}}, {"name": "3fe8dea8eaa06cdd55852d62e6a45b78", "is_disabled": 0, "fusion_lat": 0.0, "fusion_lon": 0.0, "type": "electric_scooter", "lat": 38.8506375, "bike_id": "3fe8dea8eaa06cdd55852d62e6a45b78", "is_reserved": 0, "lon": -76.97008016666666, "rental_uris": {"android": "https://dc.lft.to/lastmile_qr_scan", "ios": "https://dc.lft.to/lastmile_qr_scan"}}, {"name": "20c960a1290a9681b2bfc5cd27c242a8", "is_disabled": 0, "fusion_lat": 0.0, "fusion_lon": 0.0, "type": "electric_scooter", "lat": 38.92857266666667, "bike_id": "20c960a1290a9681b2bfc5cd27c242a8", "is_reserved": 0, "lon": -77.03191183333334, "rental_uris": {"android": "https://dc.lft.to/lastmile_qr_scan", "ios": "https://dc.lft.to/lastmile_qr_scan"}}, {"name": "8eaa76799d6d3cbe5f8ce03bf631744e", "is_disabled": 0, "fusion_lat": 0.0, "fusion_lon": 0.0, "type": "electric_scooter", "lat": 38.9265705, "bike_id": "8eaa76799d6d3cbe5f8ce03bf631744e", "is_reserved": 0, "lon": -77.03728166666667, "rental_uris": {"android": "https://dc.lft.to/lastmile_qr_scan", "ios": "https://dc.lft.to/lastmile_qr_scan"}}, {"name": "459c56097f3ec9716e89a4ca356db400", "is_disabled": 0, "fusion_lat": 0.0, "fusion_lon": 0.0, "type": "electric_scooter", "lat": 38.917456333333334, "bike_id": "459c56097f3ec9716e89a4ca356db400", "is_reserved": 0, "lon": -77.0363985, "rental_uris": {"android": "https://dc.lft.to/lastmile_qr_scan", "ios": "https://dc.lft.to/lastmile_qr_scan"}}, {"name": "160f2f024da33428c9821c3378ebeaa7", "is_disabled": 0, "fusion_lat": 0.0, "fusion_lon": 0.0, "type": "electric_scooter", "lat": 38.95066333333333, "bike_id": "160f2f024da33428c9821c3378ebeaa7", "is_reserved": 0, "lon": -77.06535933333333, "rental_uris": {"android": "https://dc.lft.to/lastmile_qr_scan", "ios": "https://dc.lft.to/lastmile_qr_scan"}}, {"name": "c3d4c842bf248044fcd03523ac5aaaac", "is_disabled": 0, "fusion_lat": 0.0, "fusion_lon": 0.0, "type": "electric_scooter", "lat": 38.8998055, "bike_id": "c3d4c842bf248044fcd03523ac5aaaac", "is_reserved": 0, "lon": -77.0201765, "rental_uris": {"android": "https://dc.lft.to/lastmile_qr_scan", "ios": "https://dc.lft.to/lastmile_qr_scan"}}, {"name": "98c836e2179ac5e2f25d6e862203559e", "is_disabled": 0, "fusion_lat": 0.0, "fusion_lon": 0.0, "type": "electric_scooter", "lat": 38.91727016666667, "bike_id": "98c836e2179ac5e2f25d6e862203559e", "is_reserved": 0, "lon": -77.04093683333333, "rental_uris": {"android": "https://dc.lft.to/lastmile_qr_scan", "ios": "https://dc.lft.to/lastmile_qr_scan"}}, {"name": "82cf89ec5ce50abd7ec6fe0f4483ec54", "is_disabled": 0, "fusion_lat": 0.0, "fusion_lon": 0.0, "type": "electric_scooter", "lat": 38.919155833333335, "bike_id": "82cf89ec5ce50abd7ec6fe0f4483ec54", "is_reserved": 0, "lon": -77.03019866666666, "rental_uris": {"android": "https://dc.lft.to/lastmile_qr_scan", "ios": "https://dc.lft.to/lastmile_qr_scan"}}, {"name": "8d754e7d607672b88759770c625a05ca", "is_disabled": 0, "fusion_lat": 0.0, "fusion_lon": 0.0, "type": "electric_scooter", "lat": 38.91994116666667, "bike_id": "8d754e7d607672b88759770c625a05ca", "is_reserved": 0, "lon": -77.02147783333334, "rental_uris": {"android": "https://dc.lft.to/lastmile_qr_scan", "ios": "https://dc.lft.to/lastmile_qr_scan"}}, {"name": "41805e546ee63d351f4f8e5e23020e15", "is_disabled": 0, "fusion_lat": 0.0, "fusion_lon": 0.0, "type": "electric_scooter", "lat": 38.90043716666667, "bike_id": "41805e546ee63d351f4f8e5e23020e15", "is_reserved": 0, "lon": -77.043358, "rental_uris": {"android": "https://dc.lft.to/lastmile_qr_scan", "ios": "https://dc.lft.to/lastmile_qr_scan"}}, {"name": "d7c8598afe0baed9eb4ccf3b1a91a1c0", "is_disabled": 0, "fusion_lat": 0.0, "fusion_lon": 0.0, "type": "electric_scooter", "lat": 38.9261775, "bike_id": "d7c8598afe0baed9eb4ccf3b1a91a1c0", "is_reserved": 0, "lon": -77.04328283333334, "rental_uris": {"android": "https://dc.lft.to/lastmile_qr_scan", "ios": "https://dc.lft.to/lastmile_qr_scan"}}, {"name": "b0e82db0d722e97e07ea915226904e54", "is_disabled": 0, "fusion_lat": 0.0, "fusion_lon": 0.0, "type": "electric_scooter", "lat": 38.909708333333334, "bike_id": "b0e82db0d722e97e07ea915226904e54", "is_reserved": 0, "lon": -77.0385855, "rental_uris": {"android": "https://dc.lft.to/lastmile_qr_scan", "ios": "https://dc.lft.to/lastmile_qr_scan"}}, {"name": "cadb01d8d989762cbebe6ee9d05fb1e1", "is_disabled": 0, "fusion_lat": 0.0, "fusion_lon": 0.0, "type": "electric_bike", "lat": 38.837221, "bike_id": "cadb01d8d989762cbebe6ee9d05fb1e1", "is_reserved": 0, "lon": -76.997672, "rental_uris": {"android": "https://dc.lft.to/lastmile_qr_scan", "ios": "https://dc.lft.to/lastmile_qr_scan"}}, {"name": "0c414da99b4b9916f1782f601f4e6e5e", "is_disabled": 0, "fusion_lat": 0.0, "fusion_lon": 0.0, "type": "electric_bike", "lat": 38.995291333333334, "bike_id": "0c414da99b4b9916f1782f601f4e6e5e", "is_reserved": 0, "lon": -77.06939466666667, "rental_uris": {"android": "https://dc.lft.to/lastmile_qr_scan", "ios": "https://dc.lft.to/lastmile_qr_scan"}}, {"name": "de0fe07f81ba50fd7d3cbb742fffed7a", "is_disabled": 0, "fusion_lat": 0.0, "fusion_lon": 0.0, "type": "electric_scooter", "lat": 38.895042333333336, "bike_id": "de0fe07f81ba50fd7d3cbb742fffed7a", "is_reserved": 0, "lon": -76.93477416666667, "rental_uris": {"android": "https://dc.lft.to/lastmile_qr_scan", "ios": "https://dc.lft.to/lastmile_qr_scan"}}, {"name": "c77d3c9eb2ca5bf498ce5114d6c5b118", "is_disabled": 0, "fusion_lat": 0.0, "fusion_lon": 0.0, "type": "electric_scooter", "lat": 38.91627783333333, "bike_id": "c77d3c9eb2ca5bf498ce5114d6c5b118", "is_reserved": 0, "lon": -77.0135175, "rental_uris": {"android": "https://dc.lft.to/lastmile_qr_scan", "ios": "https://dc.lft.to/lastmile_qr_scan"}}, {"name": "21d2eb2c2226ee5bde96178aa03d55cf", "is_disabled": 0, "fusion_lat": 0.0, "fusion_lon": 0.0, "type": "electric_bike", "lat": 38.882152, "bike_id": "21d2eb2c2226ee5bde96178aa03d55cf", "is_reserved": 0, "lon": -77.11726416666667, "rental_uris": {"android": "https://dc.lft.to/lastmile_qr_scan", "ios": "https://dc.lft.to/lastmile_qr_scan"}}, {"name": "dca12b0d7a887c662b548f332558b14a", "is_disabled": 0, "fusion_lat": 0.0, "fusion_lon": 0.0, "type": "electric_scooter", "lat": 38.903373, "bike_id": "dca12b0d7a887c662b548f332558b14a", "is_reserved": 0, "lon": -77.04659133333334, "rental_uris": {"android": "https://dc.lft.to/lastmile_qr_scan", "ios": "https://dc.lft.to/lastmile_qr_scan"}}, {"name": "33298faa59878a770f3fb74b13c4dfc9", "is_disabled": 0, "fusion_lat": 0.0, "fusion_lon": 0.0, "type": "electric_scooter", "lat": 38.9220755, "bike_id": "33298faa59878a770f3fb74b13c4dfc9", "is_reserved": 0, "lon": -77.04256, "rental_uris": {"android": "https://dc.lft.to/lastmile_qr_scan", "ios": "https://dc.lft.to/lastmile_qr_scan"}}, {"name": "e36c163fabc7285cf35d0d92d2cc52a0", "is_disabled": 0, "fusion_lat": 0.0, "fusion_lon": 0.0, "type": "electric_scooter", "lat": 38.9039505, "bike_id": "e36c163fabc7285cf35d0d92d2cc52a0", "is_reserved": 0, "lon": -77.03429383333334, "rental_uris": {"android": "https://dc.lft.to/lastmile_qr_scan", "ios": "https://dc.lft.to/lastmile_qr_scan"}}, {"name": "e12a5d746ffd6f22a5e7290c21bceb08", "is_disabled": 0, "fusion_lat": 0.0, "fusion_lon": 0.0, "type": "electric_scooter", "lat": 38.90271633333333, "bike_id": "e12a5d746ffd6f22a5e7290c21bceb08", "is_reserved": 0, "lon": -77.039692, "rental_uris": {"android": "https://dc.lft.to/lastmile_qr_scan", "ios": "https://dc.lft.to/lastmile_qr_scan"}}, {"name": "09f41cc1ea071961db0afad5613cb4b6", "is_disabled": 0, "fusion_lat": 0.0, "fusion_lon": 0.0, "type": "electric_scooter", "lat": 38.9023485, "bike_id": "09f41cc1ea071961db0afad5613cb4b6", "is_reserved": 0, "lon": -77.04339466666667, "rental_uris": {"android": "https://dc.lft.to/lastmile_qr_scan", "ios": "https://dc.lft.to/lastmile_qr_scan"}}, {"name": "fe7465ce2477a64144b6ab54264700ee", "is_disabled": 0, "fusion_lat": 0.0, "fusion_lon": 0.0, "type": "electric_bike", "lat": 38.855639833333335, "bike_id": "fe7465ce2477a64144b6ab54264700ee", "is_reserved": 0, "lon": -77.08194933333333, "rental_uris": {"android": "https://dc.lft.to/lastmile_qr_scan", "ios": "https://dc.lft.to/lastmile_qr_scan"}}, {"name": "f0a22da318a9d60557f3ac9167bdc3e2", "is_disabled": 0, "fusion_lat": 0.0, "fusion_lon": 0.0, "type": "electric_scooter", "lat": 38.907824, "bike_id": "f0a22da318a9d60557f3ac9167bdc3e2", "is_reserved": 0, "lon": -77.07254733333333, "rental_uris": {"android": "https://dc.lft.to/lastmile_qr_scan", "ios": "https://dc.lft.to/lastmile_qr_scan"}}, {"name": "79255ed0a51cd3ce5bcb66e68e8147e0", "is_disabled": 0, "fusion_lat": 0.0, "fusion_lon": 0.0, "type": "electric_scooter", "lat": 38.9028725, "bike_id": "79255ed0a51cd3ce5bcb66e68e8147e0", "is_reserved": 0, "lon": -77.0580605, "rental_uris": {"android": "https://dc.lft.to/lastmile_qr_scan", "ios": "https://dc.lft.to/lastmile_qr_scan"}}, {"name": "214cdb185ebb750cf7e2c38c6f7dc562", "is_disabled": 0, "fusion_lat": 0.0, "fusion_lon": 0.0, "type": "electric_bike", "lat": 39.057872833333334, "bike_id": "214cdb185ebb750cf7e2c38c6f7dc562", "is_reserved": 0, "lon": -77.1502775, "rental_uris": {"android": "https://dc.lft.to/lastmile_qr_scan", "ios": "https://dc.lft.to/lastmile_qr_scan"}}, {"name": "c1a76c58aeaa59f3967a8d36b04ec50b", "is_disabled": 0, "fusion_lat": 0.0, "fusion_lon": 0.0, "type": "electric_scooter", "lat": 38.930375833333336, "bike_id": "c1a76c58aeaa59f3967a8d36b04ec50b", "is_reserved": 0, "lon": -77.03803783333333, "rental_uris": {"android": "https://dc.lft.to/lastmile_qr_scan", "ios": "https://dc.lft.to/lastmile_qr_scan"}}, {"name": "c6294a0017bd285857f5a1c058fbbf60", "is_disabled": 0, "fusion_lat": 0.0, "fusion_lon": 0.0, "type": "electric_scooter", "lat": 38.9532595, "bike_id": "c6294a0017bd285857f5a1c058fbbf60", "is_reserved": 0, "lon": -77.0706995, "rental_uris": {"android": "https://dc.lft.to/lastmile_qr_scan", "ios": "https://dc.lft.to/lastmile_qr_scan"}}, {"name": "bcbb6cd0f7b8d662b1cc8b86f97df817", "is_disabled": 0, "fusion_lat": 0.0, "fusion_lon": 0.0, "type": "electric_scooter", "lat": 38.921504666666664, "bike_id": "bcbb6cd0f7b8d662b1cc8b86f97df817", "is_reserved": 0, "lon": -77.03312766666667, "rental_uris": {"android": "https://dc.lft.to/lastmile_qr_scan", "ios": "https://dc.lft.to/lastmile_qr_scan"}}, {"name": "c7a59380e1e9423d12e750237a5a28a3", "is_disabled": 0, "fusion_lat": 0.0, "fusion_lon": 0.0, "type": "electric_scooter", "lat": 38.895195666666666, "bike_id": "c7a59380e1e9423d12e750237a5a28a3", "is_reserved": 0, "lon": -77.039587, "rental_uris": {"android": "https://dc.lft.to/lastmile_qr_scan", "ios": "https://dc.lft.to/lastmile_qr_scan"}}, {"name": "f443942d0dba1d180f20c51cc5761a27", "is_disabled": 0, "fusion_lat": 0.0, "fusion_lon": 0.0, "type": "electric_scooter", "lat": 38.910580333333336, "bike_id": "f443942d0dba1d180f20c51cc5761a27", "is_reserved": 0, "lon": -77.04103566666667, "rental_uris": {"android": "https://dc.lft.to/lastmile_qr_scan", "ios": "https://dc.lft.to/lastmile_qr_scan"}}, {"name": "05e0561f4f518d67d293734560431919", "is_disabled": 0, "fusion_lat": 0.0, "fusion_lon": 0.0, "type": "electric_scooter", "lat": 38.90236483333333, "bike_id": "05e0561f4f518d67d293734560431919", "is_reserved": 0, "lon": -77.001995, "rental_uris": {"android": "https://dc.lft.to/lastmile_qr_scan", "ios": "https://dc.lft.to/lastmile_qr_scan"}}, {"name": "41d22e5fdc7c91dbed01ab115787ebe5", "is_disabled": 0, "fusion_lat": 0.0, "fusion_lon": 0.0, "type": "electric_bike", "lat": 38.883342999999996, "bike_id": "41d22e5fdc7c91dbed01ab115787ebe5", "is_reserved": 0, "lon": -77.06566916666667, "rental_uris": {"android": "https://dc.lft.to/lastmile_qr_scan", "ios": "https://dc.lft.to/lastmile_qr_scan"}}, {"name": "251b04b34a4a90fcd070866798918d6f", "is_disabled": 0, "fusion_lat": 0.0, "fusion_lon": 0.0, "type": "electric_scooter", "lat": 38.90854366666667, "bike_id": "251b04b34a4a90fcd070866798918d6f", "is_reserved": 0, "lon": -77.0426485, "rental_uris": {"android": "https://dc.lft.to/lastmile_qr_scan", "ios": "https://dc.lft.to/lastmile_qr_scan"}}, {"name": "ebeaf482eec9818a51c5e6c435caa28c", "is_disabled": 0, "fusion_lat": 0.0, "fusion_lon": 0.0, "type": "electric_bike", "lat": 39.054949666666666, "bike_id": "ebeaf482eec9818a51c5e6c435caa28c", "is_reserved": 0, "lon": -77.11788016666667, "rental_uris": {"android": "https://dc.lft.to/lastmile_qr_scan", "ios": "https://dc.lft.to/lastmile_qr_scan"}}, {"name": "36a74a4c82a4e722dd327977fde740f6", "is_disabled": 0, "fusion_lat": 0.0, "fusion_lon": 0.0, "type": "electric_scooter", "lat": 38.92659466666667, "bike_id": "36a74a4c82a4e722dd327977fde740f6", "is_reserved": 0, "lon": -77.00872416666667, "rental_uris": {"android": "https://dc.lft.to/lastmile_qr_scan", "ios": "https://dc.lft.to/lastmile_qr_scan"}}, {"name": "555c2c4043c4bf85a4c8f815fe015999", "is_disabled": 0, "fusion_lat": 0.0, "fusion_lon": 0.0, "type": "electric_scooter", "lat": 38.90644483333333, "bike_id": "555c2c4043c4bf85a4c8f815fe015999", "is_reserved": 0, "lon": -77.0512155, "rental_uris": {"android": "https://dc.lft.to/lastmile_qr_scan", "ios": "https://dc.lft.to/lastmile_qr_scan"}}, {"name": "0e53b84cb1799bde6344dfc0059172f0", "is_disabled": 0, "fusion_lat": 0.0, "fusion_lon": 0.0, "type": "electric_bike", "lat": 39.0342375, "bike_id": "0e53b84cb1799bde6344dfc0059172f0", "is_reserved": 0, "lon": -77.04097933333334, "rental_uris": {"android": "https://dc.lft.to/lastmile_qr_scan", "ios": "https://dc.lft.to/lastmile_qr_scan"}}, {"name": "9da335be1304a8c32e96281ead2bb67e", "is_disabled": 0, "fusion_lat": 0.0, "fusion_lon": 0.0, "type": "electric_scooter", "lat": 38.914744, "bike_id": "9da335be1304a8c32e96281ead2bb67e", "is_reserved": 0, "lon": -77.04496483333334, "rental_uris": {"android": "https://dc.lft.to/lastmile_qr_scan", "ios": "https://dc.lft.to/lastmile_qr_scan"}}, {"name": "5d1b9e1e98dad52fc8aac1d5eafd8f6c", "is_disabled": 0, "fusion_lat": 0.0, "fusion_lon": 0.0, "type": "electric_scooter", "lat": 38.878433666666666, "bike_id": "5d1b9e1e98dad52fc8aac1d5eafd8f6c", "is_reserved": 0, "lon": -77.03023766666666, "rental_uris": {"android": "https://dc.lft.to/lastmile_qr_scan", "ios": "https://dc.lft.to/lastmile_qr_scan"}}, {"name": "d3c2295af22773b0514086337e586f7f", "is_disabled": 0, "fusion_lat": 0.0, "fusion_lon": 0.0, "type": "electric_scooter", "lat": 38.895095, "bike_id": "d3c2295af22773b0514086337e586f7f", "is_reserved": 0, "lon": -77.02859016666666, "rental_uris": {"android": "https://dc.lft.to/lastmile_qr_scan", "ios": "https://dc.lft.to/lastmile_qr_scan"}}, {"name": "d9d35ca600b74ed2b6b09f4d82d10ca4", "is_disabled": 0, "fusion_lat": 0.0, "fusion_lon": 0.0, "type": "electric_bike", "lat": 38.87090366666666, "bike_id": "d9d35ca600b74ed2b6b09f4d82d10ca4", "is_reserved": 0, "lon": -77.012079, "rental_uris": {"android": "https://dc.lft.to/lastmile_qr_scan", "ios": "https://dc.lft.to/lastmile_qr_scan"}}, {"name": "7e3e24c5b113843ca0901b572fd55220", "is_disabled": 0, "fusion_lat": 0.0, "fusion_lon": 0.0, "type": "electric_scooter", "lat": 38.911082, "bike_id": "7e3e24c5b113843ca0901b572fd55220", "is_reserved": 0, "lon": -77.03141383333333, "rental_uris": {"android": "https://dc.lft.to/lastmile_qr_scan", "ios": "https://dc.lft.to/lastmile_qr_scan"}}, {"name": "b732e8438b12154d7b65ad89d44b6440", "is_disabled": 0, "fusion_lat": 0.0, "fusion_lon": 0.0, "type": "electric_scooter", "lat": 38.914925333333336, "bike_id": "b732e8438b12154d7b65ad89d44b6440", "is_reserved": 0, "lon": -77.01859216666666, "rental_uris": {"android": "https://dc.lft.to/lastmile_qr_scan", "ios": "https://dc.lft.to/lastmile_qr_scan"}}, {"name": "91e446cb0211907aa858fac66f07d5f4", "is_disabled": 0, "fusion_lat": 0.0, "fusion_lon": 0.0, "type": "electric_scooter", "lat": 38.951241, "bike_id": "91e446cb0211907aa858fac66f07d5f4", "is_reserved": 0, "lon": -77.01361516666667, "rental_uris": {"android": "https://dc.lft.to/lastmile_qr_scan", "ios": "https://dc.lft.to/lastmile_qr_scan"}}, {"name": "8e1c74a61e33ea09b363ba9227d5d950", "is_disabled": 0, "fusion_lat": 0.0, "fusion_lon": 0.0, "type": "electric_scooter", "lat": 38.93563266666666, "bike_id": "8e1c74a61e33ea09b363ba9227d5d950", "is_reserved": 0, "lon": -77.07315083333333, "rental_uris": {"android": "https://dc.lft.to/lastmile_qr_scan", "ios": "https://dc.lft.to/lastmile_qr_scan"}}, {"name": "ab6e80042c0394b272efe3ccdaca5779", "is_disabled": 0, "fusion_lat": 0.0, "fusion_lon": 0.0, "type": "electric_scooter", "lat": 38.90165, "bike_id": "ab6e80042c0394b272efe3ccdaca5779", "is_reserved": 0, "lon": -76.98067583333334, "rental_uris": {"android": "https://dc.lft.to/lastmile_qr_scan", "ios": "https://dc.lft.to/lastmile_qr_scan"}}, {"name": "e592a305e9c249894a5f3afd0bcd4a66", "is_disabled": 0, "fusion_lat": 0.0, "fusion_lon": 0.0, "type": "electric_scooter", "lat": 38.933826333333336, "bike_id": "e592a305e9c249894a5f3afd0bcd4a66", "is_reserved": 0, "lon": -77.0309255, "rental_uris": {"android": "https://dc.lft.to/lastmile_qr_scan", "ios": "https://dc.lft.to/lastmile_qr_scan"}}, {"name": "0ad612d45d0fd346308b4a60653e3b5e", "is_disabled": 0, "fusion_lat": 0.0, "fusion_lon": 0.0, "type": "electric_scooter", "lat": 38.938626, "bike_id": "0ad612d45d0fd346308b4a60653e3b5e", "is_reserved": 0, "lon": -77.024846, "rental_uris": {"android": "https://dc.lft.to/lastmile_qr_scan", "ios": "https://dc.lft.to/lastmile_qr_scan"}}, {"name": "6c519c0966492b11ca6d1f03313014bb", "is_disabled": 0, "fusion_lat": 0.0, "fusion_lon": 0.0, "type": "electric_scooter", "lat": 38.904471666666666, "bike_id": "6c519c0966492b11ca6d1f03313014bb", "is_reserved": 0, "lon": -76.99623283333334, "rental_uris": {"android": "https://dc.lft.to/lastmile_qr_scan", "ios": "https://dc.lft.to/lastmile_qr_scan"}}, {"name": "463729d6d8bd73221d76aec2fc3264ea", "is_disabled": 0, "fusion_lat": 0.0, "fusion_lon": 0.0, "type": "electric_scooter", "lat": 38.891857333333334, "bike_id": "463729d6d8bd73221d76aec2fc3264ea", "is_reserved": 0, "lon": -77.0033745, "rental_uris": {"android": "https://dc.lft.to/lastmile_qr_scan", "ios": "https://dc.lft.to/lastmile_qr_scan"}}, {"name": "1cfa8f62cb35d8c041ed95de3877554a", "is_disabled": 0, "fusion_lat": 0.0, "fusion_lon": 0.0, "type": "electric_bike", "lat": 38.90034166666667, "bike_id": "1cfa8f62cb35d8c041ed95de3877554a", "is_reserved": 0, "lon": -76.97230783333333, "rental_uris": {"android": "https://dc.lft.to/lastmile_qr_scan", "ios": "https://dc.lft.to/lastmile_qr_scan"}}, {"name": "cb6bf5c5dad223d636f9104258215a7b", "is_disabled": 0, "fusion_lat": 0.0, "fusion_lon": 0.0, "type": "electric_scooter", "lat": 38.92576916666667, "bike_id": "cb6bf5c5dad223d636f9104258215a7b", "is_reserved": 0, "lon": -77.02665666666667, "rental_uris": {"android": "https://dc.lft.to/lastmile_qr_scan", "ios": "https://dc.lft.to/lastmile_qr_scan"}}, {"name": "fd175d72a803e81c6435014b62d075c3", "is_disabled": 0, "fusion_lat": 0.0, "fusion_lon": 0.0, "type": "electric_scooter", "lat": 38.93359316666667, "bike_id": "fd175d72a803e81c6435014b62d075c3", "is_reserved": 0, "lon": -77.08854783333334, "rental_uris": {"android": "https://dc.lft.to/lastmile_qr_scan", "ios": "https://dc.lft.to/lastmile_qr_scan"}}, {"name": "62692774e74197f0b6fcefd5802a2abc", "is_disabled": 0, "fusion_lat": 0.0, "fusion_lon": 0.0, "type": "electric_scooter", "lat": 38.920526833333334, "bike_id": "62692774e74197f0b6fcefd5802a2abc", "is_reserved": 0, "lon": -77.041837, "rental_uris": {"android": "https://dc.lft.to/lastmile_qr_scan", "ios": "https://dc.lft.to/lastmile_qr_scan"}}, {"name": "710547b357bd5eb8abeb330ecba1c05a", "is_disabled": 0, "fusion_lat": 0.0, "fusion_lon": 0.0, "type": "electric_scooter", "lat": 38.9101925, "bike_id": "710547b357bd5eb8abeb330ecba1c05a", "is_reserved": 0, "lon": -77.06491366666667, "rental_uris": {"android": "https://dc.lft.to/lastmile_qr_scan", "ios": "https://dc.lft.to/lastmile_qr_scan"}}, {"name": "b5e666cd1cafa9a7d6c6f1774a6e8596", "is_disabled": 0, "fusion_lat": 0.0, "fusion_lon": 0.0, "type": "electric_scooter", "lat": 38.9001445, "bike_id": "b5e666cd1cafa9a7d6c6f1774a6e8596", "is_reserved": 0, "lon": -77.0002965, "rental_uris": {"android": "https://dc.lft.to/lastmile_qr_scan", "ios": "https://dc.lft.to/lastmile_qr_scan"}}, {"name": "a5141da7eb3c236acffa38635aae7670", "is_disabled": 0, "fusion_lat": 0.0, "fusion_lon": 0.0, "type": "electric_scooter", "lat": 38.9084945, "bike_id": "a5141da7eb3c236acffa38635aae7670", "is_reserved": 0, "lon": -77.03941833333333, "rental_uris": {"android": "https://dc.lft.to/lastmile_qr_scan", "ios": "https://dc.lft.to/lastmile_qr_scan"}}, {"name": "9ceeab150cde28d6bf1800f9d0871120", "is_disabled": 0, "fusion_lat": 0.0, "fusion_lon": 0.0, "type": "electric_scooter", "lat": 38.866552666666664, "bike_id": "9ceeab150cde28d6bf1800f9d0871120", "is_reserved": 0, "lon": -76.98882983333333, "rental_uris": {"android": "https://dc.lft.to/lastmile_qr_scan", "ios": "https://dc.lft.to/lastmile_qr_scan"}}, {"name": "36f445d5fbeb0d04fe34612ab86c3eaa", "is_disabled": 0, "fusion_lat": 0.0, "fusion_lon": 0.0, "type": "electric_scooter", "lat": 38.90238983333333, "bike_id": "36f445d5fbeb0d04fe34612ab86c3eaa", "is_reserved": 0, "lon": -77.026933, "rental_uris": {"android": "https://dc.lft.to/lastmile_qr_scan", "ios": "https://dc.lft.to/lastmile_qr_scan"}}, {"name": "d3fcb94fa678f0e4af105a67c26ddbf2", "is_disabled": 0, "fusion_lat": 0.0, "fusion_lon": 0.0, "type": "electric_scooter", "lat": 38.91815616666667, "bike_id": "d3fcb94fa678f0e4af105a67c26ddbf2", "is_reserved": 0, "lon": -77.036903, "rental_uris": {"android": "https://dc.lft.to/lastmile_qr_scan", "ios": "https://dc.lft.to/lastmile_qr_scan"}}, {"name": "6ca719616936c4ad559e2c3125f44727", "is_disabled": 0, "fusion_lat": 0.0, "fusion_lon": 0.0, "type": "electric_scooter", "lat": 38.906753333333334, "bike_id": "6ca719616936c4ad559e2c3125f44727", "is_reserved": 0, "lon": -77.03835466666666, "rental_uris": {"android": "https://dc.lft.to/lastmile_qr_scan", "ios": "https://dc.lft.to/lastmile_qr_scan"}}, {"name": "52c956d9732691672a30eb0418b34e01", "is_disabled": 0, "fusion_lat": 0.0, "fusion_lon": 0.0, "type": "electric_scooter", "lat": 38.896081, "bike_id": "52c956d9732691672a30eb0418b34e01", "is_reserved": 0, "lon": -77.03173466666667, "rental_uris": {"android": "https://dc.lft.to/lastmile_qr_scan", "ios": "https://dc.lft.to/lastmile_qr_scan"}}, {"name": "ab0d2f1f6eb1d6938c4c862e87cc5cac", "is_disabled": 0, "fusion_lat": 0.0, "fusion_lon": 0.0, "type": "electric_scooter", "lat": 38.904500166666665, "bike_id": "ab0d2f1f6eb1d6938c4c862e87cc5cac", "is_reserved": 0, "lon": -77.037872, "rental_uris": {"android": "https://dc.lft.to/lastmile_qr_scan", "ios": "https://dc.lft.to/lastmile_qr_scan"}}, {"name": "ee558f0d90922f0b2e65a129aee5e250", "is_disabled": 0, "fusion_lat": 0.0, "fusion_lon": 0.0, "type": "electric_bike", "lat": 38.95650416666667, "bike_id": "ee558f0d90922f0b2e65a129aee5e250", "is_reserved": 0, "lon": -77.01281483333334, "rental_uris": {"android": "https://dc.lft.to/lastmile_qr_scan", "ios": "https://dc.lft.to/lastmile_qr_scan"}}, {"name": "0947606607095716c4c95e12668d748d", "is_disabled": 0, "fusion_lat": 0.0, "fusion_lon": 0.0, "type": "electric_scooter", "lat": 38.9006365, "bike_id": "0947606607095716c4c95e12668d748d", "is_reserved": 0, "lon": -77.01508283333334, "rental_uris": {"android": "https://dc.lft.to/lastmile_qr_scan", "ios": "https://dc.lft.to/lastmile_qr_scan"}}, {"name": "d068da1e3a989464109b974d3dddebbe", "is_disabled": 0, "fusion_lat": 0.0, "fusion_lon": 0.0, "type": "electric_bike", "lat": 38.98815366666667, "bike_id": "d068da1e3a989464109b974d3dddebbe", "is_reserved": 0, "lon": -77.0264775, "rental_uris": {"android": "https://dc.lft.to/lastmile_qr_scan", "ios": "https://dc.lft.to/lastmile_qr_scan"}}, {"name": "aa66d04a0a445e50b724a7ea8e316c77", "is_disabled": 0, "fusion_lat": 0.0, "fusion_lon": 0.0, "type": "electric_scooter", "lat": 38.907550666666666, "bike_id": "aa66d04a0a445e50b724a7ea8e316c77", "is_reserved": 0, "lon": -77.03100083333334, "rental_uris": {"android": "https://dc.lft.to/lastmile_qr_scan", "ios": "https://dc.lft.to/lastmile_qr_scan"}}, {"name": "91e52cf968b006b8a548fcd74a4a2fd8", "is_disabled": 0, "fusion_lat": 0.0, "fusion_lon": 0.0, "type": "electric_scooter", "lat": 38.90229266666667, "bike_id": "91e52cf968b006b8a548fcd74a4a2fd8", "is_reserved": 0, "lon": -77.04318116666667, "rental_uris": {"android": "https://dc.lft.to/lastmile_qr_scan", "ios": "https://dc.lft.to/lastmile_qr_scan"}}, {"name": "215f8171f224a31f68f740c1b1d838a5", "is_disabled": 0, "fusion_lat": 0.0, "fusion_lon": 0.0, "type": "electric_scooter", "lat": 38.8849045, "bike_id": "215f8171f224a31f68f740c1b1d838a5", "is_reserved": 0, "lon": -77.00712133333333, "rental_uris": {"android": "https://dc.lft.to/lastmile_qr_scan", "ios": "https://dc.lft.to/lastmile_qr_scan"}}, {"name": "0a31b1f239330df3492d6f412cc3bfc4", "is_disabled": 0, "fusion_lat": 0.0, "fusion_lon": 0.0, "type": "electric_scooter", "lat": 38.884038333333336, "bike_id": "0a31b1f239330df3492d6f412cc3bfc4", "is_reserved": 0, "lon": -76.95401316666667, "rental_uris": {"android": "https://dc.lft.to/lastmile_qr_scan", "ios": "https://dc.lft.to/lastmile_qr_scan"}}, {"name": "58b24abb5c9311e908bdbef292186b1c", "is_disabled": 0, "fusion_lat": 0.0, "fusion_lon": 0.0, "type": "electric_scooter", "lat": 38.901224666666664, "bike_id": "58b24abb5c9311e908bdbef292186b1c", "is_reserved": 0, "lon": -77.04991533333333, "rental_uris": {"android": "https://dc.lft.to/lastmile_qr_scan", "ios": "https://dc.lft.to/lastmile_qr_scan"}}, {"name": "29819f4c8a017c4ae15a27eeb936fea0", "is_disabled": 0, "fusion_lat": 0.0, "fusion_lon": 0.0, "type": "electric_scooter", "lat": 38.9006765, "bike_id": "29819f4c8a017c4ae15a27eeb936fea0", "is_reserved": 0, "lon": -77.00200783333334, "rental_uris": {"android": "https://dc.lft.to/lastmile_qr_scan", "ios": "https://dc.lft.to/lastmile_qr_scan"}}, {"name": "04f097c251cbefe185b3bc24c5430768", "is_disabled": 0, "fusion_lat": 0.0, "fusion_lon": 0.0, "type": "electric_bike", "lat": 38.908326833333334, "bike_id": "04f097c251cbefe185b3bc24c5430768", "is_reserved": 0, "lon": -76.93308716666667, "rental_uris": {"android": "https://dc.lft.to/lastmile_qr_scan", "ios": "https://dc.lft.to/lastmile_qr_scan"}}, {"name": "319c791727bcc16e0b56b0137e1ff6a2", "is_disabled": 0, "fusion_lat": 0.0, "fusion_lon": 0.0, "type": "electric_scooter", "lat": 38.9404085, "bike_id": "319c791727bcc16e0b56b0137e1ff6a2", "is_reserved": 0, "lon": -77.0289745, "rental_uris": {"android": "https://dc.lft.to/lastmile_qr_scan", "ios": "https://dc.lft.to/lastmile_qr_scan"}}, {"name": "e14f61bc53dedf37169ee1fc3db04b54", "is_disabled": 0, "fusion_lat": 0.0, "fusion_lon": 0.0, "type": "electric_scooter", "lat": 38.89270633333334, "bike_id": "e14f61bc53dedf37169ee1fc3db04b54", "is_reserved": 0, "lon": -77.00350933333333, "rental_uris": {"android": "https://dc.lft.to/lastmile_qr_scan", "ios": "https://dc.lft.to/lastmile_qr_scan"}}, {"name": "2dedd2e1fe311b5ae83d031bc91175e2", "is_disabled": 0, "fusion_lat": 0.0, "fusion_lon": 0.0, "type": "electric_bike", "lat": 38.903139833333334, "bike_id": "2dedd2e1fe311b5ae83d031bc91175e2", "is_reserved": 0, "lon": -76.91219566666666, "rental_uris": {"android": "https://dc.lft.to/lastmile_qr_scan", "ios": "https://dc.lft.to/lastmile_qr_scan"}}, {"name": "d16a1fa004678457772d7ea246f7180b", "is_disabled": 0, "fusion_lat": 0.0, "fusion_lon": 0.0, "type": "electric_scooter", "lat": 38.85504066666667, "bike_id": "d16a1fa004678457772d7ea246f7180b", "is_reserved": 0, "lon": -76.98936833333333, "rental_uris": {"android": "https://dc.lft.to/lastmile_qr_scan", "ios": "https://dc.lft.to/lastmile_qr_scan"}}, {"name": "4477795da9f98b972746f4de30432ab3", "is_disabled": 0, "fusion_lat": 0.0, "fusion_lon": 0.0, "type": "electric_scooter", "lat": 38.86470166666667, "bike_id": "4477795da9f98b972746f4de30432ab3", "is_reserved": 0, "lon": -76.97744116666667, "rental_uris": {"android": "https://dc.lft.to/lastmile_qr_scan", "ios": "https://dc.lft.to/lastmile_qr_scan"}}, {"name": "caff3703888f671f0a4a6fd8ee18563f", "is_disabled": 0, "fusion_lat": 0.0, "fusion_lon": 0.0, "type": "electric_scooter", "lat": 38.88513666666667, "bike_id": "caff3703888f671f0a4a6fd8ee18563f", "is_reserved": 0, "lon": -77.00588166666667, "rental_uris": {"android": "https://dc.lft.to/lastmile_qr_scan", "ios": "https://dc.lft.to/lastmile_qr_scan"}}, {"name": "b6f0fc092f691f5f0f0acae119068190", "is_disabled": 0, "fusion_lat": 0.0, "fusion_lon": 0.0, "type": "electric_scooter", "lat": 38.92430866666667, "bike_id": "b6f0fc092f691f5f0f0acae119068190", "is_reserved": 0, "lon": -77.0006955, "rental_uris": {"android": "https://dc.lft.to/lastmile_qr_scan", "ios": "https://dc.lft.to/lastmile_qr_scan"}}, {"name": "650f5ab2053f4ef3a661504167a3694c", "is_disabled": 0, "fusion_lat": 0.0, "fusion_lon": 0.0, "type": "electric_bike", "lat": 38.838288, "bike_id": "650f5ab2053f4ef3a661504167a3694c", "is_reserved": 0, "lon": -77.07914533333333, "rental_uris": {"android": "https://dc.lft.to/lastmile_qr_scan", "ios": "https://dc.lft.to/lastmile_qr_scan"}}, {"name": "b5c7e5c13f26e9f37304a480a281bffd", "is_disabled": 0, "fusion_lat": 0.0, "fusion_lon": 0.0, "type": "electric_bike", "lat": 38.90273833333333, "bike_id": "b5c7e5c13f26e9f37304a480a281bffd", "is_reserved": 0, "lon": -77.01369116666666, "rental_uris": {"android": "https://dc.lft.to/lastmile_qr_scan", "ios": "https://dc.lft.to/lastmile_qr_scan"}}, {"name": "4c936249f2ad293716994240bc2c4c0a", "is_disabled": 0, "fusion_lat": 0.0, "fusion_lon": 0.0, "type": "electric_scooter", "lat": 38.885037, "bike_id": "4c936249f2ad293716994240bc2c4c0a", "is_reserved": 0, "lon": -76.99752733333334, "rental_uris": {"android": "https://dc.lft.to/lastmile_qr_scan", "ios": "https://dc.lft.to/lastmile_qr_scan"}}, {"name": "2878841088b8003cc5a21ed635ea0360", "is_disabled": 0, "fusion_lat": 0.0, "fusion_lon": 0.0, "type": "electric_bike", "lat": 38.85934733333333, "bike_id": "2878841088b8003cc5a21ed635ea0360", "is_reserved": 0, "lon": -77.11827866666667, "rental_uris": {"android": "https://dc.lft.to/lastmile_qr_scan", "ios": "https://dc.lft.to/lastmile_qr_scan"}}, {"name": "e23c3aea32f0913e0c88d6e1d5c9ed2a", "is_disabled": 0, "fusion_lat": 0.0, "fusion_lon": 0.0, "type": "electric_scooter", "lat": 38.9561735, "bike_id": "e23c3aea32f0913e0c88d6e1d5c9ed2a", "is_reserved": 0, "lon": -77.02779216666667, "rental_uris": {"android": "https://dc.lft.to/lastmile_qr_scan", "ios": "https://dc.lft.to/lastmile_qr_scan"}}, {"name": "16ddf6a113f732db55da9d4d6782f423", "is_disabled": 0, "fusion_lat": 0.0, "fusion_lon": 0.0, "type": "electric_scooter", "lat": 38.908363333333334, "bike_id": "16ddf6a113f732db55da9d4d6782f423", "is_reserved": 0, "lon": -77.03842866666666, "rental_uris": {"android": "https://dc.lft.to/lastmile_qr_scan", "ios": "https://dc.lft.to/lastmile_qr_scan"}}, {"name": "03804fd997d9a5e1d415ea357aff3457", "is_disabled": 0, "fusion_lat": 0.0, "fusion_lon": 0.0, "type": "electric_scooter", "lat": 38.92357283333333, "bike_id": "03804fd997d9a5e1d415ea357aff3457", "is_reserved": 0, "lon": -77.05224183333333, "rental_uris": {"android": "https://dc.lft.to/lastmile_qr_scan", "ios": "https://dc.lft.to/lastmile_qr_scan"}}, {"name": "314fd2dcb2343af5c35858c5c81e730d", "is_disabled": 0, "fusion_lat": 0.0, "fusion_lon": 0.0, "type": "electric_bike", "lat": 38.82366783333333, "bike_id": "314fd2dcb2343af5c35858c5c81e730d", "is_reserved": 0, "lon": -77.00215883333334, "rental_uris": {"android": "https://dc.lft.to/lastmile_qr_scan", "ios": "https://dc.lft.to/lastmile_qr_scan"}}, {"name": "33e53ec1d652a37f18ba6fcca9d785af", "is_disabled": 0, "fusion_lat": 0.0, "fusion_lon": 0.0, "type": "electric_scooter", "lat": 38.9441145, "bike_id": "33e53ec1d652a37f18ba6fcca9d785af", "is_reserved": 0, "lon": -77.02020766666666, "rental_uris": {"android": "https://dc.lft.to/lastmile_qr_scan", "ios": "https://dc.lft.to/lastmile_qr_scan"}}, {"name": "25df8b6f8a38d5a197842b1a0b49254f", "is_disabled": 0, "fusion_lat": 0.0, "fusion_lon": 0.0, "type": "electric_scooter", "lat": 38.88609616666667, "bike_id": "25df8b6f8a38d5a197842b1a0b49254f", "is_reserved": 0, "lon": -77.00135383333334, "rental_uris": {"android": "https://dc.lft.to/lastmile_qr_scan", "ios": "https://dc.lft.to/lastmile_qr_scan"}}, {"name": "1da90e590c32f3e9a3f0ed76bcf4223f", "is_disabled": 0, "fusion_lat": 0.0, "fusion_lon": 0.0, "type": "electric_scooter", "lat": 38.8647295, "bike_id": "1da90e590c32f3e9a3f0ed76bcf4223f", "is_reserved": 0, "lon": -76.9822975, "rental_uris": {"android": "https://dc.lft.to/lastmile_qr_scan", "ios": "https://dc.lft.to/lastmile_qr_scan"}}, {"name": "5249d8d24af9fea3b856b7cf8098629b", "is_disabled": 0, "fusion_lat": 0.0, "fusion_lon": 0.0, "type": "electric_scooter", "lat": 38.8836605, "bike_id": "5249d8d24af9fea3b856b7cf8098629b", "is_reserved": 0, "lon": -76.99507783333334, "rental_uris": {"android": "https://dc.lft.to/lastmile_qr_scan", "ios": "https://dc.lft.to/lastmile_qr_scan"}}, {"name": "5d6080002f9088d1d3c26b05abbb3bd8", "is_disabled": 0, "fusion_lat": 0.0, "fusion_lon": 0.0, "type": "electric_scooter", "lat": 38.90007633333333, "bike_id": "5d6080002f9088d1d3c26b05abbb3bd8", "is_reserved": 0, "lon": -76.99624516666667, "rental_uris": {"android": "https://dc.lft.to/lastmile_qr_scan", "ios": "https://dc.lft.to/lastmile_qr_scan"}}, {"name": "39b56fcd20292e19110372dabaa65425", "is_disabled": 0, "fusion_lat": 0.0, "fusion_lon": 0.0, "type": "electric_scooter", "lat": 38.887205, "bike_id": "39b56fcd20292e19110372dabaa65425", "is_reserved": 0, "lon": -77.03219933333334, "rental_uris": {"android": "https://dc.lft.to/lastmile_qr_scan", "ios": "https://dc.lft.to/lastmile_qr_scan"}}, {"name": "4b1fbc8b7dd11b01b585e282383eaf46", "is_disabled": 0, "fusion_lat": 0.0, "fusion_lon": 0.0, "type": "electric_scooter", "lat": 38.892204666666665, "bike_id": "4b1fbc8b7dd11b01b585e282383eaf46", "is_reserved": 0, "lon": -77.04688433333334, "rental_uris": {"android": "https://dc.lft.to/lastmile_qr_scan", "ios": "https://dc.lft.to/lastmile_qr_scan"}}, {"name": "3c4c4c3ee719459641c156b212388ac4", "is_disabled": 0, "fusion_lat": 0.0, "fusion_lon": 0.0, "type": "electric_scooter", "lat": 38.90596566666667, "bike_id": "3c4c4c3ee719459641c156b212388ac4", "is_reserved": 0, "lon": -77.06418966666666, "rental_uris": {"android": "https://dc.lft.to/lastmile_qr_scan", "ios": "https://dc.lft.to/lastmile_qr_scan"}}, {"name": "dc8350cbee3272c1f532c24823987f7b", "is_disabled": 0, "fusion_lat": 0.0, "fusion_lon": 0.0, "type": "electric_scooter", "lat": 38.924285166666664, "bike_id": "dc8350cbee3272c1f532c24823987f7b", "is_reserved": 0, "lon": -77.05197583333333, "rental_uris": {"android": "https://dc.lft.to/lastmile_qr_scan", "ios": "https://dc.lft.to/lastmile_qr_scan"}}, {"name": "668081d22862aa26e1ffa380bcda2041", "is_disabled": 0, "fusion_lat": 0.0, "fusion_lon": 0.0, "type": "electric_scooter", "lat": 38.89598066666667, "bike_id": "668081d22862aa26e1ffa380bcda2041", "is_reserved": 0, "lon": -77.01151866666666, "rental_uris": {"android": "https://dc.lft.to/lastmile_qr_scan", "ios": "https://dc.lft.to/lastmile_qr_scan"}}, {"name": "29a9a3abd5e148a7dea3c3624acdb21b", "is_disabled": 0, "fusion_lat": 0.0, "fusion_lon": 0.0, "type": "electric_scooter", "lat": 38.8606085, "bike_id": "29a9a3abd5e148a7dea3c3624acdb21b", "is_reserved": 0, "lon": -76.98505583333333, "rental_uris": {"android": "https://dc.lft.to/lastmile_qr_scan", "ios": "https://dc.lft.to/lastmile_qr_scan"}}, {"name": "79c10922e44def7e3d05a602aaa65afe", "is_disabled": 0, "fusion_lat": 0.0, "fusion_lon": 0.0, "type": "electric_scooter", "lat": 38.896038833333336, "bike_id": "79c10922e44def7e3d05a602aaa65afe", "is_reserved": 0, "lon": -76.99967333333333, "rental_uris": {"android": "https://dc.lft.to/lastmile_qr_scan", "ios": "https://dc.lft.to/lastmile_qr_scan"}}, {"name": "185d391ea56e054cf219be852b2885ff", "is_disabled": 0, "fusion_lat": 0.0, "fusion_lon": 0.0, "type": "electric_bike", "lat": 39.043100833333334, "bike_id": "185d391ea56e054cf219be852b2885ff", "is_reserved": 0, "lon": -77.05161083333333, "rental_uris": {"android": "https://dc.lft.to/lastmile_qr_scan", "ios": "https://dc.lft.to/lastmile_qr_scan"}}, {"name": "3b75880fd3ca704a3457ba3e2e030abd", "is_disabled": 0, "fusion_lat": 0.0, "fusion_lon": 0.0, "type": "electric_scooter", "lat": 38.907289666666664, "bike_id": "3b75880fd3ca704a3457ba3e2e030abd", "is_reserved": 0, "lon": -76.98694416666666, "rental_uris": {"android": "https://dc.lft.to/lastmile_qr_scan", "ios": "https://dc.lft.to/lastmile_qr_scan"}}, {"name": "f337a37cbab94b6bbc1c2c2ad6aa5e62", "is_disabled": 0, "fusion_lat": 0.0, "fusion_lon": 0.0, "type": "electric_scooter", "lat": 38.90364916666667, "bike_id": "f337a37cbab94b6bbc1c2c2ad6aa5e62", "is_reserved": 0, "lon": -76.99706483333334, "rental_uris": {"android": "https://dc.lft.to/lastmile_qr_scan", "ios": "https://dc.lft.to/lastmile_qr_scan"}}, {"name": "f90e6a75a4966bbf3b1552b4bb4d1e79", "is_disabled": 0, "fusion_lat": 0.0, "fusion_lon": 0.0, "type": "electric_scooter", "lat": 38.899039, "bike_id": "f90e6a75a4966bbf3b1552b4bb4d1e79", "is_reserved": 0, "lon": -77.03294583333333, "rental_uris": {"android": "https://dc.lft.to/lastmile_qr_scan", "ios": "https://dc.lft.to/lastmile_qr_scan"}}, {"name": "ff2dfce4db99835097210ba6cbbe19c9", "is_disabled": 0, "fusion_lat": 0.0, "fusion_lon": 0.0, "type": "electric_scooter", "lat": 38.9047955, "bike_id": "ff2dfce4db99835097210ba6cbbe19c9", "is_reserved": 0, "lon": -77.03865483333334, "rental_uris": {"android": "https://dc.lft.to/lastmile_qr_scan", "ios": "https://dc.lft.to/lastmile_qr_scan"}}, {"name": "30ca4ac3d75a7e0ab2b27c5a17c50562", "is_disabled": 0, "fusion_lat": 0.0, "fusion_lon": 0.0, "type": "electric_scooter", "lat": 38.92340733333333, "bike_id": "30ca4ac3d75a7e0ab2b27c5a17c50562", "is_reserved": 0, "lon": -77.05123983333333, "rental_uris": {"android": "https://dc.lft.to/lastmile_qr_scan", "ios": "https://dc.lft.to/lastmile_qr_scan"}}, {"name": "15cd507c2351d2fb85e45d68b8e25c3e", "is_disabled": 0, "fusion_lat": 0.0, "fusion_lon": 0.0, "type": "electric_scooter", "lat": 38.91531366666667, "bike_id": "15cd507c2351d2fb85e45d68b8e25c3e", "is_reserved": 0, "lon": -76.97005666666666, "rental_uris": {"android": "https://dc.lft.to/lastmile_qr_scan", "ios": "https://dc.lft.to/lastmile_qr_scan"}}, {"name": "c96b3ecf2e624666af14a21391544287", "is_disabled": 0, "fusion_lat": 0.0, "fusion_lon": 0.0, "type": "electric_scooter", "lat": 38.9258795, "bike_id": "c96b3ecf2e624666af14a21391544287", "is_reserved": 0, "lon": -77.0398495, "rental_uris": {"android": "https://dc.lft.to/lastmile_qr_scan", "ios": "https://dc.lft.to/lastmile_qr_scan"}}, {"name": "7a4a51fa56e24a14c0348046498dd4b2", "is_disabled": 0, "fusion_lat": 0.0, "fusion_lon": 0.0, "type": "electric_scooter", "lat": 38.91699216666667, "bike_id": "7a4a51fa56e24a14c0348046498dd4b2", "is_reserved": 0, "lon": -77.028893, "rental_uris": {"android": "https://dc.lft.to/lastmile_qr_scan", "ios": "https://dc.lft.to/lastmile_qr_scan"}}, {"name": "e04b05767185819dbd5e7a9508f32d2f", "is_disabled": 0, "fusion_lat": 0.0, "fusion_lon": 0.0, "type": "electric_scooter", "lat": 38.93708983333333, "bike_id": "e04b05767185819dbd5e7a9508f32d2f", "is_reserved": 0, "lon": -77.02937016666667, "rental_uris": {"android": "https://dc.lft.to/lastmile_qr_scan", "ios": "https://dc.lft.to/lastmile_qr_scan"}}, {"name": "823a258bbf0cd158b4d5cf46551f5546", "is_disabled": 0, "fusion_lat": 0.0, "fusion_lon": 0.0, "type": "electric_scooter", "lat": 38.9211155, "bike_id": "823a258bbf0cd158b4d5cf46551f5546", "is_reserved": 0, "lon": -77.03925566666666, "rental_uris": {"android": "https://dc.lft.to/lastmile_qr_scan", "ios": "https://dc.lft.to/lastmile_qr_scan"}}, {"name": "4629430122e92521b7655bf324dcb325", "is_disabled": 0, "fusion_lat": 0.0, "fusion_lon": 0.0, "type": "electric_scooter", "lat": 38.916757, "bike_id": "4629430122e92521b7655bf324dcb325", "is_reserved": 0, "lon": -77.02291916666667, "rental_uris": {"android": "https://dc.lft.to/lastmile_qr_scan", "ios": "https://dc.lft.to/lastmile_qr_scan"}}, {"name": "ca13c4098555259c27cb4ffadd83ecc8", "is_disabled": 0, "fusion_lat": 0.0, "fusion_lon": 0.0, "type": "electric_scooter", "lat": 38.905552166666666, "bike_id": "ca13c4098555259c27cb4ffadd83ecc8", "is_reserved": 0, "lon": -77.005942, "rental_uris": {"android": "https://dc.lft.to/lastmile_qr_scan", "ios": "https://dc.lft.to/lastmile_qr_scan"}}, {"name": "23d16c720eecbb5c8bdc2a5c2ae50704", "is_disabled": 0, "fusion_lat": 0.0, "fusion_lon": 0.0, "type": "electric_scooter", "lat": 38.87717933333333, "bike_id": "23d16c720eecbb5c8bdc2a5c2ae50704", "is_reserved": 0, "lon": -77.0164735, "rental_uris": {"android": "https://dc.lft.to/lastmile_qr_scan", "ios": "https://dc.lft.to/lastmile_qr_scan"}}, {"name": "2599267bd49de9e0be5c9369bb465eaf", "is_disabled": 0, "fusion_lat": 0.0, "fusion_lon": 0.0, "type": "electric_scooter", "lat": 38.906135, "bike_id": "2599267bd49de9e0be5c9369bb465eaf", "is_reserved": 0, "lon": -76.98684583333333, "rental_uris": {"android": "https://dc.lft.to/lastmile_qr_scan", "ios": "https://dc.lft.to/lastmile_qr_scan"}}, {"name": "cc59a9198be418f3f90dbb14a2fefcbc", "is_disabled": 0, "fusion_lat": 0.0, "fusion_lon": 0.0, "type": "electric_bike", "lat": 38.907209333333334, "bike_id": "cc59a9198be418f3f90dbb14a2fefcbc", "is_reserved": 0, "lon": -77.03340933333334, "rental_uris": {"android": "https://dc.lft.to/lastmile_qr_scan", "ios": "https://dc.lft.to/lastmile_qr_scan"}}, {"name": "5a1548cf41c7b50b6f65c86ea29d1d3d", "is_disabled": 0, "fusion_lat": 0.0, "fusion_lon": 0.0, "type": "electric_scooter", "lat": 38.91416666666667, "bike_id": "5a1548cf41c7b50b6f65c86ea29d1d3d", "is_reserved": 0, "lon": -77.04918566666667, "rental_uris": {"android": "https://dc.lft.to/lastmile_qr_scan", "ios": "https://dc.lft.to/lastmile_qr_scan"}}, {"name": "dbf2a4a48f68f8c44540e01cd9ee0248", "is_disabled": 0, "fusion_lat": 0.0, "fusion_lon": 0.0, "type": "electric_scooter", "lat": 38.8935535, "bike_id": "dbf2a4a48f68f8c44540e01cd9ee0248", "is_reserved": 0, "lon": -77.0033335, "rental_uris": {"android": "https://dc.lft.to/lastmile_qr_scan", "ios": "https://dc.lft.to/lastmile_qr_scan"}}, {"name": "6372f2a677ade550bda727267d57f91a", "is_disabled": 0, "fusion_lat": 0.0, "fusion_lon": 0.0, "type": "electric_scooter", "lat": 38.881195, "bike_id": "6372f2a677ade550bda727267d57f91a", "is_reserved": 0, "lon": -76.99509983333333, "rental_uris": {"android": "https://dc.lft.to/lastmile_qr_scan", "ios": "https://dc.lft.to/lastmile_qr_scan"}}, {"name": "64e6f456c6c31358c586d2fc7629d3d4", "is_disabled": 0, "fusion_lat": 0.0, "fusion_lon": 0.0, "type": "electric_scooter", "lat": 38.8838715, "bike_id": "64e6f456c6c31358c586d2fc7629d3d4", "is_reserved": 0, "lon": -77.03033733333334, "rental_uris": {"android": "https://dc.lft.to/lastmile_qr_scan", "ios": "https://dc.lft.to/lastmile_qr_scan"}}, {"name": "fba4734446d4fd035dbe8f3aa7f53a5e", "is_disabled": 0, "fusion_lat": 0.0, "fusion_lon": 0.0, "type": "electric_scooter", "lat": 38.86008866666667, "bike_id": "fba4734446d4fd035dbe8f3aa7f53a5e", "is_reserved": 0, "lon": -76.9852105, "rental_uris": {"android": "https://dc.lft.to/lastmile_qr_scan", "ios": "https://dc.lft.to/lastmile_qr_scan"}}, {"name": "5723e8f19d8a2a7ab6e6efa5e6251b79", "is_disabled": 0, "fusion_lat": 0.0, "fusion_lon": 0.0, "type": "electric_scooter", "lat": 38.89873716666666, "bike_id": "5723e8f19d8a2a7ab6e6efa5e6251b79", "is_reserved": 0, "lon": -76.93185066666666, "rental_uris": {"android": "https://dc.lft.to/lastmile_qr_scan", "ios": "https://dc.lft.to/lastmile_qr_scan"}}, {"name": "dcfa4a36537008eeac0756e0bd783528", "is_disabled": 0, "fusion_lat": 0.0, "fusion_lon": 0.0, "type": "electric_bike", "lat": 38.874782333333336, "bike_id": "dcfa4a36537008eeac0756e0bd783528", "is_reserved": 0, "lon": -76.96518916666666, "rental_uris": {"android": "https://dc.lft.to/lastmile_qr_scan", "ios": "https://dc.lft.to/lastmile_qr_scan"}}, {"name": "928ed38d78c64b57dfa086d8a70078e9", "is_disabled": 0, "fusion_lat": 0.0, "fusion_lon": 0.0, "type": "electric_scooter", "lat": 38.87467616666667, "bike_id": "928ed38d78c64b57dfa086d8a70078e9", "is_reserved": 0, "lon": -77.00558033333333, "rental_uris": {"android": "https://dc.lft.to/lastmile_qr_scan", "ios": "https://dc.lft.to/lastmile_qr_scan"}}, {"name": "ef1ea866a9484b6cc3e1845b1f3d434d", "is_disabled": 0, "fusion_lat": 0.0, "fusion_lon": 0.0, "type": "electric_scooter", "lat": 38.903833, "bike_id": "ef1ea866a9484b6cc3e1845b1f3d434d", "is_reserved": 0, "lon": -77.042185, "rental_uris": {"android": "https://dc.lft.to/lastmile_qr_scan", "ios": "https://dc.lft.to/lastmile_qr_scan"}}, {"name": "958d75478a149fb57fdca7ffebee7809", "is_disabled": 0, "fusion_lat": 0.0, "fusion_lon": 0.0, "type": "electric_scooter", "lat": 38.887249, "bike_id": "958d75478a149fb57fdca7ffebee7809", "is_reserved": 0, "lon": -77.021685, "rental_uris": {"android": "https://dc.lft.to/lastmile_qr_scan", "ios": "https://dc.lft.to/lastmile_qr_scan"}}, {"name": "9f047c960e68eebbf533bd499243cdd7", "is_disabled": 0, "fusion_lat": 0.0, "fusion_lon": 0.0, "type": "electric_scooter", "lat": 38.9201005, "bike_id": "9f047c960e68eebbf533bd499243cdd7", "is_reserved": 0, "lon": -77.0388485, "rental_uris": {"android": "https://dc.lft.to/lastmile_qr_scan", "ios": "https://dc.lft.to/lastmile_qr_scan"}}, {"name": "bd854d2523cf4d325f5e3cd1d4b6abbc", "is_disabled": 0, "fusion_lat": 0.0, "fusion_lon": 0.0, "type": "electric_scooter", "lat": 38.9205395, "bike_id": "bd854d2523cf4d325f5e3cd1d4b6abbc", "is_reserved": 0, "lon": -77.02985366666667, "rental_uris": {"android": "https://dc.lft.to/lastmile_qr_scan", "ios": "https://dc.lft.to/lastmile_qr_scan"}}, {"name": "4be387ea18e7dbc3a498bce3cca2f952", "is_disabled": 0, "fusion_lat": 0.0, "fusion_lon": 0.0, "type": "electric_scooter", "lat": 38.896451, "bike_id": "4be387ea18e7dbc3a498bce3cca2f952", "is_reserved": 0, "lon": -77.0330535, "rental_uris": {"android": "https://dc.lft.to/lastmile_qr_scan", "ios": "https://dc.lft.to/lastmile_qr_scan"}}, {"name": "f937eb5466245eabe9a6f186c3158feb", "is_disabled": 0, "fusion_lat": 0.0, "fusion_lon": 0.0, "type": "electric_scooter", "lat": 38.907233833333336, "bike_id": "f937eb5466245eabe9a6f186c3158feb", "is_reserved": 0, "lon": -77.02506766666667, "rental_uris": {"android": "https://dc.lft.to/lastmile_qr_scan", "ios": "https://dc.lft.to/lastmile_qr_scan"}}, {"name": "a4255a77bde8ae298f1b11c513404505", "is_disabled": 0, "fusion_lat": 0.0, "fusion_lon": 0.0, "type": "electric_scooter", "lat": 38.91652466666667, "bike_id": "a4255a77bde8ae298f1b11c513404505", "is_reserved": 0, "lon": -77.029658, "rental_uris": {"android": "https://dc.lft.to/lastmile_qr_scan", "ios": "https://dc.lft.to/lastmile_qr_scan"}}, {"name": "60c2e19589e2e2a9c2a9e0f3d7e6758d", "is_disabled": 0, "fusion_lat": 0.0, "fusion_lon": 0.0, "type": "electric_scooter", "lat": 38.923678833333334, "bike_id": "60c2e19589e2e2a9c2a9e0f3d7e6758d", "is_reserved": 0, "lon": -77.042349, "rental_uris": {"android": "https://dc.lft.to/lastmile_qr_scan", "ios": "https://dc.lft.to/lastmile_qr_scan"}}, {"name": "56ebd455696f7ca0969cedaf9a008b60", "is_disabled": 0, "fusion_lat": 0.0, "fusion_lon": 0.0, "type": "electric_scooter", "lat": 38.95688216666667, "bike_id": "56ebd455696f7ca0969cedaf9a008b60", "is_reserved": 0, "lon": -77.02228883333333, "rental_uris": {"android": "https://dc.lft.to/lastmile_qr_scan", "ios": "https://dc.lft.to/lastmile_qr_scan"}}, {"name": "47874c7dafe2b7776df3436076760d70", "is_disabled": 0, "fusion_lat": 0.0, "fusion_lon": 0.0, "type": "electric_bike", "lat": 38.800127333333336, "bike_id": "47874c7dafe2b7776df3436076760d70", "is_reserved": 0, "lon": -77.05485266666666, "rental_uris": {"android": "https://dc.lft.to/lastmile_qr_scan", "ios": "https://dc.lft.to/lastmile_qr_scan"}}, {"name": "45c41d60e0c50989016219f1cb0a27a4", "is_disabled": 0, "fusion_lat": 0.0, "fusion_lon": 0.0, "type": "electric_bike", "lat": 38.96136816666667, "bike_id": "45c41d60e0c50989016219f1cb0a27a4", "is_reserved": 0, "lon": -77.02374083333333, "rental_uris": {"android": "https://dc.lft.to/lastmile_qr_scan", "ios": "https://dc.lft.to/lastmile_qr_scan"}}, {"name": "90c925e52232bcbcd8e9948d6dbe0e5a", "is_disabled": 0, "fusion_lat": 0.0, "fusion_lon": 0.0, "type": "electric_scooter", "lat": 38.94988383333333, "bike_id": "90c925e52232bcbcd8e9948d6dbe0e5a", "is_reserved": 0, "lon": -77.02706233333333, "rental_uris": {"android": "https://dc.lft.to/lastmile_qr_scan", "ios": "https://dc.lft.to/lastmile_qr_scan"}}, {"name": "1551df8bfd80eda77c7775ff2f88ab23", "is_disabled": 0, "fusion_lat": 0.0, "fusion_lon": 0.0, "type": "electric_scooter", "lat": 38.97179, "bike_id": "1551df8bfd80eda77c7775ff2f88ab23", "is_reserved": 0, "lon": -77.026809, "rental_uris": {"android": "https://dc.lft.to/lastmile_qr_scan", "ios": "https://dc.lft.to/lastmile_qr_scan"}}, {"name": "fd670bdbd35bf4c1bc7704b732b0753c", "is_disabled": 0, "fusion_lat": 0.0, "fusion_lon": 0.0, "type": "electric_scooter", "lat": 38.89218233333333, "bike_id": "fd670bdbd35bf4c1bc7704b732b0753c", "is_reserved": 0, "lon": -77.03165516666667, "rental_uris": {"android": "https://dc.lft.to/lastmile_qr_scan", "ios": "https://dc.lft.to/lastmile_qr_scan"}}, {"name": "29f1b7c1f036365cd5e6979d8679ad17", "is_disabled": 0, "fusion_lat": 0.0, "fusion_lon": 0.0, "type": "electric_scooter", "lat": 38.91839933333333, "bike_id": "29f1b7c1f036365cd5e6979d8679ad17", "is_reserved": 0, "lon": -77.05950816666666, "rental_uris": {"android": "https://dc.lft.to/lastmile_qr_scan", "ios": "https://dc.lft.to/lastmile_qr_scan"}}, {"name": "e52363dee80555ae1e2d09c11ab7454b", "is_disabled": 0, "fusion_lat": 0.0, "fusion_lon": 0.0, "type": "electric_scooter", "lat": 38.904067833333336, "bike_id": "e52363dee80555ae1e2d09c11ab7454b", "is_reserved": 0, "lon": -76.973251, "rental_uris": {"android": "https://dc.lft.to/lastmile_qr_scan", "ios": "https://dc.lft.to/lastmile_qr_scan"}}, {"name": "a2936d5ddc010f3e681ff3fdf82d3d65", "is_disabled": 0, "fusion_lat": 0.0, "fusion_lon": 0.0, "type": "electric_scooter", "lat": 38.89482483333333, "bike_id": "a2936d5ddc010f3e681ff3fdf82d3d65", "is_reserved": 0, "lon": -77.023129, "rental_uris": {"android": "https://dc.lft.to/lastmile_qr_scan", "ios": "https://dc.lft.to/lastmile_qr_scan"}}, {"name": "ed7d61f5c6ead1957cd32d2bb657e670", "is_disabled": 0, "fusion_lat": 0.0, "fusion_lon": 0.0, "type": "electric_scooter", "lat": 38.88961366666667, "bike_id": "ed7d61f5c6ead1957cd32d2bb657e670", "is_reserved": 0, "lon": -76.9370795, "rental_uris": {"android": "https://dc.lft.to/lastmile_qr_scan", "ios": "https://dc.lft.to/lastmile_qr_scan"}}, {"name": "19eb78ebfaea83d087aa2e0b3316e343", "is_disabled": 0, "fusion_lat": 0.0, "fusion_lon": 0.0, "type": "electric_scooter", "lat": 38.90691316666667, "bike_id": "19eb78ebfaea83d087aa2e0b3316e343", "is_reserved": 0, "lon": -77.03736066666667, "rental_uris": {"android": "https://dc.lft.to/lastmile_qr_scan", "ios": "https://dc.lft.to/lastmile_qr_scan"}}, {"name": "f2e4e325b45d6795aba9607ce34e516b", "is_disabled": 0, "fusion_lat": 0.0, "fusion_lon": 0.0, "type": "electric_scooter", "lat": 38.91700633333333, "bike_id": "f2e4e325b45d6795aba9607ce34e516b", "is_reserved": 0, "lon": -77.03339233333334, "rental_uris": {"android": "https://dc.lft.to/lastmile_qr_scan", "ios": "https://dc.lft.to/lastmile_qr_scan"}}, {"name": "f8ecfcd53dd33f03af98faf3a51949d2", "is_disabled": 0, "fusion_lat": 0.0, "fusion_lon": 0.0, "type": "electric_bike", "lat": 38.88244566666667, "bike_id": "f8ecfcd53dd33f03af98faf3a51949d2", "is_reserved": 0, "lon": -76.9626055, "rental_uris": {"android": "https://dc.lft.to/lastmile_qr_scan", "ios": "https://dc.lft.to/lastmile_qr_scan"}}, {"name": "423c9090452677a4445ff8768d5d7884", "is_disabled": 0, "fusion_lat": 0.0, "fusion_lon": 0.0, "type": "electric_scooter", "lat": 38.91518883333333, "bike_id": "423c9090452677a4445ff8768d5d7884", "is_reserved": 0, "lon": -77.04463916666667, "rental_uris": {"android": "https://dc.lft.to/lastmile_qr_scan", "ios": "https://dc.lft.to/lastmile_qr_scan"}}, {"name": "f4f016e89a4c43d2dcab3623566348eb", "is_disabled": 0, "fusion_lat": 0.0, "fusion_lon": 0.0, "type": "electric_scooter", "lat": 38.88392866666667, "bike_id": "f4f016e89a4c43d2dcab3623566348eb", "is_reserved": 0, "lon": -77.025876, "rental_uris": {"android": "https://dc.lft.to/lastmile_qr_scan", "ios": "https://dc.lft.to/lastmile_qr_scan"}}, {"name": "33bb2e6276293d89ad0af39b53e4242b", "is_disabled": 0, "fusion_lat": 0.0, "fusion_lon": 0.0, "type": "electric_scooter", "lat": 38.92745033333333, "bike_id": "33bb2e6276293d89ad0af39b53e4242b", "is_reserved": 0, "lon": -77.025367, "rental_uris": {"android": "https://dc.lft.to/lastmile_qr_scan", "ios": "https://dc.lft.to/lastmile_qr_scan"}}, {"name": "c72a1e9da7ef0393dd48d99f8ca10957", "is_disabled": 0, "fusion_lat": 0.0, "fusion_lon": 0.0, "type": "electric_scooter", "lat": 38.905139166666665, "bike_id": "c72a1e9da7ef0393dd48d99f8ca10957", "is_reserved": 0, "lon": -77.064687, "rental_uris": {"android": "https://dc.lft.to/lastmile_qr_scan", "ios": "https://dc.lft.to/lastmile_qr_scan"}}, {"name": "316fd81be9634e6335b96a31f54996a8", "is_disabled": 0, "fusion_lat": 0.0, "fusion_lon": 0.0, "type": "electric_bike", "lat": 38.962198666666666, "bike_id": "316fd81be9634e6335b96a31f54996a8", "is_reserved": 0, "lon": -77.02631116666667, "rental_uris": {"android": "https://dc.lft.to/lastmile_qr_scan", "ios": "https://dc.lft.to/lastmile_qr_scan"}}, {"name": "009e5d37815d101e1f89ca5b753448f3", "is_disabled": 0, "fusion_lat": 0.0, "fusion_lon": 0.0, "type": "electric_scooter", "lat": 38.86381433333333, "bike_id": "009e5d37815d101e1f89ca5b753448f3", "is_reserved": 0, "lon": -76.989252, "rental_uris": {"android": "https://dc.lft.to/lastmile_qr_scan", "ios": "https://dc.lft.to/lastmile_qr_scan"}}, {"name": "c9e46a5b6e959ef06a3f1a3fa0eeeb0c", "is_disabled": 0, "fusion_lat": 0.0, "fusion_lon": 0.0, "type": "electric_scooter", "lat": 38.90492883333334, "bike_id": "c9e46a5b6e959ef06a3f1a3fa0eeeb0c", "is_reserved": 0, "lon": -77.06022416666667, "rental_uris": {"android": "https://dc.lft.to/lastmile_qr_scan", "ios": "https://dc.lft.to/lastmile_qr_scan"}}, {"name": "43233d108f951358352d8685170288fd", "is_disabled": 0, "fusion_lat": 0.0, "fusion_lon": 0.0, "type": "electric_scooter", "lat": 38.90623683333333, "bike_id": "43233d108f951358352d8685170288fd", "is_reserved": 0, "lon": -77.03852866666666, "rental_uris": {"android": "https://dc.lft.to/lastmile_qr_scan", "ios": "https://dc.lft.to/lastmile_qr_scan"}}, {"name": "685d6f39435aea2a7f389fd497c842ae", "is_disabled": 0, "fusion_lat": 0.0, "fusion_lon": 0.0, "type": "electric_scooter", "lat": 38.91116533333334, "bike_id": "685d6f39435aea2a7f389fd497c842ae", "is_reserved": 0, "lon": -77.03158683333334, "rental_uris": {"android": "https://dc.lft.to/lastmile_qr_scan", "ios": "https://dc.lft.to/lastmile_qr_scan"}}, {"name": "2967ad258850ed866a7236b90f17c3d1", "is_disabled": 0, "fusion_lat": 0.0, "fusion_lon": 0.0, "type": "electric_scooter", "lat": 38.906008166666666, "bike_id": "2967ad258850ed866a7236b90f17c3d1", "is_reserved": 0, "lon": -76.99271616666667, "rental_uris": {"android": "https://dc.lft.to/lastmile_qr_scan", "ios": "https://dc.lft.to/lastmile_qr_scan"}}, {"name": "4d42de15d014fbfa15bea0ce5b1b996c", "is_disabled": 0, "fusion_lat": 0.0, "fusion_lon": 0.0, "type": "electric_scooter", "lat": 38.9072125, "bike_id": "4d42de15d014fbfa15bea0ce5b1b996c", "is_reserved": 0, "lon": -77.038187, "rental_uris": {"android": "https://dc.lft.to/lastmile_qr_scan", "ios": "https://dc.lft.to/lastmile_qr_scan"}}, {"name": "c96dd262203a399640642bf7ae31b3e5", "is_disabled": 0, "fusion_lat": 0.0, "fusion_lon": 0.0, "type": "electric_scooter", "lat": 38.892423, "bike_id": "c96dd262203a399640642bf7ae31b3e5", "is_reserved": 0, "lon": -77.03183883333334, "rental_uris": {"android": "https://dc.lft.to/lastmile_qr_scan", "ios": "https://dc.lft.to/lastmile_qr_scan"}}, {"name": "027091d8061ba62af1f2a24623216b6d", "is_disabled": 0, "fusion_lat": 0.0, "fusion_lon": 0.0, "type": "electric_scooter", "lat": 38.94509633333333, "bike_id": "027091d8061ba62af1f2a24623216b6d", "is_reserved": 0, "lon": -77.0331765, "rental_uris": {"android": "https://dc.lft.to/lastmile_qr_scan", "ios": "https://dc.lft.to/lastmile_qr_scan"}}, {"name": "b8e09070c7f6da56a9cecaf9c7bcf7cf", "is_disabled": 0, "fusion_lat": 0.0, "fusion_lon": 0.0, "type": "electric_scooter", "lat": 38.921549166666665, "bike_id": "b8e09070c7f6da56a9cecaf9c7bcf7cf", "is_reserved": 0, "lon": -77.03341516666667, "rental_uris": {"android": "https://dc.lft.to/lastmile_qr_scan", "ios": "https://dc.lft.to/lastmile_qr_scan"}}, {"name": "333df0b81895d83dcef48594f49a7b25", "is_disabled": 0, "fusion_lat": 0.0, "fusion_lon": 0.0, "type": "electric_bike", "lat": 38.85891933333333, "bike_id": "333df0b81895d83dcef48594f49a7b25", "is_reserved": 0, "lon": -77.11863883333334, "rental_uris": {"android": "https://dc.lft.to/lastmile_qr_scan", "ios": "https://dc.lft.to/lastmile_qr_scan"}}, {"name": "52f9b33c6edf8ee8d84d1a00439661bd", "is_disabled": 0, "fusion_lat": 0.0, "fusion_lon": 0.0, "type": "electric_scooter", "lat": 38.90790033333333, "bike_id": "52f9b33c6edf8ee8d84d1a00439661bd", "is_reserved": 0, "lon": -77.03864166666666, "rental_uris": {"android": "https://dc.lft.to/lastmile_qr_scan", "ios": "https://dc.lft.to/lastmile_qr_scan"}}, {"name": "4629d6bfbaaf087d5953a861943775ae", "is_disabled": 0, "fusion_lat": 0.0, "fusion_lon": 0.0, "type": "electric_scooter", "lat": 38.903552, "bike_id": "4629d6bfbaaf087d5953a861943775ae", "is_reserved": 0, "lon": -77.03457216666666, "rental_uris": {"android": "https://dc.lft.to/lastmile_qr_scan", "ios": "https://dc.lft.to/lastmile_qr_scan"}}, {"name": "dd3b4cec7cf6286300c07fabade0a844", "is_disabled": 0, "fusion_lat": 0.0, "fusion_lon": 0.0, "type": "electric_scooter", "lat": 38.88655583333333, "bike_id": "dd3b4cec7cf6286300c07fabade0a844", "is_reserved": 0, "lon": -77.03387966666666, "rental_uris": {"android": "https://dc.lft.to/lastmile_qr_scan", "ios": "https://dc.lft.to/lastmile_qr_scan"}}, {"name": "4e130e7d6d4d0c7cda21c733a3664f16", "is_disabled": 0, "fusion_lat": 0.0, "fusion_lon": 0.0, "type": "electric_scooter", "lat": 38.9386285, "bike_id": "4e130e7d6d4d0c7cda21c733a3664f16", "is_reserved": 0, "lon": -77.02486633333334, "rental_uris": {"android": "https://dc.lft.to/lastmile_qr_scan", "ios": "https://dc.lft.to/lastmile_qr_scan"}}, {"name": "49f15e2a204068b7c256e390389d2448", "is_disabled": 0, "fusion_lat": 0.0, "fusion_lon": 0.0, "type": "electric_scooter", "lat": 38.880774833333334, "bike_id": "49f15e2a204068b7c256e390389d2448", "is_reserved": 0, "lon": -76.98514833333333, "rental_uris": {"android": "https://dc.lft.to/lastmile_qr_scan", "ios": "https://dc.lft.to/lastmile_qr_scan"}}, {"name": "ad41484c266720aee5deda1438209e79", "is_disabled": 0, "fusion_lat": 0.0, "fusion_lon": 0.0, "type": "electric_scooter", "lat": 38.91712283333333, "bike_id": "ad41484c266720aee5deda1438209e79", "is_reserved": 0, "lon": -77.038587, "rental_uris": {"android": "https://dc.lft.to/lastmile_qr_scan", "ios": "https://dc.lft.to/lastmile_qr_scan"}}, {"name": "ab07919b711306fa2c49fff7d22e1624", "is_disabled": 0, "fusion_lat": 0.0, "fusion_lon": 0.0, "type": "electric_scooter", "lat": 38.89317483333333, "bike_id": "ab07919b711306fa2c49fff7d22e1624", "is_reserved": 0, "lon": -77.04874783333334, "rental_uris": {"android": "https://dc.lft.to/lastmile_qr_scan", "ios": "https://dc.lft.to/lastmile_qr_scan"}}, {"name": "55404f07dd013d2f05f37fc9e3852944", "is_disabled": 0, "fusion_lat": 0.0, "fusion_lon": 0.0, "type": "electric_scooter", "lat": 38.905568, "bike_id": "55404f07dd013d2f05f37fc9e3852944", "is_reserved": 0, "lon": -77.0450795, "rental_uris": {"android": "https://dc.lft.to/lastmile_qr_scan", "ios": "https://dc.lft.to/lastmile_qr_scan"}}, {"name": "67268b50c73db59ae62045abbd939cb0", "is_disabled": 0, "fusion_lat": 0.0, "fusion_lon": 0.0, "type": "electric_scooter", "lat": 38.92645783333333, "bike_id": "67268b50c73db59ae62045abbd939cb0", "is_reserved": 0, "lon": -77.0414205, "rental_uris": {"android": "https://dc.lft.to/lastmile_qr_scan", "ios": "https://dc.lft.to/lastmile_qr_scan"}}, {"name": "43120d2280a637f15e29ae4e02929b4a", "is_disabled": 0, "fusion_lat": 0.0, "fusion_lon": 0.0, "type": "electric_scooter", "lat": 38.92935033333333, "bike_id": "43120d2280a637f15e29ae4e02929b4a", "is_reserved": 0, "lon": -77.02314216666667, "rental_uris": {"android": "https://dc.lft.to/lastmile_qr_scan", "ios": "https://dc.lft.to/lastmile_qr_scan"}}, {"name": "ac4912043a3b4f39ca249c0a00bc95a8", "is_disabled": 0, "fusion_lat": 0.0, "fusion_lon": 0.0, "type": "electric_scooter", "lat": 38.9014125, "bike_id": "ac4912043a3b4f39ca249c0a00bc95a8", "is_reserved": 0, "lon": -77.0448975, "rental_uris": {"android": "https://dc.lft.to/lastmile_qr_scan", "ios": "https://dc.lft.to/lastmile_qr_scan"}}, {"name": "e8323fc63304a590c12c59532279b61b", "is_disabled": 0, "fusion_lat": 0.0, "fusion_lon": 0.0, "type": "electric_scooter", "lat": 38.902658333333335, "bike_id": "e8323fc63304a590c12c59532279b61b", "is_reserved": 0, "lon": -77.03647583333333, "rental_uris": {"android": "https://dc.lft.to/lastmile_qr_scan", "ios": "https://dc.lft.to/lastmile_qr_scan"}}, {"name": "e15f28f8a33eac52e13197a6aa328828", "is_disabled": 0, "fusion_lat": 0.0, "fusion_lon": 0.0, "type": "electric_scooter", "lat": 38.9317175, "bike_id": "e15f28f8a33eac52e13197a6aa328828", "is_reserved": 0, "lon": -77.03676366666667, "rental_uris": {"android": "https://dc.lft.to/lastmile_qr_scan", "ios": "https://dc.lft.to/lastmile_qr_scan"}}, {"name": "ccccb67946aac8a5dc49ce6999416c69", "is_disabled": 0, "fusion_lat": 0.0, "fusion_lon": 0.0, "type": "electric_scooter", "lat": 38.932323333333336, "bike_id": "ccccb67946aac8a5dc49ce6999416c69", "is_reserved": 0, "lon": -77.02831266666666, "rental_uris": {"android": "https://dc.lft.to/lastmile_qr_scan", "ios": "https://dc.lft.to/lastmile_qr_scan"}}, {"name": "763e0e731f52d523b5711badea9a69f6", "is_disabled": 0, "fusion_lat": 0.0, "fusion_lon": 0.0, "type": "electric_scooter", "lat": 38.91195666666667, "bike_id": "763e0e731f52d523b5711badea9a69f6", "is_reserved": 0, "lon": -77.0046835, "rental_uris": {"android": "https://dc.lft.to/lastmile_qr_scan", "ios": "https://dc.lft.to/lastmile_qr_scan"}}, {"name": "ecf4b0858787507da6b3ca653a5dfae3", "is_disabled": 0, "fusion_lat": 0.0, "fusion_lon": 0.0, "type": "electric_scooter", "lat": 38.9179365, "bike_id": "ecf4b0858787507da6b3ca653a5dfae3", "is_reserved": 0, "lon": -77.040188, "rental_uris": {"android": "https://dc.lft.to/lastmile_qr_scan", "ios": "https://dc.lft.to/lastmile_qr_scan"}}, {"name": "927ec0ab839ae48f5daacc67a1541712", "is_disabled": 0, "fusion_lat": 0.0, "fusion_lon": 0.0, "type": "electric_scooter", "lat": 38.89170166666667, "bike_id": "927ec0ab839ae48f5daacc67a1541712", "is_reserved": 0, "lon": -77.01554966666667, "rental_uris": {"android": "https://dc.lft.to/lastmile_qr_scan", "ios": "https://dc.lft.to/lastmile_qr_scan"}}, {"name": "5297559b73f6246493b719f4917b6c90", "is_disabled": 0, "fusion_lat": 0.0, "fusion_lon": 0.0, "type": "electric_scooter", "lat": 38.9378475, "bike_id": "5297559b73f6246493b719f4917b6c90", "is_reserved": 0, "lon": -77.03299683333333, "rental_uris": {"android": "https://dc.lft.to/lastmile_qr_scan", "ios": "https://dc.lft.to/lastmile_qr_scan"}}, {"name": "26f17f0004a33fc02ed9658f56daa584", "is_disabled": 0, "fusion_lat": 0.0, "fusion_lon": 0.0, "type": "electric_scooter", "lat": 38.9060205, "bike_id": "26f17f0004a33fc02ed9658f56daa584", "is_reserved": 0, "lon": -77.06294266666667, "rental_uris": {"android": "https://dc.lft.to/lastmile_qr_scan", "ios": "https://dc.lft.to/lastmile_qr_scan"}}, {"name": "e4dbb80775da74e5ffb399e2ed60f488", "is_disabled": 0, "fusion_lat": 0.0, "fusion_lon": 0.0, "type": "electric_scooter", "lat": 38.923956, "bike_id": "e4dbb80775da74e5ffb399e2ed60f488", "is_reserved": 0, "lon": -77.024323, "rental_uris": {"android": "https://dc.lft.to/lastmile_qr_scan", "ios": "https://dc.lft.to/lastmile_qr_scan"}}, {"name": "ffac92fc0f0083ae4f84b978c1fd1cf9", "is_disabled": 0, "fusion_lat": 0.0, "fusion_lon": 0.0, "type": "electric_scooter", "lat": 38.900695166666665, "bike_id": "ffac92fc0f0083ae4f84b978c1fd1cf9", "is_reserved": 0, "lon": -77.04759516666667, "rental_uris": {"android": "https://dc.lft.to/lastmile_qr_scan", "ios": "https://dc.lft.to/lastmile_qr_scan"}}, {"name": "a60cec49a2ca3291d837237d2ff339a5", "is_disabled": 0, "fusion_lat": 0.0, "fusion_lon": 0.0, "type": "electric_scooter", "lat": 38.907338333333335, "bike_id": "a60cec49a2ca3291d837237d2ff339a5", "is_reserved": 0, "lon": -77.04290916666666, "rental_uris": {"android": "https://dc.lft.to/lastmile_qr_scan", "ios": "https://dc.lft.to/lastmile_qr_scan"}}, {"name": "f09b1066d976e140d5e63e2a54c62070", "is_disabled": 0, "fusion_lat": 0.0, "fusion_lon": 0.0, "type": "electric_scooter", "lat": 38.91107733333333, "bike_id": "f09b1066d976e140d5e63e2a54c62070", "is_reserved": 0, "lon": -77.044659, "rental_uris": {"android": "https://dc.lft.to/lastmile_qr_scan", "ios": "https://dc.lft.to/lastmile_qr_scan"}}, {"name": "d6d8001a8917d27b482ea12a99fc882b", "is_disabled": 0, "fusion_lat": 0.0, "fusion_lon": 0.0, "type": "electric_scooter", "lat": 38.8357465, "bike_id": "d6d8001a8917d27b482ea12a99fc882b", "is_reserved": 0, "lon": -76.9948865, "rental_uris": {"android": "https://dc.lft.to/lastmile_qr_scan", "ios": "https://dc.lft.to/lastmile_qr_scan"}}, {"name": "52173df36fd71da7a9808300844b4225", "is_disabled": 0, "fusion_lat": 0.0, "fusion_lon": 0.0, "type": "electric_scooter", "lat": 38.90743833333333, "bike_id": "52173df36fd71da7a9808300844b4225", "is_reserved": 0, "lon": -77.04479133333334, "rental_uris": {"android": "https://dc.lft.to/lastmile_qr_scan", "ios": "https://dc.lft.to/lastmile_qr_scan"}}, {"name": "99c45adfca2b880f651d02d8ad95c956", "is_disabled": 0, "fusion_lat": 0.0, "fusion_lon": 0.0, "type": "electric_scooter", "lat": 38.895306833333336, "bike_id": "99c45adfca2b880f651d02d8ad95c956", "is_reserved": 0, "lon": -77.0034335, "rental_uris": {"android": "https://dc.lft.to/lastmile_qr_scan", "ios": "https://dc.lft.to/lastmile_qr_scan"}}, {"name": "c1bfe8dd55228cd10da5f4a453f4d9a7", "is_disabled": 0, "fusion_lat": 0.0, "fusion_lon": 0.0, "type": "electric_scooter", "lat": 38.9154715, "bike_id": "c1bfe8dd55228cd10da5f4a453f4d9a7", "is_reserved": 0, "lon": -77.02551766666667, "rental_uris": {"android": "https://dc.lft.to/lastmile_qr_scan", "ios": "https://dc.lft.to/lastmile_qr_scan"}}, {"name": "c19c2d7e538f05dd5cf681539733f187", "is_disabled": 0, "fusion_lat": 0.0, "fusion_lon": 0.0, "type": "electric_scooter", "lat": 38.931823, "bike_id": "c19c2d7e538f05dd5cf681539733f187", "is_reserved": 0, "lon": -77.03837983333334, "rental_uris": {"android": "https://dc.lft.to/lastmile_qr_scan", "ios": "https://dc.lft.to/lastmile_qr_scan"}}, {"name": "1115f2ebee73cbb911cb404b2c426ba9", "is_disabled": 0, "fusion_lat": 0.0, "fusion_lon": 0.0, "type": "electric_scooter", "lat": 38.888139, "bike_id": "1115f2ebee73cbb911cb404b2c426ba9", "is_reserved": 0, "lon": -76.93344966666666, "rental_uris": {"android": "https://dc.lft.to/lastmile_qr_scan", "ios": "https://dc.lft.to/lastmile_qr_scan"}}, {"name": "21ca9f7932c12a7a431ae502e1ceedfa", "is_disabled": 0, "fusion_lat": 0.0, "fusion_lon": 0.0, "type": "electric_scooter", "lat": 38.91652033333333, "bike_id": "21ca9f7932c12a7a431ae502e1ceedfa", "is_reserved": 0, "lon": -77.02959083333333, "rental_uris": {"android": "https://dc.lft.to/lastmile_qr_scan", "ios": "https://dc.lft.to/lastmile_qr_scan"}}, {"name": "6c07e25a88223aba57acd0c8bbcd8ce1", "is_disabled": 0, "fusion_lat": 0.0, "fusion_lon": 0.0, "type": "electric_bike", "lat": 38.860902, "bike_id": "6c07e25a88223aba57acd0c8bbcd8ce1", "is_reserved": 0, "lon": -77.09597633333334, "rental_uris": {"android": "https://dc.lft.to/lastmile_qr_scan", "ios": "https://dc.lft.to/lastmile_qr_scan"}}, {"name": "1c1d04d81c1396b70fa70a7a393bd76d", "is_disabled": 0, "fusion_lat": 0.0, "fusion_lon": 0.0, "type": "electric_scooter", "lat": 38.90585016666667, "bike_id": "1c1d04d81c1396b70fa70a7a393bd76d", "is_reserved": 0, "lon": -77.03859216666666, "rental_uris": {"android": "https://dc.lft.to/lastmile_qr_scan", "ios": "https://dc.lft.to/lastmile_qr_scan"}}, {"name": "8985b1e3572f62db1c71237e8e3d9d59", "is_disabled": 0, "fusion_lat": 0.0, "fusion_lon": 0.0, "type": "electric_scooter", "lat": 38.887277833333336, "bike_id": "8985b1e3572f62db1c71237e8e3d9d59", "is_reserved": 0, "lon": -77.02834733333333, "rental_uris": {"android": "https://dc.lft.to/lastmile_qr_scan", "ios": "https://dc.lft.to/lastmile_qr_scan"}}, {"name": "4a2dff83f63b58037429e456adf48585", "is_disabled": 0, "fusion_lat": 0.0, "fusion_lon": 0.0, "type": "electric_scooter", "lat": 38.92610783333333, "bike_id": "4a2dff83f63b58037429e456adf48585", "is_reserved": 0, "lon": -77.02159183333333, "rental_uris": {"android": "https://dc.lft.to/lastmile_qr_scan", "ios": "https://dc.lft.to/lastmile_qr_scan"}}, {"name": "1d38932d2836b947edfe3c0fe1cb4a0b", "is_disabled": 0, "fusion_lat": 0.0, "fusion_lon": 0.0, "type": "electric_scooter", "lat": 38.90955833333334, "bike_id": "1d38932d2836b947edfe3c0fe1cb4a0b", "is_reserved": 0, "lon": -77.03855866666666, "rental_uris": {"android": "https://dc.lft.to/lastmile_qr_scan", "ios": "https://dc.lft.to/lastmile_qr_scan"}}, {"name": "9b1a007da93445ee6ad03c6ac7da14b3", "is_disabled": 0, "fusion_lat": 0.0, "fusion_lon": 0.0, "type": "electric_scooter", "lat": 38.924095333333334, "bike_id": "9b1a007da93445ee6ad03c6ac7da14b3", "is_reserved": 0, "lon": -77.02016883333333, "rental_uris": {"android": "https://dc.lft.to/lastmile_qr_scan", "ios": "https://dc.lft.to/lastmile_qr_scan"}}, {"name": "aec6d6947d4f4df58c0cd8cead1b3c67", "is_disabled": 0, "fusion_lat": 0.0, "fusion_lon": 0.0, "type": "electric_scooter", "lat": 38.908199333333336, "bike_id": "aec6d6947d4f4df58c0cd8cead1b3c67", "is_reserved": 0, "lon": -77.0007395, "rental_uris": {"android": "https://dc.lft.to/lastmile_qr_scan", "ios": "https://dc.lft.to/lastmile_qr_scan"}},