{"data": {"bikes": [{"name": "7840d0ed34df53dfbe8b9295df10ff09", "type": "electric_scooter", "lat": 38.89222933333333, "is_reserved": 0, "lon": -77.045368, "fusion_lon": 0.0, "is_disabled": 0, "fusion_lat": 0.0, "bike_id": "7840d0ed34df53dfbe8b9295df10ff09", "rental_uris": {"ios": "https://dc.lft.to/lastmile_qr_scan", "android": "https://dc.lft.to/lastmile_qr_scan"}}, {"name": "c1f1617bb4940e783c030423a88dbe2f", "type": "electric_scooter", "lat": 38.92908883333333, "is_reserved": 0, "lon": -77.02164333333333, "fusion_lon": 0.0, "is_disabled": 0, "fusion_lat": 0.0, "bike_id": "c1f1617bb4940e783c030423a88dbe2f", "rental_uris": {"ios": "https://dc.lft.to/lastmile_qr_scan", "android": "https://dc.lft.to/lastmile_qr_scan"}}, {"name": "bd04625f816bdb0df85a138cc5095e77", "type": "electric_scooter", "lat": 38.93492116666667, "is_reserved": 0, "lon": -77.02841866666667, "fusion_lon": 0.0, "is_disabled": 0, "fusion_lat": 0.0, "bike_id": "bd04625f816bdb0df85a138cc5095e77", "rental_uris": {"ios": "https://dc.lft.to/lastmile_qr_scan", "android": "https://dc.lft.to/lastmile_qr_scan"}}, {"name": "053d1c22bd417d7638de0e000eb4ef9f", "type": "electric_scooter", "lat": 38.9002195, "is_reserved": 0, "lon": -76.98702983333334, "fusion_lon": 0.0, "is_disabled": 0, "fusion_lat": 0.0, "bike_id": "053d1c22bd417d7638de0e000eb4ef9f", "rental_uris": {"ios": "https://dc.lft.to/lastmile_qr_scan", "android": "https://dc.lft.to/lastmile_qr_scan"}}, {"name": "7d4c6b0bb5830984efd629bf1966b95c", "type": "electric_scooter", "lat": 38.93542466666667, "is_reserved": 0, "lon": -77.0342295, "fusion_lon": 0.0, "is_disabled": 0, "fusion_lat": 0.0, "bike_id": "7d4c6b0bb5830984efd629bf1966b95c", "rental_uris": {"ios": "https://dc.lft.to/lastmile_qr_scan", "android": "https://dc.lft.to/lastmile_qr_scan"}}, {"name": "50bfba0d2d5f627fd5c155dca1aea32e", "type": "electric_scooter", "lat": 38.9267115, "is_reserved": 0, "lon": -76.99527033333334, "fusion_lon": 0.0, "is_disabled": 0, "fusion_lat": 0.0, "bike_id": "50bfba0d2d5f627fd5c155dca1aea32e", "rental_uris": {"ios": "https://dc.lft.to/lastmile_qr_scan", "android": "https://dc.lft.to/lastmile_qr_scan"}}, {"name": "1fda28d9feef0f795560ef75d76ad5f3", "type": "electric_scooter", "lat": 38.84424883333333, "is_reserved": 0, "lon": -76.99777866666666, "fusion_lon": 0.0, "is_disabled": 0, "fusion_lat": 0.0, "bike_id": "1fda28d9feef0f795560ef75d76ad5f3", "rental_uris": {"ios": "https://dc.lft.to/lastmile_qr_scan", "android": "https://dc.lft.to/lastmile_qr_scan"}}, {"name": "275037621bb92609d5bc3ce37dfa88c0", "type": "electric_bike", "lat": 38.854313166666664, "is_reserved": 0, "lon": -76.909783, "fusion_lon": 0.0, "is_disabled": 0, "fusion_lat": 0.0, "bike_id": "275037621bb92609d5bc3ce37dfa88c0", "rental_uris": {"ios": "https://dc.lft.to/lastmile_qr_scan", "android": "https://dc.lft.to/lastmile_qr_scan"}}, {"name": "936425af980779f2b7d77ae4697e6101", "type": "electric_bike", "lat": 38.810525, "is_reserved": 0, "lon": -77.08511066666667, "fusion_lon": 0.0, "is_disabled": 0, "fusion_lat": 0.0, "bike_id": "936425af980779f2b7d77ae4697e6101", "rental_uris": {"ios": "https://dc.lft.to/lastmile_qr_scan", "android": "https://dc.lft.to/lastmile_qr_scan"}}, {"name": "841231f110d5e61e9d85c62caf07d435", "type": "electric_scooter", "lat": 38.89912983333333, "is_reserved": 0, "lon": -77.03310066666667, "fusion_lon": 0.0, "is_disabled": 0, "fusion_lat": 0.0, "bike_id": "841231f110d5e61e9d85c62caf07d435", "rental_uris": {"ios": "https://dc.lft.to/lastmile_qr_scan", "android": "https://dc.lft.to/lastmile_qr_scan"}}, {"name": "d24ab50bdc68db719462b4d4ab3dbf6b", "type": "electric_scooter", "lat": 38.8834325, "is_reserved": 0, "lon": -76.994882, "fusion_lon": 0.0, "is_disabled": 0, "fusion_lat": 0.0, "bike_id": "d24ab50bdc68db719462b4d4ab3dbf6b", "rental_uris": {"ios": "https://dc.lft.to/lastmile_qr_scan", "android": "https://dc.lft.to/lastmile_qr_scan"}}, {"name": "7470f19d5e59f64cd62f36ded268dc6b", "type": "electric_scooter", "lat": 38.91192366666667, "is_reserved": 0, "lon": -77.06098783333333, "fusion_lon": 0.0, "is_disabled": 0, "fusion_lat": 0.0, "bike_id": "7470f19d5e59f64cd62f36ded268dc6b", "rental_uris": {"ios": "https://dc.lft.to/lastmile_qr_scan", "android": "https://dc.lft.to/lastmile_qr_scan"}}, {"name": "6e5eb9aebbdea23a435810b78a49b659", "type": "electric_scooter", "lat": 38.91656583333334, "is_reserved": 0, "lon": -77.023632, "fusion_lon": 0.0, "is_disabled": 0, "fusion_lat": 0.0, "bike_id": "6e5eb9aebbdea23a435810b78a49b659", "rental_uris": {"ios": "https://dc.lft.to/lastmile_qr_scan", "android": "https://dc.lft.to/lastmile_qr_scan"}}, {"name": "0fc4d671298d2f4b8cc4bd86a2ed5b88", "type": "electric_scooter", "lat": 38.89531983333333, "is_reserved": 0, "lon": -76.94931016666666, "fusion_lon": 0.0, "is_disabled": 0, "fusion_lat": 0.0, "bike_id": "0fc4d671298d2f4b8cc4bd86a2ed5b88", "rental_uris": {"ios": "https://dc.lft.to/lastmile_qr_scan", "android": "https://dc.lft.to/lastmile_qr_scan"}}, {"name": "d9066ab002b9d5e3d41033a7fcc72912", "type": "electric_bike", "lat": 39.026492833333336, "is_reserved": 0, "lon": -77.12523416666667, "fusion_lon": 0.0, "is_disabled": 0, "fusion_lat": 0.0, "bike_id": "d9066ab002b9d5e3d41033a7fcc72912", "rental_uris": {"ios": "https://dc.lft.to/lastmile_qr_scan", "android": "https://dc.lft.to/lastmile_qr_scan"}}, {"name": "439aad1b99781d95f119475478efe264", "type": "electric_scooter", "lat": 38.88514833333333, "is_reserved": 0, "lon": -77.00570083333334, "fusion_lon": 0.0, "is_disabled": 0, "fusion_lat": 0.0, "bike_id": "439aad1b99781d95f119475478efe264", "rental_uris": {"ios": "https://dc.lft.to/lastmile_qr_scan", "android": "https://dc.lft.to/lastmile_qr_scan"}}, {"name": "a15bd3b7a5170218fa17645f315ce836", "type": "electric_bike", "lat": 38.9574505, "is_reserved": 0, "lon": -77.02174216666667, "fusion_lon": 0.0, "is_disabled": 0, "fusion_lat": 0.0, "bike_id": "a15bd3b7a5170218fa17645f315ce836", "rental_uris": {"ios": "https://dc.lft.to/lastmile_qr_scan", "android": "https://dc.lft.to/lastmile_qr_scan"}}, {"name": "40b3f9511452bc5b6697a49f9361e566", "type": "electric_scooter", "lat": 38.9007245, "is_reserved": 0, "lon": -77.05070033333334, "fusion_lon": 0.0, "is_disabled": 0, "fusion_lat": 0.0, "bike_id": "40b3f9511452bc5b6697a49f9361e566", "rental_uris": {"ios": "https://dc.lft.to/lastmile_qr_scan", "android": "https://dc.lft.to/lastmile_qr_scan"}}, {"name": "cdd5a5b94b02c6cc1361dbe394749282", "type": "electric_scooter", "lat": 38.93592816666666, "is_reserved": 0, "lon": -77.03777383333333, "fusion_lon": 0.0, "is_disabled": 0, "fusion_lat": 0.0, "bike_id": "cdd5a5b94b02c6cc1361dbe394749282", "rental_uris": {"ios": "https://dc.lft.to/lastmile_qr_scan", "android": "https://dc.lft.to/lastmile_qr_scan"}}, {"name": "d9f38fae52ddcbc53821baba9b71183c", "type": "electric_scooter", "lat": 38.92717783333333, "is_reserved": 0, "lon": -77.02085816666667, "fusion_lon": 0.0, "is_disabled": 0, "fusion_lat": 0.0, "bike_id": "d9f38fae52ddcbc53821baba9b71183c", "rental_uris": {"ios": "https://dc.lft.to/lastmile_qr_scan", "android": "https://dc.lft.to/lastmile_qr_scan"}}, {"name": "cfef5ead77fe70ab1a3a4fd65f056a23", "type": "electric_bike", "lat": 38.9454935, "is_reserved": 0, "lon": -76.89534966666666, "fusion_lon": 0.0, "is_disabled": 0, "fusion_lat": 0.0, "bike_id": "cfef5ead77fe70ab1a3a4fd65f056a23", "rental_uris": {"ios": "https://dc.lft.to/lastmile_qr_scan", "android": "https://dc.lft.to/lastmile_qr_scan"}}, {"name": "fe957e26030a30bfad6df0160cacce5a", "type": "electric_scooter", "lat": 38.92257883333333, "is_reserved": 0, "lon": -77.03073466666666, "fusion_lon": 0.0, "is_disabled": 0, "fusion_lat": 0.0, "bike_id": "fe957e26030a30bfad6df0160cacce5a", "rental_uris": {"ios": "https://dc.lft.to/lastmile_qr_scan", "android": "https://dc.lft.to/lastmile_qr_scan"}}, {"name": "238369a35bb0e7c5aacb2c15a569452f", "type": "electric_scooter", "lat": 38.893843333333336, "is_reserved": 0, "lon": -76.94979916666666, "fusion_lon": 0.0, "is_disabled": 0, "fusion_lat": 0.0, "bike_id": "238369a35bb0e7c5aacb2c15a569452f", "rental_uris": {"ios": "https://dc.lft.to/lastmile_qr_scan", "android": "https://dc.lft.to/lastmile_qr_scan"}}, {"name": "6a5cc9b534a653f380a29b5e8c20a5c6", "type": "electric_scooter", "lat": 38.895089666666664, "is_reserved": 0, "lon": -77.01611333333334, "fusion_lon": 0.0, "is_disabled": 0, "fusion_lat": 0.0, "bike_id": "6a5cc9b534a653f380a29b5e8c20a5c6", "rental_uris": {"ios": "https://dc.lft.to/lastmile_qr_scan", "android": "https://dc.lft.to/lastmile_qr_scan"}}, {"name": "d2eaf8f0ab57d1ec9019ba4918a9a9b2", "type": "electric_scooter", "lat": 38.920496166666666, "is_reserved": 0, "lon": -76.99884216666666, "fusion_lon": 0.0, "is_disabled": 0, "fusion_lat": 0.0, "bike_id": "d2eaf8f0ab57d1ec9019ba4918a9a9b2", "rental_uris": {"ios": "https://dc.lft.to/lastmile_qr_scan", "android": "https://dc.lft.to/lastmile_qr_scan"}}, {"name": "a359afa64e38f10a3d141ef2c48ee7bc", "type": "electric_scooter", "lat": 38.898329333333336, "is_reserved": 0, "lon": -76.946304, "fusion_lon": 0.0, "is_disabled": 0, "fusion_lat": 0.0, "bike_id": "a359afa64e38f10a3d141ef2c48ee7bc", "rental_uris": {"ios": "https://dc.lft.to/lastmile_qr_scan", "android": "https://dc.lft.to/lastmile_qr_scan"}}, {"name": "075f425da6fcf02e021df3039e2b0c92", "type": "electric_scooter", "lat": 38.89246766666667, "is_reserved": 0, "lon": -77.0317855, "fusion_lon": 0.0, "is_disabled": 0, "fusion_lat": 0.0, "bike_id": "075f425da6fcf02e021df3039e2b0c92", "rental_uris": {"ios": "https://dc.lft.to/lastmile_qr_scan", "android": "https://dc.lft.to/lastmile_qr_scan"}}, {"name": "c7654e1b5378dd14ae0694db5f6f8e1f", "type": "electric_scooter", "lat": 38.92922383333333, "is_reserved": 0, "lon": -77.0327785, "fusion_lon": 0.0, "is_disabled": 0, "fusion_lat": 0.0, "bike_id": "c7654e1b5378dd14ae0694db5f6f8e1f", "rental_uris": {"ios": "https://dc.lft.to/lastmile_qr_scan", "android": "https://dc.lft.to/lastmile_qr_scan"}}, {"name": "2bd250988b5f086edbfaf623828fda8b", "type": "electric_scooter", "lat": 38.902855333333335, "is_reserved": 0, "lon": -77.036391, "fusion_lon": 0.0, "is_disabled": 0, "fusion_lat": 0.0, "bike_id": "2bd250988b5f086edbfaf623828fda8b", "rental_uris": {"ios": "https://dc.lft.to/lastmile_qr_scan", "android": "https://dc.lft.to/lastmile_qr_scan"}}, {"name": "5dfe5707a1ff9c09d11551a773ca17e6", "type": "electric_scooter", "lat": 38.931244166666666, "is_reserved": 0, "lon": -77.036034, "fusion_lon": 0.0, "is_disabled": 0, "fusion_lat": 0.0, "bike_id": "5dfe5707a1ff9c09d11551a773ca17e6", "rental_uris": {"ios": "https://dc.lft.to/lastmile_qr_scan", "android": "https://dc.lft.to/lastmile_qr_scan"}}, {"name": "9efdfd04aa64a4d82425c34760fbf1fc", "type": "electric_scooter", "lat": 38.86704816666666, "is_reserved": 0, "lon": -76.9871485, "fusion_lon": 0.0, "is_disabled": 0, "fusion_lat": 0.0, "bike_id": "9efdfd04aa64a4d82425c34760fbf1fc", "rental_uris": {"ios": "https://dc.lft.to/lastmile_qr_scan", "android": "https://dc.lft.to/lastmile_qr_scan"}}, {"name": "52ab9e07df5698139dedaf18391ded65", "type": "electric_scooter", "lat": 38.844309333333335, "is_reserved": 0, "lon": -76.99780383333334, "fusion_lon": 0.0, "is_disabled": 0, "fusion_lat": 0.0, "bike_id": "52ab9e07df5698139dedaf18391ded65", "rental_uris": {"ios": "https://dc.lft.to/lastmile_qr_scan", "android": "https://dc.lft.to/lastmile_qr_scan"}}, {"name": "86c89dab0d64153485fb9ccc09429bff", "type": "electric_scooter", "lat": 38.925718333333336, "is_reserved": 0, "lon": -77.02721616666666, "fusion_lon": 0.0, "is_disabled": 0, "fusion_lat": 0.0, "bike_id": "86c89dab0d64153485fb9ccc09429bff", "rental_uris": {"ios": "https://dc.lft.to/lastmile_qr_scan", "android": "https://dc.lft.to/lastmile_qr_scan"}}, {"name": "081abd70b58568ff4425f916fd312e21", "type": "electric_scooter", "lat": 38.883935666666666, "is_reserved": 0, "lon": -76.930467, "fusion_lon": 0.0, "is_disabled": 0, "fusion_lat": 0.0, "bike_id": "081abd70b58568ff4425f916fd312e21", "rental_uris": {"ios": "https://dc.lft.to/lastmile_qr_scan", "android": "https://dc.lft.to/lastmile_qr_scan"}}, {"name": "dd8de2f5543a54aa93a1c13c87cb9618", "type": "electric_scooter", "lat": 38.9325615, "is_reserved": 0, "lon": -77.040038, "fusion_lon": 0.0, "is_disabled": 0, "fusion_lat": 0.0, "bike_id": "dd8de2f5543a54aa93a1c13c87cb9618", "rental_uris": {"ios": "https://dc.lft.to/lastmile_qr_scan", "android": "https://dc.lft.to/lastmile_qr_scan"}}, {"name": "56848624823b313fa4f2e64a2df3680d", "type": "electric_bike", "lat": 38.973271, "is_reserved": 0, "lon": -77.0214785, "fusion_lon": 0.0, "is_disabled": 0, "fusion_lat": 0.0, "bike_id": "56848624823b313fa4f2e64a2df3680d", "rental_uris": {"ios": "https://dc.lft.to/lastmile_qr_scan", "android": "https://dc.lft.to/lastmile_qr_scan"}}, {"name": "a0abc0994facec5d405e0a5502e0bbc7", "type": "electric_scooter", "lat": 38.91281383333333, "is_reserved": 0, "lon": -77.02691533333333, "fusion_lon": 0.0, "is_disabled": 0, "fusion_lat": 0.0, "bike_id": "a0abc0994facec5d405e0a5502e0bbc7", "rental_uris": {"ios": "https://dc.lft.to/lastmile_qr_scan", "android": "https://dc.lft.to/lastmile_qr_scan"}}, {"name": "eb49a82886e72dd4a9e9baa956cb0363", "type": "electric_scooter", "lat": 38.917158666666666, "is_reserved": 0, "lon": -77.02244433333334, "fusion_lon": 0.0, "is_disabled": 0, "fusion_lat": 0.0, "bike_id": "eb49a82886e72dd4a9e9baa956cb0363", "rental_uris": {"ios": "https://dc.lft.to/lastmile_qr_scan", "android": "https://dc.lft.to/lastmile_qr_scan"}}, {"name": "5d027827f22d49d1544c50139e70f569", "type": "electric_scooter", "lat": 38.9323475, "is_reserved": 0, "lon": -77.030916, "fusion_lon": 0.0, "is_disabled": 0, "fusion_lat": 0.0, "bike_id": "5d027827f22d49d1544c50139e70f569", "rental_uris": {"ios": "https://dc.lft.to/lastmile_qr_scan", "android": "https://dc.lft.to/lastmile_qr_scan"}}, {"name": "138891cc160497d73eea1e3d335a7500", "type": "electric_scooter", "lat": 38.915669333333334, "is_reserved": 0, "lon": -77.046893, "fusion_lon": 0.0, "is_disabled": 0, "fusion_lat": 0.0, "bike_id": "138891cc160497d73eea1e3d335a7500", "rental_uris": {"ios": "https://dc.lft.to/lastmile_qr_scan", "android": "https://dc.lft.to/lastmile_qr_scan"}}, {"name": "8097fcb34cdbfdba5452d767ae592254", "type": "electric_scooter", "lat": 38.9280265, "is_reserved": 0, "lon": -77.04355483333333, "fusion_lon": 0.0, "is_disabled": 0, "fusion_lat": 0.0, "bike_id": "8097fcb34cdbfdba5452d767ae592254", "rental_uris": {"ios": "https://dc.lft.to/lastmile_qr_scan", "android": "https://dc.lft.to/lastmile_qr_scan"}}, {"name": "bee63a93fd2d9c63f057f8efbd71a1d7", "type": "electric_scooter", "lat": 38.949500666666665, "is_reserved": 0, "lon": -77.01603666666666, "fusion_lon": 0.0, "is_disabled": 0, "fusion_lat": 0.0, "bike_id": "bee63a93fd2d9c63f057f8efbd71a1d7", "rental_uris": {"ios": "https://dc.lft.to/lastmile_qr_scan", "android": "https://dc.lft.to/lastmile_qr_scan"}}, {"name": "60df610c57e7212133d66f7b5d626881", "type": "electric_scooter", "lat": 38.90074833333333, "is_reserved": 0, "lon": -77.0257915, "fusion_lon": 0.0, "is_disabled": 0, "fusion_lat": 0.0, "bike_id": "60df610c57e7212133d66f7b5d626881", "rental_uris": {"ios": "https://dc.lft.to/lastmile_qr_scan", "android": "https://dc.lft.to/lastmile_qr_scan"}}, {"name": "c450ac5bd6762af78bc4967c270c4eb8", "type": "electric_scooter", "lat": 38.91101916666667, "is_reserved": 0, "lon": -77.04671316666666, "fusion_lon": 0.0, "is_disabled": 0, "fusion_lat": 0.0, "bike_id": "c450ac5bd6762af78bc4967c270c4eb8", "rental_uris": {"ios": "https://dc.lft.to/lastmile_qr_scan", "android": "https://dc.lft.to/lastmile_qr_scan"}}, {"name": "f4d8fbc82b56ca265b13913a983581db", "type": "electric_scooter", "lat": 38.903248166666664, "is_reserved": 0, "lon": -77.03815033333333, "fusion_lon": 0.0, "is_disabled": 0, "fusion_lat": 0.0, "bike_id": "f4d8fbc82b56ca265b13913a983581db", "rental_uris": {"ios": "https://dc.lft.to/lastmile_qr_scan", "android": "https://dc.lft.to/lastmile_qr_scan"}}, {"name": "a0aa7ac4a0905ec672156f7358650267", "type": "electric_scooter", "lat": 38.918263333333336, "is_reserved": 0, "lon": -77.034467, "fusion_lon": 0.0, "is_disabled": 0, "fusion_lat": 0.0, "bike_id": "a0aa7ac4a0905ec672156f7358650267", "rental_uris": {"ios": "https://dc.lft.to/lastmile_qr_scan", "android": "https://dc.lft.to/lastmile_qr_scan"}}, {"name": "f64a4f0eae188334fbc97c5898ea13c2", "type": "electric_scooter", "lat": 38.90102816666667, "is_reserved": 0, "lon": -77.04139233333333, "fusion_lon": 0.0, "is_disabled": 0, "fusion_lat": 0.0, "bike_id": "f64a4f0eae188334fbc97c5898ea13c2", "rental_uris": {"ios": "https://dc.lft.to/lastmile_qr_scan", "android": "https://dc.lft.to/lastmile_qr_scan"}}, {"name": "ff1d2186017da060ce7e850a7c53ddbd", "type": "electric_scooter", "lat": 38.91637716666666, "is_reserved": 0, "lon": -77.01332816666667, "fusion_lon": 0.0, "is_disabled": 0, "fusion_lat": 0.0, "bike_id": "ff1d2186017da060ce7e850a7c53ddbd", "rental_uris": {"ios": "https://dc.lft.to/lastmile_qr_scan", "android": "https://dc.lft.to/lastmile_qr_scan"}}, {"name": "733985433189e4723a02b95253c62dc7", "type": "electric_scooter", "lat": 38.91592433333334, "is_reserved": 0, "lon": -77.0448005, "fusion_lon": 0.0, "is_disabled": 0, "fusion_lat": 0.0, "bike_id": "733985433189e4723a02b95253c62dc7", "rental_uris": {"ios": "https://dc.lft.to/lastmile_qr_scan", "android": "https://dc.lft.to/lastmile_qr_scan"}}, {"name": "7917adb90403341f8f5bc9481eaa3461", "type": "electric_scooter", "lat": 38.90612516666667, "is_reserved": 0, "lon": -77.07488866666667, "fusion_lon": 0.0, "is_disabled": 0, "fusion_lat": 0.0, "bike_id": "7917adb90403341f8f5bc9481eaa3461", "rental_uris": {"ios": "https://dc.lft.to/lastmile_qr_scan", "android": "https://dc.lft.to/lastmile_qr_scan"}}, {"name": "56a8e6ce0a48158dc2a7f3f51026d7e6", "type": "electric_bike", "lat": 39.03883033333334, "is_reserved": 0, "lon": -76.9904235, "fusion_lon": 0.0, "is_disabled": 0, "fusion_lat": 0.0, "bike_id": "56a8e6ce0a48158dc2a7f3f51026d7e6", "rental_uris": {"ios": "https://dc.lft.to/lastmile_qr_scan", "android": "https://dc.lft.to/lastmile_qr_scan"}}, {"name": "9dc7bc73bc6b2c39a9714f1fc132ed9d", "type": "electric_scooter", "lat": 38.900127166666664, "is_reserved": 0, "lon": -76.9912005, "fusion_lon": 0.0, "is_disabled": 0, "fusion_lat": 0.0, "bike_id": "9dc7bc73bc6b2c39a9714f1fc132ed9d", "rental_uris": {"ios": "https://dc.lft.to/lastmile_qr_scan", "android": "https://dc.lft.to/lastmile_qr_scan"}}, {"name": "3892de58899dccaecdf4fdd75a9c3930", "type": "electric_scooter", "lat": 38.90512066666667, "is_reserved": 0, "lon": -77.04325933333334, "fusion_lon": 0.0, "is_disabled": 0, "fusion_lat": 0.0, "bike_id": "3892de58899dccaecdf4fdd75a9c3930", "rental_uris": {"ios": "https://dc.lft.to/lastmile_qr_scan", "android": "https://dc.lft.to/lastmile_qr_scan"}}, {"name": "0792d970106af5870eb28298971769e6", "type": "electric_scooter", "lat": 38.90091966666667, "is_reserved": 0, "lon": -77.050393, "fusion_lon": 0.0, "is_disabled": 0, "fusion_lat": 0.0, "bike_id": "0792d970106af5870eb28298971769e6", "rental_uris": {"ios": "https://dc.lft.to/lastmile_qr_scan", "android": "https://dc.lft.to/lastmile_qr_scan"}}, {"name": "902494a7698feb5b0c9fc06f8a35487c", "type": "electric_scooter", "lat": 38.921681666666665, "is_reserved": 0, "lon": -77.03268833333334, "fusion_lon": 0.0, "is_disabled": 0, "fusion_lat": 0.0, "bike_id": "902494a7698feb5b0c9fc06f8a35487c", "rental_uris": {"ios": "https://dc.lft.to/lastmile_qr_scan", "android": "https://dc.lft.to/lastmile_qr_scan"}}, {"name": "15818ec5b4b8ce1ee39b04aac98eeef8", "type": "electric_scooter", "lat": 38.883156166666666, "is_reserved": 0, "lon": -77.01750966666667, "fusion_lon": 0.0, "is_disabled": 0, "fusion_lat": 0.0, "bike_id": "15818ec5b4b8ce1ee39b04aac98eeef8", "rental_uris": {"ios": "https://dc.lft.to/lastmile_qr_scan", "android": "https://dc.lft.to/lastmile_qr_scan"}}, {"name": "4c400ba6acc660bb2c3e336994a43b86", "type": "electric_scooter", "lat": 38.943051833333335, "is_reserved": 0, "lon": -77.059236, "fusion_lon": 0.0, "is_disabled": 0, "fusion_lat": 0.0, "bike_id": "4c400ba6acc660bb2c3e336994a43b86", "rental_uris": {"ios": "https://dc.lft.to/lastmile_qr_scan", "android": "https://dc.lft.to/lastmile_qr_scan"}}, {"name": "b5e90ebf06e5b00eeb861bd64c1a940b", "type": "electric_bike", "lat": 38.86756866666666, "is_reserved": 0, "lon": -76.94538816666666, "fusion_lon": 0.0, "is_disabled": 0, "fusion_lat": 0.0, "bike_id": "b5e90ebf06e5b00eeb861bd64c1a940b", "rental_uris": {"ios": "https://dc.lft.to/lastmile_qr_scan", "android": "https://dc.lft.to/lastmile_qr_scan"}}, {"name": "5855958506eab091531a42ba17a2d1fa", "type": "electric_scooter", "lat": 38.92949616666667, "is_reserved": 0, "lon": -77.05505066666667, "fusion_lon": 0.0, "is_disabled": 0, "fusion_lat": 0.0, "bike_id": "5855958506eab091531a42ba17a2d1fa", "rental_uris": {"ios": "https://dc.lft.to/lastmile_qr_scan", "android": "https://dc.lft.to/lastmile_qr_scan"}}, {"name": "605e2084754aeb3446aeacab3a82805a", "type": "electric_bike", "lat": 38.86277033333333, "is_reserved": 0, "lon": -77.06346983333333, "fusion_lon": 0.0, "is_disabled": 0, "fusion_lat": 0.0, "bike_id": "605e2084754aeb3446aeacab3a82805a", "rental_uris": {"ios": "https://dc.lft.to/lastmile_qr_scan", "android": "https://dc.lft.to/lastmile_qr_scan"}}, {"name": "892d190f9584244b2a99445ea9ae3ae2", "type": "electric_bike", "lat": 38.875295666666666, "is_reserved": 0, "lon": -77.19908416666667, "fusion_lon": 0.0, "is_disabled": 0, "fusion_lat": 0.0, "bike_id": "892d190f9584244b2a99445ea9ae3ae2", "rental_uris": {"ios": "https://dc.lft.to/lastmile_qr_scan", "android": "https://dc.lft.to/lastmile_qr_scan"}}, {"name": "c3ed884121244d030548bc64f3bb83e8", "type": "electric_bike", "lat": 38.8406695, "is_reserved": 0, "lon": -77.06403233333333, "fusion_lon": 0.0, "is_disabled": 0, "fusion_lat": 0.0, "bike_id": "c3ed884121244d030548bc64f3bb83e8", "rental_uris": {"ios": "https://dc.lft.to/lastmile_qr_scan", "android": "https://dc.lft.to/lastmile_qr_scan"}}, {"name": "24d5dfed3d7612432ac3d3cd38ea7fcd", "type": "electric_scooter", "lat": 38.8975775, "is_reserved": 0, "lon": -77.010689, "fusion_lon": 0.0, "is_disabled": 0, "fusion_lat": 0.0, "bike_id": "24d5dfed3d7612432ac3d3cd38ea7fcd", "rental_uris": {"ios": "https://dc.lft.to/lastmile_qr_scan", "android": "https://dc.lft.to/lastmile_qr_scan"}}, {"name": "539fe71ab5e4fc88938f193f3293f6b1", "type": "electric_scooter", "lat": 38.90275033333333, "is_reserved": 0, "lon": -77.01765883333333, "fusion_lon": 0.0, "is_disabled": 0, "fusion_lat": 0.0, "bike_id": "539fe71ab5e4fc88938f193f3293f6b1", "rental_uris": {"ios": "https://dc.lft.to/lastmile_qr_scan", "android": "https://dc.lft.to/lastmile_qr_scan"}}, {"name": "9c62d3f0d0188d775cc650e84d66d9b2", "type": "electric_bike", "lat": 39.09461983333333, "is_reserved": 0, "lon": -77.14992966666667, "fusion_lon": 0.0, "is_disabled": 0, "fusion_lat": 0.0, "bike_id": "9c62d3f0d0188d775cc650e84d66d9b2", "rental_uris": {"ios": "https://dc.lft.to/lastmile_qr_scan", "android": "https://dc.lft.to/lastmile_qr_scan"}}, {"name": "d3ee3468b7ec454a39329e23649ed5fb", "type": "electric_scooter", "lat": 38.89847366666667, "is_reserved": 0, "lon": -76.94477933333333, "fusion_lon": 0.0, "is_disabled": 0, "fusion_lat": 0.0, "bike_id": "d3ee3468b7ec454a39329e23649ed5fb", "rental_uris": {"ios": "https://dc.lft.to/lastmile_qr_scan", "android": "https://dc.lft.to/lastmile_qr_scan"}}, {"name": "ad497e63a2b37a88328fe1d9d920b504", "type": "electric_scooter", "lat": 38.894961333333335, "is_reserved": 0, "lon": -77.0021615, "fusion_lon": 0.0, "is_disabled": 0, "fusion_lat": 0.0, "bike_id": "ad497e63a2b37a88328fe1d9d920b504", "rental_uris": {"ios": "https://dc.lft.to/lastmile_qr_scan", "android": "https://dc.lft.to/lastmile_qr_scan"}}, {"name": "f1d29d19c4de95f9db03fd1e597e2bfe", "type": "electric_bike", "lat": 38.827808833333336, "is_reserved": 0, "lon": -77.0090995, "fusion_lon": 0.0, "is_disabled": 0, "fusion_lat": 0.0, "bike_id": "f1d29d19c4de95f9db03fd1e597e2bfe", "rental_uris": {"ios": "https://dc.lft.to/lastmile_qr_scan", "android": "https://dc.lft.to/lastmile_qr_scan"}}, {"name": "f1e77895fbf533b561fa237ce215d04f", "type": "electric_scooter", "lat": 38.86245916666667, "is_reserved": 0, "lon": -76.99498033333333, "fusion_lon": 0.0, "is_disabled": 0, "fusion_lat": 0.0, "bike_id": "f1e77895fbf533b561fa237ce215d04f", "rental_uris": {"ios": "https://dc.lft.to/lastmile_qr_scan", "android": "https://dc.lft.to/lastmile_qr_scan"}}, {"name": "2b02324c7e3439e46c00d080967029df", "type": "electric_scooter", "lat": 38.9272405, "is_reserved": 0, "lon": -77.0056455, "fusion_lon": 0.0, "is_disabled": 0, "fusion_lat": 0.0, "bike_id": "2b02324c7e3439e46c00d080967029df", "rental_uris": {"ios": "https://dc.lft.to/lastmile_qr_scan", "android": "https://dc.lft.to/lastmile_qr_scan"}}, {"name": "1652d691f233bc3ca570b284dfc9e450", "type": "electric_bike", "lat": 38.92351816666667, "is_reserved": 0, "lon": -76.99251733333334, "fusion_lon": 0.0, "is_disabled": 0, "fusion_lat": 0.0, "bike_id": "1652d691f233bc3ca570b284dfc9e450", "rental_uris": {"ios": "https://dc.lft.to/lastmile_qr_scan", "android": "https://dc.lft.to/lastmile_qr_scan"}}, {"name": "900844992c1a33d34fb9eecdd67466f9", "type": "electric_bike", "lat": 38.904717, "is_reserved": 0, "lon": -76.92947333333333, "fusion_lon": 0.0, "is_disabled": 0, "fusion_lat": 0.0, "bike_id": "900844992c1a33d34fb9eecdd67466f9", "rental_uris": {"ios": "https://dc.lft.to/lastmile_qr_scan", "android": "https://dc.lft.to/lastmile_qr_scan"}}, {"name": "f814883f1e053ee8c478125d1bf230b4", "type": "electric_scooter", "lat": 38.89221466666667, "is_reserved": 0, "lon": -77.04366983333334, "fusion_lon": 0.0, "is_disabled": 0, "fusion_lat": 0.0, "bike_id": "f814883f1e053ee8c478125d1bf230b4", "rental_uris": {"ios": "https://dc.lft.to/lastmile_qr_scan", "android": "https://dc.lft.to/lastmile_qr_scan"}}, {"name": "471f45d3ea9d669ee50decdfc1c0006d", "type": "electric_scooter", "lat": 38.91111133333333, "is_reserved": 0, "lon": -77.00761583333333, "fusion_lon": 0.0, "is_disabled": 0, "fusion_lat": 0.0, "bike_id": "471f45d3ea9d669ee50decdfc1c0006d", "rental_uris": {"ios": "https://dc.lft.to/lastmile_qr_scan", "android": "https://dc.lft.to/lastmile_qr_scan"}}, {"name": "cf2b346f56229bfecc4629fa05668581", "type": "electric_scooter", "lat": 38.895407666666664, "is_reserved": 0, "lon": -77.04843383333333, "fusion_lon": 0.0, "is_disabled": 0, "fusion_lat": 0.0, "bike_id": "cf2b346f56229bfecc4629fa05668581", "rental_uris": {"ios": "https://dc.lft.to/lastmile_qr_scan", "android": "https://dc.lft.to/lastmile_qr_scan"}}, {"name": "5a065dce9897fc2a67e9f73a2b9e1eef", "type": "electric_scooter", "lat": 38.91271733333333, "is_reserved": 0, "lon": -77.03146333333333, "fusion_lon": 0.0, "is_disabled": 0, "fusion_lat": 0.0, "bike_id": "5a065dce9897fc2a67e9f73a2b9e1eef", "rental_uris": {"ios": "https://dc.lft.to/lastmile_qr_scan", "android": "https://dc.lft.to/lastmile_qr_scan"}}, {"name": "93a44208c43c9fecee59d733dec2d28a", "type": "electric_scooter", "lat": 38.89994683333333, "is_reserved": 0, "lon": -77.05226183333333, "fusion_lon": 0.0, "is_disabled": 0, "fusion_lat": 0.0, "bike_id": "93a44208c43c9fecee59d733dec2d28a", "rental_uris": {"ios": "https://dc.lft.to/lastmile_qr_scan", "android": "https://dc.lft.to/lastmile_qr_scan"}}, {"name": "aae88500f19f909b6c69bdade0ebbf19", "type": "electric_scooter", "lat": 38.9141545, "is_reserved": 0, "lon": -77.039058, "fusion_lon": 0.0, "is_disabled": 0, "fusion_lat": 0.0, "bike_id": "aae88500f19f909b6c69bdade0ebbf19", "rental_uris": {"ios": "https://dc.lft.to/lastmile_qr_scan", "android": "https://dc.lft.to/lastmile_qr_scan"}}, {"name": "8fe63dd621b736c338544c2bf58ac75c", "type": "electric_scooter", "lat": 38.90390633333333, "is_reserved": 0, "lon": -77.03433, "fusion_lon": 0.0, "is_disabled": 0, "fusion_lat": 0.0, "bike_id": "8fe63dd621b736c338544c2bf58ac75c", "rental_uris": {"ios": "https://dc.lft.to/lastmile_qr_scan", "android": "https://dc.lft.to/lastmile_qr_scan"}}, {"name": "3bb920505d595a1f44a8730ba29cac20", "type": "electric_scooter", "lat": 38.8755055, "is_reserved": 0, "lon": -76.96492383333333, "fusion_lon": 0.0, "is_disabled": 0, "fusion_lat": 0.0, "bike_id": "3bb920505d595a1f44a8730ba29cac20", "rental_uris": {"ios": "https://dc.lft.to/lastmile_qr_scan", "android": "https://dc.lft.to/lastmile_qr_scan"}}, {"name": "595bf8ad99e8239d0a13571a5c046caf", "type": "electric_scooter", "lat": 38.91499066666667, "is_reserved": 0, "lon": -77.01850633333333, "fusion_lon": 0.0, "is_disabled": 0, "fusion_lat": 0.0, "bike_id": "595bf8ad99e8239d0a13571a5c046caf", "rental_uris": {"ios": "https://dc.lft.to/lastmile_qr_scan", "android": "https://dc.lft.to/lastmile_qr_scan"}}, {"name": "4d87f9bd3f6b8defb27494ac3ff9b454", "type": "electric_scooter", "lat": 38.915404333333335, "is_reserved": 0, "lon": -77.04610283333334, "fusion_lon": 0.0, "is_disabled": 0, "fusion_lat": 0.0, "bike_id": "4d87f9bd3f6b8defb27494ac3ff9b454", "rental_uris": {"ios": "https://dc.lft.to/lastmile_qr_scan", "android": "https://dc.lft.to/lastmile_qr_scan"}}, {"name": "cd066bda53027fd3feec4b92ff840235", "type": "electric_scooter", "lat": 38.899944166666664, "is_reserved": 0, "lon": -76.985607, "fusion_lon": 0.0, "is_disabled": 0, "fusion_lat": 0.0, "bike_id": "cd066bda53027fd3feec4b92ff840235", "rental_uris": {"ios": "https://dc.lft.to/lastmile_qr_scan", "android": "https://dc.lft.to/lastmile_qr_scan"}}, {"name": "1def13a56f4fa9aa54887bbcf1aac0bb", "type": "electric_scooter", "lat": 38.91264483333333, "is_reserved": 0, "lon": -77.00368016666667, "fusion_lon": 0.0, "is_disabled": 0, "fusion_lat": 0.0, "bike_id": "1def13a56f4fa9aa54887bbcf1aac0bb", "rental_uris": {"ios": "https://dc.lft.to/lastmile_qr_scan", "android": "https://dc.lft.to/lastmile_qr_scan"}}, {"name": "b72b12915b1f000943ca69a226fa3b10", "type": "electric_scooter", "lat": 38.894823833333334, "is_reserved": 0, "lon": -76.94867266666667, "fusion_lon": 0.0, "is_disabled": 0, "fusion_lat": 0.0, "bike_id": "b72b12915b1f000943ca69a226fa3b10", "rental_uris": {"ios": "https://dc.lft.to/lastmile_qr_scan", "android": "https://dc.lft.to/lastmile_qr_scan"}}, {"name": "3f5ce852e9143bbadd8a1bdcde720ed6", "type": "electric_scooter", "lat": 38.930725, "is_reserved": 0, "lon": -77.04131483333333, "fusion_lon": 0.0, "is_disabled": 0, "fusion_lat": 0.0, "bike_id": "3f5ce852e9143bbadd8a1bdcde720ed6", "rental_uris": {"ios": "https://dc.lft.to/lastmile_qr_scan", "android": "https://dc.lft.to/lastmile_qr_scan"}}, {"name": "b9425be6bebaa91ba3bb7cceab60a88b", "type": "electric_scooter", "lat": 38.90059016666667, "is_reserved": 0, "lon": -77.03179583333333, "fusion_lon": 0.0, "is_disabled": 0, "fusion_lat": 0.0, "bike_id": "b9425be6bebaa91ba3bb7cceab60a88b", "rental_uris": {"ios": "https://dc.lft.to/lastmile_qr_scan", "android": "https://dc.lft.to/lastmile_qr_scan"}}, {"name": "84e6cf9ea7c3b638cc0bf18294b3cafd", "type": "electric_scooter", "lat": 38.90444633333333, "is_reserved": 0, "lon": -77.034614, "fusion_lon": 0.0, "is_disabled": 0, "fusion_lat": 0.0, "bike_id": "84e6cf9ea7c3b638cc0bf18294b3cafd", "rental_uris": {"ios": "https://dc.lft.to/lastmile_qr_scan", "android": "https://dc.lft.to/lastmile_qr_scan"}}, {"name": "6c113ba1982a99ad3731747edd737007", "type": "electric_scooter", "lat": 38.899142166666664, "is_reserved": 0, "lon": -77.0329445, "fusion_lon": 0.0, "is_disabled": 0, "fusion_lat": 0.0, "bike_id": "6c113ba1982a99ad3731747edd737007", "rental_uris": {"ios": "https://dc.lft.to/lastmile_qr_scan", "android": "https://dc.lft.to/lastmile_qr_scan"}}, {"name": "09732e649dd7801915a9d2dc2a066678", "type": "electric_scooter", "lat": 38.900841666666665, "is_reserved": 0, "lon": -76.938628, "fusion_lon": 0.0, "is_disabled": 0, "fusion_lat": 0.0, "bike_id": "09732e649dd7801915a9d2dc2a066678", "rental_uris": {"ios": "https://dc.lft.to/lastmile_qr_scan", "android": "https://dc.lft.to/lastmile_qr_scan"}}, {"name": "befdff093991a07f85368e8aede47c25", "type": "electric_scooter", "lat": 38.88027266666667, "is_reserved": 0, "lon": -76.93136766666667, "fusion_lon": 0.0, "is_disabled": 0, "fusion_lat": 0.0, "bike_id": "befdff093991a07f85368e8aede47c25", "rental_uris": {"ios": "https://dc.lft.to/lastmile_qr_scan", "android": "https://dc.lft.to/lastmile_qr_scan"}}, {"name": "e4d594386459492379c93144d7ce09c5", "type": "electric_scooter", "lat": 38.89842483333334, "is_reserved": 0, "lon": -77.03356433333333, "fusion_lon": 0.0, "is_disabled": 0, "fusion_lat": 0.0, "bike_id": "e4d594386459492379c93144d7ce09c5", "rental_uris": {"ios": "https://dc.lft.to/lastmile_qr_scan", "android": "https://dc.lft.to/lastmile_qr_scan"}}, {"name": "fba06c270e30240bdf811c8c79362f55", "type": "electric_scooter", "lat": 38.918900666666666, "is_reserved": 0, "lon": -77.05287816666667, "fusion_lon": 0.0, "is_disabled": 0, "fusion_lat": 0.0, "bike_id": "fba06c270e30240bdf811c8c79362f55", "rental_uris": {"ios": "https://dc.lft.to/lastmile_qr_scan", "android": "https://dc.lft.to/lastmile_qr_scan"}}, {"name": "7bd761d3d460750626ab49eadf36e7b0", "type": "electric_scooter", "lat": 38.8887295, "is_reserved": 0, "lon": -76.9903505, "fusion_lon": 0.0, "is_disabled": 0, "fusion_lat": 0.0, "bike_id": "7bd761d3d460750626ab49eadf36e7b0", "rental_uris": {"ios": "https://dc.lft.to/lastmile_qr_scan", "android": "https://dc.lft.to/lastmile_qr_scan"}}, {"name": "6522beaf11a8b194e1a0df4fc851ee0c", "type": "electric_scooter", "lat": 38.9106155, "is_reserved": 0, "lon": -77.04584316666667, "fusion_lon": 0.0, "is_disabled": 0, "fusion_lat": 0.0, "bike_id": "6522beaf11a8b194e1a0df4fc851ee0c", "rental_uris": {"ios": "https://dc.lft.to/lastmile_qr_scan", "android": "https://dc.lft.to/lastmile_qr_scan"}}, {"name": "25d9c935fee08f34a918c159c5024302", "type": "electric_scooter", "lat": 38.92798666666667, "is_reserved": 0, "lon": -77.053498, "fusion_lon": 0.0, "is_disabled": 0, "fusion_lat": 0.0, "bike_id": "25d9c935fee08f34a918c159c5024302", "rental_uris": {"ios": "https://dc.lft.to/lastmile_qr_scan", "android": "https://dc.lft.to/lastmile_qr_scan"}}, {"name": "82ac85eb23e29a41df6c2f1f4b0d9f87", "type": "electric_bike", "lat": 38.827289666666665, "is_reserved": 0, "lon": -77.00863966666667, "fusion_lon": 0.0, "is_disabled": 0, "fusion_lat": 0.0, "bike_id": "82ac85eb23e29a41df6c2f1f4b0d9f87", "rental_uris": {"ios": "https://dc.lft.to/lastmile_qr_scan", "android": "https://dc.lft.to/lastmile_qr_scan"}}, {"name": "46d64c813de89920805d400ec95fa3be", "type": "electric_scooter", "lat": 38.894943166666664, "is_reserved": 0, "lon": -77.02384633333334, "fusion_lon": 0.0, "is_disabled": 0, "fusion_lat": 0.0, "bike_id": "46d64c813de89920805d400ec95fa3be", "rental_uris": {"ios": "https://dc.lft.to/lastmile_qr_scan", "android": "https://dc.lft.to/lastmile_qr_scan"}}, {"name": "5f4fd5010812db86590e09ffddeda3b0", "type": "electric_scooter", "lat": 38.9168815, "is_reserved": 0, "lon": -77.028064, "fusion_lon": 0.0, "is_disabled": 0, "fusion_lat": 0.0, "bike_id": "5f4fd5010812db86590e09ffddeda3b0", "rental_uris": {"ios": "https://dc.lft.to/lastmile_qr_scan", "android": "https://dc.lft.to/lastmile_qr_scan"}}, {"name": "9dfb9be68653109c0bede1098e6bbe6b", "type": "electric_scooter", "lat": 38.9260495, "is_reserved": 0, "lon": -77.02156233333334, "fusion_lon": 0.0, "is_disabled": 0, "fusion_lat": 0.0, "bike_id": "9dfb9be68653109c0bede1098e6bbe6b", "rental_uris": {"ios": "https://dc.lft.to/lastmile_qr_scan", "android": "https://dc.lft.to/lastmile_qr_scan"}}, {"name": "4d353ef4e8eb47a060a88126e7231c1f", "type": "electric_scooter", "lat": 38.884973, "is_reserved": 0, "lon": -77.00724066666666, "fusion_lon": 0.0, "is_disabled": 0, "fusion_lat": 0.0, "bike_id": "4d353ef4e8eb47a060a88126e7231c1f", "rental_uris": {"ios": "https://dc.lft.to/lastmile_qr_scan", "android": "https://dc.lft.to/lastmile_qr_scan"}}, {"name": "75459b6a10fd7bfb3b9d90a21795d71a", "type": "electric_scooter", "lat": 38.934204333333334, "is_reserved": 0, "lon": -77.02422533333333, "fusion_lon": 0.0, "is_disabled": 0, "fusion_lat": 0.0, "bike_id": "75459b6a10fd7bfb3b9d90a21795d71a", "rental_uris": {"ios": "https://dc.lft.to/lastmile_qr_scan", "android": "https://dc.lft.to/lastmile_qr_scan"}}, {"name": "c8055f5f76b0390734c6cfad123b609f", "type": "electric_scooter", "lat": 38.922886166666665, "is_reserved": 0, "lon": -77.042498, "fusion_lon": 0.0, "is_disabled": 0, "fusion_lat": 0.0, "bike_id": "c8055f5f76b0390734c6cfad123b609f", "rental_uris": {"ios": "https://dc.lft.to/lastmile_qr_scan", "android": "https://dc.lft.to/lastmile_qr_scan"}}, {"name": "a1b2417e90a5fcdd3a72551e28f3317a", "type": "electric_scooter", "lat": 38.900374166666666, "is_reserved": 0, "lon": -77.001862, "fusion_lon": 0.0, "is_disabled": 0, "fusion_lat": 0.0, "bike_id": "a1b2417e90a5fcdd3a72551e28f3317a", "rental_uris": {"ios": "https://dc.lft.to/lastmile_qr_scan", "android": "https://dc.lft.to/lastmile_qr_scan"}}, {"name": "cf1a892ff8abd928d766233bd54e9b9d", "type": "electric_scooter", "lat": 38.89838733333333, "is_reserved": 0, "lon": -77.033445, "fusion_lon": 0.0, "is_disabled": 0, "fusion_lat": 0.0, "bike_id": "cf1a892ff8abd928d766233bd54e9b9d", "rental_uris": {"ios": "https://dc.lft.to/lastmile_qr_scan", "android": "https://dc.lft.to/lastmile_qr_scan"}}, {"name": "4bb7202ae5d3d743d287e1298a790551", "type": "electric_scooter", "lat": 38.89346916666667, "is_reserved": 0, "lon": -76.991476, "fusion_lon": 0.0, "is_disabled": 0, "fusion_lat": 0.0, "bike_id": "4bb7202ae5d3d743d287e1298a790551", "rental_uris": {"ios": "https://dc.lft.to/lastmile_qr_scan", "android": "https://dc.lft.to/lastmile_qr_scan"}}, {"name": "4ee9e2ba1544a4efb0e6dfde120ac4ed", "type": "electric_scooter", "lat": 38.93199966666667, "is_reserved": 0, "lon": -77.03849, "fusion_lon": 0.0, "is_disabled": 0, "fusion_lat": 0.0, "bike_id": "4ee9e2ba1544a4efb0e6dfde120ac4ed", "rental_uris": {"ios": "https://dc.lft.to/lastmile_qr_scan", "android": "https://dc.lft.to/lastmile_qr_scan"}}, {"name": "95f310d86e723e1ed75c79b6d868433d", "type": "electric_scooter", "lat": 38.90380733333333, "is_reserved": 0, "lon": -77.03844416666666, "fusion_lon": 0.0, "is_disabled": 0, "fusion_lat": 0.0, "bike_id": "95f310d86e723e1ed75c79b6d868433d", "rental_uris": {"ios": "https://dc.lft.to/lastmile_qr_scan", "android": "https://dc.lft.to/lastmile_qr_scan"}}, {"name": "d1273e8078e05948d0b4c3d95a7a8044", "type": "electric_scooter", "lat": 38.92468983333333, "is_reserved": 0, "lon": -77.02833516666666, "fusion_lon": 0.0, "is_disabled": 0, "fusion_lat": 0.0, "bike_id": "d1273e8078e05948d0b4c3d95a7a8044", "rental_uris": {"ios": "https://dc.lft.to/lastmile_qr_scan", "android": "https://dc.lft.to/lastmile_qr_scan"}}, {"name": "368e1e16ebe0719c28663e6486235ffd", "type": "electric_scooter", "lat": 38.928800833333334, "is_reserved": 0, "lon": -77.0347965, "fusion_lon": 0.0, "is_disabled": 0, "fusion_lat": 0.0, "bike_id": "368e1e16ebe0719c28663e6486235ffd", "rental_uris": {"ios": "https://dc.lft.to/lastmile_qr_scan", "android": "https://dc.lft.to/lastmile_qr_scan"}}, {"name": "18091ef537756306d93665c54a6be0da", "type": "electric_scooter", "lat": 38.8948065, "is_reserved": 0, "lon": -76.9953825, "fusion_lon": 0.0, "is_disabled": 0, "fusion_lat": 0.0, "bike_id": "18091ef537756306d93665c54a6be0da", "rental_uris": {"ios": "https://dc.lft.to/lastmile_qr_scan", "android": "https://dc.lft.to/lastmile_qr_scan"}}, {"name": "99ff657752663fe995d1167c92c34243", "type": "electric_scooter", "lat": 38.885776666666665, "is_reserved": 0, "lon": -77.01976016666667, "fusion_lon": 0.0, "is_disabled": 0, "fusion_lat": 0.0, "bike_id": "99ff657752663fe995d1167c92c34243", "rental_uris": {"ios": "https://dc.lft.to/lastmile_qr_scan", "android": "https://dc.lft.to/lastmile_qr_scan"}}, {"name": "f8ed41879f2ab8c9b5023659d9591a9c", "type": "electric_scooter", "lat": 38.87917083333333, "is_reserved": 0, "lon": -77.01735633333334, "fusion_lon": 0.0, "is_disabled": 0, "fusion_lat": 0.0, "bike_id": "f8ed41879f2ab8c9b5023659d9591a9c", "rental_uris": {"ios": "https://dc.lft.to/lastmile_qr_scan", "android": "https://dc.lft.to/lastmile_qr_scan"}}, {"name": "10f901bf0d51589b1a0f0994ea3d7f46", "type": "electric_scooter", "lat": 38.917385833333334, "is_reserved": 0, "lon": -77.02306, "fusion_lon": 0.0, "is_disabled": 0, "fusion_lat": 0.0, "bike_id": "10f901bf0d51589b1a0f0994ea3d7f46", "rental_uris": {"ios": "https://dc.lft.to/lastmile_qr_scan", "android": "https://dc.lft.to/lastmile_qr_scan"}}, {"name": "7f4d4aea12c7fe4958c693d3a70bae2e", "type": "electric_bike", "lat": 38.892247, "is_reserved": 0, "lon": -76.97023716666666, "fusion_lon": 0.0, "is_disabled": 0, "fusion_lat": 0.0, "bike_id": "7f4d4aea12c7fe4958c693d3a70bae2e", "rental_uris": {"ios": "https://dc.lft.to/lastmile_qr_scan", "android": "https://dc.lft.to/lastmile_qr_scan"}}, {"name": "2f91a51ece16ffb32b30259ff4142006", "type": "electric_scooter", "lat": 38.940532, "is_reserved": 0, "lon": -77.03290133333333, "fusion_lon": 0.0, "is_disabled": 0, "fusion_lat": 0.0, "bike_id": "2f91a51ece16ffb32b30259ff4142006", "rental_uris": {"ios": "https://dc.lft.to/lastmile_qr_scan", "android": "https://dc.lft.to/lastmile_qr_scan"}}, {"name": "cbdfd881e3d794079c744eec883a3db8", "type": "electric_scooter", "lat": 38.8977545, "is_reserved": 0, "lon": -76.977312, "fusion_lon": 0.0, "is_disabled": 0, "fusion_lat": 0.0, "bike_id": "cbdfd881e3d794079c744eec883a3db8", "rental_uris": {"ios": "https://dc.lft.to/lastmile_qr_scan", "android": "https://dc.lft.to/lastmile_qr_scan"}}, {"name": "aa896f6397e9b88e24d9d19dd1b76010", "type": "electric_scooter", "lat": 38.92784183333333, "is_reserved": 0, "lon": -77.02783833333334, "fusion_lon": 0.0, "is_disabled": 0, "fusion_lat": 0.0, "bike_id": "aa896f6397e9b88e24d9d19dd1b76010", "rental_uris": {"ios": "https://dc.lft.to/lastmile_qr_scan", "android": "https://dc.lft.to/lastmile_qr_scan"}}, {"name": "91210c7c8ab1decf67f36dfa9596de80", "type": "electric_scooter", "lat": 38.863772166666664, "is_reserved": 0, "lon": -76.9906095, "fusion_lon": 0.0, "is_disabled": 0, "fusion_lat": 0.0, "bike_id": "91210c7c8ab1decf67f36dfa9596de80", "rental_uris": {"ios": "https://dc.lft.to/lastmile_qr_scan", "android": "https://dc.lft.to/lastmile_qr_scan"}}, {"name": "23427c7c1669ef1e7e4ae27207cd482a", "type": "electric_scooter", "lat": 38.92084916666667, "is_reserved": 0, "lon": -77.03741633333334, "fusion_lon": 0.0, "is_disabled": 0, "fusion_lat": 0.0, "bike_id": "23427c7c1669ef1e7e4ae27207cd482a", "rental_uris": {"ios": "https://dc.lft.to/lastmile_qr_scan", "android": "https://dc.lft.to/lastmile_qr_scan"}}, {"name": "dcfd1695bc798453a1ed2ce23c04d83b", "type": "electric_scooter", "lat": 38.905527166666666, "is_reserved": 0, "lon": -77.0465165, "fusion_lon": 0.0, "is_disabled": 0, "fusion_lat": 0.0, "bike_id": "dcfd1695bc798453a1ed2ce23c04d83b", "rental_uris": {"ios": "https://dc.lft.to/lastmile_qr_scan", "android": "https://dc.lft.to/lastmile_qr_scan"}}, {"name": "262a75fd9d2525edb4088a5e583755e6", "type": "electric_scooter", "lat": 38.893521166666666, "is_reserved": 0, "lon": -77.01979133333333, "fusion_lon": 0.0, "is_disabled": 0, "fusion_lat": 0.0, "bike_id": "262a75fd9d2525edb4088a5e583755e6", "rental_uris": {"ios": "https://dc.lft.to/lastmile_qr_scan", "android": "https://dc.lft.to/lastmile_qr_scan"}}, {"name": "8a81fd27577736e86cffc2bc7c7fdecd", "type": "electric_scooter", "lat": 38.905869333333335, "is_reserved": 0, "lon": -77.06524266666666, "fusion_lon": 0.0, "is_disabled": 0, "fusion_lat": 0.0, "bike_id": "8a81fd27577736e86cffc2bc7c7fdecd", "rental_uris": {"ios": "https://dc.lft.to/lastmile_qr_scan", "android": "https://dc.lft.to/lastmile_qr_scan"}}, {"name": "97b04962fe137a7fd42e965491b3b9e5", "type": "electric_scooter", "lat": 38.9184735, "is_reserved": 0, "lon": -76.96545266666666, "fusion_lon": 0.0, "is_disabled": 0, "fusion_lat": 0.0, "bike_id": "97b04962fe137a7fd42e965491b3b9e5", "rental_uris": {"ios": "https://dc.lft.to/lastmile_qr_scan", "android": "https://dc.lft.to/lastmile_qr_scan"}}, {"name": "e00729df94ec92fec30855e3a000103b", "type": "electric_scooter", "lat": 38.92636866666667, "is_reserved": 0, "lon": -77.03514383333334, "fusion_lon": 0.0, "is_disabled": 0, "fusion_lat": 0.0, "bike_id": "e00729df94ec92fec30855e3a000103b", "rental_uris": {"ios": "https://dc.lft.to/lastmile_qr_scan", "android": "https://dc.lft.to/lastmile_qr_scan"}}, {"name": "1109d637cdcf69b237adc27817dab9dc", "type": "electric_scooter", "lat": 38.920577333333334, "is_reserved": 0, "lon": -77.02978666666667, "fusion_lon": 0.0, "is_disabled": 0, "fusion_lat": 0.0, "bike_id": "1109d637cdcf69b237adc27817dab9dc", "rental_uris": {"ios": "https://dc.lft.to/lastmile_qr_scan", "android": "https://dc.lft.to/lastmile_qr_scan"}}, {"name": "8bd56cef794209c6b0a34f82593ad4cb", "type": "electric_scooter", "lat": 38.90972583333333, "is_reserved": 0, "lon": -77.01711316666666, "fusion_lon": 0.0, "is_disabled": 0, "fusion_lat": 0.0, "bike_id": "8bd56cef794209c6b0a34f82593ad4cb", "rental_uris": {"ios": "https://dc.lft.to/lastmile_qr_scan", "android": "https://dc.lft.to/lastmile_qr_scan"}}, {"name": "57431077d1d8187ec79eb386bad9640f", "type": "electric_scooter", "lat": 38.919719, "is_reserved": 0, "lon": -77.0010465, "fusion_lon": 0.0, "is_disabled": 0, "fusion_lat": 0.0, "bike_id": "57431077d1d8187ec79eb386bad9640f", "rental_uris": {"ios": "https://dc.lft.to/lastmile_qr_scan", "android": "https://dc.lft.to/lastmile_qr_scan"}}, {"name": "250d700c5409c7570235cd4d39bca350", "type": "electric_scooter", "lat": 38.905888, "is_reserved": 0, "lon": -77.06522083333333, "fusion_lon": 0.0, "is_disabled": 0, "fusion_lat": 0.0, "bike_id": "250d700c5409c7570235cd4d39bca350", "rental_uris": {"ios": "https://dc.lft.to/lastmile_qr_scan", "android": "https://dc.lft.to/lastmile_qr_scan"}}, {"name": "3198966d777b317c7d4955057e44419e", "type": "electric_bike", "lat": 38.95542366666667, "is_reserved": 0, "lon": -77.0229385, "fusion_lon": 0.0, "is_disabled": 0, "fusion_lat": 0.0, "bike_id": "3198966d777b317c7d4955057e44419e", "rental_uris": {"ios": "https://dc.lft.to/lastmile_qr_scan", "android": "https://dc.lft.to/lastmile_qr_scan"}}, {"name": "8b5b4834281230ec165036ab01bc72d1", "type": "electric_scooter", "lat": 38.9234335, "is_reserved": 0, "lon": -77.01903166666666, "fusion_lon": 0.0, "is_disabled": 0, "fusion_lat": 0.0, "bike_id": "8b5b4834281230ec165036ab01bc72d1", "rental_uris": {"ios": "https://dc.lft.to/lastmile_qr_scan", "android": "https://dc.lft.to/lastmile_qr_scan"}}, {"name": "28462273773f742ca8e0200241be5c96", "type": "electric_scooter", "lat": 38.9050915, "is_reserved": 0, "lon": -77.063869, "fusion_lon": 0.0, "is_disabled": 0, "fusion_lat": 0.0, "bike_id": "28462273773f742ca8e0200241be5c96", "rental_uris": {"ios": "https://dc.lft.to/lastmile_qr_scan", "android": "https://dc.lft.to/lastmile_qr_scan"}}, {"name": "d7170cd340441787a0ea927856aab934", "type": "electric_scooter", "lat": 38.90967066666666, "is_reserved": 0, "lon": -77.01120416666667, "fusion_lon": 0.0, "is_disabled": 0, "fusion_lat": 0.0, "bike_id": "d7170cd340441787a0ea927856aab934", "rental_uris": {"ios": "https://dc.lft.to/lastmile_qr_scan", "android": "https://dc.lft.to/lastmile_qr_scan"}}, {"name": "55ad35bc9ce9c244ede60a9ef20f1c5e", "type": "electric_scooter", "lat": 38.914206166666666, "is_reserved": 0, "lon": -77.04644533333334, "fusion_lon": 0.0, "is_disabled": 0, "fusion_lat": 0.0, "bike_id": "55ad35bc9ce9c244ede60a9ef20f1c5e", "rental_uris": {"ios": "https://dc.lft.to/lastmile_qr_scan", "android": "https://dc.lft.to/lastmile_qr_scan"}}, {"name": "63dd9e797f93ed192794e9014dd9b5e0", "type": "electric_scooter", "lat": 38.8994465, "is_reserved": 0, "lon": -76.98010633333334, "fusion_lon": 0.0, "is_disabled": 0, "fusion_lat": 0.0, "bike_id": "63dd9e797f93ed192794e9014dd9b5e0", "rental_uris": {"ios": "https://dc.lft.to/lastmile_qr_scan", "android": "https://dc.lft.to/lastmile_qr_scan"}}, {"name": "87d50ed6121887a08f8de076d4270c13", "type": "electric_scooter", "lat": 38.937166833333336, "is_reserved": 0, "lon": -77.02939016666667, "fusion_lon": 0.0, "is_disabled": 0, "fusion_lat": 0.0, "bike_id": "87d50ed6121887a08f8de076d4270c13", "rental_uris": {"ios": "https://dc.lft.to/lastmile_qr_scan", "android": "https://dc.lft.to/lastmile_qr_scan"}}, {"name": "9825b9d6a5721ca98cb7967ce8027923", "type": "electric_scooter", "lat": 38.892217, "is_reserved": 0, "lon": -77.03091166666667, "fusion_lon": 0.0, "is_disabled": 0, "fusion_lat": 0.0, "bike_id": "9825b9d6a5721ca98cb7967ce8027923", "rental_uris": {"ios": "https://dc.lft.to/lastmile_qr_scan", "android": "https://dc.lft.to/lastmile_qr_scan"}}, {"name": "1ea31c37caacf59463ecbcc2a864590c", "type": "electric_scooter", "lat": 38.900333, "is_reserved": 0, "lon": -77.0020235, "fusion_lon": 0.0, "is_disabled": 0, "fusion_lat": 0.0, "bike_id": "1ea31c37caacf59463ecbcc2a864590c", "rental_uris": {"ios": "https://dc.lft.to/lastmile_qr_scan", "android": "https://dc.lft.to/lastmile_qr_scan"}}, {"name": "bcb1cc16a8b34ce387b2a8a74b706039", "type": "electric_scooter", "lat": 38.88514133333334, "is_reserved": 0, "lon": -77.00571316666667, "fusion_lon": 0.0, "is_disabled": 0, "fusion_lat": 0.0, "bike_id": "bcb1cc16a8b34ce387b2a8a74b706039", "rental_uris": {"ios": "https://dc.lft.to/lastmile_qr_scan", "android": "https://dc.lft.to/lastmile_qr_scan"}}, {"name": "08b638dd73fa8d0ffccffa78deb00f2a", "type": "electric_scooter", "lat": 38.903935833333335, "is_reserved": 0, "lon": -77.01002716666666, "fusion_lon": 0.0, "is_disabled": 0, "fusion_lat": 0.0, "bike_id": "08b638dd73fa8d0ffccffa78deb00f2a", "rental_uris": {"ios": "https://dc.lft.to/lastmile_qr_scan", "android": "https://dc.lft.to/lastmile_qr_scan"}}, {"name": "1acdc67595c00c3fe0167fba0aac01c9", "type": "electric_scooter", "lat": 38.898546, "is_reserved": 0, "lon": -77.00735783333333, "fusion_lon": 0.0, "is_disabled": 0, "fusion_lat": 0.0, "bike_id": "1acdc67595c00c3fe0167fba0aac01c9", "rental_uris": {"ios": "https://dc.lft.to/lastmile_qr_scan", "android": "https://dc.lft.to/lastmile_qr_scan"}}, {"name": "c6912927c2f34c95d90a33fae188f20a", "type": "electric_scooter", "lat": 38.934313, "is_reserved": 0, "lon": -77.03998183333333, "fusion_lon": 0.0, "is_disabled": 0, "fusion_lat": 0.0, "bike_id": "c6912927c2f34c95d90a33fae188f20a", "rental_uris": {"ios": "https://dc.lft.to/lastmile_qr_scan", "android": "https://dc.lft.to/lastmile_qr_scan"}}, {"name": "2730a7892a18939f369faae3b43a2e7b", "type": "electric_scooter", "lat": 38.904985333333336, "is_reserved": 0, "lon": -77.02947583333334, "fusion_lon": 0.0, "is_disabled": 0, "fusion_lat": 0.0, "bike_id": "2730a7892a18939f369faae3b43a2e7b", "rental_uris": {"ios": "https://dc.lft.to/lastmile_qr_scan", "android": "https://dc.lft.to/lastmile_qr_scan"}}, {"name": "93473cfcb505c908ea81786fc04d8375", "type": "electric_bike", "lat": 38.950746, "is_reserved": 0, "lon": -77.0120285, "fusion_lon": 0.0, "is_disabled": 0, "fusion_lat": 0.0, "bike_id": "93473cfcb505c908ea81786fc04d8375", "rental_uris": {"ios": "https://dc.lft.to/lastmile_qr_scan", "android": "https://dc.lft.to/lastmile_qr_scan"}}, {"name": "3e9d477406e75b966a424570d89b8dfc", "type": "electric_scooter", "lat": 38.939716833333335, "is_reserved": 0, "lon": -77.0325725, "fusion_lon": 0.0, "is_disabled": 0, "fusion_lat": 0.0, "bike_id": "3e9d477406e75b966a424570d89b8dfc", "rental_uris": {"ios": "https://dc.lft.to/lastmile_qr_scan", "android": "https://dc.lft.to/lastmile_qr_scan"}}, {"name": "78bcf8986ab79b5939507e979b0a153a", "type": "electric_scooter", "lat": 38.89482433333333, "is_reserved": 0, "lon": -76.94870683333333, "fusion_lon": 0.0, "is_disabled": 0, "fusion_lat": 0.0, "bike_id": "78bcf8986ab79b5939507e979b0a153a", "rental_uris": {"ios": "https://dc.lft.to/lastmile_qr_scan", "android": "https://dc.lft.to/lastmile_qr_scan"}}, {"name": "c35796e05d62361177e9e1d445971769", "type": "electric_scooter", "lat": 38.905832333333336, "is_reserved": 0, "lon": -77.05099383333334, "fusion_lon": 0.0, "is_disabled": 0, "fusion_lat": 0.0, "bike_id": "c35796e05d62361177e9e1d445971769", "rental_uris": {"ios": "https://dc.lft.to/lastmile_qr_scan", "android": "https://dc.lft.to/lastmile_qr_scan"}}, {"name": "ea728e131dba60bbf9f77987e998e784", "type": "electric_bike", "lat": 38.88400383333333, "is_reserved": 0, "lon": -76.9605565, "fusion_lon": 0.0, "is_disabled": 0, "fusion_lat": 0.0, "bike_id": "ea728e131dba60bbf9f77987e998e784", "rental_uris": {"ios": "https://dc.lft.to/lastmile_qr_scan", "android": "https://dc.lft.to/lastmile_qr_scan"}}, {"name": "0f4dbc918fde13945dbee4b7d1757942", "type": "electric_scooter", "lat": 38.93718633333334, "is_reserved": 0, "lon": -77.02432733333333, "fusion_lon": 0.0, "is_disabled": 0, "fusion_lat": 0.0, "bike_id": "0f4dbc918fde13945dbee4b7d1757942", "rental_uris": {"ios": "https://dc.lft.to/lastmile_qr_scan", "android": "https://dc.lft.to/lastmile_qr_scan"}}, {"name": "9aa311311d6c353930578468b2a558ef", "type": "electric_scooter", "lat": 38.9227635, "is_reserved": 0, "lon": -77.036674, "fusion_lon": 0.0, "is_disabled": 0, "fusion_lat": 0.0, "bike_id": "9aa311311d6c353930578468b2a558ef", "rental_uris": {"ios": "https://dc.lft.to/lastmile_qr_scan", "android": "https://dc.lft.to/lastmile_qr_scan"}}, {"name": "f08d207cce8d3b5ff4d70c6ba130fe31", "type": "electric_scooter", "lat": 38.91706533333333, "is_reserved": 0, "lon": -77.00118133333334, "fusion_lon": 0.0, "is_disabled": 0, "fusion_lat": 0.0, "bike_id": "f08d207cce8d3b5ff4d70c6ba130fe31", "rental_uris": {"ios": "https://dc.lft.to/lastmile_qr_scan", "android": "https://dc.lft.to/lastmile_qr_scan"}}, {"name": "a8c429da20d4f82510c5ba353f1c0be3", "type": "electric_scooter", "lat": 38.927137333333334, "is_reserved": 0, "lon": -77.0385545, "fusion_lon": 0.0, "is_disabled": 0, "fusion_lat": 0.0, "bike_id": "a8c429da20d4f82510c5ba353f1c0be3", "rental_uris": {"ios": "https://dc.lft.to/lastmile_qr_scan", "android": "https://dc.lft.to/lastmile_qr_scan"}}, {"name": "7d7f3d42dea7ff22c14aacb49bc9a9ef", "type": "electric_scooter", "lat": 38.87270983333333, "is_reserved": 0, "lon": -77.01530366666667, "fusion_lon": 0.0, "is_disabled": 0, "fusion_lat": 0.0, "bike_id": "7d7f3d42dea7ff22c14aacb49bc9a9ef", "rental_uris": {"ios": "https://dc.lft.to/lastmile_qr_scan", "android": "https://dc.lft.to/lastmile_qr_scan"}}, {"name": "7178b209249472480feab0011e070419", "type": "electric_bike", "lat": 38.89817566666667, "is_reserved": 0, "lon": -76.99070366666666, "fusion_lon": 0.0, "is_disabled": 0, "fusion_lat": 0.0, "bike_id": "7178b209249472480feab0011e070419", "rental_uris": {"ios": "https://dc.lft.to/lastmile_qr_scan", "android": "https://dc.lft.to/lastmile_qr_scan"}}, {"name": "6e441854ad417529237066e1a4b116ad", "type": "electric_scooter", "lat": 38.88324883333333, "is_reserved": 0, "lon": -77.01777266666667, "fusion_lon": 0.0, "is_disabled": 0, "fusion_lat": 0.0, "bike_id": "6e441854ad417529237066e1a4b116ad", "rental_uris": {"ios": "https://dc.lft.to/lastmile_qr_scan", "android": "https://dc.lft.to/lastmile_qr_scan"}}, {"name": "0d5e6e24e6b7d5c20ecae76c865df1e1", "type": "electric_bike", "lat": 38.9564395, "is_reserved": 0, "lon": -76.99741583333333, "fusion_lon": 0.0, "is_disabled": 0, "fusion_lat": 0.0, "bike_id": "0d5e6e24e6b7d5c20ecae76c865df1e1", "rental_uris": {"ios": "https://dc.lft.to/lastmile_qr_scan", "android": "https://dc.lft.to/lastmile_qr_scan"}}, {"name": "a09423958ee3632aae25bfa6790808c1", "type": "electric_scooter", "lat": 38.913983, "is_reserved": 0, "lon": -77.0332165, "fusion_lon": 0.0, "is_disabled": 0, "fusion_lat": 0.0, "bike_id": "a09423958ee3632aae25bfa6790808c1", "rental_uris": {"ios": "https://dc.lft.to/lastmile_qr_scan", "android": "https://dc.lft.to/lastmile_qr_scan"}}, {"name": "68bd81b1d60ab9787e57f90b7581f4f6", "type": "electric_bike", "lat": 38.951859, "is_reserved": 0, "lon": -76.9354505, "fusion_lon": 0.0, "is_disabled": 0, "fusion_lat": 0.0, "bike_id": "68bd81b1d60ab9787e57f90b7581f4f6", "rental_uris": {"ios": "https://dc.lft.to/lastmile_qr_scan", "android": "https://dc.lft.to/lastmile_qr_scan"}}, {"name": "f1a71a110f5b296aa1a28ea838abab4f", "type": "electric_scooter", "lat": 38.90280666666666, "is_reserved": 0, "lon": -77.0382885, "fusion_lon": 0.0, "is_disabled": 0, "fusion_lat": 0.0, "bike_id": "f1a71a110f5b296aa1a28ea838abab4f", "rental_uris": {"ios": "https://dc.lft.to/lastmile_qr_scan", "android": "https://dc.lft.to/lastmile_qr_scan"}}, {"name": "f68c07d4cc822bb36c6c1baef0b36fad", "type": "electric_bike", "lat": 38.959251333333334, "is_reserved": 0, "lon": -76.925317, "fusion_lon": 0.0, "is_disabled": 0, "fusion_lat": 0.0, "bike_id": "f68c07d4cc822bb36c6c1baef0b36fad", "rental_uris": {"ios": "https://dc.lft.to/lastmile_qr_scan", "android": "https://dc.lft.to/lastmile_qr_scan"}}, {"name": "3ec9d91be9dfa28b58b7ff48b45619b2", "type": "electric_scooter", "lat": 38.91235316666667, "is_reserved": 0, "lon": -77.048692, "fusion_lon": 0.0, "is_disabled": 0, "fusion_lat": 0.0, "bike_id": "3ec9d91be9dfa28b58b7ff48b45619b2", "rental_uris": {"ios": "https://dc.lft.to/lastmile_qr_scan", "android": "https://dc.lft.to/lastmile_qr_scan"}}, {"name": "7ca6bd9cd2941404a4b8b3f6782c6975", "type": "electric_scooter", "lat": 38.909702833333334, "is_reserved": 0, "lon": -77.0111455, "fusion_lon": 0.0, "is_disabled": 0, "fusion_lat": 0.0, "bike_id": "7ca6bd9cd2941404a4b8b3f6782c6975", "rental_uris": {"ios": "https://dc.lft.to/lastmile_qr_scan", "android": "https://dc.lft.to/lastmile_qr_scan"}}, {"name": "3cacb709ff35a77dd11c09a3de46b469", "type": "electric_bike", "lat": 38.92759516666667, "is_reserved": 0, "lon": -77.03231783333334, "fusion_lon": 0.0, "is_disabled": 0, "fusion_lat": 0.0, "bike_id": "3cacb709ff35a77dd11c09a3de46b469", "rental_uris": {"ios": "https://dc.lft.to/lastmile_qr_scan", "android": "https://dc.lft.to/lastmile_qr_scan"}}, {"name": "778eff73687cbfaec6b49de25e2606fd", "type": "electric_scooter", "lat": 38.924400166666665, "is_reserved": 0, "lon": -77.04250383333333, "fusion_lon": 0.0, "is_disabled": 0, "fusion_lat": 0.0, "bike_id": "778eff73687cbfaec6b49de25e2606fd", "rental_uris": {"ios": "https://dc.lft.to/lastmile_qr_scan", "android": "https://dc.lft.to/lastmile_qr_scan"}}, {"name": "b6d7261aedbe6571005c0d2ca5a5a2c3", "type": "electric_scooter", "lat": 38.91549533333333, "is_reserved": 0, "lon": -77.038455, "fusion_lon": 0.0, "is_disabled": 0, "fusion_lat": 0.0, "bike_id": "b6d7261aedbe6571005c0d2ca5a5a2c3", "rental_uris": {"ios": "https://dc.lft.to/lastmile_qr_scan", "android": "https://dc.lft.to/lastmile_qr_scan"}}, {"name": "1b9bfffad09062fa45b5df21064bbd7d", "type": "electric_scooter", "lat": 38.906712166666665, "is_reserved": 0, "lon": -77.02691233333333, "fusion_lon": 0.0, "is_disabled": 0, "fusion_lat": 0.0, "bike_id": "1b9bfffad09062fa45b5df21064bbd7d", "rental_uris": {"ios": "https://dc.lft.to/lastmile_qr_scan", "android": "https://dc.lft.to/lastmile_qr_scan"}}, {"name": "f0c21b9b3b1c7c90b74f6a36fae9984a", "type": "electric_bike", "lat": 38.939589833333336, "is_reserved": 0, "lon": -77.36092266666667, "fusion_lon": 0.0, "is_disabled": 0, "fusion_lat": 0.0, "bike_id": "f0c21b9b3b1c7c90b74f6a36fae9984a", "rental_uris": {"ios": "https://dc.lft.to/lastmile_qr_scan", "android": "https://dc.lft.to/lastmile_qr_scan"}}, {"name": "3d24e7b896e97594f67b1f08de625070", "type": "electric_scooter", "lat": 38.86962466666667, "is_reserved": 0, "lon": -77.0138205, "fusion_lon": 0.0, "is_disabled": 0, "fusion_lat": 0.0, "bike_id": "3d24e7b896e97594f67b1f08de625070", "rental_uris": {"ios": "https://dc.lft.to/lastmile_qr_scan", "android": "https://dc.lft.to/lastmile_qr_scan"}}, {"name": "45ece4e07969daf505dea4aaa0f99650", "type": "electric_scooter", "lat": 38.975019, "is_reserved": 0, "lon": -77.01685266666667, "fusion_lon": 0.0, "is_disabled": 0, "fusion_lat": 0.0, "bike_id": "45ece4e07969daf505dea4aaa0f99650", "rental_uris": {"ios": "https://dc.lft.to/lastmile_qr_scan", "android": "https://dc.lft.to/lastmile_qr_scan"}}, {"name": "608540ed4a59b37cd99cd18521d2237c", "type": "electric_bike", "lat": 38.9532955, "is_reserved": 0, "lon": -76.98247216666667, "fusion_lon": 0.0, "is_disabled": 0, "fusion_lat": 0.0, "bike_id": "608540ed4a59b37cd99cd18521d2237c", "rental_uris": {"ios": "https://dc.lft.to/lastmile_qr_scan", "android": "https://dc.lft.to/lastmile_qr_scan"}}, {"name": "261e727b0e8bb1489719ae92957f6cf8", "type": "electric_bike", "lat": 38.8775415, "is_reserved": 0, "lon": -76.97985983333334, "fusion_lon": 0.0, "is_disabled": 0, "fusion_lat": 0.0, "bike_id": "261e727b0e8bb1489719ae92957f6cf8", "rental_uris": {"ios": "https://dc.lft.to/lastmile_qr_scan", "android": "https://dc.lft.to/lastmile_qr_scan"}}, {"name": "d7bd84cd0f4bc180b04d5d896873a763", "type": "electric_scooter", "lat": 38.93494666666667, "is_reserved": 0, "lon": -77.03283483333334, "fusion_lon": 0.0, "is_disabled": 0, "fusion_lat": 0.0, "bike_id": "d7bd84cd0f4bc180b04d5d896873a763", "rental_uris": {"ios": "https://dc.lft.to/lastmile_qr_scan", "android": "https://dc.lft.to/lastmile_qr_scan"}}, {"name": "96dcee4813c81f5182481ff6d4786727", "type": "electric_scooter", "lat": 38.903022666666665, "is_reserved": 0, "lon": -76.99866516666667, "fusion_lon": 0.0, "is_disabled": 0, "fusion_lat": 0.0, "bike_id": "96dcee4813c81f5182481ff6d4786727", "rental_uris": {"ios": "https://dc.lft.to/lastmile_qr_scan", "android": "https://dc.lft.to/lastmile_qr_scan"}}, {"name": "d82e314f31ad7d78fa46b01dcfe4fbc7", "type": "electric_scooter", "lat": 38.917333, "is_reserved": 0, "lon": -77.06844316666667, "fusion_lon": 0.0, "is_disabled": 0, "fusion_lat": 0.0, "bike_id": "d82e314f31ad7d78fa46b01dcfe4fbc7", "rental_uris": {"ios": "https://dc.lft.to/lastmile_qr_scan", "android": "https://dc.lft.to/lastmile_qr_scan"}}, {"name": "0dd3cd1d33624c67704cb48425ed9e3d", "type": "electric_scooter", "lat": 38.87630033333333, "is_reserved": 0, "lon": -76.96527133333333, "fusion_lon": 0.0, "is_disabled": 0, "fusion_lat": 0.0, "bike_id": "0dd3cd1d33624c67704cb48425ed9e3d", "rental_uris": {"ios": "https://dc.lft.to/lastmile_qr_scan", "android": "https://dc.lft.to/lastmile_qr_scan"}}, {"name": "f9270306b462679210dc8e189fb1525e", "type": "electric_scooter", "lat": 38.90560166666667, "is_reserved": 0, "lon": -77.00608983333333, "fusion_lon": 0.0, "is_disabled": 0, "fusion_lat": 0.0, "bike_id": "f9270306b462679210dc8e189fb1525e", "rental_uris": {"ios": "https://dc.lft.to/lastmile_qr_scan", "android": "https://dc.lft.to/lastmile_qr_scan"}}, {"name": "5bb56ec766ca4867d670af86890073ed", "type": "electric_scooter", "lat": 38.9191265, "is_reserved": 0, "lon": -77.01341916666667, "fusion_lon": 0.0, "is_disabled": 0, "fusion_lat": 0.0, "bike_id": "5bb56ec766ca4867d670af86890073ed", "rental_uris": {"ios": "https://dc.lft.to/lastmile_qr_scan", "android": "https://dc.lft.to/lastmile_qr_scan"}}, {"name": "6c7e722229fc3562bf6d7bba62f183df", "type": "electric_scooter", "lat": 38.89584283333333, "is_reserved": 0, "lon": -76.93716383333333, "fusion_lon": 0.0, "is_disabled": 0, "fusion_lat": 0.0, "bike_id": "6c7e722229fc3562bf6d7bba62f183df", "rental_uris": {"ios": "https://dc.lft.to/lastmile_qr_scan", "android": "https://dc.lft.to/lastmile_qr_scan"}}, {"name": "4f2759c34ca47d6b20409f22a15fdfd2", "type": "electric_scooter", "lat": 38.856192, "is_reserved": 0, "lon": -76.980179, "fusion_lon": 0.0, "is_disabled": 0, "fusion_lat": 0.0, "bike_id": "4f2759c34ca47d6b20409f22a15fdfd2", "rental_uris": {"ios": "https://dc.lft.to/lastmile_qr_scan", "android": "https://dc.lft.to/lastmile_qr_scan"}}, {"name": "f88232837b94d7e5e80803def7a0ba8c", "type": "electric_scooter", "lat": 38.8429395, "is_reserved": 0, "lon": -76.99946683333333, "fusion_lon": 0.0, "is_disabled": 0, "fusion_lat": 0.0, "bike_id": "f88232837b94d7e5e80803def7a0ba8c", "rental_uris": {"ios": "https://dc.lft.to/lastmile_qr_scan", "android": "https://dc.lft.to/lastmile_qr_scan"}}, {"name": "81a1f747aa781ab2320a45776ea38d28", "type": "electric_scooter", "lat": 38.904397333333335, "is_reserved": 0, "lon": -76.99618566666666, "fusion_lon": 0.0, "is_disabled": 0, "fusion_lat": 0.0, "bike_id": "81a1f747aa781ab2320a45776ea38d28", "rental_uris": {"ios": "https://dc.lft.to/lastmile_qr_scan", "android": "https://dc.lft.to/lastmile_qr_scan"}}, {"name": "98094bad20af54702d8bab1574d44a09", "type": "electric_scooter", "lat": 38.87839533333333, "is_reserved": 0, "lon": -76.990356, "fusion_lon": 0.0, "is_disabled": 0, "fusion_lat": 0.0, "bike_id": "98094bad20af54702d8bab1574d44a09", "rental_uris": {"ios": "https://dc.lft.to/lastmile_qr_scan", "android": "https://dc.lft.to/lastmile_qr_scan"}}, {"name": "a09145d295a26c7d21b76c13e5e43015", "type": "electric_scooter", "lat": 38.905372666666665, "is_reserved": 0, "lon": -77.0592, "fusion_lon": 0.0, "is_disabled": 0, "fusion_lat": 0.0, "bike_id": "a09145d295a26c7d21b76c13e5e43015", "rental_uris": {"ios": "https://dc.lft.to/lastmile_qr_scan", "android": "https://dc.lft.to/lastmile_qr_scan"}}, {"name": "12bad23e02e0e1292845e7e96021c44f", "type": "electric_scooter", "lat": 38.917099, "is_reserved": 0, "lon": -77.03855633333333, "fusion_lon": 0.0, "is_disabled": 0, "fusion_lat": 0.0, "bike_id": "12bad23e02e0e1292845e7e96021c44f", "rental_uris": {"ios": "https://dc.lft.to/lastmile_qr_scan", "android": "https://dc.lft.to/lastmile_qr_scan"}}, {"name": "ad3851bcdec47345f8a5d2afd6785ca5", "type": "electric_bike", "lat": 38.828752, "is_reserved": 0, "lon": -77.112186, "fusion_lon": 0.0, "is_disabled": 0, "fusion_lat": 0.0, "bike_id": "ad3851bcdec47345f8a5d2afd6785ca5", "rental_uris": {"ios": "https://dc.lft.to/lastmile_qr_scan", "android": "https://dc.lft.to/lastmile_qr_scan"}}, {"name": "bb714d95d2f3e742de7d27ef65306544", "type": "electric_scooter", "lat": 38.91926183333333, "is_reserved": 0, "lon": -77.0312325, "fusion_lon": 0.0, "is_disabled": 0, "fusion_lat": 0.0, "bike_id": "bb714d95d2f3e742de7d27ef65306544", "rental_uris": {"ios": "https://dc.lft.to/lastmile_qr_scan", "android": "https://dc.lft.to/lastmile_qr_scan"}}, {"name": "6802c31c899542a4724c733e9ffc5548", "type": "electric_scooter", "lat": 38.87632816666667, "is_reserved": 0, "lon": -77.00913216666666, "fusion_lon": 0.0, "is_disabled": 0, "fusion_lat": 0.0, "bike_id": "6802c31c899542a4724c733e9ffc5548", "rental_uris": {"ios": "https://dc.lft.to/lastmile_qr_scan", "android": "https://dc.lft.to/lastmile_qr_scan"}}, {"name": "f85e84ecf8922513a6b2b00c04917f9a", "type": "electric_scooter", "lat": 38.924477333333336, "is_reserved": 0, "lon": -77.033544, "fusion_lon": 0.0, "is_disabled": 0, "fusion_lat": 0.0, "bike_id": "f85e84ecf8922513a6b2b00c04917f9a", "rental_uris": {"ios": "https://dc.lft.to/lastmile_qr_scan", "android": "https://dc.lft.to/lastmile_qr_scan"}}, {"name": "324f48fc52735e1743bc80a1d4d2de95", "type": "electric_scooter", "lat": 38.8841155, "is_reserved": 0, "lon": -77.01532, "fusion_lon": 0.0, "is_disabled": 0, "fusion_lat": 0.0, "bike_id": "324f48fc52735e1743bc80a1d4d2de95", "rental_uris": {"ios": "https://dc.lft.to/lastmile_qr_scan", "android": "https://dc.lft.to/lastmile_qr_scan"}}, {"name": "9c0431093e84d93efcdacb1af21152f1", "type": "electric_scooter", "lat": 38.90586416666667, "is_reserved": 0, "lon": -77.04875, "fusion_lon": 0.0, "is_disabled": 0, "fusion_lat": 0.0, "bike_id": "9c0431093e84d93efcdacb1af21152f1", "rental_uris": {"ios": "https://dc.lft.to/lastmile_qr_scan", "android": "https://dc.lft.to/lastmile_qr_scan"}}, {"name": "b0d178d57b0563dd4ea78a6dbf11651e", "type": "electric_scooter", "lat": 38.90006283333334, "is_reserved": 0, "lon": -77.01136066666666, "fusion_lon": 0.0, "is_disabled": 0, "fusion_lat": 0.0, "bike_id": "b0d178d57b0563dd4ea78a6dbf11651e", "rental_uris": {"ios": "https://dc.lft.to/lastmile_qr_scan", "android": "https://dc.lft.to/lastmile_qr_scan"}}, {"name": "5ffbdb97a921af808d66c7f1da9fea56", "type": "electric_bike", "lat": 38.990881333333334, "is_reserved": 0, "lon": -76.87491483333334, "fusion_lon": 0.0, "is_disabled": 0, "fusion_lat": 0.0, "bike_id": "5ffbdb97a921af808d66c7f1da9fea56", "rental_uris": {"ios": "https://dc.lft.to/lastmile_qr_scan", "android": "https://dc.lft.to/lastmile_qr_scan"}}, {"name": "5802128e2f5edbc9f66e5b7a72f2f30c", "type": "electric_scooter", "lat": 38.89229433333333, "is_reserved": 0, "lon": -77.02206016666666, "fusion_lon": 0.0, "is_disabled": 0, "fusion_lat": 0.0, "bike_id": "5802128e2f5edbc9f66e5b7a72f2f30c", "rental_uris": {"ios": "https://dc.lft.to/lastmile_qr_scan", "android": "https://dc.lft.to/lastmile_qr_scan"}}, {"name": "af6d30c52bd540a67f262393fd660e9d", "type": "electric_scooter", "lat": 38.94181283333333, "is_reserved": 0, "lon": -77.03089716666666, "fusion_lon": 0.0, "is_disabled": 0, "fusion_lat": 0.0, "bike_id": "af6d30c52bd540a67f262393fd660e9d", "rental_uris": {"ios": "https://dc.lft.to/lastmile_qr_scan", "android": "https://dc.lft.to/lastmile_qr_scan"}}, {"name": "505ae64846781e872d296a870db5186f", "type": "electric_scooter", "lat": 38.90603516666667, "is_reserved": 0, "lon": -77.01317666666667, "fusion_lon": 0.0, "is_disabled": 0, "fusion_lat": 0.0, "bike_id": "505ae64846781e872d296a870db5186f", "rental_uris": {"ios": "https://dc.lft.to/lastmile_qr_scan", "android": "https://dc.lft.to/lastmile_qr_scan"}}, {"name": "6447c65d890fa287b88ed4d87176b0fe", "type": "electric_scooter", "lat": 38.93525066666667, "is_reserved": 0, "lon": -77.028524, "fusion_lon": 0.0, "is_disabled": 0, "fusion_lat": 0.0, "bike_id": "6447c65d890fa287b88ed4d87176b0fe", "rental_uris": {"ios": "https://dc.lft.to/lastmile_qr_scan", "android": "https://dc.lft.to/lastmile_qr_scan"}}, {"name": "22c6e81a65f159e9f8e1df05574b7257", "type": "electric_bike", "lat": 38.85439366666667, "is_reserved": 0, "lon": -77.11704683333333, "fusion_lon": 0.0, "is_disabled": 0, "fusion_lat": 0.0, "bike_id": "22c6e81a65f159e9f8e1df05574b7257", "rental_uris": {"ios": "https://dc.lft.to/lastmile_qr_scan", "android": "https://dc.lft.to/lastmile_qr_scan"}}, {"name": "37c29e6d87c088d9508c339aa772ddd4", "type": "electric_scooter", "lat": 38.897509666666664, "is_reserved": 0, "lon": -77.04685183333333, "fusion_lon": 0.0, "is_disabled": 0, "fusion_lat": 0.0, "bike_id": "37c29e6d87c088d9508c339aa772ddd4", "rental_uris": {"ios": "https://dc.lft.to/lastmile_qr_scan", "android": "https://dc.lft.to/lastmile_qr_scan"}}, {"name": "339e86cddcd1cda00281f5d2613e74a8", "type": "electric_scooter", "lat": 38.8790095, "is_reserved": 0, "lon": -77.02204416666666, "fusion_lon": 0.0, "is_disabled": 0, "fusion_lat": 0.0, "bike_id": "339e86cddcd1cda00281f5d2613e74a8", "rental_uris": {"ios": "https://dc.lft.to/lastmile_qr_scan", "android": "https://dc.lft.to/lastmile_qr_scan"}}, {"name": "cd092d7e92f2b46e428ddb2139817c3b", "type": "electric_scooter", "lat": 38.8975125, "is_reserved": 0, "lon": -77.04687866666667, "fusion_lon": 0.0, "is_disabled": 0, "fusion_lat": 0.0, "bike_id": "cd092d7e92f2b46e428ddb2139817c3b", "rental_uris": {"ios": "https://dc.lft.to/lastmile_qr_scan", "android": "https://dc.lft.to/lastmile_qr_scan"}}, {"name": "23e9baf6ce8c6bca72610b23b7f2a5bb", "type": "electric_scooter", "lat": 38.910622000000004, "is_reserved": 0, "lon": -77.03036483333334, "fusion_lon": 0.0, "is_disabled": 0, "fusion_lat": 0.0, "bike_id": "23e9baf6ce8c6bca72610b23b7f2a5bb", "rental_uris": {"ios": "https://dc.lft.to/lastmile_qr_scan", "android": "https://dc.lft.to/lastmile_qr_scan"}}, {"name": "54ea853850599c70e18529d0766c9223", "type": "electric_scooter", "lat": 38.9268455, "is_reserved": 0, "lon": -77.02158516666667, "fusion_lon": 0.0, "is_disabled": 0, "fusion_lat": 0.0, "bike_id": "54ea853850599c70e18529d0766c9223", "rental_uris": {"ios": "https://dc.lft.to/lastmile_qr_scan", "android": "https://dc.lft.to/lastmile_qr_scan"}}, {"name": "d3a880c96432ce93cc3b8dcbe28b51fe", "type": "electric_scooter", "lat": 38.92074266666667, "is_reserved": 0, "lon": -77.032285, "fusion_lon": 0.0, "is_disabled": 0, "fusion_lat": 0.0, "bike_id": "d3a880c96432ce93cc3b8dcbe28b51fe", "rental_uris": {"ios": "https://dc.lft.to/lastmile_qr_scan", "android": "https://dc.lft.to/lastmile_qr_scan"}}, {"name": "c9e2c507ac861d91f852f676ffb590c6", "type": "electric_scooter", "lat": 38.89525533333333, "is_reserved": 0, "lon": -77.01613066666667, "fusion_lon": 0.0, "is_disabled": 0, "fusion_lat": 0.0, "bike_id": "c9e2c507ac861d91f852f676ffb590c6", "rental_uris": {"ios": "https://dc.lft.to/lastmile_qr_scan", "android": "https://dc.lft.to/lastmile_qr_scan"}}, {"name": "2c6938e2e6224e2f4d79477e14545b26", "type": "electric_scooter", "lat": 38.907978166666666, "is_reserved": 0, "lon": -76.9970145, "fusion_lon": 0.0, "is_disabled": 0, "fusion_lat": 0.0, "bike_id": "2c6938e2e6224e2f4d79477e14545b26", "rental_uris": {"ios": "https://dc.lft.to/lastmile_qr_scan", "android": "https://dc.lft.to/lastmile_qr_scan"}}, {"name": "7e064dab4f6b483495d3bebcad604e4b", "type": "electric_bike", "lat": 38.9489115, "is_reserved": 0, "lon": -77.019261, "fusion_lon": 0.0, "is_disabled": 0, "fusion_lat": 0.0, "bike_id": "7e064dab4f6b483495d3bebcad604e4b", "rental_uris": {"ios": "https://dc.lft.to/lastmile_qr_scan", "android": "https://dc.lft.to/lastmile_qr_scan"}}, {"name": "9353260ec6f7bb87bc467b47595c7ff3", "type": "electric_bike", "lat": 38.918137333333334, "is_reserved": 0, "lon": -77.03309916666667, "fusion_lon": 0.0, "is_disabled": 0, "fusion_lat": 0.0, "bike_id": "9353260ec6f7bb87bc467b47595c7ff3", "rental_uris": {"ios": "https://dc.lft.to/lastmile_qr_scan", "android": "https://dc.lft.to/lastmile_qr_scan"}}, {"name": "18d6ca20c24e01729cc231b70d3106b7", "type": "electric_scooter", "lat": 38.907285333333334, "is_reserved": 0, "lon": -77.025123, "fusion_lon": 0.0, "is_disabled": 0, "fusion_lat": 0.0, "bike_id": "18d6ca20c24e01729cc231b70d3106b7", "rental_uris": {"ios": "https://dc.lft.to/lastmile_qr_scan", "android": "https://dc.lft.to/lastmile_qr_scan"}}, {"name": "f6714b73bcb71d389c4e9e7991c97de3", "type": "electric_scooter", "lat": 38.9350395, "is_reserved": 0, "lon": -77.028502, "fusion_lon": 0.0, "is_disabled": 0, "fusion_lat": 0.0, "bike_id": "f6714b73bcb71d389c4e9e7991c97de3", "rental_uris": {"ios": "https://dc.lft.to/lastmile_qr_scan", "android": "https://dc.lft.to/lastmile_qr_scan"}}, {"name": "bd60e331188eb3b6011b89fa8b3a429d", "type": "electric_bike", "lat": 38.824438, "is_reserved": 0, "lon": -77.07043183333333, "fusion_lon": 0.0, "is_disabled": 0, "fusion_lat": 0.0, "bike_id": "bd60e331188eb3b6011b89fa8b3a429d", "rental_uris": {"ios": "https://dc.lft.to/lastmile_qr_scan", "android": "https://dc.lft.to/lastmile_qr_scan"}}, {"name": "c53b4cbf7d830df299f1f0dab273fa68", "type": "electric_scooter", "lat": 38.89919833333333, "is_reserved": 0, "lon": -76.93383833333333, "fusion_lon": 0.0, "is_disabled": 0, "fusion_lat": 0.0, "bike_id": "c53b4cbf7d830df299f1f0dab273fa68", "rental_uris": {"ios": "https://dc.lft.to/lastmile_qr_scan", "android": "https://dc.lft.to/lastmile_qr_scan"}}, {"name": "467b44a164bcbb6360218fb5a72e9a09", "type": "electric_bike", "lat": 38.9185735, "is_reserved": 0, "lon": -76.960943, "fusion_lon": 0.0, "is_disabled": 0, "fusion_lat": 0.0, "bike_id": "467b44a164bcbb6360218fb5a72e9a09", "rental_uris": {"ios": "https://dc.lft.to/lastmile_qr_scan", "android": "https://dc.lft.to/lastmile_qr_scan"}}, {"name": "59b4c28c880d8c6249e1abc8286a2ed3", "type": "electric_bike", "lat": 38.906653666666664, "is_reserved": 0, "lon": -76.9995965, "fusion_lon": 0.0, "is_disabled": 0, "fusion_lat": 0.0, "bike_id": "59b4c28c880d8c6249e1abc8286a2ed3", "rental_uris": {"ios": "https://dc.lft.to/lastmile_qr_scan", "android": "https://dc.lft.to/lastmile_qr_scan"}}, {"name": "8a9865bd7824d35cb3294d0afaa05706", "type": "electric_scooter", "lat": 38.90894266666667, "is_reserved": 0, "lon": -77.08653316666667, "fusion_lon": 0.0, "is_disabled": 0, "fusion_lat": 0.0, "bike_id": "8a9865bd7824d35cb3294d0afaa05706", "rental_uris": {"ios": "https://dc.lft.to/lastmile_qr_scan", "android": "https://dc.lft.to/lastmile_qr_scan"}}, {"name": "238c00c34df538ddb1a1b66234852e87", "type": "electric_scooter", "lat": 38.922537166666665, "is_reserved": 0, "lon": -77.04126816666667, "fusion_lon": 0.0, "is_disabled": 0, "fusion_lat": 0.0, "bike_id": "238c00c34df538ddb1a1b66234852e87", "rental_uris": {"ios": "https://dc.lft.to/lastmile_qr_scan", "android": "https://dc.lft.to/lastmile_qr_scan"}}, {"name": "e741b994ca4344fddd3df0794a2fb858", "type": "electric_scooter", "lat": 38.92321783333333, "is_reserved": 0, "lon": -77.04480483333333, "fusion_lon": 0.0, "is_disabled": 0, "fusion_lat": 0.0, "bike_id": "e741b994ca4344fddd3df0794a2fb858", "rental_uris": {"ios": "https://dc.lft.to/lastmile_qr_scan", "android": "https://dc.lft.to/lastmile_qr_scan"}}, {"name": "17dcd3e0dedc18ff037fee2f67062a94", "type": "electric_bike", "lat": 38.898124833333334, "is_reserved": 0, "lon": -76.9907095, "fusion_lon": 0.0, "is_disabled": 0, "fusion_lat": 0.0, "bike_id": "17dcd3e0dedc18ff037fee2f67062a94", "rental_uris": {"ios": "https://dc.lft.to/lastmile_qr_scan", "android": "https://dc.lft.to/lastmile_qr_scan"}}, {"name": "f0254648b24a0a646f4c3ac51fd16dc5", "type": "electric_scooter", "lat": 38.89247483333333, "is_reserved": 0, "lon": -77.0318605, "fusion_lon": 0.0, "is_disabled": 0, "fusion_lat": 0.0, "bike_id": "f0254648b24a0a646f4c3ac51fd16dc5", "rental_uris": {"ios": "https://dc.lft.to/lastmile_qr_scan", "android": "https://dc.lft.to/lastmile_qr_scan"}}, {"name": "549859639bbff5f40eec91bc4085b0fa", "type": "electric_scooter", "lat": 38.92150083333333, "is_reserved": 0, "lon": -77.03450766666667, "fusion_lon": 0.0, "is_disabled": 0, "fusion_lat": 0.0, "bike_id": "549859639bbff5f40eec91bc4085b0fa", "rental_uris": {"ios": "https://dc.lft.to/lastmile_qr_scan", "android": "https://dc.lft.to/lastmile_qr_scan"}}, {"name": "9858634400a35a33816d058beb42391a", "type": "electric_scooter", "lat": 38.9171765, "is_reserved": 0, "lon": -77.02310366666667, "fusion_lon": 0.0, "is_disabled": 0, "fusion_lat": 0.0, "bike_id": "9858634400a35a33816d058beb42391a", "rental_uris": {"ios": "https://dc.lft.to/lastmile_qr_scan", "android": "https://dc.lft.to/lastmile_qr_scan"}}, {"name": "739d0acf33c5f9ac5d6a9fc0fadd3dcd", "type": "electric_bike", "lat": 38.87980616666667, "is_reserved": 0, "lon": -76.91601066666666, "fusion_lon": 0.0, "is_disabled": 0, "fusion_lat": 0.0, "bike_id": "739d0acf33c5f9ac5d6a9fc0fadd3dcd", "rental_uris": {"ios": "https://dc.lft.to/lastmile_qr_scan", "android": "https://dc.lft.to/lastmile_qr_scan"}}, {"name": "da5d51b91847cbd22d91a175270f9c9d", "type": "electric_scooter", "lat": 38.90387783333333, "is_reserved": 0, "lon": -77.01643033333333, "fusion_lon": 0.0, "is_disabled": 0, "fusion_lat": 0.0, "bike_id": "da5d51b91847cbd22d91a175270f9c9d", "rental_uris": {"ios": "https://dc.lft.to/lastmile_qr_scan", "android": "https://dc.lft.to/lastmile_qr_scan"}}, {"name": "5f351dac0a61a92f1cacb902d6b1e152", "type": "electric_scooter", "lat": 38.866609833333335, "is_reserved": 0, "lon": -76.98883916666666, "fusion_lon": 0.0, "is_disabled": 0, "fusion_lat": 0.0, "bike_id": "5f351dac0a61a92f1cacb902d6b1e152", "rental_uris": {"ios": "https://dc.lft.to/lastmile_qr_scan", "android": "https://dc.lft.to/lastmile_qr_scan"}}, {"name": "5948ca3f3e8d9c062460346ad4202e1b", "type": "electric_scooter", "lat": 38.94276266666667, "is_reserved": 0, "lon": -77.02502983333333, "fusion_lon": 0.0, "is_disabled": 0, "fusion_lat": 0.0, "bike_id": "5948ca3f3e8d9c062460346ad4202e1b", "rental_uris": {"ios": "https://dc.lft.to/lastmile_qr_scan", "android": "https://dc.lft.to/lastmile_qr_scan"}}, {"name": "8cd48e2e768b00fa2855e007d4c7cbea", "type": "electric_scooter", "lat": 38.91626866666667, "is_reserved": 0, "lon": -77.03633983333333, "fusion_lon": 0.0, "is_disabled": 0, "fusion_lat": 0.0, "bike_id": "8cd48e2e768b00fa2855e007d4c7cbea", "rental_uris": {"ios": "https://dc.lft.to/lastmile_qr_scan", "android": "https://dc.lft.to/lastmile_qr_scan"}}, {"name": "a07ae40acece82263ca4b1809c18853c", "type": "electric_scooter", "lat": 38.89644583333333, "is_reserved": 0, "lon": -77.03229966666666, "fusion_lon": 0.0, "is_disabled": 0, "fusion_lat": 0.0, "bike_id": "a07ae40acece82263ca4b1809c18853c", "rental_uris": {"ios": "https://dc.lft.to/lastmile_qr_scan", "android": "https://dc.lft.to/lastmile_qr_scan"}}, {"name": "e5afad0314d2c7b47d37716c47e610e5", "type": "electric_scooter", "lat": 38.89851983333333, "is_reserved": 0, "lon": -76.9903215, "fusion_lon": 0.0, "is_disabled": 0, "fusion_lat": 0.0, "bike_id": "e5afad0314d2c7b47d37716c47e610e5", "rental_uris": {"ios": "https://dc.lft.to/lastmile_qr_scan", "android": "https://dc.lft.to/lastmile_qr_scan"}}, {"name": "928a8507e336fd10b752f1c6d65d39d0", "type": "electric_scooter", "lat": 38.916373, "is_reserved": 0, "lon": -77.0108915, "fusion_lon": 0.0, "is_disabled": 0, "fusion_lat": 0.0, "bike_id": "928a8507e336fd10b752f1c6d65d39d0", "rental_uris": {"ios": "https://dc.lft.to/lastmile_qr_scan", "android": "https://dc.lft.to/lastmile_qr_scan"}}, {"name": "00345a4c8f902d6c3a9d4afaa72927af", "type": "electric_scooter", "lat": 38.87786783333333, "is_reserved": 0, "lon": -76.99411533333334, "fusion_lon": 0.0, "is_disabled": 0, "fusion_lat": 0.0, "bike_id": "00345a4c8f902d6c3a9d4afaa72927af", "rental_uris": {"ios": "https://dc.lft.to/lastmile_qr_scan", "android": "https://dc.lft.to/lastmile_qr_scan"}}, {"name": "568094c898e721dc9fd35a81798b32db", "type": "electric_scooter", "lat": 38.906728333333334, "is_reserved": 0, "lon": -77.02695366666667, "fusion_lon": 0.0, "is_disabled": 0, "fusion_lat": 0.0, "bike_id": "568094c898e721dc9fd35a81798b32db", "rental_uris": {"ios": "https://dc.lft.to/lastmile_qr_scan", "android": "https://dc.lft.to/lastmile_qr_scan"}}, {"name": "1c9aa10aa2495ac9a5ecab7c7fa3804d", "type": "electric_scooter", "lat": 38.9236385, "is_reserved": 0, "lon": -77.0502805, "fusion_lon": 0.0, "is_disabled": 0, "fusion_lat": 0.0, "bike_id": "1c9aa10aa2495ac9a5ecab7c7fa3804d", "rental_uris": {"ios": "https://dc.lft.to/lastmile_qr_scan", "android": "https://dc.lft.to/lastmile_qr_scan"}}, {"name": "60c83f32147a4afc0afa12bd6d74764d", "type": "electric_scooter", "lat": 38.925631333333335, "is_reserved": 0, "lon": -77.0227915, "fusion_lon": 0.0, "is_disabled": 0, "fusion_lat": 0.0, "bike_id": "60c83f32147a4afc0afa12bd6d74764d", "rental_uris": {"ios": "https://dc.lft.to/lastmile_qr_scan", "android": "https://dc.lft.to/lastmile_qr_scan"}}, {"name": "36b86831a5a39647870353695f791f47", "type": "electric_bike", "lat": 38.9650535, "is_reserved": 0, "lon": -77.10334966666667, "fusion_lon": 0.0, "is_disabled": 0, "fusion_lat": 0.0, "bike_id": "36b86831a5a39647870353695f791f47", "rental_uris": {"ios": "https://dc.lft.to/lastmile_qr_scan", "android": "https://dc.lft.to/lastmile_qr_scan"}}, {"name": "70ba8fe51ee76228772a23232e188a11", "type": "electric_scooter", "lat": 38.92716216666667, "is_reserved": 0, "lon": -77.0208685, "fusion_lon": 0.0, "is_disabled": 0, "fusion_lat": 0.0, "bike_id": "70ba8fe51ee76228772a23232e188a11", "rental_uris": {"ios": "https://dc.lft.to/lastmile_qr_scan", "android": "https://dc.lft.to/lastmile_qr_scan"}}, {"name": "1e179e22254e6dc92ffbade241d6440a", "type": "electric_scooter", "lat": 38.893747, "is_reserved": 0, "lon": -77.04675583333334, "fusion_lon": 0.0, "is_disabled": 0, "fusion_lat": 0.0, "bike_id": "1e179e22254e6dc92ffbade241d6440a", "rental_uris": {"ios": "https://dc.lft.to/lastmile_qr_scan", "android": "https://dc.lft.to/lastmile_qr_scan"}}, {"name": "655784ca5c9e1827f2c07bbcb288d7fb", "type": "electric_scooter", "lat": 38.9226065, "is_reserved": 0, "lon": -77.036412, "fusion_lon": 0.0, "is_disabled": 0, "fusion_lat": 0.0, "bike_id": "655784ca5c9e1827f2c07bbcb288d7fb", "rental_uris": {"ios": "https://dc.lft.to/lastmile_qr_scan", "android": "https://dc.lft.to/lastmile_qr_scan"}}, {"name": "45e25f18c1863bed154e7601c5e1c0ed", "type": "electric_bike", "lat": 38.958782, "is_reserved": 0, "lon": -77.01734383333333, "fusion_lon": 0.0, "is_disabled": 0, "fusion_lat": 0.0, "bike_id": "45e25f18c1863bed154e7601c5e1c0ed", "rental_uris": {"ios": "https://dc.lft.to/lastmile_qr_scan", "android": "https://dc.lft.to/lastmile_qr_scan"}}, {"name": "697affe2bff20bdb70c106ad8350facf", "type": "electric_scooter", "lat": 38.8996565, "is_reserved": 0, "lon": -77.02937016666667, "fusion_lon": 0.0, "is_disabled": 0, "fusion_lat": 0.0, "bike_id": "697affe2bff20bdb70c106ad8350facf", "rental_uris": {"ios": "https://dc.lft.to/lastmile_qr_scan", "android": "https://dc.lft.to/lastmile_qr_scan"}}, {"name": "6c2010560307450afeab11b2c445cdaa", "type": "electric_scooter", "lat": 38.92478366666667, "is_reserved": 0, "lon": -77.026678, "fusion_lon": 0.0, "is_disabled": 0, "fusion_lat": 0.0, "bike_id": "6c2010560307450afeab11b2c445cdaa", "rental_uris": {"ios": "https://dc.lft.to/lastmile_qr_scan", "android": "https://dc.lft.to/lastmile_qr_scan"}}, {"name": "3caf842dcad4ff3aeb9d314006f78be7", "type": "electric_scooter", "lat": 38.9552915, "is_reserved": 0, "lon": -77.06970466666667, "fusion_lon": 0.0, "is_disabled": 0, "fusion_lat": 0.0, "bike_id": "3caf842dcad4ff3aeb9d314006f78be7", "rental_uris": {"ios": "https://dc.lft.to/lastmile_qr_scan", "android": "https://dc.lft.to/lastmile_qr_scan"}}, {"name": "2c126813baf6c0dcacfb69ce72f12b1b", "type": "electric_scooter", "lat": 38.91946466666667, "is_reserved": 0, "lon": -77.04554233333333, "fusion_lon": 0.0, "is_disabled": 0, "fusion_lat": 0.0, "bike_id": "2c126813baf6c0dcacfb69ce72f12b1b", "rental_uris": {"ios": "https://dc.lft.to/lastmile_qr_scan", "android": "https://dc.lft.to/lastmile_qr_scan"}}, {"name": "ea23c93af31fede2660840958423a8a6", "type": "electric_scooter", "lat": 38.86526383333333, "is_reserved": 0, "lon": -76.990268, "fusion_lon": 0.0, "is_disabled": 0, "fusion_lat": 0.0, "bike_id": "ea23c93af31fede2660840958423a8a6", "rental_uris": {"ios": "https://dc.lft.to/lastmile_qr_scan", "android": "https://dc.lft.to/lastmile_qr_scan"}}, {"name": "190c0c886e7b87a54ff49ee471e397d2", "type": "electric_scooter", "lat": 38.935217333333334, "is_reserved": 0, "lon": -77.0247105, "fusion_lon": 0.0, "is_disabled": 0, "fusion_lat": 0.0, "bike_id": "190c0c886e7b87a54ff49ee471e397d2", "rental_uris": {"ios": "https://dc.lft.to/lastmile_qr_scan", "android": "https://dc.lft.to/lastmile_qr_scan"}}, {"name": "4fc460bed8e79d41ee4b97c4a706c494", "type": "electric_scooter", "lat": 38.92115116666667, "is_reserved": 0, "lon": -77.041997, "fusion_lon": 0.0, "is_disabled": 0, "fusion_lat": 0.0, "bike_id": "4fc460bed8e79d41ee4b97c4a706c494", "rental_uris": {"ios": "https://dc.lft.to/lastmile_qr_scan", "android": "https://dc.lft.to/lastmile_qr_scan"}}, {"name": "7043c0b1418779d98a29ce684158cb96", "type": "electric_bike", "lat": 38.9923315, "is_reserved": 0, "lon": -76.87823233333333, "fusion_lon": 0.0, "is_disabled": 0, "fusion_lat": 0.0, "bike_id": "7043c0b1418779d98a29ce684158cb96", "rental_uris": {"ios": "https://dc.lft.to/lastmile_qr_scan", "android": "https://dc.lft.to/lastmile_qr_scan"}}, {"name": "c7580620f93f73c2b061e4d42e90ee7e", "type": "electric_scooter", "lat": 38.842923, "is_reserved": 0, "lon": -76.9994925, "fusion_lon": 0.0, "is_disabled": 0, "fusion_lat": 0.0, "bike_id": "c7580620f93f73c2b061e4d42e90ee7e", "rental_uris": {"ios": "https://dc.lft.to/lastmile_qr_scan", "android": "https://dc.lft.to/lastmile_qr_scan"}}, {"name": "b3365655371002b502a4e20510649694", "type": "electric_bike", "lat": 38.9221065, "is_reserved": 0, "lon": -76.98834466666666, "fusion_lon": 0.0, "is_disabled": 0, "fusion_lat": 0.0, "bike_id": "b3365655371002b502a4e20510649694", "rental_uris": {"ios": "https://dc.lft.to/lastmile_qr_scan", "android": "https://dc.lft.to/lastmile_qr_scan"}}, {"name": "47594ab58639f6bdad2bca4e8d506bb7", "type": "electric_bike", "lat": 38.96905666666667, "is_reserved": 0, "lon": -76.955847, "fusion_lon": 0.0, "is_disabled": 0, "fusion_lat": 0.0, "bike_id": "47594ab58639f6bdad2bca4e8d506bb7", "rental_uris": {"ios": "https://dc.lft.to/lastmile_qr_scan", "android": "https://dc.lft.to/lastmile_qr_scan"}}, {"name": "f6f2c6c7aeea84514be8b23e05ae77d2", "type": "electric_scooter", "lat": 38.900259, "is_reserved": 0, "lon": -77.02606783333333, "fusion_lon": 0.0, "is_disabled": 0, "fusion_lat": 0.0, "bike_id": "f6f2c6c7aeea84514be8b23e05ae77d2", "rental_uris": {"ios": "https://dc.lft.to/lastmile_qr_scan", "android": "https://dc.lft.to/lastmile_qr_scan"}}, {"name": "53a3ee0bb60ed7222dd2f305f5753202", "type": "electric_scooter", "lat": 38.915942, "is_reserved": 0, "lon": -77.03198, "fusion_lon": 0.0, "is_disabled": 0, "fusion_lat": 0.0, "bike_id": "53a3ee0bb60ed7222dd2f305f5753202", "rental_uris": {"ios": "https://dc.lft.to/lastmile_qr_scan", "android": "https://dc.lft.to/lastmile_qr_scan"}}, {"name": "1d1945d423b2756e347127413a4d495e", "type": "electric_scooter", "lat": 38.90131083333333, "is_reserved": 0, "lon": -77.01194316666667, "fusion_lon": 0.0, "is_disabled": 0, "fusion_lat": 0.0, "bike_id": "1d1945d423b2756e347127413a4d495e", "rental_uris": {"ios": "https://dc.lft.to/lastmile_qr_scan", "android": "https://dc.lft.to/lastmile_qr_scan"}}, {"name": "2ec5a065e9c6e0565db1cebff965d083", "type": "electric_scooter", "lat": 38.902804333333336, "is_reserved": 0, "lon": -77.06104033333334, "fusion_lon": 0.0, "is_disabled": 0, "fusion_lat": 0.0, "bike_id": "2ec5a065e9c6e0565db1cebff965d083", "rental_uris": {"ios": "https://dc.lft.to/lastmile_qr_scan", "android": "https://dc.lft.to/lastmile_qr_scan"}}, {"name": "b55cc93b9c280e66a66211873a379cdc", "type": "electric_scooter", "lat": 38.908656666666666, "is_reserved": 0, "lon": -76.99956966666667, "fusion_lon": 0.0, "is_disabled": 0, "fusion_lat": 0.0, "bike_id": "b55cc93b9c280e66a66211873a379cdc", "rental_uris": {"ios": "https://dc.lft.to/lastmile_qr_scan", "android": "https://dc.lft.to/lastmile_qr_scan"}}, {"name": "da6e8287ced8c9dd074c1ae39c6d88a7", "type": "electric_scooter", "lat": 38.896110166666666, "is_reserved": 0, "lon": -77.04511033333333, "fusion_lon": 0.0, "is_disabled": 0, "fusion_lat": 0.0, "bike_id": "da6e8287ced8c9dd074c1ae39c6d88a7", "rental_uris": {"ios": "https://dc.lft.to/lastmile_qr_scan", "android": "https://dc.lft.to/lastmile_qr_scan"}}, {"name": "53fec4bfb4fbcceac30ace6d7233f1ee", "type": "electric_scooter", "lat": 38.9258175, "is_reserved": 0, "lon": -77.05252733333333, "fusion_lon": 0.0, "is_disabled": 0, "fusion_lat": 0.0, "bike_id": "53fec4bfb4fbcceac30ace6d7233f1ee", "rental_uris": {"ios": "https://dc.lft.to/lastmile_qr_scan", "android": "https://dc.lft.to/lastmile_qr_scan"}}, {"name": "4220844f6084352dc03f3a84d7cc39e6", "type": "electric_scooter", "lat": 38.8983975, "is_reserved": 0, "lon": -77.04278383333333, "fusion_lon": 0.0, "is_disabled": 0, "fusion_lat": 0.0, "bike_id": "4220844f6084352dc03f3a84d7cc39e6", "rental_uris": {"ios": "https://dc.lft.to/lastmile_qr_scan", "android": "https://dc.lft.to/lastmile_qr_scan"}}, {"name": "3a1f04721c36b76aa0815a798c377d67", "type": "electric_scooter", "lat": 38.93471016666667, "is_reserved": 0, "lon": -77.02927866666667, "fusion_lon": 0.0, "is_disabled": 0, "fusion_lat": 0.0, "bike_id": "3a1f04721c36b76aa0815a798c377d67", "rental_uris": {"ios": "https://dc.lft.to/lastmile_qr_scan", "android": "https://dc.lft.to/lastmile_qr_scan"}}, {"name": "d648f78f3a2537737cec2ee51cf796e4", "type": "electric_scooter", "lat": 38.91780216666667, "is_reserved": 0, "lon": -77.04106016666667, "fusion_lon": 0.0, "is_disabled": 0, "fusion_lat": 0.0, "bike_id": "d648f78f3a2537737cec2ee51cf796e4", "rental_uris": {"ios": "https://dc.lft.to/lastmile_qr_scan", "android": "https://dc.lft.to/lastmile_qr_scan"}}, {"name": "948d1a2862e4b7590fce916581578bc4", "type": "electric_bike", "lat": 39.0293125, "is_reserved": 0, "lon": -77.04929583333333, "fusion_lon": 0.0, "is_disabled": 0, "fusion_lat": 0.0, "bike_id": "948d1a2862e4b7590fce916581578bc4", "rental_uris": {"ios": "https://dc.lft.to/lastmile_qr_scan", "android": "https://dc.lft.to/lastmile_qr_scan"}}, {"name": "0ba746119781fd9ac806017d07029048", "type": "electric_scooter", "lat": 38.9331065, "is_reserved": 0, "lon": -77.0376825, "fusion_lon": 0.0, "is_disabled": 0, "fusion_lat": 0.0, "bike_id": "0ba746119781fd9ac806017d07029048", "rental_uris": {"ios": "https://dc.lft.to/lastmile_qr_scan", "android": "https://dc.lft.to/lastmile_qr_scan"}}, {"name": "414a920ee2654433c46b88d41695b6f5", "type": "electric_scooter", "lat": 38.88725183333333, "is_reserved": 0, "lon": -77.02830083333333, "fusion_lon": 0.0, "is_disabled": 0, "fusion_lat": 0.0, "bike_id": "414a920ee2654433c46b88d41695b6f5", "rental_uris": {"ios": "https://dc.lft.to/lastmile_qr_scan", "android": "https://dc.lft.to/lastmile_qr_scan"}}, {"name": "a3b0387e95865bbb9f464762cf2ad62e", "type": "electric_scooter", "lat": 38.90628233333333, "is_reserved": 0, "lon": -77.05137816666667, "fusion_lon": 0.0, "is_disabled": 0, "fusion_lat": 0.0, "bike_id": "a3b0387e95865bbb9f464762cf2ad62e", "rental_uris": {"ios": "https://dc.lft.to/lastmile_qr_scan", "android": "https://dc.lft.to/lastmile_qr_scan"}}, {"name": "65b62da9dc69c47cd34591aaa7c149f2", "type": "electric_scooter", "lat": 38.920508166666664, "is_reserved": 0, "lon": -77.02363683333333, "fusion_lon": 0.0, "is_disabled": 0, "fusion_lat": 0.0, "bike_id": "65b62da9dc69c47cd34591aaa7c149f2", "rental_uris": {"ios": "https://dc.lft.to/lastmile_qr_scan", "android": "https://dc.lft.to/lastmile_qr_scan"}}, {"name": "b38a86eeb7e033e678055a143452508e", "type": "electric_scooter", "lat": 38.96822816666667, "is_reserved": 0, "lon": -77.01784683333334, "fusion_lon": 0.0, "is_disabled": 0, "fusion_lat": 0.0, "bike_id": "b38a86eeb7e033e678055a143452508e", "rental_uris": {"ios": "https://dc.lft.to/lastmile_qr_scan", "android": "https://dc.lft.to/lastmile_qr_scan"}}, {"name": "576cf6cab85a8c1ab40e3c57dc119234", "type": "electric_scooter", "lat": 38.9051315, "is_reserved": 0, "lon": -77.05318816666667, "fusion_lon": 0.0, "is_disabled": 0, "fusion_lat": 0.0, "bike_id": "576cf6cab85a8c1ab40e3c57dc119234", "rental_uris": {"ios": "https://dc.lft.to/lastmile_qr_scan", "android": "https://dc.lft.to/lastmile_qr_scan"}}, {"name": "7374e237428e678e209b6d4041347b53", "type": "electric_bike", "lat": 38.93177983333333, "is_reserved": 0, "lon": -77.0353175, "fusion_lon": 0.0, "is_disabled": 0, "fusion_lat": 0.0, "bike_id": "7374e237428e678e209b6d4041347b53", "rental_uris": {"ios": "https://dc.lft.to/lastmile_qr_scan", "android": "https://dc.lft.to/lastmile_qr_scan"}}, {"name": "25ad24a8d4d66e6b5eef177a5ea7fad5", "type": "electric_scooter", "lat": 38.9131465, "is_reserved": 0, "lon": -77.02170983333333, "fusion_lon": 0.0, "is_disabled": 0, "fusion_lat": 0.0, "bike_id": "25ad24a8d4d66e6b5eef177a5ea7fad5", "rental_uris": {"ios": "https://dc.lft.to/lastmile_qr_scan", "android": "https://dc.lft.to/lastmile_qr_scan"}}, {"name": "520f8d090c760e6ffc61bac157787990", "type": "electric_scooter", "lat": 38.894769, "is_reserved": 0, "lon": -76.9772185, "fusion_lon": 0.0, "is_disabled": 0, "fusion_lat": 0.0, "bike_id": "520f8d090c760e6ffc61bac157787990", "rental_uris": {"ios": "https://dc.lft.to/lastmile_qr_scan", "android": "https://dc.lft.to/lastmile_qr_scan"}}, {"name": "33cce042d5c087392a82265ab899bced", "type": "electric_scooter", "lat": 38.941810333333336, "is_reserved": 0, "lon": -77.03654166666666, "fusion_lon": 0.0, "is_disabled": 0, "fusion_lat": 0.0, "bike_id": "33cce042d5c087392a82265ab899bced", "rental_uris": {"ios": "https://dc.lft.to/lastmile_qr_scan", "android": "https://dc.lft.to/lastmile_qr_scan"}}, {"name": "85924b4f40afdcf1cea07abbdb36f779", "type": "electric_scooter", "lat": 38.9072855, "is_reserved": 0, "lon": -77.04347133333333, "fusion_lon": 0.0, "is_disabled": 0, "fusion_lat": 0.0, "bike_id": "85924b4f40afdcf1cea07abbdb36f779", "rental_uris": {"ios": "https://dc.lft.to/lastmile_qr_scan", "android": "https://dc.lft.to/lastmile_qr_scan"}}, {"name": "66af613113915cd181b8d35b822a2729", "type": "electric_scooter", "lat": 38.91194433333333, "is_reserved": 0, "lon": -77.03224216666666, "fusion_lon": 0.0, "is_disabled": 0, "fusion_lat": 0.0, "bike_id": "66af613113915cd181b8d35b822a2729", "rental_uris": {"ios": "https://dc.lft.to/lastmile_qr_scan", "android": "https://dc.lft.to/lastmile_qr_scan"}}, {"name": "64f2a9952c4f6102b15ea10733e44d76", "type": "electric_scooter", "lat": 38.897382, "is_reserved": 0, "lon": -76.94255316666667, "fusion_lon": 0.0, "is_disabled": 0, "fusion_lat": 0.0, "bike_id": "64f2a9952c4f6102b15ea10733e44d76", "rental_uris": {"ios": "https://dc.lft.to/lastmile_qr_scan", "android": "https://dc.lft.to/lastmile_qr_scan"}}, {"name": "12287a18aa49e509c30de9445d582670", "type": "electric_scooter", "lat": 38.90021333333333, "is_reserved": 0, "lon": -77.033391, "fusion_lon": 0.0, "is_disabled": 0, "fusion_lat": 0.0, "bike_id": "12287a18aa49e509c30de9445d582670", "rental_uris": {"ios": "https://dc.lft.to/lastmile_qr_scan", "android": "https://dc.lft.to/lastmile_qr_scan"}}, {"name": "0795adbe56d03577b2252182fab7fc22", "type": "electric_scooter", "lat": 38.9087165, "is_reserved": 0, "lon": -77.02489116666666, "fusion_lon": 0.0, "is_disabled": 0, "fusion_lat": 0.0, "bike_id": "0795adbe56d03577b2252182fab7fc22", "rental_uris": {"ios": "https://dc.lft.to/lastmile_qr_scan", "android": "https://dc.lft.to/lastmile_qr_scan"}}, {"name": "5f0d4f13be5479bd358c425b107dbfb5", "type": "electric_scooter", "lat": 38.91340733333333, "is_reserved": 0, "lon": -77.00225683333333, "fusion_lon": 0.0, "is_disabled": 0, "fusion_lat": 0.0, "bike_id": "5f0d4f13be5479bd358c425b107dbfb5", "rental_uris": {"ios": "https://dc.lft.to/lastmile_qr_scan", "android": "https://dc.lft.to/lastmile_qr_scan"}}, {"name": "07b25542164505b2f54b6f564e5f06e3", "type": "electric_scooter", "lat": 38.894839833333336, "is_reserved": 0, "lon": -77.01101033333333, "fusion_lon": 0.0, "is_disabled": 0, "fusion_lat": 0.0, "bike_id": "07b25542164505b2f54b6f564e5f06e3", "rental_uris": {"ios": "https://dc.lft.to/lastmile_qr_scan", "android": "https://dc.lft.to/lastmile_qr_scan"}}, {"name": "979ed298f0f44951dd69cd58f73f017d", "type": "electric_scooter", "lat": 38.90377016666667, "is_reserved": 0, "lon": -77.062889, "fusion_lon": 0.0, "is_disabled": 0, "fusion_lat": 0.0, "bike_id": "979ed298f0f44951dd69cd58f73f017d", "rental_uris": {"ios": "https://dc.lft.to/lastmile_qr_scan", "android": "https://dc.lft.to/lastmile_qr_scan"}}, {"name": "385dab988e4fc658583a01434bf92230", "type": "electric_scooter", "lat": 38.90808916666667, "is_reserved": 0, "lon": -77.03866133333334, "fusion_lon": 0.0, "is_disabled": 0, "fusion_lat": 0.0, "bike_id": "385dab988e4fc658583a01434bf92230", "rental_uris": {"ios": "https://dc.lft.to/lastmile_qr_scan", "android": "https://dc.lft.to/lastmile_qr_scan"}}, {"name": "2bd073ed84e91febf11443adadfc2877", "type": "electric_scooter", "lat": 38.89832033333333, "is_reserved": 0, "lon": -76.9463345, "fusion_lon": 0.0, "is_disabled": 0, "fusion_lat": 0.0, "bike_id": "2bd073ed84e91febf11443adadfc2877", "rental_uris": {"ios": "https://dc.lft.to/lastmile_qr_scan", "android": "https://dc.lft.to/lastmile_qr_scan"}}, {"name": "66ed2b699d45ca4fef70e15e1df9b32d", "type": "electric_scooter", "lat": 38.9207045, "is_reserved": 0, "lon": -77.04256283333333, "fusion_lon": 0.0, "is_disabled": 0, "fusion_lat": 0.0, "bike_id": "66ed2b699d45ca4fef70e15e1df9b32d", "rental_uris": {"ios": "https://dc.lft.to/lastmile_qr_scan", "android": "https://dc.lft.to/lastmile_qr_scan"}}, {"name": "00edae4e528deb55f6a39a4801396809", "type": "electric_scooter", "lat": 38.92417233333333, "is_reserved": 0, "lon": -77.01941583333333, "fusion_lon": 0.0, "is_disabled": 0, "fusion_lat": 0.0, "bike_id": "00edae4e528deb55f6a39a4801396809", "rental_uris": {"ios": "https://dc.lft.to/lastmile_qr_scan", "android": "https://dc.lft.to/lastmile_qr_scan"}}, {"name": "501868f90621572def4c55570e0c38b5", "type": "electric_scooter", "lat": 38.86354033333333, "is_reserved": 0, "lon": -76.9906295, "fusion_lon": 0.0, "is_disabled": 0, "fusion_lat": 0.0, "bike_id": "501868f90621572def4c55570e0c38b5", "rental_uris": {"ios": "https://dc.lft.to/lastmile_qr_scan", "android": "https://dc.lft.to/lastmile_qr_scan"}},