{"data": {"bikes": [{"fusion_lat": 0.0, "lat": 38.94512316666667, "rental_uris": {"ios": "https://dc.lft.to/lastmile_qr_scan", "android": "https://dc.lft.to/lastmile_qr_scan"}, "name": "f9d8deeb9a174872318720df71a53078", "type": "electric_scooter", "fusion_lon": 0.0, "is_disabled": 0, "is_reserved": 0, "bike_id": "f9d8deeb9a174872318720df71a53078", "lon": -77.03352916666667}, {"fusion_lat": 0.0, "lat": 38.972182333333336, "rental_uris": {"ios": "https://dc.lft.to/lastmile_qr_scan", "android": "https://dc.lft.to/lastmile_qr_scan"}, "name": "a670a6606c4764c44026aef9b5314660", "type": "electric_bike", "fusion_lon": 0.0, "is_disabled": 0, "is_reserved": 0, "bike_id": "a670a6606c4764c44026aef9b5314660", "lon": -77.01426333333333}, {"fusion_lat": 0.0, "lat": 38.91904316666667, "rental_uris": {"ios": "https://dc.lft.to/lastmile_qr_scan", "android": "https://dc.lft.to/lastmile_qr_scan"}, "name": "d87a6e75cfa2bab501514960cc07de6b", "type": "electric_scooter", "fusion_lon": 0.0, "is_disabled": 0, "is_reserved": 0, "bike_id": "d87a6e75cfa2bab501514960cc07de6b", "lon": -77.0275755}, {"fusion_lat": 0.0, "lat": 38.9037935, "rental_uris": {"ios": "https://dc.lft.to/lastmile_qr_scan", "android": "https://dc.lft.to/lastmile_qr_scan"}, "name": "9472eac3439b15888de29d0381fe692e", "type": "electric_scooter", "fusion_lon": 0.0, "is_disabled": 0, "is_reserved": 0, "bike_id": "9472eac3439b15888de29d0381fe692e", "lon": -77.03540716666667}, {"fusion_lat": 0.0, "lat": 38.794693333333335, "rental_uris": {"ios": "https://dc.lft.to/lastmile_qr_scan", "android": "https://dc.lft.to/lastmile_qr_scan"}, "name": "5262c773589f357f751c4dcb4bab362c", "type": "electric_bike", "fusion_lon": 0.0, "is_disabled": 0, "is_reserved": 0, "bike_id": "5262c773589f357f751c4dcb4bab362c", "lon": -76.99246866666667}, {"fusion_lat": 0.0, "lat": 38.90041183333334, "rental_uris": {"ios": "https://dc.lft.to/lastmile_qr_scan", "android": "https://dc.lft.to/lastmile_qr_scan"}, "name": "4e06d076874d7a65a63dd8c4fb4dad4e", "type": "electric_scooter", "fusion_lon": 0.0, "is_disabled": 0, "is_reserved": 0, "bike_id": "4e06d076874d7a65a63dd8c4fb4dad4e", "lon": -77.00207}, {"fusion_lat": 0.0, "lat": 38.8669115, "rental_uris": {"ios": "https://dc.lft.to/lastmile_qr_scan", "android": "https://dc.lft.to/lastmile_qr_scan"}, "name": "8b838ec37b8656026165dd0025ccc491", "type": "electric_scooter", "fusion_lon": 0.0, "is_disabled": 0, "is_reserved": 0, "bike_id": "8b838ec37b8656026165dd0025ccc491", "lon": -76.9854205}, {"fusion_lat": 0.0, "lat": 38.900351666666666, "rental_uris": {"ios": "https://dc.lft.to/lastmile_qr_scan", "android": "https://dc.lft.to/lastmile_qr_scan"}, "name": "729bc1471fb9fd1533ff88b72c76f93f", "type": "electric_scooter", "fusion_lon": 0.0, "is_disabled": 0, "is_reserved": 0, "bike_id": "729bc1471fb9fd1533ff88b72c76f93f", "lon": -77.05821383333334}, {"fusion_lat": 0.0, "lat": 38.912253666666665, "rental_uris": {"ios": "https://dc.lft.to/lastmile_qr_scan", "android": "https://dc.lft.to/lastmile_qr_scan"}, "name": "6a6d29f3e6d2d59f6c3ec63a1ec93cb3", "type": "electric_scooter", "fusion_lon": 0.0, "is_disabled": 0, "is_reserved": 0, "bike_id": "6a6d29f3e6d2d59f6c3ec63a1ec93cb3", "lon": -76.9878}, {"fusion_lat": 0.0, "lat": 38.897973666666665, "rental_uris": {"ios": "https://dc.lft.to/lastmile_qr_scan", "android": "https://dc.lft.to/lastmile_qr_scan"}, "name": "80596daa907cfddbe586385912374e2f", "type": "electric_scooter", "fusion_lon": 0.0, "is_disabled": 0, "is_reserved": 0, "bike_id": "80596daa907cfddbe586385912374e2f", "lon": -76.93132216666666}, {"fusion_lat": 0.0, "lat": 38.86504166666667, "rental_uris": {"ios": "https://dc.lft.to/lastmile_qr_scan", "android": "https://dc.lft.to/lastmile_qr_scan"}, "name": "1fdf2e7e727e51fbf80426bed80b5a5d", "type": "electric_scooter", "fusion_lon": 0.0, "is_disabled": 0, "is_reserved": 0, "bike_id": "1fdf2e7e727e51fbf80426bed80b5a5d", "lon": -76.99001883333334}, {"fusion_lat": 0.0, "lat": 38.915551666666666, "rental_uris": {"ios": "https://dc.lft.to/lastmile_qr_scan", "android": "https://dc.lft.to/lastmile_qr_scan"}, "name": "3d1266e62debb9eb1a01b250a614e6cc", "type": "electric_scooter", "fusion_lon": 0.0, "is_disabled": 0, "is_reserved": 0, "bike_id": "3d1266e62debb9eb1a01b250a614e6cc", "lon": -77.02047233333333}, {"fusion_lat": 0.0, "lat": 38.9146795, "rental_uris": {"ios": "https://dc.lft.to/lastmile_qr_scan", "android": "https://dc.lft.to/lastmile_qr_scan"}, "name": "5e92301ee2eb25260de80926f2dc4aa4", "type": "electric_scooter", "fusion_lon": 0.0, "is_disabled": 0, "is_reserved": 0, "bike_id": "5e92301ee2eb25260de80926f2dc4aa4", "lon": -77.031882}, {"fusion_lat": 0.0, "lat": 38.91413983333333, "rental_uris": {"ios": "https://dc.lft.to/lastmile_qr_scan", "android": "https://dc.lft.to/lastmile_qr_scan"}, "name": "99671ae2f283abfeab83ca51b8e95f91", "type": "electric_scooter", "fusion_lon": 0.0, "is_disabled": 0, "is_reserved": 0, "bike_id": "99671ae2f283abfeab83ca51b8e95f91", "lon": -77.0450275}, {"fusion_lat": 0.0, "lat": 38.929777666666666, "rental_uris": {"ios": "https://dc.lft.to/lastmile_qr_scan", "android": "https://dc.lft.to/lastmile_qr_scan"}, "name": "e9850fde8d499f0d9f53804b47307c10", "type": "electric_scooter", "fusion_lon": 0.0, "is_disabled": 0, "is_reserved": 0, "bike_id": "e9850fde8d499f0d9f53804b47307c10", "lon": -77.05503666666667}, {"fusion_lat": 0.0, "lat": 38.892210166666665, "rental_uris": {"ios": "https://dc.lft.to/lastmile_qr_scan", "android": "https://dc.lft.to/lastmile_qr_scan"}, "name": "72bc8dbd74f992ebdea61f9d7d18b21d", "type": "electric_scooter", "fusion_lon": 0.0, "is_disabled": 0, "is_reserved": 0, "bike_id": "72bc8dbd74f992ebdea61f9d7d18b21d", "lon": -77.04369183333333}, {"fusion_lat": 0.0, "lat": 38.89234, "rental_uris": {"ios": "https://dc.lft.to/lastmile_qr_scan", "android": "https://dc.lft.to/lastmile_qr_scan"}, "name": "5a4d0f9335b9d5e4d7f5420bea927f02", "type": "electric_scooter", "fusion_lon": 0.0, "is_disabled": 0, "is_reserved": 0, "bike_id": "5a4d0f9335b9d5e4d7f5420bea927f02", "lon": -77.03308583333333}, {"fusion_lat": 0.0, "lat": 38.902748, "rental_uris": {"ios": "https://dc.lft.to/lastmile_qr_scan", "android": "https://dc.lft.to/lastmile_qr_scan"}, "name": "dcba2435985b73d126ecdb0c4d5acd17", "type": "electric_scooter", "fusion_lon": 0.0, "is_disabled": 0, "is_reserved": 0, "bike_id": "dcba2435985b73d126ecdb0c4d5acd17", "lon": -77.03523266666667}, {"fusion_lat": 0.0, "lat": 38.901625833333334, "rental_uris": {"ios": "https://dc.lft.to/lastmile_qr_scan", "android": "https://dc.lft.to/lastmile_qr_scan"}, "name": "1f66fcb581070207e8350c672bc35027", "type": "electric_scooter", "fusion_lon": 0.0, "is_disabled": 0, "is_reserved": 0, "bike_id": "1f66fcb581070207e8350c672bc35027", "lon": -77.0132295}, {"fusion_lat": 0.0, "lat": 38.9738005, "rental_uris": {"ios": "https://dc.lft.to/lastmile_qr_scan", "android": "https://dc.lft.to/lastmile_qr_scan"}, "name": "e5dc6bf6f0606c5ec5d6da362b2847ff", "type": "electric_scooter", "fusion_lon": 0.0, "is_disabled": 0, "is_reserved": 0, "bike_id": "e5dc6bf6f0606c5ec5d6da362b2847ff", "lon": -77.01809916666667}, {"fusion_lat": 0.0, "lat": 38.91185133333333, "rental_uris": {"ios": "https://dc.lft.to/lastmile_qr_scan", "android": "https://dc.lft.to/lastmile_qr_scan"}, "name": "e86b98d8f107ea9b9bfe234bafbba7d5", "type": "electric_scooter", "fusion_lon": 0.0, "is_disabled": 0, "is_reserved": 0, "bike_id": "e86b98d8f107ea9b9bfe234bafbba7d5", "lon": -77.046371}, {"fusion_lat": 0.0, "lat": 38.8874255, "rental_uris": {"ios": "https://dc.lft.to/lastmile_qr_scan", "android": "https://dc.lft.to/lastmile_qr_scan"}, "name": "535d31c10d155c69ddfbf13cdb3dd1d4", "type": "electric_scooter", "fusion_lon": 0.0, "is_disabled": 0, "is_reserved": 0, "bike_id": "535d31c10d155c69ddfbf13cdb3dd1d4", "lon": -77.031718}, {"fusion_lat": 0.0, "lat": 38.907383, "rental_uris": {"ios": "https://dc.lft.to/lastmile_qr_scan", "android": "https://dc.lft.to/lastmile_qr_scan"}, "name": "995dce463499af04b6f4cfb7f26a1b4d", "type": "electric_scooter", "fusion_lon": 0.0, "is_disabled": 0, "is_reserved": 0, "bike_id": "995dce463499af04b6f4cfb7f26a1b4d", "lon": -77.02502516666667}, {"fusion_lat": 0.0, "lat": 38.86630016666667, "rental_uris": {"ios": "https://dc.lft.to/lastmile_qr_scan", "android": "https://dc.lft.to/lastmile_qr_scan"}, "name": "794d562255e0e6968f0e08bfe3203ba0", "type": "electric_scooter", "fusion_lon": 0.0, "is_disabled": 0, "is_reserved": 0, "bike_id": "794d562255e0e6968f0e08bfe3203ba0", "lon": -76.98715666666666}, {"fusion_lat": 0.0, "lat": 38.92420283333333, "rental_uris": {"ios": "https://dc.lft.to/lastmile_qr_scan", "android": "https://dc.lft.to/lastmile_qr_scan"}, "name": "d7305f34c61e0d26e54e7da56d1c8718", "type": "electric_scooter", "fusion_lon": 0.0, "is_disabled": 0, "is_reserved": 0, "bike_id": "d7305f34c61e0d26e54e7da56d1c8718", "lon": -77.020097}, {"fusion_lat": 0.0, "lat": 38.892230166666664, "rental_uris": {"ios": "https://dc.lft.to/lastmile_qr_scan", "android": "https://dc.lft.to/lastmile_qr_scan"}, "name": "19b8da4c62f1f831b16424403febe961", "type": "electric_scooter", "fusion_lon": 0.0, "is_disabled": 0, "is_reserved": 0, "bike_id": "19b8da4c62f1f831b16424403febe961", "lon": -77.04689716666667}, {"fusion_lat": 0.0, "lat": 38.93164816666667, "rental_uris": {"ios": "https://dc.lft.to/lastmile_qr_scan", "android": "https://dc.lft.to/lastmile_qr_scan"}, "name": "c782034dda9622fbc364b081495b4fe1", "type": "electric_scooter", "fusion_lon": 0.0, "is_disabled": 0, "is_reserved": 0, "bike_id": "c782034dda9622fbc364b081495b4fe1", "lon": -77.07846716666667}, {"fusion_lat": 0.0, "lat": 38.925818, "rental_uris": {"ios": "https://dc.lft.to/lastmile_qr_scan", "android": "https://dc.lft.to/lastmile_qr_scan"}, "name": "f132386245f4e089211166c0b1a58654", "type": "electric_scooter", "fusion_lon": 0.0, "is_disabled": 0, "is_reserved": 0, "bike_id": "f132386245f4e089211166c0b1a58654", "lon": -77.02757766666667}, {"fusion_lat": 0.0, "lat": 38.9052465, "rental_uris": {"ios": "https://dc.lft.to/lastmile_qr_scan", "android": "https://dc.lft.to/lastmile_qr_scan"}, "name": "b9f3e8b6eb1fea3a8c4e7a2bbc86e025", "type": "electric_scooter", "fusion_lon": 0.0, "is_disabled": 0, "is_reserved": 0, "bike_id": "b9f3e8b6eb1fea3a8c4e7a2bbc86e025", "lon": -77.0513615}, {"fusion_lat": 0.0, "lat": 38.918277333333336, "rental_uris": {"ios": "https://dc.lft.to/lastmile_qr_scan", "android": "https://dc.lft.to/lastmile_qr_scan"}, "name": "8b78660f9200749d8e33c20f7068a354", "type": "electric_scooter", "fusion_lon": 0.0, "is_disabled": 0, "is_reserved": 0, "bike_id": "8b78660f9200749d8e33c20f7068a354", "lon": -77.04022083333334}, {"fusion_lat": 0.0, "lat": 38.921937166666666, "rental_uris": {"ios": "https://dc.lft.to/lastmile_qr_scan", "android": "https://dc.lft.to/lastmile_qr_scan"}, "name": "4fc639ee41e957c976f579406c0f49c9", "type": "electric_scooter", "fusion_lon": 0.0, "is_disabled": 0, "is_reserved": 0, "bike_id": "4fc639ee41e957c976f579406c0f49c9", "lon": -77.04251333333333}, {"fusion_lat": 0.0, "lat": 38.902232833333336, "rental_uris": {"ios": "https://dc.lft.to/lastmile_qr_scan", "android": "https://dc.lft.to/lastmile_qr_scan"}, "name": "6b8ce25bb6ba7cdde32cc2ecadc1a8b6", "type": "electric_scooter", "fusion_lon": 0.0, "is_disabled": 0, "is_reserved": 0, "bike_id": "6b8ce25bb6ba7cdde32cc2ecadc1a8b6", "lon": -77.04017066666667}, {"fusion_lat": 0.0, "lat": 38.940546499999996, "rental_uris": {"ios": "https://dc.lft.to/lastmile_qr_scan", "android": "https://dc.lft.to/lastmile_qr_scan"}, "name": "34b48d43e2b65266fc26c3b703673cb7", "type": "electric_bike", "fusion_lon": 0.0, "is_disabled": 0, "is_reserved": 0, "bike_id": "34b48d43e2b65266fc26c3b703673cb7", "lon": -76.904187}, {"fusion_lat": 0.0, "lat": 38.879982, "rental_uris": {"ios": "https://dc.lft.to/lastmile_qr_scan", "android": "https://dc.lft.to/lastmile_qr_scan"}, "name": "4ed3682776b3b472e32ee917f51d616a", "type": "electric_scooter", "fusion_lon": 0.0, "is_disabled": 0, "is_reserved": 0, "bike_id": "4ed3682776b3b472e32ee917f51d616a", "lon": -76.9949655}, {"fusion_lat": 0.0, "lat": 38.91410033333333, "rental_uris": {"ios": "https://dc.lft.to/lastmile_qr_scan", "android": "https://dc.lft.to/lastmile_qr_scan"}, "name": "35537118b0fb8ae23f0b61c6a161ddde", "type": "electric_scooter", "fusion_lon": 0.0, "is_disabled": 0, "is_reserved": 0, "bike_id": "35537118b0fb8ae23f0b61c6a161ddde", "lon": -77.02447666666667}, {"fusion_lat": 0.0, "lat": 38.939324166666665, "rental_uris": {"ios": "https://dc.lft.to/lastmile_qr_scan", "android": "https://dc.lft.to/lastmile_qr_scan"}, "name": "4898d698214ea265bcbe45d0a7e7d552", "type": "electric_scooter", "fusion_lon": 0.0, "is_disabled": 0, "is_reserved": 0, "bike_id": "4898d698214ea265bcbe45d0a7e7d552", "lon": -77.036736}, {"fusion_lat": 0.0, "lat": 38.972317333333336, "rental_uris": {"ios": "https://dc.lft.to/lastmile_qr_scan", "android": "https://dc.lft.to/lastmile_qr_scan"}, "name": "1a068305048f58cde1ca85502240232a", "type": "electric_bike", "fusion_lon": 0.0, "is_disabled": 0, "is_reserved": 0, "bike_id": "1a068305048f58cde1ca85502240232a", "lon": -77.02709383333334}, {"fusion_lat": 0.0, "lat": 38.892438, "rental_uris": {"ios": "https://dc.lft.to/lastmile_qr_scan", "android": "https://dc.lft.to/lastmile_qr_scan"}, "name": "e2af7494c1817e2ee16d9c4571ffc148", "type": "electric_scooter", "fusion_lon": 0.0, "is_disabled": 0, "is_reserved": 0, "bike_id": "e2af7494c1817e2ee16d9c4571ffc148", "lon": -77.03956}, {"fusion_lat": 0.0, "lat": 38.90128983333334, "rental_uris": {"ios": "https://dc.lft.to/lastmile_qr_scan", "android": "https://dc.lft.to/lastmile_qr_scan"}, "name": "63226cc7f3fbeb49a022f20f7bb35e68", "type": "electric_scooter", "fusion_lon": 0.0, "is_disabled": 0, "is_reserved": 0, "bike_id": "63226cc7f3fbeb49a022f20f7bb35e68", "lon": -77.03480633333334}, {"fusion_lat": 0.0, "lat": 38.9262765, "rental_uris": {"ios": "https://dc.lft.to/lastmile_qr_scan", "android": "https://dc.lft.to/lastmile_qr_scan"}, "name": "98ac304a9d54b63d463fe82e045acac3", "type": "electric_scooter", "fusion_lon": 0.0, "is_disabled": 0, "is_reserved": 0, "bike_id": "98ac304a9d54b63d463fe82e045acac3", "lon": -77.0352725}, {"fusion_lat": 0.0, "lat": 38.92370783333333, "rental_uris": {"ios": "https://dc.lft.to/lastmile_qr_scan", "android": "https://dc.lft.to/lastmile_qr_scan"}, "name": "4e293552d895da52070e4f2132a693bb", "type": "electric_scooter", "fusion_lon": 0.0, "is_disabled": 0, "is_reserved": 0, "bike_id": "4e293552d895da52070e4f2132a693bb", "lon": -77.01906166666667}, {"fusion_lat": 0.0, "lat": 38.9233505, "rental_uris": {"ios": "https://dc.lft.to/lastmile_qr_scan", "android": "https://dc.lft.to/lastmile_qr_scan"}, "name": "fe3dd983735e9ea802762f4433dbbbb4", "type": "electric_scooter", "fusion_lon": 0.0, "is_disabled": 0, "is_reserved": 0, "bike_id": "fe3dd983735e9ea802762f4433dbbbb4", "lon": -77.05344516666666}, {"fusion_lat": 0.0, "lat": 38.87385833333333, "rental_uris": {"ios": "https://dc.lft.to/lastmile_qr_scan", "android": "https://dc.lft.to/lastmile_qr_scan"}, "name": "5e6b1c035782c33ecc2b8a760f17bc2e", "type": "electric_scooter", "fusion_lon": 0.0, "is_disabled": 0, "is_reserved": 0, "bike_id": "5e6b1c035782c33ecc2b8a760f17bc2e", "lon": -77.00030766666667}, {"fusion_lat": 0.0, "lat": 38.933555, "rental_uris": {"ios": "https://dc.lft.to/lastmile_qr_scan", "android": "https://dc.lft.to/lastmile_qr_scan"}, "name": "a1475e2c39a6a2dba04d04e0732c28da", "type": "electric_bike", "fusion_lon": 0.0, "is_disabled": 0, "is_reserved": 0, "bike_id": "a1475e2c39a6a2dba04d04e0732c28da", "lon": -77.0710415}, {"fusion_lat": 0.0, "lat": 38.87672533333333, "rental_uris": {"ios": "https://dc.lft.to/lastmile_qr_scan", "android": "https://dc.lft.to/lastmile_qr_scan"}, "name": "f1563c7ecb37c9799d46fd9769f2a8b0", "type": "electric_scooter", "fusion_lon": 0.0, "is_disabled": 0, "is_reserved": 0, "bike_id": "f1563c7ecb37c9799d46fd9769f2a8b0", "lon": -77.00897966666666}, {"fusion_lat": 0.0, "lat": 38.90067333333333, "rental_uris": {"ios": "https://dc.lft.to/lastmile_qr_scan", "android": "https://dc.lft.to/lastmile_qr_scan"}, "name": "4ad0f4c10de5f6993b4d38eba2b757e4", "type": "electric_scooter", "fusion_lon": 0.0, "is_disabled": 0, "is_reserved": 0, "bike_id": "4ad0f4c10de5f6993b4d38eba2b757e4", "lon": -77.04534633333333}, {"fusion_lat": 0.0, "lat": 38.91008133333333, "rental_uris": {"ios": "https://dc.lft.to/lastmile_qr_scan", "android": "https://dc.lft.to/lastmile_qr_scan"}, "name": "ce8e62dfa3b3abbda258c705f8846d12", "type": "electric_scooter", "fusion_lon": 0.0, "is_disabled": 0, "is_reserved": 0, "bike_id": "ce8e62dfa3b3abbda258c705f8846d12", "lon": -76.99404833333334}, {"fusion_lat": 0.0, "lat": 38.92085216666667, "rental_uris": {"ios": "https://dc.lft.to/lastmile_qr_scan", "android": "https://dc.lft.to/lastmile_qr_scan"}, "name": "24bf8105e3ea30b3823c8568726afecb", "type": "electric_scooter", "fusion_lon": 0.0, "is_disabled": 0, "is_reserved": 0, "bike_id": "24bf8105e3ea30b3823c8568726afecb", "lon": -77.01390016666667}, {"fusion_lat": 0.0, "lat": 38.902399333333335, "rental_uris": {"ios": "https://dc.lft.to/lastmile_qr_scan", "android": "https://dc.lft.to/lastmile_qr_scan"}, "name": "043b761394113ebcd1953d35d50ff615", "type": "electric_scooter", "fusion_lon": 0.0, "is_disabled": 0, "is_reserved": 0, "bike_id": "043b761394113ebcd1953d35d50ff615", "lon": -77.05932333333334}, {"fusion_lat": 0.0, "lat": 38.933718, "rental_uris": {"ios": "https://dc.lft.to/lastmile_qr_scan", "android": "https://dc.lft.to/lastmile_qr_scan"}, "name": "20a484f737480b3249aa3a6dbcfa2b77", "type": "electric_scooter", "fusion_lon": 0.0, "is_disabled": 0, "is_reserved": 0, "bike_id": "20a484f737480b3249aa3a6dbcfa2b77", "lon": -77.024058}, {"fusion_lat": 0.0, "lat": 38.91734983333333, "rental_uris": {"ios": "https://dc.lft.to/lastmile_qr_scan", "android": "https://dc.lft.to/lastmile_qr_scan"}, "name": "544265e90e1df5297b0c54ac2cb8c9e9", "type": "electric_scooter", "fusion_lon": 0.0, "is_disabled": 0, "is_reserved": 0, "bike_id": "544265e90e1df5297b0c54ac2cb8c9e9", "lon": -77.03447716666666}, {"fusion_lat": 0.0, "lat": 38.9224345, "rental_uris": {"ios": "https://dc.lft.to/lastmile_qr_scan", "android": "https://dc.lft.to/lastmile_qr_scan"}, "name": "f64279259dd4dbd87c8e6f0bd6fea9e5", "type": "electric_scooter", "fusion_lon": 0.0, "is_disabled": 0, "is_reserved": 0, "bike_id": "f64279259dd4dbd87c8e6f0bd6fea9e5", "lon": -77.0212125}, {"fusion_lat": 0.0, "lat": 38.885141833333336, "rental_uris": {"ios": "https://dc.lft.to/lastmile_qr_scan", "android": "https://dc.lft.to/lastmile_qr_scan"}, "name": "737f3d26d4279febfb4c3d3b769b7bee", "type": "electric_scooter", "fusion_lon": 0.0, "is_disabled": 0, "is_reserved": 0, "bike_id": "737f3d26d4279febfb4c3d3b769b7bee", "lon": -77.01504983333334}, {"fusion_lat": 0.0, "lat": 38.89859933333334, "rental_uris": {"ios": "https://dc.lft.to/lastmile_qr_scan", "android": "https://dc.lft.to/lastmile_qr_scan"}, "name": "3b12de23207cf065757f7278ddbd520f", "type": "electric_scooter", "fusion_lon": 0.0, "is_disabled": 0, "is_reserved": 0, "bike_id": "3b12de23207cf065757f7278ddbd520f", "lon": -77.03949433333334}, {"fusion_lat": 0.0, "lat": 38.887233333333334, "rental_uris": {"ios": "https://dc.lft.to/lastmile_qr_scan", "android": "https://dc.lft.to/lastmile_qr_scan"}, "name": "52aa80c09e1354fa2a89bd3112c8f1b3", "type": "electric_scooter", "fusion_lon": 0.0, "is_disabled": 0, "is_reserved": 0, "bike_id": "52aa80c09e1354fa2a89bd3112c8f1b3", "lon": -76.99684166666667}, {"fusion_lat": 0.0, "lat": 38.90266166666667, "rental_uris": {"ios": "https://dc.lft.to/lastmile_qr_scan", "android": "https://dc.lft.to/lastmile_qr_scan"}, "name": "a9b0c13fb7e8af15aadf798a9edf5a40", "type": "electric_scooter", "fusion_lon": 0.0, "is_disabled": 0, "is_reserved": 0, "bike_id": "a9b0c13fb7e8af15aadf798a9edf5a40", "lon": -77.020077}, {"fusion_lat": 0.0, "lat": 38.8971375, "rental_uris": {"ios": "https://dc.lft.to/lastmile_qr_scan", "android": "https://dc.lft.to/lastmile_qr_scan"}, "name": "d406ce2a2616c23e6f9451c28c8ae1c9", "type": "electric_scooter", "fusion_lon": 0.0, "is_disabled": 0, "is_reserved": 0, "bike_id": "d406ce2a2616c23e6f9451c28c8ae1c9", "lon": -77.00736816666667}, {"fusion_lat": 0.0, "lat": 38.883448666666666, "rental_uris": {"ios": "https://dc.lft.to/lastmile_qr_scan", "android": "https://dc.lft.to/lastmile_qr_scan"}, "name": "cb26ee7d7e94c4e9cf7610923b97f34a", "type": "electric_scooter", "fusion_lon": 0.0, "is_disabled": 0, "is_reserved": 0, "bike_id": "cb26ee7d7e94c4e9cf7610923b97f34a", "lon": -77.02839916666667}, {"fusion_lat": 0.0, "lat": 38.89874283333333, "rental_uris": {"ios": "https://dc.lft.to/lastmile_qr_scan", "android": "https://dc.lft.to/lastmile_qr_scan"}, "name": "680ed72e0e5faeeec9225be894258a24", "type": "electric_scooter", "fusion_lon": 0.0, "is_disabled": 0, "is_reserved": 0, "bike_id": "680ed72e0e5faeeec9225be894258a24", "lon": -77.03957683333333}, {"fusion_lat": 0.0, "lat": 38.9098325, "rental_uris": {"ios": "https://dc.lft.to/lastmile_qr_scan", "android": "https://dc.lft.to/lastmile_qr_scan"}, "name": "d924cde832b6cb1fad61b113253e1f59", "type": "electric_scooter", "fusion_lon": 0.0, "is_disabled": 0, "is_reserved": 0, "bike_id": "d924cde832b6cb1fad61b113253e1f59", "lon": -77.03035433333334}, {"fusion_lat": 0.0, "lat": 38.8922565, "rental_uris": {"ios": "https://dc.lft.to/lastmile_qr_scan", "android": "https://dc.lft.to/lastmile_qr_scan"}, "name": "c21da9782feecd7101dbc9bb5a98f951", "type": "electric_scooter", "fusion_lon": 0.0, "is_disabled": 0, "is_reserved": 0, "bike_id": "c21da9782feecd7101dbc9bb5a98f951", "lon": -77.043277}, {"fusion_lat": 0.0, "lat": 38.931840666666666, "rental_uris": {"ios": "https://dc.lft.to/lastmile_qr_scan", "android": "https://dc.lft.to/lastmile_qr_scan"}, "name": "d2715430212d3d077805883653cbc7e7", "type": "electric_scooter", "fusion_lon": 0.0, "is_disabled": 0, "is_reserved": 0, "bike_id": "d2715430212d3d077805883653cbc7e7", "lon": -77.04299516666667}, {"fusion_lat": 0.0, "lat": 38.93675183333333, "rental_uris": {"ios": "https://dc.lft.to/lastmile_qr_scan", "android": "https://dc.lft.to/lastmile_qr_scan"}, "name": "feaf9140c04b8a06ffdcb30558c7c773", "type": "electric_scooter", "fusion_lon": 0.0, "is_disabled": 0, "is_reserved": 0, "bike_id": "feaf9140c04b8a06ffdcb30558c7c773", "lon": -77.03589783333334}, {"fusion_lat": 0.0, "lat": 38.91695566666667, "rental_uris": {"ios": "https://dc.lft.to/lastmile_qr_scan", "android": "https://dc.lft.to/lastmile_qr_scan"}, "name": "d91f4e4666965d7c80035771d0039031", "type": "electric_scooter", "fusion_lon": 0.0, "is_disabled": 0, "is_reserved": 0, "bike_id": "d91f4e4666965d7c80035771d0039031", "lon": -77.0283345}, {"fusion_lat": 0.0, "lat": 38.89123083333333, "rental_uris": {"ios": "https://dc.lft.to/lastmile_qr_scan", "android": "https://dc.lft.to/lastmile_qr_scan"}, "name": "a2d0f307ef3c240e8c43f5eb40c3d74c", "type": "electric_scooter", "fusion_lon": 0.0, "is_disabled": 0, "is_reserved": 0, "bike_id": "a2d0f307ef3c240e8c43f5eb40c3d74c", "lon": -77.04871}, {"fusion_lat": 0.0, "lat": 38.922762666666664, "rental_uris": {"ios": "https://dc.lft.to/lastmile_qr_scan", "android": "https://dc.lft.to/lastmile_qr_scan"}, "name": "0b5d875cc0ed23308a742698a27d8637", "type": "electric_scooter", "fusion_lon": 0.0, "is_disabled": 0, "is_reserved": 0, "bike_id": "0b5d875cc0ed23308a742698a27d8637", "lon": -77.02109983333334}, {"fusion_lat": 0.0, "lat": 38.905009166666666, "rental_uris": {"ios": "https://dc.lft.to/lastmile_qr_scan", "android": "https://dc.lft.to/lastmile_qr_scan"}, "name": "498bcf1c5cad9a464e6e96880ab50787", "type": "electric_scooter", "fusion_lon": 0.0, "is_disabled": 0, "is_reserved": 0, "bike_id": "498bcf1c5cad9a464e6e96880ab50787", "lon": -76.9813485}, {"fusion_lat": 0.0, "lat": 38.9002435, "rental_uris": {"ios": "https://dc.lft.to/lastmile_qr_scan", "android": "https://dc.lft.to/lastmile_qr_scan"}, "name": "9e2123b2f17634e70287f2dd7b752b3c", "type": "electric_scooter", "fusion_lon": 0.0, "is_disabled": 0, "is_reserved": 0, "bike_id": "9e2123b2f17634e70287f2dd7b752b3c", "lon": -76.97399416666667}, {"fusion_lat": 0.0, "lat": 38.899696166666665, "rental_uris": {"ios": "https://dc.lft.to/lastmile_qr_scan", "android": "https://dc.lft.to/lastmile_qr_scan"}, "name": "ef3ae81b4feea4418b467e7c074c9d11", "type": "electric_bike", "fusion_lon": 0.0, "is_disabled": 0, "is_reserved": 0, "bike_id": "ef3ae81b4feea4418b467e7c074c9d11", "lon": -76.98669833333334}, {"fusion_lat": 0.0, "lat": 38.91328933333333, "rental_uris": {"ios": "https://dc.lft.to/lastmile_qr_scan", "android": "https://dc.lft.to/lastmile_qr_scan"}, "name": "019ea2af7009bc91f5f518e7508b8f71", "type": "electric_scooter", "fusion_lon": 0.0, "is_disabled": 0, "is_reserved": 0, "bike_id": "019ea2af7009bc91f5f518e7508b8f71", "lon": -77.04860116666667}, {"fusion_lat": 0.0, "lat": 38.93187, "rental_uris": {"ios": "https://dc.lft.to/lastmile_qr_scan", "android": "https://dc.lft.to/lastmile_qr_scan"}, "name": "8ba03467296f1d9498049ca54985ca0b", "type": "electric_scooter", "fusion_lon": 0.0, "is_disabled": 0, "is_reserved": 0, "bike_id": "8ba03467296f1d9498049ca54985ca0b", "lon": -77.0722165}, {"fusion_lat": 0.0, "lat": 38.8873475, "rental_uris": {"ios": "https://dc.lft.to/lastmile_qr_scan", "android": "https://dc.lft.to/lastmile_qr_scan"}, "name": "47ba8affd81a5dd170fa581dff5335c1", "type": "electric_scooter", "fusion_lon": 0.0, "is_disabled": 0, "is_reserved": 0, "bike_id": "47ba8affd81a5dd170fa581dff5335c1", "lon": -77.01506216666667}, {"fusion_lat": 0.0, "lat": 38.91931866666667, "rental_uris": {"ios": "https://dc.lft.to/lastmile_qr_scan", "android": "https://dc.lft.to/lastmile_qr_scan"}, "name": "5d3dfd11ae731d711ac177ec8639e3e0", "type": "electric_scooter", "fusion_lon": 0.0, "is_disabled": 0, "is_reserved": 0, "bike_id": "5d3dfd11ae731d711ac177ec8639e3e0", "lon": -77.041778}, {"fusion_lat": 0.0, "lat": 38.92985483333333, "rental_uris": {"ios": "https://dc.lft.to/lastmile_qr_scan", "android": "https://dc.lft.to/lastmile_qr_scan"}, "name": "6396408b10bd1efdba92595075df75bd", "type": "electric_scooter", "fusion_lon": 0.0, "is_disabled": 0, "is_reserved": 0, "bike_id": "6396408b10bd1efdba92595075df75bd", "lon": -77.03257933333333}, {"fusion_lat": 0.0, "lat": 38.919129166666664, "rental_uris": {"ios": "https://dc.lft.to/lastmile_qr_scan", "android": "https://dc.lft.to/lastmile_qr_scan"}, "name": "149435eb268c2fb8dba8c7a1604ef849", "type": "electric_scooter", "fusion_lon": 0.0, "is_disabled": 0, "is_reserved": 0, "bike_id": "149435eb268c2fb8dba8c7a1604ef849", "lon": -77.041488}, {"fusion_lat": 0.0, "lat": 38.9318685, "rental_uris": {"ios": "https://dc.lft.to/lastmile_qr_scan", "android": "https://dc.lft.to/lastmile_qr_scan"}, "name": "d9f43b5ab60450793ec26c5af0831efc", "type": "electric_scooter", "fusion_lon": 0.0, "is_disabled": 0, "is_reserved": 0, "bike_id": "d9f43b5ab60450793ec26c5af0831efc", "lon": -77.019864}, {"fusion_lat": 0.0, "lat": 38.935260166666666, "rental_uris": {"ios": "https://dc.lft.to/lastmile_qr_scan", "android": "https://dc.lft.to/lastmile_qr_scan"}, "name": "d39fabf24b48582e995d4983a47ad206", "type": "electric_scooter", "fusion_lon": 0.0, "is_disabled": 0, "is_reserved": 0, "bike_id": "d39fabf24b48582e995d4983a47ad206", "lon": -77.07654783333334}, {"fusion_lat": 0.0, "lat": 38.92473, "rental_uris": {"ios": "https://dc.lft.to/lastmile_qr_scan", "android": "https://dc.lft.to/lastmile_qr_scan"}, "name": "b958163fcdd96280488e5fc294efa268", "type": "electric_scooter", "fusion_lon": 0.0, "is_disabled": 0, "is_reserved": 0, "bike_id": "b958163fcdd96280488e5fc294efa268", "lon": -77.022159}, {"fusion_lat": 0.0, "lat": 38.90148833333333, "rental_uris": {"ios": "https://dc.lft.to/lastmile_qr_scan", "android": "https://dc.lft.to/lastmile_qr_scan"}, "name": "bcaa648fcc5f15d1c621fde5179c05cb", "type": "electric_scooter", "fusion_lon": 0.0, "is_disabled": 0, "is_reserved": 0, "bike_id": "bcaa648fcc5f15d1c621fde5179c05cb", "lon": -77.02010883333334}, {"fusion_lat": 0.0, "lat": 38.911351833333335, "rental_uris": {"ios": "https://dc.lft.to/lastmile_qr_scan", "android": "https://dc.lft.to/lastmile_qr_scan"}, "name": "a31e470b27a16390297b3aeaeb6c9550", "type": "electric_scooter", "fusion_lon": 0.0, "is_disabled": 0, "is_reserved": 0, "bike_id": "a31e470b27a16390297b3aeaeb6c9550", "lon": -77.0384045}, {"fusion_lat": 0.0, "lat": 38.895047, "rental_uris": {"ios": "https://dc.lft.to/lastmile_qr_scan", "android": "https://dc.lft.to/lastmile_qr_scan"}, "name": "415f2270f91dfa5c2f6fcb05c5094796", "type": "electric_scooter", "fusion_lon": 0.0, "is_disabled": 0, "is_reserved": 0, "bike_id": "415f2270f91dfa5c2f6fcb05c5094796", "lon": -76.93472816666667}, {"fusion_lat": 0.0, "lat": 38.92887433333333, "rental_uris": {"ios": "https://dc.lft.to/lastmile_qr_scan", "android": "https://dc.lft.to/lastmile_qr_scan"}, "name": "f78027727a69aab14f35404dddfe810e", "type": "electric_scooter", "fusion_lon": 0.0, "is_disabled": 0, "is_reserved": 0, "bike_id": "f78027727a69aab14f35404dddfe810e", "lon": -77.032671}, {"fusion_lat": 0.0, "lat": 38.887336833333336, "rental_uris": {"ios": "https://dc.lft.to/lastmile_qr_scan", "android": "https://dc.lft.to/lastmile_qr_scan"}, "name": "8fdf6aabb82fa552674e7edfbb6f3f3a", "type": "electric_scooter", "fusion_lon": 0.0, "is_disabled": 0, "is_reserved": 0, "bike_id": "8fdf6aabb82fa552674e7edfbb6f3f3a", "lon": -77.02580866666666}, {"fusion_lat": 0.0, "lat": 38.9035935, "rental_uris": {"ios": "https://dc.lft.to/lastmile_qr_scan", "android": "https://dc.lft.to/lastmile_qr_scan"}, "name": "213d8770e3822ea17bf69d34a277b534", "type": "electric_scooter", "fusion_lon": 0.0, "is_disabled": 0, "is_reserved": 0, "bike_id": "213d8770e3822ea17bf69d34a277b534", "lon": -77.04143833333333}, {"fusion_lat": 0.0, "lat": 38.898673, "rental_uris": {"ios": "https://dc.lft.to/lastmile_qr_scan", "android": "https://dc.lft.to/lastmile_qr_scan"}, "name": "1f0bd1c9cddadca82a5ec4941f935d1e", "type": "electric_scooter", "fusion_lon": 0.0, "is_disabled": 0, "is_reserved": 0, "bike_id": "1f0bd1c9cddadca82a5ec4941f935d1e", "lon": -76.94640733333334}, {"fusion_lat": 0.0, "lat": 38.9303605, "rental_uris": {"ios": "https://dc.lft.to/lastmile_qr_scan", "android": "https://dc.lft.to/lastmile_qr_scan"}, "name": "82745325b2a65d6227c0549d68998fc7", "type": "electric_scooter", "fusion_lon": 0.0, "is_disabled": 0, "is_reserved": 0, "bike_id": "82745325b2a65d6227c0549d68998fc7", "lon": -77.033058}, {"fusion_lat": 0.0, "lat": 38.87580083333334, "rental_uris": {"ios": "https://dc.lft.to/lastmile_qr_scan", "android": "https://dc.lft.to/lastmile_qr_scan"}, "name": "f642865ce08333397ee40e80472b6abe", "type": "electric_bike", "fusion_lon": 0.0, "is_disabled": 0, "is_reserved": 0, "bike_id": "f642865ce08333397ee40e80472b6abe", "lon": -77.23407433333334}, {"fusion_lat": 0.0, "lat": 38.917455333333336, "rental_uris": {"ios": "https://dc.lft.to/lastmile_qr_scan", "android": "https://dc.lft.to/lastmile_qr_scan"}, "name": "da53647939d074ffb4d2ee0bace71f7e", "type": "electric_scooter", "fusion_lon": 0.0, "is_disabled": 0, "is_reserved": 0, "bike_id": "da53647939d074ffb4d2ee0bace71f7e", "lon": -77.02799133333333}, {"fusion_lat": 0.0, "lat": 38.934731666666664, "rental_uris": {"ios": "https://dc.lft.to/lastmile_qr_scan", "android": "https://dc.lft.to/lastmile_qr_scan"}, "name": "0c5c1d9d60d135ea862645a81820ac43", "type": "electric_scooter", "fusion_lon": 0.0, "is_disabled": 0, "is_reserved": 0, "bike_id": "0c5c1d9d60d135ea862645a81820ac43", "lon": -77.03579533333334}, {"fusion_lat": 0.0, "lat": 38.885293, "rental_uris": {"ios": "https://dc.lft.to/lastmile_qr_scan", "android": "https://dc.lft.to/lastmile_qr_scan"}, "name": "fdfd81c07463df04773ea4d84149a2e8", "type": "electric_scooter", "fusion_lon": 0.0, "is_disabled": 0, "is_reserved": 0, "bike_id": "fdfd81c07463df04773ea4d84149a2e8", "lon": -76.9291965}, {"fusion_lat": 0.0, "lat": 38.89711833333333, "rental_uris": {"ios": "https://dc.lft.to/lastmile_qr_scan", "android": "https://dc.lft.to/lastmile_qr_scan"}, "name": "3af3a9f03da226b250f6f4438e09211f", "type": "electric_scooter", "fusion_lon": 0.0, "is_disabled": 0, "is_reserved": 0, "bike_id": "3af3a9f03da226b250f6f4438e09211f", "lon": -77.02781166666666}, {"fusion_lat": 0.0, "lat": 38.90956166666667, "rental_uris": {"ios": "https://dc.lft.to/lastmile_qr_scan", "android": "https://dc.lft.to/lastmile_qr_scan"}, "name": "be6beba76b46ddc95fcd4ddf6311d958", "type": "electric_scooter", "fusion_lon": 0.0, "is_disabled": 0, "is_reserved": 0, "bike_id": "be6beba76b46ddc95fcd4ddf6311d958", "lon": -77.04585333333333}, {"fusion_lat": 0.0, "lat": 38.86060416666667, "rental_uris": {"ios": "https://dc.lft.to/lastmile_qr_scan", "android": "https://dc.lft.to/lastmile_qr_scan"}, "name": "9a93e51a21576ef5de1d54fdde47af17", "type": "electric_scooter", "fusion_lon": 0.0, "is_disabled": 0, "is_reserved": 0, "bike_id": "9a93e51a21576ef5de1d54fdde47af17", "lon": -76.98504433333333}, {"fusion_lat": 0.0, "lat": 38.91610433333334, "rental_uris": {"ios": "https://dc.lft.to/lastmile_qr_scan", "android": "https://dc.lft.to/lastmile_qr_scan"}, "name": "89757366737588dc78b32cbe1fc43744", "type": "electric_scooter", "fusion_lon": 0.0, "is_disabled": 0, "is_reserved": 0, "bike_id": "89757366737588dc78b32cbe1fc43744", "lon": -77.03144016666667}, {"fusion_lat": 0.0, "lat": 38.896079666666665, "rental_uris": {"ios": "https://dc.lft.to/lastmile_qr_scan", "android": "https://dc.lft.to/lastmile_qr_scan"}, "name": "0aa94544ea159db692fe7305480ed191", "type": "electric_scooter", "fusion_lon": 0.0, "is_disabled": 0, "is_reserved": 0, "bike_id": "0aa94544ea159db692fe7305480ed191", "lon": -77.02591933333333}, {"fusion_lat": 0.0, "lat": 38.8928385, "rental_uris": {"ios": "https://dc.lft.to/lastmile_qr_scan", "android": "https://dc.lft.to/lastmile_qr_scan"}, "name": "d9e1a6777dfb6a0450868019a6c9d337", "type": "electric_scooter", "fusion_lon": 0.0, "is_disabled": 0, "is_reserved": 0, "bike_id": "d9e1a6777dfb6a0450868019a6c9d337", "lon": -77.0503255}, {"fusion_lat": 0.0, "lat": 38.916306, "rental_uris": {"ios": "https://dc.lft.to/lastmile_qr_scan", "android": "https://dc.lft.to/lastmile_qr_scan"}, "name": "7e916d9752e88f25ad141f658341e16b", "type": "electric_scooter", "fusion_lon": 0.0, "is_disabled": 0, "is_reserved": 0, "bike_id": "7e916d9752e88f25ad141f658341e16b", "lon": -77.04005916666667}, {"fusion_lat": 0.0, "lat": 38.89224033333333, "rental_uris": {"ios": "https://dc.lft.to/lastmile_qr_scan", "android": "https://dc.lft.to/lastmile_qr_scan"}, "name": "436a9c09d67ff0facb54ef3ebac00aef", "type": "electric_scooter", "fusion_lon": 0.0, "is_disabled": 0, "is_reserved": 0, "bike_id": "436a9c09d67ff0facb54ef3ebac00aef", "lon": -77.04194966666667}, {"fusion_lat": 0.0, "lat": 38.91065316666667, "rental_uris": {"ios": "https://dc.lft.to/lastmile_qr_scan", "android": "https://dc.lft.to/lastmile_qr_scan"}, "name": "64d5617d810012943e6ccca39ba4f254", "type": "electric_scooter", "fusion_lon": 0.0, "is_disabled": 0, "is_reserved": 0, "bike_id": "64d5617d810012943e6ccca39ba4f254", "lon": -77.04383916666667}, {"fusion_lat": 0.0, "lat": 38.9054445, "rental_uris": {"ios": "https://dc.lft.to/lastmile_qr_scan", "android": "https://dc.lft.to/lastmile_qr_scan"}, "name": "f333bbb6d352c4919fa0e295f9005dea", "type": "electric_scooter", "fusion_lon": 0.0, "is_disabled": 0, "is_reserved": 0, "bike_id": "f333bbb6d352c4919fa0e295f9005dea", "lon": -77.04318583333334}, {"fusion_lat": 0.0, "lat": 38.923720333333335, "rental_uris": {"ios": "https://dc.lft.to/lastmile_qr_scan", "android": "https://dc.lft.to/lastmile_qr_scan"}, "name": "52662c2f95432eb2de5ff52f8cc936fa", "type": "electric_scooter", "fusion_lon": 0.0, "is_disabled": 0, "is_reserved": 0, "bike_id": "52662c2f95432eb2de5ff52f8cc936fa", "lon": -77.019078}, {"fusion_lat": 0.0, "lat": 38.875777666666664, "rental_uris": {"ios": "https://dc.lft.to/lastmile_qr_scan", "android": "https://dc.lft.to/lastmile_qr_scan"}, "name": "40bf1aa07881611969e6ed0bb4ebe00d", "type": "electric_scooter", "fusion_lon": 0.0, "is_disabled": 0, "is_reserved": 0, "bike_id": "40bf1aa07881611969e6ed0bb4ebe00d", "lon": -77.00589916666667}, {"fusion_lat": 0.0, "lat": 38.92024, "rental_uris": {"ios": "https://dc.lft.to/lastmile_qr_scan", "android": "https://dc.lft.to/lastmile_qr_scan"}, "name": "ab09c7c9bdc2d0e0cd90698f9346bebd", "type": "electric_bike", "fusion_lon": 0.0, "is_disabled": 0, "is_reserved": 0, "bike_id": "ab09c7c9bdc2d0e0cd90698f9346bebd", "lon": -77.01399433333333}, {"fusion_lat": 0.0, "lat": 38.95495016666667, "rental_uris": {"ios": "https://dc.lft.to/lastmile_qr_scan", "android": "https://dc.lft.to/lastmile_qr_scan"}, "name": "3bf52b75cc3bdfe1af0502956b504aa4", "type": "electric_scooter", "fusion_lon": 0.0, "is_disabled": 0, "is_reserved": 0, "bike_id": "3bf52b75cc3bdfe1af0502956b504aa4", "lon": -77.0172665}, {"fusion_lat": 0.0, "lat": 38.9247505, "rental_uris": {"ios": "https://dc.lft.to/lastmile_qr_scan", "android": "https://dc.lft.to/lastmile_qr_scan"}, "name": "1acf1b547edb2208a3718e22632b8610", "type": "electric_scooter", "fusion_lon": 0.0, "is_disabled": 0, "is_reserved": 0, "bike_id": "1acf1b547edb2208a3718e22632b8610", "lon": -77.03822366666667}, {"fusion_lat": 0.0, "lat": 38.92848566666667, "rental_uris": {"ios": "https://dc.lft.to/lastmile_qr_scan", "android": "https://dc.lft.to/lastmile_qr_scan"}, "name": "71a13f227f10d4710ec3dda2dd43ccc3", "type": "electric_scooter", "fusion_lon": 0.0, "is_disabled": 0, "is_reserved": 0, "bike_id": "71a13f227f10d4710ec3dda2dd43ccc3", "lon": -77.0141225}, {"fusion_lat": 0.0, "lat": 38.90115, "rental_uris": {"ios": "https://dc.lft.to/lastmile_qr_scan", "android": "https://dc.lft.to/lastmile_qr_scan"}, "name": "33840815cc79107d531edee032aa3cb5", "type": "electric_scooter", "fusion_lon": 0.0, "is_disabled": 0, "is_reserved": 0, "bike_id": "33840815cc79107d531edee032aa3cb5", "lon": -77.01680866666666}, {"fusion_lat": 0.0, "lat": 38.88642733333333, "rental_uris": {"ios": "https://dc.lft.to/lastmile_qr_scan", "android": "https://dc.lft.to/lastmile_qr_scan"}, "name": "6d4a1fe6c19f1b8ca1e9d4641f1dab03", "type": "electric_scooter", "fusion_lon": 0.0, "is_disabled": 0, "is_reserved": 0, "bike_id": "6d4a1fe6c19f1b8ca1e9d4641f1dab03", "lon": -77.015459}, {"fusion_lat": 0.0, "lat": 38.93678883333333, "rental_uris": {"ios": "https://dc.lft.to/lastmile_qr_scan", "android": "https://dc.lft.to/lastmile_qr_scan"}, "name": "73a4b1191608f98dc4cfea61b3fb5a3e", "type": "electric_scooter", "fusion_lon": 0.0, "is_disabled": 0, "is_reserved": 0, "bike_id": "73a4b1191608f98dc4cfea61b3fb5a3e", "lon": -77.08443466666667}, {"fusion_lat": 0.0, "lat": 38.917537333333335, "rental_uris": {"ios": "https://dc.lft.to/lastmile_qr_scan", "android": "https://dc.lft.to/lastmile_qr_scan"}, "name": "8ec02ecc6c4c277735312bf5445c1b1b", "type": "electric_scooter", "fusion_lon": 0.0, "is_disabled": 0, "is_reserved": 0, "bike_id": "8ec02ecc6c4c277735312bf5445c1b1b", "lon": -77.03859066666666}, {"fusion_lat": 0.0, "lat": 38.900317, "rental_uris": {"ios": "https://dc.lft.to/lastmile_qr_scan", "android": "https://dc.lft.to/lastmile_qr_scan"}, "name": "0483f7ce45ad77ab2736c50860c76215", "type": "electric_scooter", "fusion_lon": 0.0, "is_disabled": 0, "is_reserved": 0, "bike_id": "0483f7ce45ad77ab2736c50860c76215", "lon": -76.9883235}, {"fusion_lat": 0.0, "lat": 38.876635666666665, "rental_uris": {"ios": "https://dc.lft.to/lastmile_qr_scan", "android": "https://dc.lft.to/lastmile_qr_scan"}, "name": "b50c113f8ca631fed8398c7148bd90f9", "type": "electric_scooter", "fusion_lon": 0.0, "is_disabled": 0, "is_reserved": 0, "bike_id": "b50c113f8ca631fed8398c7148bd90f9", "lon": -77.00521016666667}, {"fusion_lat": 0.0, "lat": 38.90597016666667, "rental_uris": {"ios": "https://dc.lft.to/lastmile_qr_scan", "android": "https://dc.lft.to/lastmile_qr_scan"}, "name": "ff0e33253102299c83ff9e443c7bd4bf", "type": "electric_scooter", "fusion_lon": 0.0, "is_disabled": 0, "is_reserved": 0, "bike_id": "ff0e33253102299c83ff9e443c7bd4bf", "lon": -77.06389666666666}, {"fusion_lat": 0.0, "lat": 38.92519083333333, "rental_uris": {"ios": "https://dc.lft.to/lastmile_qr_scan", "android": "https://dc.lft.to/lastmile_qr_scan"}, "name": "74c08eb9a0ad61621faec6653b91a24d", "type": "electric_scooter", "fusion_lon": 0.0, "is_disabled": 0, "is_reserved": 0, "bike_id": "74c08eb9a0ad61621faec6653b91a24d", "lon": -77.02143266666667}, {"fusion_lat": 0.0, "lat": 38.91561333333333, "rental_uris": {"ios": "https://dc.lft.to/lastmile_qr_scan", "android": "https://dc.lft.to/lastmile_qr_scan"}, "name": "5fa1589aa8a81446fa788f50b6de16ee", "type": "electric_scooter", "fusion_lon": 0.0, "is_disabled": 0, "is_reserved": 0, "bike_id": "5fa1589aa8a81446fa788f50b6de16ee", "lon": -77.03782}, {"fusion_lat": 0.0, "lat": 38.92363733333333, "rental_uris": {"ios": "https://dc.lft.to/lastmile_qr_scan", "android": "https://dc.lft.to/lastmile_qr_scan"}, "name": "3c0950c3cb8940ff3f4af38b715bf124", "type": "electric_scooter", "fusion_lon": 0.0, "is_disabled": 0, "is_reserved": 0, "bike_id": "3c0950c3cb8940ff3f4af38b715bf124", "lon": -77.05029166666667}, {"fusion_lat": 0.0, "lat": 38.952522, "rental_uris": {"ios": "https://dc.lft.to/lastmile_qr_scan", "android": "https://dc.lft.to/lastmile_qr_scan"}, "name": "cde05be009a898a192ddcba46f660364", "type": "electric_scooter", "fusion_lon": 0.0, "is_disabled": 0, "is_reserved": 0, "bike_id": "cde05be009a898a192ddcba46f660364", "lon": -77.00173683333334}, {"fusion_lat": 0.0, "lat": 38.896477833333336, "rental_uris": {"ios": "https://dc.lft.to/lastmile_qr_scan", "android": "https://dc.lft.to/lastmile_qr_scan"}, "name": "5001cb4cc544bc7f0b9c62d4a8f5402c", "type": "electric_scooter", "fusion_lon": 0.0, "is_disabled": 0, "is_reserved": 0, "bike_id": "5001cb4cc544bc7f0b9c62d4a8f5402c", "lon": -77.02606983333334}, {"fusion_lat": 0.0, "lat": 38.88452083333333, "rental_uris": {"ios": "https://dc.lft.to/lastmile_qr_scan", "android": "https://dc.lft.to/lastmile_qr_scan"}, "name": "9588263f1aa0217e6edd4e3ea1ee9b71", "type": "electric_scooter", "fusion_lon": 0.0, "is_disabled": 0, "is_reserved": 0, "bike_id": "9588263f1aa0217e6edd4e3ea1ee9b71", "lon": -76.95098183333333}, {"fusion_lat": 0.0, "lat": 38.9139905, "rental_uris": {"ios": "https://dc.lft.to/lastmile_qr_scan", "android": "https://dc.lft.to/lastmile_qr_scan"}, "name": "277eeebc20410290220e9bcfc9b5372d", "type": "electric_scooter", "fusion_lon": 0.0, "is_disabled": 0, "is_reserved": 0, "bike_id": "277eeebc20410290220e9bcfc9b5372d", "lon": -77.015628}, {"fusion_lat": 0.0, "lat": 38.90267883333333, "rental_uris": {"ios": "https://dc.lft.to/lastmile_qr_scan", "android": "https://dc.lft.to/lastmile_qr_scan"}, "name": "b973d0bbc41ae20a2453a1824c19ff92", "type": "electric_scooter", "fusion_lon": 0.0, "is_disabled": 0, "is_reserved": 0, "bike_id": "b973d0bbc41ae20a2453a1824c19ff92", "lon": -77.031351}, {"fusion_lat": 0.0, "lat": 38.892864333333335, "rental_uris": {"ios": "https://dc.lft.to/lastmile_qr_scan", "android": "https://dc.lft.to/lastmile_qr_scan"}, "name": "7ecd7a3128c56a529dda308b3612d207", "type": "electric_scooter", "fusion_lon": 0.0, "is_disabled": 0, "is_reserved": 0, "bike_id": "7ecd7a3128c56a529dda308b3612d207", "lon": -76.9830355}, {"fusion_lat": 0.0, "lat": 38.9613625, "rental_uris": {"ios": "https://dc.lft.to/lastmile_qr_scan", "android": "https://dc.lft.to/lastmile_qr_scan"}, "name": "9f4aaa14bc64e596c4efe6e1a124ad46", "type": "electric_scooter", "fusion_lon": 0.0, "is_disabled": 0, "is_reserved": 0, "bike_id": "9f4aaa14bc64e596c4efe6e1a124ad46", "lon": -77.02812666666667}, {"fusion_lat": 0.0, "lat": 38.94330016666667, "rental_uris": {"ios": "https://dc.lft.to/lastmile_qr_scan", "android": "https://dc.lft.to/lastmile_qr_scan"}, "name": "0503c4679ba07b4a94cd6f3e9cafe64a", "type": "electric_scooter", "fusion_lon": 0.0, "is_disabled": 0, "is_reserved": 0, "bike_id": "0503c4679ba07b4a94cd6f3e9cafe64a", "lon": -77.01308133333333}, {"fusion_lat": 0.0, "lat": 38.861703166666665, "rental_uris": {"ios": "https://dc.lft.to/lastmile_qr_scan", "android": "https://dc.lft.to/lastmile_qr_scan"}, "name": "61b11c97f356343189342426b575c27d", "type": "electric_scooter", "fusion_lon": 0.0, "is_disabled": 0, "is_reserved": 0, "bike_id": "61b11c97f356343189342426b575c27d", "lon": -76.98364066666667}, {"fusion_lat": 0.0, "lat": 38.91911783333333, "rental_uris": {"ios": "https://dc.lft.to/lastmile_qr_scan", "android": "https://dc.lft.to/lastmile_qr_scan"}, "name": "a627e91f8cdcab7dc1c276cb3768513b", "type": "electric_scooter", "fusion_lon": 0.0, "is_disabled": 0, "is_reserved": 0, "bike_id": "a627e91f8cdcab7dc1c276cb3768513b", "lon": -77.03442733333333}, {"fusion_lat": 0.0, "lat": 38.94107283333334, "rental_uris": {"ios": "https://dc.lft.to/lastmile_qr_scan", "android": "https://dc.lft.to/lastmile_qr_scan"}, "name": "493b586e309dcc9856c34311b5d42595", "type": "electric_scooter", "fusion_lon": 0.0, "is_disabled": 0, "is_reserved": 0, "bike_id": "493b586e309dcc9856c34311b5d42595", "lon": -77.07595383333333}, {"fusion_lat": 0.0, "lat": 38.94125016666667, "rental_uris": {"ios": "https://dc.lft.to/lastmile_qr_scan", "android": "https://dc.lft.to/lastmile_qr_scan"}, "name": "acbd3def3cb31c4841c33ced33df454d", "type": "electric_scooter", "fusion_lon": 0.0, "is_disabled": 0, "is_reserved": 0, "bike_id": "acbd3def3cb31c4841c33ced33df454d", "lon": -77.015454}, {"fusion_lat": 0.0, "lat": 38.931835666666665, "rental_uris": {"ios": "https://dc.lft.to/lastmile_qr_scan", "android": "https://dc.lft.to/lastmile_qr_scan"}, "name": "6ec9acf6922f502e59277a7133f5e03a", "type": "electric_scooter", "fusion_lon": 0.0, "is_disabled": 0, "is_reserved": 0, "bike_id": "6ec9acf6922f502e59277a7133f5e03a", "lon": -77.04302183333333}, {"fusion_lat": 0.0, "lat": 38.90073316666667, "rental_uris": {"ios": "https://dc.lft.to/lastmile_qr_scan", "android": "https://dc.lft.to/lastmile_qr_scan"}, "name": "e86d1c42b3368aba2b7042c6cbda857d", "type": "electric_scooter", "fusion_lon": 0.0, "is_disabled": 0, "is_reserved": 0, "bike_id": "e86d1c42b3368aba2b7042c6cbda857d", "lon": -77.04347783333333}, {"fusion_lat": 0.0, "lat": 38.88411583333333, "rental_uris": {"ios": "https://dc.lft.to/lastmile_qr_scan", "android": "https://dc.lft.to/lastmile_qr_scan"}, "name": "01980659896bcbe08c66554db5ed511c", "type": "electric_scooter", "fusion_lon": 0.0, "is_disabled": 0, "is_reserved": 0, "bike_id": "01980659896bcbe08c66554db5ed511c", "lon": -77.01938933333334}, {"fusion_lat": 0.0, "lat": 38.90167366666667, "rental_uris": {"ios": "https://dc.lft.to/lastmile_qr_scan", "android": "https://dc.lft.to/lastmile_qr_scan"}, "name": "56c8e63e216d258c95c17112d56b5236", "type": "electric_scooter", "fusion_lon": 0.0, "is_disabled": 0, "is_reserved": 0, "bike_id": "56c8e63e216d258c95c17112d56b5236", "lon": -77.01344416666667}, {"fusion_lat": 0.0, "lat": 38.892957, "rental_uris": {"ios": "https://dc.lft.to/lastmile_qr_scan", "android": "https://dc.lft.to/lastmile_qr_scan"}, "name": "e4dd1c21982ed3d149e0ce9e97382434", "type": "electric_scooter", "fusion_lon": 0.0, "is_disabled": 0, "is_reserved": 0, "bike_id": "e4dd1c21982ed3d149e0ce9e97382434", "lon": -76.97526}, {"fusion_lat": 0.0, "lat": 38.9154985, "rental_uris": {"ios": "https://dc.lft.to/lastmile_qr_scan", "android": "https://dc.lft.to/lastmile_qr_scan"}, "name": "0edabf1e0e0fc8ffdbdf88ad1a08f9e8", "type": "electric_scooter", "fusion_lon": 0.0, "is_disabled": 0, "is_reserved": 0, "bike_id": "0edabf1e0e0fc8ffdbdf88ad1a08f9e8", "lon": -77.04158616666666}, {"fusion_lat": 0.0, "lat": 38.90712333333333, "rental_uris": {"ios": "https://dc.lft.to/lastmile_qr_scan", "android": "https://dc.lft.to/lastmile_qr_scan"}, "name": "eaf7673f5c27d0d95970d6973097bdfd", "type": "electric_scooter", "fusion_lon": 0.0, "is_disabled": 0, "is_reserved": 0, "bike_id": "eaf7673f5c27d0d95970d6973097bdfd", "lon": -77.02564083333333}, {"fusion_lat": 0.0, "lat": 38.9130275, "rental_uris": {"ios": "https://dc.lft.to/lastmile_qr_scan", "android": "https://dc.lft.to/lastmile_qr_scan"}, "name": "6ffbd83ea5da4d86afd52fc4cf5f0277", "type": "electric_scooter", "fusion_lon": 0.0, "is_disabled": 0, "is_reserved": 0, "bike_id": "6ffbd83ea5da4d86afd52fc4cf5f0277", "lon": -77.04865683333334}, {"fusion_lat": 0.0, "lat": 38.902038166666664, "rental_uris": {"ios": "https://dc.lft.to/lastmile_qr_scan", "android": "https://dc.lft.to/lastmile_qr_scan"}, "name": "21825cc0b0562f21a4b66f8c59a140a3", "type": "electric_scooter", "fusion_lon": 0.0, "is_disabled": 0, "is_reserved": 0, "bike_id": "21825cc0b0562f21a4b66f8c59a140a3", "lon": -76.98232933333334}, {"fusion_lat": 0.0, "lat": 38.919751833333336, "rental_uris": {"ios": "https://dc.lft.to/lastmile_qr_scan", "android": "https://dc.lft.to/lastmile_qr_scan"}, "name": "b304385c1558e29748e2e1b5b96d52d6", "type": "electric_scooter", "fusion_lon": 0.0, "is_disabled": 0, "is_reserved": 0, "bike_id": "b304385c1558e29748e2e1b5b96d52d6", "lon": -77.04143016666667}, {"fusion_lat": 0.0, "lat": 38.9194105, "rental_uris": {"ios": "https://dc.lft.to/lastmile_qr_scan", "android": "https://dc.lft.to/lastmile_qr_scan"}, "name": "7a6132d01354c5e4343d674c1306d90c", "type": "electric_scooter", "fusion_lon": 0.0, "is_disabled": 0, "is_reserved": 0, "bike_id": "7a6132d01354c5e4343d674c1306d90c", "lon": -77.0232925}, {"fusion_lat": 0.0, "lat": 38.88603166666667, "rental_uris": {"ios": "https://dc.lft.to/lastmile_qr_scan", "android": "https://dc.lft.to/lastmile_qr_scan"}, "name": "65347db3caae38766f323968b656d1c3", "type": "electric_scooter", "fusion_lon": 0.0, "is_disabled": 0, "is_reserved": 0, "bike_id": "65347db3caae38766f323968b656d1c3", "lon": -76.99009683333334}, {"fusion_lat": 0.0, "lat": 38.95936, "rental_uris": {"ios": "https://dc.lft.to/lastmile_qr_scan", "android": "https://dc.lft.to/lastmile_qr_scan"}, "name": "da598a65412f936bcdc155f0aa3d016a", "type": "electric_scooter", "fusion_lon": 0.0, "is_disabled": 0, "is_reserved": 0, "bike_id": "da598a65412f936bcdc155f0aa3d016a", "lon": -77.03114916666667}, {"fusion_lat": 0.0, "lat": 38.921150833333336, "rental_uris": {"ios": "https://dc.lft.to/lastmile_qr_scan", "android": "https://dc.lft.to/lastmile_qr_scan"}, "name": "2d5156bcc0ba1e2566ed22fb4de75298", "type": "electric_scooter", "fusion_lon": 0.0, "is_disabled": 0, "is_reserved": 0, "bike_id": "2d5156bcc0ba1e2566ed22fb4de75298", "lon": -77.02501966666667}, {"fusion_lat": 0.0, "lat": 38.909961833333334, "rental_uris": {"ios": "https://dc.lft.to/lastmile_qr_scan", "android": "https://dc.lft.to/lastmile_qr_scan"}, "name": "142422d434857c1731c4352dad640691", "type": "electric_scooter", "fusion_lon": 0.0, "is_disabled": 0, "is_reserved": 0, "bike_id": "142422d434857c1731c4352dad640691", "lon": -77.04661633333333}, {"fusion_lat": 0.0, "lat": 38.91420216666667, "rental_uris": {"ios": "https://dc.lft.to/lastmile_qr_scan", "android": "https://dc.lft.to/lastmile_qr_scan"}, "name": "d8b76623f9589aaba7a42e6d1d3751da", "type": "electric_scooter", "fusion_lon": 0.0, "is_disabled": 0, "is_reserved": 0, "bike_id": "d8b76623f9589aaba7a42e6d1d3751da", "lon": -77.03203883333333}, {"fusion_lat": 0.0, "lat": 38.845068, "rental_uris": {"ios": "https://dc.lft.to/lastmile_qr_scan", "android": "https://dc.lft.to/lastmile_qr_scan"}, "name": "b4daf16ee7dbfdaaf2f3da6b2f0f79d1", "type": "electric_bike", "fusion_lon": 0.0, "is_disabled": 0, "is_reserved": 0, "bike_id": "b4daf16ee7dbfdaaf2f3da6b2f0f79d1", "lon": -76.993498}, {"fusion_lat": 0.0, "lat": 38.8986525, "rental_uris": {"ios": "https://dc.lft.to/lastmile_qr_scan", "android": "https://dc.lft.to/lastmile_qr_scan"}, "name": "507eba2a786a797979aba57ecbb40b46", "type": "electric_scooter", "fusion_lon": 0.0, "is_disabled": 0, "is_reserved": 0, "bike_id": "507eba2a786a797979aba57ecbb40b46", "lon": -76.9463115}, {"fusion_lat": 0.0, "lat": 38.902707666666664, "rental_uris": {"ios": "https://dc.lft.to/lastmile_qr_scan", "android": "https://dc.lft.to/lastmile_qr_scan"}, "name": "baecec8a6fb0472d22bbd3b872ea84b2", "type": "electric_scooter", "fusion_lon": 0.0, "is_disabled": 0, "is_reserved": 0, "bike_id": "baecec8a6fb0472d22bbd3b872ea84b2", "lon": -77.03846883333334}, {"fusion_lat": 0.0, "lat": 38.9252095, "rental_uris": {"ios": "https://dc.lft.to/lastmile_qr_scan", "android": "https://dc.lft.to/lastmile_qr_scan"}, "name": "cec90da1828d6c010d9714119a14060a", "type": "electric_scooter", "fusion_lon": 0.0, "is_disabled": 0, "is_reserved": 0, "bike_id": "cec90da1828d6c010d9714119a14060a", "lon": -77.051222}, {"fusion_lat": 0.0, "lat": 38.89953583333333, "rental_uris": {"ios": "https://dc.lft.to/lastmile_qr_scan", "android": "https://dc.lft.to/lastmile_qr_scan"}, "name": "23d11aeb6d480380f90cb6f948e83d76", "type": "electric_scooter", "fusion_lon": 0.0, "is_disabled": 0, "is_reserved": 0, "bike_id": "23d11aeb6d480380f90cb6f948e83d76", "lon": -77.04046583333333}, {"fusion_lat": 0.0, "lat": 38.93530766666667, "rental_uris": {"ios": "https://dc.lft.to/lastmile_qr_scan", "android": "https://dc.lft.to/lastmile_qr_scan"}, "name": "c947e699795ec634ade1156c2bed820d", "type": "electric_scooter", "fusion_lon": 0.0, "is_disabled": 0, "is_reserved": 0, "bike_id": "c947e699795ec634ade1156c2bed820d", "lon": -77.02355966666667}, {"fusion_lat": 0.0, "lat": 38.89225033333334, "rental_uris": {"ios": "https://dc.lft.to/lastmile_qr_scan", "android": "https://dc.lft.to/lastmile_qr_scan"}, "name": "7e435991555341906057279af0729ca9", "type": "electric_scooter", "fusion_lon": 0.0, "is_disabled": 0, "is_reserved": 0, "bike_id": "7e435991555341906057279af0729ca9", "lon": -77.04378683333333}, {"fusion_lat": 0.0, "lat": 38.907999833333335, "rental_uris": {"ios": "https://dc.lft.to/lastmile_qr_scan", "android": "https://dc.lft.to/lastmile_qr_scan"}, "name": "491bd968cf65add68fe21f4eb1bf380d", "type": "electric_scooter", "fusion_lon": 0.0, "is_disabled": 0, "is_reserved": 0, "bike_id": "491bd968cf65add68fe21f4eb1bf380d", "lon": -77.0643905}, {"fusion_lat": 0.0, "lat": 38.919891666666665, "rental_uris": {"ios": "https://dc.lft.to/lastmile_qr_scan", "android": "https://dc.lft.to/lastmile_qr_scan"}, "name": "5680c1edea767a2f5d359aaeda4ffb10", "type": "electric_scooter", "fusion_lon": 0.0, "is_disabled": 0, "is_reserved": 0, "bike_id": "5680c1edea767a2f5d359aaeda4ffb10", "lon": -76.97304166666666}, {"fusion_lat": 0.0, "lat": 38.90404066666667, "rental_uris": {"ios": "https://dc.lft.to/lastmile_qr_scan", "android": "https://dc.lft.to/lastmile_qr_scan"}, "name": "a217895b7eb69b9f292203f12ddcfca0", "type": "electric_scooter", "fusion_lon": 0.0, "is_disabled": 0, "is_reserved": 0, "bike_id": "a217895b7eb69b9f292203f12ddcfca0", "lon": -76.98470233333333}, {"fusion_lat": 0.0, "lat": 38.921294333333336, "rental_uris": {"ios": "https://dc.lft.to/lastmile_qr_scan", "android": "https://dc.lft.to/lastmile_qr_scan"}, "name": "f3106f39811594b2859b38ada9104a8f", "type": "electric_scooter", "fusion_lon": 0.0, "is_disabled": 0, "is_reserved": 0, "bike_id": "f3106f39811594b2859b38ada9104a8f", "lon": -77.0190945}, {"fusion_lat": 0.0, "lat": 38.885958333333335, "rental_uris": {"ios": "https://dc.lft.to/lastmile_qr_scan", "android": "https://dc.lft.to/lastmile_qr_scan"}, "name": "5396efed476ad417952a752e5f409415", "type": "electric_scooter", "fusion_lon": 0.0, "is_disabled": 0, "is_reserved": 0, "bike_id": "5396efed476ad417952a752e5f409415", "lon": -76.956055}, {"fusion_lat": 0.0, "lat": 38.881776333333335, "rental_uris": {"ios": "https://dc.lft.to/lastmile_qr_scan", "android": "https://dc.lft.to/lastmile_qr_scan"}, "name": "2b9447c97986c5a12059a94f4754a22a", "type": "electric_scooter", "fusion_lon": 0.0, "is_disabled": 0, "is_reserved": 0, "bike_id": "2b9447c97986c5a12059a94f4754a22a", "lon": -76.95903733333333}, {"fusion_lat": 0.0, "lat": 38.93184883333333, "rental_uris": {"ios": "https://dc.lft.to/lastmile_qr_scan", "android": "https://dc.lft.to/lastmile_qr_scan"}, "name": "d5b30d2f0a7959402f0a6ad00f72f408", "type": "electric_scooter", "fusion_lon": 0.0, "is_disabled": 0, "is_reserved": 0, "bike_id": "d5b30d2f0a7959402f0a6ad00f72f408", "lon": -77.04301133333334}, {"fusion_lat": 0.0, "lat": 38.9358155, "rental_uris": {"ios": "https://dc.lft.to/lastmile_qr_scan", "android": "https://dc.lft.to/lastmile_qr_scan"}, "name": "1b57db6b6266df59e3a2189b0bdd0a03", "type": "electric_scooter", "fusion_lon": 0.0, "is_disabled": 0, "is_reserved": 0, "bike_id": "1b57db6b6266df59e3a2189b0bdd0a03", "lon": -77.0380305}, {"fusion_lat": 0.0, "lat": 38.90421766666667, "rental_uris": {"ios": "https://dc.lft.to/lastmile_qr_scan", "android": "https://dc.lft.to/lastmile_qr_scan"}, "name": "0e94b801740c6da12f4b23f28235d87c", "type": "electric_scooter", "fusion_lon": 0.0, "is_disabled": 0, "is_reserved": 0, "bike_id": "0e94b801740c6da12f4b23f28235d87c", "lon": -77.0433875}, {"fusion_lat": 0.0, "lat": 38.8771285, "rental_uris": {"ios": "https://dc.lft.to/lastmile_qr_scan", "android": "https://dc.lft.to/lastmile_qr_scan"}, "name": "542d5549eae675346a0fd823f3451325", "type": "electric_scooter", "fusion_lon": 0.0, "is_disabled": 0, "is_reserved": 0, "bike_id": "542d5549eae675346a0fd823f3451325", "lon": -77.00447216666667}, {"fusion_lat": 0.0, "lat": 38.895431, "rental_uris": {"ios": "https://dc.lft.to/lastmile_qr_scan", "android": "https://dc.lft.to/lastmile_qr_scan"}, "name": "5ae6fee497312c74af2c12a9cf3b0236", "type": "electric_scooter", "fusion_lon": 0.0, "is_disabled": 0, "is_reserved": 0, "bike_id": "5ae6fee497312c74af2c12a9cf3b0236", "lon": -77.04844766666666}, {"fusion_lat": 0.0, "lat": 38.887453, "rental_uris": {"ios": "https://dc.lft.to/lastmile_qr_scan", "android": "https://dc.lft.to/lastmile_qr_scan"}, "name": "2c18347ceece4f23208daf0401d0a546", "type": "electric_scooter", "fusion_lon": 0.0, "is_disabled": 0, "is_reserved": 0, "bike_id": "2c18347ceece4f23208daf0401d0a546", "lon": -77.0284365}, {"fusion_lat": 0.0, "lat": 38.91975816666667, "rental_uris": {"ios": "https://dc.lft.to/lastmile_qr_scan", "android": "https://dc.lft.to/lastmile_qr_scan"}, "name": "0ac0a5fb6f88995df75b13a5d8b75e52", "type": "electric_scooter", "fusion_lon": 0.0, "is_disabled": 0, "is_reserved": 0, "bike_id": "0ac0a5fb6f88995df75b13a5d8b75e52", "lon": -77.0219855}, {"fusion_lat": 0.0, "lat": 38.864499333333335, "rental_uris": {"ios": "https://dc.lft.to/lastmile_qr_scan", "android": "https://dc.lft.to/lastmile_qr_scan"}, "name": "6e1fcde9b16ca102516c744448dbec8d", "type": "electric_bike", "fusion_lon": 0.0, "is_disabled": 0, "is_reserved": 0, "bike_id": "6e1fcde9b16ca102516c744448dbec8d", "lon": -77.1068405}, {"fusion_lat": 0.0, "lat": 38.8772035, "rental_uris": {"ios": "https://dc.lft.to/lastmile_qr_scan", "android": "https://dc.lft.to/lastmile_qr_scan"}, "name": "f615735908bb7dc214cc76a47c8279c6", "type": "electric_scooter", "fusion_lon": 0.0, "is_disabled": 0, "is_reserved": 0, "bike_id": "f615735908bb7dc214cc76a47c8279c6", "lon": -77.00438633333333}, {"fusion_lat": 0.0, "lat": 38.93927633333333, "rental_uris": {"ios": "https://dc.lft.to/lastmile_qr_scan", "android": "https://dc.lft.to/lastmile_qr_scan"}, "name": "9f9beb416c6e6677b5a722269d21225c", "type": "electric_scooter", "fusion_lon": 0.0, "is_disabled": 0, "is_reserved": 0, "bike_id": "9f9beb416c6e6677b5a722269d21225c", "lon": -77.02790516666667}, {"fusion_lat": 0.0, "lat": 38.906428, "rental_uris": {"ios": "https://dc.lft.to/lastmile_qr_scan", "android": "https://dc.lft.to/lastmile_qr_scan"}, "name": "c4ec3f4e1fc28192cfb210499728c98a", "type": "electric_scooter", "fusion_lon": 0.0, "is_disabled": 0, "is_reserved": 0, "bike_id": "c4ec3f4e1fc28192cfb210499728c98a", "lon": -77.01028133333334}, {"fusion_lat": 0.0, "lat": 38.93430716666667, "rental_uris": {"ios": "https://dc.lft.to/lastmile_qr_scan", "android": "https://dc.lft.to/lastmile_qr_scan"}, "name": "076ed909055b98b8df382551ce9363cc", "type": "electric_scooter", "fusion_lon": 0.0, "is_disabled": 0, "is_reserved": 0, "bike_id": "076ed909055b98b8df382551ce9363cc", "lon": -77.05584266666666}, {"fusion_lat": 0.0, "lat": 38.900850166666665, "rental_uris": {"ios": "https://dc.lft.to/lastmile_qr_scan", "android": "https://dc.lft.to/lastmile_qr_scan"}, "name": "fdedc9ce20c25fb1f7a12626c49ca6db", "type": "electric_scooter", "fusion_lon": 0.0, "is_disabled": 0, "is_reserved": 0, "bike_id": "fdedc9ce20c25fb1f7a12626c49ca6db", "lon": -77.02687983333334}, {"fusion_lat": 0.0, "lat": 38.91706633333333, "rental_uris": {"ios": "https://dc.lft.to/lastmile_qr_scan", "android": "https://dc.lft.to/lastmile_qr_scan"}, "name": "571f5b39d00311c544c9489cc01e0f5e", "type": "electric_scooter", "fusion_lon": 0.0, "is_disabled": 0, "is_reserved": 0, "bike_id": "571f5b39d00311c544c9489cc01e0f5e", "lon": -77.022897}, {"fusion_lat": 0.0, "lat": 38.91708666666667, "rental_uris": {"ios": "https://dc.lft.to/lastmile_qr_scan", "android": "https://dc.lft.to/lastmile_qr_scan"}, "name": "36a1034636a15a8219f428273463bd36", "type": "electric_scooter", "fusion_lon": 0.0, "is_disabled": 0, "is_reserved": 0, "bike_id": "36a1034636a15a8219f428273463bd36", "lon": -77.0288555}, {"fusion_lat": 0.0, "lat": 38.984638333333336, "rental_uris": {"ios": "https://dc.lft.to/lastmile_qr_scan", "android": "https://dc.lft.to/lastmile_qr_scan"}, "name": "64d40b85214f3ca02a901f5ce93fd2da", "type": "electric_bike", "fusion_lon": 0.0, "is_disabled": 0, "is_reserved": 0, "bike_id": "64d40b85214f3ca02a901f5ce93fd2da", "lon": -76.970511}, {"fusion_lat": 0.0, "lat": 38.882595, "rental_uris": {"ios": "https://dc.lft.to/lastmile_qr_scan", "android": "https://dc.lft.to/lastmile_qr_scan"}, "name": "14835dfd7bf891d19b245ab175ebc920", "type": "electric_bike", "fusion_lon": 0.0, "is_disabled": 0, "is_reserved": 0, "bike_id": "14835dfd7bf891d19b245ab175ebc920", "lon": -76.910365}, {"fusion_lat": 0.0, "lat": 38.939937, "rental_uris": {"ios": "https://dc.lft.to/lastmile_qr_scan", "android": "https://dc.lft.to/lastmile_qr_scan"}, "name": "9c85326a19848e31453f29d4aad073ef", "type": "electric_scooter", "fusion_lon": 0.0, "is_disabled": 0, "is_reserved": 0, "bike_id": "9c85326a19848e31453f29d4aad073ef", "lon": -77.03260483333334}, {"fusion_lat": 0.0, "lat": 38.8913475, "rental_uris": {"ios": "https://dc.lft.to/lastmile_qr_scan", "android": "https://dc.lft.to/lastmile_qr_scan"}, "name": "6b976e82f6a8dc7ac66cf2688d16f72b", "type": "electric_scooter", "fusion_lon": 0.0, "is_disabled": 0, "is_reserved": 0, "bike_id": "6b976e82f6a8dc7ac66cf2688d16f72b", "lon": -76.99093883333333}, {"fusion_lat": 0.0, "lat": 38.938614, "rental_uris": {"ios": "https://dc.lft.to/lastmile_qr_scan", "android": "https://dc.lft.to/lastmile_qr_scan"}, "name": "6dd0c43fe3a33e90c1fc8bd87818fb42", "type": "electric_scooter", "fusion_lon": 0.0, "is_disabled": 0, "is_reserved": 0, "bike_id": "6dd0c43fe3a33e90c1fc8bd87818fb42", "lon": -77.02628316666667}, {"fusion_lat": 0.0, "lat": 38.923773, "rental_uris": {"ios": "https://dc.lft.to/lastmile_qr_scan", "android": "https://dc.lft.to/lastmile_qr_scan"}, "name": "cc79f3d2d48e432547fab29bfd142359", "type": "electric_scooter", "fusion_lon": 0.0, "is_disabled": 0, "is_reserved": 0, "bike_id": "cc79f3d2d48e432547fab29bfd142359", "lon": -77.0408705}, {"fusion_lat": 0.0, "lat": 38.853216333333336, "rental_uris": {"ios": "https://dc.lft.to/lastmile_qr_scan", "android": "https://dc.lft.to/lastmile_qr_scan"}, "name": "c2ec5efae35a57949d7078c1482ad8b4", "type": "electric_bike", "fusion_lon": 0.0, "is_disabled": 0, "is_reserved": 0, "bike_id": "c2ec5efae35a57949d7078c1482ad8b4", "lon": -76.980067}, {"fusion_lat": 0.0, "lat": 38.909673, "rental_uris": {"ios": "https://dc.lft.to/lastmile_qr_scan", "android": "https://dc.lft.to/lastmile_qr_scan"}, "name": "3b06fe0e631b8fadbfd53d1b72d8d8ef", "type": "electric_scooter", "fusion_lon": 0.0, "is_disabled": 0, "is_reserved": 0, "bike_id": "3b06fe0e631b8fadbfd53d1b72d8d8ef", "lon": -77.04516916666667}, {"fusion_lat": 0.0, "lat": 38.923138333333334, "rental_uris": {"ios": "https://dc.lft.to/lastmile_qr_scan", "android": "https://dc.lft.to/lastmile_qr_scan"}, "name": "cd43f56429cc6e71b2c149c4efc7a5a1", "type": "electric_scooter", "fusion_lon": 0.0, "is_disabled": 0, "is_reserved": 0, "bike_id": "cd43f56429cc6e71b2c149c4efc7a5a1", "lon": -77.03411866666667}, {"fusion_lat": 0.0, "lat": 38.91053866666667, "rental_uris": {"ios": "https://dc.lft.to/lastmile_qr_scan", "android": "https://dc.lft.to/lastmile_qr_scan"}, "name": "7cd97b2a83003c74a17dca48e86a1d6d", "type": "electric_scooter", "fusion_lon": 0.0, "is_disabled": 0, "is_reserved": 0, "bike_id": "7cd97b2a83003c74a17dca48e86a1d6d", "lon": -77.0217905}, {"fusion_lat": 0.0, "lat": 38.927434833333336, "rental_uris": {"ios": "https://dc.lft.to/lastmile_qr_scan", "android": "https://dc.lft.to/lastmile_qr_scan"}, "name": "685ac640a7974d2c35adbcd1815d93f2", "type": "electric_scooter", "fusion_lon": 0.0, "is_disabled": 0, "is_reserved": 0, "bike_id": "685ac640a7974d2c35adbcd1815d93f2", "lon": -77.02490366666666}, {"fusion_lat": 0.0, "lat": 38.87417216666667, "rental_uris": {"ios": "https://dc.lft.to/lastmile_qr_scan", "android": "https://dc.lft.to/lastmile_qr_scan"}, "name": "92591f22d456a1153fb39f9ce96ed36f", "type": "electric_scooter", "fusion_lon": 0.0, "is_disabled": 0, "is_reserved": 0, "bike_id": "92591f22d456a1153fb39f9ce96ed36f", "lon": -76.99950016666666}, {"fusion_lat": 0.0, "lat": 38.916887833333334, "rental_uris": {"ios": "https://dc.lft.to/lastmile_qr_scan", "android": "https://dc.lft.to/lastmile_qr_scan"}, "name": "30d06d065f55e93ef521b06887e517c9", "type": "electric_scooter", "fusion_lon": 0.0, "is_disabled": 0, "is_reserved": 0, "bike_id": "30d06d065f55e93ef521b06887e517c9", "lon": -77.0227935}, {"fusion_lat": 0.0, "lat": 38.9267005, "rental_uris": {"ios": "https://dc.lft.to/lastmile_qr_scan", "android": "https://dc.lft.to/lastmile_qr_scan"}, "name": "b3b8899b45be905a86e034da87583019", "type": "electric_bike", "fusion_lon": 0.0, "is_disabled": 0, "is_reserved": 0, "bike_id": "b3b8899b45be905a86e034da87583019", "lon": -77.09847483333333}, {"fusion_lat": 0.0, "lat": 38.89445083333333, "rental_uris": {"ios": "https://dc.lft.to/lastmile_qr_scan", "android": "https://dc.lft.to/lastmile_qr_scan"}, "name": "61c18f1cff4a9818cfaf612b7bc10d5a", "type": "electric_scooter", "fusion_lon": 0.0, "is_disabled": 0, "is_reserved": 0, "bike_id": "61c18f1cff4a9818cfaf612b7bc10d5a", "lon": -77.026332}, {"fusion_lat": 0.0, "lat": 38.90671916666667, "rental_uris": {"ios": "https://dc.lft.to/lastmile_qr_scan", "android": "https://dc.lft.to/lastmile_qr_scan"}, "name": "2d63d201b8bc2e363d99fd436041a072", "type": "electric_scooter", "fusion_lon": 0.0, "is_disabled": 0, "is_reserved": 0, "bike_id": "2d63d201b8bc2e363d99fd436041a072", "lon": -77.02591633333333}, {"fusion_lat": 0.0, "lat": 38.9335455, "rental_uris": {"ios": "https://dc.lft.to/lastmile_qr_scan", "android": "https://dc.lft.to/lastmile_qr_scan"}, "name": "7596be5771cb0c561a25e8d348dcbce5", "type": "electric_scooter", "fusion_lon": 0.0, "is_disabled": 0, "is_reserved": 0, "bike_id": "7596be5771cb0c561a25e8d348dcbce5", "lon": -77.0736155}, {"fusion_lat": 0.0, "lat": 38.95748366666667, "rental_uris": {"ios": "https://dc.lft.to/lastmile_qr_scan", "android": "https://dc.lft.to/lastmile_qr_scan"}, "name": "bd70b844852a678f395878afedc87a19", "type": "electric_bike", "fusion_lon": 0.0, "is_disabled": 0, "is_reserved": 0, "bike_id": "bd70b844852a678f395878afedc87a19", "lon": -76.97254883333333}, {"fusion_lat": 0.0, "lat": 38.91495533333333, "rental_uris": {"ios": "https://dc.lft.to/lastmile_qr_scan", "android": "https://dc.lft.to/lastmile_qr_scan"}, "name": "70aac6bc231dc616f206686dde07b64e", "type": "electric_scooter", "fusion_lon": 0.0, "is_disabled": 0, "is_reserved": 0, "bike_id": "70aac6bc231dc616f206686dde07b64e", "lon": -77.01855783333333}, {"fusion_lat": 0.0, "lat": 38.93222516666667, "rental_uris": {"ios": "https://dc.lft.to/lastmile_qr_scan", "android": "https://dc.lft.to/lastmile_qr_scan"}, "name": "0b166b9afe2b0a971101747663dcc7de", "type": "electric_scooter", "fusion_lon": 0.0, "is_disabled": 0, "is_reserved": 0, "bike_id": "0b166b9afe2b0a971101747663dcc7de", "lon": -77.02683933333333}, {"fusion_lat": 0.0, "lat": 38.897330833333335, "rental_uris": {"ios": "https://dc.lft.to/lastmile_qr_scan", "android": "https://dc.lft.to/lastmile_qr_scan"}, "name": "faa8a8f62e34608b603e5232e1e22916", "type": "electric_scooter", "fusion_lon": 0.0, "is_disabled": 0, "is_reserved": 0, "bike_id": "faa8a8f62e34608b603e5232e1e22916", "lon": -77.02003833333333}, {"fusion_lat": 0.0, "lat": 38.90416483333333, "rental_uris": {"ios": "https://dc.lft.to/lastmile_qr_scan", "android": "https://dc.lft.to/lastmile_qr_scan"}, "name": "7fdb14d9a23e73fca66dfdd23fdf0695", "type": "electric_scooter", "fusion_lon": 0.0, "is_disabled": 0, "is_reserved": 0, "bike_id": "7fdb14d9a23e73fca66dfdd23fdf0695", "lon": -77.04363316666667}, {"fusion_lat": 0.0, "lat": 38.92550116666666, "rental_uris": {"ios": "https://dc.lft.to/lastmile_qr_scan", "android": "https://dc.lft.to/lastmile_qr_scan"}, "name": "4c134a223558fd41d23e6c75f2b0892c", "type": "electric_scooter", "fusion_lon": 0.0, "is_disabled": 0, "is_reserved": 0, "bike_id": "4c134a223558fd41d23e6c75f2b0892c", "lon": -77.0007105}, {"fusion_lat": 0.0, "lat": 38.9005875, "rental_uris": {"ios": "https://dc.lft.to/lastmile_qr_scan", "android": "https://dc.lft.to/lastmile_qr_scan"}, "name": "57d75db56a3221f37d010b03c64a24ea", "type": "electric_scooter", "fusion_lon": 0.0, "is_disabled": 0, "is_reserved": 0, "bike_id": "57d75db56a3221f37d010b03c64a24ea", "lon": -77.0010675}, {"fusion_lat": 0.0, "lat": 38.957432, "rental_uris": {"ios": "https://dc.lft.to/lastmile_qr_scan", "android": "https://dc.lft.to/lastmile_qr_scan"}, "name": "dcc89610bf5c39dd783fb7b5ee4edb3c", "type": "electric_bike", "fusion_lon": 0.0, "is_disabled": 0, "is_reserved": 0, "bike_id": "dcc89610bf5c39dd783fb7b5ee4edb3c", "lon": -76.97250916666667}, {"fusion_lat": 0.0, "lat": 38.92192083333333, "rental_uris": {"ios": "https://dc.lft.to/lastmile_qr_scan", "android": "https://dc.lft.to/lastmile_qr_scan"}, "name": "349b6987abf5d040a29418d5afd342a6", "type": "electric_scooter", "fusion_lon": 0.0, "is_disabled": 0, "is_reserved": 0, "bike_id": "349b6987abf5d040a29418d5afd342a6", "lon": -77.04346733333334}, {"fusion_lat": 0.0, "lat": 38.876409, "rental_uris": {"ios": "https://dc.lft.to/lastmile_qr_scan", "android": "https://dc.lft.to/lastmile_qr_scan"}, "name": "7491463ae663f60abc485021674d24ee", "type": "electric_scooter", "fusion_lon": 0.0, "is_disabled": 0, "is_reserved": 0, "bike_id": "7491463ae663f60abc485021674d24ee", "lon": -77.005973}, {"fusion_lat": 0.0, "lat": 38.89634316666667, "rental_uris": {"ios": "https://dc.lft.to/lastmile_qr_scan", "android": "https://dc.lft.to/lastmile_qr_scan"}, "name": "9038a0d6b10ee0849db5adf6c90192da", "type": "electric_scooter", "fusion_lon": 0.0, "is_disabled": 0, "is_reserved": 0, "bike_id": "9038a0d6b10ee0849db5adf6c90192da", "lon": -77.04008683333333}, {"fusion_lat": 0.0, "lat": 38.9367605, "rental_uris": {"ios": "https://dc.lft.to/lastmile_qr_scan", "android": "https://dc.lft.to/lastmile_qr_scan"}, "name": "3f694c6200b309aa0459204657d7dbcb", "type": "electric_scooter", "fusion_lon": 0.0, "is_disabled": 0, "is_reserved": 0, "bike_id": "3f694c6200b309aa0459204657d7dbcb", "lon": -77.0359185}, {"fusion_lat": 0.0, "lat": 38.900087, "rental_uris": {"ios": "https://dc.lft.to/lastmile_qr_scan", "android": "https://dc.lft.to/lastmile_qr_scan"}, "name": "cfa26bb5217c507b1149bc6f8c304bbe", "type": "electric_scooter", "fusion_lon": 0.0, "is_disabled": 0, "is_reserved": 0, "bike_id": "cfa26bb5217c507b1149bc6f8c304bbe", "lon": -77.07137483333334}, {"fusion_lat": 0.0, "lat": 38.919918, "rental_uris": {"ios": "https://dc.lft.to/lastmile_qr_scan", "android": "https://dc.lft.to/lastmile_qr_scan"}, "name": "29c7efaeee73c9efe87b701251a34045", "type": "electric_scooter", "fusion_lon": 0.0, "is_disabled": 0, "is_reserved": 0, "bike_id": "29c7efaeee73c9efe87b701251a34045", "lon": -77.025397}, {"fusion_lat": 0.0, "lat": 38.91086216666667, "rental_uris": {"ios": "https://dc.lft.to/lastmile_qr_scan", "android": "https://dc.lft.to/lastmile_qr_scan"}, "name": "6c16e6596c20a0f5e1d8caea78173d6d", "type": "electric_scooter", "fusion_lon": 0.0, "is_disabled": 0, "is_reserved": 0, "bike_id": "6c16e6596c20a0f5e1d8caea78173d6d", "lon": -77.01619033333333}, {"fusion_lat": 0.0, "lat": 38.938769666666666, "rental_uris": {"ios": "https://dc.lft.to/lastmile_qr_scan", "android": "https://dc.lft.to/lastmile_qr_scan"}, "name": "35c2396d1e84a269dd91ecd296a51da3", "type": "electric_scooter", "fusion_lon": 0.0, "is_disabled": 0, "is_reserved": 0, "bike_id": "35c2396d1e84a269dd91ecd296a51da3", "lon": -77.030831}, {"fusion_lat": 0.0, "lat": 38.90047883333333, "rental_uris": {"ios": "https://dc.lft.to/lastmile_qr_scan", "android": "https://dc.lft.to/lastmile_qr_scan"}, "name": "1558b75771ab173c4378ad56a53ff4e3", "type": "electric_scooter", "fusion_lon": 0.0, "is_disabled": 0, "is_reserved": 0, "bike_id": "1558b75771ab173c4378ad56a53ff4e3", "lon": -76.98281133333333}, {"fusion_lat": 0.0, "lat": 38.923694166666664, "rental_uris": {"ios": "https://dc.lft.to/lastmile_qr_scan", "android": "https://dc.lft.to/lastmile_qr_scan"}, "name": "5a5ce529ff8d8641babc719d7906594e", "type": "electric_scooter", "fusion_lon": 0.0, "is_disabled": 0, "is_reserved": 0, "bike_id": "5a5ce529ff8d8641babc719d7906594e", "lon": -77.05028}, {"fusion_lat": 0.0, "lat": 38.923983666666665, "rental_uris": {"ios": "https://dc.lft.to/lastmile_qr_scan", "android": "https://dc.lft.to/lastmile_qr_scan"}, "name": "2ed7ecf6df068f7558cac31d9c6160d7", "type": "electric_scooter", "fusion_lon": 0.0, "is_disabled": 0, "is_reserved": 0, "bike_id": "2ed7ecf6df068f7558cac31d9c6160d7", "lon": -77.02036366666667}, {"fusion_lat": 0.0, "lat": 38.91554516666667, "rental_uris": {"ios": "https://dc.lft.to/lastmile_qr_scan", "android": "https://dc.lft.to/lastmile_qr_scan"}, "name": "04c848cc9765031d509af5bb9c61f03b", "type": "electric_scooter", "fusion_lon": 0.0, "is_disabled": 0, "is_reserved": 0, "bike_id": "04c848cc9765031d509af5bb9c61f03b", "lon": -77.03176233333333}, {"fusion_lat": 0.0, "lat": 38.89707583333333, "rental_uris": {"ios": "https://dc.lft.to/lastmile_qr_scan", "android": "https://dc.lft.to/lastmile_qr_scan"}, "name": "dcd81baf2d89c46b0da010f65501a723", "type": "electric_scooter", "fusion_lon": 0.0, "is_disabled": 0, "is_reserved": 0, "bike_id": "dcd81baf2d89c46b0da010f65501a723", "lon": -77.0229085}, {"fusion_lat": 0.0, "lat": 38.923163333333335, "rental_uris": {"ios": "https://dc.lft.to/lastmile_qr_scan", "android": "https://dc.lft.to/lastmile_qr_scan"}, "name": "ddb49cf447b80ea39ab7050221bfd713", "type": "electric_scooter", "fusion_lon": 0.0, "is_disabled": 0, "is_reserved": 0, "bike_id": "ddb49cf447b80ea39ab7050221bfd713", "lon": -77.0417565}, {"fusion_lat": 0.0, "lat": 38.94820266666667, "rental_uris": {"ios": "https://dc.lft.to/lastmile_qr_scan", "android": "https://dc.lft.to/lastmile_qr_scan"}, "name": "a92d2e07695af8d40dcd9e493ba87522", "type": "electric_bike", "fusion_lon": 0.0, "is_disabled": 0, "is_reserved": 0, "bike_id": "a92d2e07695af8d40dcd9e493ba87522", "lon": -77.02979333333333}, {"fusion_lat": 0.0, "lat": 38.893497333333336, "rental_uris": {"ios": "https://dc.lft.to/lastmile_qr_scan", "android": "https://dc.lft.to/lastmile_qr_scan"}, "name": "f9d7b087db08dda776ad38d12facb04d", "type": "electric_scooter", "fusion_lon": 0.0, "is_disabled": 0, "is_reserved": 0, "bike_id": "f9d7b087db08dda776ad38d12facb04d", "lon": -77.01190533333333}, {"fusion_lat": 0.0, "lat": 38.8558205, "rental_uris": {"ios": "https://dc.lft.to/lastmile_qr_scan", "android": "https://dc.lft.to/lastmile_qr_scan"}, "name": "a06ca1b38fde650752c3283eece6860e", "type": "electric_scooter", "fusion_lon": 0.0, "is_disabled": 0, "is_reserved": 0, "bike_id": "a06ca1b38fde650752c3283eece6860e", "lon": -76.966617}, {"fusion_lat": 0.0, "lat": 38.924617, "rental_uris": {"ios": "https://dc.lft.to/lastmile_qr_scan", "android": "https://dc.lft.to/lastmile_qr_scan"}, "name": "f3161897a441f1d485e63bab3d03c97b", "type": "electric_scooter", "fusion_lon": 0.0, "is_disabled": 0, "is_reserved": 0, "bike_id": "f3161897a441f1d485e63bab3d03c97b", "lon": -77.02149566666667}, {"fusion_lat": 0.0, "lat": 38.841332666666666, "rental_uris": {"ios": "https://dc.lft.to/lastmile_qr_scan", "android": "https://dc.lft.to/lastmile_qr_scan"}, "name": "cd3bbf6260bbef14f905173c754c1f4d", "type": "electric_bike", "fusion_lon": 0.0, "is_disabled": 0, "is_reserved": 0, "bike_id": "cd3bbf6260bbef14f905173c754c1f4d", "lon": -77.06309566666667}, {"fusion_lat": 0.0, "lat": 38.92437183333333, "rental_uris": {"ios": "https://dc.lft.to/lastmile_qr_scan", "android": "https://dc.lft.to/lastmile_qr_scan"}, "name": "377dec16b8cc1b2ca42bca8f38ff79a7", "type": "electric_scooter", "fusion_lon": 0.0, "is_disabled": 0, "is_reserved": 0, "bike_id": "377dec16b8cc1b2ca42bca8f38ff79a7", "lon": -77.02113033333333}, {"fusion_lat": 0.0, "lat": 38.91654283333333, "rental_uris": {"ios": "https://dc.lft.to/lastmile_qr_scan", "android": "https://dc.lft.to/lastmile_qr_scan"}, "name": "9a6870e2c4332409ff070faf73c65480", "type": "electric_scooter", "fusion_lon": 0.0, "is_disabled": 0, "is_reserved": 0, "bike_id": "9a6870e2c4332409ff070faf73c65480", "lon": -76.97917633333333}, {"fusion_lat": 0.0, "lat": 38.92297133333334, "rental_uris": {"ios": "https://dc.lft.to/lastmile_qr_scan", "android": "https://dc.lft.to/lastmile_qr_scan"}, "name": "b1ddaf2c851ee546051a3d1293f74992", "type": "electric_scooter", "fusion_lon": 0.0, "is_disabled": 0, "is_reserved": 0, "bike_id": "b1ddaf2c851ee546051a3d1293f74992", "lon": -77.02711116666667}, {"fusion_lat": 0.0, "lat": 38.872885833333335, "rental_uris": {"ios": "https://dc.lft.to/lastmile_qr_scan", "android": "https://dc.lft.to/lastmile_qr_scan"}, "name": "55a9877e5890a9be7733855dd45b6f71", "type": "electric_scooter", "fusion_lon": 0.0, "is_disabled": 0, "is_reserved": 0, "bike_id": "55a9877e5890a9be7733855dd45b6f71", "lon": -77.00984416666667}, {"fusion_lat": 0.0, "lat": 38.8985125, "rental_uris": {"ios": "https://dc.lft.to/lastmile_qr_scan", "android": "https://dc.lft.to/lastmile_qr_scan"}, "name": "7e891bd4536ffa129ff7e527cc1ec073", "type": "electric_scooter", "fusion_lon": 0.0, "is_disabled": 0, "is_reserved": 0, "bike_id": "7e891bd4536ffa129ff7e527cc1ec073", "lon": -77.031874}, {"fusion_lat": 0.0, "lat": 38.9178905, "rental_uris": {"ios": "https://dc.lft.to/lastmile_qr_scan", "android": "https://dc.lft.to/lastmile_qr_scan"}, "name": "59af23f89694f3454bbe976d604ba705", "type": "electric_scooter", "fusion_lon": 0.0, "is_disabled": 0, "is_reserved": 0, "bike_id": "59af23f89694f3454bbe976d604ba705", "lon": -77.0318715}, {"fusion_lat": 0.0, "lat": 38.89987966666666, "rental_uris": {"ios": "https://dc.lft.to/lastmile_qr_scan", "android": "https://dc.lft.to/lastmile_qr_scan"}, "name": "b0d05f2ee080f87ae806218243a63077", "type": "electric_scooter", "fusion_lon": 0.0, "is_disabled": 0, "is_reserved": 0, "bike_id": "b0d05f2ee080f87ae806218243a63077", "lon": -76.982192}, {"fusion_lat": 0.0, "lat": 38.915982166666666, "rental_uris": {"ios": "https://dc.lft.to/lastmile_qr_scan", "android": "https://dc.lft.to/lastmile_qr_scan"}, "name": "63cbbcf270e6d3353ddcadfdb708e3bc", "type": "electric_scooter", "fusion_lon": 0.0, "is_disabled": 0, "is_reserved": 0, "bike_id": "63cbbcf270e6d3353ddcadfdb708e3bc", "lon": -76.98379333333334}, {"fusion_lat": 0.0, "lat": 38.883686, "rental_uris": {"ios": "https://dc.lft.to/lastmile_qr_scan", "android": "https://dc.lft.to/lastmile_qr_scan"}, "name": "c4343bd2059ac1ac6ba5b3dfd39b5fd9", "type": "electric_scooter", "fusion_lon": 0.0, "is_disabled": 0, "is_reserved": 0, "bike_id": "c4343bd2059ac1ac6ba5b3dfd39b5fd9", "lon": -76.92896716666667}, {"fusion_lat": 0.0, "lat": 38.95785083333333, "rental_uris": {"ios": "https://dc.lft.to/lastmile_qr_scan", "android": "https://dc.lft.to/lastmile_qr_scan"}, "name": "b6a819ffd1408837a4db2fea39fac69d", "type": "electric_scooter", "fusion_lon": 0.0, "is_disabled": 0, "is_reserved": 0, "bike_id": "b6a819ffd1408837a4db2fea39fac69d", "lon": -77.027595}, {"fusion_lat": 0.0, "lat": 38.938826, "rental_uris": {"ios": "https://dc.lft.to/lastmile_qr_scan", "android": "https://dc.lft.to/lastmile_qr_scan"}, "name": "f733f36068fc448f7a092c2c95685d60", "type": "electric_bike", "fusion_lon": 0.0, "is_disabled": 0, "is_reserved": 0, "bike_id": "f733f36068fc448f7a092c2c95685d60", "lon": -76.99026466666666}, {"fusion_lat": 0.0, "lat": 38.8926375, "rental_uris": {"ios": "https://dc.lft.to/lastmile_qr_scan", "android": "https://dc.lft.to/lastmile_qr_scan"}, "name": "a8af22ef7934f114a3e1d287d04be269", "type": "electric_scooter", "fusion_lon": 0.0, "is_disabled": 0, "is_reserved": 0, "bike_id": "a8af22ef7934f114a3e1d287d04be269", "lon": -77.003492}, {"fusion_lat": 0.0, "lat": 38.885313, "rental_uris": {"ios": "https://dc.lft.to/lastmile_qr_scan", "android": "https://dc.lft.to/lastmile_qr_scan"}, "name": "a7ab4368490675a6b405d4ce2670c6b0", "type": "electric_bike", "fusion_lon": 0.0, "is_disabled": 0, "is_reserved": 0, "bike_id": "a7ab4368490675a6b405d4ce2670c6b0", "lon": -77.12188266666666}, {"fusion_lat": 0.0, "lat": 38.924018, "rental_uris": {"ios": "https://dc.lft.to/lastmile_qr_scan", "android": "https://dc.lft.to/lastmile_qr_scan"}, "name": "333c0cb032b575d4c20719382cf03bbd", "type": "electric_scooter", "fusion_lon": 0.0, "is_disabled": 0, "is_reserved": 0, "bike_id": "333c0cb032b575d4c20719382cf03bbd", "lon": -77.04307483333334}, {"fusion_lat": 0.0, "lat": 38.91711516666667, "rental_uris": {"ios": "https://dc.lft.to/lastmile_qr_scan", "android": "https://dc.lft.to/lastmile_qr_scan"}, "name": "ccfa6684e91d986c40046f8017430dd5", "type": "electric_scooter", "fusion_lon": 0.0, "is_disabled": 0, "is_reserved": 0, "bike_id": "ccfa6684e91d986c40046f8017430dd5", "lon": -77.034708}, {"fusion_lat": 0.0, "lat": 38.90869683333333, "rental_uris": {"ios": "https://dc.lft.to/lastmile_qr_scan", "android": "https://dc.lft.to/lastmile_qr_scan"}, "name": "10f2fd75ee3198664633c28af3b55f76", "type": "electric_scooter", "fusion_lon": 0.0, "is_disabled": 0, "is_reserved": 0, "bike_id": "10f2fd75ee3198664633c28af3b55f76", "lon": -76.933347}, {"fusion_lat": 0.0, "lat": 38.91884816666666, "rental_uris": {"ios": "https://dc.lft.to/lastmile_qr_scan", "android": "https://dc.lft.to/lastmile_qr_scan"}, "name": "3cf1cb8473e823e9d9bfb8a24ead54a4", "type": "electric_bike", "fusion_lon": 0.0, "is_disabled": 0, "is_reserved": 0, "bike_id": "3cf1cb8473e823e9d9bfb8a24ead54a4", "lon": -77.04152716666667}, {"fusion_lat": 0.0, "lat": 38.92157566666667, "rental_uris": {"ios": "https://dc.lft.to/lastmile_qr_scan", "android": "https://dc.lft.to/lastmile_qr_scan"}, "name": "d6b77f54b1c76355d41189bdc9ea87fc", "type": "electric_scooter", "fusion_lon": 0.0, "is_disabled": 0, "is_reserved": 0, "bike_id": "d6b77f54b1c76355d41189bdc9ea87fc", "lon": -77.034978}, {"fusion_lat": 0.0, "lat": 38.93101983333333, "rental_uris": {"ios": "https://dc.lft.to/lastmile_qr_scan", "android": "https://dc.lft.to/lastmile_qr_scan"}, "name": "90bb425e05a90a6ac5d81bd2775936af", "type": "electric_scooter", "fusion_lon": 0.0, "is_disabled": 0, "is_reserved": 0, "bike_id": "90bb425e05a90a6ac5d81bd2775936af", "lon": -77.02471066666666}, {"fusion_lat": 0.0, "lat": 38.8851905, "rental_uris": {"ios": "https://dc.lft.to/lastmile_qr_scan", "android": "https://dc.lft.to/lastmile_qr_scan"}, "name": "9f7ad783f6c619cd83862a92e96b4f47", "type": "electric_scooter", "fusion_lon": 0.0, "is_disabled": 0, "is_reserved": 0, "bike_id": "9f7ad783f6c619cd83862a92e96b4f47", "lon": -77.01515}, {"fusion_lat": 0.0, "lat": 38.906212833333335, "rental_uris": {"ios": "https://dc.lft.to/lastmile_qr_scan", "android": "https://dc.lft.to/lastmile_qr_scan"}, "name": "fb12894bfed8af0197ca259b8915d7d7", "type": "electric_scooter", "fusion_lon": 0.0, "is_disabled": 0, "is_reserved": 0, "bike_id": "fb12894bfed8af0197ca259b8915d7d7", "lon": -77.03552583333334}, {"fusion_lat": 0.0, "lat": 38.927703, "rental_uris": {"ios": "https://dc.lft.to/lastmile_qr_scan", "android": "https://dc.lft.to/lastmile_qr_scan"}, "name": "f60bafa3be8d4f25daa16741eec95ebf", "type": "electric_scooter", "fusion_lon": 0.0, "is_disabled": 0, "is_reserved": 0, "bike_id": "f60bafa3be8d4f25daa16741eec95ebf", "lon": -77.02737183333333}, {"fusion_lat": 0.0, "lat": 38.90532916666667, "rental_uris": {"ios": "https://dc.lft.to/lastmile_qr_scan", "android": "https://dc.lft.to/lastmile_qr_scan"}, "name": "ec1af7b0943aeb45b0e528cad6aa8f40", "type": "electric_scooter", "fusion_lon": 0.0, "is_disabled": 0, "is_reserved": 0, "bike_id": "ec1af7b0943aeb45b0e528cad6aa8f40", "lon": -76.9963015}, {"fusion_lat": 0.0, "lat": 38.9117275, "rental_uris": {"ios": "https://dc.lft.to/lastmile_qr_scan", "android": "https://dc.lft.to/lastmile_qr_scan"}, "name": "128454ee740f565b9c6407d7f52a6330", "type": "electric_scooter", "fusion_lon": 0.0, "is_disabled": 0, "is_reserved": 0, "bike_id": "128454ee740f565b9c6407d7f52a6330", "lon": -77.06091966666666}, {"fusion_lat": 0.0, "lat": 38.897189833333336, "rental_uris": {"ios": "https://dc.lft.to/lastmile_qr_scan", "android": "https://dc.lft.to/lastmile_qr_scan"}, "name": "a379576a17e24d2398a6d7bc83db932d", "type": "electric_scooter", "fusion_lon": 0.0, "is_disabled": 0, "is_reserved": 0, "bike_id": "a379576a17e24d2398a6d7bc83db932d", "lon": -77.00936333333334}, {"fusion_lat": 0.0, "lat": 38.898739, "rental_uris": {"ios": "https://dc.lft.to/lastmile_qr_scan", "android": "https://dc.lft.to/lastmile_qr_scan"}, "name": "d3f241b05cb51907268252def012b512", "type": "electric_scooter", "fusion_lon": 0.0, "is_disabled": 0, "is_reserved": 0, "bike_id": "d3f241b05cb51907268252def012b512", "lon": -77.03963116666667}, {"fusion_lat": 0.0, "lat": 38.90138683333333, "rental_uris": {"ios": "https://dc.lft.to/lastmile_qr_scan", "android": "https://dc.lft.to/lastmile_qr_scan"}, "name": "63131903885cfcb28a7d9ec1d3052b1c", "type": "electric_scooter", "fusion_lon": 0.0, "is_disabled": 0, "is_reserved": 0, "bike_id": "63131903885cfcb28a7d9ec1d3052b1c", "lon": -77.035771}, {"fusion_lat": 0.0, "lat": 38.90987466666667, "rental_uris": {"ios": "https://dc.lft.to/lastmile_qr_scan", "android": "https://dc.lft.to/lastmile_qr_scan"}, "name": "bd41fe2dbe8fa9354eece79363ea07f2", "type": "electric_scooter", "fusion_lon": 0.0, "is_disabled": 0, "is_reserved": 0, "bike_id": "bd41fe2dbe8fa9354eece79363ea07f2", "lon": -77.00500233333334}, {"fusion_lat": 0.0, "lat": 38.944434666666666, "rental_uris": {"ios": "https://dc.lft.to/lastmile_qr_scan", "android": "https://dc.lft.to/lastmile_qr_scan"}, "name": "5e4184dba8238e4efa376b79dcd3e566", "type": "electric_scooter", "fusion_lon": 0.0, "is_disabled": 0, "is_reserved": 0, "bike_id": "5e4184dba8238e4efa376b79dcd3e566", "lon": -77.06400933333333}, {"fusion_lat": 0.0, "lat": 38.908899, "rental_uris": {"ios": "https://dc.lft.to/lastmile_qr_scan", "android": "https://dc.lft.to/lastmile_qr_scan"}, "name": "f77e6a87edee4cf3b8da2686e6df517a", "type": "electric_scooter", "fusion_lon": 0.0, "is_disabled": 0, "is_reserved": 0, "bike_id": "f77e6a87edee4cf3b8da2686e6df517a", "lon": -77.04423716666666}, {"fusion_lat": 0.0, "lat": 38.88667366666667, "rental_uris": {"ios": "https://dc.lft.to/lastmile_qr_scan", "android": "https://dc.lft.to/lastmile_qr_scan"}, "name": "5840970eb56b8118f0f8132274e203fb", "type": "electric_scooter", "fusion_lon": 0.0, "is_disabled": 0, "is_reserved": 0, "bike_id": "5840970eb56b8118f0f8132274e203fb", "lon": -76.9519245}, {"fusion_lat": 0.0, "lat": 38.898436833333335, "rental_uris": {"ios": "https://dc.lft.to/lastmile_qr_scan", "android": "https://dc.lft.to/lastmile_qr_scan"}, "name": "1691f56b75ca9e7662b974fc26da1634", "type": "electric_scooter", "fusion_lon": 0.0, "is_disabled": 0, "is_reserved": 0, "bike_id": "1691f56b75ca9e7662b974fc26da1634", "lon": -77.01886066666667}, {"fusion_lat": 0.0, "lat": 38.876819166666664, "rental_uris": {"ios": "https://dc.lft.to/lastmile_qr_scan", "android": "https://dc.lft.to/lastmile_qr_scan"}, "name": "8b57bcc9ebc3b020c908433f845ef3fc", "type": "electric_scooter", "fusion_lon": 0.0, "is_disabled": 0, "is_reserved": 0, "bike_id": "8b57bcc9ebc3b020c908433f845ef3fc", "lon": -77.01790466666667}, {"fusion_lat": 0.0, "lat": 38.91646, "rental_uris": {"ios": "https://dc.lft.to/lastmile_qr_scan", "android": "https://dc.lft.to/lastmile_qr_scan"}, "name": "f09c617d1e4d6124fdbcfdf77f562d57", "type": "electric_scooter", "fusion_lon": 0.0, "is_disabled": 0, "is_reserved": 0, "bike_id": "f09c617d1e4d6124fdbcfdf77f562d57", "lon": -77.03197383333334}, {"fusion_lat": 0.0, "lat": 38.90215, "rental_uris": {"ios": "https://dc.lft.to/lastmile_qr_scan", "android": "https://dc.lft.to/lastmile_qr_scan"}, "name": "d9523a2dd43c5267a54e72840c634e20", "type": "electric_scooter", "fusion_lon": 0.0, "is_disabled": 0, "is_reserved": 0, "bike_id": "d9523a2dd43c5267a54e72840c634e20", "lon": -77.03920116666667}, {"fusion_lat": 0.0, "lat": 38.9186135, "rental_uris": {"ios": "https://dc.lft.to/lastmile_qr_scan", "android": "https://dc.lft.to/lastmile_qr_scan"}, "name": "6010715c58fe8cb4cd1d8c8c639ff5b3", "type": "electric_scooter", "fusion_lon": 0.0, "is_disabled": 0, "is_reserved": 0, "bike_id": "6010715c58fe8cb4cd1d8c8c639ff5b3", "lon": -77.04173233333333}, {"fusion_lat": 0.0, "lat": 38.9168195, "rental_uris": {"ios": "https://dc.lft.to/lastmile_qr_scan", "android": "https://dc.lft.to/lastmile_qr_scan"}, "name": "35bb5682f4351b9277a0b2d284d3cbbd", "type": "electric_scooter", "fusion_lon": 0.0, "is_disabled": 0, "is_reserved": 0, "bike_id": "35bb5682f4351b9277a0b2d284d3cbbd", "lon": -77.0296965}, {"fusion_lat": 0.0, "lat": 38.89839416666667, "rental_uris": {"ios": "https://dc.lft.to/lastmile_qr_scan", "android": "https://dc.lft.to/lastmile_qr_scan"}, "name": "80e4eca129e117b273333580ec3c0da3", "type": "electric_scooter", "fusion_lon": 0.0, "is_disabled": 0, "is_reserved": 0, "bike_id": "80e4eca129e117b273333580ec3c0da3", "lon": -77.012654}, {"fusion_lat": 0.0, "lat": 38.928137666666665, "rental_uris": {"ios": "https://dc.lft.to/lastmile_qr_scan", "android": "https://dc.lft.to/lastmile_qr_scan"}, "name": "eb758dfa6e2b9899292996fcbc5ab15c", "type": "electric_scooter", "fusion_lon": 0.0, "is_disabled": 0, "is_reserved": 0, "bike_id": "eb758dfa6e2b9899292996fcbc5ab15c", "lon": -77.0324155}, {"fusion_lat": 0.0, "lat": 38.91566, "rental_uris": {"ios": "https://dc.lft.to/lastmile_qr_scan", "android": "https://dc.lft.to/lastmile_qr_scan"}, "name": "71eb2c6cb4da0a0cafde5c7ca0ec0c9d", "type": "electric_scooter", "fusion_lon": 0.0, "is_disabled": 0, "is_reserved": 0, "bike_id": "71eb2c6cb4da0a0cafde5c7ca0ec0c9d", "lon": -77.031398}, {"fusion_lat": 0.0, "lat": 38.88162166666667, "rental_uris": {"ios": "https://dc.lft.to/lastmile_qr_scan", "android": "https://dc.lft.to/lastmile_qr_scan"}, "name": "6e9ccf6af627dafb72f04a2a9de7603f", "type": "electric_scooter", "fusion_lon": 0.0, "is_disabled": 0, "is_reserved": 0, "bike_id": "6e9ccf6af627dafb72f04a2a9de7603f", "lon": -77.0276515}, {"fusion_lat": 0.0, "lat": 38.9325235, "rental_uris": {"ios": "https://dc.lft.to/lastmile_qr_scan", "android": "https://dc.lft.to/lastmile_qr_scan"}, "name": "fa65b0d7fbc6696b9c522483127dd035", "type": "electric_scooter", "fusion_lon": 0.0, "is_disabled": 0, "is_reserved": 0, "bike_id": "fa65b0d7fbc6696b9c522483127dd035", "lon": -76.99707483333333}, {"fusion_lat": 0.0, "lat": 38.916804166666665, "rental_uris": {"ios": "https://dc.lft.to/lastmile_qr_scan", "android": "https://dc.lft.to/lastmile_qr_scan"}, "name": "0f7eab72911267293f3204f9ae55320c", "type": "electric_scooter", "fusion_lon": 0.0, "is_disabled": 0, "is_reserved": 0, "bike_id": "0f7eab72911267293f3204f9ae55320c", "lon": -77.0297505}, {"fusion_lat": 0.0, "lat": 38.89860016666667, "rental_uris": {"ios": "https://dc.lft.to/lastmile_qr_scan", "android": "https://dc.lft.to/lastmile_qr_scan"}, "name": "4ef07cccbdd27f51febd22e158a75d20", "type": "electric_scooter", "fusion_lon": 0.0, "is_disabled": 0, "is_reserved": 0, "bike_id": "4ef07cccbdd27f51febd22e158a75d20", "lon": -77.03957533333333}, {"fusion_lat": 0.0, "lat": 38.92886883333333, "rental_uris": {"ios": "https://dc.lft.to/lastmile_qr_scan", "android": "https://dc.lft.to/lastmile_qr_scan"}, "name": "41be36e46751c54573e4b4eb48a54389", "type": "electric_scooter", "fusion_lon": 0.0, "is_disabled": 0, "is_reserved": 0, "bike_id": "41be36e46751c54573e4b4eb48a54389", "lon": -77.02702566666666}, {"fusion_lat": 0.0, "lat": 38.907281, "rental_uris": {"ios": "https://dc.lft.to/lastmile_qr_scan", "android": "https://dc.lft.to/lastmile_qr_scan"}, "name": "6d25af9e1e93c7f20cd6d0d4c3c57794", "type": "electric_scooter", "fusion_lon": 0.0, "is_disabled": 0, "is_reserved": 0, "bike_id": "6d25af9e1e93c7f20cd6d0d4c3c57794", "lon": -77.04882316666666}, {"fusion_lat": 0.0, "lat": 38.90264583333333, "rental_uris": {"ios": "https://dc.lft.to/lastmile_qr_scan", "android": "https://dc.lft.to/lastmile_qr_scan"}, "name": "bace023ad50cfb9454b343568a8cfa4b", "type": "electric_scooter", "fusion_lon": 0.0, "is_disabled": 0, "is_reserved": 0, "bike_id": "bace023ad50cfb9454b343568a8cfa4b", "lon": -76.97453716666666}, {"fusion_lat": 0.0, "lat": 38.89956, "rental_uris": {"ios": "https://dc.lft.to/lastmile_qr_scan", "android": "https://dc.lft.to/lastmile_qr_scan"}, "name": "cc3589b7e2a5de3093153314491a478a", "type": "electric_scooter", "fusion_lon": 0.0, "is_disabled": 0, "is_reserved": 0, "bike_id": "cc3589b7e2a5de3093153314491a478a", "lon": -77.04566966666667}, {"fusion_lat": 0.0, "lat": 38.9182665, "rental_uris": {"ios": "https://dc.lft.to/lastmile_qr_scan", "android": "https://dc.lft.to/lastmile_qr_scan"}, "name": "a240feacb9e759f72d4840f07fba080c", "type": "electric_scooter", "fusion_lon": 0.0, "is_disabled": 0, "is_reserved": 0, "bike_id": "a240feacb9e759f72d4840f07fba080c", "lon": -77.03260666666667}, {"fusion_lat": 0.0, "lat": 38.90862033333333, "rental_uris": {"ios": "https://dc.lft.to/lastmile_qr_scan", "android": "https://dc.lft.to/lastmile_qr_scan"}, "name": "2b3b8f578d24380b05149c0b63fc0cde", "type": "electric_scooter", "fusion_lon": 0.0, "is_disabled": 0, "is_reserved": 0, "bike_id": "2b3b8f578d24380b05149c0b63fc0cde", "lon": -76.9979255}, {"fusion_lat": 0.0, "lat": 38.8981765, "rental_uris": {"ios": "https://dc.lft.to/lastmile_qr_scan", "android": "https://dc.lft.to/lastmile_qr_scan"}, "name": "0febeeb6c3d2bb4a23466a517479e462", "type": "electric_scooter", "fusion_lon": 0.0, "is_disabled": 0, "is_reserved": 0, "bike_id": "0febeeb6c3d2bb4a23466a517479e462", "lon": -77.03146116666667}, {"fusion_lat": 0.0, "lat": 38.904119, "rental_uris": {"ios": "https://dc.lft.to/lastmile_qr_scan", "android": "https://dc.lft.to/lastmile_qr_scan"}, "name": "f956307e4c90ac5b4913ab57287fea3f", "type": "electric_scooter", "fusion_lon": 0.0, "is_disabled": 0, "is_reserved": 0, "bike_id": "f956307e4c90ac5b4913ab57287fea3f", "lon": -76.97330166666667}, {"fusion_lat": 0.0, "lat": 38.903767333333334, "rental_uris": {"ios": "https://dc.lft.to/lastmile_qr_scan", "android": "https://dc.lft.to/lastmile_qr_scan"}, "name": "a2a42fb5de97a5b26101303be19dcf41", "type": "electric_scooter", "fusion_lon": 0.0, "is_disabled": 0, "is_reserved": 0, "bike_id": "a2a42fb5de97a5b26101303be19dcf41", "lon": -76.99830216666666}, {"fusion_lat": 0.0, "lat": 38.924365, "rental_uris": {"ios": "https://dc.lft.to/lastmile_qr_scan", "android": "https://dc.lft.to/lastmile_qr_scan"}, "name": "9ca5a6f23fe06ea8f4d603cb545961dc", "type": "electric_scooter", "fusion_lon": 0.0, "is_disabled": 0, "is_reserved": 0, "bike_id": "9ca5a6f23fe06ea8f4d603cb545961dc", "lon": -77.03405883333333}, {"fusion_lat": 0.0, "lat": 38.913179, "rental_uris": {"ios": "https://dc.lft.to/lastmile_qr_scan", "android": "https://dc.lft.to/lastmile_qr_scan"}, "name": "ec8baac07a3496861fa7cac02d429524", "type": "electric_scooter", "fusion_lon": 0.0, "is_disabled": 0, "is_reserved": 0, "bike_id": "ec8baac07a3496861fa7cac02d429524", "lon": -77.03207216666667}, {"fusion_lat": 0.0, "lat": 38.91417233333333, "rental_uris": {"ios": "https://dc.lft.to/lastmile_qr_scan", "android": "https://dc.lft.to/lastmile_qr_scan"}, "name": "ea12813dc43e455bcb42384143082602", "type": "electric_scooter", "fusion_lon": 0.0, "is_disabled": 0, "is_reserved": 0, "bike_id": "ea12813dc43e455bcb42384143082602", "lon": -77.03202866666666}, {"fusion_lat": 0.0, "lat": 38.92446983333333, "rental_uris": {"ios": "https://dc.lft.to/lastmile_qr_scan", "android": "https://dc.lft.to/lastmile_qr_scan"}, "name": "d8c18c7484d3a4da3394e1739c01c6df", "type": "electric_scooter", "fusion_lon": 0.0, "is_disabled": 0, "is_reserved": 0, "bike_id": "d8c18c7484d3a4da3394e1739c01c6df", "lon": -77.02145016666667}, {"fusion_lat": 0.0, "lat": 38.9238685, "rental_uris": {"ios": "https://dc.lft.to/lastmile_qr_scan", "android": "https://dc.lft.to/lastmile_qr_scan"}, "name": "7041f93a24d3297337c5b0dc7afc4391", "type": "electric_scooter", "fusion_lon": 0.0, "is_disabled": 0, "is_reserved": 0, "bike_id": "7041f93a24d3297337c5b0dc7afc4391", "lon": -77.03099166666667}, {"fusion_lat": 0.0, "lat": 38.93053883333333, "rental_uris": {"ios": "https://dc.lft.to/lastmile_qr_scan", "android": "https://dc.lft.to/lastmile_qr_scan"}, "name": "219c8f9268e770d5e4020656fd944725", "type": "electric_scooter", "fusion_lon": 0.0, "is_disabled": 0, "is_reserved": 0, "bike_id": "219c8f9268e770d5e4020656fd944725", "lon": -77.01859666666667}, {"fusion_lat": 0.0, "lat": 38.890427, "rental_uris": {"ios": "https://dc.lft.to/lastmile_qr_scan", "android": "https://dc.lft.to/lastmile_qr_scan"}, "name": "53624daa725b1903b9cc79ad98987f17", "type": "electric_scooter", "fusion_lon": 0.0, "is_disabled": 0, "is_reserved": 0, "bike_id": "53624daa725b1903b9cc79ad98987f17", "lon": -76.95245583333333}, {"fusion_lat": 0.0, "lat": 38.91131433333334, "rental_uris": {"ios": "https://dc.lft.to/lastmile_qr_scan", "android": "https://dc.lft.to/lastmile_qr_scan"}, "name": "df7b682770f4f747fa5bc49c0257f322", "type": "electric_scooter", "fusion_lon": 0.0, "is_disabled": 0, "is_reserved": 0, "bike_id": "df7b682770f4f747fa5bc49c0257f322", "lon": -77.03210583333333}, {"fusion_lat": 0.0, "lat": 38.92786733333333, "rental_uris": {"ios": "https://dc.lft.to/lastmile_qr_scan", "android": "https://dc.lft.to/lastmile_qr_scan"}, "name": "b5bc61b425683c8591768cdeea053516", "type": "electric_scooter", "fusion_lon": 0.0, "is_disabled": 0, "is_reserved": 0, "bike_id": "b5bc61b425683c8591768cdeea053516", "lon": -77.02097466666666}, {"fusion_lat": 0.0, "lat": 38.88720816666667, "rental_uris": {"ios": "https://dc.lft.to/lastmile_qr_scan", "android": "https://dc.lft.to/lastmile_qr_scan"}, "name": "03eb5515da602cc1cae9eb6865ad5dc1", "type": "electric_scooter", "fusion_lon": 0.0, "is_disabled": 0, "is_reserved": 0, "bike_id": "03eb5515da602cc1cae9eb6865ad5dc1", "lon": -76.99686116666666}, {"fusion_lat": 0.0, "lat": 38.9097235, "rental_uris": {"ios": "https://dc.lft.to/lastmile_qr_scan", "android": "https://dc.lft.to/lastmile_qr_scan"}, "name": "2d2e87da89f1efccf9e68b6af135f717", "type": "electric_scooter", "fusion_lon": 0.0, "is_disabled": 0, "is_reserved": 0, "bike_id": "2d2e87da89f1efccf9e68b6af135f717", "lon": -77.04522216666666}, {"fusion_lat": 0.0, "lat": 38.86555033333333, "rental_uris": {"ios": "https://dc.lft.to/lastmile_qr_scan", "android": "https://dc.lft.to/lastmile_qr_scan"}, "name": "1edce8cc991aecf69a9d332fa38c5715", "type": "electric_scooter", "fusion_lon": 0.0, "is_disabled": 0, "is_reserved": 0, "bike_id": "1edce8cc991aecf69a9d332fa38c5715", "lon": -76.97857766666667}, {"fusion_lat": 0.0, "lat": 38.899497833333335, "rental_uris": {"ios": "https://dc.lft.to/lastmile_qr_scan", "android": "https://dc.lft.to/lastmile_qr_scan"}, "name": "3d762915e0dd7c87b98acb292eca2368", "type": "electric_scooter", "fusion_lon": 0.0, "is_disabled": 0, "is_reserved": 0, "bike_id": "3d762915e0dd7c87b98acb292eca2368", "lon": -76.98162866666667}, {"fusion_lat": 0.0, "lat": 38.90786533333333, "rental_uris": {"ios": "https://dc.lft.to/lastmile_qr_scan", "android": "https://dc.lft.to/lastmile_qr_scan"},