{"data": {"bikes": [{"lat": 38.8812095, "type": "electric_scooter", "is_disabled": 0, "name": "ffb02cbfa375b00c8a9b4291bd3c4dc4", "bike_id": "ffb02cbfa375b00c8a9b4291bd3c4dc4", "fusion_lon": 0.0, "rental_uris": {"ios": "https://dc.lft.to/lastmile_qr_scan", "android": "https://dc.lft.to/lastmile_qr_scan"}, "is_reserved": 0, "fusion_lat": 0.0, "lon": -76.99299316666666}, {"lat": 38.8786195, "type": "electric_scooter", "is_disabled": 0, "name": "8c31a124127d0535d2a2bf1e178db76e", "bike_id": "8c31a124127d0535d2a2bf1e178db76e", "fusion_lon": 0.0, "rental_uris": {"ios": "https://dc.lft.to/lastmile_qr_scan", "android": "https://dc.lft.to/lastmile_qr_scan"}, "is_reserved": 0, "fusion_lat": 0.0, "lon": -76.99159883333333}, {"lat": 38.928347, "type": "electric_scooter", "is_disabled": 0, "name": "9813b5105272d14446ae6491d664ec3b", "bike_id": "9813b5105272d14446ae6491d664ec3b", "fusion_lon": 0.0, "rental_uris": {"ios": "https://dc.lft.to/lastmile_qr_scan", "android": "https://dc.lft.to/lastmile_qr_scan"}, "is_reserved": 0, "fusion_lat": 0.0, "lon": -76.9958335}, {"lat": 38.906658, "type": "electric_scooter", "is_disabled": 0, "name": "4f5ef02c76b71ced8c8ea3033c7b317b", "bike_id": "4f5ef02c76b71ced8c8ea3033c7b317b", "fusion_lon": 0.0, "rental_uris": {"ios": "https://dc.lft.to/lastmile_qr_scan", "android": "https://dc.lft.to/lastmile_qr_scan"}, "is_reserved": 0, "fusion_lat": 0.0, "lon": -77.04644066666667}, {"lat": 38.932455166666664, "type": "electric_scooter", "is_disabled": 0, "name": "9b1c329d5ecd15b399d6ef3a13e26462", "bike_id": "9b1c329d5ecd15b399d6ef3a13e26462", "fusion_lon": 0.0, "rental_uris": {"ios": "https://dc.lft.to/lastmile_qr_scan", "android": "https://dc.lft.to/lastmile_qr_scan"}, "is_reserved": 0, "fusion_lat": 0.0, "lon": -77.02948833333333}, {"lat": 38.9056685, "type": "electric_scooter", "is_disabled": 0, "name": "22f66b71bb97bb3aa06264f9f4bc5a2b", "bike_id": "22f66b71bb97bb3aa06264f9f4bc5a2b", "fusion_lon": 0.0, "rental_uris": {"ios": "https://dc.lft.to/lastmile_qr_scan", "android": "https://dc.lft.to/lastmile_qr_scan"}, "is_reserved": 0, "fusion_lat": 0.0, "lon": -77.02213833333333}, {"lat": 38.89873633333333, "type": "electric_scooter", "is_disabled": 0, "name": "bb72e29af3bfe23a99ba97cee570fc15", "bike_id": "bb72e29af3bfe23a99ba97cee570fc15", "fusion_lon": 0.0, "rental_uris": {"ios": "https://dc.lft.to/lastmile_qr_scan", "android": "https://dc.lft.to/lastmile_qr_scan"}, "is_reserved": 0, "fusion_lat": 0.0, "lon": -77.03279416666666}, {"lat": 38.89187116666667, "type": "electric_scooter", "is_disabled": 0, "name": "0ef37c77c5f83477c282bbd4d92f875d", "bike_id": "0ef37c77c5f83477c282bbd4d92f875d", "fusion_lon": 0.0, "rental_uris": {"ios": "https://dc.lft.to/lastmile_qr_scan", "android": "https://dc.lft.to/lastmile_qr_scan"}, "is_reserved": 0, "fusion_lat": 0.0, "lon": -76.9985085}, {"lat": 38.9006675, "type": "electric_scooter", "is_disabled": 0, "name": "914010200b147894c59d480397a56a64", "bike_id": "914010200b147894c59d480397a56a64", "fusion_lon": 0.0, "rental_uris": {"ios": "https://dc.lft.to/lastmile_qr_scan", "android": "https://dc.lft.to/lastmile_qr_scan"}, "is_reserved": 0, "fusion_lat": 0.0, "lon": -76.927426}, {"lat": 38.9244255, "type": "electric_scooter", "is_disabled": 0, "name": "83f9451497ddbae25afecc062c1b6b2d", "bike_id": "83f9451497ddbae25afecc062c1b6b2d", "fusion_lon": 0.0, "rental_uris": {"ios": "https://dc.lft.to/lastmile_qr_scan", "android": "https://dc.lft.to/lastmile_qr_scan"}, "is_reserved": 0, "fusion_lat": 0.0, "lon": -77.05207066666667}, {"lat": 38.9095845, "type": "electric_scooter", "is_disabled": 0, "name": "2bf445b0f9b6e47550c0aaa95169e68e", "bike_id": "2bf445b0f9b6e47550c0aaa95169e68e", "fusion_lon": 0.0, "rental_uris": {"ios": "https://dc.lft.to/lastmile_qr_scan", "android": "https://dc.lft.to/lastmile_qr_scan"}, "is_reserved": 0, "fusion_lat": 0.0, "lon": -77.0460975}, {"lat": 38.940385, "type": "electric_scooter", "is_disabled": 0, "name": "20b73821f4aa5ba910ddb57ec84a31b9", "bike_id": "20b73821f4aa5ba910ddb57ec84a31b9", "fusion_lon": 0.0, "rental_uris": {"ios": "https://dc.lft.to/lastmile_qr_scan", "android": "https://dc.lft.to/lastmile_qr_scan"}, "is_reserved": 0, "fusion_lat": 0.0, "lon": -77.07566183333333}, {"lat": 38.91538833333333, "type": "electric_scooter", "is_disabled": 0, "name": "6d1b3e37e979b7e3e411127c12990755", "bike_id": "6d1b3e37e979b7e3e411127c12990755", "fusion_lon": 0.0, "rental_uris": {"ios": "https://dc.lft.to/lastmile_qr_scan", "android": "https://dc.lft.to/lastmile_qr_scan"}, "is_reserved": 0, "fusion_lat": 0.0, "lon": -77.0363615}, {"lat": 38.907162, "type": "electric_scooter", "is_disabled": 0, "name": "21ef7cb78a11e3615ad59be8a8d35c38", "bike_id": "21ef7cb78a11e3615ad59be8a8d35c38", "fusion_lon": 0.0, "rental_uris": {"ios": "https://dc.lft.to/lastmile_qr_scan", "android": "https://dc.lft.to/lastmile_qr_scan"}, "is_reserved": 0, "fusion_lat": 0.0, "lon": -77.03340883333334}, {"lat": 38.94535333333334, "type": "electric_bike", "is_disabled": 0, "name": "359849377d984393e54343e51d101712", "bike_id": "359849377d984393e54343e51d101712", "fusion_lon": 0.0, "rental_uris": {"ios": "https://dc.lft.to/lastmile_qr_scan", "android": "https://dc.lft.to/lastmile_qr_scan"}, "is_reserved": 0, "fusion_lat": 0.0, "lon": -77.3446}, {"lat": 38.91846483333333, "type": "electric_scooter", "is_disabled": 0, "name": "04348f763d981031ddbeb4ff1f2cadd0", "bike_id": "04348f763d981031ddbeb4ff1f2cadd0", "fusion_lon": 0.0, "rental_uris": {"ios": "https://dc.lft.to/lastmile_qr_scan", "android": "https://dc.lft.to/lastmile_qr_scan"}, "is_reserved": 0, "fusion_lat": 0.0, "lon": -77.02525533333333}, {"lat": 38.921539333333335, "type": "electric_scooter", "is_disabled": 0, "name": "a568c2388220a9ca6a2261a04b8af30a", "bike_id": "a568c2388220a9ca6a2261a04b8af30a", "fusion_lon": 0.0, "rental_uris": {"ios": "https://dc.lft.to/lastmile_qr_scan", "android": "https://dc.lft.to/lastmile_qr_scan"}, "is_reserved": 0, "fusion_lat": 0.0, "lon": -77.0208445}, {"lat": 38.92134033333333, "type": "electric_scooter", "is_disabled": 0, "name": "8e7ea15dcab0c18b8b07d3b3ecf46eca", "bike_id": "8e7ea15dcab0c18b8b07d3b3ecf46eca", "fusion_lon": 0.0, "rental_uris": {"ios": "https://dc.lft.to/lastmile_qr_scan", "android": "https://dc.lft.to/lastmile_qr_scan"}, "is_reserved": 0, "fusion_lat": 0.0, "lon": -77.01166116666667}, {"lat": 38.922339666666666, "type": "electric_scooter", "is_disabled": 0, "name": "414a2b83a9e35020b36456780e7d6af1", "bike_id": "414a2b83a9e35020b36456780e7d6af1", "fusion_lon": 0.0, "rental_uris": {"ios": "https://dc.lft.to/lastmile_qr_scan", "android": "https://dc.lft.to/lastmile_qr_scan"}, "is_reserved": 0, "fusion_lat": 0.0, "lon": -77.029755}, {"lat": 38.88658516666667, "type": "electric_scooter", "is_disabled": 0, "name": "7a3fbeba477653e490035d158a3791c3", "bike_id": "7a3fbeba477653e490035d158a3791c3", "fusion_lon": 0.0, "rental_uris": {"ios": "https://dc.lft.to/lastmile_qr_scan", "android": "https://dc.lft.to/lastmile_qr_scan"}, "is_reserved": 0, "fusion_lat": 0.0, "lon": -76.93671716666667}, {"lat": 38.91921033333333, "type": "electric_scooter", "is_disabled": 0, "name": "222378e6503b9aab9f40e7cdfa720123", "bike_id": "222378e6503b9aab9f40e7cdfa720123", "fusion_lon": 0.0, "rental_uris": {"ios": "https://dc.lft.to/lastmile_qr_scan", "android": "https://dc.lft.to/lastmile_qr_scan"}, "is_reserved": 0, "fusion_lat": 0.0, "lon": -77.00996383333333}, {"lat": 38.92043283333334, "type": "electric_scooter", "is_disabled": 0, "name": "277ddc9eb475e9dfa46abe338ac10c5a", "bike_id": "277ddc9eb475e9dfa46abe338ac10c5a", "fusion_lon": 0.0, "rental_uris": {"ios": "https://dc.lft.to/lastmile_qr_scan", "android": "https://dc.lft.to/lastmile_qr_scan"}, "is_reserved": 0, "fusion_lat": 0.0, "lon": -77.01729716666667}, {"lat": 38.89825116666667, "type": "electric_scooter", "is_disabled": 0, "name": "6cd090d3df55422245ab878f4b922e4e", "bike_id": "6cd090d3df55422245ab878f4b922e4e", "fusion_lon": 0.0, "rental_uris": {"ios": "https://dc.lft.to/lastmile_qr_scan", "android": "https://dc.lft.to/lastmile_qr_scan"}, "is_reserved": 0, "fusion_lat": 0.0, "lon": -77.04340366666666}, {"lat": 38.92477366666667, "type": "electric_scooter", "is_disabled": 0, "name": "76b56bd551f972f0e75fc787f8c7c86b", "bike_id": "76b56bd551f972f0e75fc787f8c7c86b", "fusion_lon": 0.0, "rental_uris": {"ios": "https://dc.lft.to/lastmile_qr_scan", "android": "https://dc.lft.to/lastmile_qr_scan"}, "is_reserved": 0, "fusion_lat": 0.0, "lon": -77.02211733333333}, {"lat": 38.926008833333334, "type": "electric_scooter", "is_disabled": 0, "name": "ca5d5e9966fc5b723cd37b1881891347", "bike_id": "ca5d5e9966fc5b723cd37b1881891347", "fusion_lon": 0.0, "rental_uris": {"ios": "https://dc.lft.to/lastmile_qr_scan", "android": "https://dc.lft.to/lastmile_qr_scan"}, "is_reserved": 0, "fusion_lat": 0.0, "lon": -77.02154116666667}, {"lat": 38.92066966666667, "type": "electric_scooter", "is_disabled": 0, "name": "07e8956a8a52bf1d0cae11ef921670ed", "bike_id": "07e8956a8a52bf1d0cae11ef921670ed", "fusion_lon": 0.0, "rental_uris": {"ios": "https://dc.lft.to/lastmile_qr_scan", "android": "https://dc.lft.to/lastmile_qr_scan"}, "is_reserved": 0, "fusion_lat": 0.0, "lon": -77.0455105}, {"lat": 38.91066383333333, "type": "electric_scooter", "is_disabled": 0, "name": "946bf851bcd49ba7067ea0671f6acd73", "bike_id": "946bf851bcd49ba7067ea0671f6acd73", "fusion_lon": 0.0, "rental_uris": {"ios": "https://dc.lft.to/lastmile_qr_scan", "android": "https://dc.lft.to/lastmile_qr_scan"}, "is_reserved": 0, "fusion_lat": 0.0, "lon": -77.05388483333333}, {"lat": 38.919457666666666, "type": "electric_scooter", "is_disabled": 0, "name": "3ff411d338a9d08ae5869bb4c5063ae7", "bike_id": "3ff411d338a9d08ae5869bb4c5063ae7", "fusion_lon": 0.0, "rental_uris": {"ios": "https://dc.lft.to/lastmile_qr_scan", "android": "https://dc.lft.to/lastmile_qr_scan"}, "is_reserved": 0, "fusion_lat": 0.0, "lon": -77.02177833333333}, {"lat": 39.084330333333334, "type": "electric_bike", "is_disabled": 0, "name": "091d3c666ff548905c6b8cc2874bf037", "bike_id": "091d3c666ff548905c6b8cc2874bf037", "fusion_lon": 0.0, "rental_uris": {"ios": "https://dc.lft.to/lastmile_qr_scan", "android": "https://dc.lft.to/lastmile_qr_scan"}, "is_reserved": 0, "fusion_lat": 0.0, "lon": -76.95150416666667}, {"lat": 38.88380083333333, "type": "electric_scooter", "is_disabled": 0, "name": "9500f7c17ff0ae33eb184a0a9ce99556", "bike_id": "9500f7c17ff0ae33eb184a0a9ce99556", "fusion_lon": 0.0, "rental_uris": {"ios": "https://dc.lft.to/lastmile_qr_scan", "android": "https://dc.lft.to/lastmile_qr_scan"}, "is_reserved": 0, "fusion_lat": 0.0, "lon": -76.93056116666666}, {"lat": 38.88234216666667, "type": "electric_scooter", "is_disabled": 0, "name": "23f6418386e8f162c582a1aa015d70bf", "bike_id": "23f6418386e8f162c582a1aa015d70bf", "fusion_lon": 0.0, "rental_uris": {"ios": "https://dc.lft.to/lastmile_qr_scan", "android": "https://dc.lft.to/lastmile_qr_scan"}, "is_reserved": 0, "fusion_lat": 0.0, "lon": -76.994957}, {"lat": 38.90970433333333, "type": "electric_scooter", "is_disabled": 0, "name": "6a411244672aa5e641e342a366a8bdab", "bike_id": "6a411244672aa5e641e342a366a8bdab", "fusion_lon": 0.0, "rental_uris": {"ios": "https://dc.lft.to/lastmile_qr_scan", "android": "https://dc.lft.to/lastmile_qr_scan"}, "is_reserved": 0, "fusion_lat": 0.0, "lon": -77.02176483333334}, {"lat": 38.886916666666664, "type": "electric_scooter", "is_disabled": 0, "name": "341d29279d5cfd2f7b3ca19388f14cf6", "bike_id": "341d29279d5cfd2f7b3ca19388f14cf6", "fusion_lon": 0.0, "rental_uris": {"ios": "https://dc.lft.to/lastmile_qr_scan", "android": "https://dc.lft.to/lastmile_qr_scan"}, "is_reserved": 0, "fusion_lat": 0.0, "lon": -76.97638383333333}, {"lat": 38.919061666666664, "type": "electric_scooter", "is_disabled": 0, "name": "dafff66906bb3b5f81cf06d846cc68fb", "bike_id": "dafff66906bb3b5f81cf06d846cc68fb", "fusion_lon": 0.0, "rental_uris": {"ios": "https://dc.lft.to/lastmile_qr_scan", "android": "https://dc.lft.to/lastmile_qr_scan"}, "is_reserved": 0, "fusion_lat": 0.0, "lon": -77.01955916666667}, {"lat": 38.92489333333333, "type": "electric_scooter", "is_disabled": 0, "name": "6e4b911c31bc4a5ddd1e068ef581f669", "bike_id": "6e4b911c31bc4a5ddd1e068ef581f669", "fusion_lon": 0.0, "rental_uris": {"ios": "https://dc.lft.to/lastmile_qr_scan", "android": "https://dc.lft.to/lastmile_qr_scan"}, "is_reserved": 0, "fusion_lat": 0.0, "lon": -77.02135166666666}, {"lat": 38.912619666666664, "type": "electric_scooter", "is_disabled": 0, "name": "721f37814cbcb368d3064532fd3fb890", "bike_id": "721f37814cbcb368d3064532fd3fb890", "fusion_lon": 0.0, "rental_uris": {"ios": "https://dc.lft.to/lastmile_qr_scan", "android": "https://dc.lft.to/lastmile_qr_scan"}, "is_reserved": 0, "fusion_lat": 0.0, "lon": -76.9720505}, {"lat": 38.92684083333333, "type": "electric_scooter", "is_disabled": 0, "name": "8185bfae3455d5db24ff3d41b759d80b", "bike_id": "8185bfae3455d5db24ff3d41b759d80b", "fusion_lon": 0.0, "rental_uris": {"ios": "https://dc.lft.to/lastmile_qr_scan", "android": "https://dc.lft.to/lastmile_qr_scan"}, "is_reserved": 0, "fusion_lat": 0.0, "lon": -77.01569416666666}, {"lat": 38.90250966666667, "type": "electric_scooter", "is_disabled": 0, "name": "c001347110bb5fa5b57604ca24713c03", "bike_id": "c001347110bb5fa5b57604ca24713c03", "fusion_lon": 0.0, "rental_uris": {"ios": "https://dc.lft.to/lastmile_qr_scan", "android": "https://dc.lft.to/lastmile_qr_scan"}, "is_reserved": 0, "fusion_lat": 0.0, "lon": -77.02893683333333}, {"lat": 38.90270666666667, "type": "electric_scooter", "is_disabled": 0, "name": "3a385738d7cee655cfc63e30da57ed83", "bike_id": "3a385738d7cee655cfc63e30da57ed83", "fusion_lon": 0.0, "rental_uris": {"ios": "https://dc.lft.to/lastmile_qr_scan", "android": "https://dc.lft.to/lastmile_qr_scan"}, "is_reserved": 0, "fusion_lat": 0.0, "lon": -77.0307355}, {"lat": 38.92055833333333, "type": "electric_scooter", "is_disabled": 0, "name": "3a694d1dd4694214ce489bc86b4fbff0", "bike_id": "3a694d1dd4694214ce489bc86b4fbff0", "fusion_lon": 0.0, "rental_uris": {"ios": "https://dc.lft.to/lastmile_qr_scan", "android": "https://dc.lft.to/lastmile_qr_scan"}, "is_reserved": 0, "fusion_lat": 0.0, "lon": -77.04213216666666}, {"lat": 38.929971333333334, "type": "electric_scooter", "is_disabled": 0, "name": "783f06037192b25c4585f35453173fdc", "bike_id": "783f06037192b25c4585f35453173fdc", "fusion_lon": 0.0, "rental_uris": {"ios": "https://dc.lft.to/lastmile_qr_scan", "android": "https://dc.lft.to/lastmile_qr_scan"}, "is_reserved": 0, "fusion_lat": 0.0, "lon": -77.03777483333333}, {"lat": 38.898434, "type": "electric_scooter", "is_disabled": 0, "name": "4084fa01873619339ce749454a35c074", "bike_id": "4084fa01873619339ce749454a35c074", "fusion_lon": 0.0, "rental_uris": {"ios": "https://dc.lft.to/lastmile_qr_scan", "android": "https://dc.lft.to/lastmile_qr_scan"}, "is_reserved": 0, "fusion_lat": 0.0, "lon": -77.0227705}, {"lat": 38.915483, "type": "electric_scooter", "is_disabled": 0, "name": "080eb2bc5f2ee552d632af22deab34c6", "bike_id": "080eb2bc5f2ee552d632af22deab34c6", "fusion_lon": 0.0, "rental_uris": {"ios": "https://dc.lft.to/lastmile_qr_scan", "android": "https://dc.lft.to/lastmile_qr_scan"}, "is_reserved": 0, "fusion_lat": 0.0, "lon": -77.04451316666666}, {"lat": 38.893552, "type": "electric_scooter", "is_disabled": 0, "name": "5681101eab2c4dfce2cb1074ba1d9ec3", "bike_id": "5681101eab2c4dfce2cb1074ba1d9ec3", "fusion_lon": 0.0, "rental_uris": {"ios": "https://dc.lft.to/lastmile_qr_scan", "android": "https://dc.lft.to/lastmile_qr_scan"}, "is_reserved": 0, "fusion_lat": 0.0, "lon": -77.00336083333333}, {"lat": 38.89634933333333, "type": "electric_scooter", "is_disabled": 0, "name": "93e99eb6a8e93d9756b768cb8d8b1025", "bike_id": "93e99eb6a8e93d9756b768cb8d8b1025", "fusion_lon": 0.0, "rental_uris": {"ios": "https://dc.lft.to/lastmile_qr_scan", "android": "https://dc.lft.to/lastmile_qr_scan"}, "is_reserved": 0, "fusion_lat": 0.0, "lon": -77.04009283333333}, {"lat": 38.90207483333333, "type": "electric_scooter", "is_disabled": 0, "name": "c885acc914c45789193feba695262b68", "bike_id": "c885acc914c45789193feba695262b68", "fusion_lon": 0.0, "rental_uris": {"ios": "https://dc.lft.to/lastmile_qr_scan", "android": "https://dc.lft.to/lastmile_qr_scan"}, "is_reserved": 0, "fusion_lat": 0.0, "lon": -77.05134033333333}, {"lat": 38.92978816666667, "type": "electric_scooter", "is_disabled": 0, "name": "a4d382b852d306b11e9fcf9f4d0f69f1", "bike_id": "a4d382b852d306b11e9fcf9f4d0f69f1", "fusion_lon": 0.0, "rental_uris": {"ios": "https://dc.lft.to/lastmile_qr_scan", "android": "https://dc.lft.to/lastmile_qr_scan"}, "is_reserved": 0, "fusion_lat": 0.0, "lon": -77.03282433333334}, {"lat": 38.924622, "type": "electric_scooter", "is_disabled": 0, "name": "3bc7982544a8b88be436dec6bc631739", "bike_id": "3bc7982544a8b88be436dec6bc631739", "fusion_lon": 0.0, "rental_uris": {"ios": "https://dc.lft.to/lastmile_qr_scan", "android": "https://dc.lft.to/lastmile_qr_scan"}, "is_reserved": 0, "fusion_lat": 0.0, "lon": -77.05233533333333}, {"lat": 38.924142833333335, "type": "electric_scooter", "is_disabled": 0, "name": "52a5762e956c06bd294901bc2b492d86", "bike_id": "52a5762e956c06bd294901bc2b492d86", "fusion_lon": 0.0, "rental_uris": {"ios": "https://dc.lft.to/lastmile_qr_scan", "android": "https://dc.lft.to/lastmile_qr_scan"}, "is_reserved": 0, "fusion_lat": 0.0, "lon": -77.02011166666666}, {"lat": 38.90638083333333, "type": "electric_scooter", "is_disabled": 0, "name": "809ddfc14320f6aeecab3d17070e1a78", "bike_id": "809ddfc14320f6aeecab3d17070e1a78", "fusion_lon": 0.0, "rental_uris": {"ios": "https://dc.lft.to/lastmile_qr_scan", "android": "https://dc.lft.to/lastmile_qr_scan"}, "is_reserved": 0, "fusion_lat": 0.0, "lon": -77.01767133333334}, {"lat": 38.9014135, "type": "electric_scooter", "is_disabled": 0, "name": "5b8892f6a20c9280135167938a60f0c6", "bike_id": "5b8892f6a20c9280135167938a60f0c6", "fusion_lon": 0.0, "rental_uris": {"ios": "https://dc.lft.to/lastmile_qr_scan", "android": "https://dc.lft.to/lastmile_qr_scan"}, "is_reserved": 0, "fusion_lat": 0.0, "lon": -77.044832}, {"lat": 38.854432, "type": "electric_bike", "is_disabled": 0, "name": "18a7568106ae9c0d78e23913d0e03c3e", "bike_id": "18a7568106ae9c0d78e23913d0e03c3e", "fusion_lon": 0.0, "rental_uris": {"ios": "https://dc.lft.to/lastmile_qr_scan", "android": "https://dc.lft.to/lastmile_qr_scan"}, "is_reserved": 0, "fusion_lat": 0.0, "lon": -77.08319033333333}, {"lat": 38.92600733333333, "type": "electric_scooter", "is_disabled": 0, "name": "438c82505009b05430d6492570b87d84", "bike_id": "438c82505009b05430d6492570b87d84", "fusion_lon": 0.0, "rental_uris": {"ios": "https://dc.lft.to/lastmile_qr_scan", "android": "https://dc.lft.to/lastmile_qr_scan"}, "is_reserved": 0, "fusion_lat": 0.0, "lon": -77.03662816666667}, {"lat": 38.89545616666667, "type": "electric_scooter", "is_disabled": 0, "name": "6c2328d22ea545ebcb67c0a16e42a09d", "bike_id": "6c2328d22ea545ebcb67c0a16e42a09d", "fusion_lon": 0.0, "rental_uris": {"ios": "https://dc.lft.to/lastmile_qr_scan", "android": "https://dc.lft.to/lastmile_qr_scan"}, "is_reserved": 0, "fusion_lat": 0.0, "lon": -77.009165}, {"lat": 38.868665, "type": "electric_scooter", "is_disabled": 0, "name": "e8114999c69f5479a991ac50bb2697b5", "bike_id": "e8114999c69f5479a991ac50bb2697b5", "fusion_lon": 0.0, "rental_uris": {"ios": "https://dc.lft.to/lastmile_qr_scan", "android": "https://dc.lft.to/lastmile_qr_scan"}, "is_reserved": 0, "fusion_lat": 0.0, "lon": -76.98666083333333}, {"lat": 38.896078833333334, "type": "electric_scooter", "is_disabled": 0, "name": "cadf4a664f91df4a756908c673bdd92a", "bike_id": "cadf4a664f91df4a756908c673bdd92a", "fusion_lon": 0.0, "rental_uris": {"ios": "https://dc.lft.to/lastmile_qr_scan", "android": "https://dc.lft.to/lastmile_qr_scan"}, "is_reserved": 0, "fusion_lat": 0.0, "lon": -77.050818}, {"lat": 38.92836583333333, "type": "electric_scooter", "is_disabled": 0, "name": "02a9d6ab3176c98b205cef74f652c2bb", "bike_id": "02a9d6ab3176c98b205cef74f652c2bb", "fusion_lon": 0.0, "rental_uris": {"ios": "https://dc.lft.to/lastmile_qr_scan", "android": "https://dc.lft.to/lastmile_qr_scan"}, "is_reserved": 0, "fusion_lat": 0.0, "lon": -77.014026}, {"lat": 38.887444333333335, "type": "electric_scooter", "is_disabled": 0, "name": "4e3ba4483d9a06f729056f922e6627d2", "bike_id": "4e3ba4483d9a06f729056f922e6627d2", "fusion_lon": 0.0, "rental_uris": {"ios": "https://dc.lft.to/lastmile_qr_scan", "android": "https://dc.lft.to/lastmile_qr_scan"}, "is_reserved": 0, "fusion_lat": 0.0, "lon": -77.0173425}, {"lat": 38.923731333333336, "type": "electric_scooter", "is_disabled": 0, "name": "f4939ea91d757006967fa5385910b72c", "bike_id": "f4939ea91d757006967fa5385910b72c", "fusion_lon": 0.0, "rental_uris": {"ios": "https://dc.lft.to/lastmile_qr_scan", "android": "https://dc.lft.to/lastmile_qr_scan"}, "is_reserved": 0, "fusion_lat": 0.0, "lon": -77.02122566666667}, {"lat": 38.919145, "type": "electric_scooter", "is_disabled": 0, "name": "2bd184c1a9e3f8609696b8edc7c3b02e", "bike_id": "2bd184c1a9e3f8609696b8edc7c3b02e", "fusion_lon": 0.0, "rental_uris": {"ios": "https://dc.lft.to/lastmile_qr_scan", "android": "https://dc.lft.to/lastmile_qr_scan"}, "is_reserved": 0, "fusion_lat": 0.0, "lon": -77.03383883333333}, {"lat": 38.922392333333335, "type": "electric_scooter", "is_disabled": 0, "name": "416b97535102d302b71a68abac69718f", "bike_id": "416b97535102d302b71a68abac69718f", "fusion_lon": 0.0, "rental_uris": {"ios": "https://dc.lft.to/lastmile_qr_scan", "android": "https://dc.lft.to/lastmile_qr_scan"}, "is_reserved": 0, "fusion_lat": 0.0, "lon": -77.02117066666666}, {"lat": 38.934455666666665, "type": "electric_scooter", "is_disabled": 0, "name": "86129a9ebb153c49df19517203bcf0ca", "bike_id": "86129a9ebb153c49df19517203bcf0ca", "fusion_lon": 0.0, "rental_uris": {"ios": "https://dc.lft.to/lastmile_qr_scan", "android": "https://dc.lft.to/lastmile_qr_scan"}, "is_reserved": 0, "fusion_lat": 0.0, "lon": -77.02359266666667}, {"lat": 38.9013565, "type": "electric_scooter", "is_disabled": 0, "name": "74379fffecdbfab173bf59f8fa6f9205", "bike_id": "74379fffecdbfab173bf59f8fa6f9205", "fusion_lon": 0.0, "rental_uris": {"ios": "https://dc.lft.to/lastmile_qr_scan", "android": "https://dc.lft.to/lastmile_qr_scan"}, "is_reserved": 0, "fusion_lat": 0.0, "lon": -77.031557}, {"lat": 38.91533483333333, "type": "electric_scooter", "is_disabled": 0, "name": "5455e0ee162fcbcef26e91e82101f22d", "bike_id": "5455e0ee162fcbcef26e91e82101f22d", "fusion_lon": 0.0, "rental_uris": {"ios": "https://dc.lft.to/lastmile_qr_scan", "android": "https://dc.lft.to/lastmile_qr_scan"}, "is_reserved": 0, "fusion_lat": 0.0, "lon": -77.04434616666667}, {"lat": 38.934953166666666, "type": "electric_scooter", "is_disabled": 0, "name": "22543423db7bb4dfae54828348304776", "bike_id": "22543423db7bb4dfae54828348304776", "fusion_lon": 0.0, "rental_uris": {"ios": "https://dc.lft.to/lastmile_qr_scan", "android": "https://dc.lft.to/lastmile_qr_scan"}, "is_reserved": 0, "fusion_lat": 0.0, "lon": -76.98194783333334}, {"lat": 38.893947, "type": "electric_scooter", "is_disabled": 0, "name": "91c71d690e042d1190ca44f1f014d183", "bike_id": "91c71d690e042d1190ca44f1f014d183", "fusion_lon": 0.0, "rental_uris": {"ios": "https://dc.lft.to/lastmile_qr_scan", "android": "https://dc.lft.to/lastmile_qr_scan"}, "is_reserved": 0, "fusion_lat": 0.0, "lon": -77.04655666666666}, {"lat": 38.932632, "type": "electric_scooter", "is_disabled": 0, "name": "65d7c5f9615f8fe7780245f1d7e4d047", "bike_id": "65d7c5f9615f8fe7780245f1d7e4d047", "fusion_lon": 0.0, "rental_uris": {"ios": "https://dc.lft.to/lastmile_qr_scan", "android": "https://dc.lft.to/lastmile_qr_scan"}, "is_reserved": 0, "fusion_lat": 0.0, "lon": -76.99614433333333}, {"lat": 38.866266, "type": "electric_scooter", "is_disabled": 0, "name": "c842b347ba3ac46be1628fc38d89b8c4", "bike_id": "c842b347ba3ac46be1628fc38d89b8c4", "fusion_lon": 0.0, "rental_uris": {"ios": "https://dc.lft.to/lastmile_qr_scan", "android": "https://dc.lft.to/lastmile_qr_scan"}, "is_reserved": 0, "fusion_lat": 0.0, "lon": -76.9871225}, {"lat": 38.892926333333335, "type": "electric_bike", "is_disabled": 0, "name": "717a04276af70ff116e9341228a56cc1", "bike_id": "717a04276af70ff116e9341228a56cc1", "fusion_lon": 0.0, "rental_uris": {"ios": "https://dc.lft.to/lastmile_qr_scan", "android": "https://dc.lft.to/lastmile_qr_scan"}, "is_reserved": 0, "fusion_lat": 0.0, "lon": -76.97616516666666}, {"lat": 38.91264533333333, "type": "electric_scooter", "is_disabled": 0, "name": "f22e96765ddcde97909e94d66ab9aa45", "bike_id": "f22e96765ddcde97909e94d66ab9aa45", "fusion_lon": 0.0, "rental_uris": {"ios": "https://dc.lft.to/lastmile_qr_scan", "android": "https://dc.lft.to/lastmile_qr_scan"}, "is_reserved": 0, "fusion_lat": 0.0, "lon": -77.04453316666667}, {"lat": 38.898794333333335, "type": "electric_scooter", "is_disabled": 0, "name": "5e9de4a53c85a4f2ae55c7f37be44ffc", "bike_id": "5e9de4a53c85a4f2ae55c7f37be44ffc", "fusion_lon": 0.0, "rental_uris": {"ios": "https://dc.lft.to/lastmile_qr_scan", "android": "https://dc.lft.to/lastmile_qr_scan"}, "is_reserved": 0, "fusion_lat": 0.0, "lon": -77.03277666666666}, {"lat": 38.895766, "type": "electric_scooter", "is_disabled": 0, "name": "94042f4cd81783fe3b04b90abc5df6c6", "bike_id": "94042f4cd81783fe3b04b90abc5df6c6", "fusion_lon": 0.0, "rental_uris": {"ios": "https://dc.lft.to/lastmile_qr_scan", "android": "https://dc.lft.to/lastmile_qr_scan"}, "is_reserved": 0, "fusion_lat": 0.0, "lon": -77.03182666666666}, {"lat": 38.912003, "type": "electric_scooter", "is_disabled": 0, "name": "d9a061d11a24ee7853d6b9568f8d7cab", "bike_id": "d9a061d11a24ee7853d6b9568f8d7cab", "fusion_lon": 0.0, "rental_uris": {"ios": "https://dc.lft.to/lastmile_qr_scan", "android": "https://dc.lft.to/lastmile_qr_scan"}, "is_reserved": 0, "fusion_lat": 0.0, "lon": -77.00215633333333}, {"lat": 38.91932766666667, "type": "electric_scooter", "is_disabled": 0, "name": "e83237c0a279ea2e891699a2573c439d", "bike_id": "e83237c0a279ea2e891699a2573c439d", "fusion_lon": 0.0, "rental_uris": {"ios": "https://dc.lft.to/lastmile_qr_scan", "android": "https://dc.lft.to/lastmile_qr_scan"}, "is_reserved": 0, "fusion_lat": 0.0, "lon": -77.03475016666667}, {"lat": 38.9065485, "type": "electric_scooter", "is_disabled": 0, "name": "739a891f1b5bd2887f7767c53817dc76", "bike_id": "739a891f1b5bd2887f7767c53817dc76", "fusion_lon": 0.0, "rental_uris": {"ios": "https://dc.lft.to/lastmile_qr_scan", "android": "https://dc.lft.to/lastmile_qr_scan"}, "is_reserved": 0, "fusion_lat": 0.0, "lon": -77.026924}, {"lat": 38.9426155, "type": "electric_scooter", "is_disabled": 0, "name": "cfdf54c0a32dd143cca125d87a28d5a9", "bike_id": "cfdf54c0a32dd143cca125d87a28d5a9", "fusion_lon": 0.0, "rental_uris": {"ios": "https://dc.lft.to/lastmile_qr_scan", "android": "https://dc.lft.to/lastmile_qr_scan"}, "is_reserved": 0, "fusion_lat": 0.0, "lon": -77.0284065}, {"lat": 38.902770333333336, "type": "electric_scooter", "is_disabled": 0, "name": "5652844e54316b734c02aaadf970edf2", "bike_id": "5652844e54316b734c02aaadf970edf2", "fusion_lon": 0.0, "rental_uris": {"ios": "https://dc.lft.to/lastmile_qr_scan", "android": "https://dc.lft.to/lastmile_qr_scan"}, "is_reserved": 0, "fusion_lat": 0.0, "lon": -77.0459185}, {"lat": 38.93335666666667, "type": "electric_bike", "is_disabled": 0, "name": "d6e07257afce8517d4ce8ee2a91a4da5", "bike_id": "d6e07257afce8517d4ce8ee2a91a4da5", "fusion_lon": 0.0, "rental_uris": {"ios": "https://dc.lft.to/lastmile_qr_scan", "android": "https://dc.lft.to/lastmile_qr_scan"}, "is_reserved": 0, "fusion_lat": 0.0, "lon": -77.0421035}, {"lat": 38.918016, "type": "electric_scooter", "is_disabled": 0, "name": "e336e7375f0526d3de8e29dd46f0464b", "bike_id": "e336e7375f0526d3de8e29dd46f0464b", "fusion_lon": 0.0, "rental_uris": {"ios": "https://dc.lft.to/lastmile_qr_scan", "android": "https://dc.lft.to/lastmile_qr_scan"}, "is_reserved": 0, "fusion_lat": 0.0, "lon": -77.040181}, {"lat": 38.909676166666664, "type": "electric_scooter", "is_disabled": 0, "name": "b84d43e5ce81dd9780b68646ae327f70", "bike_id": "b84d43e5ce81dd9780b68646ae327f70", "fusion_lon": 0.0, "rental_uris": {"ios": "https://dc.lft.to/lastmile_qr_scan", "android": "https://dc.lft.to/lastmile_qr_scan"}, "is_reserved": 0, "fusion_lat": 0.0, "lon": -76.98460983333334}, {"lat": 38.95898416666667, "type": "electric_scooter", "is_disabled": 0, "name": "b3f8a44bbb3d4dc48e3f1de27abbed43", "bike_id": "b3f8a44bbb3d4dc48e3f1de27abbed43", "fusion_lon": 0.0, "rental_uris": {"ios": "https://dc.lft.to/lastmile_qr_scan", "android": "https://dc.lft.to/lastmile_qr_scan"}, "is_reserved": 0, "fusion_lat": 0.0, "lon": -77.00018566666667}, {"lat": 38.91231916666667, "type": "electric_scooter", "is_disabled": 0, "name": "2c315b63935e73da40abdd6f9fa82e11", "bike_id": "2c315b63935e73da40abdd6f9fa82e11", "fusion_lon": 0.0, "rental_uris": {"ios": "https://dc.lft.to/lastmile_qr_scan", "android": "https://dc.lft.to/lastmile_qr_scan"}, "is_reserved": 0, "fusion_lat": 0.0, "lon": -77.0659095}, {"lat": 38.92423016666667, "type": "electric_scooter", "is_disabled": 0, "name": "e09eb30a03eab26e2eedc7c56807278a", "bike_id": "e09eb30a03eab26e2eedc7c56807278a", "fusion_lon": 0.0, "rental_uris": {"ios": "https://dc.lft.to/lastmile_qr_scan", "android": "https://dc.lft.to/lastmile_qr_scan"}, "is_reserved": 0, "fusion_lat": 0.0, "lon": -77.05178016666666}, {"lat": 38.93320833333333, "type": "electric_scooter", "is_disabled": 0, "name": "09eb423e57e1826b5b4acaff1b4eb807", "bike_id": "09eb423e57e1826b5b4acaff1b4eb807", "fusion_lon": 0.0, "rental_uris": {"ios": "https://dc.lft.to/lastmile_qr_scan", "android": "https://dc.lft.to/lastmile_qr_scan"}, "is_reserved": 0, "fusion_lat": 0.0, "lon": -77.02924383333334}, {"lat": 38.8960755, "type": "electric_scooter", "is_disabled": 0, "name": "dd1e0c7a748290b62050366d34ecb22e", "bike_id": "dd1e0c7a748290b62050366d34ecb22e", "fusion_lon": 0.0, "rental_uris": {"ios": "https://dc.lft.to/lastmile_qr_scan", "android": "https://dc.lft.to/lastmile_qr_scan"}, "is_reserved": 0, "fusion_lat": 0.0, "lon": -77.04040283333333}, {"lat": 38.9449965, "type": "electric_scooter", "is_disabled": 0, "name": "7f1edc4e90f951476823c8105ed6378f", "bike_id": "7f1edc4e90f951476823c8105ed6378f", "fusion_lon": 0.0, "rental_uris": {"ios": "https://dc.lft.to/lastmile_qr_scan", "android": "https://dc.lft.to/lastmile_qr_scan"}, "is_reserved": 0, "fusion_lat": 0.0, "lon": -77.03430366666667}, {"lat": 38.945038333333336, "type": "electric_bike", "is_disabled": 0, "name": "688a977a31722a138d7c30e0abf615cf", "bike_id": "688a977a31722a138d7c30e0abf615cf", "fusion_lon": 0.0, "rental_uris": {"ios": "https://dc.lft.to/lastmile_qr_scan", "android": "https://dc.lft.to/lastmile_qr_scan"}, "is_reserved": 0, "fusion_lat": 0.0, "lon": -77.00672633333333}, {"lat": 38.906425, "type": "electric_scooter", "is_disabled": 0, "name": "7307a4b98be5e33a3abc628a817e0f78", "bike_id": "7307a4b98be5e33a3abc628a817e0f78", "fusion_lon": 0.0, "rental_uris": {"ios": "https://dc.lft.to/lastmile_qr_scan", "android": "https://dc.lft.to/lastmile_qr_scan"}, "is_reserved": 0, "fusion_lat": 0.0, "lon": -77.042824}, {"lat": 38.92157733333333, "type": "electric_scooter", "is_disabled": 0, "name": "abd78d38c0c048e5aa8b504ccd903978", "bike_id": "abd78d38c0c048e5aa8b504ccd903978", "fusion_lon": 0.0, "rental_uris": {"ios": "https://dc.lft.to/lastmile_qr_scan", "android": "https://dc.lft.to/lastmile_qr_scan"}, "is_reserved": 0, "fusion_lat": 0.0, "lon": -77.03231116666667}, {"lat": 38.898449, "type": "electric_scooter", "is_disabled": 0, "name": "356d36401458e25d8a096524cc2f26f2", "bike_id": "356d36401458e25d8a096524cc2f26f2", "fusion_lon": 0.0, "rental_uris": {"ios": "https://dc.lft.to/lastmile_qr_scan", "android": "https://dc.lft.to/lastmile_qr_scan"}, "is_reserved": 0, "fusion_lat": 0.0, "lon": -77.02819583333333}, {"lat": 38.8791815, "type": "electric_scooter", "is_disabled": 0, "name": "c4d0637c9a26386c2ef5c9cb690f0eec", "bike_id": "c4d0637c9a26386c2ef5c9cb690f0eec", "fusion_lon": 0.0, "rental_uris": {"ios": "https://dc.lft.to/lastmile_qr_scan", "android": "https://dc.lft.to/lastmile_qr_scan"}, "is_reserved": 0, "fusion_lat": 0.0, "lon": -77.0077545}, {"lat": 38.928382166666665, "type": "electric_scooter", "is_disabled": 0, "name": "7b5ee5e98f77d96e9ccd9e02ae9b0187", "bike_id": "7b5ee5e98f77d96e9ccd9e02ae9b0187", "fusion_lon": 0.0, "rental_uris": {"ios": "https://dc.lft.to/lastmile_qr_scan", "android": "https://dc.lft.to/lastmile_qr_scan"}, "is_reserved": 0, "fusion_lat": 0.0, "lon": -77.01380333333333}, {"lat": 38.902973333333335, "type": "electric_scooter", "is_disabled": 0, "name": "fc9bb8fcb5e73349e88db699fe414a91", "bike_id": "fc9bb8fcb5e73349e88db699fe414a91", "fusion_lon": 0.0, "rental_uris": {"ios": "https://dc.lft.to/lastmile_qr_scan", "android": "https://dc.lft.to/lastmile_qr_scan"}, "is_reserved": 0, "fusion_lat": 0.0, "lon": -77.02701666666667}, {"lat": 38.891939, "type": "electric_scooter", "is_disabled": 0, "name": "ca7e50b48c17332a2e1edb46d77b8d2f", "bike_id": "ca7e50b48c17332a2e1edb46d77b8d2f", "fusion_lon": 0.0, "rental_uris": {"ios": "https://dc.lft.to/lastmile_qr_scan", "android": "https://dc.lft.to/lastmile_qr_scan"}, "is_reserved": 0, "fusion_lat": 0.0, "lon": -77.00291933333334}, {"lat": 38.922322666666666, "type": "electric_scooter", "is_disabled": 0, "name": "6e8ba54f44f1afe2f730f3dc26a4ae95", "bike_id": "6e8ba54f44f1afe2f730f3dc26a4ae95", "fusion_lon": 0.0, "rental_uris": {"ios": "https://dc.lft.to/lastmile_qr_scan", "android": "https://dc.lft.to/lastmile_qr_scan"}, "is_reserved": 0, "fusion_lat": 0.0, "lon": -76.97532616666666}, {"lat": 38.89488583333333, "type": "electric_scooter", "is_disabled": 0, "name": "6f7d3cc93e3d6d88a4090b74d1d2aee3", "bike_id": "6f7d3cc93e3d6d88a4090b74d1d2aee3", "fusion_lon": 0.0, "rental_uris": {"ios": "https://dc.lft.to/lastmile_qr_scan", "android": "https://dc.lft.to/lastmile_qr_scan"}, "is_reserved": 0, "fusion_lat": 0.0, "lon": -76.99501816666667}, {"lat": 38.9028685, "type": "electric_scooter", "is_disabled": 0, "name": "4a474b8019f536d6f8f3993093d0c660", "bike_id": "4a474b8019f536d6f8f3993093d0c660", "fusion_lon": 0.0, "rental_uris": {"ios": "https://dc.lft.to/lastmile_qr_scan", "android": "https://dc.lft.to/lastmile_qr_scan"}, "is_reserved": 0, "fusion_lat": 0.0, "lon": -77.04881783333333}, {"lat": 38.919369833333334, "type": "electric_scooter", "is_disabled": 0, "name": "024e0f5507596e2d74c4b6ad2c6a0be6", "bike_id": "024e0f5507596e2d74c4b6ad2c6a0be6", "fusion_lon": 0.0, "rental_uris": {"ios": "https://dc.lft.to/lastmile_qr_scan", "android": "https://dc.lft.to/lastmile_qr_scan"}, "is_reserved": 0, "fusion_lat": 0.0, "lon": -77.01885533333333}, {"lat": 38.91542366666667, "type": "electric_scooter", "is_disabled": 0, "name": "5635d3cdc049d42a0ea457076c1fb117", "bike_id": "5635d3cdc049d42a0ea457076c1fb117", "fusion_lon": 0.0, "rental_uris": {"ios": "https://dc.lft.to/lastmile_qr_scan", "android": "https://dc.lft.to/lastmile_qr_scan"}, "is_reserved": 0, "fusion_lat": 0.0, "lon": -77.01265933333333}, {"lat": 38.90777766666667, "type": "electric_scooter", "is_disabled": 0, "name": "a743c8ce7815e84aeb7a45efa82acaeb", "bike_id": "a743c8ce7815e84aeb7a45efa82acaeb", "fusion_lon": 0.0, "rental_uris": {"ios": "https://dc.lft.to/lastmile_qr_scan", "android": "https://dc.lft.to/lastmile_qr_scan"}, "is_reserved": 0, "fusion_lat": 0.0, "lon": -77.0716295}, {"lat": 38.876366833333336, "type": "electric_scooter", "is_disabled": 0, "name": "16fb5cc969a44be673e5cc1853fcba77", "bike_id": "16fb5cc969a44be673e5cc1853fcba77", "fusion_lon": 0.0, "rental_uris": {"ios": "https://dc.lft.to/lastmile_qr_scan", "android": "https://dc.lft.to/lastmile_qr_scan"}, "is_reserved": 0, "fusion_lat": 0.0, "lon": -77.00067116666666}, {"lat": 38.886093, "type": "electric_scooter", "is_disabled": 0, "name": "0429d287546550299bf548a6a540dafa", "bike_id": "0429d287546550299bf548a6a540dafa", "fusion_lon": 0.0, "rental_uris": {"ios": "https://dc.lft.to/lastmile_qr_scan", "android": "https://dc.lft.to/lastmile_qr_scan"}, "is_reserved": 0, "fusion_lat": 0.0, "lon": -77.00332233333333}, {"lat": 38.883366, "type": "electric_scooter", "is_disabled": 0, "name": "9dab89214895e64fd757c91bba971d41", "bike_id": "9dab89214895e64fd757c91bba971d41", "fusion_lon": 0.0, "rental_uris": {"ios": "https://dc.lft.to/lastmile_qr_scan", "android": "https://dc.lft.to/lastmile_qr_scan"}, "is_reserved": 0, "fusion_lat": 0.0, "lon": -77.01371466666667}, {"lat": 38.91994583333334, "type": "electric_scooter", "is_disabled": 0, "name": "3abefcb559d815ec4ec0f4470c07c620", "bike_id": "3abefcb559d815ec4ec0f4470c07c620", "fusion_lon": 0.0, "rental_uris": {"ios": "https://dc.lft.to/lastmile_qr_scan", "android": "https://dc.lft.to/lastmile_qr_scan"}, "is_reserved": 0, "fusion_lat": 0.0, "lon": -77.02326816666667}, {"lat": 38.89886833333333, "type": "electric_scooter", "is_disabled": 0, "name": "9ae1e325b8744aab47d90ac67a3f8057", "bike_id": "9ae1e325b8744aab47d90ac67a3f8057", "fusion_lon": 0.0, "rental_uris": {"ios": "https://dc.lft.to/lastmile_qr_scan", "android": "https://dc.lft.to/lastmile_qr_scan"}, "is_reserved": 0, "fusion_lat": 0.0, "lon": -77.0332185}, {"lat": 38.89223716666667, "type": "electric_scooter", "is_disabled": 0, "name": "a20410761432bb16923ab3acd1bd3bee", "bike_id": "a20410761432bb16923ab3acd1bd3bee", "fusion_lon": 0.0, "rental_uris": {"ios": "https://dc.lft.to/lastmile_qr_scan", "android": "https://dc.lft.to/lastmile_qr_scan"}, "is_reserved": 0, "fusion_lat": 0.0, "lon": -77.047992}, {"lat": 38.9232895, "type": "electric_scooter", "is_disabled": 0, "name": "eab7cf0370fd8cb1a8d215716ae3129c", "bike_id": "eab7cf0370fd8cb1a8d215716ae3129c", "fusion_lon": 0.0, "rental_uris": {"ios": "https://dc.lft.to/lastmile_qr_scan", "android": "https://dc.lft.to/lastmile_qr_scan"}, "is_reserved": 0, "fusion_lat": 0.0, "lon": -77.01956933333334}, {"lat": 38.90019933333333, "type": "electric_scooter", "is_disabled": 0, "name": "d04681e11356d6bfd3598b6ef554d8c8", "bike_id": "d04681e11356d6bfd3598b6ef554d8c8", "fusion_lon": 0.0, "rental_uris": {"ios": "https://dc.lft.to/lastmile_qr_scan", "android": "https://dc.lft.to/lastmile_qr_scan"}, "is_reserved": 0, "fusion_lat": 0.0, "lon": -77.0467475}, {"lat": 38.89776116666667, "type": "electric_scooter", "is_disabled": 0, "name": "80baaf7240fe261006217a22841966f6", "bike_id": "80baaf7240fe261006217a22841966f6", "fusion_lon": 0.0, "rental_uris": {"ios": "https://dc.lft.to/lastmile_qr_scan", "android": "https://dc.lft.to/lastmile_qr_scan"}, "is_reserved": 0, "fusion_lat": 0.0, "lon": -77.01224966666666}, {"lat": 38.90252233333333, "type": "electric_scooter", "is_disabled": 0, "name": "4f2d51e31d200b37112b093218677b04", "bike_id": "4f2d51e31d200b37112b093218677b04", "fusion_lon": 0.0, "rental_uris": {"ios": "https://dc.lft.to/lastmile_qr_scan", "android": "https://dc.lft.to/lastmile_qr_scan"}, "is_reserved": 0, "fusion_lat": 0.0, "lon": -77.01760616666667}, {"lat": 38.9140815, "type": "electric_scooter", "is_disabled": 0, "name": "187f822b988762a35d83045d5bdb70f8", "bike_id": "187f822b988762a35d83045d5bdb70f8", "fusion_lon": 0.0, "rental_uris": {"ios": "https://dc.lft.to/lastmile_qr_scan", "android": "https://dc.lft.to/lastmile_qr_scan"}, "is_reserved": 0, "fusion_lat": 0.0, "lon": -77.03269133333333}, {"lat": 38.92447683333333, "type": "electric_scooter", "is_disabled": 0, "name": "fe70b1496b317500fd20891f8634a86e", "bike_id": "fe70b1496b317500fd20891f8634a86e", "fusion_lon": 0.0, "rental_uris": {"ios": "https://dc.lft.to/lastmile_qr_scan", "android": "https://dc.lft.to/lastmile_qr_scan"}, "is_reserved": 0, "fusion_lat": 0.0, "lon": -77.04018216666667}, {"lat": 38.920561, "type": "electric_scooter", "is_disabled": 0, "name": "b5a1debc2fe127929c57f01d90766de3", "bike_id": "b5a1debc2fe127929c57f01d90766de3", "fusion_lon": 0.0, "rental_uris": {"ios": "https://dc.lft.to/lastmile_qr_scan", "android": "https://dc.lft.to/lastmile_qr_scan"}, "is_reserved": 0, "fusion_lat": 0.0, "lon": -77.02509966666666}, {"lat": 38.90600933333333, "type": "electric_scooter", "is_disabled": 0, "name": "a1aa5d7970323736a86bf34b32f0c005", "bike_id": "a1aa5d7970323736a86bf34b32f0c005", "fusion_lon": 0.0, "rental_uris": {"ios": "https://dc.lft.to/lastmile_qr_scan", "android": "https://dc.lft.to/lastmile_qr_scan"}, "is_reserved": 0, "fusion_lat": 0.0, "lon": -77.04703933333333}, {"lat": 38.92466183333333, "type": "electric_scooter", "is_disabled": 0, "name": "e2225a30d1ea45d07d91e40f7c7f1a04", "bike_id": "e2225a30d1ea45d07d91e40f7c7f1a04", "fusion_lon": 0.0, "rental_uris": {"ios": "https://dc.lft.to/lastmile_qr_scan", "android": "https://dc.lft.to/lastmile_qr_scan"}, "is_reserved": 0, "fusion_lat": 0.0, "lon": -77.03822816666667}, {"lat": 38.90152333333333, "type": "electric_scooter", "is_disabled": 0, "name": "a65a0c9b537d662bab4663af6be34f44", "bike_id": "a65a0c9b537d662bab4663af6be34f44", "fusion_lon": 0.0, "rental_uris": {"ios": "https://dc.lft.to/lastmile_qr_scan", "android": "https://dc.lft.to/lastmile_qr_scan"}, "is_reserved": 0, "fusion_lat": 0.0, "lon": -77.048829}, {"lat": 38.9241105, "type": "electric_scooter", "is_disabled": 0, "name": "8d2756212d25eed9deb439238398f74a", "bike_id": "8d2756212d25eed9deb439238398f74a", "fusion_lon": 0.0, "rental_uris": {"ios": "https://dc.lft.to/lastmile_qr_scan", "android": "https://dc.lft.to/lastmile_qr_scan"}, "is_reserved": 0, "fusion_lat": 0.0, "lon": -77.0229625}, {"lat": 38.90186166666667, "type": "electric_scooter", "is_disabled": 0, "name": "ab75db0ed104d79d00c7aee282d22ee1", "bike_id": "ab75db0ed104d79d00c7aee282d22ee1", "fusion_lon": 0.0, "rental_uris": {"ios": "https://dc.lft.to/lastmile_qr_scan", "android": "https://dc.lft.to/lastmile_qr_scan"}, "is_reserved": 0, "fusion_lat": 0.0, "lon": -76.93002716666666}, {"lat": 38.91984516666667, "type": "electric_scooter", "is_disabled": 0, "name": "da5631f2e803fd0dbcb48d1bd328c803", "bike_id": "da5631f2e803fd0dbcb48d1bd328c803", "fusion_lon": 0.0, "rental_uris": {"ios": "https://dc.lft.to/lastmile_qr_scan", "android": "https://dc.lft.to/lastmile_qr_scan"}, "is_reserved": 0, "fusion_lat": 0.0, "lon": -77.02178283333333}, {"lat": 38.900317666666666, "type": "electric_scooter", "is_disabled": 0, "name": "068369a40405da6e1b18df829916638c", "bike_id": "068369a40405da6e1b18df829916638c", "fusion_lon": 0.0, "rental_uris": {"ios": "https://dc.lft.to/lastmile_qr_scan", "android": "https://dc.lft.to/lastmile_qr_scan"}, "is_reserved": 0, "fusion_lat": 0.0, "lon": -77.01239183333334}, {"lat": 38.90505266666667, "type": "electric_scooter", "is_disabled": 0, "name": "248d3e7733298d716332ea1aac3172e8", "bike_id": "248d3e7733298d716332ea1aac3172e8", "fusion_lon": 0.0, "rental_uris": {"ios": "https://dc.lft.to/lastmile_qr_scan", "android": "https://dc.lft.to/lastmile_qr_scan"}, "is_reserved": 0, "fusion_lat": 0.0, "lon": -77.05189516666667}, {"lat": 38.89964716666667, "type": "electric_scooter", "is_disabled": 0, "name": "421e380ec8b34b983b3bb397b249de00", "bike_id": "421e380ec8b34b983b3bb397b249de00", "fusion_lon": 0.0, "rental_uris": {"ios": "https://dc.lft.to/lastmile_qr_scan", "android": "https://dc.lft.to/lastmile_qr_scan"}, "is_reserved": 0, "fusion_lat": 0.0, "lon": -77.03075533333333}, {"lat": 38.924720666666666, "type": "electric_scooter", "is_disabled": 0, "name": "eb548b7d0c27cac9eaddd5deea2913bb", "bike_id": "eb548b7d0c27cac9eaddd5deea2913bb", "fusion_lon": 0.0, "rental_uris": {"ios": "https://dc.lft.to/lastmile_qr_scan", "android": "https://dc.lft.to/lastmile_qr_scan"}, "is_reserved": 0, "fusion_lat": 0.0, "lon": -77.02891933333333}, {"lat": 38.8979825, "type": "electric_scooter", "is_disabled": 0, "name": "996de604c73426144ab30b3851c6a8f7", "bike_id": "996de604c73426144ab30b3851c6a8f7", "fusion_lon": 0.0, "rental_uris": {"ios": "https://dc.lft.to/lastmile_qr_scan", "android": "https://dc.lft.to/lastmile_qr_scan"}, "is_reserved": 0, "fusion_lat": 0.0, "lon": -77.02918866666667}, {"lat": 38.819149, "type": "electric_bike", "is_disabled": 0, "name": "45adc8d52a911f24d68c5ef4df2795e4", "bike_id": "45adc8d52a911f24d68c5ef4df2795e4", "fusion_lon": 0.0, "rental_uris": {"ios": "https://dc.lft.to/lastmile_qr_scan", "android": "https://dc.lft.to/lastmile_qr_scan"}, "is_reserved": 0, "fusion_lat": 0.0, "lon": -77.1266195}, {"lat": 38.905500833333335, "type": "electric_scooter", "is_disabled": 0, "name": "c64c81e09f4288d27c870b00ed700cc3", "bike_id": "c64c81e09f4288d27c870b00ed700cc3", "fusion_lon": 0.0, "rental_uris": {"ios": "https://dc.lft.to/lastmile_qr_scan", "android": "https://dc.lft.to/lastmile_qr_scan"}, "is_reserved": 0, "fusion_lat": 0.0, "lon": -77.00606366666666}, {"lat": 38.91984683333333, "type": "electric_scooter", "is_disabled": 0, "name": "c4f3615aac1d57b93709a796d68f2b07", "bike_id": "c4f3615aac1d57b93709a796d68f2b07", "fusion_lon": 0.0, "rental_uris": {"ios": "https://dc.lft.to/lastmile_qr_scan", "android": "https://dc.lft.to/lastmile_qr_scan"}, "is_reserved": 0, "fusion_lat": 0.0, "lon": -77.02176683333333}, {"lat": 38.927887166666665, "type": "electric_scooter", "is_disabled": 0, "name": "8055c5514f5e96851a7d447ef4f52d31", "bike_id": "8055c5514f5e96851a7d447ef4f52d31", "fusion_lon": 0.0, "rental_uris": {"ios": "https://dc.lft.to/lastmile_qr_scan", "android": "https://dc.lft.to/lastmile_qr_scan"}, "is_reserved": 0, "fusion_lat": 0.0, "lon": -77.03084466666667}, {"lat": 38.914095833333334, "type": "electric_scooter", "is_disabled": 0, "name": "fb4b7da2bf0de62c38c477af675c12fa", "bike_id": "fb4b7da2bf0de62c38c477af675c12fa", "fusion_lon": 0.0, "rental_uris": {"ios": "https://dc.lft.to/lastmile_qr_scan", "android": "https://dc.lft.to/lastmile_qr_scan"}, "is_reserved": 0, "fusion_lat": 0.0, "lon": -77.01297466666666}, {"lat": 38.905949666666665, "type": "electric_scooter", "is_disabled": 0, "name": "72f3ec3e3ffe90a8aaf6179826a8aeab", "bike_id": "72f3ec3e3ffe90a8aaf6179826a8aeab", "fusion_lon": 0.0, "rental_uris": {"ios": "https://dc.lft.to/lastmile_qr_scan", "android": "https://dc.lft.to/lastmile_qr_scan"}, "is_reserved": 0, "fusion_lat": 0.0, "lon": -77.040059}, {"lat": 38.92347566666667, "type": "electric_scooter", "is_disabled": 0, "name": "1a2bcf6855123f77a53c6f592555ac16", "bike_id": "1a2bcf6855123f77a53c6f592555ac16", "fusion_lon": 0.0, "rental_uris": {"ios": "https://dc.lft.to/lastmile_qr_scan", "android": "https://dc.lft.to/lastmile_qr_scan"}, "is_reserved": 0, "fusion_lat": 0.0, "lon": -77.0190555}, {"lat": 38.94107366666667, "type": "electric_scooter", "is_disabled": 0, "name": "c9cfb29dc44f60e8a45b36409913ead2", "bike_id": "c9cfb29dc44f60e8a45b36409913ead2", "fusion_lon": 0.0, "rental_uris": {"ios": "https://dc.lft.to/lastmile_qr_scan", "android": "https://dc.lft.to/lastmile_qr_scan"}, "is_reserved": 0, "fusion_lat": 0.0, "lon": -77.0613705}, {"lat": 38.93103883333333, "type": "electric_scooter", "is_disabled": 0, "name": "17114fff69bf85d5dbe493d00f3736c2", "bike_id": "17114fff69bf85d5dbe493d00f3736c2", "fusion_lon": 0.0, "rental_uris": {"ios": "https://dc.lft.to/lastmile_qr_scan", "android": "https://dc.lft.to/lastmile_qr_scan"}, "is_reserved": 0, "fusion_lat": 0.0, "lon": -77.03786316666667}, {"lat": 38.92489883333333, "type": "electric_scooter", "is_disabled": 0, "name": "e14eba2b8712e8d27ee102336e3e2e9b", "bike_id": "e14eba2b8712e8d27ee102336e3e2e9b", "fusion_lon": 0.0, "rental_uris": {"ios": "https://dc.lft.to/lastmile_qr_scan", "android": "https://dc.lft.to/lastmile_qr_scan"}, "is_reserved": 0, "fusion_lat": 0.0, "lon": -77.0411895}, {"lat": 38.921774166666665, "type": "electric_scooter", "is_disabled": 0, "name": "53a0ae3331b45a771b58942d247fceac", "bike_id": "53a0ae3331b45a771b58942d247fceac", "fusion_lon": 0.0, "rental_uris": {"ios": "https://dc.lft.to/lastmile_qr_scan", "android": "https://dc.lft.to/lastmile_qr_scan"}, "is_reserved": 0, "fusion_lat": 0.0, "lon": -77.04224166666667}, {"lat": 38.915495, "type": "electric_scooter", "is_disabled": 0, "name": "a9eacbcf3c6d78e892beb80a7b65978d", "bike_id": "a9eacbcf3c6d78e892beb80a7b65978d", "fusion_lon": 0.0, "rental_uris": {"ios": "https://dc.lft.to/lastmile_qr_scan", "android": "https://dc.lft.to/lastmile_qr_scan"}, "is_reserved": 0, "fusion_lat": 0.0, "lon": -77.0122115}, {"lat": 38.93540316666667, "type": "electric_scooter", "is_disabled": 0, "name": "d1561480ef074f08034b6d0eddff8b78", "bike_id": "d1561480ef074f08034b6d0eddff8b78", "fusion_lon": 0.0, "rental_uris": {"ios": "https://dc.lft.to/lastmile_qr_scan", "android": "https://dc.lft.to/lastmile_qr_scan"}, "is_reserved": 0, "fusion_lat": 0.0, "lon": -77.05821}, {"lat": 38.8922245, "type": "electric_scooter", "is_disabled": 0, "name": "c6f9884b69c3c6efa6bbb5e5fc150eb3", "bike_id": "c6f9884b69c3c6efa6bbb5e5fc150eb3", "fusion_lon": 0.0, "rental_uris": {"ios": "https://dc.lft.to/lastmile_qr_scan", "android": "https://dc.lft.to/lastmile_qr_scan"}, "is_reserved": 0, "fusion_lat": 0.0, "lon": -77.0467925}, {"lat": 38.893330166666665, "type": "electric_scooter", "is_disabled": 0, "name": "0e03e74ae16ac2634b82d7581bff0d1d", "bike_id": "0e03e74ae16ac2634b82d7581bff0d1d", "fusion_lon": 0.0, "rental_uris": {"ios": "https://dc.lft.to/lastmile_qr_scan", "android": "https://dc.lft.to/lastmile_qr_scan"}, "is_reserved": 0, "fusion_lat": 0.0, "lon": -76.939591}, {"lat": 38.938638, "type": "electric_scooter", "is_disabled": 0, "name": "a27db0697bca0cdb9cc79898b33313dc", "bike_id": "a27db0697bca0cdb9cc79898b33313dc", "fusion_lon": 0.0, "rental_uris": {"ios": "https://dc.lft.to/lastmile_qr_scan", "android": "https://dc.lft.to/lastmile_qr_scan"}, "is_reserved": 0, "fusion_lat": 0.0, "lon": -77.024898}, {"lat": 38.89491433333333, "type": "electric_scooter", "is_disabled": 0, "name": "21d304e9161a108b67adfc5f2ef93d15", "bike_id": "21d304e9161a108b67adfc5f2ef93d15", "fusion_lon": 0.0, "rental_uris": {"ios": "https://dc.lft.to/lastmile_qr_scan", "android": "https://dc.lft.to/lastmile_qr_scan"}, "is_reserved": 0, "fusion_lat": 0.0, "lon": -76.94891666666666}, {"lat": 38.9000055, "type": "electric_scooter", "is_disabled": 0, "name": "25fa22dae94410b7e387b7cf0b3c9e59", "bike_id": "25fa22dae94410b7e387b7cf0b3c9e59", "fusion_lon": 0.0, "rental_uris": {"ios": "https://dc.lft.to/lastmile_qr_scan", "android": "https://dc.lft.to/lastmile_qr_scan"}, "is_reserved": 0, "fusion_lat": 0.0, "lon": -77.04104166666667}, {"lat": 38.91107483333333, "type": "electric_scooter", "is_disabled": 0, "name": "2d49424927b4c7283198a39fc966c2c2", "bike_id": "2d49424927b4c7283198a39fc966c2c2", "fusion_lon": 0.0, "rental_uris": {"ios": "https://dc.lft.to/lastmile_qr_scan", "android": "https://dc.lft.to/lastmile_qr_scan"}, "is_reserved": 0, "fusion_lat": 0.0, "lon": -77.03125}, {"lat": 38.94290983333333, "type": "electric_scooter", "is_disabled": 0, "name": "64fb9a2fc192f3eea1315e10f8b9d55e", "bike_id": "64fb9a2fc192f3eea1315e10f8b9d55e", "fusion_lon": 0.0, "rental_uris": {"ios": "https://dc.lft.to/lastmile_qr_scan", "android": "https://dc.lft.to/lastmile_qr_scan"}, "is_reserved": 0, "fusion_lat": 0.0, "lon": -77.027928}, {"lat": 38.84753533333333, "type": "electric_bike", "is_disabled": 0, "name": "7d27975a582879d0f3fa321f2fe6b03e", "bike_id": "7d27975a582879d0f3fa321f2fe6b03e", "fusion_lon": 0.0, "rental_uris": {"ios": "https://dc.lft.to/lastmile_qr_scan", "android": "https://dc.lft.to/lastmile_qr_scan"}, "is_reserved": 0, "fusion_lat": 0.0, "lon": -77.05372116666666}, {"lat": 38.90704483333333, "type": "electric_scooter", "is_disabled": 0, "name": "0a7ac6b73e5351fb393dc04600fc2625", "bike_id": "0a7ac6b73e5351fb393dc04600fc2625", "fusion_lon": 0.0, "rental_uris": {"ios": "https://dc.lft.to/lastmile_qr_scan", "android": "https://dc.lft.to/lastmile_qr_scan"}, "is_reserved": 0, "fusion_lat": 0.0, "lon": -76.98858483333333}, {"lat": 38.9154145, "type": "electric_scooter", "is_disabled": 0, "name": "a6932e03b65fe90b80f0bcbf101538fd", "bike_id": "a6932e03b65fe90b80f0bcbf101538fd", "fusion_lon": 0.0, "rental_uris": {"ios": "https://dc.lft.to/lastmile_qr_scan", "android": "https://dc.lft.to/lastmile_qr_scan"}, "is_reserved": 0, "fusion_lat": 0.0, "lon": -77.04434883333333}, {"lat": 38.88500333333333, "type": "electric_scooter", "is_disabled": 0, "name": "efc624148d3b60545b3e2fb4c568ab77", "bike_id": "efc624148d3b60545b3e2fb4c568ab77", "fusion_lon": 0.0, "rental_uris": {"ios": "https://dc.lft.to/lastmile_qr_scan", "android": "https://dc.lft.to/lastmile_qr_scan"}, "is_reserved": 0, "fusion_lat": 0.0, "lon": -77.020853}, {"lat": 38.911887166666666, "type": "electric_scooter", "is_disabled": 0, "name": "a86e5269c02c307473a359aacbabbfde", "bike_id": "a86e5269c02c307473a359aacbabbfde", "fusion_lon": 0.0, "rental_uris": {"ios": "https://dc.lft.to/lastmile_qr_scan", "android": "https://dc.lft.to/lastmile_qr_scan"}, "is_reserved": 0, "fusion_lat": 0.0, "lon": -77.011455}, {"lat": 38.89007933333333, "type": "electric_scooter", "is_disabled": 0, "name": "8edba93a2c754c423b07a6f6f1da5695", "bike_id": "8edba93a2c754c423b07a6f6f1da5695", "fusion_lon": 0.0, "rental_uris": {"ios": "https://dc.lft.to/lastmile_qr_scan", "android": "https://dc.lft.to/lastmile_qr_scan"}, "is_reserved": 0, "fusion_lat": 0.0, "lon": -76.93733983333334}, {"lat": 38.89834533333333, "type": "electric_scooter", "is_disabled": 0, "name": "1d5b893103b9c8340d106a3cfe882840", "bike_id": "1d5b893103b9c8340d106a3cfe882840", "fusion_lon": 0.0, "rental_uris": {"ios": "https://dc.lft.to/lastmile_qr_scan", "android": "https://dc.lft.to/lastmile_qr_scan"}, "is_reserved": 0, "fusion_lat": 0.0, "lon": -77.0451555}, {"lat": 38.902192166666666, "type": "electric_scooter", "is_disabled": 0, "name": "261269ceeac2fabbc8a89e81143c085d", "bike_id": "261269ceeac2fabbc8a89e81143c085d", "fusion_lon": 0.0, "rental_uris": {"ios": "https://dc.lft.to/lastmile_qr_scan", "android": "https://dc.lft.to/lastmile_qr_scan"}, "is_reserved": 0, "fusion_lat": 0.0, "lon": -77.02371666666667}, {"lat": 38.92288333333333, "type": "electric_scooter", "is_disabled": 0, "name": "a577b0646993b064c9dc3b3c53a8da21", "bike_id": "a577b0646993b064c9dc3b3c53a8da21", "fusion_lon": 0.0, "rental_uris": {"ios": "https://dc.lft.to/lastmile_qr_scan", "android": "https://dc.lft.to/lastmile_qr_scan"}, "is_reserved": 0, "fusion_lat": 0.0, "lon": -77.031977}, {"lat": 39.08491883333333, "type": "electric_bike", "is_disabled": 0, "name": "cd5e7cf9e7be83701c218e898309c28f", "bike_id": "cd5e7cf9e7be83701c218e898309c28f", "fusion_lon": 0.0, "rental_uris": {"ios": "https://dc.lft.to/lastmile_qr_scan", "android": "https://dc.lft.to/lastmile_qr_scan"}, "is_reserved": 0, "fusion_lat": 0.0, "lon": -76.9504575}, {"lat": 38.91574133333334, "type": "electric_scooter", "is_disabled": 0, "name": "f02d39c4c97cc0b9de7c46cb5568ee57", "bike_id": "f02d39c4c97cc0b9de7c46cb5568ee57", "fusion_lon": 0.0, "rental_uris": {"ios": "https://dc.lft.to/lastmile_qr_scan", "android": "https://dc.lft.to/lastmile_qr_scan"}, "is_reserved": 0, "fusion_lat": 0.0, "lon": -77.04638883333334}, {"lat": 38.989621, "type": "electric_bike", "is_disabled": 0, "name": "cec0aad69f9a2280b68277923658e062", "bike_id": "cec0aad69f9a2280b68277923658e062", "fusion_lon": 0.0, "rental_uris": {"ios": "https://dc.lft.to/lastmile_qr_scan", "android": "https://dc.lft.to/lastmile_qr_scan"}, "is_reserved": 0, "fusion_lat": 0.0, "lon": -77.098964}, {"lat": 38.94418183333333, "type": "electric_scooter", "is_disabled": 0, "name": "5010df2b69d286eeb8663118187ef801", "bike_id": "5010df2b69d286eeb8663118187ef801", "fusion_lon": 0.0, "rental_uris": {"ios": "https://dc.lft.to/lastmile_qr_scan", "android": "https://dc.lft.to/lastmile_qr_scan"}, "is_reserved": 0, "fusion_lat": 0.0, "lon": -77.05517333333333}, {"lat": 38.9021985, "type": "electric_scooter", "is_disabled": 0, "name": "2e7d72875dd8d98c3132c66aa290c334", "bike_id": "2e7d72875dd8d98c3132c66aa290c334", "fusion_lon": 0.0, "rental_uris": {"ios": "https://dc.lft.to/lastmile_qr_scan", "android": "https://dc.lft.to/lastmile_qr_scan"}, "is_reserved": 0, "fusion_lat": 0.0, "lon": -77.02369933333334}, {"lat": 38.884868, "type": "electric_scooter", "is_disabled": 0, "name": "5decf66f7e43dbbfb6162febe6e39c75", "bike_id": "5decf66f7e43dbbfb6162febe6e39c75", "fusion_lon": 0.0, "rental_uris": {"ios": "https://dc.lft.to/lastmile_qr_scan", "android": "https://dc.lft.to/lastmile_qr_scan"}, "is_reserved": 0, "fusion_lat": 0.0, "lon": -77.01534233333334}, {"lat": 38.905441, "type": "electric_scooter", "is_disabled": 0, "name": "e40c476520179f92706e99b8c92aa4f4", "bike_id": "e40c476520179f92706e99b8c92aa4f4", "fusion_lon": 0.0, "rental_uris": {"ios": "https://dc.lft.to/lastmile_qr_scan", "android": "https://dc.lft.to/lastmile_qr_scan"}, "is_reserved": 0, "fusion_lat": 0.0, "lon": -77.0218605}, {"lat": 38.90357916666667, "type": "electric_scooter", "is_disabled": 0, "name": "96fffc0fc78ed5ee0b8a028aafa6db92", "bike_id": "96fffc0fc78ed5ee0b8a028aafa6db92", "fusion_lon": 0.0, "rental_uris": {"ios": "https://dc.lft.to/lastmile_qr_scan", "android": "https://dc.lft.to/lastmile_qr_scan"}, "is_reserved": 0, "fusion_lat": 0.0, "lon": -77.01945333333333}, {"lat": 38.91939433333334, "type": "electric_scooter", "is_disabled": 0, "name": "3246c9ef49a6fc0e9c4b942c21286cc5", "bike_id": "3246c9ef49a6fc0e9c4b942c21286cc5", "fusion_lon": 0.0, "rental_uris": {"ios": "https://dc.lft.to/lastmile_qr_scan", "android": "https://dc.lft.to/lastmile_qr_scan"}, "is_reserved": 0, "fusion_lat": 0.0, "lon": -77.01800283333333}, {"lat": 38.895646666666664, "type": "electric_scooter", "is_disabled": 0, "name": "1ab3ed54ae8b134dad7b739ab3c506a8", "bike_id": "1ab3ed54ae8b134dad7b739ab3c506a8", "fusion_lon": 0.0, "rental_uris": {"ios": "https://dc.lft.to/lastmile_qr_scan", "android": "https://dc.lft.to/lastmile_qr_scan"}, "is_reserved": 0, "fusion_lat": 0.0, "lon": -77.04676033333334}, {"lat": 38.92248166666667, "type": "electric_scooter", "is_disabled": 0, "name": "44bba440dbefa671aae9d893f736463a", "bike_id": "44bba440dbefa671aae9d893f736463a", "fusion_lon": 0.0, "rental_uris": {"ios": "https://dc.lft.to/lastmile_qr_scan", "android": "https://dc.lft.to/lastmile_qr_scan"}, "is_reserved": 0, "fusion_lat": 0.0, "lon": -77.01950233333334}, {"lat": 38.90054683333334, "type": "electric_scooter", "is_disabled": 0, "name": "ae56cb4e42b2cdd01cfec80fdb88f44f", "bike_id": "ae56cb4e42b2cdd01cfec80fdb88f44f", "fusion_lon": 0.0, "rental_uris": {"ios": "https://dc.lft.to/lastmile_qr_scan", "android": "https://dc.lft.to/lastmile_qr_scan"}, "is_reserved": 0, "fusion_lat": 0.0, "lon": -77.03174}, {"lat": 38.902733833333336, "type": "electric_scooter", "is_disabled": 0, "name": "09e56029eb174a37cc26804eee44ef06", "bike_id": "09e56029eb174a37cc26804eee44ef06", "fusion_lon": 0.0, "rental_uris": {"ios": "https://dc.lft.to/lastmile_qr_scan", "android": "https://dc.lft.to/lastmile_qr_scan"}, "is_reserved": 0, "fusion_lat": 0.0, "lon": -77.028236}, {"lat": 38.93437016666667, "type": "electric_scooter", "is_disabled": 0, "name": "03006161c5048c1ef6e198a7de114127", "bike_id": "03006161c5048c1ef6e198a7de114127", "fusion_lon": 0.0, "rental_uris": {"ios": "https://dc.lft.to/lastmile_qr_scan", "android": "https://dc.lft.to/lastmile_qr_scan"}, "is_reserved": 0, "fusion_lat": 0.0, "lon": -77.0344875}, {"lat": 38.902011333333334, "type": "electric_scooter", "is_disabled": 0, "name": "82bb22308c4c9b15ddf5a1b62013671d", "bike_id": "82bb22308c4c9b15ddf5a1b62013671d", "fusion_lon": 0.0, "rental_uris": {"ios": "https://dc.lft.to/lastmile_qr_scan", "android": "https://dc.lft.to/lastmile_qr_scan"}, "is_reserved": 0, "fusion_lat": 0.0, "lon": -77.05906666666667}, {"lat": 38.91949916666667, "type": "electric_scooter", "is_disabled": 0, "name": "6e46169b10c01a293bd768d451727c44", "bike_id": "6e46169b10c01a293bd768d451727c44", "fusion_lon": 0.0, "rental_uris": {"ios": "https://dc.lft.to/lastmile_qr_scan", "android": "https://dc.lft.to/lastmile_qr_scan"}, "is_reserved": 0, "fusion_lat": 0.0, "lon": -77.07982666666666}, {"lat": 38.90634033333333, "type": "electric_scooter", "is_disabled": 0, "name": "45ea298473908bf937cd2f9bcb81a38a", "bike_id": "45ea298473908bf937cd2f9bcb81a38a", "fusion_lon": 0.0, "rental_uris": {"ios": "https://dc.lft.to/lastmile_qr_scan", "android": "https://dc.lft.to/lastmile_qr_scan"}, "is_reserved": 0, "fusion_lat": 0.0, "lon": -77.0005665}, {"lat": 38.91986266666667, "type": "electric_scooter", "is_disabled": 0, "name": "87220513c026f998b85e4bf07717df27", "bike_id": "87220513c026f998b85e4bf07717df27", "fusion_lon": 0.0, "rental_uris": {"ios": "https://dc.lft.to/lastmile_qr_scan", "android": "https://dc.lft.to/lastmile_qr_scan"}, "is_reserved": 0, "fusion_lat": 0.0, "lon": -77.03250733333333}, {"lat": 38.9054645, "type": "electric_scooter", "is_disabled": 0, "name": "75ed103de940bff323947c5f79951ce9", "bike_id": "75ed103de940bff323947c5f79951ce9", "fusion_lon": 0.0, "rental_uris": {"ios": "https://dc.lft.to/lastmile_qr_scan", "android": "https://dc.lft.to/lastmile_qr_scan"}, "is_reserved": 0, "fusion_lat": 0.0, "lon": -77.039707}, {"lat": 38.8812445, "type": "electric_scooter", "is_disabled": 0, "name": "0eeed4b8851bc3222e2be6f3ee3eecfa", "bike_id": "0eeed4b8851bc3222e2be6f3ee3eecfa", "fusion_lon": 0.0, "rental_uris": {"ios": "https://dc.lft.to/lastmile_qr_scan", "android": "https://dc.lft.to/lastmile_qr_scan"}, "is_reserved": 0, "fusion_lat": 0.0, "lon": -77.00448966666667}, {"lat": 38.89457783333334, "type": "electric_scooter", "is_disabled": 0, "name": "7dd18bcda0c70bc132f29958e2219af7", "bike_id": "7dd18bcda0c70bc132f29958e2219af7", "fusion_lon": 0.0, "rental_uris": {"ios": "https://dc.lft.to/lastmile_qr_scan", "android": "https://dc.lft.to/lastmile_qr_scan"}, "is_reserved": 0, "fusion_lat": 0.0, "lon": -77.0209915}, {"lat": 38.90443966666667, "type": "electric_scooter", "is_disabled": 0, "name": "0bc9b88cd7493c97b2f8e839999e5490", "bike_id": "0bc9b88cd7493c97b2f8e839999e5490", "fusion_lon": 0.0, "rental_uris": {"ios": "https://dc.lft.to/lastmile_qr_scan", "android": "https://dc.lft.to/lastmile_qr_scan"}, "is_reserved": 0, "fusion_lat": 0.0, "lon": -77.0532165}, {"lat": 38.90843516666666, "type": "electric_scooter", "is_disabled": 0, "name": "987a758d5ebc6cf6e0cf37a20f3c2966", "bike_id": "987a758d5ebc6cf6e0cf37a20f3c2966", "fusion_lon": 0.0, "rental_uris": {"ios": "https://dc.lft.to/lastmile_qr_scan", "android": "https://dc.lft.to/lastmile_qr_scan"}, "is_reserved": 0, "fusion_lat": 0.0, "lon": -77.04364283333334}, {"lat": 38.923984, "type": "electric_scooter", "is_disabled": 0, "name": "20bca5ea3379c6de77f5f8541c6ec41b", "bike_id": "20bca5ea3379c6de77f5f8541c6ec41b", "fusion_lon": 0.0, "rental_uris": {"ios": "https://dc.lft.to/lastmile_qr_scan", "android": "https://dc.lft.to/lastmile_qr_scan"}, "is_reserved": 0, "fusion_lat": 0.0, "lon": -77.0212765}, {"lat": 38.89359533333333, "type": "electric_scooter", "is_disabled": 0, "name": "67c889a20d970e36c2f91183b3b01b8d", "bike_id": "67c889a20d970e36c2f91183b3b01b8d", "fusion_lon": 0.0, "rental_uris": {"ios": "https://dc.lft.to/lastmile_qr_scan", "android": "https://dc.lft.to/lastmile_qr_scan"}, "is_reserved": 0, "fusion_lat": 0.0, "lon": -77.00330683333334}, {"lat": 38.940955, "type": "electric_scooter", "is_disabled": 0, "name": "5cd43815b0e8679bcc36c1215255de29", "bike_id": "5cd43815b0e8679bcc36c1215255de29", "fusion_lon": 0.0, "rental_uris": {"ios": "https://dc.lft.to/lastmile_qr_scan", "android": "https://dc.lft.to/lastmile_qr_scan"}, "is_reserved": 0, "fusion_lat": 0.0, "lon": -77.02979733333333}, {"lat": 38.94986216666667, "type": "electric_scooter", "is_disabled": 0, "name": "811ee254329f9a8e05deca719c552dfb", "bike_id": "811ee254329f9a8e05deca719c552dfb", "fusion_lon": 0.0, "rental_uris": {"ios": "https://dc.lft.to/lastmile_qr_scan", "android": "https://dc.lft.to/lastmile_qr_scan"}, "is_reserved": 0, "fusion_lat": 0.0, "lon": -77.06670783333334}, {"lat": 38.8921955, "type": "electric_scooter", "is_disabled": 0, "name": "50f2a0dc08e4c8cb7ff542c2facaecd8", "bike_id": "50f2a0dc08e4c8cb7ff542c2facaecd8", "fusion_lon": 0.0, "rental_uris": {"ios": "https://dc.lft.to/lastmile_qr_scan", "android": "https://dc.lft.to/lastmile_qr_scan"}, "is_reserved": 0, "fusion_lat": 0.0, "lon": -77.03133566666666}, {"lat": 38.92249833333333, "type": "electric_scooter", "is_disabled": 0, "name": "884a14a8415b967284f8ac66cfc26025", "bike_id": "884a14a8415b967284f8ac66cfc26025", "fusion_lon": 0.0, "rental_uris": {"ios": "https://dc.lft.to/lastmile_qr_scan", "android": "https://dc.lft.to/lastmile_qr_scan"}, "is_reserved": 0, "fusion_lat": 0.0, "lon": -77.028859}, {"lat": 38.92435583333334, "type": "electric_scooter", "is_disabled": 0, "name": "cd84ff37d097660da74a4480ac14613a", "bike_id": "cd84ff37d097660da74a4480ac14613a", "fusion_lon": 0.0, "rental_uris": {"ios": "https://dc.lft.to/lastmile_qr_scan", "android": "https://dc.lft.to/lastmile_qr_scan"}, "is_reserved": 0, "fusion_lat": 0.0, "lon": -77.0201775}, {"lat": 38.93853883333333, "type": "electric_scooter", "is_disabled": 0, "name": "cb09dd1f1d36aaaa934236e3209375f2", "bike_id": "cb09dd1f1d36aaaa934236e3209375f2", "fusion_lon": 0.0, "rental_uris": {"ios": "https://dc.lft.to/lastmile_qr_scan", "android": "https://dc.lft.to/lastmile_qr_scan"}, "is_reserved": 0, "fusion_lat": 0.0, "lon": -77.02473666666667}, {"lat": 38.899651, "type": "electric_scooter", "is_disabled": 0, "name": "a016186a5cd3f411ab8127adb4fc5ab8", "bike_id": "a016186a5cd3f411ab8127adb4fc5ab8", "fusion_lon": 0.0, "rental_uris": {"ios": "https://dc.lft.to/lastmile_qr_scan", "android": "https://dc.lft.to/lastmile_qr_scan"}, "is_reserved": 0, "fusion_lat": 0.0, "lon": -77.014458}, {"lat": 38.91802833333333, "type": "electric_scooter", "is_disabled": 0, "name": "b771a6a71c805322c1e206c4b964788c", "bike_id": "b771a6a71c805322c1e206c4b964788c", "fusion_lon": 0.0, "rental_uris": {"ios": "https://dc.lft.to/lastmile_qr_scan", "android": "https://dc.lft.to/lastmile_qr_scan"}, "is_reserved": 0, "fusion_lat": 0.0, "lon": -77.0271695}, {"lat": 38.898362666666664, "type": "electric_scooter", "is_disabled": 0, "name": "6c51d18011cb73a50d559e6b312ada60", "bike_id": "6c51d18011cb73a50d559e6b312ada60", "fusion_lon": 0.0, "rental_uris": {"ios": "https://dc.lft.to/lastmile_qr_scan", "android": "https://dc.lft.to/lastmile_qr_scan"}, "is_reserved": 0, "fusion_lat": 0.0, "lon": -76.94641966666667}, {"lat": 38.925095666666664, "type": "electric_scooter", "is_disabled": 0, "name": "ed79c04f2fe7d90803d1b43de9e3d866", "bike_id": "ed79c04f2fe7d90803d1b43de9e3d866", "fusion_lon": 0.0, "rental_uris": {"ios": "https://dc.lft.to/lastmile_qr_scan", "android": "https://dc.lft.to/lastmile_qr_scan"}, "is_reserved": 0, "fusion_lat": 0.0, "lon": -77.0022485}, {"lat": 38.9123785, "type": "electric_scooter", "is_disabled": 0, "name": "c7df75cffbf7e6df50fc6f2cada9b99d", "bike_id": "c7df75cffbf7e6df50fc6f2cada9b99d", "fusion_lon": 0.0, "rental_uris": {"ios": "https://dc.lft.to/lastmile_qr_scan", "android": "https://dc.lft.to/lastmile_qr_scan"}, "is_reserved": 0, "fusion_lat": 0.0, "lon": -76.98669683333334}, {"lat": 38.9112155, "type": "electric_scooter", "is_disabled": 0, "name": "bd0cb15db186b7c610bad97215d66848", "bike_id": "bd0cb15db186b7c610bad97215d66848", "fusion_lon": 0.0, "rental_uris": {"ios": "https://dc.lft.to/lastmile_qr_scan", "android": "https://dc.lft.to/lastmile_qr_scan"}, "is_reserved": 0, "fusion_lat": 0.0, "lon": -77.006077}, {"lat": 38.936605166666666, "type": "electric_scooter", "is_disabled": 0, "name": "2400e1647262dfdc1c249e1f80f5a5a7", "bike_id": "2400e1647262dfdc1c249e1f80f5a5a7", "fusion_lon": 0.0, "rental_uris": {"ios": "https://dc.lft.to/lastmile_qr_scan", "android": "https://dc.lft.to/lastmile_qr_scan"}, "is_reserved": 0, "fusion_lat": 0.0, "lon": -77.066048}, {"lat": 38.90040233333333, "type": "electric_scooter", "is_disabled": 0, "name": "38902c42490d89d4ca9263d982de9233", "bike_id": "38902c42490d89d4ca9263d982de9233", "fusion_lon": 0.0, "rental_uris": {"ios": "https://dc.lft.to/lastmile_qr_scan", "android": "https://dc.lft.to/lastmile_qr_scan"}, "is_reserved": 0, "fusion_lat": 0.0, "lon": -77.024005}, {"lat": 38.882682, "type": "electric_scooter", "is_disabled": 0, "name": "3c1ed25509a6f8ee9aebe19e51d4a9f7", "bike_id": "3c1ed25509a6f8ee9aebe19e51d4a9f7", "fusion_lon": 0.0, "rental_uris": {"ios": "https://dc.lft.to/lastmile_qr_scan", "android": "https://dc.lft.to/lastmile_qr_scan"}, "is_reserved": 0, "fusion_lat": 0.0, "lon": -77.00353866666667}, {"lat": 38.908745, "type": "electric_scooter", "is_disabled": 0, "name": "354ecf134a2bf3c34d54734c312d705e", "bike_id": "354ecf134a2bf3c34d54734c312d705e", "fusion_lon": 0.0, "rental_uris": {"ios": "https://dc.lft.to/lastmile_qr_scan", "android": "https://dc.lft.to/lastmile_qr_scan"}, "is_reserved": 0, "fusion_lat": 0.0, "lon": -77.03751516666667}, {"lat": 38.8863915, "type": "electric_scooter", "is_disabled": 0, "name": "77e151d789896f10ec4083589dbdd542", "bike_id": "77e151d789896f10ec4083589dbdd542", "fusion_lon": 0.0, "rental_uris": {"ios": "https://dc.lft.to/lastmile_qr_scan", "android": "https://dc.lft.to/lastmile_qr_scan"}, "is_reserved": 0, "fusion_lat": 0.0, "lon": -77.0021195}, {"lat": 38.911967833333335, "type": "electric_scooter", "is_disabled": 0, "name": "27622e085b28947d85b5280e67397d0b", "bike_id": "27622e085b28947d85b5280e67397d0b", "fusion_lon": 0.0, "rental_uris": {"ios": "https://dc.lft.to/lastmile_qr_scan", "android": "https://dc.lft.to/lastmile_qr_scan"}, "is_reserved": 0, "fusion_lat": 0.0, "lon": -77.01981216666667}, {"lat": 38.886232, "type": "electric_scooter", "is_disabled": 0, "name": "635ae73b5992c419dc94c533ad9f85aa", "bike_id": "635ae73b5992c419dc94c533ad9f85aa", "fusion_lon": 0.0, "rental_uris": {"ios": "https://dc.lft.to/lastmile_qr_scan", "android": "https://dc.lft.to/lastmile_qr_scan"}, "is_reserved": 0, "fusion_lat": 0.0, "lon": -77.01510816666666}, {"lat": 38.908653, "type": "electric_scooter", "is_disabled": 0, "name": "772c791d267a58f33df64b3fc168bfef", "bike_id": "772c791d267a58f33df64b3fc168bfef", "fusion_lon": 0.0, "rental_uris": {"ios": "https://dc.lft.to/lastmile_qr_scan", "android": "https://dc.lft.to/lastmile_qr_scan"}, "is_reserved": 0, "fusion_lat": 0.0, "lon": -77.010199}, {"lat": 38.93188416666667, "type": "electric_scooter", "is_disabled": 0, "name": "d2f697f7f356eb5d835e2aba369a3569", "bike_id": "d2f697f7f356eb5d835e2aba369a3569", "fusion_lon": 0.0, "rental_uris": {"ios": "https://dc.lft.to/lastmile_qr_scan", "android": "https://dc.lft.to/lastmile_qr_scan"}, "is_reserved": 0, "fusion_lat": 0.0, "lon": -77.02834466666667}, {"lat": 38.9203265, "type": "electric_scooter", "is_disabled": 0, "name": "7e69e81dc1386f9ac8b3fb4f012367d0", "bike_id": "7e69e81dc1386f9ac8b3fb4f012367d0", "fusion_lon": 0.0, "rental_uris": {"ios": "https://dc.lft.to/lastmile_qr_scan", "android": "https://dc.lft.to/lastmile_qr_scan"}, "is_reserved": 0, "fusion_lat": 0.0, "lon": -77.012185}, {"lat": 38.92490266666667, "type": "electric_scooter", "is_disabled": 0, "name": "121a1f3f79fdbec79c02223ca34ea1ca", "bike_id": "121a1f3f79fdbec79c02223ca34ea1ca", "fusion_lon": 0.0, "rental_uris": {"ios": "https://dc.lft.to/lastmile_qr_scan", "android": "https://dc.lft.to/lastmile_qr_scan"}, "is_reserved": 0, "fusion_lat": 0.0, "lon": -77.0510205}, {"lat": 38.895009, "type": "electric_scooter", "is_disabled": 0, "name": "31d2f5d649632a5e561013991d8d219a", "bike_id": "31d2f5d649632a5e561013991d8d219a", "fusion_lon": 0.0, "rental_uris": {"ios": "https://dc.lft.to/lastmile_qr_scan", "android": "https://dc.lft.to/lastmile_qr_scan"}, "is_reserved": 0, "fusion_lat": 0.0, "lon": -77.02289716666667}, {"lat": 38.932959, "type": "electric_scooter", "is_disabled": 0, "name": "6c74296cb5d421c7b37023783651094d", "bike_id": "6c74296cb5d421c7b37023783651094d", "fusion_lon": 0.0, "rental_uris": {"ios": "https://dc.lft.to/lastmile_qr_scan", "android": "https://dc.lft.to/lastmile_qr_scan"}, "is_reserved": 0, "fusion_lat": 0.0, "lon": -77.02293833333333}, {"lat": 38.92316866666667, "type": "electric_scooter", "is_disabled": 0, "name": "be598bd613925cd6c76de72cfc41b217", "bike_id": "be598bd613925cd6c76de72cfc41b217", "fusion_lon": 0.0, "rental_uris": {"ios": "https://dc.lft.to/lastmile_qr_scan", "android": "https://dc.lft.to/lastmile_qr_scan"}, "is_reserved": 0, "fusion_lat": 0.0, "lon": -77.04040383333333}, {"lat": 38.900646333333334, "type": "electric_scooter", "is_disabled": 0, "name": "d7ef361dc045c853af3133a418b9626d", "bike_id": "d7ef361dc045c853af3133a418b9626d", "fusion_lon": 0.0, "rental_uris": {"ios": "https://dc.lft.to/lastmile_qr_scan", "android": "https://dc.lft.to/lastmile_qr_scan"}, "is_reserved": 0, "fusion_lat": 0.0, "lon": -77.0453285}, {"lat": 38.90163183333333, "type": "electric_scooter", "is_disabled": 0, "name": "72250a2ff86523f335c07ae8f2f7e940", "bike_id": "72250a2ff86523f335c07ae8f2f7e940", "fusion_lon": 0.0, "rental_uris": {"ios": "https://dc.lft.to/lastmile_qr_scan", "android": "https://dc.lft.to/lastmile_qr_scan"}, "is_reserved": 0, "fusion_lat": 0.0, "lon": -76.98078516666666}, {"lat": 38.940458666666665, "type": "electric_scooter", "is_disabled": 0, "name": "40cbc5f5835218817dface2927cf0a3e", "bike_id": "40cbc5f5835218817dface2927cf0a3e", "fusion_lon": 0.0, "rental_uris": {"ios": "https://dc.lft.to/lastmile_qr_scan", "android": "https://dc.lft.to/lastmile_qr_scan"}, "is_reserved": 0, "fusion_lat": 0.0, "lon": -77.02915383333334}, {"lat": 38.87740933333333, "type": "electric_scooter", "is_disabled": 0, "name": "cd5baf9b25d02d4f7b1556e0a97a6be6", "bike_id": "cd5baf9b25d02d4f7b1556e0a97a6be6", "fusion_lon": 0.0, "rental_uris": {"ios": "https://dc.lft.to/lastmile_qr_scan", "android": "https://dc.lft.to/lastmile_qr_scan"}, "is_reserved": 0, "fusion_lat": 0.0, "lon": -77.00831183333334}, {"lat": 38.90270983333333, "type": "electric_scooter", "is_disabled": 0, "name": "9239e9113d41153c252be609f98243e3", "bike_id": "9239e9113d41153c252be609f98243e3", "fusion_lon": 0.0, "rental_uris": {"ios": "https://dc.lft.to/lastmile_qr_scan", "android": "https://dc.lft.to/lastmile_qr_scan"}, "is_reserved": 0, "fusion_lat": 0.0, "lon": -77.061653}, {"lat": 38.925955333333334, "type": "electric_scooter", "is_disabled": 0, "name": "404d814703b0a302f104774989508ed2", "bike_id": "404d814703b0a302f104774989508ed2", "fusion_lon": 0.0, "rental_uris": {"ios": "https://dc.lft.to/lastmile_qr_scan", "android": "https://dc.lft.to/lastmile_qr_scan"}, "is_reserved": 0, "fusion_lat": 0.0, "lon": -77.02431116666666}, {"lat": 38.96720416666667, "type": "electric_bike", "is_disabled": 0, "name": "3b90bb387528b95c90914f37713cac34", "bike_id": "3b90bb387528b95c90914f37713cac34", "fusion_lon": 0.0, "rental_uris": {"ios": "https://dc.lft.to/lastmile_qr_scan", "android": "https://dc.lft.to/lastmile_qr_scan"}, "is_reserved": 0, "fusion_lat": 0.0, "lon": -77.01978733333333}, {"lat": 38.89533816666667, "type": "electric_scooter", "is_disabled": 0, "name": "caed3bd51f551ce8d19a269d22122fab", "bike_id": "caed3bd51f551ce8d19a269d22122fab", "fusion_lon": 0.0, "rental_uris": {"ios": "https://dc.lft.to/lastmile_qr_scan", "android": "https://dc.lft.to/lastmile_qr_scan"}, "is_reserved": 0, "fusion_lat": 0.0, "lon": -76.98889883333334}, {"lat": 38.87574333333333, "type": "electric_scooter", "is_disabled": 0, "name": "cdc05c546d5c0374cc4c591ab6e99c32", "bike_id": "cdc05c546d5c0374cc4c591ab6e99c32", "fusion_lon": 0.0, "rental_uris": {"ios": "https://dc.lft.to/lastmile_qr_scan", "android": "https://dc.lft.to/lastmile_qr_scan"}, "is_reserved": 0, "fusion_lat": 0.0, "lon": -77.00578016666667}, {"lat": 38.902848, "type": "electric_scooter", "is_disabled": 0, "name": "39f212ad864bb8b9aed407b176c01dab", "bike_id": "39f212ad864bb8b9aed407b176c01dab", "fusion_lon": 0.0, "rental_uris": {"ios": "https://dc.lft.to/lastmile_qr_scan", "android": "https://dc.lft.to/lastmile_qr_scan"}, "is_reserved": 0, "fusion_lat": 0.0, "lon": -77.03840233333334}, {"lat": 38.892230166666664, "type": "electric_scooter", "is_disabled": 0, "name": "80d5632315086dea6af3e848512ffe9b", "bike_id": "80d5632315086dea6af3e848512ffe9b", "fusion_lon": 0.0, "rental_uris": {"ios": "https://dc.lft.to/lastmile_qr_scan", "android": "https://dc.lft.to/lastmile_qr_scan"}, "is_reserved": 0, "fusion_lat": 0.0, "lon": -77.04334566666667}, {"lat": 38.93523583333333, "type": "electric_scooter", "is_disabled": 0, "name": "e72684e8bfadee1c5d8d0df0174d97c7", "bike_id": "e72684e8bfadee1c5d8d0df0174d97c7", "fusion_lon": 0.0, "rental_uris": {"ios": "https://dc.lft.to/lastmile_qr_scan", "android": "https://dc.lft.to/lastmile_qr_scan"}, "is_reserved": 0, "fusion_lat": 0.0, "lon": -77.02847733333333}, {"lat": 38.87684383333333, "type": "electric_scooter", "is_disabled": 0, "name": "cef6bce980079c470fc5ab863398fa44", "bike_id": "cef6bce980079c470fc5ab863398fa44", "fusion_lon": 0.0, "rental_uris": {"ios": "https://dc.lft.to/lastmile_qr_scan", "android": "https://dc.lft.to/lastmile_qr_scan"}, "is_reserved": 0, "fusion_lat": 0.0, "lon": -77.003456}, {"lat": 38.910143166666664, "type": "electric_scooter", "is_disabled": 0, "name": "8e91df650659616c28399e1147a93c1c", "bike_id": "8e91df650659616c28399e1147a93c1c", "fusion_lon": 0.0, "rental_uris": {"ios": "https://dc.lft.to/lastmile_qr_scan", "android": "https://dc.lft.to/lastmile_qr_scan"}, "is_reserved": 0, "fusion_lat": 0.0, "lon": -77.05268983333333}, {"lat": 38.90025333333333, "type": "electric_scooter", "is_disabled": 0, "name": "6dc274f7d180e7e0b7f9af0430d17f34", "bike_id": "6dc274f7d180e7e0b7f9af0430d17f34", "fusion_lon": 0.0, "rental_uris": {"ios": "https://dc.lft.to/lastmile_qr_scan", "android": "https://dc.lft.to/lastmile_qr_scan"}, "is_reserved": 0, "fusion_lat": 0.0, "lon": -77.04840933333334}, {"lat": 38.90347833333333, "type": "electric_scooter", "is_disabled": 0, "name": "fbbb3843d048ce2666e55f941e441848", "bike_id": "fbbb3843d048ce2666e55f941e441848", "fusion_lon": 0.0, "rental_uris": {"ios": "https://dc.lft.to/lastmile_qr_scan", "android": "https://dc.lft.to/lastmile_qr_scan"}, "is_reserved": 0, "fusion_lat": 0.0, "lon": -77.03713533333334}, {"lat": 38.926819, "type": "electric_scooter", "is_disabled": 0, "name": "dbb221ad5bb51903957425d721e00788", "bike_id": "dbb221ad5bb51903957425d721e00788", "fusion_lon": 0.0, "rental_uris": {"ios": "https://dc.lft.to/lastmile_qr_scan", "android": "https://dc.lft.to/lastmile_qr_scan"}, "is_reserved": 0, "fusion_lat": 0.0, "lon": -77.01495816666667}, {"lat": 38.885402666666664, "type": "electric_scooter", "is_disabled": 0, "name": "94f30e958708bdabb3f59e707fe6c90b", "bike_id": "94f30e958708bdabb3f59e707fe6c90b", "fusion_lon": 0.0, "rental_uris": {"ios": "https://dc.lft.to/lastmile_qr_scan", "android": "https://dc.lft.to/lastmile_qr_scan"}, "is_reserved": 0, "fusion_lat": 0.0, "lon": -76.98206166666667}, {"lat": 38.92885966666667, "type": "electric_scooter", "is_disabled": 0, "name": "1867565842c6f11500c2322b5c00022d", "bike_id": "1867565842c6f11500c2322b5c00022d", "fusion_lon": 0.0, "rental_uris": {"ios": "https://dc.lft.to/lastmile_qr_scan", "android": "https://dc.lft.to/lastmile_qr_scan"}, "is_reserved": 0, "fusion_lat": 0.0, "lon": -77.03450166666667}, {"lat": 38.89748433333333, "type": "electric_scooter", "is_disabled": 0, "name": "c4afafb6a2cbe5802d689e0faeefaa49", "bike_id": "c4afafb6a2cbe5802d689e0faeefaa49", "fusion_lon": 0.0, "rental_uris": {"ios": "https://dc.lft.to/lastmile_qr_scan", "android": "https://dc.lft.to/lastmile_qr_scan"}, "is_reserved": 0, "fusion_lat": 0.0, "lon": -77.03184733333333}, {"lat": 38.844995, "type": "electric_bike", "is_disabled": 0, "name": "1e5a99f3435da60c9924cbcc0fe1f81c", "bike_id": "1e5a99f3435da60c9924cbcc0fe1f81c", "fusion_lon": 0.0, "rental_uris": {"ios": "https://dc.lft.to/lastmile_qr_scan", "android": "https://dc.lft.to/lastmile_qr_scan"}, "is_reserved": 0, "fusion_lat": 0.0, "lon": -76.99369116666666}, {"lat": 38.92072566666667, "type": "electric_scooter", "is_disabled": 0, "name": "41db89448423259e78e59623694178ca", "bike_id": "41db89448423259e78e59623694178ca", "fusion_lon": 0.0, "rental_uris": {"ios": "https://dc.lft.to/lastmile_qr_scan", "android": "https://dc.lft.to/lastmile_qr_scan"}, "is_reserved": 0, "fusion_lat": 0.0, "lon": -77.02210216666667}, {"lat": 38.924839666666664, "type": "electric_scooter", "is_disabled": 0, "name": "68a3cdb08d61f1f00aaf3755a9ee8373", "bike_id": "68a3cdb08d61f1f00aaf3755a9ee8373", "fusion_lon": 0.0, "rental_uris": {"ios": "https://dc.lft.to/lastmile_qr_scan", "android": "https://dc.lft.to/lastmile_qr_scan"}, "is_reserved": 0, "fusion_lat": 0.0, "lon": -77.02271333333333}, {"lat": 38.92032833333333, "type": "electric_scooter", "is_disabled": 0, "name": "4f62a675c9573c9f24d92d60c66bb680", "bike_id": "4f62a675c9573c9f24d92d60c66bb680", "fusion_lon": 0.0, "rental_uris": {"ios": "https://dc.lft.to/lastmile_qr_scan", "android": "https://dc.lft.to/lastmile_qr_scan"}, "is_reserved": 0, "fusion_lat": 0.0, "lon": -77.0121845}, {"lat": 38.901499666666666, "type": "electric_scooter", "is_disabled": 0, "name": "39791a955f177b8ed17c8164fbeb5ed1", "bike_id": "39791a955f177b8ed17c8164fbeb5ed1", "fusion_lon": 0.0, "rental_uris": {"ios": "https://dc.lft.to/lastmile_qr_scan", "android": "https://dc.lft.to/lastmile_qr_scan"}, "is_reserved": 0, "fusion_lat": 0.0, "lon": -77.033769}, {"lat": 38.99412233333334, "type": "electric_bike", "is_disabled": 0, "name": "26266fae1617879b9969cc3068f45829", "bike_id": "26266fae1617879b9969cc3068f45829", "fusion_lon": 0.0, "rental_uris": {"ios": "https://dc.lft.to/lastmile_qr_scan", "android": "https://dc.lft.to/lastmile_qr_scan"}, "is_reserved": 0, "fusion_lat": 0.0, "lon": -77.01797233333333}, {"lat": 38.927838, "type": "electric_scooter", "is_disabled": 0, "name": "782015f3d8299ea5b31b0de6235a9517", "bike_id": "782015f3d8299ea5b31b0de6235a9517", "fusion_lon": 0.0, "rental_uris": {"ios": "https://dc.lft.to/lastmile_qr_scan", "android": "https://dc.lft.to/lastmile_qr_scan"}, "is_reserved": 0, "fusion_lat": 0.0, "lon": -77.03715}, {"lat": 38.93718033333333, "type": "electric_scooter", "is_disabled": 0, "name": "6910fa0b37f678815d84ede0243ae8d9", "bike_id": "6910fa0b37f678815d84ede0243ae8d9", "fusion_lon": 0.0, "rental_uris": {"ios": "https://dc.lft.to/lastmile_qr_scan", "android": "https://dc.lft.to/lastmile_qr_scan"}, "is_reserved": 0, "fusion_lat": 0.0, "lon": -77.03288916666666}, {"lat": 38.8870785, "type": "electric_scooter", "is_disabled": 0, "name": "04a14337742ef832fb43792c6dc06bfe", "bike_id": "04a14337742ef832fb43792c6dc06bfe", "fusion_lon": 0.0, "rental_uris": {"ios": "https://dc.lft.to/lastmile_qr_scan", "android": "https://dc.lft.to/lastmile_qr_scan"}, "is_reserved": 0, "fusion_lat": 0.0, "lon": -76.9834035}, {"lat": 38.893569666666664, "type": "electric_scooter", "is_disabled": 0, "name": "9b664bf3406850783037f6a4a12fdd79", "bike_id": "9b664bf3406850783037f6a4a12fdd79", "fusion_lon": 0.0, "rental_uris": {"ios": "https://dc.lft.to/lastmile_qr_scan", "android": "https://dc.lft.to/lastmile_qr_scan"}, "is_reserved": 0, "fusion_lat": 0.0, "lon": -77.00335283333334}, {"lat": 38.94469433333333, "type": "electric_bike", "is_disabled": 0, "name": "4ea6edb42c735c4413a3c5f12261a157", "bike_id": "4ea6edb42c735c4413a3c5f12261a157", "fusion_lon": 0.0, "rental_uris": {"ios": "https://dc.lft.to/lastmile_qr_scan", "android": "https://dc.lft.to/lastmile_qr_scan"}, "is_reserved": 0, "fusion_lat": 0.0, "lon": -76.98688716666666}, {"lat": 38.94176316666667, "type": "electric_scooter", "is_disabled": 0, "name": "ffdd76dceaeb7320185a2c9cb026be68", "bike_id": "ffdd76dceaeb7320185a2c9cb026be68", "fusion_lon": 0.0, "rental_uris": {"ios": "https://dc.lft.to/lastmile_qr_scan", "android": "https://dc.lft.to/lastmile_qr_scan"}, "is_reserved": 0, "fusion_lat": 0.0, "lon": -77.03149016666667}, {"lat": 38.942350166666664, "type": "electric_scooter", "is_disabled": 0, "name": "94c7407a0ee06a946a079907c9483cfc", "bike_id": "94c7407a0ee06a946a079907c9483cfc", "fusion_lon": 0.0, "rental_uris": {"ios": "https://dc.lft.to/lastmile_qr_scan", "android": "https://dc.lft.to/lastmile_qr_scan"}, "is_reserved": 0, "fusion_lat": 0.0, "lon": -77.02576066666667}, {"lat": 38.9298905, "type": "electric_scooter", "is_disabled": 0, "name": "8bbd117255372f05ab5f7c9f3dcd3d08", "bike_id": "8bbd117255372f05ab5f7c9f3dcd3d08", "fusion_lon": 0.0, "rental_uris": {"ios": "https://dc.lft.to/lastmile_qr_scan", "android": "https://dc.lft.to/lastmile_qr_scan"}, "is_reserved": 0, "fusion_lat": 0.0, "lon": -77.01209033333333}, {"lat": 38.9190685, "type": "electric_scooter", "is_disabled": 0, "name": "4a0d6b41be5840b2afdb6bf0b937622f", "bike_id": "4a0d6b41be5840b2afdb6bf0b937622f", "fusion_lon": 0.0, "rental_uris": {"ios": "https://dc.lft.to/lastmile_qr_scan", "android": "https://dc.lft.to/lastmile_qr_scan"}, "is_reserved": 0, "fusion_lat": 0.0, "lon": -77.029445}, {"lat": 38.920738, "type": "electric_scooter", "is_disabled": 0, "name": "0a758719022af2e2b2747a5553ccaae6", "bike_id": "0a758719022af2e2b2747a5553ccaae6", "fusion_lon": 0.0, "rental_uris": {"ios": "https://dc.lft.to/lastmile_qr_scan", "android": "https://dc.lft.to/lastmile_qr_scan"}, "is_reserved": 0, "fusion_lat": 0.0, "lon": -77.02303466666666}, {"lat": 38.90871633333333, "type": "electric_bike", "is_disabled": 0, "name": "478ca75cefa7e7d86d9c99cbc14c8f56", "bike_id": "478ca75cefa7e7d86d9c99cbc14c8f56", "fusion_lon": 0.0, "rental_uris": {"ios": "https://dc.lft.to/lastmile_qr_scan", "android": "https://dc.lft.to/lastmile_qr_scan"}, "is_reserved": 0, "fusion_lat": 0.0, "lon": -77.07648283333333}, {"lat": 38.99431116666667, "type": "electric_bike", "is_disabled": 0, "name": "fa88557d4bacdc59f9ba8d0a9c1681d8", "bike_id": "fa88557d4bacdc59f9ba8d0a9c1681d8", "fusion_lon": 0.0, "rental_uris": {"ios": "https://dc.lft.to/lastmile_qr_scan", "android": "https://dc.lft.to/lastmile_qr_scan"}, "is_reserved": 0, "fusion_lat": 0.0, "lon": -77.029062}, {"lat": 38.916037, "type": "electric_scooter", "is_disabled": 0, "name": "ef5ff4ddb97dc7ea83c2a134daf69ceb", "bike_id": "ef5ff4ddb97dc7ea83c2a134daf69ceb", "fusion_lon": 0.0, "rental_uris": {"ios": "https://dc.lft.to/lastmile_qr_scan", "android": "https://dc.lft.to/lastmile_qr_scan"}, "is_reserved": 0, "fusion_lat": 0.0, "lon": -77.039448}, {"lat": 38.90357233333334, "type": "electric_scooter", "is_disabled": 0, "name": "03754de42d6f520a7831b2a9917f4f82", "bike_id": "03754de42d6f520a7831b2a9917f4f82", "fusion_lon": 0.0, "rental_uris": {"ios": "https://dc.lft.to/lastmile_qr_scan", "android": "https://dc.lft.to/lastmile_qr_scan"}, "is_reserved": 0, "fusion_lat": 0.0, "lon": -77.03849966666667}, {"lat": 38.924134333333335, "type": "electric_scooter", "is_disabled": 0, "name": "e3156005157437a4c107c01570cbdd1a", "bike_id": "e3156005157437a4c107c01570cbdd1a", "fusion_lon": 0.0, "rental_uris": {"ios": "https://dc.lft.to/lastmile_qr_scan", "android": "https://dc.lft.to/lastmile_qr_scan"}, "is_reserved": 0, "fusion_lat": 0.0, "lon": -77.02015966666667}, {"lat": 38.89729616666666, "type": "electric_scooter", "is_disabled": 0, "name": "a6609739259d7c0ff705b0d0a599e69e", "bike_id": "a6609739259d7c0ff705b0d0a599e69e", "fusion_lon": 0.0, "rental_uris": {"ios": "https://dc.lft.to/lastmile_qr_scan", "android": "https://dc.lft.to/lastmile_qr_scan"}, "is_reserved": 0, "fusion_lat": 0.0, "lon": -77.03222}, {"lat": 38.90005516666667, "type": "electric_scooter", "is_disabled": 0, "name": "f22e205db31d5955c1654777dc97723c", "bike_id": "f22e205db31d5955c1654777dc97723c", "fusion_lon": 0.0, "rental_uris": {"ios": "https://dc.lft.to/lastmile_qr_scan", "android": "https://dc.lft.to/lastmile_qr_scan"}, "is_reserved": 0, "fusion_lat": 0.0, "lon": -77.046591}, {"lat": 38.91623516666667, "type": "electric_scooter", "is_disabled": 0, "name": "21ef3cdf5aa8d56b08bb08dc8c6c1b61", "bike_id": "21ef3cdf5aa8d56b08bb08dc8c6c1b61", "fusion_lon": 0.0, "rental_uris": {"ios": "https://dc.lft.to/lastmile_qr_scan", "android": "https://dc.lft.to/lastmile_qr_scan"}, "is_reserved": 0, "fusion_lat": 0.0, "lon": -77.02302266666666}, {"lat": 38.919735333333335, "type": "electric_scooter", "is_disabled": 0, "name": "b26b8c629108bfa0ae8715f6e7ab58e4", "bike_id": "b26b8c629108bfa0ae8715f6e7ab58e4", "fusion_lon": 0.0, "rental_uris": {"ios": "https://dc.lft.to/lastmile_qr_scan", "android": "https://dc.lft.to/lastmile_qr_scan"}, "is_reserved": 0, "fusion_lat": 0.0, "lon": -77.07117366666667}, {"lat": 38.9036485, "type": "electric_scooter", "is_disabled": 0, "name": "086f78c5074c7ee8e59db121ab210f36", "bike_id": "086f78c5074c7ee8e59db121ab210f36", "fusion_lon": 0.0, "rental_uris": {"ios": "https://dc.lft.to/lastmile_qr_scan", "android": "https://dc.lft.to/lastmile_qr_scan"}, "is_reserved": 0, "fusion_lat": 0.0, "lon": -77.01843666666667}, {"lat": 38.919231, "type": "electric_scooter", "is_disabled": 0, "name": "6663f3ed4d957aa5e365b73cf4aaa4fa", "bike_id": "6663f3ed4d957aa5e365b73cf4aaa4fa", "fusion_lon": 0.0, "rental_uris": {"ios": "https://dc.lft.to/lastmile_qr_scan", "android": "https://dc.lft.to/lastmile_qr_scan"}, "is_reserved": 0, "fusion_lat": 0.0, "lon": -77.03487066666666}, {"lat": 38.921427, "type": "electric_scooter", "is_disabled": 0, "name": "255003f279bdf2c533e3656bc289eb87", "bike_id": "255003f279bdf2c533e3656bc289eb87", "fusion_lon": 0.0, "rental_uris": {"ios": "https://dc.lft.to/lastmile_qr_scan", "android": "https://dc.lft.to/lastmile_qr_scan"}, "is_reserved": 0, "fusion_lat": 0.0, "lon": -77.03400316666666}, {"lat": 38.895632666666664, "type": "electric_scooter", "is_disabled": 0, "name": "b6ca86e98185f711ec5a360ceac77a9f", "bike_id": "b6ca86e98185f711ec5a360ceac77a9f", "fusion_lon": 0.0, "rental_uris": {"ios": "https://dc.lft.to/lastmile_qr_scan", "android": "https://dc.lft.to/lastmile_qr_scan"}, "is_reserved": 0, "fusion_lat": 0.0, "lon": -77.04155933333334}, {"lat": 38.923471, "type": "electric_scooter", "is_disabled": 0, "name": "8c6de1d66858e125e0b37cf36d09eb30", "bike_id": "8c6de1d66858e125e0b37cf36d09eb30", "fusion_lon": 0.0, "rental_uris": {"ios": "https://dc.lft.to/lastmile_qr_scan", "android": "https://dc.lft.to/lastmile_qr_scan"}, "is_reserved": 0, "fusion_lat": 0.0, "lon": -77.0189085}, {"lat": 38.884801, "type": "electric_scooter", "is_disabled": 0, "name": "230e0ab692643a0e512b770a7ed1375d", "bike_id": "230e0ab692643a0e512b770a7ed1375d", "fusion_lon": 0.0, "rental_uris": {"ios": "https://dc.lft.to/lastmile_qr_scan", "android": "https://dc.lft.to/lastmile_qr_scan"}, "is_reserved": 0, "fusion_lat": 0.0, "lon": -77.02651083333333}, {"lat": 38.90118666666667, "type": "electric_scooter", "is_disabled": 0, "name": "28b1d931754348c992ad2adef3cfdc46", "bike_id": "28b1d931754348c992ad2adef3cfdc46", "fusion_lon": 0.0, "rental_uris": {"ios": "https://dc.lft.to/lastmile_qr_scan", "android": "https://dc.lft.to/lastmile_qr_scan"}, "is_reserved": 0, "fusion_lat": 0.0, "lon": -77.0418475}, {"lat": 38.9007155, "type": "electric_scooter", "is_disabled": 0, "name": "4eb22715497fdd15edfbc86f2557a00b", "bike_id": "4eb22715497fdd15edfbc86f2557a00b", "fusion_lon": 0.0, "rental_uris": {"ios": "https://dc.lft.to/lastmile_qr_scan", "android": "https://dc.lft.to/lastmile_qr_scan"}, "is_reserved": 0, "fusion_lat": 0.0, "lon": -77.01302633333333}, {"lat": 38.921273166666666, "type": "electric_scooter", "is_disabled": 0, "name": "cbf7585c7787280b220db06ca728adb3", "bike_id": "cbf7585c7787280b220db06ca728adb3", "fusion_lon": 0.0, "rental_uris": {"ios": "https://dc.lft.to/lastmile_qr_scan", "android": "https://dc.lft.to/lastmile_qr_scan"}, "is_reserved": 0, "fusion_lat": 0.0, "lon": -77.01787116666667}, {"lat": 38.93453733333333, "type": "electric_scooter", "is_disabled": 0, "name": "46a93f19892aeb114752573a0cfcb4d2", "bike_id": "46a93f19892aeb114752573a0cfcb4d2", "fusion_lon": 0.0, "rental_uris": {"ios": "https://dc.lft.to/lastmile_qr_scan", "android": "https://dc.lft.to/lastmile_qr_scan"}, "is_reserved": 0, "fusion_lat": 0.0, "lon": -77.03493883333333}, {"lat": 38.892331666666664, "type": "electric_scooter", "is_disabled": 0, "name": "83029911f9075e4b73f8b28b3d94090e", "bike_id": "83029911f9075e4b73f8b28b3d94090e", "fusion_lon": 0.0, "rental_uris": {"ios": "https://dc.lft.to/lastmile_qr_scan", "android": "https://dc.lft.to/lastmile_qr_scan"}, "is_reserved": 0, "fusion_lat": 0.0, "lon": -77.0322275}, {"lat": 38.880414, "type": "electric_scooter", "is_disabled": 0, "name": "0602573de12b3eff9ab31efe84c32632", "bike_id": "0602573de12b3eff9ab31efe84c32632", "fusion_lon": 0.0, "rental_uris": {"ios": "https://dc.lft.to/lastmile_qr_scan", "android": "https://dc.lft.to/lastmile_qr_scan"}, "is_reserved": 0, "fusion_lat": 0.0, "lon": -76.92720416666667}, {"lat": 38.92675583333333, "type": "electric_scooter", "is_disabled": 0, "name": "7cbb78873d0dd7f79c603dd33b0c1be2", "bike_id": "7cbb78873d0dd7f79c603dd33b0c1be2", "fusion_lon": 0.0, "rental_uris": {"ios": "https://dc.lft.to/lastmile_qr_scan", "android": "https://dc.lft.to/lastmile_qr_scan"}, "is_reserved": 0, "fusion_lat": 0.0, "lon": -77.02584683333333}, {"lat": 38.900875666666664, "type": "electric_scooter", "is_disabled": 0, "name": "0f0f1e45326025738ca334a86087693d", "bike_id": "0f0f1e45326025738ca334a86087693d", "fusion_lon": 0.0, "rental_uris": {"ios": "https://dc.lft.to/lastmile_qr_scan", "android": "https://dc.lft.to/lastmile_qr_scan"}, "is_reserved": 0, "fusion_lat": 0.0, "lon": -77.031609}, {"lat": 38.919235, "type": "electric_scooter", "is_disabled": 0, "name": "75b7d12816bbc79102b2397b02f4ecaa", "bike_id": "75b7d12816bbc79102b2397b02f4ecaa", "fusion_lon": 0.0, "rental_uris": {"ios": "https://dc.lft.to/lastmile_qr_scan", "android": "https://dc.lft.to/lastmile_qr_scan"}, "is_reserved": 0, "fusion_lat": 0.0, "lon": -77.0192805}, {"lat": 38.9223535, "type": "electric_scooter", "is_disabled": 0, "name": "2fcd56d5f751c84f5516cdb58f9d293a", "bike_id": "2fcd56d5f751c84f5516cdb58f9d293a", "fusion_lon": 0.0, "rental_uris": {"ios": "https://dc.lft.to/lastmile_qr_scan", "android": "https://dc.lft.to/lastmile_qr_scan"}, "is_reserved": 0, "fusion_lat": 0.0, "lon": -77.0366055}, {"lat": 38.9035965, "type": "electric_scooter", "is_disabled": 0, "name": "ec8e014efd38770408cb5eeaaf6bb371", "bike_id": "ec8e014efd38770408cb5eeaaf6bb371", "fusion_lon": 0.0, "rental_uris": {"ios": "https://dc.lft.to/lastmile_qr_scan", "android": "https://dc.lft.to/lastmile_qr_scan"}, "is_reserved": 0, "fusion_lat": 0.0, "lon": -77.044993}, {"lat": 38.920557333333335, "type": "electric_scooter", "is_disabled": 0, "name": "4aaa39a18c8d59a5eb236ff8132956d1", "bike_id": "4aaa39a18c8d59a5eb236ff8132956d1", "fusion_lon": 0.0, "rental_uris": {"ios": "https://dc.lft.to/lastmile_qr_scan", "android": "https://dc.lft.to/lastmile_qr_scan"}, "is_reserved": 0, "fusion_lat": 0.0, "lon": -77.025115}, {"lat": 38.857945, "type": "electric_scooter", "is_disabled": 0, "name": "7c61fcf51db903e323f112d97e536e07", "bike_id": "7c61fcf51db903e323f112d97e536e07", "fusion_lon": 0.0, "rental_uris": {"ios": "https://dc.lft.to/lastmile_qr_scan", "android": "https://dc.lft.to/lastmile_qr_scan"}, "is_reserved": 0, "fusion_lat": 0.0, "lon": -76.98909583333334}, {"lat": 38.857093166666665, "type": "electric_scooter", "is_disabled": 0, "name": "124e94e53ced3035ea564b9ef6bd47df", "bike_id": "124e94e53ced3035ea564b9ef6bd47df", "fusion_lon": 0.0, "rental_uris": {"ios": "https://dc.lft.to/lastmile_qr_scan", "android": "https://dc.lft.to/lastmile_qr_scan"}, "is_reserved": 0, "fusion_lat": 0.0, "lon": -76.981294}, {"lat": 38.90501033333334, "type": "electric_scooter", "is_disabled": 0, "name": "1fe7cedc6a6566593ddd512c103e144b", "bike_id": "1fe7cedc6a6566593ddd512c103e144b", "fusion_lon": 0.0, "rental_uris": {"ios": "https://dc.lft.to/lastmile_qr_scan", "android": "https://dc.lft.to/lastmile_qr_scan"}, "is_reserved": 0, "fusion_lat": 0.0, "lon": -77.02716966666667}, {"lat": 38.922498833333336, "type": "electric_scooter", "is_disabled": 0, "name": "6e8984b494d9bfd140318539b1f86efa", "bike_id": "6e8984b494d9bfd140318539b1f86efa", "fusion_lon": 0.0, "rental_uris": {"ios": "https://dc.lft.to/lastmile_qr_scan", "android": "https://dc.lft.to/lastmile_qr_scan"}, "is_reserved": 0, "fusion_lat": 0.0, "lon": -77.03062516666667}, {"lat": 38.89609, "type": "electric_scooter", "is_disabled": 0, "name": "39822a3e7778246758644bb3e560229c", "bike_id": "39822a3e7778246758644bb3e560229c", "fusion_lon": 0.0, "rental_uris": {"ios": "https://dc.lft.to/lastmile_qr_scan", "android": "https://dc.lft.to/lastmile_qr_scan"}, "is_reserved": 0, "fusion_lat": 0.0, "lon": -77.04513616666667}, {"lat": 38.90214983333333, "type": "electric_scooter", "is_disabled": 0, "name": "461abc25bd1f00b83963cb092dfff8ef", "bike_id": "461abc25bd1f00b83963cb092dfff8ef", "fusion_lon": 0.0, "rental_uris": {"ios": "https://dc.lft.to/lastmile_qr_scan", "android": "https://dc.lft.to/lastmile_qr_scan"}, "is_reserved": 0, "fusion_lat": 0.0, "lon": -77.00884183333334}, {"lat": 38.90818266666667, "type": "electric_scooter", "is_disabled": 0, "name": "b8ad21e450540e9dc38800af53176945", "bike_id": "b8ad21e450540e9dc38800af53176945", "fusion_lon": 0.0, "rental_uris": {"ios": "https://dc.lft.to/lastmile_qr_scan", "android": "https://dc.lft.to/lastmile_qr_scan"}, "is_reserved": 0, "fusion_lat": 0.0, "lon": -77.0394405}, {"lat": 38.895786666666666, "type": "electric_scooter", "is_disabled": 0, "name": "de014241072a0287499138f771c4ca77", "bike_id": "de014241072a0287499138f771c4ca77", "fusion_lon": 0.0, "rental_uris": {"ios": "https://dc.lft.to/lastmile_qr_scan", "android": "https://dc.lft.to/lastmile_qr_scan"}, "is_reserved": 0, "fusion_lat": 0.0, "lon": -77.03184366666666}, {"lat": 38.88049216666667, "type": "electric_scooter", "is_disabled": 0, "name": "d57ced67d35fe64d746d02354a2f4927", "bike_id": "d57ced67d35fe64d746d02354a2f4927", "fusion_lon": 0.0, "rental_uris": {"ios": "https://dc.lft.to/lastmile_qr_scan", "android": "https://dc.lft.to/lastmile_qr_scan"}, "is_reserved": 0, "fusion_lat": 0.0, "lon": -77.01165933333333}, {"lat": 38.88486966666667, "type": "electric_scooter", "is_disabled": 0, "name": "5e9ee487fda828606d218e03e562efef", "bike_id": "5e9ee487fda828606d218e03e562efef", "fusion_lon": 0.0, "rental_uris": {"ios": "https://dc.lft.to/lastmile_qr_scan", "android": "https://dc.lft.to/lastmile_qr_scan"}, "is_reserved": 0, "fusion_lat": 0.0, "lon": -77.02090533333333}, {"lat": 38.92257983333333, "type": "electric_scooter", "is_disabled": 0, "name": "8ba4c178ed29c8d887e8f8adef2600a6", "bike_id": "8ba4c178ed29c8d887e8f8adef2600a6", "fusion_lon": 0.0, "rental_uris": {"ios": "https://dc.lft.to/lastmile_qr_scan", "android": "https://dc.lft.to/lastmile_qr_scan"}, "is_reserved": 0, "fusion_lat": 0.0, "lon": -77.01946266666667}, {"lat": 38.90610266666667, "type": "electric_bike", "is_disabled": 0, "name": "9219cd67efa14ae1fbb0f63748513acb", "bike_id": "9219cd67efa14ae1fbb0f63748513acb", "fusion_lon": 0.0, "rental_uris": {"ios": "https://dc.lft.to/lastmile_qr_scan", "android": "https://dc.lft.to/lastmile_qr_scan"}, "is_reserved": 0, "fusion_lat": 0.0, "lon": -77.128934}, {"lat": 38.903632, "type": "electric_scooter", "is_disabled": 0, "name": "998b7153f1f39f37fdfa73921113b02c", "bike_id": "998b7153f1f39f37fdfa73921113b02c", "fusion_lon": 0.0, "rental_uris": {"ios": "https://dc.lft.to/lastmile_qr_scan", "android": "https://dc.lft.to/lastmile_qr_scan"}, "is_reserved": 0, "fusion_lat": 0.0, "lon": -77.01867733333333}, {"lat": 38.928872166666665, "type": "electric_scooter", "is_disabled": 0, "name": "be43143404e84104f858b114907fdbde", "bike_id": "be43143404e84104f858b114907fdbde", "fusion_lon": 0.0, "rental_uris": {"ios": "https://dc.lft.to/lastmile_qr_scan", "android": "https://dc.lft.to/lastmile_qr_scan"}, "is_reserved": 0, "fusion_lat": 0.0, "lon": -77.03484583333334}, {"lat": 38.904379, "type": "electric_scooter", "is_disabled": 0, "name": "968072ba6429e9547eae790b06945d72", "bike_id": "968072ba6429e9547eae790b06945d72", "fusion_lon": 0.0, "rental_uris": {"ios": "https://dc.lft.to/lastmile_qr_scan", "android": "https://dc.lft.to/lastmile_qr_scan"}, "is_reserved": 0, "fusion_lat": 0.0, "lon": -77.053224},