{"data": {"bikes": [{"rental_uris": {"ios": "https://dc.lft.to/lastmile_qr_scan", "android": "https://dc.lft.to/lastmile_qr_scan"}, "lon": -77.02433833333333, "type": "electric_scooter", "fusion_lat": 0.0, "lat": 38.926509, "name": "82a060b28fb8df265a117cca595929a7", "fusion_lon": 0.0, "bike_id": "82a060b28fb8df265a117cca595929a7", "is_disabled": 0, "is_reserved": 0}, {"rental_uris": {"ios": "https://dc.lft.to/lastmile_qr_scan", "android": "https://dc.lft.to/lastmile_qr_scan"}, "lon": -76.98712566666667, "type": "electric_scooter", "fusion_lat": 0.0, "lat": 38.86703166666667, "name": "603fa1a47e49da2ed693dbd77f674b5a", "fusion_lon": 0.0, "bike_id": "603fa1a47e49da2ed693dbd77f674b5a", "is_disabled": 0, "is_reserved": 0}, {"rental_uris": {"ios": "https://dc.lft.to/lastmile_qr_scan", "android": "https://dc.lft.to/lastmile_qr_scan"}, "lon": -76.93171166666667, "type": "electric_scooter", "fusion_lat": 0.0, "lat": 38.89887516666667, "name": "d321e34474c89d944569bd402cbf1ad8", "fusion_lon": 0.0, "bike_id": "d321e34474c89d944569bd402cbf1ad8", "is_disabled": 0, "is_reserved": 0}, {"rental_uris": {"ios": "https://dc.lft.to/lastmile_qr_scan", "android": "https://dc.lft.to/lastmile_qr_scan"}, "lon": -77.04668933333333, "type": "electric_scooter", "fusion_lat": 0.0, "lat": 38.905364666666664, "name": "64678f73213f1fe99a19e8c579eb0a13", "fusion_lon": 0.0, "bike_id": "64678f73213f1fe99a19e8c579eb0a13", "is_disabled": 0, "is_reserved": 0}, {"rental_uris": {"ios": "https://dc.lft.to/lastmile_qr_scan", "android": "https://dc.lft.to/lastmile_qr_scan"}, "lon": -77.02951566666667, "type": "electric_scooter", "fusion_lat": 0.0, "lat": 38.905034666666666, "name": "5d387042bcbe9cc6457384308ee9fae4", "fusion_lon": 0.0, "bike_id": "5d387042bcbe9cc6457384308ee9fae4", "is_disabled": 0, "is_reserved": 0}, {"rental_uris": {"ios": "https://dc.lft.to/lastmile_qr_scan", "android": "https://dc.lft.to/lastmile_qr_scan"}, "lon": -77.12625916666667, "type": "electric_bike", "fusion_lat": 0.0, "lat": 39.05812183333333, "name": "df110ad3fce4018235c838ea2e03c2a8", "fusion_lon": 0.0, "bike_id": "df110ad3fce4018235c838ea2e03c2a8", "is_disabled": 0, "is_reserved": 0}, {"rental_uris": {"ios": "https://dc.lft.to/lastmile_qr_scan", "android": "https://dc.lft.to/lastmile_qr_scan"}, "lon": -77.01413383333333, "type": "electric_scooter", "fusion_lat": 0.0, "lat": 38.9284045, "name": "30e52805e143c9712130e3b7de07dc83", "fusion_lon": 0.0, "bike_id": "30e52805e143c9712130e3b7de07dc83", "is_disabled": 0, "is_reserved": 0}, {"rental_uris": {"ios": "https://dc.lft.to/lastmile_qr_scan", "android": "https://dc.lft.to/lastmile_qr_scan"}, "lon": -77.17846883333333, "type": "electric_bike", "fusion_lat": 0.0, "lat": 39.08903683333333, "name": "27826a3a7f1d7c6c30a5feaad80c6ffb", "fusion_lon": 0.0, "bike_id": "27826a3a7f1d7c6c30a5feaad80c6ffb", "is_disabled": 0, "is_reserved": 0}, {"rental_uris": {"ios": "https://dc.lft.to/lastmile_qr_scan", "android": "https://dc.lft.to/lastmile_qr_scan"}, "lon": -76.9782455, "type": "electric_bike", "fusion_lat": 0.0, "lat": 38.8461135, "name": "a50e30dd71a0b279445ba437b0f2ba52", "fusion_lon": 0.0, "bike_id": "a50e30dd71a0b279445ba437b0f2ba52", "is_disabled": 0, "is_reserved": 0}, {"rental_uris": {"ios": "https://dc.lft.to/lastmile_qr_scan", "android": "https://dc.lft.to/lastmile_qr_scan"}, "lon": -76.93159816666666, "type": "electric_bike", "fusion_lat": 0.0, "lat": 38.908629, "name": "d52277e43d7ed5e22d299a3b45e70bec", "fusion_lon": 0.0, "bike_id": "d52277e43d7ed5e22d299a3b45e70bec", "is_disabled": 0, "is_reserved": 0}, {"rental_uris": {"ios": "https://dc.lft.to/lastmile_qr_scan", "android": "https://dc.lft.to/lastmile_qr_scan"}, "lon": -76.99062016666667, "type": "electric_scooter", "fusion_lat": 0.0, "lat": 38.863594, "name": "a48eb1386f97a6881dc610afa2ab56d8", "fusion_lon": 0.0, "bike_id": "a48eb1386f97a6881dc610afa2ab56d8", "is_disabled": 0, "is_reserved": 0}, {"rental_uris": {"ios": "https://dc.lft.to/lastmile_qr_scan", "android": "https://dc.lft.to/lastmile_qr_scan"}, "lon": -76.9700595, "type": "electric_bike", "fusion_lat": 0.0, "lat": 38.8636835, "name": "5ed39a3b2677a03f7942084d35d72e26", "fusion_lon": 0.0, "bike_id": "5ed39a3b2677a03f7942084d35d72e26", "is_disabled": 0, "is_reserved": 0}, {"rental_uris": {"ios": "https://dc.lft.to/lastmile_qr_scan", "android": "https://dc.lft.to/lastmile_qr_scan"}, "lon": -77.0223485, "type": "electric_scooter", "fusion_lat": 0.0, "lat": 38.92453, "name": "f0bbadbaf04d63d02e1b39a47d9bae73", "fusion_lon": 0.0, "bike_id": "f0bbadbaf04d63d02e1b39a47d9bae73", "is_disabled": 0, "is_reserved": 0}, {"rental_uris": {"ios": "https://dc.lft.to/lastmile_qr_scan", "android": "https://dc.lft.to/lastmile_qr_scan"}, "lon": -77.02012583333334, "type": "electric_scooter", "fusion_lat": 0.0, "lat": 38.899140833333334, "name": "8ec82549ca25371728b35ca5d07bf665", "fusion_lon": 0.0, "bike_id": "8ec82549ca25371728b35ca5d07bf665", "is_disabled": 0, "is_reserved": 0}, {"rental_uris": {"ios": "https://dc.lft.to/lastmile_qr_scan", "android": "https://dc.lft.to/lastmile_qr_scan"}, "lon": -77.0037405, "type": "electric_bike", "fusion_lat": 0.0, "lat": 38.836053666666665, "name": "84a35e44812c014ea4e3a7f9e9c7cc00", "fusion_lon": 0.0, "bike_id": "84a35e44812c014ea4e3a7f9e9c7cc00", "is_disabled": 0, "is_reserved": 0}, {"rental_uris": {"ios": "https://dc.lft.to/lastmile_qr_scan", "android": "https://dc.lft.to/lastmile_qr_scan"}, "lon": -77.04017233333333, "type": "electric_scooter", "fusion_lat": 0.0, "lat": 38.92177683333333, "name": "6feb135d56d2fbe8b46737f9e7f34596", "fusion_lon": 0.0, "bike_id": "6feb135d56d2fbe8b46737f9e7f34596", "is_disabled": 0, "is_reserved": 0}, {"rental_uris": {"ios": "https://dc.lft.to/lastmile_qr_scan", "android": "https://dc.lft.to/lastmile_qr_scan"}, "lon": -77.02808416666667, "type": "electric_scooter", "fusion_lat": 0.0, "lat": 38.96138066666666, "name": "b4ff5059a7a0e76c456f34db21758afa", "fusion_lon": 0.0, "bike_id": "b4ff5059a7a0e76c456f34db21758afa", "is_disabled": 0, "is_reserved": 0}, {"rental_uris": {"ios": "https://dc.lft.to/lastmile_qr_scan", "android": "https://dc.lft.to/lastmile_qr_scan"}, "lon": -77.04425466666666, "type": "electric_scooter", "fusion_lat": 0.0, "lat": 38.91125616666667, "name": "cda1c4ed8e7d763b6964c97160ebdabf", "fusion_lon": 0.0, "bike_id": "cda1c4ed8e7d763b6964c97160ebdabf", "is_disabled": 0, "is_reserved": 0}, {"rental_uris": {"ios": "https://dc.lft.to/lastmile_qr_scan", "android": "https://dc.lft.to/lastmile_qr_scan"}, "lon": -77.06327916666666, "type": "electric_bike", "fusion_lat": 0.0, "lat": 38.9210865, "name": "1baa4dd22c6109b2b630db0a0ca1d7f7", "fusion_lon": 0.0, "bike_id": "1baa4dd22c6109b2b630db0a0ca1d7f7", "is_disabled": 0, "is_reserved": 0}, {"rental_uris": {"ios": "https://dc.lft.to/lastmile_qr_scan", "android": "https://dc.lft.to/lastmile_qr_scan"}, "lon": -77.06166116666667, "type": "electric_scooter", "fusion_lat": 0.0, "lat": 38.94807516666667, "name": "9dcabb69729ab628d0b50f8f70d00ab1", "fusion_lon": 0.0, "bike_id": "9dcabb69729ab628d0b50f8f70d00ab1", "is_disabled": 0, "is_reserved": 0}, {"rental_uris": {"ios": "https://dc.lft.to/lastmile_qr_scan", "android": "https://dc.lft.to/lastmile_qr_scan"}, "lon": -77.04345383333333, "type": "electric_scooter", "fusion_lat": 0.0, "lat": 38.91180266666667, "name": "2d652ec8ba74670d0741506527686a79", "fusion_lon": 0.0, "bike_id": "2d652ec8ba74670d0741506527686a79", "is_disabled": 0, "is_reserved": 0}, {"rental_uris": {"ios": "https://dc.lft.to/lastmile_qr_scan", "android": "https://dc.lft.to/lastmile_qr_scan"}, "lon": -77.04157633333334, "type": "electric_scooter", "fusion_lat": 0.0, "lat": 38.91419833333333, "name": "5862979f5188b7d4e10cdf0e2707d880", "fusion_lon": 0.0, "bike_id": "5862979f5188b7d4e10cdf0e2707d880", "is_disabled": 0, "is_reserved": 0}, {"rental_uris": {"ios": "https://dc.lft.to/lastmile_qr_scan", "android": "https://dc.lft.to/lastmile_qr_scan"}, "lon": -77.03589433333333, "type": "electric_scooter", "fusion_lat": 0.0, "lat": 38.932333166666666, "name": "01fbad6b1244b2c1c4773daf15a96ab5", "fusion_lon": 0.0, "bike_id": "01fbad6b1244b2c1c4773daf15a96ab5", "is_disabled": 0, "is_reserved": 0}, {"rental_uris": {"ios": "https://dc.lft.to/lastmile_qr_scan", "android": "https://dc.lft.to/lastmile_qr_scan"}, "lon": -77.04815283333333, "type": "electric_scooter", "fusion_lat": 0.0, "lat": 38.907947, "name": "1c4ea2c1eec518da4f564a1db32bf154", "fusion_lon": 0.0, "bike_id": "1c4ea2c1eec518da4f564a1db32bf154", "is_disabled": 0, "is_reserved": 0}, {"rental_uris": {"ios": "https://dc.lft.to/lastmile_qr_scan", "android": "https://dc.lft.to/lastmile_qr_scan"}, "lon": -76.94631516666666, "type": "electric_scooter", "fusion_lat": 0.0, "lat": 38.89844216666667, "name": "fe8769ac47f07dfcc1069623c1f7bedf", "fusion_lon": 0.0, "bike_id": "fe8769ac47f07dfcc1069623c1f7bedf", "is_disabled": 0, "is_reserved": 0}, {"rental_uris": {"ios": "https://dc.lft.to/lastmile_qr_scan", "android": "https://dc.lft.to/lastmile_qr_scan"}, "lon": -77.0216845, "type": "electric_scooter", "fusion_lat": 0.0, "lat": 38.94294683333333, "name": "13a8801dc50f46d62292a1f3308ae9a5", "fusion_lon": 0.0, "bike_id": "13a8801dc50f46d62292a1f3308ae9a5", "is_disabled": 0, "is_reserved": 0}, {"rental_uris": {"ios": "https://dc.lft.to/lastmile_qr_scan", "android": "https://dc.lft.to/lastmile_qr_scan"}, "lon": -77.03356116666667, "type": "electric_scooter", "fusion_lat": 0.0, "lat": 38.8924135, "name": "ac9ff5d71b6a266893ca5ceee16d7378", "fusion_lon": 0.0, "bike_id": "ac9ff5d71b6a266893ca5ceee16d7378", "is_disabled": 0, "is_reserved": 0}, {"rental_uris": {"ios": "https://dc.lft.to/lastmile_qr_scan", "android": "https://dc.lft.to/lastmile_qr_scan"}, "lon": -77.03175616666667, "type": "electric_scooter", "fusion_lat": 0.0, "lat": 38.913387666666665, "name": "53c2951366c11d599a8b41ac8c45d45a", "fusion_lon": 0.0, "bike_id": "53c2951366c11d599a8b41ac8c45d45a", "is_disabled": 0, "is_reserved": 0}, {"rental_uris": {"ios": "https://dc.lft.to/lastmile_qr_scan", "android": "https://dc.lft.to/lastmile_qr_scan"}, "lon": -77.0659435, "type": "electric_scooter", "fusion_lat": 0.0, "lat": 38.90346516666666, "name": "e938cb056dc837083db67a7ff181374d", "fusion_lon": 0.0, "bike_id": "e938cb056dc837083db67a7ff181374d", "is_disabled": 0, "is_reserved": 0}, {"rental_uris": {"ios": "https://dc.lft.to/lastmile_qr_scan", "android": "https://dc.lft.to/lastmile_qr_scan"}, "lon": -77.04870683333333, "type": "electric_scooter", "fusion_lat": 0.0, "lat": 38.90089483333333, "name": "72baac41003af2a0ee501a6da64771d6", "fusion_lon": 0.0, "bike_id": "72baac41003af2a0ee501a6da64771d6", "is_disabled": 0, "is_reserved": 0}, {"rental_uris": {"ios": "https://dc.lft.to/lastmile_qr_scan", "android": "https://dc.lft.to/lastmile_qr_scan"}, "lon": -77.0330915, "type": "electric_scooter", "fusion_lat": 0.0, "lat": 38.909725333333334, "name": "496f45518c0a4625e50bc53b6c96c4e4", "fusion_lon": 0.0, "bike_id": "496f45518c0a4625e50bc53b6c96c4e4", "is_disabled": 0, "is_reserved": 0}, {"rental_uris": {"ios": "https://dc.lft.to/lastmile_qr_scan", "android": "https://dc.lft.to/lastmile_qr_scan"}, "lon": -77.1071265, "type": "electric_bike", "fusion_lat": 0.0, "lat": 38.855365, "name": "fa3ced87637c9f737e9b8618f7b67703", "fusion_lon": 0.0, "bike_id": "fa3ced87637c9f737e9b8618f7b67703", "is_disabled": 0, "is_reserved": 0}, {"rental_uris": {"ios": "https://dc.lft.to/lastmile_qr_scan", "android": "https://dc.lft.to/lastmile_qr_scan"}, "lon": -77.02124266666667, "type": "electric_scooter", "fusion_lat": 0.0, "lat": 38.89727883333333, "name": "d93671eed7ef1727a6c77e879761e379", "fusion_lon": 0.0, "bike_id": "d93671eed7ef1727a6c77e879761e379", "is_disabled": 0, "is_reserved": 0}, {"rental_uris": {"ios": "https://dc.lft.to/lastmile_qr_scan", "android": "https://dc.lft.to/lastmile_qr_scan"}, "lon": -77.07091633333333, "type": "electric_scooter", "fusion_lat": 0.0, "lat": 38.899126, "name": "b846ec108eea8553dcaf21507667747e", "fusion_lon": 0.0, "bike_id": "b846ec108eea8553dcaf21507667747e", "is_disabled": 0, "is_reserved": 0}, {"rental_uris": {"ios": "https://dc.lft.to/lastmile_qr_scan", "android": "https://dc.lft.to/lastmile_qr_scan"}, "lon": -77.07601283333334, "type": "electric_scooter", "fusion_lat": 0.0, "lat": 38.9121235, "name": "4b993b1582d0a0f77322607c3b84834b", "fusion_lon": 0.0, "bike_id": "4b993b1582d0a0f77322607c3b84834b", "is_disabled": 0, "is_reserved": 0}, {"rental_uris": {"ios": "https://dc.lft.to/lastmile_qr_scan", "android": "https://dc.lft.to/lastmile_qr_scan"}, "lon": -76.95410066666666, "type": "electric_scooter", "fusion_lat": 0.0, "lat": 38.8899925, "name": "3b0d8e187d526ba8338c74e93a1200f3", "fusion_lon": 0.0, "bike_id": "3b0d8e187d526ba8338c74e93a1200f3", "is_disabled": 0, "is_reserved": 0}, {"rental_uris": {"ios": "https://dc.lft.to/lastmile_qr_scan", "android": "https://dc.lft.to/lastmile_qr_scan"}, "lon": -77.03651533333333, "type": "electric_scooter", "fusion_lat": 0.0, "lat": 38.955039666666664, "name": "fe61e188ee7edd01fe5df5c1f02390cb", "fusion_lon": 0.0, "bike_id": "fe61e188ee7edd01fe5df5c1f02390cb", "is_disabled": 0, "is_reserved": 0}, {"rental_uris": {"ios": "https://dc.lft.to/lastmile_qr_scan", "android": "https://dc.lft.to/lastmile_qr_scan"}, "lon": -77.03402083333333, "type": "electric_scooter", "fusion_lat": 0.0, "lat": 38.922711166666666, "name": "297237eda9ed225e8aa51d3c9390dc41", "fusion_lon": 0.0, "bike_id": "297237eda9ed225e8aa51d3c9390dc41", "is_disabled": 0, "is_reserved": 0}, {"rental_uris": {"ios": "https://dc.lft.to/lastmile_qr_scan", "android": "https://dc.lft.to/lastmile_qr_scan"}, "lon": -77.05212666666667, "type": "electric_scooter", "fusion_lat": 0.0, "lat": 38.9259025, "name": "b22e372b41d856fb0db7ebbb9da7591a", "fusion_lon": 0.0, "bike_id": "b22e372b41d856fb0db7ebbb9da7591a", "is_disabled": 0, "is_reserved": 0}, {"rental_uris": {"ios": "https://dc.lft.to/lastmile_qr_scan", "android": "https://dc.lft.to/lastmile_qr_scan"}, "lon": -77.04198133333334, "type": "electric_scooter", "fusion_lat": 0.0, "lat": 38.9073695, "name": "6b03de902a13dff85ec75394b9718954", "fusion_lon": 0.0, "bike_id": "6b03de902a13dff85ec75394b9718954", "is_disabled": 0, "is_reserved": 0}, {"rental_uris": {"ios": "https://dc.lft.to/lastmile_qr_scan", "android": "https://dc.lft.to/lastmile_qr_scan"}, "lon": -77.12499033333333, "type": "electric_bike", "fusion_lat": 0.0, "lat": 39.02430833333333, "name": "1f44d7ad0e8ea63f88962d1c5a706cfc", "fusion_lon": 0.0, "bike_id": "1f44d7ad0e8ea63f88962d1c5a706cfc", "is_disabled": 0, "is_reserved": 0}, {"rental_uris": {"ios": "https://dc.lft.to/lastmile_qr_scan", "android": "https://dc.lft.to/lastmile_qr_scan"}, "lon": -77.0562015, "type": "electric_scooter", "fusion_lat": 0.0, "lat": 38.90609033333333, "name": "bb6068a87007d8d36cb49b0bf5e00887", "fusion_lon": 0.0, "bike_id": "bb6068a87007d8d36cb49b0bf5e00887", "is_disabled": 0, "is_reserved": 0}, {"rental_uris": {"ios": "https://dc.lft.to/lastmile_qr_scan", "android": "https://dc.lft.to/lastmile_qr_scan"}, "lon": -77.04126583333333, "type": "electric_scooter", "fusion_lat": 0.0, "lat": 38.900088, "name": "919df6a4952447d9ffabba95ac4a74dc", "fusion_lon": 0.0, "bike_id": "919df6a4952447d9ffabba95ac4a74dc", "is_disabled": 0, "is_reserved": 0}, {"rental_uris": {"ios": "https://dc.lft.to/lastmile_qr_scan", "android": "https://dc.lft.to/lastmile_qr_scan"}, "lon": -76.9575555, "type": "electric_scooter", "fusion_lat": 0.0, "lat": 38.8842725, "name": "81ee519a5e4d667ddbbb7ea4a0bc1cf0", "fusion_lon": 0.0, "bike_id": "81ee519a5e4d667ddbbb7ea4a0bc1cf0", "is_disabled": 0, "is_reserved": 0}, {"rental_uris": {"ios": "https://dc.lft.to/lastmile_qr_scan", "android": "https://dc.lft.to/lastmile_qr_scan"}, "lon": -77.03935133333333, "type": "electric_scooter", "fusion_lat": 0.0, "lat": 38.899251166666666, "name": "fc685ddfebda08507d7076a9699a405e", "fusion_lon": 0.0, "bike_id": "fc685ddfebda08507d7076a9699a405e", "is_disabled": 0, "is_reserved": 0}, {"rental_uris": {"ios": "https://dc.lft.to/lastmile_qr_scan", "android": "https://dc.lft.to/lastmile_qr_scan"}, "lon": -77.04507866666667, "type": "electric_scooter", "fusion_lat": 0.0, "lat": 38.91187033333333, "name": "2a4ffe5968fc726cf9827e63dd9594f9", "fusion_lon": 0.0, "bike_id": "2a4ffe5968fc726cf9827e63dd9594f9", "is_disabled": 0, "is_reserved": 0}, {"rental_uris": {"ios": "https://dc.lft.to/lastmile_qr_scan", "android": "https://dc.lft.to/lastmile_qr_scan"}, "lon": -76.9989375, "type": "electric_scooter", "fusion_lat": 0.0, "lat": 38.907458, "name": "bb04aabf4425b4a016830ae32c787afc", "fusion_lon": 0.0, "bike_id": "bb04aabf4425b4a016830ae32c787afc", "is_disabled": 0, "is_reserved": 0}, {"rental_uris": {"ios": "https://dc.lft.to/lastmile_qr_scan", "android": "https://dc.lft.to/lastmile_qr_scan"}, "lon": -77.04331466666666, "type": "electric_scooter", "fusion_lat": 0.0, "lat": 38.908108, "name": "22d2d3f3e69cc7619c9ffd70c95b389e", "fusion_lon": 0.0, "bike_id": "22d2d3f3e69cc7619c9ffd70c95b389e", "is_disabled": 0, "is_reserved": 0}, {"rental_uris": {"ios": "https://dc.lft.to/lastmile_qr_scan", "android": "https://dc.lft.to/lastmile_qr_scan"}, "lon": -76.94624, "type": "electric_bike", "fusion_lat": 0.0, "lat": 38.9462655, "name": "e8b0d0a2763c3ea334c7eaddcf89de3b", "fusion_lon": 0.0, "bike_id": "e8b0d0a2763c3ea334c7eaddcf89de3b", "is_disabled": 0, "is_reserved": 0}, {"rental_uris": {"ios": "https://dc.lft.to/lastmile_qr_scan", "android": "https://dc.lft.to/lastmile_qr_scan"}, "lon": -77.02637833333333, "type": "electric_scooter", "fusion_lat": 0.0, "lat": 38.895743833333334, "name": "62e041f06b82f7c799aa6d4b81b80362", "fusion_lon": 0.0, "bike_id": "62e041f06b82f7c799aa6d4b81b80362", "is_disabled": 0, "is_reserved": 0}, {"rental_uris": {"ios": "https://dc.lft.to/lastmile_qr_scan", "android": "https://dc.lft.to/lastmile_qr_scan"}, "lon": -77.049993, "type": "electric_scooter", "fusion_lat": 0.0, "lat": 38.892320166666664, "name": "d13a9207eba3abda003522c0839aad2c", "fusion_lon": 0.0, "bike_id": "d13a9207eba3abda003522c0839aad2c", "is_disabled": 0, "is_reserved": 0}, {"rental_uris": {"ios": "https://dc.lft.to/lastmile_qr_scan", "android": "https://dc.lft.to/lastmile_qr_scan"}, "lon": -77.0261275, "type": "electric_scooter", "fusion_lat": 0.0, "lat": 38.90508066666666, "name": "ba31ea9352818aab767788a42b2389cd", "fusion_lon": 0.0, "bike_id": "ba31ea9352818aab767788a42b2389cd", "is_disabled": 0, "is_reserved": 0}, {"rental_uris": {"ios": "https://dc.lft.to/lastmile_qr_scan", "android": "https://dc.lft.to/lastmile_qr_scan"}, "lon": -77.0397905, "type": "electric_scooter", "fusion_lat": 0.0, "lat": 38.9001345, "name": "0a919274d7d937b2fbc30819921c7759", "fusion_lon": 0.0, "bike_id": "0a919274d7d937b2fbc30819921c7759", "is_disabled": 0, "is_reserved": 0}, {"rental_uris": {"ios": "https://dc.lft.to/lastmile_qr_scan", "android": "https://dc.lft.to/lastmile_qr_scan"}, "lon": -77.02208383333334, "type": "electric_scooter", "fusion_lat": 0.0, "lat": 38.896082, "name": "36d6879c82642cd99dc9976f085dc66a", "fusion_lon": 0.0, "bike_id": "36d6879c82642cd99dc9976f085dc66a", "is_disabled": 0, "is_reserved": 0}, {"rental_uris": {"ios": "https://dc.lft.to/lastmile_qr_scan", "android": "https://dc.lft.to/lastmile_qr_scan"}, "lon": -76.97219466666667, "type": "electric_scooter", "fusion_lat": 0.0, "lat": 38.8549455, "name": "cc93bc1c4ffcd324173545e29081d46b", "fusion_lon": 0.0, "bike_id": "cc93bc1c4ffcd324173545e29081d46b", "is_disabled": 0, "is_reserved": 0}, {"rental_uris": {"ios": "https://dc.lft.to/lastmile_qr_scan", "android": "https://dc.lft.to/lastmile_qr_scan"}, "lon": -77.02921133333334, "type": "electric_scooter", "fusion_lat": 0.0, "lat": 38.89551816666667, "name": "047a30b37d77c246a0f20ceaddab2e34", "fusion_lon": 0.0, "bike_id": "047a30b37d77c246a0f20ceaddab2e34", "is_disabled": 0, "is_reserved": 0}, {"rental_uris": {"ios": "https://dc.lft.to/lastmile_qr_scan", "android": "https://dc.lft.to/lastmile_qr_scan"}, "lon": -77.03206716666666, "type": "electric_scooter", "fusion_lat": 0.0, "lat": 38.91822233333333, "name": "7d618f2581967e886b2df62dd4f09e00", "fusion_lon": 0.0, "bike_id": "7d618f2581967e886b2df62dd4f09e00", "is_disabled": 0, "is_reserved": 0}, {"rental_uris": {"ios": "https://dc.lft.to/lastmile_qr_scan", "android": "https://dc.lft.to/lastmile_qr_scan"}, "lon": -77.036589, "type": "electric_scooter", "fusion_lat": 0.0, "lat": 38.92119433333333, "name": "5bb2708a99d77a5ad07bd211f86396dc", "fusion_lon": 0.0, "bike_id": "5bb2708a99d77a5ad07bd211f86396dc", "is_disabled": 0, "is_reserved": 0}, {"rental_uris": {"ios": "https://dc.lft.to/lastmile_qr_scan", "android": "https://dc.lft.to/lastmile_qr_scan"}, "lon": -77.056, "type": "electric_scooter", "fusion_lat": 0.0, "lat": 38.93698466666667, "name": "c5efe7b426998a8d1cc45fd6c571450a", "fusion_lon": 0.0, "bike_id": "c5efe7b426998a8d1cc45fd6c571450a", "is_disabled": 0, "is_reserved": 0}, {"rental_uris": {"ios": "https://dc.lft.to/lastmile_qr_scan", "android": "https://dc.lft.to/lastmile_qr_scan"}, "lon": -77.03169416666667, "type": "electric_scooter", "fusion_lat": 0.0, "lat": 38.92113233333333, "name": "351a349c19e1b5d1e82e3a7593b8f8d2", "fusion_lon": 0.0, "bike_id": "351a349c19e1b5d1e82e3a7593b8f8d2", "is_disabled": 0, "is_reserved": 0}, {"rental_uris": {"ios": "https://dc.lft.to/lastmile_qr_scan", "android": "https://dc.lft.to/lastmile_qr_scan"}, "lon": -77.00304083333333, "type": "electric_scooter", "fusion_lat": 0.0, "lat": 38.9090065, "name": "87559e980860a6d5bc83e59b737d2d17", "fusion_lon": 0.0, "bike_id": "87559e980860a6d5bc83e59b737d2d17", "is_disabled": 0, "is_reserved": 0}, {"rental_uris": {"ios": "https://dc.lft.to/lastmile_qr_scan", "android": "https://dc.lft.to/lastmile_qr_scan"}, "lon": -77.04998, "type": "electric_scooter", "fusion_lat": 0.0, "lat": 38.892298333333336, "name": "67631d465d6b60ca82804577fa5fdda7", "fusion_lon": 0.0, "bike_id": "67631d465d6b60ca82804577fa5fdda7", "is_disabled": 0, "is_reserved": 0}, {"rental_uris": {"ios": "https://dc.lft.to/lastmile_qr_scan", "android": "https://dc.lft.to/lastmile_qr_scan"}, "lon": -76.99516133333333, "type": "electric_scooter", "fusion_lat": 0.0, "lat": 38.86261983333333, "name": "1e5350477b909d008d0113a6cf7aa5f0", "fusion_lon": 0.0, "bike_id": "1e5350477b909d008d0113a6cf7aa5f0", "is_disabled": 0, "is_reserved": 0}, {"rental_uris": {"ios": "https://dc.lft.to/lastmile_qr_scan", "android": "https://dc.lft.to/lastmile_qr_scan"}, "lon": -77.02354333333334, "type": "electric_scooter", "fusion_lat": 0.0, "lat": 38.94522516666667, "name": "67e09600f518f31a87d5c08ea737400a", "fusion_lon": 0.0, "bike_id": "67e09600f518f31a87d5c08ea737400a", "is_disabled": 0, "is_reserved": 0}, {"rental_uris": {"ios": "https://dc.lft.to/lastmile_qr_scan", "android": "https://dc.lft.to/lastmile_qr_scan"}, "lon": -77.02387216666666, "type": "electric_scooter", "fusion_lat": 0.0, "lat": 38.89916083333333, "name": "b8644f9aeb4c257b2e8d5671c9d040c6", "fusion_lon": 0.0, "bike_id": "b8644f9aeb4c257b2e8d5671c9d040c6", "is_disabled": 0, "is_reserved": 0}, {"rental_uris": {"ios": "https://dc.lft.to/lastmile_qr_scan", "android": "https://dc.lft.to/lastmile_qr_scan"}, "lon": -77.02972883333334, "type": "electric_scooter", "fusion_lat": 0.0, "lat": 38.936049833333335, "name": "a6e670d1972d70077d58d732e90d12bb", "fusion_lon": 0.0, "bike_id": "a6e670d1972d70077d58d732e90d12bb", "is_disabled": 0, "is_reserved": 0}, {"rental_uris": {"ios": "https://dc.lft.to/lastmile_qr_scan", "android": "https://dc.lft.to/lastmile_qr_scan"}, "lon": -77.0534935, "type": "electric_scooter", "fusion_lat": 0.0, "lat": 38.902687, "name": "4be0ec91c40ccf8691f0190b1529ab52", "fusion_lon": 0.0, "bike_id": "4be0ec91c40ccf8691f0190b1529ab52", "is_disabled": 0, "is_reserved": 0}, {"rental_uris": {"ios": "https://dc.lft.to/lastmile_qr_scan", "android": "https://dc.lft.to/lastmile_qr_scan"}, "lon": -77.0500965, "type": "electric_scooter", "fusion_lat": 0.0, "lat": 38.90192916666667, "name": "330088a1be874acb5c7905b9a3ea4d74", "fusion_lon": 0.0, "bike_id": "330088a1be874acb5c7905b9a3ea4d74", "is_disabled": 0, "is_reserved": 0}, {"rental_uris": {"ios": "https://dc.lft.to/lastmile_qr_scan", "android": "https://dc.lft.to/lastmile_qr_scan"}, "lon": -77.02697816666667, "type": "electric_scooter", "fusion_lat": 0.0, "lat": 38.918116833333336, "name": "43498bb50e39131d0486325656e5f31a", "fusion_lon": 0.0, "bike_id": "43498bb50e39131d0486325656e5f31a", "is_disabled": 0, "is_reserved": 0}, {"rental_uris": {"ios": "https://dc.lft.to/lastmile_qr_scan", "android": "https://dc.lft.to/lastmile_qr_scan"}, "lon": -77.01585416666667, "type": "electric_scooter", "fusion_lat": 0.0, "lat": 38.9164835, "name": "000c54c2683d9b1ef7d3c10de2f85af9", "fusion_lon": 0.0, "bike_id": "000c54c2683d9b1ef7d3c10de2f85af9", "is_disabled": 0, "is_reserved": 0}, {"rental_uris": {"ios": "https://dc.lft.to/lastmile_qr_scan", "android": "https://dc.lft.to/lastmile_qr_scan"}, "lon": -77.00104016666667, "type": "electric_scooter", "fusion_lat": 0.0, "lat": 38.90762733333333, "name": "d49b611f6e6187cd5d45d504bdbf85ef", "fusion_lon": 0.0, "bike_id": "d49b611f6e6187cd5d45d504bdbf85ef", "is_disabled": 0, "is_reserved": 0}, {"rental_uris": {"ios": "https://dc.lft.to/lastmile_qr_scan", "android": "https://dc.lft.to/lastmile_qr_scan"}, "lon": -77.0141375, "type": "electric_scooter", "fusion_lat": 0.0, "lat": 38.915618, "name": "5982b2324765d41e8428228c1b1fecf6", "fusion_lon": 0.0, "bike_id": "5982b2324765d41e8428228c1b1fecf6", "is_disabled": 0, "is_reserved": 0}, {"rental_uris": {"ios": "https://dc.lft.to/lastmile_qr_scan", "android": "https://dc.lft.to/lastmile_qr_scan"}, "lon": -77.02388666666667, "type": "electric_scooter", "fusion_lat": 0.0, "lat": 38.89515883333333, "name": "c165578abe7e2866b12d2401200d9a60", "fusion_lon": 0.0, "bike_id": "c165578abe7e2866b12d2401200d9a60", "is_disabled": 0, "is_reserved": 0}, {"rental_uris": {"ios": "https://dc.lft.to/lastmile_qr_scan", "android": "https://dc.lft.to/lastmile_qr_scan"}, "lon": -76.980018, "type": "electric_bike", "fusion_lat": 0.0, "lat": 38.86278383333333, "name": "d29f43403b8cbc6951bc27daa50a3af5", "fusion_lon": 0.0, "bike_id": "d29f43403b8cbc6951bc27daa50a3af5", "is_disabled": 0, "is_reserved": 0}, {"rental_uris": {"ios": "https://dc.lft.to/lastmile_qr_scan", "android": "https://dc.lft.to/lastmile_qr_scan"}, "lon": -76.930992, "type": "electric_scooter", "fusion_lat": 0.0, "lat": 38.90143616666667, "name": "beb92d7b9d61166c5042598b32476fc2", "fusion_lon": 0.0, "bike_id": "beb92d7b9d61166c5042598b32476fc2", "is_disabled": 0, "is_reserved": 0}, {"rental_uris": {"ios": "https://dc.lft.to/lastmile_qr_scan", "android": "https://dc.lft.to/lastmile_qr_scan"}, "lon": -77.02701266666666, "type": "electric_scooter", "fusion_lat": 0.0, "lat": 38.9181535, "name": "76c177dff7c0e9f3a15b9f12545f45bb", "fusion_lon": 0.0, "bike_id": "76c177dff7c0e9f3a15b9f12545f45bb", "is_disabled": 0, "is_reserved": 0}, {"rental_uris": {"ios": "https://dc.lft.to/lastmile_qr_scan", "android": "https://dc.lft.to/lastmile_qr_scan"}, "lon": -77.03186, "type": "electric_scooter", "fusion_lat": 0.0, "lat": 38.91621516666667, "name": "7438e4da39c7b86dc01ef51db6312861", "fusion_lon": 0.0, "bike_id": "7438e4da39c7b86dc01ef51db6312861", "is_disabled": 0, "is_reserved": 0}, {"rental_uris": {"ios": "https://dc.lft.to/lastmile_qr_scan", "android": "https://dc.lft.to/lastmile_qr_scan"}, "lon": -77.02708733333333, "type": "electric_scooter", "fusion_lat": 0.0, "lat": 38.92484616666667, "name": "d1b6280c21eb4dcb0386ac61f25dd26b", "fusion_lon": 0.0, "bike_id": "d1b6280c21eb4dcb0386ac61f25dd26b", "is_disabled": 0, "is_reserved": 0}, {"rental_uris": {"ios": "https://dc.lft.to/lastmile_qr_scan", "android": "https://dc.lft.to/lastmile_qr_scan"}, "lon": -77.02811733333333, "type": "electric_scooter", "fusion_lat": 0.0, "lat": 38.896316166666665, "name": "f580d912dd35f510b94b6b64767b65e1", "fusion_lon": 0.0, "bike_id": "f580d912dd35f510b94b6b64767b65e1", "is_disabled": 0, "is_reserved": 0}, {"rental_uris": {"ios": "https://dc.lft.to/lastmile_qr_scan", "android": "https://dc.lft.to/lastmile_qr_scan"}, "lon": -77.03207266666666, "type": "electric_scooter", "fusion_lat": 0.0, "lat": 38.91109683333333, "name": "f3cff669678473aa2fc37d0fbfb4f180", "fusion_lon": 0.0, "bike_id": "f3cff669678473aa2fc37d0fbfb4f180", "is_disabled": 0, "is_reserved": 0}, {"rental_uris": {"ios": "https://dc.lft.to/lastmile_qr_scan", "android": "https://dc.lft.to/lastmile_qr_scan"}, "lon": -77.03664216666667, "type": "electric_scooter", "fusion_lat": 0.0, "lat": 38.92936316666667, "name": "f57fd44c1cdfbc54ca3ae6dc56e9fd20", "fusion_lon": 0.0, "bike_id": "f57fd44c1cdfbc54ca3ae6dc56e9fd20", "is_disabled": 0, "is_reserved": 0}, {"rental_uris": {"ios": "https://dc.lft.to/lastmile_qr_scan", "android": "https://dc.lft.to/lastmile_qr_scan"}, "lon": -77.07561633333333, "type": "electric_scooter", "fusion_lat": 0.0, "lat": 38.920920333333335, "name": "14b23e814fe962097da52d3b541f8cb9", "fusion_lon": 0.0, "bike_id": "14b23e814fe962097da52d3b541f8cb9", "is_disabled": 0, "is_reserved": 0}, {"rental_uris": {"ios": "https://dc.lft.to/lastmile_qr_scan", "android": "https://dc.lft.to/lastmile_qr_scan"}, "lon": -77.01765633333333, "type": "electric_scooter", "fusion_lat": 0.0, "lat": 38.883976833333335, "name": "a8a383dc49cd7d4505a57983f1d6ef0a", "fusion_lon": 0.0, "bike_id": "a8a383dc49cd7d4505a57983f1d6ef0a", "is_disabled": 0, "is_reserved": 0}, {"rental_uris": {"ios": "https://dc.lft.to/lastmile_qr_scan", "android": "https://dc.lft.to/lastmile_qr_scan"}, "lon": -76.99145166666666, "type": "electric_scooter", "fusion_lat": 0.0, "lat": 38.90040966666667, "name": "457525b1771219cb9e76933541246858", "fusion_lon": 0.0, "bike_id": "457525b1771219cb9e76933541246858", "is_disabled": 0, "is_reserved": 0}, {"rental_uris": {"ios": "https://dc.lft.to/lastmile_qr_scan", "android": "https://dc.lft.to/lastmile_qr_scan"}, "lon": -77.13593166666666, "type": "electric_bike", "fusion_lat": 0.0, "lat": 39.05348216666667, "name": "6526348f7882c8cddeaf93c4123b9531", "fusion_lon": 0.0, "bike_id": "6526348f7882c8cddeaf93c4123b9531", "is_disabled": 0, "is_reserved": 0}, {"rental_uris": {"ios": "https://dc.lft.to/lastmile_qr_scan", "android": "https://dc.lft.to/lastmile_qr_scan"}, "lon": -77.02206433333333, "type": "electric_scooter", "fusion_lat": 0.0, "lat": 38.88734483333333, "name": "4731612b6247d40ee473dca0ce528c41", "fusion_lon": 0.0, "bike_id": "4731612b6247d40ee473dca0ce528c41", "is_disabled": 0, "is_reserved": 0}, {"rental_uris": {"ios": "https://dc.lft.to/lastmile_qr_scan", "android": "https://dc.lft.to/lastmile_qr_scan"}, "lon": -76.98715183333333, "type": "electric_scooter", "fusion_lat": 0.0, "lat": 38.86260933333333, "name": "6f7e0331057a3b3d0e76d939d014e998", "fusion_lon": 0.0, "bike_id": "6f7e0331057a3b3d0e76d939d014e998", "is_disabled": 0, "is_reserved": 0}, {"rental_uris": {"ios": "https://dc.lft.to/lastmile_qr_scan", "android": "https://dc.lft.to/lastmile_qr_scan"}, "lon": -77.07882266666667, "type": "electric_scooter", "fusion_lat": 0.0, "lat": 38.93150833333333, "name": "d14341c0eed7916123006f7f682c1fe4", "fusion_lon": 0.0, "bike_id": "d14341c0eed7916123006f7f682c1fe4", "is_disabled": 0, "is_reserved": 0}, {"rental_uris": {"ios": "https://dc.lft.to/lastmile_qr_scan", "android": "https://dc.lft.to/lastmile_qr_scan"}, "lon": -77.04186266666666, "type": "electric_scooter", "fusion_lat": 0.0, "lat": 38.900499833333335, "name": "9774bd6d2a6843fd41f51576156748bc", "fusion_lon": 0.0, "bike_id": "9774bd6d2a6843fd41f51576156748bc", "is_disabled": 0, "is_reserved": 0}, {"rental_uris": {"ios": "https://dc.lft.to/lastmile_qr_scan", "android": "https://dc.lft.to/lastmile_qr_scan"}, "lon": -77.0125565, "type": "electric_scooter", "fusion_lat": 0.0, "lat": 38.89967766666667, "name": "cfccfc9a26047f58f19fe0bf385532fe", "fusion_lon": 0.0, "bike_id": "cfccfc9a26047f58f19fe0bf385532fe", "is_disabled": 0, "is_reserved": 0}, {"rental_uris": {"ios": "https://dc.lft.to/lastmile_qr_scan", "android": "https://dc.lft.to/lastmile_qr_scan"}, "lon": -77.01018466666666, "type": "electric_scooter", "fusion_lat": 0.0, "lat": 38.89493216666666, "name": "c7029f9cc553cee34dc63f2453181eba", "fusion_lon": 0.0, "bike_id": "c7029f9cc553cee34dc63f2453181eba", "is_disabled": 0, "is_reserved": 0}, {"rental_uris": {"ios": "https://dc.lft.to/lastmile_qr_scan", "android": "https://dc.lft.to/lastmile_qr_scan"}, "lon": -77.02971933333333, "type": "electric_scooter", "fusion_lat": 0.0, "lat": 38.9622875, "name": "21ca28006c9183ec7b424fb54f1fe197", "fusion_lon": 0.0, "bike_id": "21ca28006c9183ec7b424fb54f1fe197", "is_disabled": 0, "is_reserved": 0}, {"rental_uris": {"ios": "https://dc.lft.to/lastmile_qr_scan", "android": "https://dc.lft.to/lastmile_qr_scan"}, "lon": -76.946638, "type": "electric_scooter", "fusion_lat": 0.0, "lat": 38.898009333333334, "name": "eb291f7fd129faf4d5dcafbb029c4c6e", "fusion_lon": 0.0, "bike_id": "eb291f7fd129faf4d5dcafbb029c4c6e", "is_disabled": 0, "is_reserved": 0}, {"rental_uris": {"ios": "https://dc.lft.to/lastmile_qr_scan", "android": "https://dc.lft.to/lastmile_qr_scan"}, "lon": -77.02651766666666, "type": "electric_scooter", "fusion_lat": 0.0, "lat": 38.8811725, "name": "46580565ff8f87304bd34fa76c14ca24", "fusion_lon": 0.0, "bike_id": "46580565ff8f87304bd34fa76c14ca24", "is_disabled": 0, "is_reserved": 0}, {"rental_uris": {"ios": "https://dc.lft.to/lastmile_qr_scan", "android": "https://dc.lft.to/lastmile_qr_scan"}, "lon": -77.10335783333333, "type": "electric_bike", "fusion_lat": 0.0, "lat": 38.8523105, "name": "797f95e937f89f9a0bcaf43b50cf7ac3", "fusion_lon": 0.0, "bike_id": "797f95e937f89f9a0bcaf43b50cf7ac3", "is_disabled": 0, "is_reserved": 0}, {"rental_uris": {"ios": "https://dc.lft.to/lastmile_qr_scan", "android": "https://dc.lft.to/lastmile_qr_scan"}, "lon": -77.0303845, "type": "electric_scooter", "fusion_lat": 0.0, "lat": 38.897116833333335, "name": "00826ac7aa17359e1a1d45b2a2bf5755", "fusion_lon": 0.0, "bike_id": "00826ac7aa17359e1a1d45b2a2bf5755", "is_disabled": 0, "is_reserved": 0}, {"rental_uris": {"ios": "https://dc.lft.to/lastmile_qr_scan", "android": "https://dc.lft.to/lastmile_qr_scan"}, "lon": -77.00714066666667, "type": "electric_scooter", "fusion_lat": 0.0, "lat": 38.8848775, "name": "001d7314550f0ee63e0d46efdc94761e", "fusion_lon": 0.0, "bike_id": "001d7314550f0ee63e0d46efdc94761e", "is_disabled": 0, "is_reserved": 0}, {"rental_uris": {"ios": "https://dc.lft.to/lastmile_qr_scan", "android": "https://dc.lft.to/lastmile_qr_scan"}, "lon": -77.0127415, "type": "electric_bike", "fusion_lat": 0.0, "lat": 38.8812355, "name": "13bdf8c7adafbba8f5369cedaa9e7798", "fusion_lon": 0.0, "bike_id": "13bdf8c7adafbba8f5369cedaa9e7798", "is_disabled": 0, "is_reserved": 0}, {"rental_uris": {"ios": "https://dc.lft.to/lastmile_qr_scan", "android": "https://dc.lft.to/lastmile_qr_scan"}, "lon": -77.02720033333334, "type": "electric_scooter", "fusion_lat": 0.0, "lat": 38.934007, "name": "faaf515c4b609ffbd6d5ece3a0291cdf", "fusion_lon": 0.0, "bike_id": "faaf515c4b609ffbd6d5ece3a0291cdf", "is_disabled": 0, "is_reserved": 0}, {"rental_uris": {"ios": "https://dc.lft.to/lastmile_qr_scan", "android": "https://dc.lft.to/lastmile_qr_scan"}, "lon": -77.00133466666666, "type": "electric_scooter", "fusion_lat": 0.0, "lat": 38.904105, "name": "7fdf6f74a24302fe3956d2b26b455e79", "fusion_lon": 0.0, "bike_id": "7fdf6f74a24302fe3956d2b26b455e79", "is_disabled": 0, "is_reserved": 0}, {"rental_uris": {"ios": "https://dc.lft.to/lastmile_qr_scan", "android": "https://dc.lft.to/lastmile_qr_scan"}, "lon": -77.022176, "type": "electric_scooter", "fusion_lat": 0.0, "lat": 38.905741666666664, "name": "b8ad0fa5aa30e95c33b1b89a2d0752e3", "fusion_lon": 0.0, "bike_id": "b8ad0fa5aa30e95c33b1b89a2d0752e3", "is_disabled": 0, "is_reserved": 0}, {"rental_uris": {"ios": "https://dc.lft.to/lastmile_qr_scan", "android": "https://dc.lft.to/lastmile_qr_scan"}, "lon": -76.92721883333333, "type": "electric_scooter", "fusion_lat": 0.0, "lat": 38.88039033333333, "name": "e93e4ea97b9b2ff9f7269c4825484f6e", "fusion_lon": 0.0, "bike_id": "e93e4ea97b9b2ff9f7269c4825484f6e", "is_disabled": 0, "is_reserved": 0}, {"rental_uris": {"ios": "https://dc.lft.to/lastmile_qr_scan", "android": "https://dc.lft.to/lastmile_qr_scan"}, "lon": -76.97456583333333, "type": "electric_scooter", "fusion_lat": 0.0, "lat": 38.86542466666667, "name": "4453ec5f51844059f3d6a4aaa72d26fe", "fusion_lon": 0.0, "bike_id": "4453ec5f51844059f3d6a4aaa72d26fe", "is_disabled": 0, "is_reserved": 0}, {"rental_uris": {"ios": "https://dc.lft.to/lastmile_qr_scan", "android": "https://dc.lft.to/lastmile_qr_scan"}, "lon": -76.99064533333333, "type": "electric_scooter", "fusion_lat": 0.0, "lat": 38.863564, "name": "607ee7124881c1aab0aeb0ac9385f614", "fusion_lon": 0.0, "bike_id": "607ee7124881c1aab0aeb0ac9385f614", "is_disabled": 0, "is_reserved": 0}, {"rental_uris": {"ios": "https://dc.lft.to/lastmile_qr_scan", "android": "https://dc.lft.to/lastmile_qr_scan"}, "lon": -77.11798483333334, "type": "electric_bike", "fusion_lat": 0.0, "lat": 38.898358, "name": "c6788361fffbba6b3722fd429d7b87ae", "fusion_lon": 0.0, "bike_id": "c6788361fffbba6b3722fd429d7b87ae", "is_disabled": 0, "is_reserved": 0}, {"rental_uris": {"ios": "https://dc.lft.to/lastmile_qr_scan", "android": "https://dc.lft.to/lastmile_qr_scan"}, "lon": -76.98788116666667, "type": "electric_bike", "fusion_lat": 0.0, "lat": 38.90414083333334, "name": "01df142dd5b7abb475e05dd1495e798f", "fusion_lon": 0.0, "bike_id": "01df142dd5b7abb475e05dd1495e798f", "is_disabled": 0, "is_reserved": 0}, {"rental_uris": {"ios": "https://dc.lft.to/lastmile_qr_scan", "android": "https://dc.lft.to/lastmile_qr_scan"}, "lon": -76.97813633333334, "type": "electric_scooter", "fusion_lat": 0.0, "lat": 38.886092833333336, "name": "f8e8b2384bf3c73cb5588472f3cdc74a", "fusion_lon": 0.0, "bike_id": "f8e8b2384bf3c73cb5588472f3cdc74a", "is_disabled": 0, "is_reserved": 0}, {"rental_uris": {"ios": "https://dc.lft.to/lastmile_qr_scan", "android": "https://dc.lft.to/lastmile_qr_scan"}, "lon": -77.03701283333334, "type": "electric_scooter", "fusion_lat": 0.0, "lat": 38.926454666666665, "name": "31e12b4d2b58a694303e35e26deaf13f", "fusion_lon": 0.0, "bike_id": "31e12b4d2b58a694303e35e26deaf13f", "is_disabled": 0, "is_reserved": 0}, {"rental_uris": {"ios": "https://dc.lft.to/lastmile_qr_scan", "android": "https://dc.lft.to/lastmile_qr_scan"}, "lon": -77.02960916666666, "type": "electric_scooter", "fusion_lat": 0.0, "lat": 38.910203333333335, "name": "a1150d6b461ac470c9d6f972a8487d1d", "fusion_lon": 0.0, "bike_id": "a1150d6b461ac470c9d6f972a8487d1d", "is_disabled": 0, "is_reserved": 0}, {"rental_uris": {"ios": "https://dc.lft.to/lastmile_qr_scan", "android": "https://dc.lft.to/lastmile_qr_scan"}, "lon": -77.04332533333333, "type": "electric_scooter", "fusion_lat": 0.0, "lat": 38.90820433333333, "name": "635366bc70cf5f353e3864dc27464dc0", "fusion_lon": 0.0, "bike_id": "635366bc70cf5f353e3864dc27464dc0", "is_disabled": 0, "is_reserved": 0}, {"rental_uris": {"ios": "https://dc.lft.to/lastmile_qr_scan", "android": "https://dc.lft.to/lastmile_qr_scan"}, "lon": -77.04153783333334, "type": "electric_scooter", "fusion_lat": 0.0, "lat": 38.916112166666665, "name": "36d7b47071e90d3c3b23fa64768bf64a", "fusion_lon": 0.0, "bike_id": "36d7b47071e90d3c3b23fa64768bf64a", "is_disabled": 0, "is_reserved": 0}, {"rental_uris": {"ios": "https://dc.lft.to/lastmile_qr_scan", "android": "https://dc.lft.to/lastmile_qr_scan"}, "lon": -76.954675, "type": "electric_bike", "fusion_lat": 0.0, "lat": 38.88643883333334, "name": "522ad042cf21cc0fae71404efc6a8b36", "fusion_lon": 0.0, "bike_id": "522ad042cf21cc0fae71404efc6a8b36", "is_disabled": 0, "is_reserved": 0}, {"rental_uris": {"ios": "https://dc.lft.to/lastmile_qr_scan", "android": "https://dc.lft.to/lastmile_qr_scan"}, "lon": -77.02961033333334, "type": "electric_scooter", "fusion_lat": 0.0, "lat": 38.92566883333333, "name": "39b47a7d2f4e8f932ef36657aeee7fe7", "fusion_lon": 0.0, "bike_id": "39b47a7d2f4e8f932ef36657aeee7fe7", "is_disabled": 0, "is_reserved": 0}, {"rental_uris": {"ios": "https://dc.lft.to/lastmile_qr_scan", "android": "https://dc.lft.to/lastmile_qr_scan"}, "lon": -77.01243516666666, "type": "electric_scooter", "fusion_lat": 0.0, "lat": 38.91710283333333, "name": "894b9ac325291928e015d31a88f659bc", "fusion_lon": 0.0, "bike_id": "894b9ac325291928e015d31a88f659bc", "is_disabled": 0, "is_reserved": 0}, {"rental_uris": {"ios": "https://dc.lft.to/lastmile_qr_scan", "android": "https://dc.lft.to/lastmile_qr_scan"}, "lon": -77.031993, "type": "electric_scooter", "fusion_lat": 0.0, "lat": 38.900264, "name": "1397a21e65a4f3a545f235d33ff108ba", "fusion_lon": 0.0, "bike_id": "1397a21e65a4f3a545f235d33ff108ba", "is_disabled": 0, "is_reserved": 0}, {"rental_uris": {"ios": "https://dc.lft.to/lastmile_qr_scan", "android": "https://dc.lft.to/lastmile_qr_scan"}, "lon": -77.0521925, "type": "electric_scooter", "fusion_lat": 0.0, "lat": 38.89814916666667, "name": "0cc1b3606a00cf18fa18ea009a401be3", "fusion_lon": 0.0, "bike_id": "0cc1b3606a00cf18fa18ea009a401be3", "is_disabled": 0, "is_reserved": 0}, {"rental_uris": {"ios": "https://dc.lft.to/lastmile_qr_scan", "android": "https://dc.lft.to/lastmile_qr_scan"}, "lon": -77.04119883333334, "type": "electric_scooter", "fusion_lat": 0.0, "lat": 38.93333416666667, "name": "a82005ef86bb678552ec0dbe7b831cc9", "fusion_lon": 0.0, "bike_id": "a82005ef86bb678552ec0dbe7b831cc9", "is_disabled": 0, "is_reserved": 0}, {"rental_uris": {"ios": "https://dc.lft.to/lastmile_qr_scan", "android": "https://dc.lft.to/lastmile_qr_scan"}, "lon": -77.05980616666666, "type": "electric_scooter", "fusion_lat": 0.0, "lat": 38.93552483333333, "name": "520cd400b76b0e1738aeb58900e1d840", "fusion_lon": 0.0, "bike_id": "520cd400b76b0e1738aeb58900e1d840", "is_disabled": 0, "is_reserved": 0}, {"rental_uris": {"ios": "https://dc.lft.to/lastmile_qr_scan", "android": "https://dc.lft.to/lastmile_qr_scan"}, "lon": -77.01527683333333, "type": "electric_scooter", "fusion_lat": 0.0, "lat": 38.887396333333335, "name": "3c9603ed96ad15c1667ab82ac0c20e9e", "fusion_lon": 0.0, "bike_id": "3c9603ed96ad15c1667ab82ac0c20e9e", "is_disabled": 0, "is_reserved": 0}, {"rental_uris": {"ios": "https://dc.lft.to/lastmile_qr_scan", "android": "https://dc.lft.to/lastmile_qr_scan"}, "lon": -77.02693366666666, "type": "electric_scooter", "fusion_lat": 0.0, "lat": 38.91628716666666, "name": "92ad6ce966542ff15066b330088aa76c", "fusion_lon": 0.0, "bike_id": "92ad6ce966542ff15066b330088aa76c", "is_disabled": 0, "is_reserved": 0}, {"rental_uris": {"ios": "https://dc.lft.to/lastmile_qr_scan", "android": "https://dc.lft.to/lastmile_qr_scan"}, "lon": -76.9782175, "type": "electric_scooter", "fusion_lat": 0.0, "lat": 38.8951375, "name": "21206517f899b2e0b37ab5842fe301de", "fusion_lon": 0.0, "bike_id": "21206517f899b2e0b37ab5842fe301de", "is_disabled": 0, "is_reserved": 0}, {"rental_uris": {"ios": "https://dc.lft.to/lastmile_qr_scan", "android": "https://dc.lft.to/lastmile_qr_scan"}, "lon": -77.025043, "type": "electric_scooter", "fusion_lat": 0.0, "lat": 38.90720066666667, "name": "c17f482f101471d2673b78b97698d7c1", "fusion_lon": 0.0, "bike_id": "c17f482f101471d2673b78b97698d7c1", "is_disabled": 0, "is_reserved": 0}, {"rental_uris": {"ios": "https://dc.lft.to/lastmile_qr_scan", "android": "https://dc.lft.to/lastmile_qr_scan"}, "lon": -77.03322566666667, "type": "electric_scooter", "fusion_lat": 0.0, "lat": 38.9013485, "name": "77e2951ea7395137b68d5baf893772cf", "fusion_lon": 0.0, "bike_id": "77e2951ea7395137b68d5baf893772cf", "is_disabled": 0, "is_reserved": 0}, {"rental_uris": {"ios": "https://dc.lft.to/lastmile_qr_scan", "android": "https://dc.lft.to/lastmile_qr_scan"}, "lon": -76.974236, "type": "electric_bike", "fusion_lat": 0.0, "lat": 38.93207566666667, "name": "064edf597ae6121b3053670fbd7f2b42", "fusion_lon": 0.0, "bike_id": "064edf597ae6121b3053670fbd7f2b42", "is_disabled": 0, "is_reserved": 0}, {"rental_uris": {"ios": "https://dc.lft.to/lastmile_qr_scan", "android": "https://dc.lft.to/lastmile_qr_scan"}, "lon": -77.02388, "type": "electric_scooter", "fusion_lat": 0.0, "lat": 38.89918, "name": "be33b81daf755663425a8d2efd47d113", "fusion_lon": 0.0, "bike_id": "be33b81daf755663425a8d2efd47d113", "is_disabled": 0, "is_reserved": 0}, {"rental_uris": {"ios": "https://dc.lft.to/lastmile_qr_scan", "android": "https://dc.lft.to/lastmile_qr_scan"}, "lon": -77.01658866666666, "type": "electric_scooter", "fusion_lat": 0.0, "lat": 38.90449666666667, "name": "5462c5ef3d16387b5589eab917473553", "fusion_lon": 0.0, "bike_id": "5462c5ef3d16387b5589eab917473553", "is_disabled": 0, "is_reserved": 0}, {"rental_uris": {"ios": "https://dc.lft.to/lastmile_qr_scan", "android": "https://dc.lft.to/lastmile_qr_scan"}, "lon": -77.04240283333333, "type": "electric_scooter", "fusion_lat": 0.0, "lat": 38.92206566666667, "name": "fd57ca58db456323415ea34f21d7b3b0", "fusion_lon": 0.0, "bike_id": "fd57ca58db456323415ea34f21d7b3b0", "is_disabled": 0, "is_reserved": 0}, {"rental_uris": {"ios": "https://dc.lft.to/lastmile_qr_scan", "android": "https://dc.lft.to/lastmile_qr_scan"}, "lon": -76.94994933333334, "type": "electric_scooter", "fusion_lat": 0.0, "lat": 38.89372516666667, "name": "fa8b1a2bd81c86c0f684ffdd28f57fb3", "fusion_lon": 0.0, "bike_id": "fa8b1a2bd81c86c0f684ffdd28f57fb3", "is_disabled": 0, "is_reserved": 0}, {"rental_uris": {"ios": "https://dc.lft.to/lastmile_qr_scan", "android": "https://dc.lft.to/lastmile_qr_scan"}, "lon": -77.1828565, "type": "electric_bike", "fusion_lat": 0.0, "lat": 38.8834925, "name": "c793d240c8b260f9807806f14bf519eb", "fusion_lon": 0.0, "bike_id": "c793d240c8b260f9807806f14bf519eb", "is_disabled": 0, "is_reserved": 0}, {"rental_uris": {"ios": "https://dc.lft.to/lastmile_qr_scan", "android": "https://dc.lft.to/lastmile_qr_scan"}, "lon": -77.032185, "type": "electric_scooter", "fusion_lat": 0.0, "lat": 38.9119525, "name": "5f089a5d1fa6f15c99b61859c73616db", "fusion_lon": 0.0, "bike_id": "5f089a5d1fa6f15c99b61859c73616db", "is_disabled": 0, "is_reserved": 0}, {"rental_uris": {"ios": "https://dc.lft.to/lastmile_qr_scan", "android": "https://dc.lft.to/lastmile_qr_scan"}, "lon": -77.08188383333334, "type": "electric_scooter", "fusion_lat": 0.0, "lat": 38.920071666666665, "name": "92b384294da5c63b66be70c387379879", "fusion_lon": 0.0, "bike_id": "92b384294da5c63b66be70c387379879", "is_disabled": 0, "is_reserved": 0}, {"rental_uris": {"ios": "https://dc.lft.to/lastmile_qr_scan", "android": "https://dc.lft.to/lastmile_qr_scan"}, "lon": -77.07137783333333, "type": "electric_scooter", "fusion_lat": 0.0, "lat": 38.927288833333336, "name": "de649cee0e1102e1c98667ab6009bec0", "fusion_lon": 0.0, "bike_id": "de649cee0e1102e1c98667ab6009bec0", "is_disabled": 0, "is_reserved": 0}, {"rental_uris": {"ios": "https://dc.lft.to/lastmile_qr_scan", "android": "https://dc.lft.to/lastmile_qr_scan"}, "lon": -77.03746916666667, "type": "electric_scooter", "fusion_lat": 0.0, "lat": 38.9291255, "name": "56059f2baac1af7bd68844628e81a082", "fusion_lon": 0.0, "bike_id": "56059f2baac1af7bd68844628e81a082", "is_disabled": 0, "is_reserved": 0}, {"rental_uris": {"ios": "https://dc.lft.to/lastmile_qr_scan", "android": "https://dc.lft.to/lastmile_qr_scan"}, "lon": -76.98702733333333, "type": "electric_scooter", "fusion_lat": 0.0, "lat": 38.865355, "name": "391df520bf5010a01c7c35f23f966461", "fusion_lon": 0.0, "bike_id": "391df520bf5010a01c7c35f23f966461", "is_disabled": 0, "is_reserved": 0}, {"rental_uris": {"ios": "https://dc.lft.to/lastmile_qr_scan", "android": "https://dc.lft.to/lastmile_qr_scan"}, "lon": -77.011889, "type": "electric_scooter", "fusion_lat": 0.0, "lat": 38.90015316666667, "name": "21bede7fe9fbd8500dca7193e5e68013", "fusion_lon": 0.0, "bike_id": "21bede7fe9fbd8500dca7193e5e68013", "is_disabled": 0, "is_reserved": 0}, {"rental_uris": {"ios": "https://dc.lft.to/lastmile_qr_scan", "android": "https://dc.lft.to/lastmile_qr_scan"}, "lon": -77.00537866666667, "type": "electric_scooter", "fusion_lat": 0.0, "lat": 38.928960833333335, "name": "5e45f92cbf4b78c71683b7739939bab8", "fusion_lon": 0.0, "bike_id": "5e45f92cbf4b78c71683b7739939bab8", "is_disabled": 0, "is_reserved": 0}, {"rental_uris": {"ios": "https://dc.lft.to/lastmile_qr_scan", "android": "https://dc.lft.to/lastmile_qr_scan"}, "lon": -77.0142065, "type": "electric_scooter", "fusion_lat": 0.0, "lat": 38.94230966666667, "name": "ad044997a7b8bf52f2a009641b4769a6", "fusion_lon": 0.0, "bike_id": "ad044997a7b8bf52f2a009641b4769a6", "is_disabled": 0, "is_reserved": 0}, {"rental_uris": {"ios": "https://dc.lft.to/lastmile_qr_scan", "android": "https://dc.lft.to/lastmile_qr_scan"}, "lon": -77.03531266666667, "type": "electric_scooter", "fusion_lat": 0.0, "lat": 38.91797, "name": "0d210f5a98d108a174e749e4b4af9b54", "fusion_lon": 0.0, "bike_id": "0d210f5a98d108a174e749e4b4af9b54", "is_disabled": 0, "is_reserved": 0}, {"rental_uris": {"ios": "https://dc.lft.to/lastmile_qr_scan", "android": "https://dc.lft.to/lastmile_qr_scan"}, "lon": -77.03323683333333, "type": "electric_scooter", "fusion_lat": 0.0, "lat": 38.90020116666667, "name": "ea7d82e88a4b67a4b3743f15f5a83d63", "fusion_lon": 0.0, "bike_id": "ea7d82e88a4b67a4b3743f15f5a83d63", "is_disabled": 0, "is_reserved": 0}, {"rental_uris": {"ios": "https://dc.lft.to/lastmile_qr_scan", "android": "https://dc.lft.to/lastmile_qr_scan"}, "lon": -77.03190466666666, "type": "electric_scooter", "fusion_lat": 0.0, "lat": 38.8996195, "name": "3df420acc62e5122ecc241b4eeb9d136", "fusion_lon": 0.0, "bike_id": "3df420acc62e5122ecc241b4eeb9d136", "is_disabled": 0, "is_reserved": 0}, {"rental_uris": {"ios": "https://dc.lft.to/lastmile_qr_scan", "android": "https://dc.lft.to/lastmile_qr_scan"}, "lon": -77.07711633333334, "type": "electric_scooter", "fusion_lat": 0.0, "lat": 38.9561145, "name": "eb61191d392928d5370dc3a8eb30c04b", "fusion_lon": 0.0, "bike_id": "eb61191d392928d5370dc3a8eb30c04b", "is_disabled": 0, "is_reserved": 0}, {"rental_uris": {"ios": "https://dc.lft.to/lastmile_qr_scan", "android": "https://dc.lft.to/lastmile_qr_scan"}, "lon": -77.03225266666666, "type": "electric_scooter", "fusion_lat": 0.0, "lat": 38.925832166666666, "name": "4993a6a8efb7d58cc13406837c3dc852", "fusion_lon": 0.0, "bike_id": "4993a6a8efb7d58cc13406837c3dc852", "is_disabled": 0, "is_reserved": 0}, {"rental_uris": {"ios": "https://dc.lft.to/lastmile_qr_scan", "android": "https://dc.lft.to/lastmile_qr_scan"}, "lon": -77.02413116666666, "type": "electric_scooter", "fusion_lat": 0.0, "lat": 38.89222783333334, "name": "227ff2cadff313dcc1c2e3f0fe26beed", "fusion_lon": 0.0, "bike_id": "227ff2cadff313dcc1c2e3f0fe26beed", "is_disabled": 0, "is_reserved": 0}, {"rental_uris": {"ios": "https://dc.lft.to/lastmile_qr_scan", "android": "https://dc.lft.to/lastmile_qr_scan"}, "lon": -77.0372545, "type": "electric_scooter", "fusion_lat": 0.0, "lat": 38.933589, "name": "34f9a67dc5a73219531c5914ff2e1cf9", "fusion_lon": 0.0, "bike_id": "34f9a67dc5a73219531c5914ff2e1cf9", "is_disabled": 0, "is_reserved": 0}, {"rental_uris": {"ios": "https://dc.lft.to/lastmile_qr_scan", "android": "https://dc.lft.to/lastmile_qr_scan"}, "lon": -76.97809466666666, "type": "electric_scooter", "fusion_lat": 0.0, "lat": 38.906757166666665, "name": "6184224f7152ee6cfb5645410bcddc0e", "fusion_lon": 0.0, "bike_id": "6184224f7152ee6cfb5645410bcddc0e", "is_disabled": 0, "is_reserved": 0}, {"rental_uris": {"ios": "https://dc.lft.to/lastmile_qr_scan", "android": "https://dc.lft.to/lastmile_qr_scan"}, "lon": -77.02198566666667, "type": "electric_scooter", "fusion_lat": 0.0, "lat": 38.89434216666667, "name": "569e55fbe132fbbcf20fd8c2014c251a", "fusion_lon": 0.0, "bike_id": "569e55fbe132fbbcf20fd8c2014c251a", "is_disabled": 0, "is_reserved": 0}, {"rental_uris": {"ios": "https://dc.lft.to/lastmile_qr_scan", "android": "https://dc.lft.to/lastmile_qr_scan"}, "lon": -77.05133933333333, "type": "electric_scooter", "fusion_lat": 0.0, "lat": 38.90236983333333, "name": "c6157bd08a6752db99279f946e14646b", "fusion_lon": 0.0, "bike_id": "c6157bd08a6752db99279f946e14646b", "is_disabled": 0, "is_reserved": 0}, {"rental_uris": {"ios": "https://dc.lft.to/lastmile_qr_scan", "android": "https://dc.lft.to/lastmile_qr_scan"}, "lon": -77.04160183333333, "type": "electric_scooter", "fusion_lat": 0.0, "lat": 38.911496, "name": "e935c540f78966d075ee8b967f1b14af", "fusion_lon": 0.0, "bike_id": "e935c540f78966d075ee8b967f1b14af", "is_disabled": 0, "is_reserved": 0}, {"rental_uris": {"ios": "https://dc.lft.to/lastmile_qr_scan", "android": "https://dc.lft.to/lastmile_qr_scan"}, "lon": -77.112077, "type": "electric_bike", "fusion_lat": 0.0, "lat": 38.81311016666667, "name": "705b7918da962e0aed3e114dce467ec7", "fusion_lon": 0.0, "bike_id": "705b7918da962e0aed3e114dce467ec7", "is_disabled": 0, "is_reserved": 0}, {"rental_uris": {"ios": "https://dc.lft.to/lastmile_qr_scan", "android": "https://dc.lft.to/lastmile_qr_scan"}, "lon": -77.12259183333333, "type": "electric_bike", "fusion_lat": 0.0, "lat": 38.89190883333333, "name": "722ee681e1f00fa2ed49d85a186095c7", "fusion_lon": 0.0, "bike_id": "722ee681e1f00fa2ed49d85a186095c7", "is_disabled": 0, "is_reserved": 0}, {"rental_uris": {"ios": "https://dc.lft.to/lastmile_qr_scan", "android": "https://dc.lft.to/lastmile_qr_scan"}, "lon": -76.935431, "type": "electric_bike", "fusion_lat": 0.0, "lat": 38.95556783333333, "name": "3f97d22188256817d47f140cbcd715f0", "fusion_lon": 0.0, "bike_id": "3f97d22188256817d47f140cbcd715f0", "is_disabled": 0, "is_reserved": 0}, {"rental_uris": {"ios": "https://dc.lft.to/lastmile_qr_scan", "android": "https://dc.lft.to/lastmile_qr_scan"}, "lon": -77.04385033333334, "type": "electric_scooter", "fusion_lat": 0.0, "lat": 38.91662483333333, "name": "6b2392630180725f2b5cbd67bdc01293", "fusion_lon": 0.0, "bike_id": "6b2392630180725f2b5cbd67bdc01293", "is_disabled": 0, "is_reserved": 0}, {"rental_uris": {"ios": "https://dc.lft.to/lastmile_qr_scan", "android": "https://dc.lft.to/lastmile_qr_scan"}, "lon": -77.076807, "type": "electric_bike", "fusion_lat": 0.0, "lat": 38.83190283333333, "name": "62cd12b0f0a400bb050665ad9d1a2467", "fusion_lon": 0.0, "bike_id": "62cd12b0f0a400bb050665ad9d1a2467", "is_disabled": 0, "is_reserved": 0}, {"rental_uris": {"ios": "https://dc.lft.to/lastmile_qr_scan", "android": "https://dc.lft.to/lastmile_qr_scan"}, "lon": -77.04377666666667, "type": "electric_scooter", "fusion_lat": 0.0, "lat": 38.92067466666666, "name": "10466c9a7231388ee2f1944ce73e2bc2", "fusion_lon": 0.0, "bike_id": "10466c9a7231388ee2f1944ce73e2bc2", "is_disabled": 0, "is_reserved": 0}, {"rental_uris": {"ios": "https://dc.lft.to/lastmile_qr_scan", "android": "https://dc.lft.to/lastmile_qr_scan"}, "lon": -77.04265666666667, "type": "electric_scooter", "fusion_lat": 0.0, "lat": 38.922383833333335, "name": "84ab993f0e763775a7999366aa1273f0", "fusion_lon": 0.0, "bike_id": "84ab993f0e763775a7999366aa1273f0", "is_disabled": 0, "is_reserved": 0}, {"rental_uris": {"ios": "https://dc.lft.to/lastmile_qr_scan", "android": "https://dc.lft.to/lastmile_qr_scan"}, "lon": -77.0247715, "type": "electric_scooter", "fusion_lat": 0.0, "lat": 38.93821883333333, "name": "15e5efa5dbbbf00363e962c3fd8b7f34", "fusion_lon": 0.0, "bike_id": "15e5efa5dbbbf00363e962c3fd8b7f34", "is_disabled": 0, "is_reserved": 0}, {"rental_uris": {"ios": "https://dc.lft.to/lastmile_qr_scan", "android": "https://dc.lft.to/lastmile_qr_scan"}, "lon": -77.06945083333333, "type": "electric_scooter", "fusion_lat": 0.0, "lat": 38.905156166666664, "name": "838adef4823eb8f6941fc3bd3b6f71e1", "fusion_lon": 0.0, "bike_id": "838adef4823eb8f6941fc3bd3b6f71e1", "is_disabled": 0, "is_reserved": 0}, {"rental_uris": {"ios": "https://dc.lft.to/lastmile_qr_scan", "android": "https://dc.lft.to/lastmile_qr_scan"}, "lon": -77.0323695, "type": "electric_scooter", "fusion_lat": 0.0, "lat": 38.92773483333333, "name": "1b0e85de3e1934f0dd1ffc07ffa62b12", "fusion_lon": 0.0, "bike_id": "1b0e85de3e1934f0dd1ffc07ffa62b12", "is_disabled": 0, "is_reserved": 0}, {"rental_uris": {"ios": "https://dc.lft.to/lastmile_qr_scan", "android": "https://dc.lft.to/lastmile_qr_scan"}, "lon": -77.0118835, "type": "electric_scooter", "fusion_lat": 0.0, "lat": 38.9001395, "name": "298c90cc915bdfc796021f2e14e81868", "fusion_lon": 0.0, "bike_id": "298c90cc915bdfc796021f2e14e81868", "is_disabled": 0, "is_reserved": 0}, {"rental_uris": {"ios": "https://dc.lft.to/lastmile_qr_scan", "android": "https://dc.lft.to/lastmile_qr_scan"}, "lon": -77.00789316666666, "type": "electric_scooter", "fusion_lat": 0.0, "lat": 38.90639633333333, "name": "4417f19a9ac30da75baa1a5c26d0d1d9", "fusion_lon": 0.0, "bike_id": "4417f19a9ac30da75baa1a5c26d0d1d9", "is_disabled": 0, "is_reserved": 0}, {"rental_uris": {"ios": "https://dc.lft.to/lastmile_qr_scan", "android": "https://dc.lft.to/lastmile_qr_scan"}, "lon": -77.04166133333334, "type": "electric_scooter", "fusion_lat": 0.0, "lat": 38.917933166666664, "name": "a7aaacbca37f3a14871d975d8504e354", "fusion_lon": 0.0, "bike_id": "a7aaacbca37f3a14871d975d8504e354", "is_disabled": 0, "is_reserved": 0}, {"rental_uris": {"ios": "https://dc.lft.to/lastmile_qr_scan", "android": "https://dc.lft.to/lastmile_qr_scan"}, "lon": -77.014305, "type": "electric_scooter", "fusion_lat": 0.0, "lat": 38.90647333333333, "name": "115f9161ba52ad8e84e1410e0e099c68", "fusion_lon": 0.0, "bike_id": "115f9161ba52ad8e84e1410e0e099c68", "is_disabled": 0, "is_reserved": 0}, {"rental_uris": {"ios": "https://dc.lft.to/lastmile_qr_scan", "android": "https://dc.lft.to/lastmile_qr_scan"}, "lon": -77.01366483333334, "type": "electric_scooter", "fusion_lat": 0.0, "lat": 38.8636845, "name": "c531f1ffb95b4f3ef1fbec7ee6fe46cb", "fusion_lon": 0.0, "bike_id": "c531f1ffb95b4f3ef1fbec7ee6fe46cb", "is_disabled": 0, "is_reserved": 0}, {"rental_uris": {"ios": "https://dc.lft.to/lastmile_qr_scan", "android": "https://dc.lft.to/lastmile_qr_scan"}, "lon": -77.03559, "type": "electric_scooter", "fusion_lat": 0.0, "lat": 38.91806666666667, "name": "081850b71c841d1c3dd3e8efc0e36293", "fusion_lon": 0.0, "bike_id": "081850b71c841d1c3dd3e8efc0e36293", "is_disabled": 0, "is_reserved": 0}, {"rental_uris": {"ios": "https://dc.lft.to/lastmile_qr_scan", "android": "https://dc.lft.to/lastmile_qr_scan"}, "lon": -77.0364, "type": "electric_scooter", "fusion_lat": 0.0, "lat": 38.903665, "name": "9946beea79269f9f01da000a3f3a1848", "fusion_lon": 0.0, "bike_id": "9946beea79269f9f01da000a3f3a1848", "is_disabled": 0, "is_reserved": 0}, {"rental_uris": {"ios": "https://dc.lft.to/lastmile_qr_scan", "android": "https://dc.lft.to/lastmile_qr_scan"}, "lon": -77.02062766666667, "type": "electric_scooter", "fusion_lat": 0.0, "lat": 38.894892666666664, "name": "8a0380bcb1f6b97c3d9129ca2562dbba", "fusion_lon": 0.0, "bike_id": "8a0380bcb1f6b97c3d9129ca2562dbba", "is_disabled": 0, "is_reserved": 0}, {"rental_uris": {"ios": "https://dc.lft.to/lastmile_qr_scan", "android": "https://dc.lft.to/lastmile_qr_scan"}, "lon": -77.04727833333334, "type": "electric_scooter", "fusion_lat": 0.0, "lat": 38.884403666666664, "name": "f3734f7dac967884e35e36f6e5c32fb7", "fusion_lon": 0.0, "bike_id": "f3734f7dac967884e35e36f6e5c32fb7", "is_disabled": 0, "is_reserved": 0}, {"rental_uris": {"ios": "https://dc.lft.to/lastmile_qr_scan", "android": "https://dc.lft.to/lastmile_qr_scan"}, "lon": -76.93367216666667, "type": "electric_scooter", "fusion_lat": 0.0, "lat": 38.89912283333334, "name": "612a93c4010fcc9b0c667d2fa3b14a2b", "fusion_lon": 0.0, "bike_id": "612a93c4010fcc9b0c667d2fa3b14a2b", "is_disabled": 0, "is_reserved": 0}, {"rental_uris": {"ios": "https://dc.lft.to/lastmile_qr_scan", "android": "https://dc.lft.to/lastmile_qr_scan"}, "lon": -77.19904233333334, "type": "electric_bike", "fusion_lat": 0.0, "lat": 38.8752795, "name": "b19d7c738521730320b7de2a8901d848", "fusion_lon": 0.0, "bike_id": "b19d7c738521730320b7de2a8901d848", "is_disabled": 0, "is_reserved": 0}, {"rental_uris": {"ios": "https://dc.lft.to/lastmile_qr_scan", "android": "https://dc.lft.to/lastmile_qr_scan"}, "lon": -77.02107633333334, "type": "electric_scooter", "fusion_lat": 0.0, "lat": 38.879222, "name": "cfabfb793d2c9f6dcbd63f5dc1107f93", "fusion_lon": 0.0, "bike_id": "cfabfb793d2c9f6dcbd63f5dc1107f93", "is_disabled": 0, "is_reserved": 0}, {"rental_uris": {"ios": "https://dc.lft.to/lastmile_qr_scan", "android": "https://dc.lft.to/lastmile_qr_scan"}, "lon": -77.02164533333334, "type": "electric_scooter", "fusion_lat": 0.0, "lat": 38.887462666666664, "name": "e4270b02f811da621c77b95933c38c74", "fusion_lon": 0.0, "bike_id": "e4270b02f811da621c77b95933c38c74", "is_disabled": 0, "is_reserved": 0}, {"rental_uris": {"ios": "https://dc.lft.to/lastmile_qr_scan", "android": "https://dc.lft.to/lastmile_qr_scan"}, "lon": -77.05741133333333, "type": "electric_scooter", "fusion_lat": 0.0, "lat": 38.93399216666667, "name": "76ae189d163ab828440f5f5c7ea693be", "fusion_lon": 0.0, "bike_id": "76ae189d163ab828440f5f5c7ea693be", "is_disabled": 0, "is_reserved": 0}, {"rental_uris": {"ios": "https://dc.lft.to/lastmile_qr_scan", "android": "https://dc.lft.to/lastmile_qr_scan"}, "lon": -77.04809166666666, "type": "electric_scooter", "fusion_lat": 0.0, "lat": 38.9163885, "name": "8696a79d540c638f8e0e1259738e12bd", "fusion_lon": 0.0, "bike_id": "8696a79d540c638f8e0e1259738e12bd", "is_disabled": 0, "is_reserved": 0}, {"rental_uris": {"ios": "https://dc.lft.to/lastmile_qr_scan", "android": "https://dc.lft.to/lastmile_qr_scan"}, "lon": -76.98972633333334, "type": "electric_scooter", "fusion_lat": 0.0, "lat": 38.903951, "name": "36ac7aafdaadf2091e3c07c5b1e0fdf0", "fusion_lon": 0.0, "bike_id": "36ac7aafdaadf2091e3c07c5b1e0fdf0", "is_disabled": 0, "is_reserved": 0}, {"rental_uris": {"ios": "https://dc.lft.to/lastmile_qr_scan", "android": "https://dc.lft.to/lastmile_qr_scan"}, "lon": -77.01015433333333, "type": "electric_scooter", "fusion_lat": 0.0, "lat": 38.91808, "name": "9e42a0b6c6741dc079392dd302f02aa5", "fusion_lon": 0.0, "bike_id": "9e42a0b6c6741dc079392dd302f02aa5", "is_disabled": 0, "is_reserved": 0}, {"rental_uris": {"ios": "https://dc.lft.to/lastmile_qr_scan", "android": "https://dc.lft.to/lastmile_qr_scan"}, "lon": -77.054044, "type": "electric_scooter", "fusion_lat": 0.0, "lat": 38.9015775, "name": "b14fcb4bd4a79c24c0c57a1ae3060b81", "fusion_lon": 0.0, "bike_id": "b14fcb4bd4a79c24c0c57a1ae3060b81", "is_disabled": 0, "is_reserved": 0}, {"rental_uris": {"ios": "https://dc.lft.to/lastmile_qr_scan", "android": "https://dc.lft.to/lastmile_qr_scan"}, "lon": -77.023012, "type": "electric_scooter", "fusion_lat": 0.0, "lat": 38.91618966666667, "name": "39570f87171ae69cf8a53f5703e10be2", "fusion_lon": 0.0, "bike_id": "39570f87171ae69cf8a53f5703e10be2", "is_disabled": 0, "is_reserved": 0}, {"rental_uris": {"ios": "https://dc.lft.to/lastmile_qr_scan", "android": "https://dc.lft.to/lastmile_qr_scan"}, "lon": -77.02419566666667, "type": "electric_scooter", "fusion_lat": 0.0, "lat": 38.937168666666665, "name": "a9b9c752d30cf4ac6e3d0b17a0bd5e0a", "fusion_lon": 0.0, "bike_id": "a9b9c752d30cf4ac6e3d0b17a0bd5e0a", "is_disabled": 0, "is_reserved": 0}, {"rental_uris": {"ios": "https://dc.lft.to/lastmile_qr_scan", "android": "https://dc.lft.to/lastmile_qr_scan"}, "lon": -77.0458935, "type": "electric_scooter", "fusion_lat": 0.0, "lat": 38.90220933333333, "name": "45a6e14ad9ce3ae8eb84804a8aee6ca3", "fusion_lon": 0.0, "bike_id": "45a6e14ad9ce3ae8eb84804a8aee6ca3", "is_disabled": 0, "is_reserved": 0}, {"rental_uris": {"ios": "https://dc.lft.to/lastmile_qr_scan", "android": "https://dc.lft.to/lastmile_qr_scan"}, "lon": -77.0503275, "type": "electric_scooter", "fusion_lat": 0.0, "lat": 38.8965725, "name": "54f1ff1f1f5ee8a25d56053e96d13c46", "fusion_lon": 0.0, "bike_id": "54f1ff1f1f5ee8a25d56053e96d13c46", "is_disabled": 0, "is_reserved": 0}, {"rental_uris": {"ios": "https://dc.lft.to/lastmile_qr_scan", "android": "https://dc.lft.to/lastmile_qr_scan"}, "lon": -77.04681516666666, "type": "electric_scooter", "fusion_lat": 0.0, "lat": 38.89606116666667, "name": "0d2d2ba0d5d9e51e945e59a6582ef5fd", "fusion_lon": 0.0, "bike_id": "0d2d2ba0d5d9e51e945e59a6582ef5fd", "is_disabled": 0, "is_reserved": 0}, {"rental_uris": {"ios": "https://dc.lft.to/lastmile_qr_scan", "android": "https://dc.lft.to/lastmile_qr_scan"}, "lon": -76.97726566666667, "type": "electric_scooter", "fusion_lat": 0.0, "lat": 38.87250066666667, "name": "0c8969dec9fdb87dc9b974acfa8c7dc6", "fusion_lon": 0.0, "bike_id": "0c8969dec9fdb87dc9b974acfa8c7dc6", "is_disabled": 0, "is_reserved": 0}, {"rental_uris": {"ios": "https://dc.lft.to/lastmile_qr_scan", "android": "https://dc.lft.to/lastmile_qr_scan"}, "lon": -77.05429766666667, "type": "electric_scooter", "fusion_lat": 0.0, "lat": 38.92829483333333, "name": "14f6a81ed171b43caa9e2d621288bf2f", "fusion_lon": 0.0, "bike_id": "14f6a81ed171b43caa9e2d621288bf2f", "is_disabled": 0, "is_reserved": 0}, {"rental_uris": {"ios": "https://dc.lft.to/lastmile_qr_scan", "android": "https://dc.lft.to/lastmile_qr_scan"}, "lon": -77.02641583333333, "type": "electric_scooter", "fusion_lat": 0.0, "lat": 38.98498383333333, "name": "627162b6a33428a0a1f14f53d839ace3", "fusion_lon": 0.0, "bike_id": "627162b6a33428a0a1f14f53d839ace3", "is_disabled": 0, "is_reserved": 0}, {"rental_uris": {"ios": "https://dc.lft.to/lastmile_qr_scan", "android": "https://dc.lft.to/lastmile_qr_scan"}, "lon": -77.05059633333333, "type": "electric_scooter", "fusion_lat": 0.0, "lat": 38.92360983333333, "name": "fb079d40d7b489a3b09b7e502dd5960c", "fusion_lon": 0.0, "bike_id": "fb079d40d7b489a3b09b7e502dd5960c", "is_disabled": 0, "is_reserved": 0}, {"rental_uris": {"ios": "https://dc.lft.to/lastmile_qr_scan", "android": "https://dc.lft.to/lastmile_qr_scan"}, "lon": -77.05743466666667, "type": "electric_scooter", "fusion_lat": 0.0, "lat": 38.90494833333333, "name": "8f2efc977212e12299a37d01d04b1c5d", "fusion_lon": 0.0, "bike_id": "8f2efc977212e12299a37d01d04b1c5d", "is_disabled": 0, "is_reserved": 0}, {"rental_uris": {"ios": "https://dc.lft.to/lastmile_qr_scan", "android": "https://dc.lft.to/lastmile_qr_scan"}, "lon": -76.97327483333333, "type": "electric_bike", "fusion_lat": 0.0, "lat": 38.850627333333335, "name": "9a82d2704eb089c5e927d5429615d13f", "fusion_lon": 0.0, "bike_id": "9a82d2704eb089c5e927d5429615d13f", "is_disabled": 0, "is_reserved": 0}, {"rental_uris": {"ios": "https://dc.lft.to/lastmile_qr_scan", "android": "https://dc.lft.to/lastmile_qr_scan"}, "lon": -77.0344575, "type": "electric_scooter", "fusion_lat": 0.0, "lat": 38.91820583333333, "name": "21f408d6322f28544a6fa1a1d6d2b6f6", "fusion_lon": 0.0, "bike_id": "21f408d6322f28544a6fa1a1d6d2b6f6", "is_disabled": 0, "is_reserved": 0}, {"rental_uris": {"ios": "https://dc.lft.to/lastmile_qr_scan", "android": "https://dc.lft.to/lastmile_qr_scan"}, "lon": -77.03663616666667, "type": "electric_scooter", "fusion_lat": 0.0, "lat": 38.92990016666667, "name": "dc89e64e7762c0c05df7dd3959df934b", "fusion_lon": 0.0, "bike_id": "dc89e64e7762c0c05df7dd3959df934b", "is_disabled": 0, "is_reserved": 0}, {"rental_uris": {"ios": "https://dc.lft.to/lastmile_qr_scan", "android": "https://dc.lft.to/lastmile_qr_scan"}, "lon": -77.03222133333334, "type": "electric_scooter", "fusion_lat": 0.0, "lat": 38.938709833333334, "name": "8b27cbaf9e066fe8f9ab710ae7f89e73", "fusion_lon": 0.0, "bike_id": "8b27cbaf9e066fe8f9ab710ae7f89e73", "is_disabled": 0, "is_reserved": 0}, {"rental_uris": {"ios": "https://dc.lft.to/lastmile_qr_scan", "android": "https://dc.lft.to/lastmile_qr_scan"}, "lon": -77.03184933333333, "type": "electric_scooter", "fusion_lat": 0.0, "lat": 38.887303833333334, "name": "88575158fce69e772118f9be17cee8bd", "fusion_lon": 0.0, "bike_id": "88575158fce69e772118f9be17cee8bd", "is_disabled": 0, "is_reserved": 0}, {"rental_uris": {"ios": "https://dc.lft.to/lastmile_qr_scan", "android": "https://dc.lft.to/lastmile_qr_scan"}, "lon": -77.03219933333334, "type": "electric_scooter", "fusion_lat": 0.0, "lat": 38.926704666666666, "name": "8f85ec0b0437c1f960be8c92b1836f14", "fusion_lon": 0.0, "bike_id": "8f85ec0b0437c1f960be8c92b1836f14", "is_disabled": 0, "is_reserved": 0}, {"rental_uris": {"ios": "https://dc.lft.to/lastmile_qr_scan", "android": "https://dc.lft.to/lastmile_qr_scan"}, "lon": -76.989616, "type": "electric_scooter", "fusion_lat": 0.0, "lat": 38.9002645, "name": "95534908d22a25e7ff1eb5d6f3cdf56c", "fusion_lon": 0.0, "bike_id": "95534908d22a25e7ff1eb5d6f3cdf56c", "is_disabled": 0, "is_reserved": 0}, {"rental_uris": {"ios": "https://dc.lft.to/lastmile_qr_scan", "android": "https://dc.lft.to/lastmile_qr_scan"}, "lon": -77.1289655, "type": "electric_bike", "fusion_lat": 0.0, "lat": 38.8637675, "name": "4d56f4899b4360e1f062726798977e39", "fusion_lon": 0.0, "bike_id": "4d56f4899b4360e1f062726798977e39", "is_disabled": 0, "is_reserved": 0}, {"rental_uris": {"ios": "https://dc.lft.to/lastmile_qr_scan", "android": "https://dc.lft.to/lastmile_qr_scan"}, "lon": -77.067701, "type": "electric_bike", "fusion_lat": 0.0, "lat": 38.91545266666667, "name": "4947ef052bb45d82b34c4e620d317063", "fusion_lon": 0.0, "bike_id": "4947ef052bb45d82b34c4e620d317063", "is_disabled": 0, "is_reserved": 0}, {"rental_uris": {"ios": "https://dc.lft.to/lastmile_qr_scan", "android": "https://dc.lft.to/lastmile_qr_scan"}, "lon": -76.98648333333334, "type": "electric_scooter", "fusion_lat": 0.0, "lat": 38.858065333333336, "name": "5eb37dc049ac868c5c3db6e4898b4979", "fusion_lon": 0.0, "bike_id": "5eb37dc049ac868c5c3db6e4898b4979", "is_disabled": 0, "is_reserved": 0}, {"rental_uris": {"ios": "https://dc.lft.to/lastmile_qr_scan", "android": "https://dc.lft.to/lastmile_qr_scan"}, "lon": -77.00196633333333, "type": "electric_scooter", "fusion_lat": 0.0, "lat": 38.90036516666667, "name": "147296be524fcb1a3e5ed1e3d9180f79", "fusion_lon": 0.0, "bike_id": "147296be524fcb1a3e5ed1e3d9180f79", "is_disabled": 0, "is_reserved": 0}, {"rental_uris": {"ios": "https://dc.lft.to/lastmile_qr_scan", "android": "https://dc.lft.to/lastmile_qr_scan"}, "lon": -77.0231945, "type": "electric_scooter", "fusion_lat": 0.0, "lat": 38.94084466666666, "name": "d568818f2fc1d41e446f595fa759a10b", "fusion_lon": 0.0, "bike_id": "d568818f2fc1d41e446f595fa759a10b", "is_disabled": 0, "is_reserved": 0}, {"rental_uris": {"ios": "https://dc.lft.to/lastmile_qr_scan", "android": "https://dc.lft.to/lastmile_qr_scan"}, "lon": -77.01356083333333, "type": "electric_scooter", "fusion_lat": 0.0, "lat": 38.91934366666667, "name": "7632bca058b047b8337575571964d710", "fusion_lon": 0.0, "bike_id": "7632bca058b047b8337575571964d710", "is_disabled": 0, "is_reserved": 0}, {"rental_uris": {"ios": "https://dc.lft.to/lastmile_qr_scan", "android": "https://dc.lft.to/lastmile_qr_scan"}, "lon": -77.02812983333334, "type": "electric_scooter", "fusion_lat": 0.0, "lat": 38.90470283333333, "name": "c88ffa395d2cf51643504e487b1ee956", "fusion_lon": 0.0, "bike_id": "c88ffa395d2cf51643504e487b1ee956", "is_disabled": 0, "is_reserved": 0}, {"rental_uris": {"ios": "https://dc.lft.to/lastmile_qr_scan", "android": "https://dc.lft.to/lastmile_qr_scan"}, "lon": -77.04198733333334, "type": "electric_scooter", "fusion_lat": 0.0, "lat": 38.921022666666666, "name": "e4b7358515cba53311468be712b45a73", "fusion_lon": 0.0, "bike_id": "e4b7358515cba53311468be712b45a73", "is_disabled": 0, "is_reserved": 0}, {"rental_uris": {"ios": "https://dc.lft.to/lastmile_qr_scan", "android": "https://dc.lft.to/lastmile_qr_scan"}, "lon": -77.11274783333333, "type": "electric_bike", "fusion_lat": 0.0, "lat": 38.856297166666664, "name": "621ee4cdad5605e66f5185384788b72b", "fusion_lon": 0.0, "bike_id": "621ee4cdad5605e66f5185384788b72b", "is_disabled": 0, "is_reserved": 0}, {"rental_uris": {"ios": "https://dc.lft.to/lastmile_qr_scan", "android": "https://dc.lft.to/lastmile_qr_scan"}, "lon": -76.93171516666666, "type": "electric_scooter", "fusion_lat": 0.0, "lat": 38.89883316666667, "name": "a54315016ae89520cc2e402857567341", "fusion_lon": 0.0, "bike_id": "a54315016ae89520cc2e402857567341", "is_disabled": 0, "is_reserved": 0}, {"rental_uris": {"ios": "https://dc.lft.to/lastmile_qr_scan", "android": "https://dc.lft.to/lastmile_qr_scan"}, "lon": -77.02401533333334, "type": "electric_scooter", "fusion_lat": 0.0, "lat": 38.937036, "name": "a3b35664caa833b5f119bbd4acb3cc29", "fusion_lon": 0.0, "bike_id": "a3b35664caa833b5f119bbd4acb3cc29", "is_disabled": 0, "is_reserved": 0}, {"rental_uris": {"ios": "https://dc.lft.to/lastmile_qr_scan", "android": "https://dc.lft.to/lastmile_qr_scan"}, "lon": -77.038553, "type": "electric_scooter", "fusion_lat": 0.0, "lat": 38.91205016666667, "name": "f0455db0e1049b0797d88fc951ed84d8", "fusion_lon": 0.0, "bike_id": "f0455db0e1049b0797d88fc951ed84d8", "is_disabled": 0, "is_reserved": 0}, {"rental_uris": {"ios": "https://dc.lft.to/lastmile_qr_scan", "android": "https://dc.lft.to/lastmile_qr_scan"}, "lon": -77.00564666666666, "type": "electric_scooter", "fusion_lat": 0.0, "lat": 38.88507283333333, "name": "77afcf45fa8d711943c231e85d75e0ff", "fusion_lon": 0.0, "bike_id": "77afcf45fa8d711943c231e85d75e0ff", "is_disabled": 0, "is_reserved": 0}, {"rental_uris": {"ios": "https://dc.lft.to/lastmile_qr_scan", "android": "https://dc.lft.to/lastmile_qr_scan"}, "lon": -77.00298266666667, "type": "electric_bike", "fusion_lat": 0.0, "lat": 38.841812833333336, "name": "55b64f1a2ee3118969d84f54d3b85ec6", "fusion_lon": 0.0, "bike_id": "55b64f1a2ee3118969d84f54d3b85ec6", "is_disabled": 0, "is_reserved": 0}, {"rental_uris": {"ios": "https://dc.lft.to/lastmile_qr_scan", "android": "https://dc.lft.to/lastmile_qr_scan"}, "lon": -76.99347733333333, "type": "electric_scooter", "fusion_lat": 0.0, "lat": 38.90005466666667, "name": "0b375b5a925ed679a5e1c61daef0a5d0", "fusion_lon": 0.0, "bike_id": "0b375b5a925ed679a5e1c61daef0a5d0", "is_disabled": 0, "is_reserved": 0}, {"rental_uris": {"ios": "https://dc.lft.to/lastmile_qr_scan", "android": "https://dc.lft.to/lastmile_qr_scan"}, "lon": -77.04004783333333, "type": "electric_scooter", "fusion_lat": 0.0, "lat": 38.93254966666667, "name": "264010c0279e96cb998cd737067d6713", "fusion_lon": 0.0, "bike_id": "264010c0279e96cb998cd737067d6713", "is_disabled": 0, "is_reserved": 0}, {"rental_uris": {"ios": "https://dc.lft.to/lastmile_qr_scan", "android": "https://dc.lft.to/lastmile_qr_scan"}, "lon": -76.9915925, "type": "electric_bike", "fusion_lat": 0.0, "lat": 38.886316, "name": "566fba4758dcb37cb5c303c67c21d9ee", "fusion_lon": 0.0, "bike_id": "566fba4758dcb37cb5c303c67c21d9ee", "is_disabled": 0, "is_reserved": 0}, {"rental_uris": {"ios": "https://dc.lft.to/lastmile_qr_scan", "android": "https://dc.lft.to/lastmile_qr_scan"}, "lon": -77.014482, "type": "electric_scooter", "fusion_lat": 0.0, "lat": 38.929751, "name": "f54a76befe0a61b0298a3bad99f6a54d", "fusion_lon": 0.0, "bike_id": "f54a76befe0a61b0298a3bad99f6a54d", "is_disabled": 0, "is_reserved": 0}, {"rental_uris": {"ios": "https://dc.lft.to/lastmile_qr_scan", "android": "https://dc.lft.to/lastmile_qr_scan"}, "lon": -77.05741616666667, "type": "electric_scooter", "fusion_lat": 0.0, "lat": 38.933967, "name": "f9d6189dbc2a282db044ac4c466a12c8", "fusion_lon": 0.0, "bike_id": "f9d6189dbc2a282db044ac4c466a12c8", "is_disabled": 0, "is_reserved": 0}, {"rental_uris": {"ios": "https://dc.lft.to/lastmile_qr_scan", "android": "https://dc.lft.to/lastmile_qr_scan"}, "lon": -77.0530345, "type": "electric_scooter", "fusion_lat": 0.0, "lat": 38.899273, "name": "f71fcf6c0846d9c2103d5be3cb5ea10b", "fusion_lon": 0.0, "bike_id": "f71fcf6c0846d9c2103d5be3cb5ea10b", "is_disabled": 0, "is_reserved": 0}, {"rental_uris": {"ios": "https://dc.lft.to/lastmile_qr_scan", "android": "https://dc.lft.to/lastmile_qr_scan"}, "lon": -77.04917083333333, "type": "electric_scooter", "fusion_lat": 0.0, "lat": 38.919362666666665, "name": "fc9b277b9b717559eea34409dfef90bf", "fusion_lon": 0.0, "bike_id": "fc9b277b9b717559eea34409dfef90bf", "is_disabled": 0, "is_reserved": 0}, {"rental_uris": {"ios": "https://dc.lft.to/lastmile_qr_scan", "android": "https://dc.lft.to/lastmile_qr_scan"}, "lon": -77.02194266666666, "type": "electric_scooter", "fusion_lat": 0.0, "lat": 38.914820166666665, "name": "7228e61a84c6b75660445241f096a31e", "fusion_lon": 0.0, "bike_id": "7228e61a84c6b75660445241f096a31e", "is_disabled": 0, "is_reserved": 0}, {"rental_uris": {"ios": "https://dc.lft.to/lastmile_qr_scan", "android": "https://dc.lft.to/lastmile_qr_scan"}, "lon": -77.0401015, "type": "electric_scooter", "fusion_lat": 0.0, "lat": 38.898757833333335, "name": "ae9ed5cd5ea88abe9a34ca7293c6bde3", "fusion_lon": 0.0, "bike_id": "ae9ed5cd5ea88abe9a34ca7293c6bde3", "is_disabled": 0, "is_reserved": 0}, {"rental_uris": {"ios": "https://dc.lft.to/lastmile_qr_scan", "android": "https://dc.lft.to/lastmile_qr_scan"}, "lon": -77.04256766666667, "type": "electric_scooter", "fusion_lat": 0.0, "lat": 38.902811, "name": "1b4a47eeca7d8b5c2b55d0aedd3bbbda", "fusion_lon": 0.0, "bike_id": "1b4a47eeca7d8b5c2b55d0aedd3bbbda", "is_disabled": 0, "is_reserved": 0}, {"rental_uris": {"ios": "https://dc.lft.to/lastmile_qr_scan", "android": "https://dc.lft.to/lastmile_qr_scan"}, "lon": -77.032666, "type": "electric_scooter", "fusion_lat": 0.0, "lat": 38.92547233333333, "name": "963775949db9e5431a57cfa594ee7d48", "fusion_lon": 0.0, "bike_id": "963775949db9e5431a57cfa594ee7d48", "is_disabled": 0, "is_reserved": 0}, {"rental_uris": {"ios": "https://dc.lft.to/lastmile_qr_scan", "android": "https://dc.lft.to/lastmile_qr_scan"}, "lon": -77.03187, "type": "electric_scooter", "fusion_lat": 0.0, "lat": 38.918004833333335, "name": "f96b7ba46e1b4091ea03351fd4bb97d2", "fusion_lon": 0.0, "bike_id": "f96b7ba46e1b4091ea03351fd4bb97d2", "is_disabled": 0, "is_reserved": 0}, {"rental_uris": {"ios": "https://dc.lft.to/lastmile_qr_scan", "android": "https://dc.lft.to/lastmile_qr_scan"}, "lon": -77.106793, "type": "electric_bike", "fusion_lat": 0.0, "lat": 38.935803666666665, "name": "30d0b1bbf84f5eb5e145db66fb903b41", "fusion_lon": 0.0, "bike_id": "30d0b1bbf84f5eb5e145db66fb903b41", "is_disabled": 0, "is_reserved": 0}, {"rental_uris": {"ios": "https://dc.lft.to/lastmile_qr_scan", "android": "https://dc.lft.to/lastmile_qr_scan"}, "lon": -77.02222766666667, "type": "electric_scooter", "fusion_lat": 0.0, "lat": 38.898392, "name": "0aa8a469dd85711ae0e4bc14f707d343", "fusion_lon": 0.0, "bike_id": "0aa8a469dd85711ae0e4bc14f707d343", "is_disabled": 0, "is_reserved": 0}, {"rental_uris": {"ios": "https://dc.lft.to/lastmile_qr_scan", "android": "https://dc.lft.to/lastmile_qr_scan"}, "lon": -77.007206, "type": "electric_scooter", "fusion_lat": 0.0, "lat": 38.91193033333333, "name": "8930dfd1e57e908df93c3d53ab6759d8", "fusion_lon": 0.0, "bike_id": "8930dfd1e57e908df93c3d53ab6759d8", "is_disabled": 0, "is_reserved": 0}, {"rental_uris": {"ios": "https://dc.lft.to/lastmile_qr_scan", "android": "https://dc.lft.to/lastmile_qr_scan"}, "lon": -76.94877266666667, "type": "electric_scooter", "fusion_lat": 0.0, "lat": 38.895038166666666, "name": "779297d84b7553b6d04bde3ebd1e84d2", "fusion_lon": 0.0, "bike_id": "779297d84b7553b6d04bde3ebd1e84d2", "is_disabled": 0, "is_reserved": 0}, {"rental_uris": {"ios": "https://dc.lft.to/lastmile_qr_scan", "android": "https://dc.lft.to/lastmile_qr_scan"}, "lon": -77.00655766666667, "type": "electric_scooter", "fusion_lat": 0.0, "lat": 38.944646666666664, "name": "113aaa5737d4d0a01a3ea420fde9a527", "fusion_lon": 0.0, "bike_id": "113aaa5737d4d0a01a3ea420fde9a527", "is_disabled": 0, "is_reserved": 0}, {"rental_uris": {"ios": "https://dc.lft.to/lastmile_qr_scan", "android": "https://dc.lft.to/lastmile_qr_scan"}, "lon": -77.04330583333333, "type": "electric_scooter", "fusion_lat": 0.0, "lat": 38.89580183333333, "name": "d8e05b1524d7ab5f22be5a57d74cb338", "fusion_lon": 0.0, "bike_id": "d8e05b1524d7ab5f22be5a57d74cb338", "is_disabled": 0, "is_reserved": 0}, {"rental_uris": {"ios": "https://dc.lft.to/lastmile_qr_scan", "android": "https://dc.lft.to/lastmile_qr_scan"}, "lon": -77.032157, "type": "electric_scooter", "fusion_lat": 0.0, "lat": 38.91186666666667, "name": "3566dccad38e24eece4ef3704eda8f7d", "fusion_lon": 0.0, "bike_id": "3566dccad38e24eece4ef3704eda8f7d", "is_disabled": 0, "is_reserved": 0}, {"rental_uris": {"ios": "https://dc.lft.to/lastmile_qr_scan", "android": "https://dc.lft.to/lastmile_qr_scan"}, "lon": -77.066891, "type": "electric_scooter", "fusion_lat": 0.0, "lat": 38.905104333333334, "name": "bfecefb6957f648a9a42ec622e55f840", "fusion_lon": 0.0, "bike_id": "bfecefb6957f648a9a42ec622e55f840", "is_disabled": 0, "is_reserved": 0}, {"rental_uris": {"ios": "https://dc.lft.to/lastmile_qr_scan", "android": "https://dc.lft.to/lastmile_qr_scan"}, "lon": -77.03823866666667, "type": "electric_scooter", "fusion_lat": 0.0, "lat": 38.931094333333334, "name": "97c04b014580585e1064c093d67209d1", "fusion_lon": 0.0, "bike_id": "97c04b014580585e1064c093d67209d1", "is_disabled": 0, "is_reserved": 0}, {"rental_uris": {"ios": "https://dc.lft.to/lastmile_qr_scan", "android": "https://dc.lft.to/lastmile_qr_scan"}, "lon": -77.043475, "type": "electric_scooter", "fusion_lat": 0.0, "lat": 38.901340833333336, "name": "5da1e7165b6762d8e4a568944c210ccc", "fusion_lon": 0.0, "bike_id": "5da1e7165b6762d8e4a568944c210ccc", "is_disabled": 0, "is_reserved": 0}, {"rental_uris": {"ios": "https://dc.lft.to/lastmile_qr_scan", "android": "https://dc.lft.to/lastmile_qr_scan"}, "lon": -77.02723, "type": "electric_scooter", "fusion_lat": 0.0, "lat": 38.8963645, "name": "4a934531931bd01ff751ad31d90c3e4a", "fusion_lon": 0.0, "bike_id": "4a934531931bd01ff751ad31d90c3e4a", "is_disabled": 0, "is_reserved": 0}, {"rental_uris": {"ios": "https://dc.lft.to/lastmile_qr_scan", "android": "https://dc.lft.to/lastmile_qr_scan"}, "lon": -77.0962195, "type": "electric_bike", "fusion_lat": 0.0, "lat": 38.8457325, "name": "dec56a6e6b3f01fa7885aba1e5585cc7", "fusion_lon": 0.0, "bike_id": "dec56a6e6b3f01fa7885aba1e5585cc7", "is_disabled": 0, "is_reserved": 0}, {"rental_uris": {"ios": "https://dc.lft.to/lastmile_qr_scan", "android": "https://dc.lft.to/lastmile_qr_scan"}, "lon": -77.03579733333333, "type": "electric_scooter", "fusion_lat": 0.0, "lat": 38.93390983333333, "name": "530089cf4f538059271ca26e2bae43f6", "fusion_lon": 0.0, "bike_id": "530089cf4f538059271ca26e2bae43f6", "is_disabled": 0, "is_reserved": 0}, {"rental_uris": {"ios": "https://dc.lft.to/lastmile_qr_scan", "android": "https://dc.lft.to/lastmile_qr_scan"}, "lon": -77.04618566666667, "type": "electric_bike", "fusion_lat": 0.0, "lat": 38.999092, "name": "845860e20dfa3d514271559f61da35b0", "fusion_lon": 0.0, "bike_id": "845860e20dfa3d514271559f61da35b0", "is_disabled": 0, "is_reserved": 0}, {"rental_uris": {"ios": "https://dc.lft.to/lastmile_qr_scan", "android": "https://dc.lft.to/lastmile_qr_scan"}, "lon": -77.06469616666666, "type": "electric_bike", "fusion_lat": 0.0, "lat": 38.9738425, "name": "7caacd374d3d4eddc622ae1bd26b72bf", "fusion_lon": 0.0, "bike_id": "7caacd374d3d4eddc622ae1bd26b72bf", "is_disabled": 0, "is_reserved": 0}, {"rental_uris": {"ios": "https://dc.lft.to/lastmile_qr_scan", "android": "https://dc.lft.to/lastmile_qr_scan"}, "lon": -77.0006685, "type": "electric_scooter", "fusion_lat": 0.0, "lat": 38.920579000000004, "name": "4df9837bc5a95146146a63841e21e1b3", "fusion_lon": 0.0, "bike_id": "4df9837bc5a95146146a63841e21e1b3", "is_disabled": 0, "is_reserved": 0}, {"rental_uris": {"ios": "https://dc.lft.to/lastmile_qr_scan", "android": "https://dc.lft.to/lastmile_qr_scan"}, "lon": -77.04165016666667, "type": "electric_scooter", "fusion_lat": 0.0, "lat": 38.919584666666665, "name": "33d07a638f26db784f3d8918619c1d35", "fusion_lon": 0.0, "bike_id": "33d07a638f26db784f3d8918619c1d35", "is_disabled": 0, "is_reserved": 0}, {"rental_uris": {"ios": "https://dc.lft.to/lastmile_qr_scan", "android": "https://dc.lft.to/lastmile_qr_scan"}, "lon": -77.0486455, "type": "electric_scooter", "fusion_lat": 0.0, "lat": 38.90850533333333, "name": "8376715765478a068b4a72bcc1407607", "fusion_lon": 0.0, "bike_id": "8376715765478a068b4a72bcc1407607", "is_disabled": 0, "is_reserved": 0}, {"rental_uris": {"ios": "https://dc.lft.to/lastmile_qr_scan", "android": "https://dc.lft.to/lastmile_qr_scan"}, "lon": -77.060886, "type": "electric_scooter", "fusion_lat": 0.0, "lat": 38.91272433333334, "name": "213e7243d9d4ebce269fcc3d6e4789ea", "fusion_lon": 0.0, "bike_id": "213e7243d9d4ebce269fcc3d6e4789ea", "is_disabled": 0, "is_reserved": 0}, {"rental_uris": {"ios": "https://dc.lft.to/lastmile_qr_scan", "android": "https://dc.lft.to/lastmile_qr_scan"}, "lon": -77.02476766666666, "type": "electric_scooter", "fusion_lat": 0.0, "lat": 38.916935, "name": "08489c3d79f5aa318051f2cfac9f02a5", "fusion_lon": 0.0, "bike_id": "08489c3d79f5aa318051f2cfac9f02a5", "is_disabled": 0, "is_reserved": 0}, {"rental_uris": {"ios": "https://dc.lft.to/lastmile_qr_scan", "android": "https://dc.lft.to/lastmile_qr_scan"}, "lon": -77.03220383333333, "type": "electric_scooter", "fusion_lat": 0.0, "lat": 38.92669433333333, "name": "a72f6b558eeadd4fcadac1a0d396d955", "fusion_lon": 0.0, "bike_id": "a72f6b558eeadd4fcadac1a0d396d955", "is_disabled": 0, "is_reserved": 0}, {"rental_uris": {"ios": "https://dc.lft.to/lastmile_qr_scan", "android": "https://dc.lft.to/lastmile_qr_scan"}, "lon": -77.00530783333333, "type": "electric_scooter", "fusion_lat": 0.0, "lat": 38.902567833333336, "name": "580f4dff110c7930547ba3f0e2488f70", "fusion_lon": 0.0, "bike_id": "580f4dff110c7930547ba3f0e2488f70", "is_disabled": 0, "is_reserved": 0}, {"rental_uris": {"ios": "https://dc.lft.to/lastmile_qr_scan", "android": "https://dc.lft.to/lastmile_qr_scan"}, "lon": -77.0580995, "type": "electric_scooter", "fusion_lat": 0.0, "lat": 38.93449833333333, "name": "0cad2dd83fef1301110c25d6c84fbe78", "fusion_lon": 0.0, "bike_id": "0cad2dd83fef1301110c25d6c84fbe78", "is_disabled": 0, "is_reserved": 0}, {"rental_uris": {"ios": "https://dc.lft.to/lastmile_qr_scan", "android": "https://dc.lft.to/lastmile_qr_scan"}, "lon": -77.02336283333334, "type": "electric_scooter", "fusion_lat": 0.0, "lat": 38.92518166666667, "name": "5eb36156f80f7f8f5bd396b234324c28", "fusion_lon": 0.0, "bike_id": "5eb36156f80f7f8f5bd396b234324c28", "is_disabled": 0, "is_reserved": 0}, {"rental_uris": {"ios": "https://dc.lft.to/lastmile_qr_scan", "android": "https://dc.lft.to/lastmile_qr_scan"}, "lon": -77.00889233333334, "type": "electric_scooter", "fusion_lat": 0.0, "lat": 38.9142, "name": "55b1c8e2eb74c2cad16a98c9b5a4695e", "fusion_lon": 0.0, "bike_id": "55b1c8e2eb74c2cad16a98c9b5a4695e", "is_disabled": 0, "is_reserved": 0}, {"rental_uris": {"ios": "https://dc.lft.to/lastmile_qr_scan", "android": "https://dc.lft.to/lastmile_qr_scan"}, "lon": -77.03523366666667, "type": "electric_scooter", "fusion_lat": 0.0, "lat": 38.93592016666667, "name": "81e0b045dfe669b2c8a98bf30b425e16", "fusion_lon": 0.0, "bike_id": "81e0b045dfe669b2c8a98bf30b425e16", "is_disabled": 0, "is_reserved": 0}, {"rental_uris": {"ios": "https://dc.lft.to/lastmile_qr_scan", "android": "https://dc.lft.to/lastmile_qr_scan"}, "lon": -76.97407216666667, "type": "electric_scooter", "fusion_lat": 0.0, "lat": 38.90160633333333, "name": "6ed68ecae31206610fb27fda64a58ff9", "fusion_lon": 0.0, "bike_id": "6ed68ecae31206610fb27fda64a58ff9", "is_disabled": 0, "is_reserved": 0}, {"rental_uris": {"ios": "https://dc.lft.to/lastmile_qr_scan", "android": "https://dc.lft.to/lastmile_qr_scan"}, "lon": -76.93717416666667, "type": "electric_scooter", "fusion_lat": 0.0, "lat": 38.89587483333333, "name": "ef7a2b4055513684953c4d40864abbe7", "fusion_lon": 0.0, "bike_id": "ef7a2b4055513684953c4d40864abbe7", "is_disabled": 0, "is_reserved": 0}, {"rental_uris": {"ios": "https://dc.lft.to/lastmile_qr_scan", "android": "https://dc.lft.to/lastmile_qr_scan"}, "lon": -77.04107466666666, "type": "electric_scooter", "fusion_lat": 0.0, "lat": 38.92444233333333, "name": "6491d2832ea64b465e3c5ab5b3048982", "fusion_lon": 0.0, "bike_id": "6491d2832ea64b465e3c5ab5b3048982", "is_disabled": 0, "is_reserved": 0}, {"rental_uris": {"ios": "https://dc.lft.to/lastmile_qr_scan", "android": "https://dc.lft.to/lastmile_qr_scan"}, "lon": -77.02590633333334, "type": "electric_scooter", "fusion_lat": 0.0, "lat": 38.892658, "name": "948591a847076e49c5ab9355509df218", "fusion_lon": 0.0, "bike_id": "948591a847076e49c5ab9355509df218", "is_disabled": 0, "is_reserved": 0}, {"rental_uris": {"ios": "https://dc.lft.to/lastmile_qr_scan", "android": "https://dc.lft.to/lastmile_qr_scan"}, "lon": -76.97488433333334, "type": "electric_bike", "fusion_lat": 0.0, "lat": 38.920067333333336, "name": "06c60dbbacff1ce6cb5f29b23e400024", "fusion_lon": 0.0, "bike_id": "06c60dbbacff1ce6cb5f29b23e400024", "is_disabled": 0, "is_reserved": 0}, {"rental_uris": {"ios": "https://dc.lft.to/lastmile_qr_scan", "android": "https://dc.lft.to/lastmile_qr_scan"}, "lon": -77.044492, "type": "electric_scooter", "fusion_lat": 0.0, "lat": 38.910159166666666, "name": "bf7aab1da0c840487030be0de2072166", "fusion_lon": 0.0, "bike_id": "bf7aab1da0c840487030be0de2072166", "is_disabled": 0, "is_reserved": 0}, {"rental_uris": {"ios": "https://dc.lft.to/lastmile_qr_scan", "android": "https://dc.lft.to/lastmile_qr_scan"}, "lon": -77.03211166666667, "type": "electric_scooter", "fusion_lat": 0.0, "lat": 38.892366, "name": "6bd8abe072c9b4806c2a0a13127b9340", "fusion_lon": 0.0, "bike_id": "6bd8abe072c9b4806c2a0a13127b9340", "is_disabled": 0, "is_reserved": 0}, {"rental_uris": {"ios": "https://dc.lft.to/lastmile_qr_scan", "android": "https://dc.lft.to/lastmile_qr_scan"}, "lon": -77.03672133333333, "type": "electric_scooter", "fusion_lat": 0.0, "lat": 38.91822116666667, "name": "9c8eae5bf47ae1d1c11fcb86370cfa47", "fusion_lon": 0.0, "bike_id": "9c8eae5bf47ae1d1c11fcb86370cfa47", "is_disabled": 0, "is_reserved": 0}, {"rental_uris": {"ios": "https://dc.lft.to/lastmile_qr_scan", "android": "https://dc.lft.to/lastmile_qr_scan"}, "lon": -77.02478233333333, "type": "electric_scooter", "fusion_lat": 0.0, "lat": 38.938266, "name": "8ae14d7b8b57ddeba38ea5ed95fb37f0", "fusion_lon": 0.0, "bike_id": "8ae14d7b8b57ddeba38ea5ed95fb37f0", "is_disabled": 0, "is_reserved": 0}, {"rental_uris": {"ios": "https://dc.lft.to/lastmile_qr_scan", "android": "https://dc.lft.to/lastmile_qr_scan"}, "lon": -77.098721, "type": "electric_bike", "fusion_lat": 0.0, "lat": 38.853707166666666, "name": "54f5c127a472b2c92328d4e412d2c762", "fusion_lon": 0.0, "bike_id": "54f5c127a472b2c92328d4e412d2c762", "is_disabled": 0, "is_reserved": 0}, {"rental_uris": {"ios": "https://dc.lft.to/lastmile_qr_scan", "android": "https://dc.lft.to/lastmile_qr_scan"}, "lon": -77.03381533333334, "type": "electric_scooter", "fusion_lat": 0.0, "lat": 38.938444, "name": "588b5d8d1110131b2fc0e172765cb0ca", "fusion_lon": 0.0, "bike_id": "588b5d8d1110131b2fc0e172765cb0ca", "is_disabled": 0, "is_reserved": 0}, {"rental_uris": {"ios": "https://dc.lft.to/lastmile_qr_scan", "android": "https://dc.lft.to/lastmile_qr_scan"}, "lon": -77.04744483333333, "type": "electric_scooter", "fusion_lat": 0.0, "lat": 38.91772366666667, "name": "eccf0b3318656902a3569b0a26d8b5e0", "fusion_lon": 0.0, "bike_id": "eccf0b3318656902a3569b0a26d8b5e0", "is_disabled": 0, "is_reserved": 0}, {"rental_uris": {"ios": "https://dc.lft.to/lastmile_qr_scan", "android": "https://dc.lft.to/lastmile_qr_scan"}, "lon": -77.01080383333333, "type": "electric_scooter", "fusion_lat": 0.0, "lat": 38.8940265, "name": "5548369d94e64aaddf36aae2eff4e659", "fusion_lon": 0.0, "bike_id": "5548369d94e64aaddf36aae2eff4e659", "is_disabled": 0, "is_reserved": 0}, {"rental_uris": {"ios": "https://dc.lft.to/lastmile_qr_scan", "android": "https://dc.lft.to/lastmile_qr_scan"}, "lon": -77.00186683333334, "type": "electric_scooter", "fusion_lat": 0.0, "lat": 38.873856, "name": "589a91a73dbc7e38fb699e936ddcafef", "fusion_lon": 0.0, "bike_id": "589a91a73dbc7e38fb699e936ddcafef", "is_disabled": 0, "is_reserved": 0}, {"rental_uris": {"ios": "https://dc.lft.to/lastmile_qr_scan", "android": "https://dc.lft.to/lastmile_qr_scan"}, "lon": -77.03266916666666, "type": "electric_scooter", "fusion_lat": 0.0, "lat": 38.93660883333333, "name": "419e533e96268693700d3fcd4f68a80d", "fusion_lon": 0.0, "bike_id": "419e533e96268693700d3fcd4f68a80d", "is_disabled": 0, "is_reserved": 0}, {"rental_uris": {"ios": "https://dc.lft.to/lastmile_qr_scan", "android": "https://dc.lft.to/lastmile_qr_scan"}, "lon": -77.06942033333333, "type": "electric_scooter", "fusion_lat": 0.0, "lat": 38.9051275, "name": "220869437b70c242d698038f60558b91", "fusion_lon": 0.0, "bike_id": "220869437b70c242d698038f60558b91", "is_disabled": 0, "is_reserved": 0}, {"rental_uris": {"ios": "https://dc.lft.to/lastmile_qr_scan", "android": "https://dc.lft.to/lastmile_qr_scan"}, "lon": -77.10125966666666, "type": "electric_bike", "fusion_lat": 0.0, "lat": 38.852098833333336, "name": "e850ed322ec69f26e10d198409976b90", "fusion_lon": 0.0, "bike_id": "e850ed322ec69f26e10d198409976b90", "is_disabled": 0, "is_reserved": 0}, {"rental_uris": {"ios": "https://dc.lft.to/lastmile_qr_scan", "android": "https://dc.lft.to/lastmile_qr_scan"}, "lon": -77.00099266666666, "type": "electric_scooter", "fusion_lat": 0.0, "lat": 38.89999266666667, "name": "999cc51f5426e9b6aa72268cf25db8c3", "fusion_lon": 0.0, "bike_id": "999cc51f5426e9b6aa72268cf25db8c3", "is_disabled": 0, "is_reserved": 0}, {"rental_uris": {"ios": "https://dc.lft.to/lastmile_qr_scan", "android": "https://dc.lft.to/lastmile_qr_scan"}, "lon": -77.01409566666666, "type": "electric_scooter", "fusion_lat": 0.0, "lat": 38.92020383333333, "name": "bd9385f3975e42686a218f4cb8f9c27f", "fusion_lon": 0.0, "bike_id": "bd9385f3975e42686a218f4cb8f9c27f", "is_disabled": 0, "is_reserved": 0}, {"rental_uris": {"ios": "https://dc.lft.to/lastmile_qr_scan", "android": "https://dc.lft.to/lastmile_qr_scan"}, "lon": -77.03955233333333, "type": "electric_scooter", "fusion_lat": 0.0, "lat": 38.91987183333333, "name": "71fc7c86ce65b8e237bf2d9b96162941", "fusion_lon": 0.0, "bike_id": "71fc7c86ce65b8e237bf2d9b96162941", "is_disabled": 0, "is_reserved": 0}, {"rental_uris": {"ios": "https://dc.lft.to/lastmile_qr_scan", "android": "https://dc.lft.to/lastmile_qr_scan"}, "lon": -76.9464995, "type": "electric_scooter", "fusion_lat": 0.0, "lat": 38.898255666666664, "name": "8162152ed362e144a531231d90271903", "fusion_lon": 0.0, "bike_id": "8162152ed362e144a531231d90271903", "is_disabled": 0, "is_reserved": 0}, {"rental_uris": {"ios": "https://dc.lft.to/lastmile_qr_scan", "android": "https://dc.lft.to/lastmile_qr_scan"}, "lon": -77.03234566666667, "type": "electric_scooter", "fusion_lat": 0.0, "lat": 38.900474333333335, "name": "5bca6a6280c6d76ba22412a8c48eab34", "fusion_lon": 0.0, "bike_id": "5bca6a6280c6d76ba22412a8c48eab34", "is_disabled": 0, "is_reserved": 0}, {"rental_uris": {"ios": "https://dc.lft.to/lastmile_qr_scan", "android": "https://dc.lft.to/lastmile_qr_scan"}, "lon": -77.0287005, "type": "electric_scooter", "fusion_lat": 0.0, "lat": 38.882867, "name": "58888ab398c16b4e3a9bddc77eb94a30", "fusion_lon": 0.0, "bike_id": "58888ab398c16b4e3a9bddc77eb94a30", "is_disabled": 0, "is_reserved": 0}, {"rental_uris": {"ios": "https://dc.lft.to/lastmile_qr_scan", "android": "https://dc.lft.to/lastmile_qr_scan"}, "lon": -77.0326315, "type": "electric_scooter", "fusion_lat": 0.0, "lat": 38.92850216666667, "name": "3585a028d8f8ab149f0143b2212b23c3", "fusion_lon": 0.0, "bike_id": "3585a028d8f8ab149f0143b2212b23c3", "is_disabled": 0, "is_reserved": 0}, {"rental_uris": {"ios": "https://dc.lft.to/lastmile_qr_scan", "android": "https://dc.lft.to/lastmile_qr_scan"}, "lon": -77.02072766666667, "type": "electric_scooter", "fusion_lat": 0.0, "lat": 38.899825166666666, "name": "5436f02754e529d4fb7af167e385510d", "fusion_lon": 0.0, "bike_id": "5436f02754e529d4fb7af167e385510d", "is_disabled": 0, "is_reserved": 0}, {"rental_uris": {"ios": "https://dc.lft.to/lastmile_qr_scan", "android": "https://dc.lft.to/lastmile_qr_scan"}, "lon": -76.97665066666667, "type": "electric_bike", "fusion_lat": 0.0, "lat": 38.96624516666667, "name": "29f6a8904f383a3bb3072c05b04e5c11", "fusion_lon": 0.0, "bike_id": "29f6a8904f383a3bb3072c05b04e5c11", "is_disabled": 0, "is_reserved": 0}, {"rental_uris": {"ios": "https://dc.lft.to/lastmile_qr_scan", "android": "https://dc.lft.to/lastmile_qr_scan"}, "lon": -77.02976483333333, "type": "electric_scooter", "fusion_lat": 0.0, "lat": 38.90044733333333, "name": "7e75372944030a2c18d57ea7682da7a3", "fusion_lon": 0.0, "bike_id": "7e75372944030a2c18d57ea7682da7a3", "is_disabled": 0, "is_reserved": 0}, {"rental_uris": {"ios": "https://dc.lft.to/lastmile_qr_scan", "android": "https://dc.lft.to/lastmile_qr_scan"}, "lon": -77.02697283333333, "type": "electric_scooter", "fusion_lat": 0.0, "lat": 38.899211, "name": "debdc3141ff41c4327688cdc27b6bbf6", "fusion_lon": 0.0, "bike_id": "debdc3141ff41c4327688cdc27b6bbf6", "is_disabled": 0, "is_reserved": 0}, {"rental_uris": {"ios": "https://dc.lft.to/lastmile_qr_scan", "android": "https://dc.lft.to/lastmile_qr_scan"}, "lon": -77.03871183333334, "type": "electric_scooter", "fusion_lat": 0.0, "lat": 38.93434416666667, "name": "b4d2c0f40b03db0dadd95b0e9530c43d", "fusion_lon": 0.0, "bike_id": "b4d2c0f40b03db0dadd95b0e9530c43d", "is_disabled": 0, "is_reserved": 0}, {"rental_uris": {"ios": "https://dc.lft.to/lastmile_qr_scan", "android": "https://dc.lft.to/lastmile_qr_scan"}, "lon": -77.03192466666667, "type": "electric_scooter", "fusion_lat": 0.0, "lat": 38.918723, "name": "a498892bd99c2acb3045b261fa888d30", "fusion_lon": 0.0, "bike_id": "a498892bd99c2acb3045b261fa888d30", "is_disabled": 0, "is_reserved": 0}, {"rental_uris": {"ios": "https://dc.lft.to/lastmile_qr_scan", "android": "https://dc.lft.to/lastmile_qr_scan"}, "lon": -77.02124083333334, "type": "electric_scooter", "fusion_lat": 0.0, "lat": 38.91612216666667, "name": "540a7d4a2670521723888e806497ef2e", "fusion_lon": 0.0, "bike_id": "540a7d4a2670521723888e806497ef2e", "is_disabled": 0, "is_reserved": 0}, {"rental_uris": {"ios": "https://dc.lft.to/lastmile_qr_scan", "android": "https://dc.lft.to/lastmile_qr_scan"}, "lon": -76.933707, "type": "electric_scooter", "fusion_lat": 0.0, "lat": 38.8991605, "name": "0a08ff89ecce4ec219c47f4f8242be7f", "fusion_lon": 0.0, "bike_id": "0a08ff89ecce4ec219c47f4f8242be7f", "is_disabled": 0, "is_reserved": 0}, {"rental_uris": {"ios": "https://dc.lft.to/lastmile_qr_scan", "android": "https://dc.lft.to/lastmile_qr_scan"}, "lon": -77.02221683333333, "type": "electric_scooter", "fusion_lat": 0.0, "lat": 38.89219166666667, "name": "67e9aa318cf5adfd61c17847a138e8ea", "fusion_lon": 0.0, "bike_id": "67e9aa318cf5adfd61c17847a138e8ea", "is_disabled": 0, "is_reserved": 0}, {"rental_uris": {"ios": "https://dc.lft.to/lastmile_qr_scan", "android": "https://dc.lft.to/lastmile_qr_scan"}, "lon": -77.04167466666667, "type": "electric_scooter", "fusion_lat": 0.0, "lat": 38.92005616666667, "name": "9009d597682f15462de1afb75f2d1d30", "fusion_lon": 0.0, "bike_id": "9009d597682f15462de1afb75f2d1d30", "is_disabled": 0, "is_reserved": 0}, {"rental_uris": {"ios": "https://dc.lft.to/lastmile_qr_scan", "android": "https://dc.lft.to/lastmile_qr_scan"}, "lon": -76.95599233333333, "type": "electric_scooter", "fusion_lat": 0.0, "lat": 38.88763566666667, "name": "e1602f76b8fa5533b20f1f885be01d7b", "fusion_lon": 0.0, "bike_id": "e1602f76b8fa5533b20f1f885be01d7b", "is_disabled": 0, "is_reserved": 0}, {"rental_uris": {"ios": "https://dc.lft.to/lastmile_qr_scan", "android": "https://dc.lft.to/lastmile_qr_scan"}, "lon": -77.05795233333333, "type": "electric_scooter", "fusion_lat": 0.0, "lat": 38.90292183333333, "name": "533b4a2f827ae27869ded8f67b45491e", "fusion_lon": 0.0, "bike_id": "533b4a2f827ae27869ded8f67b45491e", "is_disabled": 0, "is_reserved": 0}, {"rental_uris": {"ios": "https://dc.lft.to/lastmile_qr_scan", "android": "https://dc.lft.to/lastmile_qr_scan"}, "lon": -77.0481385, "type": "electric_scooter", "fusion_lat": 0.0, "lat": 38.89736033333333, "name": "77de8f7b3bba53360b1f020bbebe8968", "fusion_lon": 0.0, "bike_id": "77de8f7b3bba53360b1f020bbebe8968", "is_disabled": 0, "is_reserved": 0},