{"data": {"bikes": [{"rental_uris": {"ios": "https://dc.lft.to/lastmile_qr_scan", "android": "https://dc.lft.to/lastmile_qr_scan"}, "type": "electric_scooter", "name": "b81556a01379482551e274da914ead0d", "is_reserved": 0, "lon": -77.034454, "is_disabled": 0, "fusion_lat": 0.0, "lat": 38.90738316666667, "bike_id": "b81556a01379482551e274da914ead0d", "fusion_lon": 0.0}, {"rental_uris": {"ios": "https://dc.lft.to/lastmile_qr_scan", "android": "https://dc.lft.to/lastmile_qr_scan"}, "type": "electric_scooter", "name": "a222d071f54a5da76f26fbe362cf3497", "is_reserved": 0, "lon": -77.04069683333333, "is_disabled": 0, "fusion_lat": 0.0, "lat": 38.94777716666667, "bike_id": "a222d071f54a5da76f26fbe362cf3497", "fusion_lon": 0.0}, {"rental_uris": {"ios": "https://dc.lft.to/lastmile_qr_scan", "android": "https://dc.lft.to/lastmile_qr_scan"}, "type": "electric_scooter", "name": "a424d9f926f8e4e1b6e69997fda8dbd4", "is_reserved": 0, "lon": -77.03960266666667, "is_disabled": 0, "fusion_lat": 0.0, "lat": 38.892481333333336, "bike_id": "a424d9f926f8e4e1b6e69997fda8dbd4", "fusion_lon": 0.0}, {"rental_uris": {"ios": "https://dc.lft.to/lastmile_qr_scan", "android": "https://dc.lft.to/lastmile_qr_scan"}, "type": "electric_scooter", "name": "c5b208680fa034ee1dd3efb7d9703947", "is_reserved": 0, "lon": -77.00726633333333, "is_disabled": 0, "fusion_lat": 0.0, "lat": 38.8971, "bike_id": "c5b208680fa034ee1dd3efb7d9703947", "fusion_lon": 0.0}, {"rental_uris": {"ios": "https://dc.lft.to/lastmile_qr_scan", "android": "https://dc.lft.to/lastmile_qr_scan"}, "type": "electric_scooter", "name": "63c3315b8450908cf9e7df1464a8066f", "is_reserved": 0, "lon": -77.04947433333334, "is_disabled": 0, "fusion_lat": 0.0, "lat": 38.900828, "bike_id": "63c3315b8450908cf9e7df1464a8066f", "fusion_lon": 0.0}, {"rental_uris": {"ios": "https://dc.lft.to/lastmile_qr_scan", "android": "https://dc.lft.to/lastmile_qr_scan"}, "type": "electric_scooter", "name": "dae21a00ff65868db4f05df5c3ea0bb9", "is_reserved": 0, "lon": -77.03170133333333, "is_disabled": 0, "fusion_lat": 0.0, "lat": 38.9211195, "bike_id": "dae21a00ff65868db4f05df5c3ea0bb9", "fusion_lon": 0.0}, {"rental_uris": {"ios": "https://dc.lft.to/lastmile_qr_scan", "android": "https://dc.lft.to/lastmile_qr_scan"}, "type": "electric_scooter", "name": "8392748d7f8c73b90bbf4abeacbaf9bd", "is_reserved": 0, "lon": -77.01967916666666, "is_disabled": 0, "fusion_lat": 0.0, "lat": 38.9565325, "bike_id": "8392748d7f8c73b90bbf4abeacbaf9bd", "fusion_lon": 0.0}, {"rental_uris": {"ios": "https://dc.lft.to/lastmile_qr_scan", "android": "https://dc.lft.to/lastmile_qr_scan"}, "type": "electric_scooter", "name": "99574c349bf980052817ced6375fe289", "is_reserved": 0, "lon": -77.03659333333333, "is_disabled": 0, "fusion_lat": 0.0, "lat": 38.918237833333336, "bike_id": "99574c349bf980052817ced6375fe289", "fusion_lon": 0.0}, {"rental_uris": {"ios": "https://dc.lft.to/lastmile_qr_scan", "android": "https://dc.lft.to/lastmile_qr_scan"}, "type": "electric_scooter", "name": "d7ddb5bc9b71a0e1d4bf69d776faa301", "is_reserved": 0, "lon": -77.006858, "is_disabled": 0, "fusion_lat": 0.0, "lat": 38.87165, "bike_id": "d7ddb5bc9b71a0e1d4bf69d776faa301", "fusion_lon": 0.0}, {"rental_uris": {"ios": "https://dc.lft.to/lastmile_qr_scan", "android": "https://dc.lft.to/lastmile_qr_scan"}, "type": "electric_scooter", "name": "e27f378298a1d7c5fb08b53621e93dc0", "is_reserved": 0, "lon": -76.97835033333334, "is_disabled": 0, "fusion_lat": 0.0, "lat": 38.8721015, "bike_id": "e27f378298a1d7c5fb08b53621e93dc0", "fusion_lon": 0.0}, {"rental_uris": {"ios": "https://dc.lft.to/lastmile_qr_scan", "android": "https://dc.lft.to/lastmile_qr_scan"}, "type": "electric_bike", "name": "4220981e2055391d311d1cab3d2f67e9", "is_reserved": 0, "lon": -77.02584216666666, "is_disabled": 0, "fusion_lat": 0.0, "lat": 38.97873033333333, "bike_id": "4220981e2055391d311d1cab3d2f67e9", "fusion_lon": 0.0}, {"rental_uris": {"ios": "https://dc.lft.to/lastmile_qr_scan", "android": "https://dc.lft.to/lastmile_qr_scan"}, "type": "electric_scooter", "name": "680a5aff83159123cede9b4e1fe3ea80", "is_reserved": 0, "lon": -77.0345315, "is_disabled": 0, "fusion_lat": 0.0, "lat": 38.90570433333333, "bike_id": "680a5aff83159123cede9b4e1fe3ea80", "fusion_lon": 0.0}, {"rental_uris": {"ios": "https://dc.lft.to/lastmile_qr_scan", "android": "https://dc.lft.to/lastmile_qr_scan"}, "type": "electric_scooter", "name": "afc7604e02d575da8a908ec528e9918d", "is_reserved": 0, "lon": -77.023117, "is_disabled": 0, "fusion_lat": 0.0, "lat": 38.91104833333333, "bike_id": "afc7604e02d575da8a908ec528e9918d", "fusion_lon": 0.0}, {"rental_uris": {"ios": "https://dc.lft.to/lastmile_qr_scan", "android": "https://dc.lft.to/lastmile_qr_scan"}, "type": "electric_bike", "name": "97fdecd320a87db26b67a56e56845bf0", "is_reserved": 0, "lon": -76.9991535, "is_disabled": 0, "fusion_lat": 0.0, "lat": 38.864539666666666, "bike_id": "97fdecd320a87db26b67a56e56845bf0", "fusion_lon": 0.0}, {"rental_uris": {"ios": "https://dc.lft.to/lastmile_qr_scan", "android": "https://dc.lft.to/lastmile_qr_scan"}, "type": "electric_bike", "name": "7d20244a622e3e13b3760e1de451a40e", "is_reserved": 0, "lon": -77.07385616666667, "is_disabled": 0, "fusion_lat": 0.0, "lat": 38.914439, "bike_id": "7d20244a622e3e13b3760e1de451a40e", "fusion_lon": 0.0}, {"rental_uris": {"ios": "https://dc.lft.to/lastmile_qr_scan", "android": "https://dc.lft.to/lastmile_qr_scan"}, "type": "electric_scooter", "name": "9eb145c44300ac4dab9ee7d5a23cc1c6", "is_reserved": 0, "lon": -77.026963, "is_disabled": 0, "fusion_lat": 0.0, "lat": 38.90523733333333, "bike_id": "9eb145c44300ac4dab9ee7d5a23cc1c6", "fusion_lon": 0.0}, {"rental_uris": {"ios": "https://dc.lft.to/lastmile_qr_scan", "android": "https://dc.lft.to/lastmile_qr_scan"}, "type": "electric_scooter", "name": "fe8546a7087e6e625e07566906541289", "is_reserved": 0, "lon": -77.00412483333334, "is_disabled": 0, "fusion_lat": 0.0, "lat": 38.87935016666667, "bike_id": "fe8546a7087e6e625e07566906541289", "fusion_lon": 0.0}, {"rental_uris": {"ios": "https://dc.lft.to/lastmile_qr_scan", "android": "https://dc.lft.to/lastmile_qr_scan"}, "type": "electric_scooter", "name": "8e9b7b9f7a181738e6d8e66f08ee7b9e", "is_reserved": 0, "lon": -76.92305216666666, "is_disabled": 0, "fusion_lat": 0.0, "lat": 38.89387033333333, "bike_id": "8e9b7b9f7a181738e6d8e66f08ee7b9e", "fusion_lon": 0.0}, {"rental_uris": {"ios": "https://dc.lft.to/lastmile_qr_scan", "android": "https://dc.lft.to/lastmile_qr_scan"}, "type": "electric_bike", "name": "2d08c4c743612fe8081e0df8021c5483", "is_reserved": 0, "lon": -77.07641016666666, "is_disabled": 0, "fusion_lat": 0.0, "lat": 38.84536083333333, "bike_id": "2d08c4c743612fe8081e0df8021c5483", "fusion_lon": 0.0}, {"rental_uris": {"ios": "https://dc.lft.to/lastmile_qr_scan", "android": "https://dc.lft.to/lastmile_qr_scan"}, "type": "electric_scooter", "name": "133393381f8132d8c2e0b52adfa9368c", "is_reserved": 0, "lon": -77.024663, "is_disabled": 0, "fusion_lat": 0.0, "lat": 38.95782116666667, "bike_id": "133393381f8132d8c2e0b52adfa9368c", "fusion_lon": 0.0}, {"rental_uris": {"ios": "https://dc.lft.to/lastmile_qr_scan", "android": "https://dc.lft.to/lastmile_qr_scan"}, "type": "electric_scooter", "name": "41a6fcb610454e1449297822c09e61b3", "is_reserved": 0, "lon": -77.074104, "is_disabled": 0, "fusion_lat": 0.0, "lat": 38.89722033333334, "bike_id": "41a6fcb610454e1449297822c09e61b3", "fusion_lon": 0.0}, {"rental_uris": {"ios": "https://dc.lft.to/lastmile_qr_scan", "android": "https://dc.lft.to/lastmile_qr_scan"}, "type": "electric_scooter", "name": "e81439f59ea0e777efd89f4778560219", "is_reserved": 0, "lon": -77.02032466666667, "is_disabled": 0, "fusion_lat": 0.0, "lat": 38.924407, "bike_id": "e81439f59ea0e777efd89f4778560219", "fusion_lon": 0.0}, {"rental_uris": {"ios": "https://dc.lft.to/lastmile_qr_scan", "android": "https://dc.lft.to/lastmile_qr_scan"}, "type": "electric_scooter", "name": "426c09cd4c1108bd508847261fa5a51a", "is_reserved": 0, "lon": -77.0244725, "is_disabled": 0, "fusion_lat": 0.0, "lat": 38.949811833333335, "bike_id": "426c09cd4c1108bd508847261fa5a51a", "fusion_lon": 0.0}, {"rental_uris": {"ios": "https://dc.lft.to/lastmile_qr_scan", "android": "https://dc.lft.to/lastmile_qr_scan"}, "type": "electric_scooter", "name": "d6c289a9f837e2d1f1190ba37c6aefa3", "is_reserved": 0, "lon": -76.988656, "is_disabled": 0, "fusion_lat": 0.0, "lat": 38.900313833333335, "bike_id": "d6c289a9f837e2d1f1190ba37c6aefa3", "fusion_lon": 0.0}, {"rental_uris": {"ios": "https://dc.lft.to/lastmile_qr_scan", "android": "https://dc.lft.to/lastmile_qr_scan"}, "type": "electric_scooter", "name": "0e69fc0c49ec9e0d4576003dd37d1a4a", "is_reserved": 0, "lon": -76.9901265, "is_disabled": 0, "fusion_lat": 0.0, "lat": 38.89891333333333, "bike_id": "0e69fc0c49ec9e0d4576003dd37d1a4a", "fusion_lon": 0.0}, {"rental_uris": {"ios": "https://dc.lft.to/lastmile_qr_scan", "android": "https://dc.lft.to/lastmile_qr_scan"}, "type": "electric_scooter", "name": "d047b7ac06d74a4c3b747a21098b3674", "is_reserved": 0, "lon": -77.03499183333334, "is_disabled": 0, "fusion_lat": 0.0, "lat": 38.9326915, "bike_id": "d047b7ac06d74a4c3b747a21098b3674", "fusion_lon": 0.0}, {"rental_uris": {"ios": "https://dc.lft.to/lastmile_qr_scan", "android": "https://dc.lft.to/lastmile_qr_scan"}, "type": "electric_bike", "name": "cd1f9677c0e1dbcb06c5f8e1d875c239", "is_reserved": 0, "lon": -77.106247, "is_disabled": 0, "fusion_lat": 0.0, "lat": 38.873243333333335, "bike_id": "cd1f9677c0e1dbcb06c5f8e1d875c239", "fusion_lon": 0.0}, {"rental_uris": {"ios": "https://dc.lft.to/lastmile_qr_scan", "android": "https://dc.lft.to/lastmile_qr_scan"}, "type": "electric_scooter", "name": "9b1e16096922d2bcfa97d982f49c9448", "is_reserved": 0, "lon": -77.02454816666666, "is_disabled": 0, "fusion_lat": 0.0, "lat": 38.89996933333333, "bike_id": "9b1e16096922d2bcfa97d982f49c9448", "fusion_lon": 0.0}, {"rental_uris": {"ios": "https://dc.lft.to/lastmile_qr_scan", "android": "https://dc.lft.to/lastmile_qr_scan"}, "type": "electric_scooter", "name": "0e65a105a1b72b09870f455a158557cd", "is_reserved": 0, "lon": -76.98651016666666, "is_disabled": 0, "fusion_lat": 0.0, "lat": 38.90541983333333, "bike_id": "0e65a105a1b72b09870f455a158557cd", "fusion_lon": 0.0}, {"rental_uris": {"ios": "https://dc.lft.to/lastmile_qr_scan", "android": "https://dc.lft.to/lastmile_qr_scan"}, "type": "electric_scooter", "name": "ff9b5cd384055c20332fdffb238c6358", "is_reserved": 0, "lon": -77.0219685, "is_disabled": 0, "fusion_lat": 0.0, "lat": 38.9113905, "bike_id": "ff9b5cd384055c20332fdffb238c6358", "fusion_lon": 0.0}, {"rental_uris": {"ios": "https://dc.lft.to/lastmile_qr_scan", "android": "https://dc.lft.to/lastmile_qr_scan"}, "type": "electric_scooter", "name": "18e0f7899d65cc53ffb8f818fea077ac", "is_reserved": 0, "lon": -77.02510083333334, "is_disabled": 0, "fusion_lat": 0.0, "lat": 38.90410583333333, "bike_id": "18e0f7899d65cc53ffb8f818fea077ac", "fusion_lon": 0.0}, {"rental_uris": {"ios": "https://dc.lft.to/lastmile_qr_scan", "android": "https://dc.lft.to/lastmile_qr_scan"}, "type": "electric_scooter", "name": "4ce61b6f714e86ac2ba9a909a2a9c444", "is_reserved": 0, "lon": -77.04755266666666, "is_disabled": 0, "fusion_lat": 0.0, "lat": 38.90086866666667, "bike_id": "4ce61b6f714e86ac2ba9a909a2a9c444", "fusion_lon": 0.0}, {"rental_uris": {"ios": "https://dc.lft.to/lastmile_qr_scan", "android": "https://dc.lft.to/lastmile_qr_scan"}, "type": "electric_scooter", "name": "7d1fdf7f6fc43dd850301a1c08b24f02", "is_reserved": 0, "lon": -77.038341, "is_disabled": 0, "fusion_lat": 0.0, "lat": 38.9102915, "bike_id": "7d1fdf7f6fc43dd850301a1c08b24f02", "fusion_lon": 0.0}, {"rental_uris": {"ios": "https://dc.lft.to/lastmile_qr_scan", "android": "https://dc.lft.to/lastmile_qr_scan"}, "type": "electric_scooter", "name": "84ddf230694b237ef9b9904f0802ab37", "is_reserved": 0, "lon": -77.02386316666667, "is_disabled": 0, "fusion_lat": 0.0, "lat": 38.93390466666666, "bike_id": "84ddf230694b237ef9b9904f0802ab37", "fusion_lon": 0.0}, {"rental_uris": {"ios": "https://dc.lft.to/lastmile_qr_scan", "android": "https://dc.lft.to/lastmile_qr_scan"}, "type": "electric_scooter", "name": "9c3a082e987e6ab452e82aa1ef1da901", "is_reserved": 0, "lon": -77.02572316666667, "is_disabled": 0, "fusion_lat": 0.0, "lat": 38.887448, "bike_id": "9c3a082e987e6ab452e82aa1ef1da901", "fusion_lon": 0.0}, {"rental_uris": {"ios": "https://dc.lft.to/lastmile_qr_scan", "android": "https://dc.lft.to/lastmile_qr_scan"}, "type": "electric_scooter", "name": "969bf86fdf6b28ba3ce6da0170ea198f", "is_reserved": 0, "lon": -77.02502416666667, "is_disabled": 0, "fusion_lat": 0.0, "lat": 38.942135, "bike_id": "969bf86fdf6b28ba3ce6da0170ea198f", "fusion_lon": 0.0}, {"rental_uris": {"ios": "https://dc.lft.to/lastmile_qr_scan", "android": "https://dc.lft.to/lastmile_qr_scan"}, "type": "electric_bike", "name": "939f8809241afa5dcdfb15ea5bf20d2f", "is_reserved": 0, "lon": -77.00727283333333, "is_disabled": 0, "fusion_lat": 0.0, "lat": 38.8324665, "bike_id": "939f8809241afa5dcdfb15ea5bf20d2f", "fusion_lon": 0.0}, {"rental_uris": {"ios": "https://dc.lft.to/lastmile_qr_scan", "android": "https://dc.lft.to/lastmile_qr_scan"}, "type": "electric_scooter", "name": "3d9d2d1f930e2c61d26868d26f9de917", "is_reserved": 0, "lon": -76.98318966666666, "is_disabled": 0, "fusion_lat": 0.0, "lat": 38.92587966666667, "bike_id": "3d9d2d1f930e2c61d26868d26f9de917", "fusion_lon": 0.0}, {"rental_uris": {"ios": "https://dc.lft.to/lastmile_qr_scan", "android": "https://dc.lft.to/lastmile_qr_scan"}, "type": "electric_scooter", "name": "439bf5ed01c6fa2c2f47dd24d9a74617", "is_reserved": 0, "lon": -77.02314083333333, "is_disabled": 0, "fusion_lat": 0.0, "lat": 38.9179395, "bike_id": "439bf5ed01c6fa2c2f47dd24d9a74617", "fusion_lon": 0.0}, {"rental_uris": {"ios": "https://dc.lft.to/lastmile_qr_scan", "android": "https://dc.lft.to/lastmile_qr_scan"}, "type": "electric_scooter", "name": "c549a81fc274b0a807a66286c48872ae", "is_reserved": 0, "lon": -77.03661533333333, "is_disabled": 0, "fusion_lat": 0.0, "lat": 38.9172555, "bike_id": "c549a81fc274b0a807a66286c48872ae", "fusion_lon": 0.0}, {"rental_uris": {"ios": "https://dc.lft.to/lastmile_qr_scan", "android": "https://dc.lft.to/lastmile_qr_scan"}, "type": "electric_scooter", "name": "100f4815f6bf7e6fe1b6657d1ad6b90b", "is_reserved": 0, "lon": -77.02615216666666, "is_disabled": 0, "fusion_lat": 0.0, "lat": 38.95184866666666, "bike_id": "100f4815f6bf7e6fe1b6657d1ad6b90b", "fusion_lon": 0.0}, {"rental_uris": {"ios": "https://dc.lft.to/lastmile_qr_scan", "android": "https://dc.lft.to/lastmile_qr_scan"}, "type": "electric_scooter", "name": "c17588ea107fe83604793fc675bb509b", "is_reserved": 0, "lon": -77.03621483333333, "is_disabled": 0, "fusion_lat": 0.0, "lat": 38.928476, "bike_id": "c17588ea107fe83604793fc675bb509b", "fusion_lon": 0.0}, {"rental_uris": {"ios": "https://dc.lft.to/lastmile_qr_scan", "android": "https://dc.lft.to/lastmile_qr_scan"}, "type": "electric_scooter", "name": "cb6930e7aa423ef8304b5768bf033b9b", "is_reserved": 0, "lon": -77.014282, "is_disabled": 0, "fusion_lat": 0.0, "lat": 38.9186655, "bike_id": "cb6930e7aa423ef8304b5768bf033b9b", "fusion_lon": 0.0}, {"rental_uris": {"ios": "https://dc.lft.to/lastmile_qr_scan", "android": "https://dc.lft.to/lastmile_qr_scan"}, "type": "electric_scooter", "name": "cb3d67627261625ff4241d6b7e158b4d", "is_reserved": 0, "lon": -77.04528683333334, "is_disabled": 0, "fusion_lat": 0.0, "lat": 38.89954383333333, "bike_id": "cb3d67627261625ff4241d6b7e158b4d", "fusion_lon": 0.0}, {"rental_uris": {"ios": "https://dc.lft.to/lastmile_qr_scan", "android": "https://dc.lft.to/lastmile_qr_scan"}, "type": "electric_scooter", "name": "982657a535e21c9ea2d57cf17f8207e6", "is_reserved": 0, "lon": -77.0061035, "is_disabled": 0, "fusion_lat": 0.0, "lat": 38.875468166666664, "bike_id": "982657a535e21c9ea2d57cf17f8207e6", "fusion_lon": 0.0}, {"rental_uris": {"ios": "https://dc.lft.to/lastmile_qr_scan", "android": "https://dc.lft.to/lastmile_qr_scan"}, "type": "electric_scooter", "name": "97c5f54d462c02859c88e05d0a6b3e57", "is_reserved": 0, "lon": -76.99529233333334, "is_disabled": 0, "fusion_lat": 0.0, "lat": 38.86271383333333, "bike_id": "97c5f54d462c02859c88e05d0a6b3e57", "fusion_lon": 0.0}, {"rental_uris": {"ios": "https://dc.lft.to/lastmile_qr_scan", "android": "https://dc.lft.to/lastmile_qr_scan"}, "type": "electric_scooter", "name": "0f80ad5fff32553e99ee6102ac875288", "is_reserved": 0, "lon": -77.034731, "is_disabled": 0, "fusion_lat": 0.0, "lat": 38.907314166666666, "bike_id": "0f80ad5fff32553e99ee6102ac875288", "fusion_lon": 0.0}, {"rental_uris": {"ios": "https://dc.lft.to/lastmile_qr_scan", "android": "https://dc.lft.to/lastmile_qr_scan"}, "type": "electric_scooter", "name": "e5fde5decfa8675f242d30e29efc1a9b", "is_reserved": 0, "lon": -77.0274425, "is_disabled": 0, "fusion_lat": 0.0, "lat": 38.966085166666666, "bike_id": "e5fde5decfa8675f242d30e29efc1a9b", "fusion_lon": 0.0}, {"rental_uris": {"ios": "https://dc.lft.to/lastmile_qr_scan", "android": "https://dc.lft.to/lastmile_qr_scan"}, "type": "electric_scooter", "name": "a49b9be3b4f05c462077338fecf76377", "is_reserved": 0, "lon": -76.985155, "is_disabled": 0, "fusion_lat": 0.0, "lat": 38.860085, "bike_id": "a49b9be3b4f05c462077338fecf76377", "fusion_lon": 0.0}, {"rental_uris": {"ios": "https://dc.lft.to/lastmile_qr_scan", "android": "https://dc.lft.to/lastmile_qr_scan"}, "type": "electric_scooter", "name": "ea8c97b70b15f6f4c68304eab85bd9c2", "is_reserved": 0, "lon": -77.07523433333333, "is_disabled": 0, "fusion_lat": 0.0, "lat": 38.93952633333333, "bike_id": "ea8c97b70b15f6f4c68304eab85bd9c2", "fusion_lon": 0.0}, {"rental_uris": {"ios": "https://dc.lft.to/lastmile_qr_scan", "android": "https://dc.lft.to/lastmile_qr_scan"}, "type": "electric_scooter", "name": "ebf1524236f98e6137b08fc5774db074", "is_reserved": 0, "lon": -77.02797133333333, "is_disabled": 0, "fusion_lat": 0.0, "lat": 38.923182, "bike_id": "ebf1524236f98e6137b08fc5774db074", "fusion_lon": 0.0}, {"rental_uris": {"ios": "https://dc.lft.to/lastmile_qr_scan", "android": "https://dc.lft.to/lastmile_qr_scan"}, "type": "electric_scooter", "name": "977f45f9ec92d807c7558d9c2b7f4811", "is_reserved": 0, "lon": -77.014843, "is_disabled": 0, "fusion_lat": 0.0, "lat": 38.887421833333335, "bike_id": "977f45f9ec92d807c7558d9c2b7f4811", "fusion_lon": 0.0}, {"rental_uris": {"ios": "https://dc.lft.to/lastmile_qr_scan", "android": "https://dc.lft.to/lastmile_qr_scan"}, "type": "electric_scooter", "name": "14752b53b926ba038773e1db498a3b16", "is_reserved": 0, "lon": -77.0092015, "is_disabled": 0, "fusion_lat": 0.0, "lat": 38.907636833333335, "bike_id": "14752b53b926ba038773e1db498a3b16", "fusion_lon": 0.0}, {"rental_uris": {"ios": "https://dc.lft.to/lastmile_qr_scan", "android": "https://dc.lft.to/lastmile_qr_scan"}, "type": "electric_scooter", "name": "f2189593a985738b4ceb7bf7087915fa", "is_reserved": 0, "lon": -77.0206905, "is_disabled": 0, "fusion_lat": 0.0, "lat": 38.908477, "bike_id": "f2189593a985738b4ceb7bf7087915fa", "fusion_lon": 0.0}, {"rental_uris": {"ios": "https://dc.lft.to/lastmile_qr_scan", "android": "https://dc.lft.to/lastmile_qr_scan"}, "type": "electric_scooter", "name": "70fe5a7166a57622b863750fe84f035d", "is_reserved": 0, "lon": -77.03849233333334, "is_disabled": 0, "fusion_lat": 0.0, "lat": 38.9127995, "bike_id": "70fe5a7166a57622b863750fe84f035d", "fusion_lon": 0.0}, {"rental_uris": {"ios": "https://dc.lft.to/lastmile_qr_scan", "android": "https://dc.lft.to/lastmile_qr_scan"}, "type": "electric_scooter", "name": "646c7d5d702512b197593b283493f9ae", "is_reserved": 0, "lon": -77.02492066666667, "is_disabled": 0, "fusion_lat": 0.0, "lat": 38.92599083333333, "bike_id": "646c7d5d702512b197593b283493f9ae", "fusion_lon": 0.0}, {"rental_uris": {"ios": "https://dc.lft.to/lastmile_qr_scan", "android": "https://dc.lft.to/lastmile_qr_scan"}, "type": "electric_scooter", "name": "3aeb4c2643fd406fd944db7a1198014e", "is_reserved": 0, "lon": -77.07278833333334, "is_disabled": 0, "fusion_lat": 0.0, "lat": 38.93539966666667, "bike_id": "3aeb4c2643fd406fd944db7a1198014e", "fusion_lon": 0.0}, {"rental_uris": {"ios": "https://dc.lft.to/lastmile_qr_scan", "android": "https://dc.lft.to/lastmile_qr_scan"}, "type": "electric_scooter", "name": "b2dcdf0858f5467d963c2af8e989c707", "is_reserved": 0, "lon": -77.03433116666666, "is_disabled": 0, "fusion_lat": 0.0, "lat": 38.9097725, "bike_id": "b2dcdf0858f5467d963c2af8e989c707", "fusion_lon": 0.0}, {"rental_uris": {"ios": "https://dc.lft.to/lastmile_qr_scan", "android": "https://dc.lft.to/lastmile_qr_scan"}, "type": "electric_scooter", "name": "f82c831f6d0e3969ff92039e1d31a33b", "is_reserved": 0, "lon": -77.01567766666666, "is_disabled": 0, "fusion_lat": 0.0, "lat": 38.916811333333335, "bike_id": "f82c831f6d0e3969ff92039e1d31a33b", "fusion_lon": 0.0}, {"rental_uris": {"ios": "https://dc.lft.to/lastmile_qr_scan", "android": "https://dc.lft.to/lastmile_qr_scan"}, "type": "electric_bike", "name": "cb0bedf41f155c7c8c1d9d7901867d99", "is_reserved": 0, "lon": -77.05088133333334, "is_disabled": 0, "fusion_lat": 0.0, "lat": 38.8133215, "bike_id": "cb0bedf41f155c7c8c1d9d7901867d99", "fusion_lon": 0.0}, {"rental_uris": {"ios": "https://dc.lft.to/lastmile_qr_scan", "android": "https://dc.lft.to/lastmile_qr_scan"}, "type": "electric_scooter", "name": "a91b650d7179e2a4d953dd0ab681cc5b", "is_reserved": 0, "lon": -77.03177266666667, "is_disabled": 0, "fusion_lat": 0.0, "lat": 38.89230516666667, "bike_id": "a91b650d7179e2a4d953dd0ab681cc5b", "fusion_lon": 0.0}, {"rental_uris": {"ios": "https://dc.lft.to/lastmile_qr_scan", "android": "https://dc.lft.to/lastmile_qr_scan"}, "type": "electric_scooter", "name": "b8e3e85b2513496a2dde71bb0b0057a6", "is_reserved": 0, "lon": -77.04779666666667, "is_disabled": 0, "fusion_lat": 0.0, "lat": 38.908621833333335, "bike_id": "b8e3e85b2513496a2dde71bb0b0057a6", "fusion_lon": 0.0}, {"rental_uris": {"ios": "https://dc.lft.to/lastmile_qr_scan", "android": "https://dc.lft.to/lastmile_qr_scan"}, "type": "electric_scooter", "name": "1b0fb9b1e6fe4a1baaadf057558464ef", "is_reserved": 0, "lon": -77.00985833333333, "is_disabled": 0, "fusion_lat": 0.0, "lat": 38.920355, "bike_id": "1b0fb9b1e6fe4a1baaadf057558464ef", "fusion_lon": 0.0}, {"rental_uris": {"ios": "https://dc.lft.to/lastmile_qr_scan", "android": "https://dc.lft.to/lastmile_qr_scan"}, "type": "electric_scooter", "name": "d0eae3aff887e3cbcb8b0567598cb9a4", "is_reserved": 0, "lon": -77.00219366666667, "is_disabled": 0, "fusion_lat": 0.0, "lat": 38.89454583333333, "bike_id": "d0eae3aff887e3cbcb8b0567598cb9a4", "fusion_lon": 0.0}, {"rental_uris": {"ios": "https://dc.lft.to/lastmile_qr_scan", "android": "https://dc.lft.to/lastmile_qr_scan"}, "type": "electric_scooter", "name": "84bb15e0c481d17d39199f94e15dc168", "is_reserved": 0, "lon": -77.02768483333334, "is_disabled": 0, "fusion_lat": 0.0, "lat": 38.923871166666665, "bike_id": "84bb15e0c481d17d39199f94e15dc168", "fusion_lon": 0.0}, {"rental_uris": {"ios": "https://dc.lft.to/lastmile_qr_scan", "android": "https://dc.lft.to/lastmile_qr_scan"}, "type": "electric_scooter", "name": "d11cc00b3de47303eac0787defbe0ad5", "is_reserved": 0, "lon": -77.01227883333334, "is_disabled": 0, "fusion_lat": 0.0, "lat": 38.9168775, "bike_id": "d11cc00b3de47303eac0787defbe0ad5", "fusion_lon": 0.0}, {"rental_uris": {"ios": "https://dc.lft.to/lastmile_qr_scan", "android": "https://dc.lft.to/lastmile_qr_scan"}, "type": "electric_scooter", "name": "43d964566412e04b7825675a70654f20", "is_reserved": 0, "lon": -77.03334566666666, "is_disabled": 0, "fusion_lat": 0.0, "lat": 38.89634683333333, "bike_id": "43d964566412e04b7825675a70654f20", "fusion_lon": 0.0}, {"rental_uris": {"ios": "https://dc.lft.to/lastmile_qr_scan", "android": "https://dc.lft.to/lastmile_qr_scan"}, "type": "electric_scooter", "name": "cf8140f9887aa52393ba39ebb4215a33", "is_reserved": 0, "lon": -76.96984366666666, "is_disabled": 0, "fusion_lat": 0.0, "lat": 38.874066666666664, "bike_id": "cf8140f9887aa52393ba39ebb4215a33", "fusion_lon": 0.0}, {"rental_uris": {"ios": "https://dc.lft.to/lastmile_qr_scan", "android": "https://dc.lft.to/lastmile_qr_scan"}, "type": "electric_scooter", "name": "47887d18f758bc394da57ec11daebaa9", "is_reserved": 0, "lon": -77.02229983333334, "is_disabled": 0, "fusion_lat": 0.0, "lat": 38.89222783333334, "bike_id": "47887d18f758bc394da57ec11daebaa9", "fusion_lon": 0.0}, {"rental_uris": {"ios": "https://dc.lft.to/lastmile_qr_scan", "android": "https://dc.lft.to/lastmile_qr_scan"}, "type": "electric_scooter", "name": "72139e6b5e1c68f83798ecf4c1db8b15", "is_reserved": 0, "lon": -76.9615625, "is_disabled": 0, "fusion_lat": 0.0, "lat": 38.88361783333333, "bike_id": "72139e6b5e1c68f83798ecf4c1db8b15", "fusion_lon": 0.0}, {"rental_uris": {"ios": "https://dc.lft.to/lastmile_qr_scan", "android": "https://dc.lft.to/lastmile_qr_scan"}, "type": "electric_scooter", "name": "e05b61797ab285aecf90517487cab11f", "is_reserved": 0, "lon": -77.03081916666666, "is_disabled": 0, "fusion_lat": 0.0, "lat": 38.9316575, "bike_id": "e05b61797ab285aecf90517487cab11f", "fusion_lon": 0.0}, {"rental_uris": {"ios": "https://dc.lft.to/lastmile_qr_scan", "android": "https://dc.lft.to/lastmile_qr_scan"}, "type": "electric_scooter", "name": "c8b101f4d3307d26051b7712a1f3e86f", "is_reserved": 0, "lon": -77.04384766666666, "is_disabled": 0, "fusion_lat": 0.0, "lat": 38.91659283333333, "bike_id": "c8b101f4d3307d26051b7712a1f3e86f", "fusion_lon": 0.0}, {"rental_uris": {"ios": "https://dc.lft.to/lastmile_qr_scan", "android": "https://dc.lft.to/lastmile_qr_scan"}, "type": "electric_scooter", "name": "e2ff7f5ccee40bdc270c94d321c4e2d7", "is_reserved": 0, "lon": -76.978036, "is_disabled": 0, "fusion_lat": 0.0, "lat": 38.903109666666666, "bike_id": "e2ff7f5ccee40bdc270c94d321c4e2d7", "fusion_lon": 0.0}, {"rental_uris": {"ios": "https://dc.lft.to/lastmile_qr_scan", "android": "https://dc.lft.to/lastmile_qr_scan"}, "type": "electric_scooter", "name": "7d6a82eb0614a8f4b96396d17c3d2869", "is_reserved": 0, "lon": -77.0341285, "is_disabled": 0, "fusion_lat": 0.0, "lat": 38.930943, "bike_id": "7d6a82eb0614a8f4b96396d17c3d2869", "fusion_lon": 0.0}, {"rental_uris": {"ios": "https://dc.lft.to/lastmile_qr_scan", "android": "https://dc.lft.to/lastmile_qr_scan"}, "type": "electric_scooter", "name": "fe133aba0f45ebe2b49264fd7fde8fb7", "is_reserved": 0, "lon": -77.02790166666666, "is_disabled": 0, "fusion_lat": 0.0, "lat": 38.90562716666667, "bike_id": "fe133aba0f45ebe2b49264fd7fde8fb7", "fusion_lon": 0.0}, {"rental_uris": {"ios": "https://dc.lft.to/lastmile_qr_scan", "android": "https://dc.lft.to/lastmile_qr_scan"}, "type": "electric_scooter", "name": "2f87c01ff7813e4339e9bd8d5100ad58", "is_reserved": 0, "lon": -77.03224783333333, "is_disabled": 0, "fusion_lat": 0.0, "lat": 38.93871683333333, "bike_id": "2f87c01ff7813e4339e9bd8d5100ad58", "fusion_lon": 0.0}, {"rental_uris": {"ios": "https://dc.lft.to/lastmile_qr_scan", "android": "https://dc.lft.to/lastmile_qr_scan"}, "type": "electric_scooter", "name": "614766c566acf24d03adfd7277ed4a5a", "is_reserved": 0, "lon": -77.00437083333334, "is_disabled": 0, "fusion_lat": 0.0, "lat": 38.920936833333336, "bike_id": "614766c566acf24d03adfd7277ed4a5a", "fusion_lon": 0.0}, {"rental_uris": {"ios": "https://dc.lft.to/lastmile_qr_scan", "android": "https://dc.lft.to/lastmile_qr_scan"}, "type": "electric_scooter", "name": "f948c32fc49a126a5f3d3f5914e98397", "is_reserved": 0, "lon": -77.06601416666666, "is_disabled": 0, "fusion_lat": 0.0, "lat": 38.90618116666667, "bike_id": "f948c32fc49a126a5f3d3f5914e98397", "fusion_lon": 0.0}, {"rental_uris": {"ios": "https://dc.lft.to/lastmile_qr_scan", "android": "https://dc.lft.to/lastmile_qr_scan"}, "type": "electric_scooter", "name": "ece2ef60efa04329ce72725049494ffa", "is_reserved": 0, "lon": -77.00582483333334, "is_disabled": 0, "fusion_lat": 0.0, "lat": 38.900378333333336, "bike_id": "ece2ef60efa04329ce72725049494ffa", "fusion_lon": 0.0}, {"rental_uris": {"ios": "https://dc.lft.to/lastmile_qr_scan", "android": "https://dc.lft.to/lastmile_qr_scan"}, "type": "electric_scooter", "name": "ba78757a078d7d20059cc7e919cf1230", "is_reserved": 0, "lon": -77.0231095, "is_disabled": 0, "fusion_lat": 0.0, "lat": 38.92725866666667, "bike_id": "ba78757a078d7d20059cc7e919cf1230", "fusion_lon": 0.0}, {"rental_uris": {"ios": "https://dc.lft.to/lastmile_qr_scan", "android": "https://dc.lft.to/lastmile_qr_scan"}, "type": "electric_scooter", "name": "ab6462d480e1918c25deb9dad186448e", "is_reserved": 0, "lon": -77.06281666666666, "is_disabled": 0, "fusion_lat": 0.0, "lat": 38.912423, "bike_id": "ab6462d480e1918c25deb9dad186448e", "fusion_lon": 0.0}, {"rental_uris": {"ios": "https://dc.lft.to/lastmile_qr_scan", "android": "https://dc.lft.to/lastmile_qr_scan"}, "type": "electric_scooter", "name": "df16f4f81750eb5156de0de346541aa7", "is_reserved": 0, "lon": -77.02215166666667, "is_disabled": 0, "fusion_lat": 0.0, "lat": 38.89859466666667, "bike_id": "df16f4f81750eb5156de0de346541aa7", "fusion_lon": 0.0}, {"rental_uris": {"ios": "https://dc.lft.to/lastmile_qr_scan", "android": "https://dc.lft.to/lastmile_qr_scan"}, "type": "electric_scooter", "name": "05231c06e55c0698ba8adb173432af5b", "is_reserved": 0, "lon": -77.01995466666666, "is_disabled": 0, "fusion_lat": 0.0, "lat": 38.91161666666667, "bike_id": "05231c06e55c0698ba8adb173432af5b", "fusion_lon": 0.0}, {"rental_uris": {"ios": "https://dc.lft.to/lastmile_qr_scan", "android": "https://dc.lft.to/lastmile_qr_scan"}, "type": "electric_scooter", "name": "bdc6cf85682f6aa11280b9934847278e", "is_reserved": 0, "lon": -77.02391816666666, "is_disabled": 0, "fusion_lat": 0.0, "lat": 38.920794666666666, "bike_id": "bdc6cf85682f6aa11280b9934847278e", "fusion_lon": 0.0}, {"rental_uris": {"ios": "https://dc.lft.to/lastmile_qr_scan", "android": "https://dc.lft.to/lastmile_qr_scan"}, "type": "electric_scooter", "name": "08b66cadbd6e01634f3bcef089056055", "is_reserved": 0, "lon": -77.02417333333334, "is_disabled": 0, "fusion_lat": 0.0, "lat": 38.92329433333333, "bike_id": "08b66cadbd6e01634f3bcef089056055", "fusion_lon": 0.0}, {"rental_uris": {"ios": "https://dc.lft.to/lastmile_qr_scan", "android": "https://dc.lft.to/lastmile_qr_scan"}, "type": "electric_scooter", "name": "514586ceff8970231031d992cfc1f8f8", "is_reserved": 0, "lon": -77.011939, "is_disabled": 0, "fusion_lat": 0.0, "lat": 38.917225333333334, "bike_id": "514586ceff8970231031d992cfc1f8f8", "fusion_lon": 0.0}, {"rental_uris": {"ios": "https://dc.lft.to/lastmile_qr_scan", "android": "https://dc.lft.to/lastmile_qr_scan"}, "type": "electric_scooter", "name": "dd6aaf42e30f9ef434f860519d6582e6", "is_reserved": 0, "lon": -76.98116966666667, "is_disabled": 0, "fusion_lat": 0.0, "lat": 38.8643875, "bike_id": "dd6aaf42e30f9ef434f860519d6582e6", "fusion_lon": 0.0}, {"rental_uris": {"ios": "https://dc.lft.to/lastmile_qr_scan", "android": "https://dc.lft.to/lastmile_qr_scan"}, "type": "electric_scooter", "name": "20b4845b745ea1357f182a114212562f", "is_reserved": 0, "lon": -77.0158235, "is_disabled": 0, "fusion_lat": 0.0, "lat": 38.87645783333333, "bike_id": "20b4845b745ea1357f182a114212562f", "fusion_lon": 0.0}, {"rental_uris": {"ios": "https://dc.lft.to/lastmile_qr_scan", "android": "https://dc.lft.to/lastmile_qr_scan"}, "type": "electric_scooter", "name": "151633efce831bd10d5ed2e8718e5694", "is_reserved": 0, "lon": -77.02092316666666, "is_disabled": 0, "fusion_lat": 0.0, "lat": 38.92912466666667, "bike_id": "151633efce831bd10d5ed2e8718e5694", "fusion_lon": 0.0}, {"rental_uris": {"ios": "https://dc.lft.to/lastmile_qr_scan", "android": "https://dc.lft.to/lastmile_qr_scan"}, "type": "electric_scooter", "name": "d9e9c7de595f9350469c4d3850deabec", "is_reserved": 0, "lon": -77.01840583333333, "is_disabled": 0, "fusion_lat": 0.0, "lat": 38.905645666666665, "bike_id": "d9e9c7de595f9350469c4d3850deabec", "fusion_lon": 0.0}, {"rental_uris": {"ios": "https://dc.lft.to/lastmile_qr_scan", "android": "https://dc.lft.to/lastmile_qr_scan"}, "type": "electric_scooter", "name": "60ebfb3c9fc896890cfdc45f4baf5377", "is_reserved": 0, "lon": -77.0319775, "is_disabled": 0, "fusion_lat": 0.0, "lat": 38.920215166666665, "bike_id": "60ebfb3c9fc896890cfdc45f4baf5377", "fusion_lon": 0.0}, {"rental_uris": {"ios": "https://dc.lft.to/lastmile_qr_scan", "android": "https://dc.lft.to/lastmile_qr_scan"}, "type": "electric_scooter", "name": "9a5650cf8703172866fcf1b600937ac0", "is_reserved": 0, "lon": -77.04542983333333, "is_disabled": 0, "fusion_lat": 0.0, "lat": 38.91831233333333, "bike_id": "9a5650cf8703172866fcf1b600937ac0", "fusion_lon": 0.0}, {"rental_uris": {"ios": "https://dc.lft.to/lastmile_qr_scan", "android": "https://dc.lft.to/lastmile_qr_scan"}, "type": "electric_scooter", "name": "bd7f2a439a2996b851d3291e3dc26baf", "is_reserved": 0, "lon": -76.99423483333334, "is_disabled": 0, "fusion_lat": 0.0, "lat": 38.91690366666667, "bike_id": "bd7f2a439a2996b851d3291e3dc26baf", "fusion_lon": 0.0}, {"rental_uris": {"ios": "https://dc.lft.to/lastmile_qr_scan", "android": "https://dc.lft.to/lastmile_qr_scan"}, "type": "electric_scooter", "name": "71b18d667b77b23d652c913ba297f81b", "is_reserved": 0, "lon": -77.02616633333334, "is_disabled": 0, "fusion_lat": 0.0, "lat": 38.893061, "bike_id": "71b18d667b77b23d652c913ba297f81b", "fusion_lon": 0.0}, {"rental_uris": {"ios": "https://dc.lft.to/lastmile_qr_scan", "android": "https://dc.lft.to/lastmile_qr_scan"}, "type": "electric_scooter", "name": "15bda9955fcf69a30056a359bda6dcd4", "is_reserved": 0, "lon": -77.03788833333333, "is_disabled": 0, "fusion_lat": 0.0, "lat": 38.91547933333333, "bike_id": "15bda9955fcf69a30056a359bda6dcd4", "fusion_lon": 0.0}, {"rental_uris": {"ios": "https://dc.lft.to/lastmile_qr_scan", "android": "https://dc.lft.to/lastmile_qr_scan"}, "type": "electric_scooter", "name": "18c5fc90342705f05e4234f39956b88b", "is_reserved": 0, "lon": -77.03219133333333, "is_disabled": 0, "fusion_lat": 0.0, "lat": 38.909617, "bike_id": "18c5fc90342705f05e4234f39956b88b", "fusion_lon": 0.0}, {"rental_uris": {"ios": "https://dc.lft.to/lastmile_qr_scan", "android": "https://dc.lft.to/lastmile_qr_scan"}, "type": "electric_scooter", "name": "b932880b02372fcfdff6ce7d2a9f437a", "is_reserved": 0, "lon": -77.02424566666667, "is_disabled": 0, "fusion_lat": 0.0, "lat": 38.903068833333336, "bike_id": "b932880b02372fcfdff6ce7d2a9f437a", "fusion_lon": 0.0}, {"rental_uris": {"ios": "https://dc.lft.to/lastmile_qr_scan", "android": "https://dc.lft.to/lastmile_qr_scan"}, "type": "electric_scooter", "name": "f90b1ec98c9bb2944124e9ca9a149e27", "is_reserved": 0, "lon": -77.04735466666666, "is_disabled": 0, "fusion_lat": 0.0, "lat": 38.89560683333333, "bike_id": "f90b1ec98c9bb2944124e9ca9a149e27", "fusion_lon": 0.0}, {"rental_uris": {"ios": "https://dc.lft.to/lastmile_qr_scan", "android": "https://dc.lft.to/lastmile_qr_scan"}, "type": "electric_scooter", "name": "21f027790bfc4313cf922ec60421102b", "is_reserved": 0, "lon": -77.01910033333333, "is_disabled": 0, "fusion_lat": 0.0, "lat": 38.8980235, "bike_id": "21f027790bfc4313cf922ec60421102b", "fusion_lon": 0.0}, {"rental_uris": {"ios": "https://dc.lft.to/lastmile_qr_scan", "android": "https://dc.lft.to/lastmile_qr_scan"}, "type": "electric_scooter", "name": "78dcfbe8609bcad0b2376dbda3c3700a", "is_reserved": 0, "lon": -77.02414983333334, "is_disabled": 0, "fusion_lat": 0.0, "lat": 38.909634, "bike_id": "78dcfbe8609bcad0b2376dbda3c3700a", "fusion_lon": 0.0}, {"rental_uris": {"ios": "https://dc.lft.to/lastmile_qr_scan", "android": "https://dc.lft.to/lastmile_qr_scan"}, "type": "electric_scooter", "name": "5b5d20dce61e10000787b5e31d544271", "is_reserved": 0, "lon": -77.05215833333334, "is_disabled": 0, "fusion_lat": 0.0, "lat": 38.924373833333334, "bike_id": "5b5d20dce61e10000787b5e31d544271", "fusion_lon": 0.0}, {"rental_uris": {"ios": "https://dc.lft.to/lastmile_qr_scan", "android": "https://dc.lft.to/lastmile_qr_scan"}, "type": "electric_scooter", "name": "e2ddf7914b7e865d7c8aa26708475b04", "is_reserved": 0, "lon": -77.03023833333333, "is_disabled": 0, "fusion_lat": 0.0, "lat": 38.92253, "bike_id": "e2ddf7914b7e865d7c8aa26708475b04", "fusion_lon": 0.0}, {"rental_uris": {"ios": "https://dc.lft.to/lastmile_qr_scan", "android": "https://dc.lft.to/lastmile_qr_scan"}, "type": "electric_scooter", "name": "dc2b29baec3c164e6bd33049330df8a6", "is_reserved": 0, "lon": -77.0021015, "is_disabled": 0, "fusion_lat": 0.0, "lat": 38.90034083333333, "bike_id": "dc2b29baec3c164e6bd33049330df8a6", "fusion_lon": 0.0}, {"rental_uris": {"ios": "https://dc.lft.to/lastmile_qr_scan", "android": "https://dc.lft.to/lastmile_qr_scan"}, "type": "electric_scooter", "name": "c9686c5410c89992739b6e05fe0f46c7", "is_reserved": 0, "lon": -77.02623, "is_disabled": 0, "fusion_lat": 0.0, "lat": 38.892235, "bike_id": "c9686c5410c89992739b6e05fe0f46c7", "fusion_lon": 0.0}, {"rental_uris": {"ios": "https://dc.lft.to/lastmile_qr_scan", "android": "https://dc.lft.to/lastmile_qr_scan"}, "type": "electric_bike", "name": "37646fedc270b4fd19f10fbb6f8c631d", "is_reserved": 0, "lon": -77.066967, "is_disabled": 0, "fusion_lat": 0.0, "lat": 38.831739166666665, "bike_id": "37646fedc270b4fd19f10fbb6f8c631d", "fusion_lon": 0.0}, {"rental_uris": {"ios": "https://dc.lft.to/lastmile_qr_scan", "android": "https://dc.lft.to/lastmile_qr_scan"}, "type": "electric_scooter", "name": "297f46c9e8f16bba9550e223646ca84e", "is_reserved": 0, "lon": -76.97054666666666, "is_disabled": 0, "fusion_lat": 0.0, "lat": 38.873301833333336, "bike_id": "297f46c9e8f16bba9550e223646ca84e", "fusion_lon": 0.0}, {"rental_uris": {"ios": "https://dc.lft.to/lastmile_qr_scan", "android": "https://dc.lft.to/lastmile_qr_scan"}, "type": "electric_scooter", "name": "12655a18896b0b9f88757eee762198a5", "is_reserved": 0, "lon": -77.02899, "is_disabled": 0, "fusion_lat": 0.0, "lat": 38.94041516666667, "bike_id": "12655a18896b0b9f88757eee762198a5", "fusion_lon": 0.0}, {"rental_uris": {"ios": "https://dc.lft.to/lastmile_qr_scan", "android": "https://dc.lft.to/lastmile_qr_scan"}, "type": "electric_scooter", "name": "4d318e80d0cefe96975250baf82145bc", "is_reserved": 0, "lon": -77.03955116666667, "is_disabled": 0, "fusion_lat": 0.0, "lat": 38.892414, "bike_id": "4d318e80d0cefe96975250baf82145bc", "fusion_lon": 0.0}, {"rental_uris": {"ios": "https://dc.lft.to/lastmile_qr_scan", "android": "https://dc.lft.to/lastmile_qr_scan"}, "type": "electric_scooter", "name": "971e584a5c1271be65c6f08d36265b99", "is_reserved": 0, "lon": -76.98601616666667, "is_disabled": 0, "fusion_lat": 0.0, "lat": 38.878364166666664, "bike_id": "971e584a5c1271be65c6f08d36265b99", "fusion_lon": 0.0}, {"rental_uris": {"ios": "https://dc.lft.to/lastmile_qr_scan", "android": "https://dc.lft.to/lastmile_qr_scan"}, "type": "electric_scooter", "name": "29a7ee01eaa2e1365a22ce7e0aa0bd24", "is_reserved": 0, "lon": -77.02722433333334, "is_disabled": 0, "fusion_lat": 0.0, "lat": 38.9248445, "bike_id": "29a7ee01eaa2e1365a22ce7e0aa0bd24", "fusion_lon": 0.0}, {"rental_uris": {"ios": "https://dc.lft.to/lastmile_qr_scan", "android": "https://dc.lft.to/lastmile_qr_scan"}, "type": "electric_scooter", "name": "bfc2d70b3035ea1e873f01593cdf5d9f", "is_reserved": 0, "lon": -76.99596166666667, "is_disabled": 0, "fusion_lat": 0.0, "lat": 38.900318166666665, "bike_id": "bfc2d70b3035ea1e873f01593cdf5d9f", "fusion_lon": 0.0}, {"rental_uris": {"ios": "https://dc.lft.to/lastmile_qr_scan", "android": "https://dc.lft.to/lastmile_qr_scan"}, "type": "electric_scooter", "name": "20bfa9d9b51537054db31ce1757a27e1", "is_reserved": 0, "lon": -77.0343795, "is_disabled": 0, "fusion_lat": 0.0, "lat": 38.90974166666667, "bike_id": "20bfa9d9b51537054db31ce1757a27e1", "fusion_lon": 0.0}, {"rental_uris": {"ios": "https://dc.lft.to/lastmile_qr_scan", "android": "https://dc.lft.to/lastmile_qr_scan"}, "type": "electric_scooter", "name": "81e192eec344af851810b23a9b4f7298", "is_reserved": 0, "lon": -76.98379, "is_disabled": 0, "fusion_lat": 0.0, "lat": 38.8669185, "bike_id": "81e192eec344af851810b23a9b4f7298", "fusion_lon": 0.0}, {"rental_uris": {"ios": "https://dc.lft.to/lastmile_qr_scan", "android": "https://dc.lft.to/lastmile_qr_scan"}, "type": "electric_scooter", "name": "f46ddf09762b9bfd01ddbf90536d3381", "is_reserved": 0, "lon": -77.03030383333333, "is_disabled": 0, "fusion_lat": 0.0, "lat": 38.922558333333335, "bike_id": "f46ddf09762b9bfd01ddbf90536d3381", "fusion_lon": 0.0}, {"rental_uris": {"ios": "https://dc.lft.to/lastmile_qr_scan", "android": "https://dc.lft.to/lastmile_qr_scan"}, "type": "electric_scooter", "name": "86a953286856d26396cfc472eb686910", "is_reserved": 0, "lon": -77.03273233333333, "is_disabled": 0, "fusion_lat": 0.0, "lat": 38.93267633333333, "bike_id": "86a953286856d26396cfc472eb686910", "fusion_lon": 0.0}, {"rental_uris": {"ios": "https://dc.lft.to/lastmile_qr_scan", "android": "https://dc.lft.to/lastmile_qr_scan"}, "type": "electric_scooter", "name": "5e507dadade4a32001af2114f99a44eb", "is_reserved": 0, "lon": -77.0242345, "is_disabled": 0, "fusion_lat": 0.0, "lat": 38.8989625, "bike_id": "5e507dadade4a32001af2114f99a44eb", "fusion_lon": 0.0}, {"rental_uris": {"ios": "https://dc.lft.to/lastmile_qr_scan", "android": "https://dc.lft.to/lastmile_qr_scan"}, "type": "electric_scooter", "name": "44ba1c03b733ba4c9cabb246f1e55d77", "is_reserved": 0, "lon": -76.9883305, "is_disabled": 0, "fusion_lat": 0.0, "lat": 38.895010166666665, "bike_id": "44ba1c03b733ba4c9cabb246f1e55d77", "fusion_lon": 0.0}, {"rental_uris": {"ios": "https://dc.lft.to/lastmile_qr_scan", "android": "https://dc.lft.to/lastmile_qr_scan"}, "type": "electric_scooter", "name": "4c6f260967273d74b74bfe496e573722", "is_reserved": 0, "lon": -77.017712, "is_disabled": 0, "fusion_lat": 0.0, "lat": 38.883298, "bike_id": "4c6f260967273d74b74bfe496e573722", "fusion_lon": 0.0}, {"rental_uris": {"ios": "https://dc.lft.to/lastmile_qr_scan", "android": "https://dc.lft.to/lastmile_qr_scan"}, "type": "electric_scooter", "name": "d8d9f3505f066ea8ef81106ce8c46b1c", "is_reserved": 0, "lon": -77.03371233333333, "is_disabled": 0, "fusion_lat": 0.0, "lat": 38.92239266666667, "bike_id": "d8d9f3505f066ea8ef81106ce8c46b1c", "fusion_lon": 0.0}, {"rental_uris": {"ios": "https://dc.lft.to/lastmile_qr_scan", "android": "https://dc.lft.to/lastmile_qr_scan"}, "type": "electric_scooter", "name": "6b234114470b0914d1f73c622034feab", "is_reserved": 0, "lon": -77.03457483333334, "is_disabled": 0, "fusion_lat": 0.0, "lat": 38.90572816666667, "bike_id": "6b234114470b0914d1f73c622034feab", "fusion_lon": 0.0}, {"rental_uris": {"ios": "https://dc.lft.to/lastmile_qr_scan", "android": "https://dc.lft.to/lastmile_qr_scan"}, "type": "electric_scooter", "name": "1622675d0a6cf7cca8aee4f1c417a9c7", "is_reserved": 0, "lon": -77.022677, "is_disabled": 0, "fusion_lat": 0.0, "lat": 38.927341, "bike_id": "1622675d0a6cf7cca8aee4f1c417a9c7", "fusion_lon": 0.0}, {"rental_uris": {"ios": "https://dc.lft.to/lastmile_qr_scan", "android": "https://dc.lft.to/lastmile_qr_scan"}, "type": "electric_bike", "name": "740c0cbcbb60eb431a197578d5fbd498", "is_reserved": 0, "lon": -76.987676, "is_disabled": 0, "fusion_lat": 0.0, "lat": 38.857699, "bike_id": "740c0cbcbb60eb431a197578d5fbd498", "fusion_lon": 0.0}, {"rental_uris": {"ios": "https://dc.lft.to/lastmile_qr_scan", "android": "https://dc.lft.to/lastmile_qr_scan"}, "type": "electric_scooter", "name": "068bebf2933d5065eedea0fbfbc2bb43", "is_reserved": 0, "lon": -77.00647683333334, "is_disabled": 0, "fusion_lat": 0.0, "lat": 38.87674166666667, "bike_id": "068bebf2933d5065eedea0fbfbc2bb43", "fusion_lon": 0.0}, {"rental_uris": {"ios": "https://dc.lft.to/lastmile_qr_scan", "android": "https://dc.lft.to/lastmile_qr_scan"}, "type": "electric_scooter", "name": "65cd5234e3f0307440cef3e8c98a0e8e", "is_reserved": 0, "lon": -77.03786866666667, "is_disabled": 0, "fusion_lat": 0.0, "lat": 38.915489666666666, "bike_id": "65cd5234e3f0307440cef3e8c98a0e8e", "fusion_lon": 0.0}, {"rental_uris": {"ios": "https://dc.lft.to/lastmile_qr_scan", "android": "https://dc.lft.to/lastmile_qr_scan"}, "type": "electric_scooter", "name": "0cf3ac4217c9f5da4d31d88cfe5ae998", "is_reserved": 0, "lon": -76.98074083333333, "is_disabled": 0, "fusion_lat": 0.0, "lat": 38.90166083333333, "bike_id": "0cf3ac4217c9f5da4d31d88cfe5ae998", "fusion_lon": 0.0}, {"rental_uris": {"ios": "https://dc.lft.to/lastmile_qr_scan", "android": "https://dc.lft.to/lastmile_qr_scan"}, "type": "electric_scooter", "name": "b1175a6fe7460b58b6ac8c22ef03c8e4", "is_reserved": 0, "lon": -77.00679966666667, "is_disabled": 0, "fusion_lat": 0.0, "lat": 38.87930466666667, "bike_id": "b1175a6fe7460b58b6ac8c22ef03c8e4", "fusion_lon": 0.0}, {"rental_uris": {"ios": "https://dc.lft.to/lastmile_qr_scan", "android": "https://dc.lft.to/lastmile_qr_scan"}, "type": "electric_scooter", "name": "b096c86e31b5a9cb2a539bae7dda9e2b", "is_reserved": 0, "lon": -77.030804, "is_disabled": 0, "fusion_lat": 0.0, "lat": 38.9387465, "bike_id": "b096c86e31b5a9cb2a539bae7dda9e2b", "fusion_lon": 0.0}, {"rental_uris": {"ios": "https://dc.lft.to/lastmile_qr_scan", "android": "https://dc.lft.to/lastmile_qr_scan"}, "type": "electric_scooter", "name": "96d26de65a08310339e11157db6e97f3", "is_reserved": 0, "lon": -76.998847, "is_disabled": 0, "fusion_lat": 0.0, "lat": 38.92057966666667, "bike_id": "96d26de65a08310339e11157db6e97f3", "fusion_lon": 0.0}, {"rental_uris": {"ios": "https://dc.lft.to/lastmile_qr_scan", "android": "https://dc.lft.to/lastmile_qr_scan"}, "type": "electric_scooter", "name": "d570db720367ed5164f1572cef671fd5", "is_reserved": 0, "lon": -77.077185, "is_disabled": 0, "fusion_lat": 0.0, "lat": 38.94294283333333, "bike_id": "d570db720367ed5164f1572cef671fd5", "fusion_lon": 0.0}, {"rental_uris": {"ios": "https://dc.lft.to/lastmile_qr_scan", "android": "https://dc.lft.to/lastmile_qr_scan"}, "type": "electric_scooter", "name": "a834b0ba474011ce7b6e835191087475", "is_reserved": 0, "lon": -77.03446433333333, "is_disabled": 0, "fusion_lat": 0.0, "lat": 38.9343425, "bike_id": "a834b0ba474011ce7b6e835191087475", "fusion_lon": 0.0}, {"rental_uris": {"ios": "https://dc.lft.to/lastmile_qr_scan", "android": "https://dc.lft.to/lastmile_qr_scan"}, "type": "electric_scooter", "name": "fb07ad06c50a0b7e4c39d9f22222f21b", "is_reserved": 0, "lon": -77.022141, "is_disabled": 0, "fusion_lat": 0.0, "lat": 38.887373333333336, "bike_id": "fb07ad06c50a0b7e4c39d9f22222f21b", "fusion_lon": 0.0}, {"rental_uris": {"ios": "https://dc.lft.to/lastmile_qr_scan", "android": "https://dc.lft.to/lastmile_qr_scan"}, "type": "electric_scooter", "name": "dd3670d1c257848d9c9d7ec107a19e9f", "is_reserved": 0, "lon": -77.04855216666667, "is_disabled": 0, "fusion_lat": 0.0, "lat": 38.89899033333333, "bike_id": "dd3670d1c257848d9c9d7ec107a19e9f", "fusion_lon": 0.0}, {"rental_uris": {"ios": "https://dc.lft.to/lastmile_qr_scan", "android": "https://dc.lft.to/lastmile_qr_scan"}, "type": "electric_scooter", "name": "92ef05e1ecdce4d646d057824504b26e", "is_reserved": 0, "lon": -77.03138633333333, "is_disabled": 0, "fusion_lat": 0.0, "lat": 38.9126825, "bike_id": "92ef05e1ecdce4d646d057824504b26e", "fusion_lon": 0.0}, {"rental_uris": {"ios": "https://dc.lft.to/lastmile_qr_scan", "android": "https://dc.lft.to/lastmile_qr_scan"}, "type": "electric_bike", "name": "9246fdab0dc1adb3421df8d7333de4e3", "is_reserved": 0, "lon": -76.97530816666666, "is_disabled": 0, "fusion_lat": 0.0, "lat": 38.903305833333334, "bike_id": "9246fdab0dc1adb3421df8d7333de4e3", "fusion_lon": 0.0}, {"rental_uris": {"ios": "https://dc.lft.to/lastmile_qr_scan", "android": "https://dc.lft.to/lastmile_qr_scan"}, "type": "electric_scooter", "name": "01edfbf522bfe37bf369144bb4583323", "is_reserved": 0, "lon": -76.9938535, "is_disabled": 0, "fusion_lat": 0.0, "lat": 38.910166, "bike_id": "01edfbf522bfe37bf369144bb4583323", "fusion_lon": 0.0}, {"rental_uris": {"ios": "https://dc.lft.to/lastmile_qr_scan", "android": "https://dc.lft.to/lastmile_qr_scan"}, "type": "electric_scooter", "name": "a057275e7e2278d481c9e78956507c05", "is_reserved": 0, "lon": -77.05684333333333, "is_disabled": 0, "fusion_lat": 0.0, "lat": 38.933922333333335, "bike_id": "a057275e7e2278d481c9e78956507c05", "fusion_lon": 0.0}, {"rental_uris": {"ios": "https://dc.lft.to/lastmile_qr_scan", "android": "https://dc.lft.to/lastmile_qr_scan"}, "type": "electric_bike", "name": "e32d0fcae3e6391f2bbc39a6c2b88a06", "is_reserved": 0, "lon": -76.97423366666666, "is_disabled": 0, "fusion_lat": 0.0, "lat": 38.9323615, "bike_id": "e32d0fcae3e6391f2bbc39a6c2b88a06", "fusion_lon": 0.0}, {"rental_uris": {"ios": "https://dc.lft.to/lastmile_qr_scan", "android": "https://dc.lft.to/lastmile_qr_scan"}, "type": "electric_scooter", "name": "7f66c16ef819e7c2b6c1284bcb2c1ebe", "is_reserved": 0, "lon": -77.01824733333333, "is_disabled": 0, "fusion_lat": 0.0, "lat": 38.911091666666664, "bike_id": "7f66c16ef819e7c2b6c1284bcb2c1ebe", "fusion_lon": 0.0}, {"rental_uris": {"ios": "https://dc.lft.to/lastmile_qr_scan", "android": "https://dc.lft.to/lastmile_qr_scan"}, "type": "electric_scooter", "name": "2fc57e9657e62d768d6b68f0a64fe593", "is_reserved": 0, "lon": -77.02628933333334, "is_disabled": 0, "fusion_lat": 0.0, "lat": 38.89220366666667, "bike_id": "2fc57e9657e62d768d6b68f0a64fe593", "fusion_lon": 0.0}, {"rental_uris": {"ios": "https://dc.lft.to/lastmile_qr_scan", "android": "https://dc.lft.to/lastmile_qr_scan"}, "type": "electric_scooter", "name": "7f18ea0a635fa2b5a79dbdab71434910", "is_reserved": 0, "lon": -76.99844816666666, "is_disabled": 0, "fusion_lat": 0.0, "lat": 38.900314333333334, "bike_id": "7f18ea0a635fa2b5a79dbdab71434910", "fusion_lon": 0.0}, {"rental_uris": {"ios": "https://dc.lft.to/lastmile_qr_scan", "android": "https://dc.lft.to/lastmile_qr_scan"}, "type": "electric_scooter", "name": "51fe93bce1304ee4388676f797592dbc", "is_reserved": 0, "lon": -77.02261166666666, "is_disabled": 0, "fusion_lat": 0.0, "lat": 38.927398, "bike_id": "51fe93bce1304ee4388676f797592dbc", "fusion_lon": 0.0}, {"rental_uris": {"ios": "https://dc.lft.to/lastmile_qr_scan", "android": "https://dc.lft.to/lastmile_qr_scan"}, "type": "electric_scooter", "name": "4353509ab0e7c7561d0b33703bac740a", "is_reserved": 0, "lon": -77.0497565, "is_disabled": 0, "fusion_lat": 0.0, "lat": 38.905534333333335, "bike_id": "4353509ab0e7c7561d0b33703bac740a", "fusion_lon": 0.0}, {"rental_uris": {"ios": "https://dc.lft.to/lastmile_qr_scan", "android": "https://dc.lft.to/lastmile_qr_scan"}, "type": "electric_scooter", "name": "533cf97b195cf6750eb298393442758a", "is_reserved": 0, "lon": -77.03384333333334, "is_disabled": 0, "fusion_lat": 0.0, "lat": 38.902705166666664, "bike_id": "533cf97b195cf6750eb298393442758a", "fusion_lon": 0.0}, {"rental_uris": {"ios": "https://dc.lft.to/lastmile_qr_scan", "android": "https://dc.lft.to/lastmile_qr_scan"}, "type": "electric_scooter", "name": "9fdbff64ea7cc993dafb432bbb9c4043", "is_reserved": 0, "lon": -77.03408833333333, "is_disabled": 0, "fusion_lat": 0.0, "lat": 38.93536116666667, "bike_id": "9fdbff64ea7cc993dafb432bbb9c4043", "fusion_lon": 0.0}, {"rental_uris": {"ios": "https://dc.lft.to/lastmile_qr_scan", "android": "https://dc.lft.to/lastmile_qr_scan"}, "type": "electric_scooter", "name": "3c7576bc083fb6c1554ce05e3f7c158d", "is_reserved": 0, "lon": -77.072514, "is_disabled": 0, "fusion_lat": 0.0, "lat": 38.933257833333336, "bike_id": "3c7576bc083fb6c1554ce05e3f7c158d", "fusion_lon": 0.0}, {"rental_uris": {"ios": "https://dc.lft.to/lastmile_qr_scan", "android": "https://dc.lft.to/lastmile_qr_scan"}, "type": "electric_scooter", "name": "c85d9cfeab00118fbb9c86a7e065494a", "is_reserved": 0, "lon": -77.02390583333333, "is_disabled": 0, "fusion_lat": 0.0, "lat": 38.91962266666667, "bike_id": "c85d9cfeab00118fbb9c86a7e065494a", "fusion_lon": 0.0}, {"rental_uris": {"ios": "https://dc.lft.to/lastmile_qr_scan", "android": "https://dc.lft.to/lastmile_qr_scan"}, "type": "electric_scooter", "name": "5b984e84d0318f2377e177d8a186187d", "is_reserved": 0, "lon": -77.03541933333334, "is_disabled": 0, "fusion_lat": 0.0, "lat": 38.936129666666666, "bike_id": "5b984e84d0318f2377e177d8a186187d", "fusion_lon": 0.0}, {"rental_uris": {"ios": "https://dc.lft.to/lastmile_qr_scan", "android": "https://dc.lft.to/lastmile_qr_scan"}, "type": "electric_scooter", "name": "ac6018dbd2234831d1339d98fba4902d", "is_reserved": 0, "lon": -77.02221633333333, "is_disabled": 0, "fusion_lat": 0.0, "lat": 38.9209155, "bike_id": "ac6018dbd2234831d1339d98fba4902d", "fusion_lon": 0.0}, {"rental_uris": {"ios": "https://dc.lft.to/lastmile_qr_scan", "android": "https://dc.lft.to/lastmile_qr_scan"}, "type": "electric_scooter", "name": "27b3feca01d49816347fda3a5e6a7ce6", "is_reserved": 0, "lon": -76.9901125, "is_disabled": 0, "fusion_lat": 0.0, "lat": 38.90000116666667, "bike_id": "27b3feca01d49816347fda3a5e6a7ce6", "fusion_lon": 0.0}, {"rental_uris": {"ios": "https://dc.lft.to/lastmile_qr_scan", "android": "https://dc.lft.to/lastmile_qr_scan"}, "type": "electric_scooter", "name": "9b7f8dcf2093b64ac6bcc1c2fc9a3963", "is_reserved": 0, "lon": -76.97798266666666, "is_disabled": 0, "fusion_lat": 0.0, "lat": 38.903144166666664, "bike_id": "9b7f8dcf2093b64ac6bcc1c2fc9a3963", "fusion_lon": 0.0}, {"rental_uris": {"ios": "https://dc.lft.to/lastmile_qr_scan", "android": "https://dc.lft.to/lastmile_qr_scan"}, "type": "electric_scooter", "name": "0105fcc7c1a57dfded3a3eba2de642f3", "is_reserved": 0, "lon": -77.045054, "is_disabled": 0, "fusion_lat": 0.0, "lat": 38.91931116666667, "bike_id": "0105fcc7c1a57dfded3a3eba2de642f3", "fusion_lon": 0.0}, {"rental_uris": {"ios": "https://dc.lft.to/lastmile_qr_scan", "android": "https://dc.lft.to/lastmile_qr_scan"}, "type": "electric_scooter", "name": "cc51382b2f0a6bdb79524d867a7c2594", "is_reserved": 0, "lon": -77.02301783333333, "is_disabled": 0, "fusion_lat": 0.0, "lat": 38.91397033333333, "bike_id": "cc51382b2f0a6bdb79524d867a7c2594", "fusion_lon": 0.0}, {"rental_uris": {"ios": "https://dc.lft.to/lastmile_qr_scan", "android": "https://dc.lft.to/lastmile_qr_scan"}, "type": "electric_scooter", "name": "359a48d21e9e167770ba433ec9a65bb8", "is_reserved": 0, "lon": -77.0255805, "is_disabled": 0, "fusion_lat": 0.0, "lat": 38.93089, "bike_id": "359a48d21e9e167770ba433ec9a65bb8", "fusion_lon": 0.0}, {"rental_uris": {"ios": "https://dc.lft.to/lastmile_qr_scan", "android": "https://dc.lft.to/lastmile_qr_scan"}, "type": "electric_scooter", "name": "42305d5e711d331e06d295b24d39732b", "is_reserved": 0, "lon": -77.014337, "is_disabled": 0, "fusion_lat": 0.0, "lat": 38.914659, "bike_id": "42305d5e711d331e06d295b24d39732b", "fusion_lon": 0.0}, {"rental_uris": {"ios": "https://dc.lft.to/lastmile_qr_scan", "android": "https://dc.lft.to/lastmile_qr_scan"}, "type": "electric_scooter", "name": "f9ff33cb2add764e3b488db9ce0ade1a", "is_reserved": 0, "lon": -76.99181866666666, "is_disabled": 0, "fusion_lat": 0.0, "lat": 38.90508483333333, "bike_id": "f9ff33cb2add764e3b488db9ce0ade1a", "fusion_lon": 0.0}, {"rental_uris": {"ios": "https://dc.lft.to/lastmile_qr_scan", "android": "https://dc.lft.to/lastmile_qr_scan"}, "type": "electric_scooter", "name": "f9bf5cd953ca5d3dde0fb582667bf796", "is_reserved": 0, "lon": -76.99589533333334, "is_disabled": 0, "fusion_lat": 0.0, "lat": 38.90945516666667, "bike_id": "f9bf5cd953ca5d3dde0fb582667bf796", "fusion_lon": 0.0}, {"rental_uris": {"ios": "https://dc.lft.to/lastmile_qr_scan", "android": "https://dc.lft.to/lastmile_qr_scan"}, "type": "electric_scooter", "name": "960f99f59fb6b970c8ac96344e15a3d1", "is_reserved": 0, "lon": -76.97329483333333, "is_disabled": 0, "fusion_lat": 0.0, "lat": 38.90412, "bike_id": "960f99f59fb6b970c8ac96344e15a3d1", "fusion_lon": 0.0}, {"rental_uris": {"ios": "https://dc.lft.to/lastmile_qr_scan", "android": "https://dc.lft.to/lastmile_qr_scan"}, "type": "electric_scooter", "name": "be9d7d897f3c4919ef3f7ac6bd20f64c", "is_reserved": 0, "lon": -77.03964266666667, "is_disabled": 0, "fusion_lat": 0.0, "lat": 38.9315815, "bike_id": "be9d7d897f3c4919ef3f7ac6bd20f64c", "fusion_lon": 0.0}, {"rental_uris": {"ios": "https://dc.lft.to/lastmile_qr_scan", "android": "https://dc.lft.to/lastmile_qr_scan"}, "type": "electric_scooter", "name": "875ebbaae103c7414dce0423e5b24929", "is_reserved": 0, "lon": -77.0107585, "is_disabled": 0, "fusion_lat": 0.0, "lat": 38.91184583333333, "bike_id": "875ebbaae103c7414dce0423e5b24929", "fusion_lon": 0.0}, {"rental_uris": {"ios": "https://dc.lft.to/lastmile_qr_scan", "android": "https://dc.lft.to/lastmile_qr_scan"}, "type": "electric_scooter", "name": "5b626efdf146867c47e5c8b95ac49644", "is_reserved": 0, "lon": -77.04561566666666, "is_disabled": 0, "fusion_lat": 0.0, "lat": 38.91831283333333, "bike_id": "5b626efdf146867c47e5c8b95ac49644", "fusion_lon": 0.0}, {"rental_uris": {"ios": "https://dc.lft.to/lastmile_qr_scan", "android": "https://dc.lft.to/lastmile_qr_scan"}, "type": "electric_scooter", "name": "eb63d0e96c1952959489f2801d24c432", "is_reserved": 0, "lon": -77.046574, "is_disabled": 0, "fusion_lat": 0.0, "lat": 38.89635833333333, "bike_id": "eb63d0e96c1952959489f2801d24c432", "fusion_lon": 0.0}, {"rental_uris": {"ios": "https://dc.lft.to/lastmile_qr_scan", "android": "https://dc.lft.to/lastmile_qr_scan"}, "type": "electric_bike", "name": "9610d5aa5c2d7503d01043de16fe126b", "is_reserved": 0, "lon": -77.069519, "is_disabled": 0, "fusion_lat": 0.0, "lat": 38.836323666666665, "bike_id": "9610d5aa5c2d7503d01043de16fe126b", "fusion_lon": 0.0}, {"rental_uris": {"ios": "https://dc.lft.to/lastmile_qr_scan", "android": "https://dc.lft.to/lastmile_qr_scan"}, "type": "electric_scooter", "name": "8363df8e2e282810753bbc2ca7fb565e", "is_reserved": 0, "lon": -77.03246716666666, "is_disabled": 0, "fusion_lat": 0.0, "lat": 38.91713166666667, "bike_id": "8363df8e2e282810753bbc2ca7fb565e", "fusion_lon": 0.0}, {"rental_uris": {"ios": "https://dc.lft.to/lastmile_qr_scan", "android": "https://dc.lft.to/lastmile_qr_scan"}, "type": "electric_scooter", "name": "bbdead38cc73ae04a56157aa28fa8d54", "is_reserved": 0, "lon": -77.02416266666667, "is_disabled": 0, "fusion_lat": 0.0, "lat": 38.9299875, "bike_id": "bbdead38cc73ae04a56157aa28fa8d54", "fusion_lon": 0.0}, {"rental_uris": {"ios": "https://dc.lft.to/lastmile_qr_scan", "android": "https://dc.lft.to/lastmile_qr_scan"}, "type": "electric_scooter", "name": "fa2160086f4ed24c89c712f8e872986d", "is_reserved": 0, "lon": -77.04822733333333, "is_disabled": 0, "fusion_lat": 0.0, "lat": 38.914921166666666, "bike_id": "fa2160086f4ed24c89c712f8e872986d", "fusion_lon": 0.0}, {"rental_uris": {"ios": "https://dc.lft.to/lastmile_qr_scan", "android": "https://dc.lft.to/lastmile_qr_scan"}, "type": "electric_scooter", "name": "c3c21b0162bd9ad3659a757e6bd35af0", "is_reserved": 0, "lon": -77.0072765, "is_disabled": 0, "fusion_lat": 0.0, "lat": 38.8770105, "bike_id": "c3c21b0162bd9ad3659a757e6bd35af0", "fusion_lon": 0.0}, {"rental_uris": {"ios": "https://dc.lft.to/lastmile_qr_scan", "android": "https://dc.lft.to/lastmile_qr_scan"}, "type": "electric_bike", "name": "c5016216fc5dc0409bf7d3844b1bd25e", "is_reserved": 0, "lon": -76.993566, "is_disabled": 0, "fusion_lat": 0.0, "lat": 38.84508683333333, "bike_id": "c5016216fc5dc0409bf7d3844b1bd25e", "fusion_lon": 0.0}, {"rental_uris": {"ios": "https://dc.lft.to/lastmile_qr_scan", "android": "https://dc.lft.to/lastmile_qr_scan"}, "type": "electric_bike", "name": "253ee086478b10b0fa208db32d2b7543", "is_reserved": 0, "lon": -76.9497325, "is_disabled": 0, "fusion_lat": 0.0, "lat": 38.8829985, "bike_id": "253ee086478b10b0fa208db32d2b7543", "fusion_lon": 0.0}, {"rental_uris": {"ios": "https://dc.lft.to/lastmile_qr_scan", "android": "https://dc.lft.to/lastmile_qr_scan"}, "type": "electric_scooter", "name": "151e571223eb78d19a0e205e51ab0fdb", "is_reserved": 0, "lon": -77.04830216666667, "is_disabled": 0, "fusion_lat": 0.0, "lat": 38.92108433333333, "bike_id": "151e571223eb78d19a0e205e51ab0fdb", "fusion_lon": 0.0}, {"rental_uris": {"ios": "https://dc.lft.to/lastmile_qr_scan", "android": "https://dc.lft.to/lastmile_qr_scan"}, "type": "electric_scooter", "name": "eaf1d23253f684d971d4b8861b8ff92d", "is_reserved": 0, "lon": -77.02723933333333, "is_disabled": 0, "fusion_lat": 0.0, "lat": 38.924841666666666, "bike_id": "eaf1d23253f684d971d4b8861b8ff92d", "fusion_lon": 0.0}, {"rental_uris": {"ios": "https://dc.lft.to/lastmile_qr_scan", "android": "https://dc.lft.to/lastmile_qr_scan"}, "type": "electric_scooter", "name": "2cb2eaca9fdf3f3aa990368d4c78c25d", "is_reserved": 0, "lon": -77.032677, "is_disabled": 0, "fusion_lat": 0.0, "lat": 38.93986533333333, "bike_id": "2cb2eaca9fdf3f3aa990368d4c78c25d", "fusion_lon": 0.0}, {"rental_uris": {"ios": "https://dc.lft.to/lastmile_qr_scan", "android": "https://dc.lft.to/lastmile_qr_scan"}, "type": "electric_scooter", "name": "ff7f11f59cb4e39c3df03aa319d5f693", "is_reserved": 0, "lon": -77.04850066666667, "is_disabled": 0, "fusion_lat": 0.0, "lat": 38.904429666666665, "bike_id": "ff7f11f59cb4e39c3df03aa319d5f693", "fusion_lon": 0.0}, {"rental_uris": {"ios": "https://dc.lft.to/lastmile_qr_scan", "android": "https://dc.lft.to/lastmile_qr_scan"}, "type": "electric_scooter", "name": "4aed0ef2d3915e27973ef1ed8c20f327", "is_reserved": 0, "lon": -77.004991, "is_disabled": 0, "fusion_lat": 0.0, "lat": 38.944125, "bike_id": "4aed0ef2d3915e27973ef1ed8c20f327", "fusion_lon": 0.0}, {"rental_uris": {"ios": "https://dc.lft.to/lastmile_qr_scan", "android": "https://dc.lft.to/lastmile_qr_scan"}, "type": "electric_scooter", "name": "ca84d067240262ddb2394a9af67c6ae6", "is_reserved": 0, "lon": -77.03858283333334, "is_disabled": 0, "fusion_lat": 0.0, "lat": 38.932599833333335, "bike_id": "ca84d067240262ddb2394a9af67c6ae6", "fusion_lon": 0.0}, {"rental_uris": {"ios": "https://dc.lft.to/lastmile_qr_scan", "android": "https://dc.lft.to/lastmile_qr_scan"}, "type": "electric_scooter", "name": "a8c9c26828acaa9fcf32c77ce584318b", "is_reserved": 0, "lon": -77.021455, "is_disabled": 0, "fusion_lat": 0.0, "lat": 38.91908683333333, "bike_id": "a8c9c26828acaa9fcf32c77ce584318b", "fusion_lon": 0.0}, {"rental_uris": {"ios": "https://dc.lft.to/lastmile_qr_scan", "android": "https://dc.lft.to/lastmile_qr_scan"}, "type": "electric_scooter", "name": "397506debc11f28fed870f7a2d911372", "is_reserved": 0, "lon": -77.019104, "is_disabled": 0, "fusion_lat": 0.0, "lat": 38.899961166666664, "bike_id": "397506debc11f28fed870f7a2d911372", "fusion_lon": 0.0}, {"rental_uris": {"ios": "https://dc.lft.to/lastmile_qr_scan", "android": "https://dc.lft.to/lastmile_qr_scan"}, "type": "electric_scooter", "name": "79e5747e27496797ce7233127ab876d9", "is_reserved": 0, "lon": -76.99030433333333, "is_disabled": 0, "fusion_lat": 0.0, "lat": 38.89853216666667, "bike_id": "79e5747e27496797ce7233127ab876d9", "fusion_lon": 0.0}, {"rental_uris": {"ios": "https://dc.lft.to/lastmile_qr_scan", "android": "https://dc.lft.to/lastmile_qr_scan"}, "type": "electric_scooter", "name": "341d928766391f5282c596ba47083eb2", "is_reserved": 0, "lon": -77.01773216666666, "is_disabled": 0, "fusion_lat": 0.0, "lat": 38.88728283333333, "bike_id": "341d928766391f5282c596ba47083eb2", "fusion_lon": 0.0}, {"rental_uris": {"ios": "https://dc.lft.to/lastmile_qr_scan", "android": "https://dc.lft.to/lastmile_qr_scan"}, "type": "electric_bike", "name": "562828698e4110e3121b08ce1bf2bced", "is_reserved": 0, "lon": -76.96104666666666, "is_disabled": 0, "fusion_lat": 0.0, "lat": 38.94963533333333, "bike_id": "562828698e4110e3121b08ce1bf2bced", "fusion_lon": 0.0}, {"rental_uris": {"ios": "https://dc.lft.to/lastmile_qr_scan", "android": "https://dc.lft.to/lastmile_qr_scan"}, "type": "electric_scooter", "name": "171c5f3f99ec10822017e126b6356263", "is_reserved": 0, "lon": -77.00916266666667, "is_disabled": 0, "fusion_lat": 0.0, "lat": 38.918366166666665, "bike_id": "171c5f3f99ec10822017e126b6356263", "fusion_lon": 0.0}, {"rental_uris": {"ios": "https://dc.lft.to/lastmile_qr_scan", "android": "https://dc.lft.to/lastmile_qr_scan"}, "type": "electric_scooter", "name": "d84ee5d1d6e91b6d7af4b69c65415926", "is_reserved": 0, "lon": -77.01221583333333, "is_disabled": 0, "fusion_lat": 0.0, "lat": 38.920381, "bike_id": "d84ee5d1d6e91b6d7af4b69c65415926", "fusion_lon": 0.0}, {"rental_uris": {"ios": "https://dc.lft.to/lastmile_qr_scan", "android": "https://dc.lft.to/lastmile_qr_scan"}, "type": "electric_scooter", "name": "329fe604bf0dc830ce323f5da963ad35", "is_reserved": 0, "lon": -77.03906466666666, "is_disabled": 0, "fusion_lat": 0.0, "lat": 38.90827866666667, "bike_id": "329fe604bf0dc830ce323f5da963ad35", "fusion_lon": 0.0}, {"rental_uris": {"ios": "https://dc.lft.to/lastmile_qr_scan", "android": "https://dc.lft.to/lastmile_qr_scan"}, "type": "electric_scooter", "name": "7f5cd1a93d219cea713719e1ccba45ad", "is_reserved": 0, "lon": -77.01100916666667, "is_disabled": 0, "fusion_lat": 0.0, "lat": 38.885396666666665, "bike_id": "7f5cd1a93d219cea713719e1ccba45ad", "fusion_lon": 0.0}, {"rental_uris": {"ios": "https://dc.lft.to/lastmile_qr_scan", "android": "https://dc.lft.to/lastmile_qr_scan"}, "type": "electric_scooter", "name": "a300f1deb392d345297b9a27362aab70", "is_reserved": 0, "lon": -77.02950433333334, "is_disabled": 0, "fusion_lat": 0.0, "lat": 38.88399833333333, "bike_id": "a300f1deb392d345297b9a27362aab70", "fusion_lon": 0.0}, {"rental_uris": {"ios": "https://dc.lft.to/lastmile_qr_scan", "android": "https://dc.lft.to/lastmile_qr_scan"}, "type": "electric_scooter", "name": "0c003d714a1386d75a1490b27a7f2ba2", "is_reserved": 0, "lon": -77.0385835, "is_disabled": 0, "fusion_lat": 0.0, "lat": 38.90773, "bike_id": "0c003d714a1386d75a1490b27a7f2ba2", "fusion_lon": 0.0}, {"rental_uris": {"ios": "https://dc.lft.to/lastmile_qr_scan", "android": "https://dc.lft.to/lastmile_qr_scan"}, "type": "electric_scooter", "name": "8788bbfda774aa6da87e5621e84c0085", "is_reserved": 0, "lon": -77.00216966666666, "is_disabled": 0, "fusion_lat": 0.0, "lat": 38.911034666666666, "bike_id": "8788bbfda774aa6da87e5621e84c0085", "fusion_lon": 0.0}, {"rental_uris": {"ios": "https://dc.lft.to/lastmile_qr_scan", "android": "https://dc.lft.to/lastmile_qr_scan"}, "type": "electric_scooter", "name": "5a986cb2960db26ed03c22c26020cc25", "is_reserved": 0, "lon": -77.04630233333333, "is_disabled": 0, "fusion_lat": 0.0, "lat": 38.919315166666664, "bike_id": "5a986cb2960db26ed03c22c26020cc25", "fusion_lon": 0.0}, {"rental_uris": {"ios": "https://dc.lft.to/lastmile_qr_scan", "android": "https://dc.lft.to/lastmile_qr_scan"}, "type": "electric_scooter", "name": "9ee026c7e717025aebf434c7d8aa2a79", "is_reserved": 0, "lon": -77.035632, "is_disabled": 0, "fusion_lat": 0.0, "lat": 38.90637316666667, "bike_id": "9ee026c7e717025aebf434c7d8aa2a79", "fusion_lon": 0.0}, {"rental_uris": {"ios": "https://dc.lft.to/lastmile_qr_scan", "android": "https://dc.lft.to/lastmile_qr_scan"}, "type": "electric_scooter", "name": "5f4c8aca897c5fe4c77a169b8f906f22", "is_reserved": 0, "lon": -77.00530066666667, "is_disabled": 0, "fusion_lat": 0.0, "lat": 38.885121166666664, "bike_id": "5f4c8aca897c5fe4c77a169b8f906f22", "fusion_lon": 0.0}, {"rental_uris": {"ios": "https://dc.lft.to/lastmile_qr_scan", "android": "https://dc.lft.to/lastmile_qr_scan"}, "type": "electric_scooter", "name": "ea0226447bd9bc72bf82dd642a7437cd", "is_reserved": 0, "lon": -77.02183533333333, "is_disabled": 0, "fusion_lat": 0.0, "lat": 38.9023265, "bike_id": "ea0226447bd9bc72bf82dd642a7437cd", "fusion_lon": 0.0}, {"rental_uris": {"ios": "https://dc.lft.to/lastmile_qr_scan", "android": "https://dc.lft.to/lastmile_qr_scan"}, "type": "electric_scooter", "name": "30236e4c430779c8db1dbebaceab7b54", "is_reserved": 0, "lon": -77.02805116666667, "is_disabled": 0, "fusion_lat": 0.0, "lat": 38.907384, "bike_id": "30236e4c430779c8db1dbebaceab7b54", "fusion_lon": 0.0}, {"rental_uris": {"ios": "https://dc.lft.to/lastmile_qr_scan", "android": "https://dc.lft.to/lastmile_qr_scan"}, "type": "electric_scooter", "name": "7545f9ff0d4e34b1d9a4bb67426cf688", "is_reserved": 0, "lon": -76.99596016666666, "is_disabled": 0, "fusion_lat": 0.0, "lat": 38.900312, "bike_id": "7545f9ff0d4e34b1d9a4bb67426cf688", "fusion_lon": 0.0}, {"rental_uris": {"ios": "https://dc.lft.to/lastmile_qr_scan", "android": "https://dc.lft.to/lastmile_qr_scan"}, "type": "electric_scooter", "name": "d7617445e0b4614984cd1f034ed2bd5b", "is_reserved": 0, "lon": -77.0280545, "is_disabled": 0, "fusion_lat": 0.0, "lat": 38.9074065, "bike_id": "d7617445e0b4614984cd1f034ed2bd5b", "fusion_lon": 0.0}, {"rental_uris": {"ios": "https://dc.lft.to/lastmile_qr_scan", "android": "https://dc.lft.to/lastmile_qr_scan"}, "type": "electric_scooter", "name": "f3cc6face8c2e71e9fd4911d16444b83", "is_reserved": 0, "lon": -77.03146833333334, "is_disabled": 0, "fusion_lat": 0.0, "lat": 38.887440833333336, "bike_id": "f3cc6face8c2e71e9fd4911d16444b83", "fusion_lon": 0.0}, {"rental_uris": {"ios": "https://dc.lft.to/lastmile_qr_scan", "android": "https://dc.lft.to/lastmile_qr_scan"}, "type": "electric_scooter", "name": "7355eeb3eccc3124103e6a0cd4a0d2bb", "is_reserved": 0, "lon": -77.02597733333333, "is_disabled": 0, "fusion_lat": 0.0, "lat": 38.916936666666665, "bike_id": "7355eeb3eccc3124103e6a0cd4a0d2bb", "fusion_lon": 0.0}, {"rental_uris": {"ios": "https://dc.lft.to/lastmile_qr_scan", "android": "https://dc.lft.to/lastmile_qr_scan"}, "type": "electric_scooter", "name": "c731a88894676014220050c5950e704e", "is_reserved": 0, "lon": -77.01783066666667, "is_disabled": 0, "fusion_lat": 0.0, "lat": 38.87474866666667, "bike_id": "c731a88894676014220050c5950e704e", "fusion_lon": 0.0}, {"rental_uris": {"ios": "https://dc.lft.to/lastmile_qr_scan", "android": "https://dc.lft.to/lastmile_qr_scan"}, "type": "electric_scooter", "name": "501c33b3dbd0e6462db6becfb7c7d3d9", "is_reserved": 0, "lon": -77.01205, "is_disabled": 0, "fusion_lat": 0.0, "lat": 38.916647, "bike_id": "501c33b3dbd0e6462db6becfb7c7d3d9", "fusion_lon": 0.0}, {"rental_uris": {"ios": "https://dc.lft.to/lastmile_qr_scan", "android": "https://dc.lft.to/lastmile_qr_scan"}, "type": "electric_scooter", "name": "9b74f5a657e1b0655f46922b330f198c", "is_reserved": 0, "lon": -77.02531416666666, "is_disabled": 0, "fusion_lat": 0.0, "lat": 38.945392, "bike_id": "9b74f5a657e1b0655f46922b330f198c", "fusion_lon": 0.0}, {"rental_uris": {"ios": "https://dc.lft.to/lastmile_qr_scan", "android": "https://dc.lft.to/lastmile_qr_scan"}, "type": "electric_scooter", "name": "3d652f5fb429ce61a9e551cd7066ec31", "is_reserved": 0, "lon": -76.99663266666667, "is_disabled": 0, "fusion_lat": 0.0, "lat": 38.89235633333333, "bike_id": "3d652f5fb429ce61a9e551cd7066ec31", "fusion_lon": 0.0}, {"rental_uris": {"ios": "https://dc.lft.to/lastmile_qr_scan", "android": "https://dc.lft.to/lastmile_qr_scan"}, "type": "electric_scooter", "name": "89a77213c1ea0e34f18c3f895817a144", "is_reserved": 0, "lon": -77.03233783333333, "is_disabled": 0, "fusion_lat": 0.0, "lat": 38.90961033333333, "bike_id": "89a77213c1ea0e34f18c3f895817a144", "fusion_lon": 0.0}, {"rental_uris": {"ios": "https://dc.lft.to/lastmile_qr_scan", "android": "https://dc.lft.to/lastmile_qr_scan"}, "type": "electric_scooter", "name": "ad1d45a0732be34ff96201f92c5e34bd", "is_reserved": 0, "lon": -76.99715783333333, "is_disabled": 0, "fusion_lat": 0.0, "lat": 38.89739766666667, "bike_id": "ad1d45a0732be34ff96201f92c5e34bd", "fusion_lon": 0.0}, {"rental_uris": {"ios": "https://dc.lft.to/lastmile_qr_scan", "android": "https://dc.lft.to/lastmile_qr_scan"}, "type": "electric_bike", "name": "9f3dd211c44d56a617cbbc16eed294d6", "is_reserved": 0, "lon": -76.99571683333333, "is_disabled": 0, "fusion_lat": 0.0, "lat": 38.831594, "bike_id": "9f3dd211c44d56a617cbbc16eed294d6", "fusion_lon": 0.0}, {"rental_uris": {"ios": "https://dc.lft.to/lastmile_qr_scan", "android": "https://dc.lft.to/lastmile_qr_scan"}, "type": "electric_scooter", "name": "05c2a7ecf78e18c9c64dbf7748b72732", "is_reserved": 0, "lon": -77.00220416666667, "is_disabled": 0, "fusion_lat": 0.0, "lat": 38.90892733333333, "bike_id": "05c2a7ecf78e18c9c64dbf7748b72732", "fusion_lon": 0.0}, {"rental_uris": {"ios": "https://dc.lft.to/lastmile_qr_scan", "android": "https://dc.lft.to/lastmile_qr_scan"}, "type": "electric_bike", "name": "726dbf460076ce358b933d7495054e2d", "is_reserved": 0, "lon": -76.94551716666666, "is_disabled": 0, "fusion_lat": 0.0, "lat": 38.98302416666667, "bike_id": "726dbf460076ce358b933d7495054e2d", "fusion_lon": 0.0}, {"rental_uris": {"ios": "https://dc.lft.to/lastmile_qr_scan", "android": "https://dc.lft.to/lastmile_qr_scan"}, "type": "electric_scooter", "name": "e5b6ab1995109ea41d30a5ef0e1ffa64", "is_reserved": 0, "lon": -77.06703516666667, "is_disabled": 0, "fusion_lat": 0.0, "lat": 38.947994666666666, "bike_id": "e5b6ab1995109ea41d30a5ef0e1ffa64", "fusion_lon": 0.0}, {"rental_uris": {"ios": "https://dc.lft.to/lastmile_qr_scan", "android": "https://dc.lft.to/lastmile_qr_scan"}, "type": "electric_bike", "name": "da379691693489efd9b98c707c0156c0", "is_reserved": 0, "lon": -76.95239333333333, "is_disabled": 0, "fusion_lat": 0.0, "lat": 38.8846725, "bike_id": "da379691693489efd9b98c707c0156c0", "fusion_lon": 0.0}, {"rental_uris": {"ios": "https://dc.lft.to/lastmile_qr_scan", "android": "https://dc.lft.to/lastmile_qr_scan"}, "type": "electric_bike", "name": "9193e5a5c4d7c4317943d066f871ef32", "is_reserved": 0, "lon": -76.9967115, "is_disabled": 0, "fusion_lat": 0.0, "lat": 38.90127316666667, "bike_id": "9193e5a5c4d7c4317943d066f871ef32", "fusion_lon": 0.0}, {"rental_uris": {"ios": "https://dc.lft.to/lastmile_qr_scan", "android": "https://dc.lft.to/lastmile_qr_scan"}, "type": "electric_bike", "name": "3bc0e0c41a18dbdbbe182069fcf39e1a", "is_reserved": 0, "lon": -77.0407315, "is_disabled": 0, "fusion_lat": 0.0, "lat": 38.993815166666664, "bike_id": "3bc0e0c41a18dbdbbe182069fcf39e1a", "fusion_lon": 0.0}, {"rental_uris": {"ios": "https://dc.lft.to/lastmile_qr_scan", "android": "https://dc.lft.to/lastmile_qr_scan"}, "type": "electric_scooter", "name": "6c55d3ab3406f651347254e2261b6df7", "is_reserved": 0, "lon": -77.036597, "is_disabled": 0, "fusion_lat": 0.0, "lat": 38.9328545, "bike_id": "6c55d3ab3406f651347254e2261b6df7", "fusion_lon": 0.0}, {"rental_uris": {"ios": "https://dc.lft.to/lastmile_qr_scan", "android": "https://dc.lft.to/lastmile_qr_scan"}, "type": "electric_scooter", "name": "2026b0a3e1bbebd253d9ffb7ca7853a2", "is_reserved": 0, "lon": -77.0144435, "is_disabled": 0, "fusion_lat": 0.0, "lat": 38.91112, "bike_id": "2026b0a3e1bbebd253d9ffb7ca7853a2", "fusion_lon": 0.0}, {"rental_uris": {"ios": "https://dc.lft.to/lastmile_qr_scan", "android": "https://dc.lft.to/lastmile_qr_scan"}, "type": "electric_bike", "name": "a032768f19cd3fe6fc01fb421f2d0b68", "is_reserved": 0, "lon": -77.07912216666666, "is_disabled": 0, "fusion_lat": 0.0, "lat": 38.8383045, "bike_id": "a032768f19cd3fe6fc01fb421f2d0b68", "fusion_lon": 0.0}, {"rental_uris": {"ios": "https://dc.lft.to/lastmile_qr_scan", "android": "https://dc.lft.to/lastmile_qr_scan"}, "type": "electric_scooter", "name": "ac5b2a90848d4230b12b01c5a842eec6", "is_reserved": 0, "lon": -77.08402216666667, "is_disabled": 0, "fusion_lat": 0.0, "lat": 38.908048, "bike_id": "ac5b2a90848d4230b12b01c5a842eec6", "fusion_lon": 0.0}, {"rental_uris": {"ios": "https://dc.lft.to/lastmile_qr_scan", "android": "https://dc.lft.to/lastmile_qr_scan"}, "type": "electric_scooter", "name": "ff4eeee4690554b909d4cdd75fab6d1e", "is_reserved": 0, "lon": -76.9970375, "is_disabled": 0, "fusion_lat": 0.0, "lat": 38.911155666666666, "bike_id": "ff4eeee4690554b909d4cdd75fab6d1e", "fusion_lon": 0.0}, {"rental_uris": {"ios": "https://dc.lft.to/lastmile_qr_scan", "android": "https://dc.lft.to/lastmile_qr_scan"}, "type": "electric_scooter", "name": "a621b5010967cf762549ac71f401fed7", "is_reserved": 0, "lon": -77.04373783333334, "is_disabled": 0, "fusion_lat": 0.0, "lat": 38.934962166666665, "bike_id": "a621b5010967cf762549ac71f401fed7", "fusion_lon": 0.0}, {"rental_uris": {"ios": "https://dc.lft.to/lastmile_qr_scan", "android": "https://dc.lft.to/lastmile_qr_scan"}, "type": "electric_scooter", "name": "5fdfa784816e8296ab28501c212be779", "is_reserved": 0, "lon": -77.07359633333333, "is_disabled": 0, "fusion_lat": 0.0, "lat": 38.937422166666664, "bike_id": "5fdfa784816e8296ab28501c212be779", "fusion_lon": 0.0}, {"rental_uris": {"ios": "https://dc.lft.to/lastmile_qr_scan", "android": "https://dc.lft.to/lastmile_qr_scan"}, "type": "electric_bike", "name": "992667445c0ce5e8d19b91296a2e129e", "is_reserved": 0, "lon": -77.06648066666666, "is_disabled": 0, "fusion_lat": 0.0, "lat": 38.9496075, "bike_id": "992667445c0ce5e8d19b91296a2e129e", "fusion_lon": 0.0}, {"rental_uris": {"ios": "https://dc.lft.to/lastmile_qr_scan", "android": "https://dc.lft.to/lastmile_qr_scan"}, "type": "electric_scooter", "name": "3505ac1b3411cc1a8bacc108dd139691", "is_reserved": 0, "lon": -77.03213283333334, "is_disabled": 0, "fusion_lat": 0.0, "lat": 38.90896716666666, "bike_id": "3505ac1b3411cc1a8bacc108dd139691", "fusion_lon": 0.0}, {"rental_uris": {"ios": "https://dc.lft.to/lastmile_qr_scan", "android": "https://dc.lft.to/lastmile_qr_scan"}, "type": "electric_scooter", "name": "737c8e21bdb91d4de467deda13c59148", "is_reserved": 0, "lon": -77.045821, "is_disabled": 0, "fusion_lat": 0.0, "lat": 38.914299166666666, "bike_id": "737c8e21bdb91d4de467deda13c59148", "fusion_lon": 0.0}, {"rental_uris": {"ios": "https://dc.lft.to/lastmile_qr_scan", "android": "https://dc.lft.to/lastmile_qr_scan"}, "type": "electric_scooter", "name": "8c21f2fe37378d11c7f4a29b31993c40", "is_reserved": 0, "lon": -77.04348966666667, "is_disabled": 0, "fusion_lat": 0.0, "lat": 38.907135833333335, "bike_id": "8c21f2fe37378d11c7f4a29b31993c40", "fusion_lon": 0.0}, {"rental_uris": {"ios": "https://dc.lft.to/lastmile_qr_scan", "android": "https://dc.lft.to/lastmile_qr_scan"}, "type": "electric_scooter", "name": "ce3c719c9b7d443e1a96d90504b42e10", "is_reserved": 0, "lon": -77.027567, "is_disabled": 0, "fusion_lat": 0.0, "lat": 38.9121415, "bike_id": "ce3c719c9b7d443e1a96d90504b42e10", "fusion_lon": 0.0}, {"rental_uris": {"ios": "https://dc.lft.to/lastmile_qr_scan", "android": "https://dc.lft.to/lastmile_qr_scan"}, "type": "electric_scooter", "name": "ed93b5e3fd06fe2a68b89a7eff058f96", "is_reserved": 0, "lon": -77.02812983333334, "is_disabled": 0, "fusion_lat": 0.0, "lat": 38.906199, "bike_id": "ed93b5e3fd06fe2a68b89a7eff058f96", "fusion_lon": 0.0}, {"rental_uris": {"ios": "https://dc.lft.to/lastmile_qr_scan", "android": "https://dc.lft.to/lastmile_qr_scan"}, "type": "electric_scooter", "name": "7248e898e42ebef05bf70df62658fc95", "is_reserved": 0, "lon": -77.02228866666667, "is_disabled": 0, "fusion_lat": 0.0, "lat": 38.892221, "bike_id": "7248e898e42ebef05bf70df62658fc95", "fusion_lon": 0.0}, {"rental_uris": {"ios": "https://dc.lft.to/lastmile_qr_scan", "android": "https://dc.lft.to/lastmile_qr_scan"}, "type": "electric_scooter", "name": "74f96ecffc41e79209e92dd8a6f36599", "is_reserved": 0, "lon": -77.02027216666667, "is_disabled": 0, "fusion_lat": 0.0, "lat": 38.936508833333335, "bike_id": "74f96ecffc41e79209e92dd8a6f36599", "fusion_lon": 0.0}, {"rental_uris": {"ios": "https://dc.lft.to/lastmile_qr_scan", "android": "https://dc.lft.to/lastmile_qr_scan"}, "type": "electric_scooter", "name": "7c5a09c96314faeb5ae4b86e7cb059c8", "is_reserved": 0, "lon": -77.04550933333333, "is_disabled": 0, "fusion_lat": 0.0, "lat": 38.917781166666664, "bike_id": "7c5a09c96314faeb5ae4b86e7cb059c8", "fusion_lon": 0.0}, {"rental_uris": {"ios": "https://dc.lft.to/lastmile_qr_scan", "android": "https://dc.lft.to/lastmile_qr_scan"}, "type": "electric_scooter", "name": "03ee4019815157a755869423af6d378b", "is_reserved": 0, "lon": -76.9223715, "is_disabled": 0, "fusion_lat": 0.0, "lat": 38.90002583333333, "bike_id": "03ee4019815157a755869423af6d378b", "fusion_lon": 0.0}, {"rental_uris": {"ios": "https://dc.lft.to/lastmile_qr_scan", "android": "https://dc.lft.to/lastmile_qr_scan"}, "type": "electric_scooter", "name": "6f9bb0b35fd7f2dbdbc4250b663d29a7", "is_reserved": 0, "lon": -76.96508483333334, "is_disabled": 0, "fusion_lat": 0.0, "lat": 38.87651066666667, "bike_id": "6f9bb0b35fd7f2dbdbc4250b663d29a7", "fusion_lon": 0.0}, {"rental_uris": {"ios": "https://dc.lft.to/lastmile_qr_scan", "android": "https://dc.lft.to/lastmile_qr_scan"}, "type": "electric_scooter", "name": "3eeeae54ff202becf3f78196781b2247", "is_reserved": 0, "lon": -77.02192416666666, "is_disabled": 0, "fusion_lat": 0.0, "lat": 38.913782166666664, "bike_id": "3eeeae54ff202becf3f78196781b2247", "fusion_lon": 0.0}, {"rental_uris": {"ios": "https://dc.lft.to/lastmile_qr_scan", "android": "https://dc.lft.to/lastmile_qr_scan"}, "type": "electric_scooter", "name": "8fd8c46b7600f95dd1871eff03c73ee3", "is_reserved": 0, "lon": -77.025497, "is_disabled": 0, "fusion_lat": 0.0, "lat": 38.930916, "bike_id": "8fd8c46b7600f95dd1871eff03c73ee3", "fusion_lon": 0.0}, {"rental_uris": {"ios": "https://dc.lft.to/lastmile_qr_scan", "android": "https://dc.lft.to/lastmile_qr_scan"}, "type": "electric_scooter", "name": "b6987f99ef0ce0e41254db14205b3445", "is_reserved": 0, "lon": -77.033185, "is_disabled": 0, "fusion_lat": 0.0, "lat": 38.91801933333333, "bike_id": "b6987f99ef0ce0e41254db14205b3445", "fusion_lon": 0.0}, {"rental_uris": {"ios": "https://dc.lft.to/lastmile_qr_scan", "android": "https://dc.lft.to/lastmile_qr_scan"}, "type": "electric_scooter", "name": "6c19b105a9a0b73eb3e01f7d51611c0a", "is_reserved": 0, "lon": -77.04758983333333, "is_disabled": 0, "fusion_lat": 0.0, "lat": 38.918619, "bike_id": "6c19b105a9a0b73eb3e01f7d51611c0a", "fusion_lon": 0.0}, {"rental_uris": {"ios": "https://dc.lft.to/lastmile_qr_scan", "android": "https://dc.lft.to/lastmile_qr_scan"}, "type": "electric_scooter", "name": "25845e8e481ee0e942ae77b917add770", "is_reserved": 0, "lon": -77.0249965, "is_disabled": 0, "fusion_lat": 0.0, "lat": 38.897491, "bike_id": "25845e8e481ee0e942ae77b917add770", "fusion_lon": 0.0}, {"rental_uris": {"ios": "https://dc.lft.to/lastmile_qr_scan", "android": "https://dc.lft.to/lastmile_qr_scan"}, "type": "electric_scooter", "name": "c45cf2e7fb27aacf723a16fa517ea25a", "is_reserved": 0, "lon": -77.03932533333334, "is_disabled": 0, "fusion_lat": 0.0, "lat": 38.90167016666667, "bike_id": "c45cf2e7fb27aacf723a16fa517ea25a", "fusion_lon": 0.0}, {"rental_uris": {"ios": "https://dc.lft.to/lastmile_qr_scan", "android": "https://dc.lft.to/lastmile_qr_scan"}, "type": "electric_scooter", "name": "bc6bcd4ef30a84938f41eef270d452fd", "is_reserved": 0, "lon": -77.05261683333333, "is_disabled": 0, "fusion_lat": 0.0, "lat": 38.925684333333336, "bike_id": "bc6bcd4ef30a84938f41eef270d452fd", "fusion_lon": 0.0}, {"rental_uris": {"ios": "https://dc.lft.to/lastmile_qr_scan", "android": "https://dc.lft.to/lastmile_qr_scan"}, "type": "electric_scooter", "name": "99a928fb2c54385ae91c557f1f2811f6", "is_reserved": 0, "lon": -77.04334816666666, "is_disabled": 0, "fusion_lat": 0.0, "lat": 38.9262135, "bike_id": "99a928fb2c54385ae91c557f1f2811f6", "fusion_lon": 0.0}, {"rental_uris": {"ios": "https://dc.lft.to/lastmile_qr_scan", "android": "https://dc.lft.to/lastmile_qr_scan"}, "type": "electric_scooter", "name": "e250c27dd6da68aac45b13e4e233f990", "is_reserved": 0, "lon": -77.00914916666666, "is_disabled": 0, "fusion_lat": 0.0, "lat": 38.896953833333335, "bike_id": "e250c27dd6da68aac45b13e4e233f990", "fusion_lon": 0.0}, {"rental_uris": {"ios": "https://dc.lft.to/lastmile_qr_scan", "android": "https://dc.lft.to/lastmile_qr_scan"}, "type": "electric_bike", "name": "025947ea01bd9824cadecbcc0ecb2d2f", "is_reserved": 0, "lon": -76.9846605, "is_disabled": 0, "fusion_lat": 0.0, "lat": 38.9097425, "bike_id": "025947ea01bd9824cadecbcc0ecb2d2f", "fusion_lon": 0.0}, {"rental_uris": {"ios": "https://dc.lft.to/lastmile_qr_scan", "android": "https://dc.lft.to/lastmile_qr_scan"}, "type": "electric_scooter", "name": "f996d184c949634e2a6bebb5f41f9627", "is_reserved": 0, "lon": -77.04694833333333, "is_disabled": 0, "fusion_lat": 0.0, "lat": 38.92162366666667, "bike_id": "f996d184c949634e2a6bebb5f41f9627", "fusion_lon": 0.0}, {"rental_uris": {"ios": "https://dc.lft.to/lastmile_qr_scan", "android": "https://dc.lft.to/lastmile_qr_scan"}, "type": "electric_bike", "name": "b8155039f789de6a896637e9bccb1946", "is_reserved": 0, "lon": -76.957626, "is_disabled": 0, "fusion_lat": 0.0, "lat": 38.8848855, "bike_id": "b8155039f789de6a896637e9bccb1946", "fusion_lon": 0.0}, {"rental_uris": {"ios": "https://dc.lft.to/lastmile_qr_scan", "android": "https://dc.lft.to/lastmile_qr_scan"}, "type": "electric_scooter", "name": "8a9bc835f42f048081e0810421a8db4a", "is_reserved": 0, "lon": -77.0261005, "is_disabled": 0, "fusion_lat": 0.0, "lat": 38.92883283333333, "bike_id": "8a9bc835f42f048081e0810421a8db4a", "fusion_lon": 0.0}, {"rental_uris": {"ios": "https://dc.lft.to/lastmile_qr_scan", "android": "https://dc.lft.to/lastmile_qr_scan"}, "type": "electric_scooter", "name": "a7229a6f3eeea14b414d977fbcf8f6db", "is_reserved": 0, "lon": -77.0252195, "is_disabled": 0, "fusion_lat": 0.0, "lat": 38.94010033333333, "bike_id": "a7229a6f3eeea14b414d977fbcf8f6db", "fusion_lon": 0.0}, {"rental_uris": {"ios": "https://dc.lft.to/lastmile_qr_scan", "android": "https://dc.lft.to/lastmile_qr_scan"}, "type": "electric_scooter", "name": "50fc4fb476ce4ba95e89e44a7d038135", "is_reserved": 0, "lon": -77.00337316666666, "is_disabled": 0, "fusion_lat": 0.0, "lat": 38.89918316666667, "bike_id": "50fc4fb476ce4ba95e89e44a7d038135", "fusion_lon": 0.0}, {"rental_uris": {"ios": "https://dc.lft.to/lastmile_qr_scan", "android": "https://dc.lft.to/lastmile_qr_scan"}, "type": "electric_scooter", "name": "044e3042961cfc70c302aea99c424edf", "is_reserved": 0, "lon": -77.03129983333334, "is_disabled": 0, "fusion_lat": 0.0, "lat": 38.923714, "bike_id": "044e3042961cfc70c302aea99c424edf", "fusion_lon": 0.0}, {"rental_uris": {"ios": "https://dc.lft.to/lastmile_qr_scan", "android": "https://dc.lft.to/lastmile_qr_scan"}, "type": "electric_scooter", "name": "42e20d5643d770bcec5577b85fd80d25", "is_reserved": 0, "lon": -77.044356, "is_disabled": 0, "fusion_lat": 0.0, "lat": 38.901370166666666, "bike_id": "42e20d5643d770bcec5577b85fd80d25", "fusion_lon": 0.0}, {"rental_uris": {"ios": "https://dc.lft.to/lastmile_qr_scan", "android": "https://dc.lft.to/lastmile_qr_scan"}, "type": "electric_scooter", "name": "f7cc4e5a0dfee16ca08d8928655f56d9", "is_reserved": 0, "lon": -77.04131833333334, "is_disabled": 0, "fusion_lat": 0.0, "lat": 38.923018, "bike_id": "f7cc4e5a0dfee16ca08d8928655f56d9", "fusion_lon": 0.0}, {"rental_uris": {"ios": "https://dc.lft.to/lastmile_qr_scan", "android": "https://dc.lft.to/lastmile_qr_scan"}, "type": "electric_scooter", "name": "4cb70f8e3f32c4ea206b2acce777b244", "is_reserved": 0, "lon": -77.01921483333334, "is_disabled": 0, "fusion_lat": 0.0, "lat": 38.902356166666664, "bike_id": "4cb70f8e3f32c4ea206b2acce777b244", "fusion_lon": 0.0}, {"rental_uris": {"ios": "https://dc.lft.to/lastmile_qr_scan", "android": "https://dc.lft.to/lastmile_qr_scan"}, "type": "electric_scooter", "name": "e55f651d03c3233ff787ad1004998a79", "is_reserved": 0, "lon": -77.01298033333333, "is_disabled": 0, "fusion_lat": 0.0, "lat": 38.900509166666666, "bike_id": "e55f651d03c3233ff787ad1004998a79", "fusion_lon": 0.0}, {"rental_uris": {"ios": "https://dc.lft.to/lastmile_qr_scan", "android": "https://dc.lft.to/lastmile_qr_scan"}, "type": "electric_scooter", "name": "b66f597b3d43db459b0fd8afaad3fd5a", "is_reserved": 0, "lon": -77.03777666666667, "is_disabled": 0, "fusion_lat": 0.0, "lat": 38.93967716666667, "bike_id": "b66f597b3d43db459b0fd8afaad3fd5a", "fusion_lon": 0.0}, {"rental_uris": {"ios": "https://dc.lft.to/lastmile_qr_scan", "android": "https://dc.lft.to/lastmile_qr_scan"}, "type": "electric_scooter", "name": "d09a3a47cbcf48799da194c683fb8765", "is_reserved": 0, "lon": -77.02720316666667, "is_disabled": 0, "fusion_lat": 0.0, "lat": 38.897270166666665, "bike_id": "d09a3a47cbcf48799da194c683fb8765", "fusion_lon": 0.0}, {"rental_uris": {"ios": "https://dc.lft.to/lastmile_qr_scan", "android": "https://dc.lft.to/lastmile_qr_scan"}, "type": "electric_scooter", "name": "a3d28384fedbbd0959b4ce57ee72afd1", "is_reserved": 0, "lon": -77.02202716666666, "is_disabled": 0, "fusion_lat": 0.0, "lat": 38.88717, "bike_id": "a3d28384fedbbd0959b4ce57ee72afd1", "fusion_lon": 0.0}, {"rental_uris": {"ios": "https://dc.lft.to/lastmile_qr_scan", "android": "https://dc.lft.to/lastmile_qr_scan"}, "type": "electric_scooter", "name": "1e4e63971f7a89f64028717078bb28f6", "is_reserved": 0, "lon": -77.071647, "is_disabled": 0, "fusion_lat": 0.0, "lat": 38.896119666666664, "bike_id": "1e4e63971f7a89f64028717078bb28f6", "fusion_lon": 0.0}, {"rental_uris": {"ios": "https://dc.lft.to/lastmile_qr_scan", "android": "https://dc.lft.to/lastmile_qr_scan"}, "type": "electric_scooter", "name": "e8191b7db070fd78fef3f1e18ebbc94a", "is_reserved": 0, "lon": -77.0269115, "is_disabled": 0, "fusion_lat": 0.0, "lat": 38.90873883333333, "bike_id": "e8191b7db070fd78fef3f1e18ebbc94a", "fusion_lon": 0.0}, {"rental_uris": {"ios": "https://dc.lft.to/lastmile_qr_scan", "android": "https://dc.lft.to/lastmile_qr_scan"}, "type": "electric_scooter", "name": "886d0030f6ef3431fa89b04bd01f247f", "is_reserved": 0, "lon": -77.03612183333334, "is_disabled": 0, "fusion_lat": 0.0, "lat": 38.9233615, "bike_id": "886d0030f6ef3431fa89b04bd01f247f", "fusion_lon": 0.0}, {"rental_uris": {"ios": "https://dc.lft.to/lastmile_qr_scan", "android": "https://dc.lft.to/lastmile_qr_scan"}, "type": "electric_bike", "name": "4b4b002029c5d84e409f7c6ff77f144c", "is_reserved": 0, "lon": -76.91803833333333, "is_disabled": 0, "fusion_lat": 0.0, "lat": 39.0000035, "bike_id": "4b4b002029c5d84e409f7c6ff77f144c", "fusion_lon": 0.0}, {"rental_uris": {"ios": "https://dc.lft.to/lastmile_qr_scan", "android": "https://dc.lft.to/lastmile_qr_scan"}, "type": "electric_scooter", "name": "6f3d4d7d5d35cf06dc45f54ffa264ec5", "is_reserved": 0, "lon": -77.01779383333333, "is_disabled": 0, "fusion_lat": 0.0, "lat": 38.94420983333333, "bike_id": "6f3d4d7d5d35cf06dc45f54ffa264ec5", "fusion_lon": 0.0}, {"rental_uris": {"ios": "https://dc.lft.to/lastmile_qr_scan", "android": "https://dc.lft.to/lastmile_qr_scan"}, "type": "electric_scooter", "name": "4d851a2d1929eb7a671539109ae29ba2", "is_reserved": 0, "lon": -76.98888066666666, "is_disabled": 0, "fusion_lat": 0.0, "lat": 38.866607, "bike_id": "4d851a2d1929eb7a671539109ae29ba2", "fusion_lon": 0.0}, {"rental_uris": {"ios": "https://dc.lft.to/lastmile_qr_scan", "android": "https://dc.lft.to/lastmile_qr_scan"}, "type": "electric_scooter", "name": "6a0fbc0d66cfb490dddf579d57545d4d", "is_reserved": 0, "lon": -77.0455255, "is_disabled": 0, "fusion_lat": 0.0, "lat": 38.90971316666667, "bike_id": "6a0fbc0d66cfb490dddf579d57545d4d", "fusion_lon": 0.0}, {"rental_uris": {"ios": "https://dc.lft.to/lastmile_qr_scan", "android": "https://dc.lft.to/lastmile_qr_scan"}, "type": "electric_scooter", "name": "4f81d02ad7db90b0602e227c4355a99c", "is_reserved": 0, "lon": -77.0055315, "is_disabled": 0, "fusion_lat": 0.0, "lat": 38.875332666666665, "bike_id": "4f81d02ad7db90b0602e227c4355a99c", "fusion_lon": 0.0}, {"rental_uris": {"ios": "https://dc.lft.to/lastmile_qr_scan", "android": "https://dc.lft.to/lastmile_qr_scan"}, "type": "electric_bike", "name": "fb3bf429ff8b5c62b5911394c265fc27", "is_reserved": 0, "lon": -76.98351, "is_disabled": 0, "fusion_lat": 0.0, "lat": 38.862565333333336, "bike_id": "fb3bf429ff8b5c62b5911394c265fc27", "fusion_lon": 0.0}, {"rental_uris": {"ios": "https://dc.lft.to/lastmile_qr_scan", "android": "https://dc.lft.to/lastmile_qr_scan"}, "type": "electric_scooter", "name": "7d3d1a33451a42e1899b88fed469f093", "is_reserved": 0, "lon": -77.01805683333333, "is_disabled": 0, "fusion_lat": 0.0, "lat": 38.886294666666664, "bike_id": "7d3d1a33451a42e1899b88fed469f093", "fusion_lon": 0.0}, {"rental_uris": {"ios": "https://dc.lft.to/lastmile_qr_scan", "android": "https://dc.lft.to/lastmile_qr_scan"}, "type": "electric_scooter", "name": "61c044c03bd901939169167de17cc6f7", "is_reserved": 0, "lon": -77.02203833333333, "is_disabled": 0, "fusion_lat": 0.0, "lat": 38.91137233333333, "bike_id": "61c044c03bd901939169167de17cc6f7", "fusion_lon": 0.0}, {"rental_uris": {"ios": "https://dc.lft.to/lastmile_qr_scan", "android": "https://dc.lft.to/lastmile_qr_scan"}, "type": "electric_scooter", "name": "f9e99c996d374aea280340de0c493eda", "is_reserved": 0, "lon": -76.93293766666666, "is_disabled": 0, "fusion_lat": 0.0, "lat": 38.89689533333333, "bike_id": "f9e99c996d374aea280340de0c493eda", "fusion_lon": 0.0}, {"rental_uris": {"ios": "https://dc.lft.to/lastmile_qr_scan", "android": "https://dc.lft.to/lastmile_qr_scan"}, "type": "electric_scooter", "name": "5b50bc7c2287435a6bb933f82b3cf78c", "is_reserved": 0, "lon": -76.999596, "is_disabled": 0, "fusion_lat": 0.0, "lat": 38.8942325, "bike_id": "5b50bc7c2287435a6bb933f82b3cf78c", "fusion_lon": 0.0}, {"rental_uris": {"ios": "https://dc.lft.to/lastmile_qr_scan", "android": "https://dc.lft.to/lastmile_qr_scan"}, "type": "electric_scooter", "name": "033b6749dce14c48b9fca7f69b936430", "is_reserved": 0, "lon": -77.00583483333334, "is_disabled": 0, "fusion_lat": 0.0, "lat": 38.905687, "bike_id": "033b6749dce14c48b9fca7f69b936430", "fusion_lon": 0.0}, {"rental_uris": {"ios": "https://dc.lft.to/lastmile_qr_scan", "android": "https://dc.lft.to/lastmile_qr_scan"}, "type": "electric_scooter", "name": "e656afcd6c6d18106d4b39a2270f7766", "is_reserved": 0, "lon": -77.0176105, "is_disabled": 0, "fusion_lat": 0.0, "lat": 38.876847833333336, "bike_id": "e656afcd6c6d18106d4b39a2270f7766", "fusion_lon": 0.0}, {"rental_uris": {"ios": "https://dc.lft.to/lastmile_qr_scan", "android": "https://dc.lft.to/lastmile_qr_scan"}, "type": "electric_scooter", "name": "488d9a594e87e1e38affbd7dcf920b81", "is_reserved": 0, "lon": -76.9263485, "is_disabled": 0, "fusion_lat": 0.0, "lat": 38.901933666666665, "bike_id": "488d9a594e87e1e38affbd7dcf920b81", "fusion_lon": 0.0}, {"rental_uris": {"ios": "https://dc.lft.to/lastmile_qr_scan", "android": "https://dc.lft.to/lastmile_qr_scan"}, "type": "electric_bike", "name": "a17a8949058ce620f287e594b56ec7d2", "is_reserved": 0, "lon": -77.0020185, "is_disabled": 0, "fusion_lat": 0.0, "lat": 38.9415155, "bike_id": "a17a8949058ce620f287e594b56ec7d2", "fusion_lon": 0.0}, {"rental_uris": {"ios": "https://dc.lft.to/lastmile_qr_scan", "android": "https://dc.lft.to/lastmile_qr_scan"}, "type": "electric_scooter", "name": "66bae2a6cd8ea3f1096acda44d33fb2a", "is_reserved": 0, "lon": -77.021697, "is_disabled": 0, "fusion_lat": 0.0, "lat": 38.92998866666667, "bike_id": "66bae2a6cd8ea3f1096acda44d33fb2a", "fusion_lon": 0.0}, {"rental_uris": {"ios": "https://dc.lft.to/lastmile_qr_scan", "android": "https://dc.lft.to/lastmile_qr_scan"}, "type": "electric_scooter", "name": "af378ee7fc7d7c25b8cf5fce660bccbd", "is_reserved": 0, "lon": -77.04382833333334, "is_disabled": 0, "fusion_lat": 0.0, "lat": 38.934236, "bike_id": "af378ee7fc7d7c25b8cf5fce660bccbd", "fusion_lon": 0.0}, {"rental_uris": {"ios": "https://dc.lft.to/lastmile_qr_scan", "android": "https://dc.lft.to/lastmile_qr_scan"}, "type": "electric_scooter", "name": "b5ad078c5b4514c7ea2eb88322dffbe8", "is_reserved": 0, "lon": -77.041396, "is_disabled": 0, "fusion_lat": 0.0, "lat": 38.921721166666664, "bike_id": "b5ad078c5b4514c7ea2eb88322dffbe8", "fusion_lon": 0.0}, {"rental_uris": {"ios": "https://dc.lft.to/lastmile_qr_scan", "android": "https://dc.lft.to/lastmile_qr_scan"}, "type": "electric_scooter", "name": "c7bd1703973a776a66a9cfcfecbf077d", "is_reserved": 0, "lon": -77.03376333333334, "is_disabled": 0, "fusion_lat": 0.0, "lat": 38.89984, "bike_id": "c7bd1703973a776a66a9cfcfecbf077d", "fusion_lon": 0.0}, {"rental_uris": {"ios": "https://dc.lft.to/lastmile_qr_scan", "android": "https://dc.lft.to/lastmile_qr_scan"}, "type": "electric_scooter", "name": "423b6f86704743af7f56eba38741ce69", "is_reserved": 0, "lon": -77.03492233333333, "is_disabled": 0, "fusion_lat": 0.0, "lat": 38.931133333333335, "bike_id": "423b6f86704743af7f56eba38741ce69", "fusion_lon": 0.0}, {"rental_uris": {"ios": "https://dc.lft.to/lastmile_qr_scan", "android": "https://dc.lft.to/lastmile_qr_scan"}, "type": "electric_scooter", "name": "00f9816d089f2269b544470d20241aba", "is_reserved": 0, "lon": -77.02036133333333, "is_disabled": 0, "fusion_lat": 0.0, "lat": 38.893046166666664, "bike_id": "00f9816d089f2269b544470d20241aba", "fusion_lon": 0.0}, {"rental_uris": {"ios": "https://dc.lft.to/lastmile_qr_scan", "android": "https://dc.lft.to/lastmile_qr_scan"}, "type": "electric_scooter", "name": "db120bcad236968382dcc2cd7b421edc", "is_reserved": 0, "lon": -77.0303755, "is_disabled": 0, "fusion_lat": 0.0, "lat": 38.922404, "bike_id": "db120bcad236968382dcc2cd7b421edc", "fusion_lon": 0.0}, {"rental_uris": {"ios": "https://dc.lft.to/lastmile_qr_scan", "android": "https://dc.lft.to/lastmile_qr_scan"}, "type": "electric_scooter", "name": "c68758a8b498802654283f4638284f27", "is_reserved": 0, "lon": -76.9833135, "is_disabled": 0, "fusion_lat": 0.0, "lat": 38.900943, "bike_id": "c68758a8b498802654283f4638284f27", "fusion_lon": 0.0}, {"rental_uris": {"ios": "https://dc.lft.to/lastmile_qr_scan", "android": "https://dc.lft.to/lastmile_qr_scan"}, "type": "electric_scooter", "name": "f29997523f6a187042ef502df628f755", "is_reserved": 0, "lon": -77.022898, "is_disabled": 0, "fusion_lat": 0.0, "lat": 38.91640833333334, "bike_id": "f29997523f6a187042ef502df628f755", "fusion_lon": 0.0}, {"rental_uris": {"ios": "https://dc.lft.to/lastmile_qr_scan", "android": "https://dc.lft.to/lastmile_qr_scan"}, "type": "electric_scooter", "name": "1b763a9bc0ab2a19c75b819a54e3b0ef", "is_reserved": 0, "lon": -77.03770833333333, "is_disabled": 0, "fusion_lat": 0.0, "lat": 38.9067405, "bike_id": "1b763a9bc0ab2a19c75b819a54e3b0ef", "fusion_lon": 0.0}, {"rental_uris": {"ios": "https://dc.lft.to/lastmile_qr_scan", "android": "https://dc.lft.to/lastmile_qr_scan"}, "type": "electric_scooter", "name": "ff171453a7a34a34ec94ff14fb9f43cb", "is_reserved": 0, "lon": -77.03263416666667, "is_disabled": 0, "fusion_lat": 0.0, "lat": 38.939784333333336, "bike_id": "ff171453a7a34a34ec94ff14fb9f43cb", "fusion_lon": 0.0}, {"rental_uris": {"ios": "https://dc.lft.to/lastmile_qr_scan", "android": "https://dc.lft.to/lastmile_qr_scan"}, "type": "electric_scooter", "name": "a7dbe9f953baf2fbf30aeeeeda0087a4", "is_reserved": 0, "lon": -77.01772066666666, "is_disabled": 0, "fusion_lat": 0.0, "lat": 38.90502083333333, "bike_id": "a7dbe9f953baf2fbf30aeeeeda0087a4", "fusion_lon": 0.0}, {"rental_uris": {"ios": "https://dc.lft.to/lastmile_qr_scan", "android": "https://dc.lft.to/lastmile_qr_scan"}, "type": "electric_scooter", "name": "f1e2ce822d96b4d7776153a807fa9ff4", "is_reserved": 0, "lon": -76.951989, "is_disabled": 0, "fusion_lat": 0.0, "lat": 38.90513216666667, "bike_id": "f1e2ce822d96b4d7776153a807fa9ff4", "fusion_lon": 0.0}, {"rental_uris": {"ios": "https://dc.lft.to/lastmile_qr_scan", "android": "https://dc.lft.to/lastmile_qr_scan"}, "type": "electric_scooter", "name": "6e324b3fbae85e269148b3021a9083ec", "is_reserved": 0, "lon": -77.034538, "is_disabled": 0, "fusion_lat": 0.0, "lat": 38.90735816666667, "bike_id": "6e324b3fbae85e269148b3021a9083ec", "fusion_lon": 0.0}, {"rental_uris": {"ios": "https://dc.lft.to/lastmile_qr_scan", "android": "https://dc.lft.to/lastmile_qr_scan"}, "type": "electric_bike", "name": "f27d2aeb4368cad04ae71f2895f3e8ee", "is_reserved": 0, "lon": -77.00386633333333, "is_disabled": 0, "fusion_lat": 0.0, "lat": 38.83612766666667, "bike_id": "f27d2aeb4368cad04ae71f2895f3e8ee", "fusion_lon": 0.0}, {"rental_uris": {"ios": "https://dc.lft.to/lastmile_qr_scan", "android": "https://dc.lft.to/lastmile_qr_scan"}, "type": "electric_scooter", "name": "01d6187c1745b68f2caf18758dd4891f", "is_reserved": 0, "lon": -77.01763066666666, "is_disabled": 0, "fusion_lat": 0.0, "lat": 38.92112083333333, "bike_id": "01d6187c1745b68f2caf18758dd4891f", "fusion_lon": 0.0}, {"rental_uris": {"ios": "https://dc.lft.to/lastmile_qr_scan", "android": "https://dc.lft.to/lastmile_qr_scan"},