{"data": {"bikes": [{"fusion_lat": 0.0, "name": "35f365094b23019ea0b6af425f83cd03", "is_disabled": 0, "rental_uris": {"android": "https://dc.lft.to/lastmile_qr_scan", "ios": "https://dc.lft.to/lastmile_qr_scan"}, "fusion_lon": 0.0, "lat": 38.9328945, "bike_id": "35f365094b23019ea0b6af425f83cd03", "type": "electric_scooter", "is_reserved": 0, "lon": -77.039912}, {"fusion_lat": 0.0, "name": "d103f90d5e3875d8ce3475f77ce766eb", "is_disabled": 0, "rental_uris": {"android": "https://dc.lft.to/lastmile_qr_scan", "ios": "https://dc.lft.to/lastmile_qr_scan"}, "fusion_lon": 0.0, "lat": 38.9235125, "bike_id": "d103f90d5e3875d8ce3475f77ce766eb", "type": "electric_scooter", "is_reserved": 0, "lon": -77.034664}, {"fusion_lat": 0.0, "name": "072f070d2f4892b90402febc38dff9b1", "is_disabled": 0, "rental_uris": {"android": "https://dc.lft.to/lastmile_qr_scan", "ios": "https://dc.lft.to/lastmile_qr_scan"}, "fusion_lon": 0.0, "lat": 38.88946, "bike_id": "072f070d2f4892b90402febc38dff9b1", "type": "electric_scooter", "is_reserved": 0, "lon": -76.99159433333334}, {"fusion_lat": 0.0, "name": "068097aa4b34e05cde7fa88956c81216", "is_disabled": 0, "rental_uris": {"android": "https://dc.lft.to/lastmile_qr_scan", "ios": "https://dc.lft.to/lastmile_qr_scan"}, "fusion_lon": 0.0, "lat": 38.92789033333333, "bike_id": "068097aa4b34e05cde7fa88956c81216", "type": "electric_scooter", "is_reserved": 0, "lon": -77.0315175}, {"fusion_lat": 0.0, "name": "d39a4b4999dcdde2c8f1679be1b8e614", "is_disabled": 0, "rental_uris": {"android": "https://dc.lft.to/lastmile_qr_scan", "ios": "https://dc.lft.to/lastmile_qr_scan"}, "fusion_lon": 0.0, "lat": 38.92786233333333, "bike_id": "d39a4b4999dcdde2c8f1679be1b8e614", "type": "electric_scooter", "is_reserved": 0, "lon": -77.02582183333334}, {"fusion_lat": 0.0, "name": "6384aeea130dd5d534bc2323e26728a9", "is_disabled": 0, "rental_uris": {"android": "https://dc.lft.to/lastmile_qr_scan", "ios": "https://dc.lft.to/lastmile_qr_scan"}, "fusion_lon": 0.0, "lat": 38.928677666666665, "bike_id": "6384aeea130dd5d534bc2323e26728a9", "type": "electric_scooter", "is_reserved": 0, "lon": -77.05452716666667}, {"fusion_lat": 0.0, "name": "f6f3496cb070a50297ceec59eca8368b", "is_disabled": 0, "rental_uris": {"android": "https://dc.lft.to/lastmile_qr_scan", "ios": "https://dc.lft.to/lastmile_qr_scan"}, "fusion_lon": 0.0, "lat": 38.90573833333333, "bike_id": "f6f3496cb070a50297ceec59eca8368b", "type": "electric_scooter", "is_reserved": 0, "lon": -77.026547}, {"fusion_lat": 0.0, "name": "dd6f9b97e2a68ef94be6970bed98d376", "is_disabled": 0, "rental_uris": {"android": "https://dc.lft.to/lastmile_qr_scan", "ios": "https://dc.lft.to/lastmile_qr_scan"}, "fusion_lon": 0.0, "lat": 38.904935, "bike_id": "dd6f9b97e2a68ef94be6970bed98d376", "type": "electric_scooter", "is_reserved": 0, "lon": -77.06104783333333}, {"fusion_lat": 0.0, "name": "20e9c43fecf73e1ef67dae8af3fc538e", "is_disabled": 0, "rental_uris": {"android": "https://dc.lft.to/lastmile_qr_scan", "ios": "https://dc.lft.to/lastmile_qr_scan"}, "fusion_lon": 0.0, "lat": 38.927786833333336, "bike_id": "20e9c43fecf73e1ef67dae8af3fc538e", "type": "electric_scooter", "is_reserved": 0, "lon": -77.02704333333334}, {"fusion_lat": 0.0, "name": "d8caac8eaa2603e92f9e11422ae120ce", "is_disabled": 0, "rental_uris": {"android": "https://dc.lft.to/lastmile_qr_scan", "ios": "https://dc.lft.to/lastmile_qr_scan"}, "fusion_lon": 0.0, "lat": 38.93873133333334, "bike_id": "d8caac8eaa2603e92f9e11422ae120ce", "type": "electric_scooter", "is_reserved": 0, "lon": -77.02918716666667}, {"fusion_lat": 0.0, "name": "a1c93f9b927e99b090306a6c80022037", "is_disabled": 0, "rental_uris": {"android": "https://dc.lft.to/lastmile_qr_scan", "ios": "https://dc.lft.to/lastmile_qr_scan"}, "fusion_lon": 0.0, "lat": 38.941640166666666, "bike_id": "a1c93f9b927e99b090306a6c80022037", "type": "electric_scooter", "is_reserved": 0, "lon": -77.02487816666667}, {"fusion_lat": 0.0, "name": "b0b185310c292d87c245a8689a416078", "is_disabled": 0, "rental_uris": {"android": "https://dc.lft.to/lastmile_qr_scan", "ios": "https://dc.lft.to/lastmile_qr_scan"}, "fusion_lon": 0.0, "lat": 38.92906833333333, "bike_id": "b0b185310c292d87c245a8689a416078", "type": "electric_scooter", "is_reserved": 0, "lon": -77.0326275}, {"fusion_lat": 0.0, "name": "cad1ea3a472177efa2efa31e60b1d0fa", "is_disabled": 0, "rental_uris": {"android": "https://dc.lft.to/lastmile_qr_scan", "ios": "https://dc.lft.to/lastmile_qr_scan"}, "fusion_lon": 0.0, "lat": 38.93108733333333, "bike_id": "cad1ea3a472177efa2efa31e60b1d0fa", "type": "electric_scooter", "is_reserved": 0, "lon": -77.02141616666667}, {"fusion_lat": 0.0, "name": "275a181808ee65b1096d55a7fb6eab5c", "is_disabled": 0, "rental_uris": {"android": "https://dc.lft.to/lastmile_qr_scan", "ios": "https://dc.lft.to/lastmile_qr_scan"}, "fusion_lon": 0.0, "lat": 38.91767266666667, "bike_id": "275a181808ee65b1096d55a7fb6eab5c", "type": "electric_scooter", "is_reserved": 0, "lon": -77.02281066666667}, {"fusion_lat": 0.0, "name": "71b353d7992b0af84bb676f543f4b188", "is_disabled": 0, "rental_uris": {"android": "https://dc.lft.to/lastmile_qr_scan", "ios": "https://dc.lft.to/lastmile_qr_scan"}, "fusion_lon": 0.0, "lat": 38.8636675, "bike_id": "71b353d7992b0af84bb676f543f4b188", "type": "electric_bike", "is_reserved": 0, "lon": -76.970058}, {"fusion_lat": 0.0, "name": "792c0df30ed550782653998365710d52", "is_disabled": 0, "rental_uris": {"android": "https://dc.lft.to/lastmile_qr_scan", "ios": "https://dc.lft.to/lastmile_qr_scan"}, "fusion_lon": 0.0, "lat": 38.893991666666665, "bike_id": "792c0df30ed550782653998365710d52", "type": "electric_scooter", "is_reserved": 0, "lon": -76.99486433333334}, {"fusion_lat": 0.0, "name": "f6586078be84b0bad7e14b5193015dda", "is_disabled": 0, "rental_uris": {"android": "https://dc.lft.to/lastmile_qr_scan", "ios": "https://dc.lft.to/lastmile_qr_scan"}, "fusion_lon": 0.0, "lat": 38.90371833333333, "bike_id": "f6586078be84b0bad7e14b5193015dda", "type": "electric_scooter", "is_reserved": 0, "lon": -77.05159266666666}, {"fusion_lat": 0.0, "name": "27a4c24369cd0c38227c1b00965cb3d4", "is_disabled": 0, "rental_uris": {"android": "https://dc.lft.to/lastmile_qr_scan", "ios": "https://dc.lft.to/lastmile_qr_scan"}, "fusion_lon": 0.0, "lat": 38.88732, "bike_id": "27a4c24369cd0c38227c1b00965cb3d4", "type": "electric_scooter", "is_reserved": 0, "lon": -77.03169}, {"fusion_lat": 0.0, "name": "9a8de895a54761e27785bfb100312bf6", "is_disabled": 0, "rental_uris": {"android": "https://dc.lft.to/lastmile_qr_scan", "ios": "https://dc.lft.to/lastmile_qr_scan"}, "fusion_lon": 0.0, "lat": 38.9177345, "bike_id": "9a8de895a54761e27785bfb100312bf6", "type": "electric_scooter", "is_reserved": 0, "lon": -77.01209783333333}, {"fusion_lat": 0.0, "name": "58df954c7df40b25393f4b4df5a3d219", "is_disabled": 0, "rental_uris": {"android": "https://dc.lft.to/lastmile_qr_scan", "ios": "https://dc.lft.to/lastmile_qr_scan"}, "fusion_lon": 0.0, "lat": 38.92141866666667, "bike_id": "58df954c7df40b25393f4b4df5a3d219", "type": "electric_scooter", "is_reserved": 0, "lon": -77.0434235}, {"fusion_lat": 0.0, "name": "d949a0ef81286abeada6e85f64058ae8", "is_disabled": 0, "rental_uris": {"android": "https://dc.lft.to/lastmile_qr_scan", "ios": "https://dc.lft.to/lastmile_qr_scan"}, "fusion_lon": 0.0, "lat": 38.92216166666667, "bike_id": "d949a0ef81286abeada6e85f64058ae8", "type": "electric_bike", "is_reserved": 0, "lon": -77.20136783333334}, {"fusion_lat": 0.0, "name": "d37eb5744a220e32f0401341e730ac76", "is_disabled": 0, "rental_uris": {"android": "https://dc.lft.to/lastmile_qr_scan", "ios": "https://dc.lft.to/lastmile_qr_scan"}, "fusion_lon": 0.0, "lat": 38.928233, "bike_id": "d37eb5744a220e32f0401341e730ac76", "type": "electric_scooter", "is_reserved": 0, "lon": -77.05432083333334}, {"fusion_lat": 0.0, "name": "7b3444efcb3446d73f5e7c923f095dec", "is_disabled": 0, "rental_uris": {"android": "https://dc.lft.to/lastmile_qr_scan", "ios": "https://dc.lft.to/lastmile_qr_scan"}, "fusion_lon": 0.0, "lat": 38.941955, "bike_id": "7b3444efcb3446d73f5e7c923f095dec", "type": "electric_scooter", "is_reserved": 0, "lon": -77.02591016666666}, {"fusion_lat": 0.0, "name": "1d3b9ea21aafceb6baaa6a46ede1811b", "is_disabled": 0, "rental_uris": {"android": "https://dc.lft.to/lastmile_qr_scan", "ios": "https://dc.lft.to/lastmile_qr_scan"}, "fusion_lon": 0.0, "lat": 38.964060833333335, "bike_id": "1d3b9ea21aafceb6baaa6a46ede1811b", "type": "electric_scooter", "is_reserved": 0, "lon": -77.07528733333334}, {"fusion_lat": 0.0, "name": "0899647257abaa6edbc6e0af0e11b713", "is_disabled": 0, "rental_uris": {"android": "https://dc.lft.to/lastmile_qr_scan", "ios": "https://dc.lft.to/lastmile_qr_scan"}, "fusion_lon": 0.0, "lat": 38.938412666666665, "bike_id": "0899647257abaa6edbc6e0af0e11b713", "type": "electric_scooter", "is_reserved": 0, "lon": -77.03386633333334}, {"fusion_lat": 0.0, "name": "e5d930493ef950328ab49b1043268f83", "is_disabled": 0, "rental_uris": {"android": "https://dc.lft.to/lastmile_qr_scan", "ios": "https://dc.lft.to/lastmile_qr_scan"}, "fusion_lon": 0.0, "lat": 38.911093, "bike_id": "e5d930493ef950328ab49b1043268f83", "type": "electric_scooter", "is_reserved": 0, "lon": -77.03831966666667}, {"fusion_lat": 0.0, "name": "3c2e5b13d1256ccc000c6c4911a1a6a8", "is_disabled": 0, "rental_uris": {"android": "https://dc.lft.to/lastmile_qr_scan", "ios": "https://dc.lft.to/lastmile_qr_scan"}, "fusion_lon": 0.0, "lat": 38.905322, "bike_id": "3c2e5b13d1256ccc000c6c4911a1a6a8", "type": "electric_scooter", "is_reserved": 0, "lon": -77.02187483333333}, {"fusion_lat": 0.0, "name": "7a5dcf7022a99e938a99278f591e504d", "is_disabled": 0, "rental_uris": {"android": "https://dc.lft.to/lastmile_qr_scan", "ios": "https://dc.lft.to/lastmile_qr_scan"}, "fusion_lon": 0.0, "lat": 38.902310666666665, "bike_id": "7a5dcf7022a99e938a99278f591e504d", "type": "electric_scooter", "is_reserved": 0, "lon": -77.06043533333333}, {"fusion_lat": 0.0, "name": "e45f98918599ee94dd18b062d0d85811", "is_disabled": 0, "rental_uris": {"android": "https://dc.lft.to/lastmile_qr_scan", "ios": "https://dc.lft.to/lastmile_qr_scan"}, "fusion_lon": 0.0, "lat": 38.92822183333333, "bike_id": "e45f98918599ee94dd18b062d0d85811", "type": "electric_scooter", "is_reserved": 0, "lon": -77.02253716666667}, {"fusion_lat": 0.0, "name": "1bf72a3175280bcefc8ee85b84a8b117", "is_disabled": 0, "rental_uris": {"android": "https://dc.lft.to/lastmile_qr_scan", "ios": "https://dc.lft.to/lastmile_qr_scan"}, "fusion_lon": 0.0, "lat": 38.907303666666664, "bike_id": "1bf72a3175280bcefc8ee85b84a8b117", "type": "electric_scooter", "is_reserved": 0, "lon": -77.007043}, {"fusion_lat": 0.0, "name": "b19176af7e48bef8f7b2567c93135faf", "is_disabled": 0, "rental_uris": {"android": "https://dc.lft.to/lastmile_qr_scan", "ios": "https://dc.lft.to/lastmile_qr_scan"}, "fusion_lon": 0.0, "lat": 38.926148, "bike_id": "b19176af7e48bef8f7b2567c93135faf", "type": "electric_scooter", "is_reserved": 0, "lon": -77.039196}, {"fusion_lat": 0.0, "name": "5c50efbc8f4c1762185e5bee5b403a4d", "is_disabled": 0, "rental_uris": {"android": "https://dc.lft.to/lastmile_qr_scan", "ios": "https://dc.lft.to/lastmile_qr_scan"}, "fusion_lon": 0.0, "lat": 38.92281233333333, "bike_id": "5c50efbc8f4c1762185e5bee5b403a4d", "type": "electric_scooter", "is_reserved": 0, "lon": -76.99779666666667}, {"fusion_lat": 0.0, "name": "1d0727be08b961b10bd585b81d0670cd", "is_disabled": 0, "rental_uris": {"android": "https://dc.lft.to/lastmile_qr_scan", "ios": "https://dc.lft.to/lastmile_qr_scan"}, "fusion_lon": 0.0, "lat": 38.90152283333333, "bike_id": "1d0727be08b961b10bd585b81d0670cd", "type": "electric_scooter", "is_reserved": 0, "lon": -76.974053}, {"fusion_lat": 0.0, "name": "b46108c3e5e392b2c89ecb5f55c8988f", "is_disabled": 0, "rental_uris": {"android": "https://dc.lft.to/lastmile_qr_scan", "ios": "https://dc.lft.to/lastmile_qr_scan"}, "fusion_lon": 0.0, "lat": 38.925658, "bike_id": "b46108c3e5e392b2c89ecb5f55c8988f", "type": "electric_scooter", "is_reserved": 0, "lon": -77.03772416666666}, {"fusion_lat": 0.0, "name": "e0ebcb20bcebde9300b306de9e4d3458", "is_disabled": 0, "rental_uris": {"android": "https://dc.lft.to/lastmile_qr_scan", "ios": "https://dc.lft.to/lastmile_qr_scan"}, "fusion_lon": 0.0, "lat": 38.915514333333334, "bike_id": "e0ebcb20bcebde9300b306de9e4d3458", "type": "electric_scooter", "is_reserved": 0, "lon": -77.0322485}, {"fusion_lat": 0.0, "name": "a1aa12a9a25dfca243ad6ce261c0c1f2", "is_disabled": 0, "rental_uris": {"android": "https://dc.lft.to/lastmile_qr_scan", "ios": "https://dc.lft.to/lastmile_qr_scan"}, "fusion_lon": 0.0, "lat": 38.945235333333336, "bike_id": "a1aa12a9a25dfca243ad6ce261c0c1f2", "type": "electric_scooter", "is_reserved": 0, "lon": -77.02270883333334}, {"fusion_lat": 0.0, "name": "ccfe8ab19b6380ae36a404fb33f9ee06", "is_disabled": 0, "rental_uris": {"android": "https://dc.lft.to/lastmile_qr_scan", "ios": "https://dc.lft.to/lastmile_qr_scan"}, "fusion_lon": 0.0, "lat": 38.91252633333333, "bike_id": "ccfe8ab19b6380ae36a404fb33f9ee06", "type": "electric_scooter", "is_reserved": 0, "lon": -77.00153816666666}, {"fusion_lat": 0.0, "name": "75338f658bb412a796ecbaad8178ccb2", "is_disabled": 0, "rental_uris": {"android": "https://dc.lft.to/lastmile_qr_scan", "ios": "https://dc.lft.to/lastmile_qr_scan"}, "fusion_lon": 0.0, "lat": 38.87175533333333, "bike_id": "75338f658bb412a796ecbaad8178ccb2", "type": "electric_scooter", "is_reserved": 0, "lon": -77.00615216666667}, {"fusion_lat": 0.0, "name": "ac4d67cf08277320e91a15c6fe207b36", "is_disabled": 0, "rental_uris": {"android": "https://dc.lft.to/lastmile_qr_scan", "ios": "https://dc.lft.to/lastmile_qr_scan"}, "fusion_lon": 0.0, "lat": 38.898741666666666, "bike_id": "ac4d67cf08277320e91a15c6fe207b36", "type": "electric_scooter", "is_reserved": 0, "lon": -76.931837}, {"fusion_lat": 0.0, "name": "2ba70c31e12185771760c8068982e54c", "is_disabled": 0, "rental_uris": {"android": "https://dc.lft.to/lastmile_qr_scan", "ios": "https://dc.lft.to/lastmile_qr_scan"}, "fusion_lon": 0.0, "lat": 38.90536766666666, "bike_id": "2ba70c31e12185771760c8068982e54c", "type": "electric_scooter", "is_reserved": 0, "lon": -77.00680333333334}, {"fusion_lat": 0.0, "name": "cef3442c31a5fb078d083761f05bc556", "is_disabled": 0, "rental_uris": {"android": "https://dc.lft.to/lastmile_qr_scan", "ios": "https://dc.lft.to/lastmile_qr_scan"}, "fusion_lon": 0.0, "lat": 38.887355, "bike_id": "cef3442c31a5fb078d083761f05bc556", "type": "electric_scooter", "is_reserved": 0, "lon": -77.01527083333333}, {"fusion_lat": 0.0, "name": "080a7bea5f77f32d64eb549abfc3f197", "is_disabled": 0, "rental_uris": {"android": "https://dc.lft.to/lastmile_qr_scan", "ios": "https://dc.lft.to/lastmile_qr_scan"}, "fusion_lon": 0.0, "lat": 38.883290333333335, "bike_id": "080a7bea5f77f32d64eb549abfc3f197", "type": "electric_scooter", "is_reserved": 0, "lon": -77.01735016666666}, {"fusion_lat": 0.0, "name": "ffc3bd2320e264e0e52df513f13d1d44", "is_disabled": 0, "rental_uris": {"android": "https://dc.lft.to/lastmile_qr_scan", "ios": "https://dc.lft.to/lastmile_qr_scan"}, "fusion_lon": 0.0, "lat": 38.86243283333334, "bike_id": "ffc3bd2320e264e0e52df513f13d1d44", "type": "electric_scooter", "is_reserved": 0, "lon": -76.994957}, {"fusion_lat": 0.0, "name": "67e581c7e4dc85d2b5bfb67f213566d1", "is_disabled": 0, "rental_uris": {"android": "https://dc.lft.to/lastmile_qr_scan", "ios": "https://dc.lft.to/lastmile_qr_scan"}, "fusion_lon": 0.0, "lat": 38.935211833333334, "bike_id": "67e581c7e4dc85d2b5bfb67f213566d1", "type": "electric_scooter", "is_reserved": 0, "lon": -77.07260566666666}, {"fusion_lat": 0.0, "name": "20e98f57dde6cf0a937abeaee9342276", "is_disabled": 0, "rental_uris": {"android": "https://dc.lft.to/lastmile_qr_scan", "ios": "https://dc.lft.to/lastmile_qr_scan"}, "fusion_lon": 0.0, "lat": 39.052547, "bike_id": "20e98f57dde6cf0a937abeaee9342276", "type": "electric_bike", "is_reserved": 0, "lon": -77.08064616666667}, {"fusion_lat": 0.0, "name": "00dd55c1c546017aa53383527b0af990", "is_disabled": 0, "rental_uris": {"android": "https://dc.lft.to/lastmile_qr_scan", "ios": "https://dc.lft.to/lastmile_qr_scan"}, "fusion_lon": 0.0, "lat": 38.939881666666665, "bike_id": "00dd55c1c546017aa53383527b0af990", "type": "electric_bike", "is_reserved": 0, "lon": -77.03572383333334}, {"fusion_lat": 0.0, "name": "226f7c6904d5a1f679e4c8e4a108f466", "is_disabled": 0, "rental_uris": {"android": "https://dc.lft.to/lastmile_qr_scan", "ios": "https://dc.lft.to/lastmile_qr_scan"}, "fusion_lon": 0.0, "lat": 38.8975835, "bike_id": "226f7c6904d5a1f679e4c8e4a108f466", "type": "electric_scooter", "is_reserved": 0, "lon": -77.00899866666667}, {"fusion_lat": 0.0, "name": "3454ca9ebeb343cebc39340d8faad624", "is_disabled": 0, "rental_uris": {"android": "https://dc.lft.to/lastmile_qr_scan", "ios": "https://dc.lft.to/lastmile_qr_scan"}, "fusion_lon": 0.0, "lat": 38.896199, "bike_id": "3454ca9ebeb343cebc39340d8faad624", "type": "electric_scooter", "is_reserved": 0, "lon": -77.00921116666666}, {"fusion_lat": 0.0, "name": "51d95be0e52c4fe03f91f1a69dd93da2", "is_disabled": 0, "rental_uris": {"android": "https://dc.lft.to/lastmile_qr_scan", "ios": "https://dc.lft.to/lastmile_qr_scan"}, "fusion_lon": 0.0, "lat": 38.9273815, "bike_id": "51d95be0e52c4fe03f91f1a69dd93da2", "type": "electric_scooter", "is_reserved": 0, "lon": -77.02425916666667}, {"fusion_lat": 0.0, "name": "ad54beb67afbf0bcdca782baa2d652c2", "is_disabled": 0, "rental_uris": {"android": "https://dc.lft.to/lastmile_qr_scan", "ios": "https://dc.lft.to/lastmile_qr_scan"}, "fusion_lon": 0.0, "lat": 38.88330466666667, "bike_id": "ad54beb67afbf0bcdca782baa2d652c2", "type": "electric_scooter", "is_reserved": 0, "lon": -77.01766266666667}, {"fusion_lat": 0.0, "name": "7484f82a321fcfba1f5fb7136d4081f9", "is_disabled": 0, "rental_uris": {"android": "https://dc.lft.to/lastmile_qr_scan", "ios": "https://dc.lft.to/lastmile_qr_scan"}, "fusion_lon": 0.0, "lat": 38.912983833333335, "bike_id": "7484f82a321fcfba1f5fb7136d4081f9", "type": "electric_scooter", "is_reserved": 0, "lon": -77.0487295}, {"fusion_lat": 0.0, "name": "b53a2ea1fc5e8231d7beb4ca54a3b825", "is_disabled": 0, "rental_uris": {"android": "https://dc.lft.to/lastmile_qr_scan", "ios": "https://dc.lft.to/lastmile_qr_scan"}, "fusion_lon": 0.0, "lat": 38.915714, "bike_id": "b53a2ea1fc5e8231d7beb4ca54a3b825", "type": "electric_scooter", "is_reserved": 0, "lon": -77.03850616666666}, {"fusion_lat": 0.0, "name": "8790a2d7afcca01124c54ba44cdfcfd2", "is_disabled": 0, "rental_uris": {"android": "https://dc.lft.to/lastmile_qr_scan", "ios": "https://dc.lft.to/lastmile_qr_scan"}, "fusion_lon": 0.0, "lat": 38.91953, "bike_id": "8790a2d7afcca01124c54ba44cdfcfd2", "type": "electric_scooter", "is_reserved": 0, "lon": -77.0709465}, {"fusion_lat": 0.0, "name": "2102f8907b9feb45f7cbd0fb7c890df6", "is_disabled": 0, "rental_uris": {"android": "https://dc.lft.to/lastmile_qr_scan", "ios": "https://dc.lft.to/lastmile_qr_scan"}, "fusion_lon": 0.0, "lat": 38.9359325, "bike_id": "2102f8907b9feb45f7cbd0fb7c890df6", "type": "electric_scooter", "is_reserved": 0, "lon": -77.0228115}, {"fusion_lat": 0.0, "name": "322717483ef935e09d715bc8058bd75a", "is_disabled": 0, "rental_uris": {"android": "https://dc.lft.to/lastmile_qr_scan", "ios": "https://dc.lft.to/lastmile_qr_scan"}, "fusion_lon": 0.0, "lat": 38.86160916666667, "bike_id": "322717483ef935e09d715bc8058bd75a", "type": "electric_scooter", "is_reserved": 0, "lon": -76.98364533333333}, {"fusion_lat": 0.0, "name": "6f9ffabf8219163aa423c34b9e135deb", "is_disabled": 0, "rental_uris": {"android": "https://dc.lft.to/lastmile_qr_scan", "ios": "https://dc.lft.to/lastmile_qr_scan"}, "fusion_lon": 0.0, "lat": 38.9200105, "bike_id": "6f9ffabf8219163aa423c34b9e135deb", "type": "electric_scooter", "is_reserved": 0, "lon": -77.03134433333334}, {"fusion_lat": 0.0, "name": "aaa64af827ff351f209e26e6566d2eac", "is_disabled": 0, "rental_uris": {"android": "https://dc.lft.to/lastmile_qr_scan", "ios": "https://dc.lft.to/lastmile_qr_scan"}, "fusion_lon": 0.0, "lat": 38.94227633333333, "bike_id": "aaa64af827ff351f209e26e6566d2eac", "type": "electric_bike", "is_reserved": 0, "lon": -77.013842}, {"fusion_lat": 0.0, "name": "8d3e7dcb41419fa2c59bbdb2f754b836", "is_disabled": 0, "rental_uris": {"android": "https://dc.lft.to/lastmile_qr_scan", "ios": "https://dc.lft.to/lastmile_qr_scan"}, "fusion_lon": 0.0, "lat": 38.892852833333336, "bike_id": "8d3e7dcb41419fa2c59bbdb2f754b836", "type": "electric_scooter", "is_reserved": 0, "lon": -76.98307066666666}, {"fusion_lat": 0.0, "name": "3ae2f2f190154fdc6aecbd8fea474119", "is_disabled": 0, "rental_uris": {"android": "https://dc.lft.to/lastmile_qr_scan", "ios": "https://dc.lft.to/lastmile_qr_scan"}, "fusion_lon": 0.0, "lat": 38.92781683333333, "bike_id": "3ae2f2f190154fdc6aecbd8fea474119", "type": "electric_scooter", "is_reserved": 0, "lon": -77.031982}, {"fusion_lat": 0.0, "name": "a14100292468b3a52bcba1d2822bf85f", "is_disabled": 0, "rental_uris": {"android": "https://dc.lft.to/lastmile_qr_scan", "ios": "https://dc.lft.to/lastmile_qr_scan"}, "fusion_lon": 0.0, "lat": 38.925014, "bike_id": "a14100292468b3a52bcba1d2822bf85f", "type": "electric_scooter", "is_reserved": 0, "lon": -77.0214125}, {"fusion_lat": 0.0, "name": "2be2e5aec8b85a231c821b7875653860", "is_disabled": 0, "rental_uris": {"android": "https://dc.lft.to/lastmile_qr_scan", "ios": "https://dc.lft.to/lastmile_qr_scan"}, "fusion_lon": 0.0, "lat": 38.920482166666666, "bike_id": "2be2e5aec8b85a231c821b7875653860", "type": "electric_scooter", "is_reserved": 0, "lon": -77.00200716666667}, {"fusion_lat": 0.0, "name": "e95488e0ab3dd5072be0ef583af40695", "is_disabled": 0, "rental_uris": {"android": "https://dc.lft.to/lastmile_qr_scan", "ios": "https://dc.lft.to/lastmile_qr_scan"}, "fusion_lon": 0.0, "lat": 38.91413766666667, "bike_id": "e95488e0ab3dd5072be0ef583af40695", "type": "electric_scooter", "is_reserved": 0, "lon": -77.02207766666666}, {"fusion_lat": 0.0, "name": "13d8a3ddf4579be243dfc92e83ff34fc", "is_disabled": 0, "rental_uris": {"android": "https://dc.lft.to/lastmile_qr_scan", "ios": "https://dc.lft.to/lastmile_qr_scan"}, "fusion_lon": 0.0, "lat": 38.918330833333336, "bike_id": "13d8a3ddf4579be243dfc92e83ff34fc", "type": "electric_scooter", "is_reserved": 0, "lon": -77.0350925}, {"fusion_lat": 0.0, "name": "5a618660fcf2f35da0b468827d557f63", "is_disabled": 0, "rental_uris": {"android": "https://dc.lft.to/lastmile_qr_scan", "ios": "https://dc.lft.to/lastmile_qr_scan"}, "fusion_lon": 0.0, "lat": 38.90826166666667, "bike_id": "5a618660fcf2f35da0b468827d557f63", "type": "electric_scooter", "is_reserved": 0, "lon": -76.98263483333334}, {"fusion_lat": 0.0, "name": "adea8fea5859a3eda0394ae4e78dc22d", "is_disabled": 0, "rental_uris": {"android": "https://dc.lft.to/lastmile_qr_scan", "ios": "https://dc.lft.to/lastmile_qr_scan"}, "fusion_lon": 0.0, "lat": 38.91758683333333, "bike_id": "adea8fea5859a3eda0394ae4e78dc22d", "type": "electric_scooter", "is_reserved": 0, "lon": -77.03640916666667}, {"fusion_lat": 0.0, "name": "56b4b6eaedb7b94f279972a2fad21aaa", "is_disabled": 0, "rental_uris": {"android": "https://dc.lft.to/lastmile_qr_scan", "ios": "https://dc.lft.to/lastmile_qr_scan"}, "fusion_lon": 0.0, "lat": 38.89619533333333, "bike_id": "56b4b6eaedb7b94f279972a2fad21aaa", "type": "electric_scooter", "is_reserved": 0, "lon": -77.032409}, {"fusion_lat": 0.0, "name": "0542a30a63f6eede73009254a43b2de4", "is_disabled": 0, "rental_uris": {"android": "https://dc.lft.to/lastmile_qr_scan", "ios": "https://dc.lft.to/lastmile_qr_scan"}, "fusion_lon": 0.0, "lat": 38.89727833333333, "bike_id": "0542a30a63f6eede73009254a43b2de4", "type": "electric_scooter", "is_reserved": 0, "lon": -77.004479}, {"fusion_lat": 0.0, "name": "056719cf36ea1087867bd774c17dd93a", "is_disabled": 0, "rental_uris": {"android": "https://dc.lft.to/lastmile_qr_scan", "ios": "https://dc.lft.to/lastmile_qr_scan"}, "fusion_lon": 0.0, "lat": 38.85351266666667, "bike_id": "056719cf36ea1087867bd774c17dd93a", "type": "electric_bike", "is_reserved": 0, "lon": -77.13459333333333}, {"fusion_lat": 0.0, "name": "b517498cbd38879be3e02fb983b2424a", "is_disabled": 0, "rental_uris": {"android": "https://dc.lft.to/lastmile_qr_scan", "ios": "https://dc.lft.to/lastmile_qr_scan"}, "fusion_lon": 0.0, "lat": 38.86421383333333, "bike_id": "b517498cbd38879be3e02fb983b2424a", "type": "electric_scooter", "is_reserved": 0, "lon": -76.974042}, {"fusion_lat": 0.0, "name": "6a26141675b2574b78d24e4c5e625bfd", "is_disabled": 0, "rental_uris": {"android": "https://dc.lft.to/lastmile_qr_scan", "ios": "https://dc.lft.to/lastmile_qr_scan"}, "fusion_lon": 0.0, "lat": 38.9182185, "bike_id": "6a26141675b2574b78d24e4c5e625bfd", "type": "electric_scooter", "is_reserved": 0, "lon": -77.02537583333333}, {"fusion_lat": 0.0, "name": "6f3fe472f3bb1f6cb8889d4372b8f7df", "is_disabled": 0, "rental_uris": {"android": "https://dc.lft.to/lastmile_qr_scan", "ios": "https://dc.lft.to/lastmile_qr_scan"}, "fusion_lon": 0.0, "lat": 38.897891333333334, "bike_id": "6f3fe472f3bb1f6cb8889d4372b8f7df", "type": "electric_scooter", "is_reserved": 0, "lon": -76.931153}, {"fusion_lat": 0.0, "name": "9dcd90529b6cdbe1dcec35095a38e96b", "is_disabled": 0, "rental_uris": {"android": "https://dc.lft.to/lastmile_qr_scan", "ios": "https://dc.lft.to/lastmile_qr_scan"}, "fusion_lon": 0.0, "lat": 38.93215133333333, "bike_id": "9dcd90529b6cdbe1dcec35095a38e96b", "type": "electric_scooter", "is_reserved": 0, "lon": -77.03346316666666}, {"fusion_lat": 0.0, "name": "2928600bb8c02701e5ff789d021ef171", "is_disabled": 0, "rental_uris": {"android": "https://dc.lft.to/lastmile_qr_scan", "ios": "https://dc.lft.to/lastmile_qr_scan"}, "fusion_lon": 0.0, "lat": 38.862440666666664, "bike_id": "2928600bb8c02701e5ff789d021ef171", "type": "electric_scooter", "is_reserved": 0, "lon": -76.99497266666667}, {"fusion_lat": 0.0, "name": "c8b4970969379aa79d2377cdf5b4cf7a", "is_disabled": 0, "rental_uris": {"android": "https://dc.lft.to/lastmile_qr_scan", "ios": "https://dc.lft.to/lastmile_qr_scan"}, "fusion_lon": 0.0, "lat": 38.90021816666667, "bike_id": "c8b4970969379aa79d2377cdf5b4cf7a", "type": "electric_scooter", "is_reserved": 0, "lon": -76.9985505}, {"fusion_lat": 0.0, "name": "cc4f8fb29781115fa14c5d383649739c", "is_disabled": 0, "rental_uris": {"android": "https://dc.lft.to/lastmile_qr_scan", "ios": "https://dc.lft.to/lastmile_qr_scan"}, "fusion_lon": 0.0, "lat": 38.91660616666667, "bike_id": "cc4f8fb29781115fa14c5d383649739c", "type": "electric_scooter", "is_reserved": 0, "lon": -77.03837}, {"fusion_lat": 0.0, "name": "0df21ed56bae24b9e50b7dfc6d007d7a", "is_disabled": 0, "rental_uris": {"android": "https://dc.lft.to/lastmile_qr_scan", "ios": "https://dc.lft.to/lastmile_qr_scan"}, "fusion_lon": 0.0, "lat": 38.8864895, "bike_id": "0df21ed56bae24b9e50b7dfc6d007d7a", "type": "electric_scooter", "is_reserved": 0, "lon": -77.0009985}, {"fusion_lat": 0.0, "name": "56247fb0438cf92851d6d4c9f139b88a", "is_disabled": 0, "rental_uris": {"android": "https://dc.lft.to/lastmile_qr_scan", "ios": "https://dc.lft.to/lastmile_qr_scan"}, "fusion_lon": 0.0, "lat": 38.9145615, "bike_id": "56247fb0438cf92851d6d4c9f139b88a", "type": "electric_scooter", "is_reserved": 0, "lon": -77.00205916666667}, {"fusion_lat": 0.0, "name": "45463f91827b4a2b8a318eb7448249f0", "is_disabled": 0, "rental_uris": {"android": "https://dc.lft.to/lastmile_qr_scan", "ios": "https://dc.lft.to/lastmile_qr_scan"}, "fusion_lon": 0.0, "lat": 38.90979683333333, "bike_id": "45463f91827b4a2b8a318eb7448249f0", "type": "electric_scooter", "is_reserved": 0, "lon": -77.03382833333333}, {"fusion_lat": 0.0, "name": "daf6642ae0774abd483dd67ba965fd3b", "is_disabled": 0, "rental_uris": {"android": "https://dc.lft.to/lastmile_qr_scan", "ios": "https://dc.lft.to/lastmile_qr_scan"}, "fusion_lon": 0.0, "lat": 38.900274, "bike_id": "daf6642ae0774abd483dd67ba965fd3b", "type": "electric_scooter", "is_reserved": 0, "lon": -77.02968616666666}, {"fusion_lat": 0.0, "name": "a2a32192ed195d474522a794d594762e", "is_disabled": 0, "rental_uris": {"android": "https://dc.lft.to/lastmile_qr_scan", "ios": "https://dc.lft.to/lastmile_qr_scan"}, "fusion_lon": 0.0, "lat": 38.9028135, "bike_id": "a2a32192ed195d474522a794d594762e", "type": "electric_scooter", "is_reserved": 0, "lon": -77.04358066666667}, {"fusion_lat": 0.0, "name": "4a86bdfdb2ecc58691c4f8be577c8733", "is_disabled": 0, "rental_uris": {"android": "https://dc.lft.to/lastmile_qr_scan", "ios": "https://dc.lft.to/lastmile_qr_scan"}, "fusion_lon": 0.0, "lat": 38.944508166666665, "bike_id": "4a86bdfdb2ecc58691c4f8be577c8733", "type": "electric_scooter", "is_reserved": 0, "lon": -77.02341466666667}, {"fusion_lat": 0.0, "name": "f10e7a4974f180f91d3b4a8297fdc29c", "is_disabled": 0, "rental_uris": {"android": "https://dc.lft.to/lastmile_qr_scan", "ios": "https://dc.lft.to/lastmile_qr_scan"}, "fusion_lon": 0.0, "lat": 38.900887166666664, "bike_id": "f10e7a4974f180f91d3b4a8297fdc29c", "type": "electric_scooter", "is_reserved": 0, "lon": -77.05828733333334}, {"fusion_lat": 0.0, "name": "7b9c8902c7f49f6b8930a3240e640269", "is_disabled": 0, "rental_uris": {"android": "https://dc.lft.to/lastmile_qr_scan", "ios": "https://dc.lft.to/lastmile_qr_scan"}, "fusion_lon": 0.0, "lat": 38.93126616666667, "bike_id": "7b9c8902c7f49f6b8930a3240e640269", "type": "electric_scooter", "is_reserved": 0, "lon": -77.07822983333334}, {"fusion_lat": 0.0, "name": "e55a5fdb77d33d9637648f3afb711a00", "is_disabled": 0, "rental_uris": {"android": "https://dc.lft.to/lastmile_qr_scan", "ios": "https://dc.lft.to/lastmile_qr_scan"}, "fusion_lon": 0.0, "lat": 38.91914583333333, "bike_id": "e55a5fdb77d33d9637648f3afb711a00", "type": "electric_scooter", "is_reserved": 0, "lon": -77.0250735}, {"fusion_lat": 0.0, "name": "4f339ec4e86c4a37c340c620f039d426", "is_disabled": 0, "rental_uris": {"android": "https://dc.lft.to/lastmile_qr_scan", "ios": "https://dc.lft.to/lastmile_qr_scan"}, "fusion_lon": 0.0, "lat": 38.90972766666667, "bike_id": "4f339ec4e86c4a37c340c620f039d426", "type": "electric_scooter", "is_reserved": 0, "lon": -77.02180983333334}, {"fusion_lat": 0.0, "name": "7870c91472b7467b6e17fca69e126858", "is_disabled": 0, "rental_uris": {"android": "https://dc.lft.to/lastmile_qr_scan", "ios": "https://dc.lft.to/lastmile_qr_scan"}, "fusion_lon": 0.0, "lat": 38.866234666666664, "bike_id": "7870c91472b7467b6e17fca69e126858", "type": "electric_scooter", "is_reserved": 0, "lon": -76.98713116666667}, {"fusion_lat": 0.0, "name": "f94e6c7298412cf35e10fc2bb0bedc9b", "is_disabled": 0, "rental_uris": {"android": "https://dc.lft.to/lastmile_qr_scan", "ios": "https://dc.lft.to/lastmile_qr_scan"}, "fusion_lon": 0.0, "lat": 38.919915333333336, "bike_id": "f94e6c7298412cf35e10fc2bb0bedc9b", "type": "electric_scooter", "is_reserved": 0, "lon": -77.02380366666667}, {"fusion_lat": 0.0, "name": "f304b19f81d57887fe298e5ed785a376", "is_disabled": 0, "rental_uris": {"android": "https://dc.lft.to/lastmile_qr_scan", "ios": "https://dc.lft.to/lastmile_qr_scan"}, "fusion_lon": 0.0, "lat": 38.9136105, "bike_id": "f304b19f81d57887fe298e5ed785a376", "type": "electric_scooter", "is_reserved": 0, "lon": -77.019888}, {"fusion_lat": 0.0, "name": "1fb9e288ba5ff3ac827fb8a18984da74", "is_disabled": 0, "rental_uris": {"android": "https://dc.lft.to/lastmile_qr_scan", "ios": "https://dc.lft.to/lastmile_qr_scan"}, "fusion_lon": 0.0, "lat": 38.847249166666664, "bike_id": "1fb9e288ba5ff3ac827fb8a18984da74", "type": "electric_scooter", "is_reserved": 0, "lon": -76.9825075}, {"fusion_lat": 0.0, "name": "ba30fd3378b2486416423cd6746283c1", "is_disabled": 0, "rental_uris": {"android": "https://dc.lft.to/lastmile_qr_scan", "ios": "https://dc.lft.to/lastmile_qr_scan"}, "fusion_lon": 0.0, "lat": 38.919609333333334, "bike_id": "ba30fd3378b2486416423cd6746283c1", "type": "electric_scooter", "is_reserved": 0, "lon": -77.07090633333334}, {"fusion_lat": 0.0, "name": "807c6656fdab1564e7f0c51893a8e896", "is_disabled": 0, "rental_uris": {"android": "https://dc.lft.to/lastmile_qr_scan", "ios": "https://dc.lft.to/lastmile_qr_scan"}, "fusion_lon": 0.0, "lat": 38.9046415, "bike_id": "807c6656fdab1564e7f0c51893a8e896", "type": "electric_scooter", "is_reserved": 0, "lon": -77.04318666666667}, {"fusion_lat": 0.0, "name": "e38cc44eb9a3ab00079c46c146f73663", "is_disabled": 0, "rental_uris": {"android": "https://dc.lft.to/lastmile_qr_scan", "ios": "https://dc.lft.to/lastmile_qr_scan"}, "fusion_lon": 0.0, "lat": 38.9287325, "bike_id": "e38cc44eb9a3ab00079c46c146f73663", "type": "electric_scooter", "is_reserved": 0, "lon": -77.0374185}, {"fusion_lat": 0.0, "name": "2231591907c32e4e3058315ba189ee74", "is_disabled": 0, "rental_uris": {"android": "https://dc.lft.to/lastmile_qr_scan", "ios": "https://dc.lft.to/lastmile_qr_scan"}, "fusion_lon": 0.0, "lat": 38.90385966666667, "bike_id": "2231591907c32e4e3058315ba189ee74", "type": "electric_scooter", "is_reserved": 0, "lon": -77.0383695}, {"fusion_lat": 0.0, "name": "5ce086c442cad8166328a365fb6c239e", "is_disabled": 0, "rental_uris": {"android": "https://dc.lft.to/lastmile_qr_scan", "ios": "https://dc.lft.to/lastmile_qr_scan"}, "fusion_lon": 0.0, "lat": 38.80012816666667, "bike_id": "5ce086c442cad8166328a365fb6c239e", "type": "electric_bike", "is_reserved": 0, "lon": -77.05482033333334}, {"fusion_lat": 0.0, "name": "a01e959c683d8d8511dd2c5055aff8fc", "is_disabled": 0, "rental_uris": {"android": "https://dc.lft.to/lastmile_qr_scan", "ios": "https://dc.lft.to/lastmile_qr_scan"}, "fusion_lon": 0.0, "lat": 38.906279166666664, "bike_id": "a01e959c683d8d8511dd2c5055aff8fc", "type": "electric_scooter", "is_reserved": 0, "lon": -77.03427083333334}, {"fusion_lat": 0.0, "name": "edd0a2cc8dd32927181032be063f9a73", "is_disabled": 0, "rental_uris": {"android": "https://dc.lft.to/lastmile_qr_scan", "ios": "https://dc.lft.to/lastmile_qr_scan"}, "fusion_lon": 0.0, "lat": 38.873312166666665, "bike_id": "edd0a2cc8dd32927181032be063f9a73", "type": "electric_bike", "is_reserved": 0, "lon": -77.08213766666667}, {"fusion_lat": 0.0, "name": "47383ce13db4cf9e74867416575390e3", "is_disabled": 0, "rental_uris": {"android": "https://dc.lft.to/lastmile_qr_scan", "ios": "https://dc.lft.to/lastmile_qr_scan"}, "fusion_lon": 0.0, "lat": 38.93213183333334, "bike_id": "47383ce13db4cf9e74867416575390e3", "type": "electric_scooter", "is_reserved": 0, "lon": -77.03751533333333}, {"fusion_lat": 0.0, "name": "ac55ffaf3b771504d69e6e8aa8f94dc9", "is_disabled": 0, "rental_uris": {"android": "https://dc.lft.to/lastmile_qr_scan", "ios": "https://dc.lft.to/lastmile_qr_scan"}, "fusion_lon": 0.0, "lat": 38.90512616666667, "bike_id": "ac55ffaf3b771504d69e6e8aa8f94dc9", "type": "electric_scooter", "is_reserved": 0, "lon": -77.03465466666667}, {"fusion_lat": 0.0, "name": "f10ffd806f3becc588ce9c15bfd37679", "is_disabled": 0, "rental_uris": {"android": "https://dc.lft.to/lastmile_qr_scan", "ios": "https://dc.lft.to/lastmile_qr_scan"}, "fusion_lon": 0.0, "lat": 38.88379833333333, "bike_id": "f10ffd806f3becc588ce9c15bfd37679", "type": "electric_scooter", "is_reserved": 0, "lon": -76.93053733333333}, {"fusion_lat": 0.0, "name": "091b654f55f93b592dd0c726e1963329", "is_disabled": 0, "rental_uris": {"android": "https://dc.lft.to/lastmile_qr_scan", "ios": "https://dc.lft.to/lastmile_qr_scan"}, "fusion_lon": 0.0, "lat": 38.904015, "bike_id": "091b654f55f93b592dd0c726e1963329", "type": "electric_scooter", "is_reserved": 0, "lon": -77.06721066666667}, {"fusion_lat": 0.0, "name": "e1ceed8dea894b5003336fc069b703c7", "is_disabled": 0, "rental_uris": {"android": "https://dc.lft.to/lastmile_qr_scan", "ios": "https://dc.lft.to/lastmile_qr_scan"}, "fusion_lon": 0.0, "lat": 38.92247616666667, "bike_id": "e1ceed8dea894b5003336fc069b703c7", "type": "electric_scooter", "is_reserved": 0, "lon": -77.080821}, {"fusion_lat": 0.0, "name": "a6e3827a14e6d07139d2ce01fcbf287f", "is_disabled": 0, "rental_uris": {"android": "https://dc.lft.to/lastmile_qr_scan", "ios": "https://dc.lft.to/lastmile_qr_scan"}, "fusion_lon": 0.0, "lat": 38.89677316666667, "bike_id": "a6e3827a14e6d07139d2ce01fcbf287f", "type": "electric_scooter", "is_reserved": 0, "lon": -77.00514166666666}, {"fusion_lat": 0.0, "name": "193be3f613e079a3b73c9d6fb0de19ed", "is_disabled": 0, "rental_uris": {"android": "https://dc.lft.to/lastmile_qr_scan", "ios": "https://dc.lft.to/lastmile_qr_scan"}, "fusion_lon": 0.0, "lat": 38.915531666666666, "bike_id": "193be3f613e079a3b73c9d6fb0de19ed", "type": "electric_scooter", "is_reserved": 0, "lon": -77.04114066666666}, {"fusion_lat": 0.0, "name": "99c9866b6099b03896f3e8528945fcfd", "is_disabled": 0, "rental_uris": {"android": "https://dc.lft.to/lastmile_qr_scan", "ios": "https://dc.lft.to/lastmile_qr_scan"}, "fusion_lon": 0.0, "lat": 38.89646066666667, "bike_id": "99c9866b6099b03896f3e8528945fcfd", "type": "electric_scooter", "is_reserved": 0, "lon": -77.049962}, {"fusion_lat": 0.0, "name": "0087156cc04e704e97106a7d03e338c2", "is_disabled": 0, "rental_uris": {"android": "https://dc.lft.to/lastmile_qr_scan", "ios": "https://dc.lft.to/lastmile_qr_scan"}, "fusion_lon": 0.0, "lat": 38.909034166666665, "bike_id": "0087156cc04e704e97106a7d03e338c2", "type": "electric_scooter", "is_reserved": 0, "lon": -77.044679}, {"fusion_lat": 0.0, "name": "c62f2e360b3b56a0b54c2355a29053d8", "is_disabled": 0, "rental_uris": {"android": "https://dc.lft.to/lastmile_qr_scan", "ios": "https://dc.lft.to/lastmile_qr_scan"}, "fusion_lon": 0.0, "lat": 38.95887033333333, "bike_id": "c62f2e360b3b56a0b54c2355a29053d8", "type": "electric_scooter", "is_reserved": 0, "lon": -77.02743316666667}, {"fusion_lat": 0.0, "name": "7d2615f703d68a7fa1918bb4cb30c92c", "is_disabled": 0, "rental_uris": {"android": "https://dc.lft.to/lastmile_qr_scan", "ios": "https://dc.lft.to/lastmile_qr_scan"}, "fusion_lon": 0.0, "lat": 38.813334, "bike_id": "7d2615f703d68a7fa1918bb4cb30c92c", "type": "electric_bike", "is_reserved": 0, "lon": -77.05085816666667}, {"fusion_lat": 0.0, "name": "48afe47d0937b48137060a1d7d3af540", "is_disabled": 0, "rental_uris": {"android": "https://dc.lft.to/lastmile_qr_scan", "ios": "https://dc.lft.to/lastmile_qr_scan"}, "fusion_lon": 0.0, "lat": 38.924915, "bike_id": "48afe47d0937b48137060a1d7d3af540", "type": "electric_scooter", "is_reserved": 0, "lon": -77.05097766666667}, {"fusion_lat": 0.0, "name": "021ceb424458aa7d36ede40497ac5c7d", "is_disabled": 0, "rental_uris": {"android": "https://dc.lft.to/lastmile_qr_scan", "ios": "https://dc.lft.to/lastmile_qr_scan"}, "fusion_lon": 0.0, "lat": 38.938091, "bike_id": "021ceb424458aa7d36ede40497ac5c7d", "type": "electric_scooter", "is_reserved": 0, "lon": -77.0601475}, {"fusion_lat": 0.0, "name": "e9a8a17a6cc594b4510b7a95b49c61e8", "is_disabled": 0, "rental_uris": {"android": "https://dc.lft.to/lastmile_qr_scan", "ios": "https://dc.lft.to/lastmile_qr_scan"}, "fusion_lon": 0.0, "lat": 38.91908133333333, "bike_id": "e9a8a17a6cc594b4510b7a95b49c61e8", "type": "electric_scooter", "is_reserved": 0, "lon": -77.02508716666667}, {"fusion_lat": 0.0, "name": "78272d95e3c2d8415e00339ab4bd1365", "is_disabled": 0, "rental_uris": {"android": "https://dc.lft.to/lastmile_qr_scan", "ios": "https://dc.lft.to/lastmile_qr_scan"}, "fusion_lon": 0.0, "lat": 38.9044625, "bike_id": "78272d95e3c2d8415e00339ab4bd1365", "type": "electric_scooter", "is_reserved": 0, "lon": -76.97425116666666}, {"fusion_lat": 0.0, "name": "1cb22480d5a003d05a3ad056781d212b", "is_disabled": 0, "rental_uris": {"android": "https://dc.lft.to/lastmile_qr_scan", "ios": "https://dc.lft.to/lastmile_qr_scan"}, "fusion_lon": 0.0, "lat": 38.90220583333333, "bike_id": "1cb22480d5a003d05a3ad056781d212b", "type": "electric_scooter", "is_reserved": 0, "lon": -76.99504333333333}, {"fusion_lat": 0.0, "name": "5d13654b56c12c2bb21c93b476c5267b", "is_disabled": 0, "rental_uris": {"android": "https://dc.lft.to/lastmile_qr_scan", "ios": "https://dc.lft.to/lastmile_qr_scan"}, "fusion_lon": 0.0, "lat": 38.90272566666667, "bike_id": "5d13654b56c12c2bb21c93b476c5267b", "type": "electric_scooter", "is_reserved": 0, "lon": -77.0336265}, {"fusion_lat": 0.0, "name": "4d59e8902605c82b5f0e9594649d728e", "is_disabled": 0, "rental_uris": {"android": "https://dc.lft.to/lastmile_qr_scan", "ios": "https://dc.lft.to/lastmile_qr_scan"}, "fusion_lon": 0.0, "lat": 38.928577, "bike_id": "4d59e8902605c82b5f0e9594649d728e", "type": "electric_scooter", "is_reserved": 0, "lon": -77.03219533333333}, {"fusion_lat": 0.0, "name": "3e96fe18023fada3ea0ea9760d52b125", "is_disabled": 0, "rental_uris": {"android": "https://dc.lft.to/lastmile_qr_scan", "ios": "https://dc.lft.to/lastmile_qr_scan"}, "fusion_lon": 0.0, "lat": 38.90773933333333, "bike_id": "3e96fe18023fada3ea0ea9760d52b125", "type": "electric_scooter", "is_reserved": 0, "lon": -77.038626}, {"fusion_lat": 0.0, "name": "3e171ee0dcecd8719da9effee7873ac7", "is_disabled": 0, "rental_uris": {"android": "https://dc.lft.to/lastmile_qr_scan", "ios": "https://dc.lft.to/lastmile_qr_scan"}, "fusion_lon": 0.0, "lat": 38.915605166666666, "bike_id": "3e171ee0dcecd8719da9effee7873ac7", "type": "electric_scooter", "is_reserved": 0, "lon": -77.02217416666667}, {"fusion_lat": 0.0, "name": "885d5c388a920221e790608312720540", "is_disabled": 0, "rental_uris": {"android": "https://dc.lft.to/lastmile_qr_scan", "ios": "https://dc.lft.to/lastmile_qr_scan"}, "fusion_lon": 0.0, "lat": 38.90153216666667, "bike_id": "885d5c388a920221e790608312720540", "type": "electric_scooter", "is_reserved": 0, "lon": -77.00921983333333}, {"fusion_lat": 0.0, "name": "5a13fb0a966c2cf995bd62d0f8ab66e8", "is_disabled": 0, "rental_uris": {"android": "https://dc.lft.to/lastmile_qr_scan", "ios": "https://dc.lft.to/lastmile_qr_scan"}, "fusion_lon": 0.0, "lat": 38.93394333333333, "bike_id": "5a13fb0a966c2cf995bd62d0f8ab66e8", "type": "electric_scooter", "is_reserved": 0, "lon": -77.057663}, {"fusion_lat": 0.0, "name": "7430dd0bd1359f7800f6409d69d5469c", "is_disabled": 0, "rental_uris": {"android": "https://dc.lft.to/lastmile_qr_scan", "ios": "https://dc.lft.to/lastmile_qr_scan"}, "fusion_lon": 0.0, "lat": 38.9152935, "bike_id": "7430dd0bd1359f7800f6409d69d5469c", "type": "electric_scooter", "is_reserved": 0, "lon": -76.98232366666667}, {"fusion_lat": 0.0, "name": "df59b88a017860dadf93483b19ee7108", "is_disabled": 0, "rental_uris": {"android": "https://dc.lft.to/lastmile_qr_scan", "ios": "https://dc.lft.to/lastmile_qr_scan"}, "fusion_lon": 0.0, "lat": 38.9042435, "bike_id": "df59b88a017860dadf93483b19ee7108", "type": "electric_scooter", "is_reserved": 0, "lon": -76.94974133333334}, {"fusion_lat": 0.0, "name": "3b9a9705834cbf04cae7b12b0fb914b1", "is_disabled": 0, "rental_uris": {"android": "https://dc.lft.to/lastmile_qr_scan", "ios": "https://dc.lft.to/lastmile_qr_scan"}, "fusion_lon": 0.0, "lat": 38.89704166666667, "bike_id": "3b9a9705834cbf04cae7b12b0fb914b1", "type": "electric_scooter", "is_reserved": 0, "lon": -77.01275816666667}, {"fusion_lat": 0.0, "name": "260bd96b2fba2054b8019bd7ad973469", "is_disabled": 0, "rental_uris": {"android": "https://dc.lft.to/lastmile_qr_scan", "ios": "https://dc.lft.to/lastmile_qr_scan"}, "fusion_lon": 0.0, "lat": 38.924016, "bike_id": "260bd96b2fba2054b8019bd7ad973469", "type": "electric_scooter", "is_reserved": 0, "lon": -77.04295716666667}, {"fusion_lat": 0.0, "name": "ddd81e91f31ebaecbc8c6c218b374652", "is_disabled": 0, "rental_uris": {"android": "https://dc.lft.to/lastmile_qr_scan", "ios": "https://dc.lft.to/lastmile_qr_scan"}, "fusion_lon": 0.0, "lat": 38.885155833333336, "bike_id": "ddd81e91f31ebaecbc8c6c218b374652", "type": "electric_scooter", "is_reserved": 0, "lon": -77.01498616666667}, {"fusion_lat": 0.0, "name": "4861c1190989d3efd0d26d7b7715735d", "is_disabled": 0, "rental_uris": {"android": "https://dc.lft.to/lastmile_qr_scan", "ios": "https://dc.lft.to/lastmile_qr_scan"}, "fusion_lon": 0.0, "lat": 38.892181, "bike_id": "4861c1190989d3efd0d26d7b7715735d", "type": "electric_scooter", "is_reserved": 0, "lon": -77.032154}, {"fusion_lat": 0.0, "name": "3128c17903871f63a03815158f3b754f", "is_disabled": 0, "rental_uris": {"android": "https://dc.lft.to/lastmile_qr_scan", "ios": "https://dc.lft.to/lastmile_qr_scan"}, "fusion_lon": 0.0, "lat": 38.922914, "bike_id": "3128c17903871f63a03815158f3b754f", "type": "electric_scooter", "is_reserved": 0, "lon": -77.029569}, {"fusion_lat": 0.0, "name": "c30d99770ed57c72c751ee904352be68", "is_disabled": 0, "rental_uris": {"android": "https://dc.lft.to/lastmile_qr_scan", "ios": "https://dc.lft.to/lastmile_qr_scan"}, "fusion_lon": 0.0, "lat": 38.91607066666667, "bike_id": "c30d99770ed57c72c751ee904352be68", "type": "electric_scooter", "is_reserved": 0, "lon": -77.02950466666667}, {"fusion_lat": 0.0, "name": "c06ecb930ee2dbc79be2f61034b1a6ce", "is_disabled": 0, "rental_uris": {"android": "https://dc.lft.to/lastmile_qr_scan", "ios": "https://dc.lft.to/lastmile_qr_scan"}, "fusion_lon": 0.0, "lat": 38.906443, "bike_id": "c06ecb930ee2dbc79be2f61034b1a6ce", "type": "electric_scooter", "is_reserved": 0, "lon": -77.01138916666666}, {"fusion_lat": 0.0, "name": "eb89fee1a4bb9923b8ea92b45d497051", "is_disabled": 0, "rental_uris": {"android": "https://dc.lft.to/lastmile_qr_scan", "ios": "https://dc.lft.to/lastmile_qr_scan"}, "fusion_lon": 0.0, "lat": 38.934555, "bike_id": "eb89fee1a4bb9923b8ea92b45d497051", "type": "electric_scooter", "is_reserved": 0, "lon": -77.07263316666666}, {"fusion_lat": 0.0, "name": "7a8846279075be74929fe80038d0eca2", "is_disabled": 0, "rental_uris": {"android": "https://dc.lft.to/lastmile_qr_scan", "ios": "https://dc.lft.to/lastmile_qr_scan"}, "fusion_lon": 0.0, "lat": 38.928542166666666, "bike_id": "7a8846279075be74929fe80038d0eca2", "type": "electric_scooter", "is_reserved": 0, "lon": -77.03515183333333}, {"fusion_lat": 0.0, "name": "d9d043a7af31b87f2d79feff4e34ca8a", "is_disabled": 0, "rental_uris": {"android": "https://dc.lft.to/lastmile_qr_scan", "ios": "https://dc.lft.to/lastmile_qr_scan"}, "fusion_lon": 0.0, "lat": 38.89988966666667, "bike_id": "d9d043a7af31b87f2d79feff4e34ca8a", "type": "electric_scooter", "is_reserved": 0, "lon": -77.006517}, {"fusion_lat": 0.0, "name": "c4f6244654d8964e1111ac124e1e2589", "is_disabled": 0, "rental_uris": {"android": "https://dc.lft.to/lastmile_qr_scan", "ios": "https://dc.lft.to/lastmile_qr_scan"}, "fusion_lon": 0.0, "lat": 38.9212835, "bike_id": "c4f6244654d8964e1111ac124e1e2589", "type": "electric_scooter", "is_reserved": 0, "lon": -77.025003}, {"fusion_lat": 0.0, "name": "20a0e669c9e7c2ea92a9ef278c88017c", "is_disabled": 0, "rental_uris": {"android": "https://dc.lft.to/lastmile_qr_scan", "ios": "https://dc.lft.to/lastmile_qr_scan"}, "fusion_lon": 0.0, "lat": 38.8924735, "bike_id": "20a0e669c9e7c2ea92a9ef278c88017c", "type": "electric_scooter", "is_reserved": 0, "lon": -77.04649716666667}, {"fusion_lat": 0.0, "name": "d842956284fc90c18276dcd3e4e40530", "is_disabled": 0, "rental_uris": {"android": "https://dc.lft.to/lastmile_qr_scan", "ios": "https://dc.lft.to/lastmile_qr_scan"}, "fusion_lon": 0.0, "lat": 38.91817966666667, "bike_id": "d842956284fc90c18276dcd3e4e40530", "type": "electric_scooter", "is_reserved": 0, "lon": -77.025295}, {"fusion_lat": 0.0, "name": "7d00c9eeab5b864cb44524f36dc3a4c6", "is_disabled": 0, "rental_uris": {"android": "https://dc.lft.to/lastmile_qr_scan", "ios": "https://dc.lft.to/lastmile_qr_scan"}, "fusion_lon": 0.0, "lat": 38.92609016666667, "bike_id": "7d00c9eeab5b864cb44524f36dc3a4c6", "type": "electric_scooter", "is_reserved": 0, "lon": -77.03962983333334}, {"fusion_lat": 0.0, "name": "9cb6b2e619241b955e681dacd54b9827", "is_disabled": 0, "rental_uris": {"android": "https://dc.lft.to/lastmile_qr_scan", "ios": "https://dc.lft.to/lastmile_qr_scan"}, "fusion_lon": 0.0, "lat": 38.855953166666666, "bike_id": "9cb6b2e619241b955e681dacd54b9827", "type": "electric_scooter", "is_reserved": 0, "lon": -76.972655}, {"fusion_lat": 0.0, "name": "49b0db727469599e98cabe02484ff9f2", "is_disabled": 0, "rental_uris": {"android": "https://dc.lft.to/lastmile_qr_scan", "ios": "https://dc.lft.to/lastmile_qr_scan"}, "fusion_lon": 0.0, "lat": 38.8982735, "bike_id": "49b0db727469599e98cabe02484ff9f2", "type": "electric_scooter", "is_reserved": 0, "lon": -77.046417}, {"fusion_lat": 0.0, "name": "94731063ba3e926114451660685a80ff", "is_disabled": 0, "rental_uris": {"android": "https://dc.lft.to/lastmile_qr_scan", "ios": "https://dc.lft.to/lastmile_qr_scan"}, "fusion_lon": 0.0, "lat": 38.8974115, "bike_id": "94731063ba3e926114451660685a80ff", "type": "electric_scooter", "is_reserved": 0, "lon": -77.02713383333334}, {"fusion_lat": 0.0, "name": "d3293877003b8ffc797938f234588bfc", "is_disabled": 0, "rental_uris": {"android": "https://dc.lft.to/lastmile_qr_scan", "ios": "https://dc.lft.to/lastmile_qr_scan"}, "fusion_lon": 0.0, "lat": 38.920772, "bike_id": "d3293877003b8ffc797938f234588bfc", "type": "electric_scooter", "is_reserved": 0, "lon": -77.02307366666666}, {"fusion_lat": 0.0, "name": "e592cac939bb2b3c92878587e7eb7f5f", "is_disabled": 0, "rental_uris": {"android": "https://dc.lft.to/lastmile_qr_scan", "ios": "https://dc.lft.to/lastmile_qr_scan"}, "fusion_lon": 0.0, "lat": 38.88503933333333, "bike_id": "e592cac939bb2b3c92878587e7eb7f5f", "type": "electric_scooter", "is_reserved": 0, "lon": -76.92946533333334}, {"fusion_lat": 0.0, "name": "7c1932aeecf935002cc29fc8141c1463", "is_disabled": 0, "rental_uris": {"android": "https://dc.lft.to/lastmile_qr_scan", "ios": "https://dc.lft.to/lastmile_qr_scan"}, "fusion_lon": 0.0, "lat": 38.9464075, "bike_id": "7c1932aeecf935002cc29fc8141c1463", "type": "electric_bike", "is_reserved": 0, "lon": -77.03049066666667}, {"fusion_lat": 0.0, "name": "63c0afb45afcac4fbd79cbad6cecf85b", "is_disabled": 0, "rental_uris": {"android": "https://dc.lft.to/lastmile_qr_scan", "ios": "https://dc.lft.to/lastmile_qr_scan"}, "fusion_lon": 0.0, "lat": 38.88452016666667, "bike_id": "63c0afb45afcac4fbd79cbad6cecf85b", "type": "electric_scooter", "is_reserved": 0, "lon": -76.9983055}, {"fusion_lat": 0.0, "name": "8e4ce2932831532d17f453cbdca31adb", "is_disabled": 0, "rental_uris": {"android": "https://dc.lft.to/lastmile_qr_scan", "ios": "https://dc.lft.to/lastmile_qr_scan"}, "fusion_lon": 0.0, "lat": 38.93779416666667, "bike_id": "8e4ce2932831532d17f453cbdca31adb", "type": "electric_scooter", "is_reserved": 0, "lon": -77.02454}, {"fusion_lat": 0.0, "name": "390933f2e25149685ad5f3c8ddae20c8", "is_disabled": 0, "rental_uris": {"android": "https://dc.lft.to/lastmile_qr_scan", "ios": "https://dc.lft.to/lastmile_qr_scan"}, "fusion_lon": 0.0, "lat": 38.911095833333334, "bike_id": "390933f2e25149685ad5f3c8ddae20c8", "type": "electric_scooter", "is_reserved": 0, "lon": -77.02091566666667}, {"fusion_lat": 0.0, "name": "8a53137b3adbcda2df6877b2881eb872", "is_disabled": 0, "rental_uris": {"android": "https://dc.lft.to/lastmile_qr_scan", "ios": "https://dc.lft.to/lastmile_qr_scan"}, "fusion_lon": 0.0, "lat": 38.91914033333333, "bike_id": "8a53137b3adbcda2df6877b2881eb872", "type": "electric_scooter", "is_reserved": 0, "lon": -77.03312833333334}, {"fusion_lat": 0.0, "name": "6a9e3cb6370252f9a0fe3f8468b8dbbe", "is_disabled": 0, "rental_uris": {"android": "https://dc.lft.to/lastmile_qr_scan", "ios": "https://dc.lft.to/lastmile_qr_scan"}, "fusion_lon": 0.0, "lat": 38.933001833333336, "bike_id": "6a9e3cb6370252f9a0fe3f8468b8dbbe", "type": "electric_scooter", "is_reserved": 0, "lon": -77.02464233333333}, {"fusion_lat": 0.0, "name": "66844d6e3ea2ffd7cfde222115739aaf", "is_disabled": 0, "rental_uris": {"android": "https://dc.lft.to/lastmile_qr_scan", "ios": "https://dc.lft.to/lastmile_qr_scan"}, "fusion_lon": 0.0, "lat": 38.920766666666665, "bike_id": "66844d6e3ea2ffd7cfde222115739aaf", "type": "electric_scooter", "is_reserved": 0, "lon": -77.00456883333334}, {"fusion_lat": 0.0, "name": "2ffafdd9b7ba06c892b0a63dd97f00f4", "is_disabled": 0, "rental_uris": {"android": "https://dc.lft.to/lastmile_qr_scan", "ios": "https://dc.lft.to/lastmile_qr_scan"}, "fusion_lon": 0.0, "lat": 38.931893333333335, "bike_id": "2ffafdd9b7ba06c892b0a63dd97f00f4", "type": "electric_scooter", "is_reserved": 0, "lon": -77.042945}, {"fusion_lat": 0.0, "name": "a06961105fec3f734322e094fdabfdd4", "is_disabled": 0, "rental_uris": {"android": "https://dc.lft.to/lastmile_qr_scan", "ios": "https://dc.lft.to/lastmile_qr_scan"}, "fusion_lon": 0.0, "lat": 38.91714066666667, "bike_id": "a06961105fec3f734322e094fdabfdd4", "type": "electric_scooter", "is_reserved": 0, "lon": -77.01208716666666}, {"fusion_lat": 0.0, "name": "9cc08820d744646424d56cd5c9b1a052", "is_disabled": 0, "rental_uris": {"android": "https://dc.lft.to/lastmile_qr_scan", "ios": "https://dc.lft.to/lastmile_qr_scan"}, "fusion_lon": 0.0, "lat": 38.908217666666665, "bike_id": "9cc08820d744646424d56cd5c9b1a052", "type": "electric_scooter", "is_reserved": 0, "lon": -77.05492883333334}, {"fusion_lat": 0.0, "name": "d34368751920cadf4ad0111b86b10a65", "is_disabled": 0, "rental_uris": {"android": "https://dc.lft.to/lastmile_qr_scan", "ios": "https://dc.lft.to/lastmile_qr_scan"}, "fusion_lon": 0.0, "lat": 38.9180335, "bike_id": "d34368751920cadf4ad0111b86b10a65", "type": "electric_scooter", "is_reserved": 0, "lon": -76.99973383333334}, {"fusion_lat": 0.0, "name": "5c1f7c6e0e8cab2938883202ddb7a43e", "is_disabled": 0, "rental_uris": {"android": "https://dc.lft.to/lastmile_qr_scan", "ios": "https://dc.lft.to/lastmile_qr_scan"}, "fusion_lon": 0.0, "lat": 38.951154833333334, "bike_id": "5c1f7c6e0e8cab2938883202ddb7a43e", "type": "electric_scooter", "is_reserved": 0, "lon": -77.01358616666667}, {"fusion_lat": 0.0, "name": "59d9f39948c2aed7150512f4c75cb284", "is_disabled": 0, "rental_uris": {"android": "https://dc.lft.to/lastmile_qr_scan", "ios": "https://dc.lft.to/lastmile_qr_scan"}, "fusion_lon": 0.0, "lat": 38.929488166666665, "bike_id": "59d9f39948c2aed7150512f4c75cb284", "type": "electric_scooter", "is_reserved": 0, "lon": -77.04405033333333}, {"fusion_lat": 0.0, "name": "6ab3dbffbece1cb184bca14255c2b8aa", "is_disabled": 0, "rental_uris": {"android": "https://dc.lft.to/lastmile_qr_scan", "ios": "https://dc.lft.to/lastmile_qr_scan"}, "fusion_lon": 0.0, "lat": 38.961112666666665, "bike_id": "6ab3dbffbece1cb184bca14255c2b8aa", "type": "electric_scooter", "is_reserved": 0, "lon": -77.02860466666667}, {"fusion_lat": 0.0, "name": "3418592f6efc502fc3835fe9ca07513d", "is_disabled": 0, "rental_uris": {"android": "https://dc.lft.to/lastmile_qr_scan", "ios": "https://dc.lft.to/lastmile_qr_scan"}, "fusion_lon": 0.0, "lat": 38.94701033333333, "bike_id": "3418592f6efc502fc3835fe9ca07513d", "type": "electric_scooter", "is_reserved": 0, "lon": -77.019426}, {"fusion_lat": 0.0, "name": "14f28eb05d6df635e7ca0d21fa37b6f3", "is_disabled": 0, "rental_uris": {"android": "https://dc.lft.to/lastmile_qr_scan", "ios": "https://dc.lft.to/lastmile_qr_scan"}, "fusion_lon": 0.0, "lat": 38.974989, "bike_id": "14f28eb05d6df635e7ca0d21fa37b6f3", "type": "electric_scooter", "is_reserved": 0, "lon": -77.0169145}, {"fusion_lat": 0.0, "name": "e7014d8d88d619651cd3ff818bd53b29", "is_disabled": 0, "rental_uris": {"android": "https://dc.lft.to/lastmile_qr_scan", "ios": "https://dc.lft.to/lastmile_qr_scan"}, "fusion_lon": 0.0, "lat": 38.91771033333333, "bike_id": "e7014d8d88d619651cd3ff818bd53b29", "type": "electric_scooter", "is_reserved": 0, "lon": -77.018907}, {"fusion_lat": 0.0, "name": "a140e089e0ce8799d6243b5b1aa11a31", "is_disabled": 0, "rental_uris": {"android": "https://dc.lft.to/lastmile_qr_scan", "ios": "https://dc.lft.to/lastmile_qr_scan"}, "fusion_lon": 0.0, "lat": 38.922369, "bike_id": "a140e089e0ce8799d6243b5b1aa11a31", "type": "electric_scooter", "is_reserved": 0, "lon": -77.04247383333333}, {"fusion_lat": 0.0, "name": "3e94c44e09a65ba547b124be1523fed1", "is_disabled": 0, "rental_uris": {"android": "https://dc.lft.to/lastmile_qr_scan", "ios": "https://dc.lft.to/lastmile_qr_scan"}, "fusion_lon": 0.0, "lat": 38.948221333333336, "bike_id": "3e94c44e09a65ba547b124be1523fed1", "type": "electric_scooter", "is_reserved": 0, "lon": -77.02616433333333}, {"fusion_lat": 0.0, "name": "46a52c45d28891a3eb799f4cf01517ef", "is_disabled": 0, "rental_uris": {"android": "https://dc.lft.to/lastmile_qr_scan", "ios": "https://dc.lft.to/lastmile_qr_scan"}, "fusion_lon": 0.0, "lat": 38.9056665, "bike_id": "46a52c45d28891a3eb799f4cf01517ef", "type": "electric_scooter", "is_reserved": 0, "lon": -77.00588866666666}, {"fusion_lat": 0.0, "name": "ad3f307feb1ddd21415bb86033379e39", "is_disabled": 0, "rental_uris": {"android": "https://dc.lft.to/lastmile_qr_scan", "ios": "https://dc.lft.to/lastmile_qr_scan"}, "fusion_lon": 0.0, "lat": 38.91550866666667, "bike_id": "ad3f307feb1ddd21415bb86033379e39", "type": "electric_scooter", "is_reserved": 0, "lon": -77.0414945}, {"fusion_lat": 0.0, "name": "7b254d576ac51fc5aa2ddc2ce5e5e561", "is_disabled": 0, "rental_uris": {"android": "https://dc.lft.to/lastmile_qr_scan", "ios": "https://dc.lft.to/lastmile_qr_scan"}, "fusion_lon": 0.0, "lat": 38.880990833333335, "bike_id": "7b254d576ac51fc5aa2ddc2ce5e5e561", "type": "electric_scooter", "is_reserved": 0, "lon": -76.98662516666667}, {"fusion_lat": 0.0, "name": "34bb92ca00609a244e18dca1cd611fd3", "is_disabled": 0, "rental_uris": {"android": "https://dc.lft.to/lastmile_qr_scan", "ios": "https://dc.lft.to/lastmile_qr_scan"}, "fusion_lon": 0.0, "lat": 38.886095833333336, "bike_id": "34bb92ca00609a244e18dca1cd611fd3", "type": "electric_scooter", "is_reserved": 0, "lon": -77.01553766666666}, {"fusion_lat": 0.0, "name": "a376e6fa89558444032b4c92b3d420f7", "is_disabled": 0, "rental_uris": {"android": "https://dc.lft.to/lastmile_qr_scan", "ios": "https://dc.lft.to/lastmile_qr_scan"}, "fusion_lon": 0.0, "lat": 38.8354175, "bike_id": "a376e6fa89558444032b4c92b3d420f7", "type": "electric_bike", "is_reserved": 0, "lon": -76.9871975}, {"fusion_lat": 0.0, "name": "749a165c41522a2e5b14b86b52c775c5", "is_disabled": 0, "rental_uris": {"android": "https://dc.lft.to/lastmile_qr_scan", "ios": "https://dc.lft.to/lastmile_qr_scan"}, "fusion_lon": 0.0, "lat": 38.9325605, "bike_id": "749a165c41522a2e5b14b86b52c775c5", "type": "electric_scooter", "is_reserved": 0, "lon": -77.034482}, {"fusion_lat": 0.0, "name": "a66cb97d45b733b43d7e3ad6a581655f", "is_disabled": 0, "rental_uris": {"android": "https://dc.lft.to/lastmile_qr_scan", "ios": "https://dc.lft.to/lastmile_qr_scan"}, "fusion_lon": 0.0, "lat": 38.93432166666667, "bike_id": "a66cb97d45b733b43d7e3ad6a581655f", "type": "electric_scooter", "is_reserved": 0, "lon": -77.03996666666667}, {"fusion_lat": 0.0, "name": "b54e55b0378762374effd0bccd28c39b", "is_disabled": 0, "rental_uris": {"android": "https://dc.lft.to/lastmile_qr_scan", "ios": "https://dc.lft.to/lastmile_qr_scan"}, "fusion_lon": 0.0, "lat": 38.923813333333335, "bike_id": "b54e55b0378762374effd0bccd28c39b", "type": "electric_scooter", "is_reserved": 0, "lon": -77.03644583333333}, {"fusion_lat": 0.0, "name": "bf69fbac7bbe8fd5b6ef0013cdc63a53", "is_disabled": 0, "rental_uris": {"android": "https://dc.lft.to/lastmile_qr_scan", "ios": "https://dc.lft.to/lastmile_qr_scan"}, "fusion_lon": 0.0, "lat": 38.89239533333333, "bike_id": "bf69fbac7bbe8fd5b6ef0013cdc63a53", "type": "electric_scooter", "is_reserved": 0, "lon": -77.033497}, {"fusion_lat": 0.0, "name": "df949b96d0e4f0c9bb8d3b724d68c630", "is_disabled": 0, "rental_uris": {"android": "https://dc.lft.to/lastmile_qr_scan", "ios": "https://dc.lft.to/lastmile_qr_scan"}, "fusion_lon": 0.0, "lat": 38.900628166666664, "bike_id": "df949b96d0e4f0c9bb8d3b724d68c630", "type": "electric_scooter", "is_reserved": 0, "lon": -76.93385866666667}, {"fusion_lat": 0.0, "name": "5e0093bd2c5306c57f967717ae416697", "is_disabled": 0, "rental_uris": {"android": "https://dc.lft.to/lastmile_qr_scan", "ios": "https://dc.lft.to/lastmile_qr_scan"}, "fusion_lon": 0.0, "lat": 38.898982, "bike_id": "5e0093bd2c5306c57f967717ae416697", "type": "electric_scooter", "is_reserved": 0, "lon": -76.97609383333334}, {"fusion_lat": 0.0, "name": "13b62c0d5c764918b3e9194ad620eb0b", "is_disabled": 0, "rental_uris": {"android": "https://dc.lft.to/lastmile_qr_scan", "ios": "https://dc.lft.to/lastmile_qr_scan"}, "fusion_lon": 0.0, "lat": 38.96596316666667, "bike_id": "13b62c0d5c764918b3e9194ad620eb0b", "type": "electric_bike", "is_reserved": 0, "lon": -77.0280265}, {"fusion_lat": 0.0, "name": "b788d27b36156eaa9962c401188d7d30", "is_disabled": 0, "rental_uris": {"android": "https://dc.lft.to/lastmile_qr_scan", "ios": "https://dc.lft.to/lastmile_qr_scan"}, "fusion_lon": 0.0, "lat": 38.942887999999996, "bike_id": "b788d27b36156eaa9962c401188d7d30", "type": "electric_scooter", "is_reserved": 0, "lon": -77.02161616666666}, {"fusion_lat": 0.0, "name": "a3e6be3264da9ea5c66bfab117002400", "is_disabled": 0, "rental_uris": {"android": "https://dc.lft.to/lastmile_qr_scan", "ios": "https://dc.lft.to/lastmile_qr_scan"}, "fusion_lon": 0.0, "lat": 38.90036383333333, "bike_id": "a3e6be3264da9ea5c66bfab117002400", "type": "electric_scooter", "is_reserved": 0, "lon": -76.99249366666666}, {"fusion_lat": 0.0, "name": "3108b60bd713d810bb0e2c38f4b2b29e", "is_disabled": 0, "rental_uris": {"android": "https://dc.lft.to/lastmile_qr_scan", "ios": "https://dc.lft.to/lastmile_qr_scan"}, "fusion_lon": 0.0, "lat": 38.90500633333333, "bike_id": "3108b60bd713d810bb0e2c38f4b2b29e", "type": "electric_scooter", "is_reserved": 0, "lon": -76.979539}, {"fusion_lat": 0.0, "name": "b16542662511a830f1b85cd82822e4b0", "is_disabled": 0, "rental_uris": {"android": "https://dc.lft.to/lastmile_qr_scan", "ios": "https://dc.lft.to/lastmile_qr_scan"}, "fusion_lon": 0.0, "lat": 38.907248833333334, "bike_id": "b16542662511a830f1b85cd82822e4b0", "type": "electric_scooter", "is_reserved": 0, "lon": -77.03455216666667}, {"fusion_lat": 0.0, "name": "519d10a16275f3a46e57834a417e9b13", "is_disabled": 0, "rental_uris": {"android": "https://dc.lft.to/lastmile_qr_scan", "ios": "https://dc.lft.to/lastmile_qr_scan"}, "fusion_lon": 0.0, "lat": 38.920535666666666, "bike_id": "519d10a16275f3a46e57834a417e9b13", "type": "electric_scooter", "is_reserved": 0, "lon": -77.02369283333333}, {"fusion_lat": 0.0, "name": "9b42b81ba2561a11fdb75d21b5545383", "is_disabled": 0, "rental_uris": {"android": "https://dc.lft.to/lastmile_qr_scan", "ios": "https://dc.lft.to/lastmile_qr_scan"}, "fusion_lon": 0.0, "lat": 38.9117675, "bike_id": "9b42b81ba2561a11fdb75d21b5545383", "type": "electric_scooter", "is_reserved": 0, "lon": -77.06862783333334}, {"fusion_lat": 0.0, "name": "c82e21488620dfe2b628e7b30e031f65", "is_disabled": 0, "rental_uris": {"android": "https://dc.lft.to/lastmile_qr_scan", "ios": "https://dc.lft.to/lastmile_qr_scan"}, "fusion_lon": 0.0, "lat": 38.92657883333333, "bike_id": "c82e21488620dfe2b628e7b30e031f65", "type": "electric_scooter", "is_reserved": 0, "lon": -77.02424233333333}, {"fusion_lat": 0.0, "name": "f2f3c36b2ff1af40baae2c634ddf9b85", "is_disabled": 0, "rental_uris": {"android": "https://dc.lft.to/lastmile_qr_scan", "ios": "https://dc.lft.to/lastmile_qr_scan"}, "fusion_lon": 0.0, "lat": 38.941859666666666, "bike_id": "f2f3c36b2ff1af40baae2c634ddf9b85", "type": "electric_scooter", "is_reserved": 0, "lon": -77.0240395}, {"fusion_lat": 0.0, "name": "323cab888b0dde52e5225130622347ce", "is_disabled": 0, "rental_uris": {"android": "https://dc.lft.to/lastmile_qr_scan", "ios": "https://dc.lft.to/lastmile_qr_scan"}, "fusion_lon": 0.0, "lat": 38.86137216666667, "bike_id": "323cab888b0dde52e5225130622347ce", "type": "electric_bike", "is_reserved": 0, "lon": -76.97166816666666}, {"fusion_lat": 0.0, "name": "2779d4c5d290a507092b4e4b670df24b", "is_disabled": 0, "rental_uris": {"android": "https://dc.lft.to/lastmile_qr_scan", "ios": "https://dc.lft.to/lastmile_qr_scan"}, "fusion_lon": 0.0, "lat": 38.93460666666667, "bike_id": "2779d4c5d290a507092b4e4b670df24b", "type": "electric_scooter", "is_reserved": 0, "lon": -77.05779533333333}, {"fusion_lat": 0.0, "name": "e955b581c6fae01e97548421cad43a04", "is_disabled": 0, "rental_uris": {"android": "https://dc.lft.to/lastmile_qr_scan", "ios": "https://dc.lft.to/lastmile_qr_scan"}, "fusion_lon": 0.0, "lat": 38.935300833333336, "bike_id": "e955b581c6fae01e97548421cad43a04", "type": "electric_scooter", "is_reserved": 0, "lon": -77.023429}, {"fusion_lat": 0.0, "name": "c81f4b51a6ab4e54b31a7c84d37f8368", "is_disabled": 0, "rental_uris": {"android": "https://dc.lft.to/lastmile_qr_scan", "ios": "https://dc.lft.to/lastmile_qr_scan"}, "fusion_lon": 0.0, "lat": 38.9122535, "bike_id": "c81f4b51a6ab4e54b31a7c84d37f8368", "type": "electric_scooter", "is_reserved": 0, "lon": -77.04873083333334}, {"fusion_lat": 0.0, "name": "db2ade5e6a5f1b40b377f09c29f18a3e", "is_disabled": 0, "rental_uris": {"android": "https://dc.lft.to/lastmile_qr_scan", "ios": "https://dc.lft.to/lastmile_qr_scan"}, "fusion_lon": 0.0, "lat": 38.9234475, "bike_id": "db2ade5e6a5f1b40b377f09c29f18a3e", "type": "electric_scooter", "is_reserved": 0, "lon": -77.0244005}, {"fusion_lat": 0.0, "name": "711d438b73dfc2a2b6b612ab4b7c5034", "is_disabled": 0, "rental_uris": {"android": "https://dc.lft.to/lastmile_qr_scan", "ios": "https://dc.lft.to/lastmile_qr_scan"}, "fusion_lon": 0.0, "lat": 38.909697, "bike_id": "711d438b73dfc2a2b6b612ab4b7c5034", "type": "electric_scooter", "is_reserved": 0, "lon": -77.03858816666667}, {"fusion_lat": 0.0, "name": "0ba3d7104fd8a6e0975a0dd338690bbf", "is_disabled": 0, "rental_uris": {"android": "https://dc.lft.to/lastmile_qr_scan", "ios": "https://dc.lft.to/lastmile_qr_scan"}, "fusion_lon": 0.0, "lat": 38.933667166666666, "bike_id": "0ba3d7104fd8a6e0975a0dd338690bbf", "type": "electric_scooter", "is_reserved": 0, "lon": -77.03082016666667}, {"fusion_lat": 0.0, "name": "43bf9148b94a8ea5b630e93e349ff643", "is_disabled": 0, "rental_uris": {"android": "https://dc.lft.to/lastmile_qr_scan", "ios": "https://dc.lft.to/lastmile_qr_scan"}, "fusion_lon": 0.0, "lat": 38.921041, "bike_id": "43bf9148b94a8ea5b630e93e349ff643", "type": "electric_scooter", "is_reserved": 0, "lon": -77.04675733333333}, {"fusion_lat": 0.0, "name": "77c7d06774578ed4f87c73e673562dd0", "is_disabled": 0, "rental_uris": {"android": "https://dc.lft.to/lastmile_qr_scan", "ios": "https://dc.lft.to/lastmile_qr_scan"}, "fusion_lon": 0.0, "lat": 38.92455483333333, "bike_id": "77c7d06774578ed4f87c73e673562dd0", "type": "electric_scooter", "is_reserved": 0, "lon": -77.02407283333334}, {"fusion_lat": 0.0, "name": "123f1a4a724288c99f29eb4510ce45eb", "is_disabled": 0, "rental_uris": {"android": "https://dc.lft.to/lastmile_qr_scan", "ios": "https://dc.lft.to/lastmile_qr_scan"}, "fusion_lon": 0.0, "lat": 38.9112755, "bike_id": "123f1a4a724288c99f29eb4510ce45eb", "type": "electric_scooter", "is_reserved": 0, "lon": -77.0219795}, {"fusion_lat": 0.0, "name": "770953a5531755db46ab8fc1473f0503", "is_disabled": 0, "rental_uris": {"android": "https://dc.lft.to/lastmile_qr_scan", "ios": "https://dc.lft.to/lastmile_qr_scan"}, "fusion_lon": 0.0, "lat": 38.908748833333334, "bike_id": "770953a5531755db46ab8fc1473f0503", "type": "electric_scooter", "is_reserved": 0, "lon": -77.04410066666667}, {"fusion_lat": 0.0, "name": "b35db7442d4728f3db921dc65a17cc7d", "is_disabled": 0, "rental_uris": {"android": "https://dc.lft.to/lastmile_qr_scan", "ios": "https://dc.lft.to/lastmile_qr_scan"}, "fusion_lon": 0.0, "lat": 38.920178166666666, "bike_id": "b35db7442d4728f3db921dc65a17cc7d", "type": "electric_scooter", "is_reserved": 0, "lon": -77.03058833333333}, {"fusion_lat": 0.0, "name": "cc487743b98fc7c09d59ef2157558411", "is_disabled": 0, "rental_uris": {"android": "https://dc.lft.to/lastmile_qr_scan", "ios": "https://dc.lft.to/lastmile_qr_scan"}, "fusion_lon": 0.0, "lat": 38.8427145, "bike_id": "cc487743b98fc7c09d59ef2157558411", "type": "electric_bike", "is_reserved": 0, "lon": -76.98837766666666}, {"fusion_lat": 0.0, "name": "31731088cabb043182727e32c095dd3b", "is_disabled": 0, "rental_uris": {"android": "https://dc.lft.to/lastmile_qr_scan", "ios": "https://dc.lft.to/lastmile_qr_scan"}, "fusion_lon": 0.0, "lat": 38.92066033333333, "bike_id": "31731088cabb043182727e32c095dd3b", "type": "electric_scooter", "is_reserved": 0, "lon": -77.02857366666667}, {"fusion_lat": 0.0, "name": "d6c7b0e84940dee80907b063b4f60418", "is_disabled": 0, "rental_uris": {"android": "https://dc.lft.to/lastmile_qr_scan", "ios": "https://dc.lft.to/lastmile_qr_scan"}, "fusion_lon": 0.0, "lat": 38.922590666666665, "bike_id": "d6c7b0e84940dee80907b063b4f60418", "type": "electric_bike", "is_reserved": 0, "lon": -77.07031566666667}, {"fusion_lat": 0.0, "name": "91a87cc1f93ebb5b57fe984b27c3c78d", "is_disabled": 0, "rental_uris": {"android": "https://dc.lft.to/lastmile_qr_scan", "ios": "https://dc.lft.to/lastmile_qr_scan"}, "fusion_lon": 0.0, "lat": 38.91814466666666, "bike_id": "91a87cc1f93ebb5b57fe984b27c3c78d", "type": "electric_scooter", "is_reserved": 0, "lon": -77.03266083333334}, {"fusion_lat": 0.0, "name": "4dbd99e43044ad6cd9ba9ccac5c53475", "is_disabled": 0, "rental_uris": {"android": "https://dc.lft.to/lastmile_qr_scan", "ios": "https://dc.lft.to/lastmile_qr_scan"}, "fusion_lon": 0.0, "lat": 38.92077033333333, "bike_id": "4dbd99e43044ad6cd9ba9ccac5c53475", "type": "electric_scooter", "is_reserved": 0, "lon": -77.023089}, {"fusion_lat": 0.0, "name": "a80bfca0e1f8135820f4ce5bddbdf486", "is_disabled": 0, "rental_uris": {"android": "https://dc.lft.to/lastmile_qr_scan", "ios": "https://dc.lft.to/lastmile_qr_scan"}, "fusion_lon": 0.0, "lat": 38.91645916666667, "bike_id": "a80bfca0e1f8135820f4ce5bddbdf486", "type": "electric_scooter", "is_reserved": 0, "lon": -77.04189433333333}, {"fusion_lat": 0.0, "name": "9e9b82af32234b74bbc9aaeb5eadd8e9", "is_disabled": 0, "rental_uris": {"android": "https://dc.lft.to/lastmile_qr_scan", "ios": "https://dc.lft.to/lastmile_qr_scan"}, "fusion_lon": 0.0, "lat": 38.920944666666664, "bike_id": "9e9b82af32234b74bbc9aaeb5eadd8e9", "type": "electric_scooter", "is_reserved": 0, "lon": -77.0394525}, {"fusion_lat": 0.0, "name": "c8be1b56faca93c9600d7e79257d559d", "is_disabled": 0, "rental_uris": {"android": "https://dc.lft.to/lastmile_qr_scan", "ios": "https://dc.lft.to/lastmile_qr_scan"}, "fusion_lon": 0.0, "lat": 38.897363, "bike_id": "c8be1b56faca93c9600d7e79257d559d", "type": "electric_scooter", "is_reserved": 0, "lon": -77.03193566666667}, {"fusion_lat": 0.0, "name": "dcbe6cb1df1a971a24afb3d6e2609e01", "is_disabled": 0, "rental_uris": {"android": "https://dc.lft.to/lastmile_qr_scan", "ios": "https://dc.lft.to/lastmile_qr_scan"}, "fusion_lon": 0.0, "lat": 38.93126566666667, "bike_id": "dcbe6cb1df1a971a24afb3d6e2609e01", "type": "electric_scooter", "is_reserved": 0, "lon": -77.021975}, {"fusion_lat": 0.0, "name": "77425dd9e6463ee4857bb61de3091011", "is_disabled": 0, "rental_uris": {"android": "https://dc.lft.to/lastmile_qr_scan", "ios": "https://dc.lft.to/lastmile_qr_scan"}, "fusion_lon": 0.0, "lat": 38.90552, "bike_id": "77425dd9e6463ee4857bb61de3091011", "type": "electric_scooter", "is_reserved": 0, "lon": -77.00588083333334}, {"fusion_lat": 0.0, "name": "12a08c59e6ed08f681de7dc517c33cc5", "is_disabled": 0, "rental_uris": {"android": "https://dc.lft.to/lastmile_qr_scan", "ios": "https://dc.lft.to/lastmile_qr_scan"}, "fusion_lon": 0.0, "lat": 38.91332833333333, "bike_id": "12a08c59e6ed08f681de7dc517c33cc5", "type": "electric_scooter", "is_reserved": 0, "lon": -77.04320666666666}, {"fusion_lat": 0.0, "name": "eeb5ef86815ad1d7471b67c3682bf7b0", "is_disabled": 0, "rental_uris": {"android": "https://dc.lft.to/lastmile_qr_scan", "ios": "https://dc.lft.to/lastmile_qr_scan"}, "fusion_lon": 0.0, "lat": 38.9254905, "bike_id": "eeb5ef86815ad1d7471b67c3682bf7b0", "type": "electric_scooter", "is_reserved": 0, "lon": -76.98296283333333}, {"fusion_lat": 0.0, "name": "011154768e7a4851918fc68cb6587172", "is_disabled": 0, "rental_uris": {"android": "https://dc.lft.to/lastmile_qr_scan", "ios": "https://dc.lft.to/lastmile_qr_scan"}, "fusion_lon": 0.0, "lat": 38.901967666666664, "bike_id": "011154768e7a4851918fc68cb6587172", "type": "electric_scooter", "is_reserved": 0, "lon": -77.015993}, {"fusion_lat": 0.0, "name": "eee0b792d991f0cfcaa91cae456cdfe8", "is_disabled": 0, "rental_uris": {"android": "https://dc.lft.to/lastmile_qr_scan", "ios": "https://dc.lft.to/lastmile_qr_scan"}, "fusion_lon": 0.0, "lat": 38.91662383333333, "bike_id": "eee0b792d991f0cfcaa91cae456cdfe8", "type": "electric_scooter", "is_reserved": 0, "lon": -77.03847766666667}, {"fusion_lat": 0.0, "name": "7bfb7712b90873b37fe3a620f6d217fa", "is_disabled": 0, "rental_uris": {"android": "https://dc.lft.to/lastmile_qr_scan", "ios": "https://dc.lft.to/lastmile_qr_scan"}, "fusion_lon": 0.0, "lat": 38.92678, "bike_id": "7bfb7712b90873b37fe3a620f6d217fa", "type": "electric_scooter", "is_reserved": 0, "lon": -77.03141666666667}, {"fusion_lat": 0.0, "name": "5fdeab76cc5662b7f20f12ddf0f8857a", "is_disabled": 0, "rental_uris": {"android": "https://dc.lft.to/lastmile_qr_scan", "ios": "https://dc.lft.to/lastmile_qr_scan"}, "fusion_lon": 0.0, "lat": 38.9068885, "bike_id": "5fdeab76cc5662b7f20f12ddf0f8857a", "type": "electric_scooter", "is_reserved": 0, "lon": -77.07471016666666}, {"fusion_lat": 0.0, "name": "ce5e9cd25df842117ee7a64761470751", "is_disabled": 0, "rental_uris": {"android": "https://dc.lft.to/lastmile_qr_scan", "ios": "https://dc.lft.to/lastmile_qr_scan"}, "fusion_lon": 0.0, "lat": 38.893503333333335, "bike_id": "ce5e9cd25df842117ee7a64761470751", "type": "electric_scooter", "is_reserved": 0, "lon": -77.02792733333334}, {"fusion_lat": 0.0, "name": "87138636fc3696048fe26b5c6a191be5", "is_disabled": 0, "rental_uris": {"android": "https://dc.lft.to/lastmile_qr_scan", "ios": "https://dc.lft.to/lastmile_qr_scan"}, "fusion_lon": 0.0, "lat": 38.941634, "bike_id": "87138636fc3696048fe26b5c6a191be5", "type": "electric_scooter", "is_reserved": 0, "lon": -77.025127}, {"fusion_lat": 0.0, "name": "3e6785760d4f6192cef6de89a751d835", "is_disabled": 0, "rental_uris": {"android": "https://dc.lft.to/lastmile_qr_scan", "ios": "https://dc.lft.to/lastmile_qr_scan"}, "fusion_lon": 0.0, "lat": 38.907325666666665, "bike_id": "3e6785760d4f6192cef6de89a751d835", "type": "electric_scooter", "is_reserved": 0, "lon": -77.02967866666667}, {"fusion_lat": 0.0, "name": "ae5baaa7c4842ecc9afa16b0b785f356", "is_disabled": 0, "rental_uris": {"android": "https://dc.lft.to/lastmile_qr_scan", "ios": "https://dc.lft.to/lastmile_qr_scan"}, "fusion_lon": 0.0, "lat": 38.930937166666666, "bike_id": "ae5baaa7c4842ecc9afa16b0b785f356", "type": "electric_scooter", "is_reserved": 0, "lon": -77.02394633333333}, {"fusion_lat": 0.0, "name": "09e9c79cee482c4202ab918e8331425a", "is_disabled": 0, "rental_uris": {"android": "https://dc.lft.to/lastmile_qr_scan", "ios": "https://dc.lft.to/lastmile_qr_scan"}, "fusion_lon": 0.0, "lat": 38.8663505, "bike_id": "09e9c79cee482c4202ab918e8331425a", "type": "electric_scooter", "is_reserved": 0, "lon": -76.98303333333334}, {"fusion_lat": 0.0, "name": "941ad91afadf76682248d5caf58c0c56", "is_disabled": 0, "rental_uris": {"android": "https://dc.lft.to/lastmile_qr_scan", "ios": "https://dc.lft.to/lastmile_qr_scan"}, "fusion_lon": 0.0, "lat": 38.88812583333333, "bike_id": "941ad91afadf76682248d5caf58c0c56", "type": "electric_scooter", "is_reserved": 0, "lon": -76.98354983333333}, {"fusion_lat": 0.0, "name": "bb4982d0eade0964c171f29925ecc038", "is_disabled": 0, "rental_uris": {"android": "https://dc.lft.to/lastmile_qr_scan", "ios": "https://dc.lft.to/lastmile_qr_scan"}, "fusion_lon": 0.0, "lat": 38.9198035, "bike_id": "bb4982d0eade0964c171f29925ecc038", "type": "electric_scooter", "is_reserved": 0, "lon": -77.023607}, {"fusion_lat": 0.0, "name": "373e83ff991d54aed60ba2689a3f5bd1", "is_disabled": 0, "rental_uris": {"android": "https://dc.lft.to/lastmile_qr_scan", "ios": "https://dc.lft.to/lastmile_qr_scan"}, "fusion_lon": 0.0, "lat": 38.95751816666667, "bike_id": "373e83ff991d54aed60ba2689a3f5bd1", "type": "electric_bike", "is_reserved": 0, "lon": -76.98085666666667}, {"fusion_lat": 0.0, "name": "c9a69c23205ca67b59bd882e6bd423af", "is_disabled": 0, "rental_uris": {"android": "https://dc.lft.to/lastmile_qr_scan", "ios": "https://dc.lft.to/lastmile_qr_scan"}, "fusion_lon": 0.0, "lat": 38.91973433333333, "bike_id": "c9a69c23205ca67b59bd882e6bd423af", "type": "electric_scooter", "is_reserved": 0, "lon": -77.01850833333333}, {"fusion_lat": 0.0, "name": "f69d9a970d0d30241cfd1fa582e0956a", "is_disabled": 0, "rental_uris": {"android": "https://dc.lft.to/lastmile_qr_scan", "ios": "https://dc.lft.to/lastmile_qr_scan"}, "fusion_lon": 0.0, "lat": 38.9013, "bike_id": "f69d9a970d0d30241cfd1fa582e0956a", "type": "electric_scooter", "is_reserved": 0, "lon": -77.00322233333333}, {"fusion_lat": 0.0, "name": "d3bd3493dda668c88c483457d22634f6", "is_disabled": 0, "rental_uris": {"android": "https://dc.lft.to/lastmile_qr_scan", "ios": "https://dc.lft.to/lastmile_qr_scan"}, "fusion_lon": 0.0, "lat": 38.91215116666667, "bike_id": "d3bd3493dda668c88c483457d22634f6", "type": "electric_scooter", "is_reserved": 0, "lon": -77.0318065}, {"fusion_lat": 0.0, "name": "84f3559a68710bceece903fd6d170bcc", "is_disabled": 0, "rental_uris": {"android": "https://dc.lft.to/lastmile_qr_scan", "ios": "https://dc.lft.to/lastmile_qr_scan"}, "fusion_lon": 0.0, "lat": 38.9323605, "bike_id": "84f3559a68710bceece903fd6d170bcc", "type": "electric_bike", "is_reserved": 0, "lon": -76.974185}, {"fusion_lat": 0.0, "name": "c5077227c4b34d285f2aadf33bf05780", "is_disabled": 0, "rental_uris": {"android": "https://dc.lft.to/lastmile_qr_scan", "ios": "https://dc.lft.to/lastmile_qr_scan"}, "fusion_lon": 0.0, "lat": 38.898867333333335, "bike_id": "c5077227c4b34d285f2aadf33bf05780", "type": "electric_scooter", "is_reserved": 0, "lon": -77.0328695}, {"fusion_lat": 0.0, "name": "bb94eeb775b6f97c5ff4eaef648059b1", "is_disabled": 0, "rental_uris": {"android": "https://dc.lft.to/lastmile_qr_scan", "ios": "https://dc.lft.to/lastmile_qr_scan"}, "fusion_lon": 0.0, "lat": 38.899004833333336, "bike_id": "bb94eeb775b6f97c5ff4eaef648059b1", "type": "electric_scooter", "is_reserved": 0, "lon": -76.933538}, {"fusion_lat": 0.0, "name": "ab1d4ae51eaab57a912b0682738f9280", "is_disabled": 0, "rental_uris": {"android": "https://dc.lft.to/lastmile_qr_scan", "ios": "https://dc.lft.to/lastmile_qr_scan"}, "fusion_lon": 0.0, "lat": 38.926442, "bike_id": "ab1d4ae51eaab57a912b0682738f9280", "type": "electric_scooter", "is_reserved": 0, "lon": -77.02706116666667}, {"fusion_lat": 0.0, "name": "e0b60b35412991e0a264f50c796aec9e", "is_disabled": 0, "rental_uris": {"android": "https://dc.lft.to/lastmile_qr_scan", "ios": "https://dc.lft.to/lastmile_qr_scan"}, "fusion_lon": 0.0, "lat": 38.920341, "bike_id": "e0b60b35412991e0a264f50c796aec9e", "type": "electric_scooter", "is_reserved": 0, "lon": -77.0481735}, {"fusion_lat": 0.0, "name": "27e7f410f21b228bfe405b6b8bfdb282", "is_disabled": 0, "rental_uris": {"android": "https://dc.lft.to/lastmile_qr_scan", "ios": "https://dc.lft.to/lastmile_qr_scan"}, "fusion_lon": 0.0, "lat": 38.896422666666666, "bike_id": "27e7f410f21b228bfe405b6b8bfdb282", "type": "electric_scooter", "is_reserved": 0, "lon": -77.046587}, {"fusion_lat": 0.0, "name": "c09d4e30d3dd822eefee10e3e0d36d8d", "is_disabled": 0, "rental_uris": {"android": "https://dc.lft.to/lastmile_qr_scan", "ios": "https://dc.lft.to/lastmile_qr_scan"}, "fusion_lon": 0.0, "lat": 38.9290425, "bike_id": "c09d4e30d3dd822eefee10e3e0d36d8d", "type": "electric_scooter", "is_reserved": 0, "lon": -77.0640475}, {"fusion_lat": 0.0, "name": "a750c3b7c7854b044724729f7fed7a80", "is_disabled": 0, "rental_uris": {"android": "https://dc.lft.to/lastmile_qr_scan", "ios": "https://dc.lft.to/lastmile_qr_scan"}, "fusion_lon": 0.0, "lat": 38.928607666666664, "bike_id": "a750c3b7c7854b044724729f7fed7a80", "type": "electric_scooter", "is_reserved": 0, "lon": -77.03110183333334}, {"fusion_lat": 0.0, "name": "ec232fdedbc1ea1f6a738bca70a5277c", "is_disabled": 0, "rental_uris": {"android": "https://dc.lft.to/lastmile_qr_scan", "ios": "https://dc.lft.to/lastmile_qr_scan"}, "fusion_lon": 0.0, "lat": 38.95972166666667, "bike_id": "ec232fdedbc1ea1f6a738bca70a5277c", "type": "electric_bike", "is_reserved": 0, "lon": -76.981607}, {"fusion_lat": 0.0, "name": "80f8742232886ab5cab60c225bdd1954", "is_disabled": 0, "rental_uris": {"android": "https://dc.lft.to/lastmile_qr_scan", "ios": "https://dc.lft.to/lastmile_qr_scan"}, "fusion_lon": 0.0, "lat": 38.90406433333333, "bike_id": "80f8742232886ab5cab60c225bdd1954", "type": "electric_scooter", "is_reserved": 0, "lon": -76.97331416666667}, {"fusion_lat": 0.0, "name": "f62c3a618510a837e54d4ab9434398cb", "is_disabled": 0, "rental_uris": {"android": "https://dc.lft.to/lastmile_qr_scan", "ios": "https://dc.lft.to/lastmile_qr_scan"}, "fusion_lon": 0.0, "lat": 38.907774, "bike_id": "f62c3a618510a837e54d4ab9434398cb", "type": "electric_scooter", "is_reserved": 0, "lon": -77.03858566666666}, {"fusion_lat": 0.0, "name": "86c988944d985cc4c84ac33520f71a6f", "is_disabled": 0, "rental_uris": {"android": "https://dc.lft.to/lastmile_qr_scan", "ios": "https://dc.lft.to/lastmile_qr_scan"}, "fusion_lon": 0.0, "lat": 38.931872166666665, "bike_id": "86c988944d985cc4c84ac33520f71a6f", "type": "electric_scooter", "is_reserved": 0, "lon": -77.0430045}, {"fusion_lat": 0.0, "name": "490bdb559eb4b920fe6b97ba3aa6301c", "is_disabled": 0, "rental_uris": {"android": "https://dc.lft.to/lastmile_qr_scan", "ios": "https://dc.lft.to/lastmile_qr_scan"}, "fusion_lon": 0.0, "lat": 38.89715533333333, "bike_id": "490bdb559eb4b920fe6b97ba3aa6301c", "type": "electric_scooter", "is_reserved": 0, "lon": -77.00794266666666}, {"fusion_lat": 0.0, "name": "cee30ef2841da9afa315a9ed410dbfa5", "is_disabled": 0, "rental_uris": {"android": "https://dc.lft.to/lastmile_qr_scan", "ios": "https://dc.lft.to/lastmile_qr_scan"}, "fusion_lon": 0.0, "lat": 38.90425466666667, "bike_id": "cee30ef2841da9afa315a9ed410dbfa5", "type": "electric_scooter", "is_reserved": 0, "lon": -76.9817665}, {"fusion_lat": 0.0, "name": "1ab61e30df1246382598b5206e7f4324", "is_disabled": 0, "rental_uris": {"android": "https://dc.lft.to/lastmile_qr_scan", "ios": "https://dc.lft.to/lastmile_qr_scan"}, "fusion_lon": 0.0, "lat": 38.866792333333336, "bike_id": "1ab61e30df1246382598b5206e7f4324", "type": "electric_scooter", "is_reserved": 0, "lon": -76.9857}, {"fusion_lat": 0.0, "name": "abd8b6ddd0802c66019bc1080af635ed", "is_disabled": 0, "rental_uris": {"android": "https://dc.lft.to/lastmile_qr_scan", "ios": "https://dc.lft.to/lastmile_qr_scan"}, "fusion_lon": 0.0, "lat": 38.885525, "bike_id": "abd8b6ddd0802c66019bc1080af635ed", "type": "electric_scooter", "is_reserved": 0, "lon": -76.9978065}, {"fusion_lat": 0.0, "name": "1cf8508bf31ac4b7876e918a05b8a2c0", "is_disabled": 0, "rental_uris": {"android": "https://dc.lft.to/lastmile_qr_scan", "ios": "https://dc.lft.to/lastmile_qr_scan"}, "fusion_lon": 0.0, "lat": 38.9199135, "bike_id": "1cf8508bf31ac4b7876e918a05b8a2c0", "type": "electric_scooter", "is_reserved": 0, "lon": -77.02379916666666}, {"fusion_lat": 0.0, "name": "d9a94f779b52a495792fc5c3ac1ff23f", "is_disabled": 0, "rental_uris": {"android": "https://dc.lft.to/lastmile_qr_scan", "ios": "https://dc.lft.to/lastmile_qr_scan"}, "fusion_lon": 0.0, "lat": 38.909686666666666, "bike_id": "d9a94f779b52a495792fc5c3ac1ff23f", "type": "electric_scooter", "is_reserved": 0, "lon": -77.03859833333334}, {"fusion_lat": 0.0, "name": "b4812937f6a1aed838a3cfc632890417", "is_disabled": 0, "rental_uris": {"android": "https://dc.lft.to/lastmile_qr_scan", "ios": "https://dc.lft.to/lastmile_qr_scan"}, "fusion_lon": 0.0, "lat": 38.9243365, "bike_id": "b4812937f6a1aed838a3cfc632890417", "type": "electric_scooter", "is_reserved": 0, "lon": -77.0006595}, {"fusion_lat": 0.0, "name": "43a0103e3faa563f71d43036ffb10540", "is_disabled": 0, "rental_uris": {"android": "https://dc.lft.to/lastmile_qr_scan", "ios": "https://dc.lft.to/lastmile_qr_scan"}, "fusion_lon": 0.0, "lat": 38.917674, "bike_id": "43a0103e3faa563f71d43036ffb10540", "type": "electric_scooter", "is_reserved": 0, "lon": -77.02279816666666}, {"fusion_lat": 0.0, "name": "d80560ff037553e826a7407a72185a1a", "is_disabled": 0, "rental_uris": {"android": "https://dc.lft.to/lastmile_qr_scan", "ios": "https://dc.lft.to/lastmile_qr_scan"}, "fusion_lon": 0.0, "lat": 38.91801983333333, "bike_id": "d80560ff037553e826a7407a72185a1a", "type": "electric_scooter", "is_reserved": 0, "lon": -77.0458775}, {"fusion_lat": 0.0, "name": "1d1b39dafc21bb373dc65578313bf177", "is_disabled": 0, "rental_uris": {"android": "https://dc.lft.to/lastmile_qr_scan", "ios": "https://dc.lft.to/lastmile_qr_scan"}, "fusion_lon": 0.0, "lat": 38.87713166666666, "bike_id": "1d1b39dafc21bb373dc65578313bf177", "type": "electric_scooter", "is_reserved": 0, "lon": -77.01764783333333}, {"fusion_lat": 0.0, "name": "eb8fa3b69edcc4b63f97413a8c3c8100", "is_disabled": 0, "rental_uris": {"android": "https://dc.lft.to/lastmile_qr_scan", "ios": "https://dc.lft.to/lastmile_qr_scan"}, "fusion_lon": 0.0, "lat": 38.9233965, "bike_id": "eb8fa3b69edcc4b63f97413a8c3c8100", "type": "electric_scooter", "is_reserved": 0, "lon": -77.051295}, {"fusion_lat": 0.0, "name": "a988a2d0f6f0e16f6378a1eb0706c3e9", "is_disabled": 0, "rental_uris": {"android": "https://dc.lft.to/lastmile_qr_scan", "ios": "https://dc.lft.to/lastmile_qr_scan"}, "fusion_lon": 0.0, "lat": 38.84129566666667, "bike_id": "a988a2d0f6f0e16f6378a1eb0706c3e9", "type": "electric_bike", "is_reserved": 0, "lon": -77.06307016666666}, {"fusion_lat": 0.0, "name": "b336f549bddcd8bdcb31c4a07239a7ee", "is_disabled": 0, "rental_uris": {"android": "https://dc.lft.to/lastmile_qr_scan", "ios": "https://dc.lft.to/lastmile_qr_scan"}, "fusion_lon": 0.0, "lat": 38.8975135, "bike_id": "b336f549bddcd8bdcb31c4a07239a7ee", "type": "electric_scooter", "is_reserved": 0, "lon": -77.0238065}, {"fusion_lat": 0.0, "name": "36c2ae568f145d3c00bb02601efba4b6", "is_disabled": 0, "rental_uris": {"android": "https://dc.lft.to/lastmile_qr_scan", "ios": "https://dc.lft.to/lastmile_qr_scan"}, "fusion_lon": 0.0, "lat": 38.89837216666667, "bike_id": "36c2ae568f145d3c00bb02601efba4b6", "type": "electric_scooter", "is_reserved": 0, "lon": -77.0314415}, {"fusion_lat": 0.0, "name": "250f5f8009478c7acd7137d9fbfd7a83", "is_disabled": 0, "rental_uris": {"android": "https://dc.lft.to/lastmile_qr_scan", "ios": "https://dc.lft.to/lastmile_qr_scan"}, "fusion_lon": 0.0, "lat": 38.931210166666666, "bike_id": "250f5f8009478c7acd7137d9fbfd7a83", "type": "electric_scooter", "is_reserved": 0, "lon": -76.98441366666667}, {"fusion_lat": 0.0, "name": "37f000075b229ed22735641f064ef5a7", "is_disabled": 0, "rental_uris": {"android": "https://dc.lft.to/lastmile_qr_scan", "ios": "https://dc.lft.to/lastmile_qr_scan"}, "fusion_lon": 0.0, "lat": 38.923874833333336, "bike_id": "37f000075b229ed22735641f064ef5a7", "type": "electric_scooter", "is_reserved": 0, "lon": -77.04290516666667}, {"fusion_lat": 0.0, "name": "d3ed65262f76d228b645a5b5be48207f", "is_disabled": 0, "rental_uris": {"android": "https://dc.lft.to/lastmile_qr_scan", "ios": "https://dc.lft.to/lastmile_qr_scan"}, "fusion_lon": 0.0, "lat": 38.906261, "bike_id": "d3ed65262f76d228b645a5b5be48207f", "type": "electric_scooter", "is_reserved": 0, "lon": -77.00601233333333}, {"fusion_lat": 0.0, "name": "7d00d51e885787faea24fa2ae42aa0f9", "is_disabled": 0, "rental_uris": {"android": "https://dc.lft.to/lastmile_qr_scan", "ios": "https://dc.lft.to/lastmile_qr_scan"}, "fusion_lon": 0.0, "lat": 38.929155333333334, "bike_id": "7d00d51e885787faea24fa2ae42aa0f9", "type": "electric_scooter", "is_reserved": 0, "lon": -77.02183933333333}, {"fusion_lat": 0.0, "name": "f0580312ffd60ecd815f48167212adf6", "is_disabled": 0, "rental_uris": {"android": "https://dc.lft.to/lastmile_qr_scan", "ios": "https://dc.lft.to/lastmile_qr_scan"}, "fusion_lon": 0.0, "lat": 38.89489533333333, "bike_id": "f0580312ffd60ecd815f48167212adf6", "type": "electric_scooter", "is_reserved": 0, "lon": -77.00252683333333}, {"fusion_lat": 0.0, "name": "07cc24f6e62dbd57edc0260ffd9d1e99", "is_disabled": 0, "rental_uris": {"android": "https://dc.lft.to/lastmile_qr_scan", "ios": "https://dc.lft.to/lastmile_qr_scan"}, "fusion_lon": 0.0, "lat": 38.89222133333333, "bike_id": "07cc24f6e62dbd57edc0260ffd9d1e99", "type": "electric_scooter", "is_reserved": 0, "lon": -77.04502216666667}, {"fusion_lat": 0.0, "name": "5e4673ceb6dc82164525f777e71a6edc", "is_disabled": 0, "rental_uris": {"android": "https://dc.lft.to/lastmile_qr_scan", "ios": "https://dc.lft.to/lastmile_qr_scan"}, "fusion_lon": 0.0, "lat": 38.942894833333334, "bike_id": "5e4673ceb6dc82164525f777e71a6edc", "type": "electric_scooter", "is_reserved": 0, "lon": -77.02172766666666}, {"fusion_lat": 0.0, "name": "8807f14ddbe72c2c5b9f22b264035289", "is_disabled": 0, "rental_uris": {"android": "https://dc.lft.to/lastmile_qr_scan", "ios": "https://dc.lft.to/lastmile_qr_scan"}, "fusion_lon": 0.0, "lat": 38.8975385, "bike_id": "8807f14ddbe72c2c5b9f22b264035289", "type": "electric_scooter", "is_reserved": 0, "lon": -77.03308566666666}, {"fusion_lat": 0.0, "name": "007cb4b973d7804c41467b0144f4a658", "is_disabled": 0, "rental_uris": {"android": "https://dc.lft.to/lastmile_qr_scan", "ios": "https://dc.lft.to/lastmile_qr_scan"}, "fusion_lon": 0.0, "lat": 38.93399816666667, "bike_id": "007cb4b973d7804c41467b0144f4a658", "type": "electric_scooter", "is_reserved": 0, "lon": -77.02841583333333}, {"fusion_lat": 0.0, "name": "d62644a370095bc9881e21e3425e55fe", "is_disabled": 0, "rental_uris": {"android": "https://dc.lft.to/lastmile_qr_scan", "ios": "https://dc.lft.to/lastmile_qr_scan"}, "fusion_lon": 0.0, "lat": 38.89962516666667, "bike_id": "d62644a370095bc9881e21e3425e55fe", "type": "electric_scooter", "is_reserved": 0, "lon": -76.98156233333333}, {"fusion_lat": 0.0, "name": "a029e02eb10063078dfaa03b131d149d", "is_disabled": 0, "rental_uris": {"android": "https://dc.lft.to/lastmile_qr_scan", "ios": "https://dc.lft.to/lastmile_qr_scan"}, "fusion_lon": 0.0, "lat": 38.90256266666667, "bike_id": "a029e02eb10063078dfaa03b131d149d", "type": "electric_scooter", "is_reserved": 0, "lon": -77.01752366666666}, {"fusion_lat": 0.0, "name": "b955a60a8f17c7f6b9385d8d5e45d8af", "is_disabled": 0, "rental_uris": {"android": "https://dc.lft.to/lastmile_qr_scan", "ios": "https://dc.lft.to/lastmile_qr_scan"}, "fusion_lon": 0.0, "lat": 38.95290833333333, "bike_id": "b955a60a8f17c7f6b9385d8d5e45d8af", "type": "electric_bike", "is_reserved": 0, "lon": -76.999782}, {"fusion_lat": 0.0, "name": "09ebb7f97e5f87b9908211d489500110", "is_disabled": 0, "rental_uris": {"android": "https://dc.lft.to/lastmile_qr_scan", "ios": "https://dc.lft.to/lastmile_qr_scan"}, "fusion_lon": 0.0, "lat": 38.90952433333333, "bike_id": "09ebb7f97e5f87b9908211d489500110", "type": "electric_scooter", "is_reserved": 0, "lon": -76.98532233333333}, {"fusion_lat": 0.0, "name": "3d3171ad31bc3242a848ba631d6e2119", "is_disabled": 0, "rental_uris": {"android": "https://dc.lft.to/lastmile_qr_scan", "ios": "https://dc.lft.to/lastmile_qr_scan"}, "fusion_lon": 0.0, "lat": 38.90385416666667, "bike_id": "3d3171ad31bc3242a848ba631d6e2119", "type": "electric_scooter", "is_reserved": 0, "lon": -76.990151}, {"fusion_lat": 0.0, "name": "dde358fca17da191116fe25e1c1cf4e5", "is_disabled": 0, "rental_uris": {"android": "https://dc.lft.to/lastmile_qr_scan", "ios": "https://dc.lft.to/lastmile_qr_scan"}, "fusion_lon": 0.0, "lat": 38.9002275, "bike_id": "dde358fca17da191116fe25e1c1cf4e5", "type": "electric_scooter", "is_reserved": 0, "lon": -76.99856883333334}, {"fusion_lat": 0.0, "name": "6ef6f5b6dfca77c919d2a5ee5569547d", "is_disabled": 0, "rental_uris": {"android": "https://dc.lft.to/lastmile_qr_scan", "ios": "https://dc.lft.to/lastmile_qr_scan"}, "fusion_lon": 0.0, "lat": 38.889878, "bike_id": "6ef6f5b6dfca77c919d2a5ee5569547d", "type": "electric_scooter", "is_reserved": 0, "lon": -76.987343}, {"fusion_lat": 0.0, "name": "9d285ef0dd33772c3785470d44f57a3e", "is_disabled": 0, "rental_uris": {"android": "https://dc.lft.to/lastmile_qr_scan", "ios": "https://dc.lft.to/lastmile_qr_scan"}, "fusion_lon": 0.0, "lat": 38.883238666666664, "bike_id": "9d285ef0dd33772c3785470d44f57a3e", "type": "electric_scooter", "is_reserved": 0, "lon": -77.017771}, {"fusion_lat": 0.0, "name": "b9e22a01c521ec753075dbb0658d430c", "is_disabled": 0, "rental_uris": {"android": "https://dc.lft.to/lastmile_qr_scan", "ios": "https://dc.lft.to/lastmile_qr_scan"}, "fusion_lon": 0.0, "lat": 38.91563333333333, "bike_id": "b9e22a01c521ec753075dbb0658d430c", "type": "electric_scooter", "is_reserved": 0, "lon": -77.03153}, {"fusion_lat": 0.0, "name": "1cf1269c20e30b0b0876a578ec229c6e", "is_disabled": 0, "rental_uris": {"android": "https://dc.lft.to/lastmile_qr_scan", "ios": "https://dc.lft.to/lastmile_qr_scan"}, "fusion_lon": 0.0, "lat": 38.90571116666667, "bike_id": "1cf1269c20e30b0b0876a578ec229c6e", "type": "electric_scooter", "is_reserved": 0, "lon": -77.02204116666667}, {"fusion_lat": 0.0, "name": "e2f7dec5ff83cdb3e9982b67cd0fc6ec", "is_disabled": 0, "rental_uris": {"android": "https://dc.lft.to/lastmile_qr_scan", "ios": "https://dc.lft.to/lastmile_qr_scan"}, "fusion_lon": 0.0, "lat": 38.88505133333334, "bike_id": "e2f7dec5ff83cdb3e9982b67cd0fc6ec", "type": "electric_scooter", "is_reserved": 0, "lon": -77.0209265}, {"fusion_lat": 0.0, "name": "6b6bf76c973599efac298a940a0ff6ca", "is_disabled": 0, "rental_uris": {"android": "https://dc.lft.to/lastmile_qr_scan", "ios": "https://dc.lft.to/lastmile_qr_scan"}, "fusion_lon": 0.0, "lat": 38.87286866666667, "bike_id": "6b6bf76c973599efac298a940a0ff6ca", "type": "electric_scooter", "is_reserved": 0, "lon": -77.009819}, {"fusion_lat": 0.0, "name": "1bb35ad607b4cee5fea6bcd48cf2eb41", "is_disabled": 0, "rental_uris": {"android": "https://dc.lft.to/lastmile_qr_scan", "ios": "https://dc.lft.to/lastmile_qr_scan"}, "fusion_lon": 0.0, "lat": 38.92709333333333, "bike_id": "1bb35ad607b4cee5fea6bcd48cf2eb41", "type": "electric_scooter", "is_reserved": 0, "lon": -77.02088333333333}, {"fusion_lat": 0.0, "name": "1a0def979fd03d51498a588788fc871a", "is_disabled": 0, "rental_uris": {"android": "https://dc.lft.to/lastmile_qr_scan", "ios": "https://dc.lft.to/lastmile_qr_scan"}, "fusion_lon": 0.0, "lat": 38.939415833333335, "bike_id": "1a0def979fd03d51498a588788fc871a", "type": "electric_scooter", "is_reserved": 0, "lon": -77.03314533333334}, {"fusion_lat": 0.0, "name": "7873cbf3b21a944f7f89b951df076644", "is_disabled": 0, "rental_uris": {"android": "https://dc.lft.to/lastmile_qr_scan", "ios": "https://dc.lft.to/lastmile_qr_scan"}, "fusion_lon": 0.0, "lat": 38.9093025, "bike_id": "7873cbf3b21a944f7f89b951df076644", "type": "electric_scooter", "is_reserved": 0, "lon": -77.02128133333333}, {"fusion_lat": 0.0, "name": "82bf05cce55a87de08c816958de633be", "is_disabled": 0, "rental_uris": {"android": "https://dc.lft.to/lastmile_qr_scan", "ios": "https://dc.lft.to/lastmile_qr_scan"}, "fusion_lon": 0.0, "lat": 38.9326325, "bike_id": "82bf05cce55a87de08c816958de633be", "type": "electric_scooter", "is_reserved": 0, "lon": -77.02093283333333}, {"fusion_lat": 0.0, "name": "39ecc5260051a12694d895f8ed565ad6", "is_disabled": 0, "rental_uris": {"android": "https://dc.lft.to/lastmile_qr_scan", "ios": "https://dc.lft.to/lastmile_qr_scan"}, "fusion_lon": 0.0, "lat": 38.9209615, "bike_id": "39ecc5260051a12694d895f8ed565ad6", "type": "electric_scooter", "is_reserved": 0, "lon": -76.99466016666666}, {"fusion_lat": 0.0, "name": "4402721b8a79312539b31c7f7ff3fd45", "is_disabled": 0, "rental_uris": {"android": "https://dc.lft.to/lastmile_qr_scan", "ios": "https://dc.lft.to/lastmile_qr_scan"}, "fusion_lon": 0.0, "lat": 38.914689833333334, "bike_id": "4402721b8a79312539b31c7f7ff3fd45", "type": "electric_scooter", "is_reserved": 0, "lon": -77.04542533333333}, {"fusion_lat": 0.0, "name": "f9ce08965ecf6362014bbfb7ac33b9f4", "is_disabled": 0, "rental_uris": {"android": "https://dc.lft.to/lastmile_qr_scan", "ios": "https://dc.lft.to/lastmile_qr_scan"}, "fusion_lon": 0.0, "lat": 38.80450366666667, "bike_id": "f9ce08965ecf6362014bbfb7ac33b9f4", "type": "electric_bike", "is_reserved": 0, "lon": -77.0538445}, {"fusion_lat": 0.0, "name": "1fa7c60fd371b49c288453ad76f6661a", "is_disabled": 0, "rental_uris": {"android": "https://dc.lft.to/lastmile_qr_scan", "ios": "https://dc.lft.to/lastmile_qr_scan"}, "fusion_lon": 0.0, "lat": 38.89730766666667, "bike_id": "1fa7c60fd371b49c288453ad76f6661a", "type": "electric_scooter", "is_reserved": 0, "lon": -77.0461305}, {"fusion_lat": 0.0, "name": "169e2409d392a898071ff3f99977d402", "is_disabled": 0, "rental_uris": {"android": "https://dc.lft.to/lastmile_qr_scan", "ios": "https://dc.lft.to/lastmile_qr_scan"}, "fusion_lon": 0.0, "lat": 38.900232333333335, "bike_id": "169e2409d392a898071ff3f99977d402", "type": "electric_scooter", "is_reserved": 0, "lon": -77.00206566666667}, {"fusion_lat": 0.0, "name": "8936535103d0f156cc3fa781e69d95e5", "is_disabled": 0, "rental_uris": {"android": "https://dc.lft.to/lastmile_qr_scan", "ios": "https://dc.lft.to/lastmile_qr_scan"}, "fusion_lon": 0.0, "lat": 38.9273455, "bike_id": "8936535103d0f156cc3fa781e69d95e5", "type": "electric_scooter", "is_reserved": 0, "lon": -77.03421333333333}, {"fusion_lat": 0.0, "name": "cc2b0a3e831af7082392ec203c3fc9fc", "is_disabled": 0, "rental_uris": {"android": "https://dc.lft.to/lastmile_qr_scan", "ios": "https://dc.lft.to/lastmile_qr_scan"}, "fusion_lon": 0.0, "lat": 38.904052666666665, "bike_id": "cc2b0a3e831af7082392ec203c3fc9fc", "type": "electric_scooter", "is_reserved": 0, "lon": -76.97331366666667}, {"fusion_lat": 0.0, "name": "68b059e063cfe286dfd58b31ccd01287", "is_disabled": 0, "rental_uris": {"android": "https://dc.lft.to/lastmile_qr_scan", "ios": "https://dc.lft.to/lastmile_qr_scan"}, "fusion_lon": 0.0, "lat": 38.89683383333333, "bike_id": "68b059e063cfe286dfd58b31ccd01287", "type": "electric_scooter", "is_reserved": 0, "lon": -77.02948816666667}, {"fusion_lat": 0.0, "name": "a9025743bc45303591cc81896ca1e4c7", "is_disabled": 0, "rental_uris": {"android": "https://dc.lft.to/lastmile_qr_scan", "ios": "https://dc.lft.to/lastmile_qr_scan"}, "fusion_lon": 0.0, "lat": 38.88710016666667, "bike_id": "a9025743bc45303591cc81896ca1e4c7", "type": "electric_scooter", "is_reserved": 0, "lon": -77.002437}, {"fusion_lat": 0.0, "name": "979cf5dd1d013c59e06619e3cacc025b", "is_disabled": 0, "rental_uris": {"android": "https://dc.lft.to/lastmile_qr_scan", "ios": "https://dc.lft.to/lastmile_qr_scan"}, "fusion_lon": 0.0, "lat": 38.90202566666667, "bike_id": "979cf5dd1d013c59e06619e3cacc025b", "type": "electric_scooter", "is_reserved": 0, "lon": -77.0229825}, {"fusion_lat": 0.0, "name": "455f39d6748fb17f0321e094b507bf3e", "is_disabled": 0, "rental_uris": {"android": "https://dc.lft.to/lastmile_qr_scan", "ios": "https://dc.lft.to/lastmile_qr_scan"}, "fusion_lon": 0.0, "lat": 38.89689416666667, "bike_id": "455f39d6748fb17f0321e094b507bf3e", "type": "electric_scooter", "is_reserved": 0, "lon": -77.05095633333333}, {"fusion_lat": 0.0, "name": "dd84541e8f4a41450e7dbb5ea2429d64", "is_disabled": 0, "rental_uris": {"android": "https://dc.lft.to/lastmile_qr_scan", "ios": "https://dc.lft.to/lastmile_qr_scan"}, "fusion_lon": 0.0, "lat": 38.9011385, "bike_id": "dd84541e8f4a41450e7dbb5ea2429d64", "type": "electric_scooter", "is_reserved": 0, "lon": -77.05231766666667}, {"fusion_lat": 0.0, "name": "fd38afd8730ebb21377885b9741a35bc", "is_disabled": 0, "rental_uris": {"android": "https://dc.lft.to/lastmile_qr_scan", "ios": "https://dc.lft.to/lastmile_qr_scan"}, "fusion_lon": 0.0, "lat": 38.89832416666667, "bike_id": "fd38afd8730ebb21377885b9741a35bc", "type": "electric_scooter", "is_reserved": 0, "lon": -76.94630283333333}, {"fusion_lat": 0.0, "name": "98bfc4dceb17c18be2525d374283f6e5", "is_disabled": 0, "rental_uris": {"android": "https://dc.lft.to/lastmile_qr_scan", "ios": "https://dc.lft.to/lastmile_qr_scan"}, "fusion_lon": 0.0, "lat": 38.896101, "bike_id": "98bfc4dceb17c18be2525d374283f6e5", "type": "electric_scooter", "is_reserved": 0, "lon": -76.94814},