{"data": {"bikes": [{"bike_id": "352f22ce80f2b0350f46d0b5fc2588e8", "type": "electric_scooter", "is_disabled": 0, "lat": 38.940185666666665, "rental_uris": {"ios": "https://dc.lft.to/lastmile_qr_scan", "android": "https://dc.lft.to/lastmile_qr_scan"}, "is_reserved": 0, "fusion_lon": 0.0, "fusion_lat": 0.0, "lon": -77.03812133333334, "name": "352f22ce80f2b0350f46d0b5fc2588e8"}, {"bike_id": "263c741ed297c242b397f3a22d7ff51f", "type": "electric_scooter", "is_disabled": 0, "lat": 38.870925166666666, "rental_uris": {"ios": "https://dc.lft.to/lastmile_qr_scan", "android": "https://dc.lft.to/lastmile_qr_scan"}, "is_reserved": 0, "fusion_lon": 0.0, "fusion_lat": 0.0, "lon": -77.0119895, "name": "263c741ed297c242b397f3a22d7ff51f"}, {"bike_id": "e2292f52946dd4a0aa632d6931e1da75", "type": "electric_scooter", "is_disabled": 0, "lat": 38.905705, "rental_uris": {"ios": "https://dc.lft.to/lastmile_qr_scan", "android": "https://dc.lft.to/lastmile_qr_scan"}, "is_reserved": 0, "fusion_lon": 0.0, "fusion_lat": 0.0, "lon": -76.97633333333333, "name": "e2292f52946dd4a0aa632d6931e1da75"}, {"bike_id": "d993cf5a98f63d56733740f6f5acdb7b", "type": "electric_scooter", "is_disabled": 0, "lat": 38.90867166666666, "rental_uris": {"ios": "https://dc.lft.to/lastmile_qr_scan", "android": "https://dc.lft.to/lastmile_qr_scan"}, "is_reserved": 0, "fusion_lon": 0.0, "fusion_lat": 0.0, "lon": -77.085924, "name": "d993cf5a98f63d56733740f6f5acdb7b"}, {"bike_id": "668619bcbf8b7c2874b0e8fa0f692b56", "type": "electric_scooter", "is_disabled": 0, "lat": 38.92252966666667, "rental_uris": {"ios": "https://dc.lft.to/lastmile_qr_scan", "android": "https://dc.lft.to/lastmile_qr_scan"}, "is_reserved": 0, "fusion_lon": 0.0, "fusion_lat": 0.0, "lon": -77.042958, "name": "668619bcbf8b7c2874b0e8fa0f692b56"}, {"bike_id": "7f5970149e10522b72d9dd4ce8480bba", "type": "electric_scooter", "is_disabled": 0, "lat": 38.88407016666667, "rental_uris": {"ios": "https://dc.lft.to/lastmile_qr_scan", "android": "https://dc.lft.to/lastmile_qr_scan"}, "is_reserved": 0, "fusion_lon": 0.0, "fusion_lat": 0.0, "lon": -76.95393483333334, "name": "7f5970149e10522b72d9dd4ce8480bba"}, {"bike_id": "fc3b381393fcb2edda11131632ffc62d", "type": "electric_scooter", "is_disabled": 0, "lat": 38.90531416666666, "rental_uris": {"ios": "https://dc.lft.to/lastmile_qr_scan", "android": "https://dc.lft.to/lastmile_qr_scan"}, "is_reserved": 0, "fusion_lon": 0.0, "fusion_lat": 0.0, "lon": -77.0572275, "name": "fc3b381393fcb2edda11131632ffc62d"}, {"bike_id": "f7e253dd9adaabbdc4f96b4c4e29c7c3", "type": "electric_scooter", "is_disabled": 0, "lat": 38.8909885, "rental_uris": {"ios": "https://dc.lft.to/lastmile_qr_scan", "android": "https://dc.lft.to/lastmile_qr_scan"}, "is_reserved": 0, "fusion_lon": 0.0, "fusion_lat": 0.0, "lon": -76.93851016666666, "name": "f7e253dd9adaabbdc4f96b4c4e29c7c3"}, {"bike_id": "baa2d670d43677383e2eb1190507b1f3", "type": "electric_scooter", "is_disabled": 0, "lat": 38.918296166666664, "rental_uris": {"ios": "https://dc.lft.to/lastmile_qr_scan", "android": "https://dc.lft.to/lastmile_qr_scan"}, "is_reserved": 0, "fusion_lon": 0.0, "fusion_lat": 0.0, "lon": -77.03216183333333, "name": "baa2d670d43677383e2eb1190507b1f3"}, {"bike_id": "f61c3688b50f20a490edda2b199c2fed", "type": "electric_scooter", "is_disabled": 0, "lat": 38.932459333333334, "rental_uris": {"ios": "https://dc.lft.to/lastmile_qr_scan", "android": "https://dc.lft.to/lastmile_qr_scan"}, "is_reserved": 0, "fusion_lon": 0.0, "fusion_lat": 0.0, "lon": -77.03273966666667, "name": "f61c3688b50f20a490edda2b199c2fed"}, {"bike_id": "0d82e852cb889dbdd9fde9d005b3a39e", "type": "electric_scooter", "is_disabled": 0, "lat": 38.898556666666664, "rental_uris": {"ios": "https://dc.lft.to/lastmile_qr_scan", "android": "https://dc.lft.to/lastmile_qr_scan"}, "is_reserved": 0, "fusion_lon": 0.0, "fusion_lat": 0.0, "lon": -77.026053, "name": "0d82e852cb889dbdd9fde9d005b3a39e"}, {"bike_id": "92f5c7bd821dca72639c55bda9ea7cee", "type": "electric_bike", "is_disabled": 0, "lat": 38.905557333333334, "rental_uris": {"ios": "https://dc.lft.to/lastmile_qr_scan", "android": "https://dc.lft.to/lastmile_qr_scan"}, "is_reserved": 0, "fusion_lon": 0.0, "fusion_lat": 0.0, "lon": -77.01310883333333, "name": "92f5c7bd821dca72639c55bda9ea7cee"}, {"bike_id": "86aa84bf1c1901870b3ecc1fdc91ce65", "type": "electric_scooter", "is_disabled": 0, "lat": 38.8668665, "rental_uris": {"ios": "https://dc.lft.to/lastmile_qr_scan", "android": "https://dc.lft.to/lastmile_qr_scan"}, "is_reserved": 0, "fusion_lon": 0.0, "fusion_lat": 0.0, "lon": -76.98574166666667, "name": "86aa84bf1c1901870b3ecc1fdc91ce65"}, {"bike_id": "933775dd4781d69104186dbd29882b24", "type": "electric_scooter", "is_disabled": 0, "lat": 38.86503783333333, "rental_uris": {"ios": "https://dc.lft.to/lastmile_qr_scan", "android": "https://dc.lft.to/lastmile_qr_scan"}, "is_reserved": 0, "fusion_lon": 0.0, "fusion_lat": 0.0, "lon": -76.990026, "name": "933775dd4781d69104186dbd29882b24"}, {"bike_id": "3b09c9fae4318191642d649e5db648e2", "type": "electric_bike", "is_disabled": 0, "lat": 38.9124585, "rental_uris": {"ios": "https://dc.lft.to/lastmile_qr_scan", "android": "https://dc.lft.to/lastmile_qr_scan"}, "is_reserved": 0, "fusion_lon": 0.0, "fusion_lat": 0.0, "lon": -77.087354, "name": "3b09c9fae4318191642d649e5db648e2"}, {"bike_id": "4598ef5ac4f0da042bb318928f5af682", "type": "electric_scooter", "is_disabled": 0, "lat": 38.92273616666667, "rental_uris": {"ios": "https://dc.lft.to/lastmile_qr_scan", "android": "https://dc.lft.to/lastmile_qr_scan"}, "is_reserved": 0, "fusion_lon": 0.0, "fusion_lat": 0.0, "lon": -76.9946565, "name": "4598ef5ac4f0da042bb318928f5af682"}, {"bike_id": "782f344e06da38a6793de7858a04c9a1", "type": "electric_scooter", "is_disabled": 0, "lat": 38.8982945, "rental_uris": {"ios": "https://dc.lft.to/lastmile_qr_scan", "android": "https://dc.lft.to/lastmile_qr_scan"}, "is_reserved": 0, "fusion_lon": 0.0, "fusion_lat": 0.0, "lon": -76.9195045, "name": "782f344e06da38a6793de7858a04c9a1"}, {"bike_id": "1851b6cd2b1c8df2a99375dc4458e27f", "type": "electric_scooter", "is_disabled": 0, "lat": 38.92321416666667, "rental_uris": {"ios": "https://dc.lft.to/lastmile_qr_scan", "android": "https://dc.lft.to/lastmile_qr_scan"}, "is_reserved": 0, "fusion_lon": 0.0, "fusion_lat": 0.0, "lon": -77.02135133333333, "name": "1851b6cd2b1c8df2a99375dc4458e27f"}, {"bike_id": "d16173cf7f21f953efbfacdc80394d79", "type": "electric_scooter", "is_disabled": 0, "lat": 38.920073, "rental_uris": {"ios": "https://dc.lft.to/lastmile_qr_scan", "android": "https://dc.lft.to/lastmile_qr_scan"}, "is_reserved": 0, "fusion_lon": 0.0, "fusion_lat": 0.0, "lon": -76.98499983333333, "name": "d16173cf7f21f953efbfacdc80394d79"}, {"bike_id": "62bea7d67a0bc72a8d48c37d1cac9aec", "type": "electric_scooter", "is_disabled": 0, "lat": 38.9267665, "rental_uris": {"ios": "https://dc.lft.to/lastmile_qr_scan", "android": "https://dc.lft.to/lastmile_qr_scan"}, "is_reserved": 0, "fusion_lon": 0.0, "fusion_lat": 0.0, "lon": -77.0354805, "name": "62bea7d67a0bc72a8d48c37d1cac9aec"}, {"bike_id": "3113e2fb77f81cbc9706995034970f05", "type": "electric_scooter", "is_disabled": 0, "lat": 38.8839425, "rental_uris": {"ios": "https://dc.lft.to/lastmile_qr_scan", "android": "https://dc.lft.to/lastmile_qr_scan"}, "is_reserved": 0, "fusion_lon": 0.0, "fusion_lat": 0.0, "lon": -77.01766433333333, "name": "3113e2fb77f81cbc9706995034970f05"}, {"bike_id": "8dcbc88ede90e0dc019a0a704d2c4ca5", "type": "electric_scooter", "is_disabled": 0, "lat": 38.925958, "rental_uris": {"ios": "https://dc.lft.to/lastmile_qr_scan", "android": "https://dc.lft.to/lastmile_qr_scan"}, "is_reserved": 0, "fusion_lon": 0.0, "fusion_lat": 0.0, "lon": -77.0374645, "name": "8dcbc88ede90e0dc019a0a704d2c4ca5"}, {"bike_id": "d21ea25288a5bbe93851a50315330fcc", "type": "electric_scooter", "is_disabled": 0, "lat": 38.91706533333333, "rental_uris": {"ios": "https://dc.lft.to/lastmile_qr_scan", "android": "https://dc.lft.to/lastmile_qr_scan"}, "is_reserved": 0, "fusion_lon": 0.0, "fusion_lat": 0.0, "lon": -77.095808, "name": "d21ea25288a5bbe93851a50315330fcc"}, {"bike_id": "312c79f0da2fb28397bd7afc4c966511", "type": "electric_scooter", "is_disabled": 0, "lat": 38.92772983333333, "rental_uris": {"ios": "https://dc.lft.to/lastmile_qr_scan", "android": "https://dc.lft.to/lastmile_qr_scan"}, "is_reserved": 0, "fusion_lon": 0.0, "fusion_lat": 0.0, "lon": -76.98756633333333, "name": "312c79f0da2fb28397bd7afc4c966511"}, {"bike_id": "2b99cb50e471d5b76298e9b62e6ec846", "type": "electric_scooter", "is_disabled": 0, "lat": 38.9246125, "rental_uris": {"ios": "https://dc.lft.to/lastmile_qr_scan", "android": "https://dc.lft.to/lastmile_qr_scan"}, "is_reserved": 0, "fusion_lon": 0.0, "fusion_lat": 0.0, "lon": -77.05233866666667, "name": "2b99cb50e471d5b76298e9b62e6ec846"}, {"bike_id": "9ed22866fdaf1964a62c116e82b2d3c8", "type": "electric_scooter", "is_disabled": 0, "lat": 38.8923805, "rental_uris": {"ios": "https://dc.lft.to/lastmile_qr_scan", "android": "https://dc.lft.to/lastmile_qr_scan"}, "is_reserved": 0, "fusion_lon": 0.0, "fusion_lat": 0.0, "lon": -77.0335045, "name": "9ed22866fdaf1964a62c116e82b2d3c8"}, {"bike_id": "a34c1a43ceb1bf54eeaa9794d499c840", "type": "electric_scooter", "is_disabled": 0, "lat": 38.918139, "rental_uris": {"ios": "https://dc.lft.to/lastmile_qr_scan", "android": "https://dc.lft.to/lastmile_qr_scan"}, "is_reserved": 0, "fusion_lon": 0.0, "fusion_lat": 0.0, "lon": -77.024783, "name": "a34c1a43ceb1bf54eeaa9794d499c840"}, {"bike_id": "770209e4afe766100d5f0f6876933c78", "type": "electric_scooter", "is_disabled": 0, "lat": 38.890858, "rental_uris": {"ios": "https://dc.lft.to/lastmile_qr_scan", "android": "https://dc.lft.to/lastmile_qr_scan"}, "is_reserved": 0, "fusion_lon": 0.0, "fusion_lat": 0.0, "lon": -76.99945566666666, "name": "770209e4afe766100d5f0f6876933c78"}, {"bike_id": "e66bc25c8ad5808bb429abac04773fc2", "type": "electric_scooter", "is_disabled": 0, "lat": 38.957340333333335, "rental_uris": {"ios": "https://dc.lft.to/lastmile_qr_scan", "android": "https://dc.lft.to/lastmile_qr_scan"}, "is_reserved": 0, "fusion_lon": 0.0, "fusion_lat": 0.0, "lon": -77.0240355, "name": "e66bc25c8ad5808bb429abac04773fc2"}, {"bike_id": "3f4c0eba76f808c724907460e55feed6", "type": "electric_scooter", "is_disabled": 0, "lat": 38.919521833333334, "rental_uris": {"ios": "https://dc.lft.to/lastmile_qr_scan", "android": "https://dc.lft.to/lastmile_qr_scan"}, "is_reserved": 0, "fusion_lon": 0.0, "fusion_lat": 0.0, "lon": -77.0415315, "name": "3f4c0eba76f808c724907460e55feed6"}, {"bike_id": "eab112103cb598b86bc0ffe1165d8cb6", "type": "electric_scooter", "is_disabled": 0, "lat": 38.9511415, "rental_uris": {"ios": "https://dc.lft.to/lastmile_qr_scan", "android": "https://dc.lft.to/lastmile_qr_scan"}, "is_reserved": 0, "fusion_lon": 0.0, "fusion_lat": 0.0, "lon": -77.01433133333333, "name": "eab112103cb598b86bc0ffe1165d8cb6"}, {"bike_id": "120de3bfbc6b2e1c46f30cd84423a0ea", "type": "electric_scooter", "is_disabled": 0, "lat": 38.92541133333334, "rental_uris": {"ios": "https://dc.lft.to/lastmile_qr_scan", "android": "https://dc.lft.to/lastmile_qr_scan"}, "is_reserved": 0, "fusion_lon": 0.0, "fusion_lat": 0.0, "lon": -77.033526, "name": "120de3bfbc6b2e1c46f30cd84423a0ea"}, {"bike_id": "977e679d1258bc38642a3c5dd9dde077", "type": "electric_scooter", "is_disabled": 0, "lat": 38.9286085, "rental_uris": {"ios": "https://dc.lft.to/lastmile_qr_scan", "android": "https://dc.lft.to/lastmile_qr_scan"}, "is_reserved": 0, "fusion_lon": 0.0, "fusion_lat": 0.0, "lon": -77.037129, "name": "977e679d1258bc38642a3c5dd9dde077"}, {"bike_id": "c63f328e2f3da623015a062d82ff274b", "type": "electric_scooter", "is_disabled": 0, "lat": 38.89504683333333, "rental_uris": {"ios": "https://dc.lft.to/lastmile_qr_scan", "android": "https://dc.lft.to/lastmile_qr_scan"}, "is_reserved": 0, "fusion_lon": 0.0, "fusion_lat": 0.0, "lon": -76.93478216666666, "name": "c63f328e2f3da623015a062d82ff274b"}, {"bike_id": "df0fa95c7098fc6c5f72c574d45ff678", "type": "electric_scooter", "is_disabled": 0, "lat": 38.8988415, "rental_uris": {"ios": "https://dc.lft.to/lastmile_qr_scan", "android": "https://dc.lft.to/lastmile_qr_scan"}, "is_reserved": 0, "fusion_lon": 0.0, "fusion_lat": 0.0, "lon": -76.9317545, "name": "df0fa95c7098fc6c5f72c574d45ff678"}, {"bike_id": "a7d9a1f531b5226830249326dbfe1335", "type": "electric_scooter", "is_disabled": 0, "lat": 38.94903516666667, "rental_uris": {"ios": "https://dc.lft.to/lastmile_qr_scan", "android": "https://dc.lft.to/lastmile_qr_scan"}, "is_reserved": 0, "fusion_lon": 0.0, "fusion_lat": 0.0, "lon": -77.06524016666667, "name": "a7d9a1f531b5226830249326dbfe1335"}, {"bike_id": "a0bd310c5607c692c579e7a695cc6222", "type": "electric_bike", "is_disabled": 0, "lat": 38.84836816666667, "rental_uris": {"ios": "https://dc.lft.to/lastmile_qr_scan", "android": "https://dc.lft.to/lastmile_qr_scan"}, "is_reserved": 0, "fusion_lon": 0.0, "fusion_lat": 0.0, "lon": -77.07914166666667, "name": "a0bd310c5607c692c579e7a695cc6222"}, {"bike_id": "fa00291cb9f3c1d389d33f8fdd482d6a", "type": "electric_scooter", "is_disabled": 0, "lat": 38.914938, "rental_uris": {"ios": "https://dc.lft.to/lastmile_qr_scan", "android": "https://dc.lft.to/lastmile_qr_scan"}, "is_reserved": 0, "fusion_lon": 0.0, "fusion_lat": 0.0, "lon": -77.01989333333333, "name": "fa00291cb9f3c1d389d33f8fdd482d6a"}, {"bike_id": "a9544e491fa19baf37000c089ba5b9d3", "type": "electric_scooter", "is_disabled": 0, "lat": 38.92933816666667, "rental_uris": {"ios": "https://dc.lft.to/lastmile_qr_scan", "android": "https://dc.lft.to/lastmile_qr_scan"}, "is_reserved": 0, "fusion_lon": 0.0, "fusion_lat": 0.0, "lon": -77.03276866666667, "name": "a9544e491fa19baf37000c089ba5b9d3"}, {"bike_id": "00a404e2dc26dd2440d42d1109fecc31", "type": "electric_scooter", "is_disabled": 0, "lat": 38.8668795, "rental_uris": {"ios": "https://dc.lft.to/lastmile_qr_scan", "android": "https://dc.lft.to/lastmile_qr_scan"}, "is_reserved": 0, "fusion_lon": 0.0, "fusion_lat": 0.0, "lon": -76.985627, "name": "00a404e2dc26dd2440d42d1109fecc31"}, {"bike_id": "129b07cb409b991914f82f33bf8fc4e8", "type": "electric_bike", "is_disabled": 0, "lat": 38.94262116666667, "rental_uris": {"ios": "https://dc.lft.to/lastmile_qr_scan", "android": "https://dc.lft.to/lastmile_qr_scan"}, "is_reserved": 0, "fusion_lon": 0.0, "fusion_lat": 0.0, "lon": -76.99072833333334, "name": "129b07cb409b991914f82f33bf8fc4e8"}, {"bike_id": "f1ada729b8364816c5282d9d59e063e4", "type": "electric_scooter", "is_disabled": 0, "lat": 38.866963, "rental_uris": {"ios": "https://dc.lft.to/lastmile_qr_scan", "android": "https://dc.lft.to/lastmile_qr_scan"}, "is_reserved": 0, "fusion_lon": 0.0, "fusion_lat": 0.0, "lon": -76.98712716666667, "name": "f1ada729b8364816c5282d9d59e063e4"}, {"bike_id": "bec950b181cf9f07ad449907ce328c25", "type": "electric_scooter", "is_disabled": 0, "lat": 38.91402633333333, "rental_uris": {"ios": "https://dc.lft.to/lastmile_qr_scan", "android": "https://dc.lft.to/lastmile_qr_scan"}, "is_reserved": 0, "fusion_lon": 0.0, "fusion_lat": 0.0, "lon": -77.0213385, "name": "bec950b181cf9f07ad449907ce328c25"}, {"bike_id": "2f425a0281b367ac0db4975d509113df", "type": "electric_scooter", "is_disabled": 0, "lat": 38.92274666666667, "rental_uris": {"ios": "https://dc.lft.to/lastmile_qr_scan", "android": "https://dc.lft.to/lastmile_qr_scan"}, "is_reserved": 0, "fusion_lon": 0.0, "fusion_lat": 0.0, "lon": -76.99766466666667, "name": "2f425a0281b367ac0db4975d509113df"}, {"bike_id": "b8d1e35e2faf3621be326923631e79ec", "type": "electric_scooter", "is_disabled": 0, "lat": 38.9095605, "rental_uris": {"ios": "https://dc.lft.to/lastmile_qr_scan", "android": "https://dc.lft.to/lastmile_qr_scan"}, "is_reserved": 0, "fusion_lon": 0.0, "fusion_lat": 0.0, "lon": -77.0211765, "name": "b8d1e35e2faf3621be326923631e79ec"}, {"bike_id": "807c47eb2c3ed36eca23163ddf52ff5f", "type": "electric_scooter", "is_disabled": 0, "lat": 38.94090466666667, "rental_uris": {"ios": "https://dc.lft.to/lastmile_qr_scan", "android": "https://dc.lft.to/lastmile_qr_scan"}, "is_reserved": 0, "fusion_lon": 0.0, "fusion_lat": 0.0, "lon": -77.036536, "name": "807c47eb2c3ed36eca23163ddf52ff5f"}, {"bike_id": "c90430c216b1ebd83e444979ff8a8992", "type": "electric_scooter", "is_disabled": 0, "lat": 38.90880583333333, "rental_uris": {"ios": "https://dc.lft.to/lastmile_qr_scan", "android": "https://dc.lft.to/lastmile_qr_scan"}, "is_reserved": 0, "fusion_lon": 0.0, "fusion_lat": 0.0, "lon": -77.03462666666667, "name": "c90430c216b1ebd83e444979ff8a8992"}, {"bike_id": "946c81f10029d7e19c638da05fc92b1b", "type": "electric_scooter", "is_disabled": 0, "lat": 38.91689916666667, "rental_uris": {"ios": "https://dc.lft.to/lastmile_qr_scan", "android": "https://dc.lft.to/lastmile_qr_scan"}, "is_reserved": 0, "fusion_lon": 0.0, "fusion_lat": 0.0, "lon": -77.02884783333333, "name": "946c81f10029d7e19c638da05fc92b1b"}, {"bike_id": "3021448a546611fe0b533524e2929cff", "type": "electric_scooter", "is_disabled": 0, "lat": 38.934596, "rental_uris": {"ios": "https://dc.lft.to/lastmile_qr_scan", "android": "https://dc.lft.to/lastmile_qr_scan"}, "is_reserved": 0, "fusion_lon": 0.0, "fusion_lat": 0.0, "lon": -76.96437983333334, "name": "3021448a546611fe0b533524e2929cff"}, {"bike_id": "f35c54894a38bfc284e47b29ef78bf8c", "type": "electric_scooter", "is_disabled": 0, "lat": 38.931491, "rental_uris": {"ios": "https://dc.lft.to/lastmile_qr_scan", "android": "https://dc.lft.to/lastmile_qr_scan"}, "is_reserved": 0, "fusion_lon": 0.0, "fusion_lat": 0.0, "lon": -77.04514416666666, "name": "f35c54894a38bfc284e47b29ef78bf8c"}, {"bike_id": "bfd9ab2480f2c4a682fe1b31c983c73f", "type": "electric_bike", "is_disabled": 0, "lat": 39.02435966666667, "rental_uris": {"ios": "https://dc.lft.to/lastmile_qr_scan", "android": "https://dc.lft.to/lastmile_qr_scan"}, "is_reserved": 0, "fusion_lon": 0.0, "fusion_lat": 0.0, "lon": -77.13101933333333, "name": "bfd9ab2480f2c4a682fe1b31c983c73f"}, {"bike_id": "5808c6fbe16bcf39c6dda01e184e3af9", "type": "electric_scooter", "is_disabled": 0, "lat": 38.902064, "rental_uris": {"ios": "https://dc.lft.to/lastmile_qr_scan", "android": "https://dc.lft.to/lastmile_qr_scan"}, "is_reserved": 0, "fusion_lon": 0.0, "fusion_lat": 0.0, "lon": -77.02611933333333, "name": "5808c6fbe16bcf39c6dda01e184e3af9"}, {"bike_id": "d2b9a2640886f82baa0ef0cb80b506dc", "type": "electric_bike", "is_disabled": 0, "lat": 38.8984895, "rental_uris": {"ios": "https://dc.lft.to/lastmile_qr_scan", "android": "https://dc.lft.to/lastmile_qr_scan"}, "is_reserved": 0, "fusion_lon": 0.0, "fusion_lat": 0.0, "lon": -77.05304, "name": "d2b9a2640886f82baa0ef0cb80b506dc"}, {"bike_id": "947bd78c2d5fbefccd0caf5185a4e6c9", "type": "electric_scooter", "is_disabled": 0, "lat": 38.921253166666666, "rental_uris": {"ios": "https://dc.lft.to/lastmile_qr_scan", "android": "https://dc.lft.to/lastmile_qr_scan"}, "is_reserved": 0, "fusion_lon": 0.0, "fusion_lat": 0.0, "lon": -77.03667683333333, "name": "947bd78c2d5fbefccd0caf5185a4e6c9"}, {"bike_id": "f17fd5a95d50685fdca96eaf66bb36df", "type": "electric_scooter", "is_disabled": 0, "lat": 38.904453333333336, "rental_uris": {"ios": "https://dc.lft.to/lastmile_qr_scan", "android": "https://dc.lft.to/lastmile_qr_scan"}, "is_reserved": 0, "fusion_lon": 0.0, "fusion_lat": 0.0, "lon": -77.02886783333334, "name": "f17fd5a95d50685fdca96eaf66bb36df"}, {"bike_id": "c5601779a896ac027b296ffc80d22235", "type": "electric_scooter", "is_disabled": 0, "lat": 38.9232015, "rental_uris": {"ios": "https://dc.lft.to/lastmile_qr_scan", "android": "https://dc.lft.to/lastmile_qr_scan"}, "is_reserved": 0, "fusion_lon": 0.0, "fusion_lat": 0.0, "lon": -77.02134416666667, "name": "c5601779a896ac027b296ffc80d22235"}, {"bike_id": "1bd8cba8a3edbfae3006fd3272d35cbc", "type": "electric_scooter", "is_disabled": 0, "lat": 38.9161855, "rental_uris": {"ios": "https://dc.lft.to/lastmile_qr_scan", "android": "https://dc.lft.to/lastmile_qr_scan"}, "is_reserved": 0, "fusion_lon": 0.0, "fusion_lat": 0.0, "lon": -77.03642333333333, "name": "1bd8cba8a3edbfae3006fd3272d35cbc"}, {"bike_id": "12a3095fb802e491d6f58a8afd6b2593", "type": "electric_scooter", "is_disabled": 0, "lat": 38.92681966666667, "rental_uris": {"ios": "https://dc.lft.to/lastmile_qr_scan", "android": "https://dc.lft.to/lastmile_qr_scan"}, "is_reserved": 0, "fusion_lon": 0.0, "fusion_lat": 0.0, "lon": -77.02975233333333, "name": "12a3095fb802e491d6f58a8afd6b2593"}, {"bike_id": "dd6692d94ced68d02452edfbcb6fc2be", "type": "electric_scooter", "is_disabled": 0, "lat": 38.907519666666666, "rental_uris": {"ios": "https://dc.lft.to/lastmile_qr_scan", "android": "https://dc.lft.to/lastmile_qr_scan"}, "is_reserved": 0, "fusion_lon": 0.0, "fusion_lat": 0.0, "lon": -77.03445766666667, "name": "dd6692d94ced68d02452edfbcb6fc2be"}, {"bike_id": "31e6abb9e76bb2415ecaed0ebb94db45", "type": "electric_scooter", "is_disabled": 0, "lat": 38.907940833333335, "rental_uris": {"ios": "https://dc.lft.to/lastmile_qr_scan", "android": "https://dc.lft.to/lastmile_qr_scan"}, "is_reserved": 0, "fusion_lon": 0.0, "fusion_lat": 0.0, "lon": -77.04795333333334, "name": "31e6abb9e76bb2415ecaed0ebb94db45"}, {"bike_id": "c887e2ef8c4ae15e5e6b23d482e75ecf", "type": "electric_scooter", "is_disabled": 0, "lat": 38.912484666666664, "rental_uris": {"ios": "https://dc.lft.to/lastmile_qr_scan", "android": "https://dc.lft.to/lastmile_qr_scan"}, "is_reserved": 0, "fusion_lon": 0.0, "fusion_lat": 0.0, "lon": -77.0243285, "name": "c887e2ef8c4ae15e5e6b23d482e75ecf"}, {"bike_id": "da091a7002dae2910f4c0f05417a9d67", "type": "electric_scooter", "is_disabled": 0, "lat": 38.92356783333334, "rental_uris": {"ios": "https://dc.lft.to/lastmile_qr_scan", "android": "https://dc.lft.to/lastmile_qr_scan"}, "is_reserved": 0, "fusion_lon": 0.0, "fusion_lat": 0.0, "lon": -77.0524345, "name": "da091a7002dae2910f4c0f05417a9d67"}, {"bike_id": "369b4c1a412a17f2312bf0d34fe30d56", "type": "electric_scooter", "is_disabled": 0, "lat": 38.94714783333333, "rental_uris": {"ios": "https://dc.lft.to/lastmile_qr_scan", "android": "https://dc.lft.to/lastmile_qr_scan"}, "is_reserved": 0, "fusion_lon": 0.0, "fusion_lat": 0.0, "lon": -77.03327433333334, "name": "369b4c1a412a17f2312bf0d34fe30d56"}, {"bike_id": "bfed26d1fa1fa84fc6945efb78359474", "type": "electric_bike", "is_disabled": 0, "lat": 38.84526366666667, "rental_uris": {"ios": "https://dc.lft.to/lastmile_qr_scan", "android": "https://dc.lft.to/lastmile_qr_scan"}, "is_reserved": 0, "fusion_lon": 0.0, "fusion_lat": 0.0, "lon": -76.9739565, "name": "bfed26d1fa1fa84fc6945efb78359474"}, {"bike_id": "e20bb16dda5fd93bed908660afa39dcd", "type": "electric_scooter", "is_disabled": 0, "lat": 38.911810333333335, "rental_uris": {"ios": "https://dc.lft.to/lastmile_qr_scan", "android": "https://dc.lft.to/lastmile_qr_scan"}, "is_reserved": 0, "fusion_lon": 0.0, "fusion_lat": 0.0, "lon": -77.0386435, "name": "e20bb16dda5fd93bed908660afa39dcd"}, {"bike_id": "da4239669b16da89a50e49bbae934d18", "type": "electric_bike", "is_disabled": 0, "lat": 38.874950166666665, "rental_uris": {"ios": "https://dc.lft.to/lastmile_qr_scan", "android": "https://dc.lft.to/lastmile_qr_scan"}, "is_reserved": 0, "fusion_lon": 0.0, "fusion_lat": 0.0, "lon": -77.0011665, "name": "da4239669b16da89a50e49bbae934d18"}, {"bike_id": "15ae6ac77b3be637cef43e25afefe2e3", "type": "electric_scooter", "is_disabled": 0, "lat": 38.924412833333335, "rental_uris": {"ios": "https://dc.lft.to/lastmile_qr_scan", "android": "https://dc.lft.to/lastmile_qr_scan"}, "is_reserved": 0, "fusion_lon": 0.0, "fusion_lat": 0.0, "lon": -77.04031283333333, "name": "15ae6ac77b3be637cef43e25afefe2e3"}, {"bike_id": "49924b535d1032ad3736a897535de695", "type": "electric_scooter", "is_disabled": 0, "lat": 38.86978216666667, "rental_uris": {"ios": "https://dc.lft.to/lastmile_qr_scan", "android": "https://dc.lft.to/lastmile_qr_scan"}, "is_reserved": 0, "fusion_lon": 0.0, "fusion_lat": 0.0, "lon": -76.98177383333334, "name": "49924b535d1032ad3736a897535de695"}, {"bike_id": "175733c2719e78977ff053368316a832", "type": "electric_scooter", "is_disabled": 0, "lat": 38.890350833333336, "rental_uris": {"ios": "https://dc.lft.to/lastmile_qr_scan", "android": "https://dc.lft.to/lastmile_qr_scan"}, "is_reserved": 0, "fusion_lon": 0.0, "fusion_lat": 0.0, "lon": -76.93757416666666, "name": "175733c2719e78977ff053368316a832"}, {"bike_id": "29c940078d6342766fae4fad3db579f9", "type": "electric_scooter", "is_disabled": 0, "lat": 38.917765833333334, "rental_uris": {"ios": "https://dc.lft.to/lastmile_qr_scan", "android": "https://dc.lft.to/lastmile_qr_scan"}, "is_reserved": 0, "fusion_lon": 0.0, "fusion_lat": 0.0, "lon": -77.02317733333334, "name": "29c940078d6342766fae4fad3db579f9"}, {"bike_id": "cc5347b1d1076fb862edba9cdc12be6f", "type": "electric_scooter", "is_disabled": 0, "lat": 38.923770833333336, "rental_uris": {"ios": "https://dc.lft.to/lastmile_qr_scan", "android": "https://dc.lft.to/lastmile_qr_scan"}, "is_reserved": 0, "fusion_lon": 0.0, "fusion_lat": 0.0, "lon": -77.0305845, "name": "cc5347b1d1076fb862edba9cdc12be6f"}, {"bike_id": "2fec627dbf7a1b3c3c6f28b1aac744a9", "type": "electric_scooter", "is_disabled": 0, "lat": 38.9003175, "rental_uris": {"ios": "https://dc.lft.to/lastmile_qr_scan", "android": "https://dc.lft.to/lastmile_qr_scan"}, "is_reserved": 0, "fusion_lon": 0.0, "fusion_lat": 0.0, "lon": -77.00185816666666, "name": "2fec627dbf7a1b3c3c6f28b1aac744a9"}, {"bike_id": "c4ae08fb8a809f8d951c89444902a7ab", "type": "electric_scooter", "is_disabled": 0, "lat": 38.902398833333336, "rental_uris": {"ios": "https://dc.lft.to/lastmile_qr_scan", "android": "https://dc.lft.to/lastmile_qr_scan"}, "is_reserved": 0, "fusion_lon": 0.0, "fusion_lat": 0.0, "lon": -77.04050633333334, "name": "c4ae08fb8a809f8d951c89444902a7ab"}, {"bike_id": "1e0a020ecfe3f82cac5d3d7265e0f2c2", "type": "electric_scooter", "is_disabled": 0, "lat": 38.94788366666667, "rental_uris": {"ios": "https://dc.lft.to/lastmile_qr_scan", "android": "https://dc.lft.to/lastmile_qr_scan"}, "is_reserved": 0, "fusion_lon": 0.0, "fusion_lat": 0.0, "lon": -77.02131766666666, "name": "1e0a020ecfe3f82cac5d3d7265e0f2c2"}, {"bike_id": "bd64e61a70bd1f98fd1d79a1cc07d460", "type": "electric_scooter", "is_disabled": 0, "lat": 38.93400066666667, "rental_uris": {"ios": "https://dc.lft.to/lastmile_qr_scan", "android": "https://dc.lft.to/lastmile_qr_scan"}, "is_reserved": 0, "fusion_lon": 0.0, "fusion_lat": 0.0, "lon": -77.02210566666666, "name": "bd64e61a70bd1f98fd1d79a1cc07d460"}, {"bike_id": "3a6420b373075fba5a7a361414fdffd2", "type": "electric_scooter", "is_disabled": 0, "lat": 38.933377666666665, "rental_uris": {"ios": "https://dc.lft.to/lastmile_qr_scan", "android": "https://dc.lft.to/lastmile_qr_scan"}, "is_reserved": 0, "fusion_lon": 0.0, "fusion_lat": 0.0, "lon": -77.02623816666667, "name": "3a6420b373075fba5a7a361414fdffd2"}, {"bike_id": "b95f7fce386cea24bbc5e3e18ba4ade0", "type": "electric_scooter", "is_disabled": 0, "lat": 38.916850833333335, "rental_uris": {"ios": "https://dc.lft.to/lastmile_qr_scan", "android": "https://dc.lft.to/lastmile_qr_scan"}, "is_reserved": 0, "fusion_lon": 0.0, "fusion_lat": 0.0, "lon": -77.03766766666666, "name": "b95f7fce386cea24bbc5e3e18ba4ade0"}, {"bike_id": "0afd10a3ce81f0387eb8c403a522e503", "type": "electric_scooter", "is_disabled": 0, "lat": 38.913022, "rental_uris": {"ios": "https://dc.lft.to/lastmile_qr_scan", "android": "https://dc.lft.to/lastmile_qr_scan"}, "is_reserved": 0, "fusion_lon": 0.0, "fusion_lat": 0.0, "lon": -77.045447, "name": "0afd10a3ce81f0387eb8c403a522e503"}, {"bike_id": "8e95597572916047d16a0c5af76f6535", "type": "electric_scooter", "is_disabled": 0, "lat": 38.93303066666667, "rental_uris": {"ios": "https://dc.lft.to/lastmile_qr_scan", "android": "https://dc.lft.to/lastmile_qr_scan"}, "is_reserved": 0, "fusion_lon": 0.0, "fusion_lat": 0.0, "lon": -77.0326615, "name": "8e95597572916047d16a0c5af76f6535"}, {"bike_id": "0a9c0033d2a815199e1201c8e0d3f1cb", "type": "electric_scooter", "is_disabled": 0, "lat": 38.914242, "rental_uris": {"ios": "https://dc.lft.to/lastmile_qr_scan", "android": "https://dc.lft.to/lastmile_qr_scan"}, "is_reserved": 0, "fusion_lon": 0.0, "fusion_lat": 0.0, "lon": -77.048079, "name": "0a9c0033d2a815199e1201c8e0d3f1cb"}, {"bike_id": "ba34318605d462568f98fde8a3e0b2f5", "type": "electric_scooter", "is_disabled": 0, "lat": 38.91023116666667, "rental_uris": {"ios": "https://dc.lft.to/lastmile_qr_scan", "android": "https://dc.lft.to/lastmile_qr_scan"}, "is_reserved": 0, "fusion_lon": 0.0, "fusion_lat": 0.0, "lon": -77.00760266666667, "name": "ba34318605d462568f98fde8a3e0b2f5"}, {"bike_id": "e9802f63fb97650d28a2ca88993728f7", "type": "electric_scooter", "is_disabled": 0, "lat": 38.892409666666666, "rental_uris": {"ios": "https://dc.lft.to/lastmile_qr_scan", "android": "https://dc.lft.to/lastmile_qr_scan"}, "is_reserved": 0, "fusion_lon": 0.0, "fusion_lat": 0.0, "lon": -77.02204783333333, "name": "e9802f63fb97650d28a2ca88993728f7"}, {"bike_id": "2cb3dc6757e1d35404d044c3e682c204", "type": "electric_scooter", "is_disabled": 0, "lat": 38.8665625, "rental_uris": {"ios": "https://dc.lft.to/lastmile_qr_scan", "android": "https://dc.lft.to/lastmile_qr_scan"}, "is_reserved": 0, "fusion_lon": 0.0, "fusion_lat": 0.0, "lon": -76.98889933333334, "name": "2cb3dc6757e1d35404d044c3e682c204"}, {"bike_id": "0245df1f311c61d0aef000564217230d", "type": "electric_bike", "is_disabled": 0, "lat": 38.880639, "rental_uris": {"ios": "https://dc.lft.to/lastmile_qr_scan", "android": "https://dc.lft.to/lastmile_qr_scan"}, "is_reserved": 0, "fusion_lon": 0.0, "fusion_lat": 0.0, "lon": -76.9624225, "name": "0245df1f311c61d0aef000564217230d"}, {"bike_id": "3766d4f43df397af4d5928e556cfb763", "type": "electric_scooter", "is_disabled": 0, "lat": 38.9096695, "rental_uris": {"ios": "https://dc.lft.to/lastmile_qr_scan", "android": "https://dc.lft.to/lastmile_qr_scan"}, "is_reserved": 0, "fusion_lon": 0.0, "fusion_lat": 0.0, "lon": -77.03860466666667, "name": "3766d4f43df397af4d5928e556cfb763"}, {"bike_id": "c1d441f25c1f88c6816188491dfff65d", "type": "electric_bike", "is_disabled": 0, "lat": 38.910115833333336, "rental_uris": {"ios": "https://dc.lft.to/lastmile_qr_scan", "android": "https://dc.lft.to/lastmile_qr_scan"}, "is_reserved": 0, "fusion_lon": 0.0, "fusion_lat": 0.0, "lon": -77.22796683333334, "name": "c1d441f25c1f88c6816188491dfff65d"}, {"bike_id": "55f000315c0f5b874a9305295d27201b", "type": "electric_bike", "is_disabled": 0, "lat": 38.995913333333334, "rental_uris": {"ios": "https://dc.lft.to/lastmile_qr_scan", "android": "https://dc.lft.to/lastmile_qr_scan"}, "is_reserved": 0, "fusion_lon": 0.0, "fusion_lat": 0.0, "lon": -77.02666083333334, "name": "55f000315c0f5b874a9305295d27201b"}, {"bike_id": "43e8a1206b17c475b6f4d54db7cf793a", "type": "electric_bike", "is_disabled": 0, "lat": 38.87279866666667, "rental_uris": {"ios": "https://dc.lft.to/lastmile_qr_scan", "android": "https://dc.lft.to/lastmile_qr_scan"}, "is_reserved": 0, "fusion_lon": 0.0, "fusion_lat": 0.0, "lon": -77.23317083333333, "name": "43e8a1206b17c475b6f4d54db7cf793a"}, {"bike_id": "1f56c12ed242655ede95158ef2fd119c", "type": "electric_scooter", "is_disabled": 0, "lat": 38.91823083333333, "rental_uris": {"ios": "https://dc.lft.to/lastmile_qr_scan", "android": "https://dc.lft.to/lastmile_qr_scan"}, "is_reserved": 0, "fusion_lon": 0.0, "fusion_lat": 0.0, "lon": -77.049409, "name": "1f56c12ed242655ede95158ef2fd119c"}, {"bike_id": "09832ca54c7dd01ec434a252857f50c3", "type": "electric_scooter", "is_disabled": 0, "lat": 38.881312, "rental_uris": {"ios": "https://dc.lft.to/lastmile_qr_scan", "android": "https://dc.lft.to/lastmile_qr_scan"}, "is_reserved": 0, "fusion_lon": 0.0, "fusion_lat": 0.0, "lon": -76.9835115, "name": "09832ca54c7dd01ec434a252857f50c3"}, {"bike_id": "99b668f3c1a5066a1fb548f50b8d8bc7", "type": "electric_scooter", "is_disabled": 0, "lat": 38.90710933333333, "rental_uris": {"ios": "https://dc.lft.to/lastmile_qr_scan", "android": "https://dc.lft.to/lastmile_qr_scan"}, "is_reserved": 0, "fusion_lon": 0.0, "fusion_lat": 0.0, "lon": -77.02405033333334, "name": "99b668f3c1a5066a1fb548f50b8d8bc7"}, {"bike_id": "da7c75d0315f10dc7e8bfed16f2ac5d1", "type": "electric_scooter", "is_disabled": 0, "lat": 38.898505166666666, "rental_uris": {"ios": "https://dc.lft.to/lastmile_qr_scan", "android": "https://dc.lft.to/lastmile_qr_scan"}, "is_reserved": 0, "fusion_lon": 0.0, "fusion_lat": 0.0, "lon": -77.02852866666667, "name": "da7c75d0315f10dc7e8bfed16f2ac5d1"}, {"bike_id": "eb5f4c914f4457dfcc3b57c6397643ed", "type": "electric_scooter", "is_disabled": 0, "lat": 38.947482, "rental_uris": {"ios": "https://dc.lft.to/lastmile_qr_scan", "android": "https://dc.lft.to/lastmile_qr_scan"}, "is_reserved": 0, "fusion_lon": 0.0, "fusion_lat": 0.0, "lon": -77.07584383333334, "name": "eb5f4c914f4457dfcc3b57c6397643ed"}, {"bike_id": "de8f2094839b3086786beac2217192ef", "type": "electric_scooter", "is_disabled": 0, "lat": 38.91272683333333, "rental_uris": {"ios": "https://dc.lft.to/lastmile_qr_scan", "android": "https://dc.lft.to/lastmile_qr_scan"}, "is_reserved": 0, "fusion_lon": 0.0, "fusion_lat": 0.0, "lon": -77.02276, "name": "de8f2094839b3086786beac2217192ef"}, {"bike_id": "b11841f30ab6eddc414afc669bdc6658", "type": "electric_scooter", "is_disabled": 0, "lat": 38.933368333333334, "rental_uris": {"ios": "https://dc.lft.to/lastmile_qr_scan", "android": "https://dc.lft.to/lastmile_qr_scan"}, "is_reserved": 0, "fusion_lon": 0.0, "fusion_lat": 0.0, "lon": -77.02054583333333, "name": "b11841f30ab6eddc414afc669bdc6658"}, {"bike_id": "b48854d3f8393edb9eda77ebb3a105ec", "type": "electric_bike", "is_disabled": 0, "lat": 39.052791, "rental_uris": {"ios": "https://dc.lft.to/lastmile_qr_scan", "android": "https://dc.lft.to/lastmile_qr_scan"}, "is_reserved": 0, "fusion_lon": 0.0, "fusion_lat": 0.0, "lon": -77.080691, "name": "b48854d3f8393edb9eda77ebb3a105ec"}, {"bike_id": "5d1c9e74d2da115cb6aae4de6393bd06", "type": "electric_scooter", "is_disabled": 0, "lat": 38.909704, "rental_uris": {"ios": "https://dc.lft.to/lastmile_qr_scan", "android": "https://dc.lft.to/lastmile_qr_scan"}, "is_reserved": 0, "fusion_lon": 0.0, "fusion_lat": 0.0, "lon": -77.04644866666666, "name": "5d1c9e74d2da115cb6aae4de6393bd06"}, {"bike_id": "4de236983a6a0a34e852f6a777809965", "type": "electric_scooter", "is_disabled": 0, "lat": 38.917069833333336, "rental_uris": {"ios": "https://dc.lft.to/lastmile_qr_scan", "android": "https://dc.lft.to/lastmile_qr_scan"}, "is_reserved": 0, "fusion_lon": 0.0, "fusion_lat": 0.0, "lon": -77.0065375, "name": "4de236983a6a0a34e852f6a777809965"}, {"bike_id": "8c0b0c3a75874e6b1f544afadc865f99", "type": "electric_scooter", "is_disabled": 0, "lat": 38.901740833333335, "rental_uris": {"ios": "https://dc.lft.to/lastmile_qr_scan", "android": "https://dc.lft.to/lastmile_qr_scan"}, "is_reserved": 0, "fusion_lon": 0.0, "fusion_lat": 0.0, "lon": -76.980678, "name": "8c0b0c3a75874e6b1f544afadc865f99"}, {"bike_id": "33fe9bcd1ae8b24ede5fe70e5d5c7ff9", "type": "electric_scooter", "is_disabled": 0, "lat": 38.93102583333334, "rental_uris": {"ios": "https://dc.lft.to/lastmile_qr_scan", "android": "https://dc.lft.to/lastmile_qr_scan"}, "is_reserved": 0, "fusion_lon": 0.0, "fusion_lat": 0.0, "lon": -77.024795, "name": "33fe9bcd1ae8b24ede5fe70e5d5c7ff9"}, {"bike_id": "20791112b718cbc10cf0308b76acb40b", "type": "electric_scooter", "is_disabled": 0, "lat": 38.86693266666666, "rental_uris": {"ios": "https://dc.lft.to/lastmile_qr_scan", "android": "https://dc.lft.to/lastmile_qr_scan"}, "is_reserved": 0, "fusion_lon": 0.0, "fusion_lat": 0.0, "lon": -76.98710416666667, "name": "20791112b718cbc10cf0308b76acb40b"}, {"bike_id": "a6c1d0c535eafd4fef6894afe22f35b5", "type": "electric_scooter", "is_disabled": 0, "lat": 38.931306166666666, "rental_uris": {"ios": "https://dc.lft.to/lastmile_qr_scan", "android": "https://dc.lft.to/lastmile_qr_scan"}, "is_reserved": 0, "fusion_lon": 0.0, "fusion_lat": 0.0, "lon": -76.99574483333333, "name": "a6c1d0c535eafd4fef6894afe22f35b5"}, {"bike_id": "889681fd0329005dd170a6b2ba252619", "type": "electric_scooter", "is_disabled": 0, "lat": 38.921038833333334, "rental_uris": {"ios": "https://dc.lft.to/lastmile_qr_scan", "android": "https://dc.lft.to/lastmile_qr_scan"}, "is_reserved": 0, "fusion_lon": 0.0, "fusion_lat": 0.0, "lon": -77.03170033333333, "name": "889681fd0329005dd170a6b2ba252619"}, {"bike_id": "4651787d21106f34af7008c42cdc4fbf", "type": "electric_scooter", "is_disabled": 0, "lat": 38.910364333333334, "rental_uris": {"ios": "https://dc.lft.to/lastmile_qr_scan", "android": "https://dc.lft.to/lastmile_qr_scan"}, "is_reserved": 0, "fusion_lon": 0.0, "fusion_lat": 0.0, "lon": -77.0434975, "name": "4651787d21106f34af7008c42cdc4fbf"}, {"bike_id": "d820336f9883bcf30faf4bece7313afe", "type": "electric_scooter", "is_disabled": 0, "lat": 38.9108685, "rental_uris": {"ios": "https://dc.lft.to/lastmile_qr_scan", "android": "https://dc.lft.to/lastmile_qr_scan"}, "is_reserved": 0, "fusion_lon": 0.0, "fusion_lat": 0.0, "lon": -77.02743566666666, "name": "d820336f9883bcf30faf4bece7313afe"}, {"bike_id": "301e11f477133c48789677c77c261fdf", "type": "electric_scooter", "is_disabled": 0, "lat": 38.8637025, "rental_uris": {"ios": "https://dc.lft.to/lastmile_qr_scan", "android": "https://dc.lft.to/lastmile_qr_scan"}, "is_reserved": 0, "fusion_lon": 0.0, "fusion_lat": 0.0, "lon": -76.99060666666666, "name": "301e11f477133c48789677c77c261fdf"}, {"bike_id": "cea40791704fa2d0577b63f4f37be6f9", "type": "electric_scooter", "is_disabled": 0, "lat": 38.9220785, "rental_uris": {"ios": "https://dc.lft.to/lastmile_qr_scan", "android": "https://dc.lft.to/lastmile_qr_scan"}, "is_reserved": 0, "fusion_lon": 0.0, "fusion_lat": 0.0, "lon": -77.03658833333333, "name": "cea40791704fa2d0577b63f4f37be6f9"}, {"bike_id": "e0218fd8f364c19a5f2fbd38a78a3367", "type": "electric_scooter", "is_disabled": 0, "lat": 38.9246875, "rental_uris": {"ios": "https://dc.lft.to/lastmile_qr_scan", "android": "https://dc.lft.to/lastmile_qr_scan"}, "is_reserved": 0, "fusion_lon": 0.0, "fusion_lat": 0.0, "lon": -77.028329, "name": "e0218fd8f364c19a5f2fbd38a78a3367"}, {"bike_id": "adf9240e527b8c36fd4cf43c41c3bce9", "type": "electric_scooter", "is_disabled": 0, "lat": 38.866808166666665, "rental_uris": {"ios": "https://dc.lft.to/lastmile_qr_scan", "android": "https://dc.lft.to/lastmile_qr_scan"}, "is_reserved": 0, "fusion_lon": 0.0, "fusion_lat": 0.0, "lon": -76.985499, "name": "adf9240e527b8c36fd4cf43c41c3bce9"}, {"bike_id": "ce3e06631aa4f59c66d8b13c6ea25180", "type": "electric_scooter", "is_disabled": 0, "lat": 38.904891166666665, "rental_uris": {"ios": "https://dc.lft.to/lastmile_qr_scan", "android": "https://dc.lft.to/lastmile_qr_scan"}, "is_reserved": 0, "fusion_lon": 0.0, "fusion_lat": 0.0, "lon": -76.94958266666667, "name": "ce3e06631aa4f59c66d8b13c6ea25180"}, {"bike_id": "be4829178f02ee7d418a4ebddac7d9f4", "type": "electric_scooter", "is_disabled": 0, "lat": 38.88853233333333, "rental_uris": {"ios": "https://dc.lft.to/lastmile_qr_scan", "android": "https://dc.lft.to/lastmile_qr_scan"}, "is_reserved": 0, "fusion_lon": 0.0, "fusion_lat": 0.0, "lon": -77.00051633333334, "name": "be4829178f02ee7d418a4ebddac7d9f4"}, {"bike_id": "1e8c796e2b2a4014b6361948cf0570c7", "type": "electric_scooter", "is_disabled": 0, "lat": 38.887407, "rental_uris": {"ios": "https://dc.lft.to/lastmile_qr_scan", "android": "https://dc.lft.to/lastmile_qr_scan"}, "is_reserved": 0, "fusion_lon": 0.0, "fusion_lat": 0.0, "lon": -76.99623783333334, "name": "1e8c796e2b2a4014b6361948cf0570c7"}, {"bike_id": "0c226d2665ea5067b669ab783be12d35", "type": "electric_scooter", "is_disabled": 0, "lat": 38.90793033333333, "rental_uris": {"ios": "https://dc.lft.to/lastmile_qr_scan", "android": "https://dc.lft.to/lastmile_qr_scan"}, "is_reserved": 0, "fusion_lon": 0.0, "fusion_lat": 0.0, "lon": -77.03867916666667, "name": "0c226d2665ea5067b669ab783be12d35"}, {"bike_id": "4a56eb9ce8fec1037f1f08ebb5ce198c", "type": "electric_scooter", "is_disabled": 0, "lat": 38.866558, "rental_uris": {"ios": "https://dc.lft.to/lastmile_qr_scan", "android": "https://dc.lft.to/lastmile_qr_scan"}, "is_reserved": 0, "fusion_lon": 0.0, "fusion_lat": 0.0, "lon": -76.988909, "name": "4a56eb9ce8fec1037f1f08ebb5ce198c"}, {"bike_id": "09a0bb5f1e18624cae11bfd7507abe2b", "type": "electric_scooter", "is_disabled": 0, "lat": 38.9187545, "rental_uris": {"ios": "https://dc.lft.to/lastmile_qr_scan", "android": "https://dc.lft.to/lastmile_qr_scan"}, "is_reserved": 0, "fusion_lon": 0.0, "fusion_lat": 0.0, "lon": -77.04769433333334, "name": "09a0bb5f1e18624cae11bfd7507abe2b"}, {"bike_id": "03e6f2b0af95905873cc48941c84702e", "type": "electric_scooter", "is_disabled": 0, "lat": 38.91559266666667, "rental_uris": {"ios": "https://dc.lft.to/lastmile_qr_scan", "android": "https://dc.lft.to/lastmile_qr_scan"}, "is_reserved": 0, "fusion_lon": 0.0, "fusion_lat": 0.0, "lon": -77.03120566666666, "name": "03e6f2b0af95905873cc48941c84702e"}, {"bike_id": "98c8d725fb2f34c12f5bdb662fa3fb61", "type": "electric_scooter", "is_disabled": 0, "lat": 38.907733666666665, "rental_uris": {"ios": "https://dc.lft.to/lastmile_qr_scan", "android": "https://dc.lft.to/lastmile_qr_scan"}, "is_reserved": 0, "fusion_lon": 0.0, "fusion_lat": 0.0, "lon": -76.99937, "name": "98c8d725fb2f34c12f5bdb662fa3fb61"}, {"bike_id": "3b178bab5808b62627edf3b6eab5b2aa", "type": "electric_scooter", "is_disabled": 0, "lat": 38.880419, "rental_uris": {"ios": "https://dc.lft.to/lastmile_qr_scan", "android": "https://dc.lft.to/lastmile_qr_scan"}, "is_reserved": 0, "fusion_lon": 0.0, "fusion_lat": 0.0, "lon": -76.9321305, "name": "3b178bab5808b62627edf3b6eab5b2aa"}, {"bike_id": "c1c0e162b929d5009e6ce782be8fc709", "type": "electric_bike", "is_disabled": 0, "lat": 38.87986816666667, "rental_uris": {"ios": "https://dc.lft.to/lastmile_qr_scan", "android": "https://dc.lft.to/lastmile_qr_scan"}, "is_reserved": 0, "fusion_lon": 0.0, "fusion_lat": 0.0, "lon": -76.91598266666666, "name": "c1c0e162b929d5009e6ce782be8fc709"}, {"bike_id": "9ff74f24ed21db6f239139246156eeb3", "type": "electric_scooter", "is_disabled": 0, "lat": 38.928020833333335, "rental_uris": {"ios": "https://dc.lft.to/lastmile_qr_scan", "android": "https://dc.lft.to/lastmile_qr_scan"}, "is_reserved": 0, "fusion_lon": 0.0, "fusion_lat": 0.0, "lon": -77.0236415, "name": "9ff74f24ed21db6f239139246156eeb3"}, {"bike_id": "1de5920e4ac5659412908bc33e233ab9", "type": "electric_scooter", "is_disabled": 0, "lat": 38.8921955, "rental_uris": {"ios": "https://dc.lft.to/lastmile_qr_scan", "android": "https://dc.lft.to/lastmile_qr_scan"}, "is_reserved": 0, "fusion_lon": 0.0, "fusion_lat": 0.0, "lon": -77.03161366666667, "name": "1de5920e4ac5659412908bc33e233ab9"}, {"bike_id": "f9134d5439dbc582e064cc301d5b0349", "type": "electric_scooter", "is_disabled": 0, "lat": 38.91663066666667, "rental_uris": {"ios": "https://dc.lft.to/lastmile_qr_scan", "android": "https://dc.lft.to/lastmile_qr_scan"}, "is_reserved": 0, "fusion_lon": 0.0, "fusion_lat": 0.0, "lon": -77.02890566666666, "name": "f9134d5439dbc582e064cc301d5b0349"}, {"bike_id": "53cca29292e5663fcc5062ee04256e2a", "type": "electric_scooter", "is_disabled": 0, "lat": 38.917175, "rental_uris": {"ios": "https://dc.lft.to/lastmile_qr_scan", "android": "https://dc.lft.to/lastmile_qr_scan"}, "is_reserved": 0, "fusion_lon": 0.0, "fusion_lat": 0.0, "lon": -77.03659933333333, "name": "53cca29292e5663fcc5062ee04256e2a"}, {"bike_id": "de2503afde213480db03116f3cb6c25d", "type": "electric_scooter", "is_disabled": 0, "lat": 38.9171005, "rental_uris": {"ios": "https://dc.lft.to/lastmile_qr_scan", "android": "https://dc.lft.to/lastmile_qr_scan"}, "is_reserved": 0, "fusion_lon": 0.0, "fusion_lat": 0.0, "lon": -77.02800933333333, "name": "de2503afde213480db03116f3cb6c25d"}, {"bike_id": "a10a5b53c78fa627e8fc50075767c2b7", "type": "electric_scooter", "is_disabled": 0, "lat": 38.8999835, "rental_uris": {"ios": "https://dc.lft.to/lastmile_qr_scan", "android": "https://dc.lft.to/lastmile_qr_scan"}, "is_reserved": 0, "fusion_lon": 0.0, "fusion_lat": 0.0, "lon": -77.00369983333333, "name": "a10a5b53c78fa627e8fc50075767c2b7"}, {"bike_id": "d215d19e71fd0e7ca2d4cb2060bf4ea0", "type": "electric_scooter", "is_disabled": 0, "lat": 38.948560666666665, "rental_uris": {"ios": "https://dc.lft.to/lastmile_qr_scan", "android": "https://dc.lft.to/lastmile_qr_scan"}, "is_reserved": 0, "fusion_lon": 0.0, "fusion_lat": 0.0, "lon": -77.08018066666666, "name": "d215d19e71fd0e7ca2d4cb2060bf4ea0"}, {"bike_id": "a9b618a03ef3f1c271a7b713f976dc0c", "type": "electric_scooter", "is_disabled": 0, "lat": 38.922544, "rental_uris": {"ios": "https://dc.lft.to/lastmile_qr_scan", "android": "https://dc.lft.to/lastmile_qr_scan"}, "is_reserved": 0, "fusion_lon": 0.0, "fusion_lat": 0.0, "lon": -77.04210566666667, "name": "a9b618a03ef3f1c271a7b713f976dc0c"}, {"bike_id": "04c29df86efb74aa190ac76a00c14e54", "type": "electric_scooter", "is_disabled": 0, "lat": 38.8959465, "rental_uris": {"ios": "https://dc.lft.to/lastmile_qr_scan", "android": "https://dc.lft.to/lastmile_qr_scan"}, "is_reserved": 0, "fusion_lon": 0.0, "fusion_lat": 0.0, "lon": -77.010983, "name": "04c29df86efb74aa190ac76a00c14e54"}, {"bike_id": "b4cde944267f9efc9a7ad8bcc9afaa22", "type": "electric_scooter", "is_disabled": 0, "lat": 38.93459, "rental_uris": {"ios": "https://dc.lft.to/lastmile_qr_scan", "android": "https://dc.lft.to/lastmile_qr_scan"}, "is_reserved": 0, "fusion_lon": 0.0, "fusion_lat": 0.0, "lon": -77.02798266666667, "name": "b4cde944267f9efc9a7ad8bcc9afaa22"}, {"bike_id": "908614211e97a1d1423719be60f6b9ad", "type": "electric_scooter", "is_disabled": 0, "lat": 38.931462, "rental_uris": {"ios": "https://dc.lft.to/lastmile_qr_scan", "android": "https://dc.lft.to/lastmile_qr_scan"}, "is_reserved": 0, "fusion_lon": 0.0, "fusion_lat": 0.0, "lon": -77.03355583333334, "name": "908614211e97a1d1423719be60f6b9ad"}, {"bike_id": "fd88f8d5caf713ae44ceb84eea384818", "type": "electric_scooter", "is_disabled": 0, "lat": 38.90849716666666, "rental_uris": {"ios": "https://dc.lft.to/lastmile_qr_scan", "android": "https://dc.lft.to/lastmile_qr_scan"}, "is_reserved": 0, "fusion_lon": 0.0, "fusion_lat": 0.0, "lon": -77.05487016666666, "name": "fd88f8d5caf713ae44ceb84eea384818"}, {"bike_id": "587944cf219784edecac9d3f6f34dc18", "type": "electric_scooter", "is_disabled": 0, "lat": 38.90463366666667, "rental_uris": {"ios": "https://dc.lft.to/lastmile_qr_scan", "android": "https://dc.lft.to/lastmile_qr_scan"}, "is_reserved": 0, "fusion_lon": 0.0, "fusion_lat": 0.0, "lon": -76.9760865, "name": "587944cf219784edecac9d3f6f34dc18"}, {"bike_id": "412e0e1d27dca2ea8b76dbe5cb3353c3", "type": "electric_bike", "is_disabled": 0, "lat": 38.882450166666665, "rental_uris": {"ios": "https://dc.lft.to/lastmile_qr_scan", "android": "https://dc.lft.to/lastmile_qr_scan"}, "is_reserved": 0, "fusion_lon": 0.0, "fusion_lat": 0.0, "lon": -76.96258216666666, "name": "412e0e1d27dca2ea8b76dbe5cb3353c3"}, {"bike_id": "b805a445fb159e267f735f461d1d7b84", "type": "electric_scooter", "is_disabled": 0, "lat": 38.906767333333335, "rental_uris": {"ios": "https://dc.lft.to/lastmile_qr_scan", "android": "https://dc.lft.to/lastmile_qr_scan"}, "is_reserved": 0, "fusion_lon": 0.0, "fusion_lat": 0.0, "lon": -76.97997533333333, "name": "b805a445fb159e267f735f461d1d7b84"}, {"bike_id": "d6c388ae5d1cd6c72c4dd3a229eab581", "type": "electric_scooter", "is_disabled": 0, "lat": 38.921479, "rental_uris": {"ios": "https://dc.lft.to/lastmile_qr_scan", "android": "https://dc.lft.to/lastmile_qr_scan"}, "is_reserved": 0, "fusion_lon": 0.0, "fusion_lat": 0.0, "lon": -77.03514616666666, "name": "d6c388ae5d1cd6c72c4dd3a229eab581"}, {"bike_id": "4277674d4bc9959a6f726061d1f49678", "type": "electric_bike", "is_disabled": 0, "lat": 38.93228233333333, "rental_uris": {"ios": "https://dc.lft.to/lastmile_qr_scan", "android": "https://dc.lft.to/lastmile_qr_scan"}, "is_reserved": 0, "fusion_lon": 0.0, "fusion_lat": 0.0, "lon": -77.18120983333333, "name": "4277674d4bc9959a6f726061d1f49678"}, {"bike_id": "1b30551513a1e72d6770abb92cde32eb", "type": "electric_scooter", "is_disabled": 0, "lat": 38.918390333333335, "rental_uris": {"ios": "https://dc.lft.to/lastmile_qr_scan", "android": "https://dc.lft.to/lastmile_qr_scan"}, "is_reserved": 0, "fusion_lon": 0.0, "fusion_lat": 0.0, "lon": -77.0260555, "name": "1b30551513a1e72d6770abb92cde32eb"}, {"bike_id": "a627a0cf612ad825bd7027c66f4ab1ca", "type": "electric_scooter", "is_disabled": 0, "lat": 38.92953766666667, "rental_uris": {"ios": "https://dc.lft.to/lastmile_qr_scan", "android": "https://dc.lft.to/lastmile_qr_scan"}, "is_reserved": 0, "fusion_lon": 0.0, "fusion_lat": 0.0, "lon": -77.0440395, "name": "a627a0cf612ad825bd7027c66f4ab1ca"}, {"bike_id": "fbfe6367da1cf3af463203c9f35c347c", "type": "electric_scooter", "is_disabled": 0, "lat": 38.901087833333335, "rental_uris": {"ios": "https://dc.lft.to/lastmile_qr_scan", "android": "https://dc.lft.to/lastmile_qr_scan"}, "is_reserved": 0, "fusion_lon": 0.0, "fusion_lat": 0.0, "lon": -77.0498095, "name": "fbfe6367da1cf3af463203c9f35c347c"}, {"bike_id": "70da077137cc298534aa29cbfff07a8d", "type": "electric_scooter", "is_disabled": 0, "lat": 38.936016333333335, "rental_uris": {"ios": "https://dc.lft.to/lastmile_qr_scan", "android": "https://dc.lft.to/lastmile_qr_scan"}, "is_reserved": 0, "fusion_lon": 0.0, "fusion_lat": 0.0, "lon": -77.03805866666667, "name": "70da077137cc298534aa29cbfff07a8d"}, {"bike_id": "df2e3c7320a4c706cff49d799faab215", "type": "electric_scooter", "is_disabled": 0, "lat": 38.933551, "rental_uris": {"ios": "https://dc.lft.to/lastmile_qr_scan", "android": "https://dc.lft.to/lastmile_qr_scan"}, "is_reserved": 0, "fusion_lon": 0.0, "fusion_lat": 0.0, "lon": -77.06207866666666, "name": "df2e3c7320a4c706cff49d799faab215"}, {"bike_id": "cbccd3d76ac7fbcca7a7d1304bf8b1d9", "type": "electric_scooter", "is_disabled": 0, "lat": 38.91138083333333, "rental_uris": {"ios": "https://dc.lft.to/lastmile_qr_scan", "android": "https://dc.lft.to/lastmile_qr_scan"}, "is_reserved": 0, "fusion_lon": 0.0, "fusion_lat": 0.0, "lon": -76.99010816666667, "name": "cbccd3d76ac7fbcca7a7d1304bf8b1d9"}, {"bike_id": "73cea46c7c4ff20cdc21144adb461201", "type": "electric_scooter", "is_disabled": 0, "lat": 38.924278666666666, "rental_uris": {"ios": "https://dc.lft.to/lastmile_qr_scan", "android": "https://dc.lft.to/lastmile_qr_scan"}, "is_reserved": 0, "fusion_lon": 0.0, "fusion_lat": 0.0, "lon": -77.04240783333333, "name": "73cea46c7c4ff20cdc21144adb461201"}, {"bike_id": "4e5b4b5eb37a421d2662973ca9f0e011", "type": "electric_bike", "is_disabled": 0, "lat": 38.87299816666667, "rental_uris": {"ios": "https://dc.lft.to/lastmile_qr_scan", "android": "https://dc.lft.to/lastmile_qr_scan"}, "is_reserved": 0, "fusion_lon": 0.0, "fusion_lat": 0.0, "lon": -77.139243, "name": "4e5b4b5eb37a421d2662973ca9f0e011"}, {"bike_id": "88f80f3c2197cb1ebf378b0a41f1a645", "type": "electric_scooter", "is_disabled": 0, "lat": 38.93861416666667, "rental_uris": {"ios": "https://dc.lft.to/lastmile_qr_scan", "android": "https://dc.lft.to/lastmile_qr_scan"}, "is_reserved": 0, "fusion_lon": 0.0, "fusion_lat": 0.0, "lon": -77.02701366666666, "name": "88f80f3c2197cb1ebf378b0a41f1a645"}, {"bike_id": "12e15a9c02c6642b514ede359c0ce7a3", "type": "electric_scooter", "is_disabled": 0, "lat": 38.95321216666667, "rental_uris": {"ios": "https://dc.lft.to/lastmile_qr_scan", "android": "https://dc.lft.to/lastmile_qr_scan"}, "is_reserved": 0, "fusion_lon": 0.0, "fusion_lat": 0.0, "lon": -77.06982816666667, "name": "12e15a9c02c6642b514ede359c0ce7a3"}, {"bike_id": "1a80de8c2a3536b43536d084c9d4d701", "type": "electric_scooter", "is_disabled": 0, "lat": 38.902328, "rental_uris": {"ios": "https://dc.lft.to/lastmile_qr_scan", "android": "https://dc.lft.to/lastmile_qr_scan"}, "is_reserved": 0, "fusion_lon": 0.0, "fusion_lat": 0.0, "lon": -77.02642683333333, "name": "1a80de8c2a3536b43536d084c9d4d701"}, {"bike_id": "e3bd615125ff7a3745bddd288d969eee", "type": "electric_scooter", "is_disabled": 0, "lat": 38.90733016666667, "rental_uris": {"ios": "https://dc.lft.to/lastmile_qr_scan", "android": "https://dc.lft.to/lastmile_qr_scan"}, "is_reserved": 0, "fusion_lon": 0.0, "fusion_lat": 0.0, "lon": -77.04345616666667, "name": "e3bd615125ff7a3745bddd288d969eee"}, {"bike_id": "f2d13234b6a65490681d9402d0ffb904", "type": "electric_scooter", "is_disabled": 0, "lat": 38.9285295, "rental_uris": {"ios": "https://dc.lft.to/lastmile_qr_scan", "android": "https://dc.lft.to/lastmile_qr_scan"}, "is_reserved": 0, "fusion_lon": 0.0, "fusion_lat": 0.0, "lon": -77.03422416666666, "name": "f2d13234b6a65490681d9402d0ffb904"}, {"bike_id": "022851df1e31da16d51a75bceee2866f", "type": "electric_scooter", "is_disabled": 0, "lat": 38.935838333333336, "rental_uris": {"ios": "https://dc.lft.to/lastmile_qr_scan", "android": "https://dc.lft.to/lastmile_qr_scan"}, "is_reserved": 0, "fusion_lon": 0.0, "fusion_lat": 0.0, "lon": -77.05815566666666, "name": "022851df1e31da16d51a75bceee2866f"}, {"bike_id": "f0f7922acd4cb364f491e389c2d9d390", "type": "electric_bike", "is_disabled": 0, "lat": 39.056323, "rental_uris": {"ios": "https://dc.lft.to/lastmile_qr_scan", "android": "https://dc.lft.to/lastmile_qr_scan"}, "is_reserved": 0, "fusion_lon": 0.0, "fusion_lat": 0.0, "lon": -77.1252305, "name": "f0f7922acd4cb364f491e389c2d9d390"}, {"bike_id": "7fc6e444f4a0931a0e64797f3002d7ab", "type": "electric_scooter", "is_disabled": 0, "lat": 38.911137, "rental_uris": {"ios": "https://dc.lft.to/lastmile_qr_scan", "android": "https://dc.lft.to/lastmile_qr_scan"}, "is_reserved": 0, "fusion_lon": 0.0, "fusion_lat": 0.0, "lon": -77.032545, "name": "7fc6e444f4a0931a0e64797f3002d7ab"}, {"bike_id": "2a39bd435f16db42c053d0278a30e059", "type": "electric_scooter", "is_disabled": 0, "lat": 38.947868666666665, "rental_uris": {"ios": "https://dc.lft.to/lastmile_qr_scan", "android": "https://dc.lft.to/lastmile_qr_scan"}, "is_reserved": 0, "fusion_lon": 0.0, "fusion_lat": 0.0, "lon": -77.07934816666666, "name": "2a39bd435f16db42c053d0278a30e059"}, {"bike_id": "c2c57a4e0cf9c52ded5cab22d2a79d05", "type": "electric_scooter", "is_disabled": 0, "lat": 38.923344666666665, "rental_uris": {"ios": "https://dc.lft.to/lastmile_qr_scan", "android": "https://dc.lft.to/lastmile_qr_scan"}, "is_reserved": 0, "fusion_lon": 0.0, "fusion_lat": 0.0, "lon": -77.05297683333333, "name": "c2c57a4e0cf9c52ded5cab22d2a79d05"}, {"bike_id": "53e924c6c93c5da516c4adc8ff1a56af", "type": "electric_scooter", "is_disabled": 0, "lat": 38.910727, "rental_uris": {"ios": "https://dc.lft.to/lastmile_qr_scan", "android": "https://dc.lft.to/lastmile_qr_scan"}, "is_reserved": 0, "fusion_lon": 0.0, "fusion_lat": 0.0, "lon": -77.0260355, "name": "53e924c6c93c5da516c4adc8ff1a56af"}, {"bike_id": "18a3a6738fb1b2f18374af786b99c590", "type": "electric_scooter", "is_disabled": 0, "lat": 38.90736416666667, "rental_uris": {"ios": "https://dc.lft.to/lastmile_qr_scan", "android": "https://dc.lft.to/lastmile_qr_scan"}, "is_reserved": 0, "fusion_lon": 0.0, "fusion_lat": 0.0, "lon": -77.00943033333333, "name": "18a3a6738fb1b2f18374af786b99c590"}, {"bike_id": "7b50b85a8029a8530f6a95ec98b07cbf", "type": "electric_scooter", "is_disabled": 0, "lat": 38.91772866666667, "rental_uris": {"ios": "https://dc.lft.to/lastmile_qr_scan", "android": "https://dc.lft.to/lastmile_qr_scan"}, "is_reserved": 0, "fusion_lon": 0.0, "fusion_lat": 0.0, "lon": -77.02317333333333, "name": "7b50b85a8029a8530f6a95ec98b07cbf"}, {"bike_id": "11913c923c8184aee7b983130d3ad570", "type": "electric_scooter", "is_disabled": 0, "lat": 38.942067, "rental_uris": {"ios": "https://dc.lft.to/lastmile_qr_scan", "android": "https://dc.lft.to/lastmile_qr_scan"}, "is_reserved": 0, "fusion_lon": 0.0, "fusion_lat": 0.0, "lon": -77.02583766666666, "name": "11913c923c8184aee7b983130d3ad570"}, {"bike_id": "933744bc606d03677e67f7320447ce70", "type": "electric_scooter", "is_disabled": 0, "lat": 38.894974500000004, "rental_uris": {"ios": "https://dc.lft.to/lastmile_qr_scan", "android": "https://dc.lft.to/lastmile_qr_scan"}, "is_reserved": 0, "fusion_lon": 0.0, "fusion_lat": 0.0, "lon": -77.0021285, "name": "933744bc606d03677e67f7320447ce70"}, {"bike_id": "9216c2e95c2db277cbca17b1d840d0a7", "type": "electric_scooter", "is_disabled": 0, "lat": 38.894941833333334, "rental_uris": {"ios": "https://dc.lft.to/lastmile_qr_scan", "android": "https://dc.lft.to/lastmile_qr_scan"}, "is_reserved": 0, "fusion_lon": 0.0, "fusion_lat": 0.0, "lon": -77.0005745, "name": "9216c2e95c2db277cbca17b1d840d0a7"}, {"bike_id": "4d934bef8fe61ccea331b4821a6363ce", "type": "electric_scooter", "is_disabled": 0, "lat": 38.91553733333333, "rental_uris": {"ios": "https://dc.lft.to/lastmile_qr_scan", "android": "https://dc.lft.to/lastmile_qr_scan"}, "is_reserved": 0, "fusion_lon": 0.0, "fusion_lat": 0.0, "lon": -77.03174033333333, "name": "4d934bef8fe61ccea331b4821a6363ce"}, {"bike_id": "dbdbcb598023339178201d0f3467ef3c", "type": "electric_scooter", "is_disabled": 0, "lat": 38.8954455, "rental_uris": {"ios": "https://dc.lft.to/lastmile_qr_scan", "android": "https://dc.lft.to/lastmile_qr_scan"}, "is_reserved": 0, "fusion_lon": 0.0, "fusion_lat": 0.0, "lon": -76.9295165, "name": "dbdbcb598023339178201d0f3467ef3c"}, {"bike_id": "727442a5f12da869a93350398be400ad", "type": "electric_scooter", "is_disabled": 0, "lat": 38.94023416666667, "rental_uris": {"ios": "https://dc.lft.to/lastmile_qr_scan", "android": "https://dc.lft.to/lastmile_qr_scan"}, "is_reserved": 0, "fusion_lon": 0.0, "fusion_lat": 0.0, "lon": -77.03809716666666, "name": "727442a5f12da869a93350398be400ad"}, {"bike_id": "68c2f69fe019188b8e3045b7c40cffb9", "type": "electric_scooter", "is_disabled": 0, "lat": 38.905873666666665, "rental_uris": {"ios": "https://dc.lft.to/lastmile_qr_scan", "android": "https://dc.lft.to/lastmile_qr_scan"}, "is_reserved": 0, "fusion_lon": 0.0, "fusion_lat": 0.0, "lon": -77.06269833333333, "name": "68c2f69fe019188b8e3045b7c40cffb9"}, {"bike_id": "446676970a8c19762d597a4baf9d94ab", "type": "electric_scooter", "is_disabled": 0, "lat": 38.9203465, "rental_uris": {"ios": "https://dc.lft.to/lastmile_qr_scan", "android": "https://dc.lft.to/lastmile_qr_scan"}, "is_reserved": 0, "fusion_lon": 0.0, "fusion_lat": 0.0, "lon": -77.03387383333333, "name": "446676970a8c19762d597a4baf9d94ab"}, {"bike_id": "683714c8aa8e796193ed290ed090a613", "type": "electric_scooter", "is_disabled": 0, "lat": 38.880842, "rental_uris": {"ios": "https://dc.lft.to/lastmile_qr_scan", "android": "https://dc.lft.to/lastmile_qr_scan"}, "is_reserved": 0, "fusion_lon": 0.0, "fusion_lat": 0.0, "lon": -76.98509716666666, "name": "683714c8aa8e796193ed290ed090a613"}, {"bike_id": "bccbce11c06da0966a79464fcc20bfcf", "type": "electric_scooter", "is_disabled": 0, "lat": 38.89727166666667, "rental_uris": {"ios": "https://dc.lft.to/lastmile_qr_scan", "android": "https://dc.lft.to/lastmile_qr_scan"}, "is_reserved": 0, "fusion_lon": 0.0, "fusion_lat": 0.0, "lon": -77.04600516666666, "name": "bccbce11c06da0966a79464fcc20bfcf"}, {"bike_id": "dd9e7d063488e036e7a3df25e5a69ecf", "type": "electric_scooter", "is_disabled": 0, "lat": 38.93468216666667, "rental_uris": {"ios": "https://dc.lft.to/lastmile_qr_scan", "android": "https://dc.lft.to/lastmile_qr_scan"}, "is_reserved": 0, "fusion_lon": 0.0, "fusion_lat": 0.0, "lon": -77.0277275, "name": "dd9e7d063488e036e7a3df25e5a69ecf"}, {"bike_id": "6175a832c604c6339836300b59e1f7de", "type": "electric_scooter", "is_disabled": 0, "lat": 38.83076416666667, "rental_uris": {"ios": "https://dc.lft.to/lastmile_qr_scan", "android": "https://dc.lft.to/lastmile_qr_scan"}, "is_reserved": 0, "fusion_lon": 0.0, "fusion_lat": 0.0, "lon": -77.05160883333333, "name": "6175a832c604c6339836300b59e1f7de"}, {"bike_id": "d85c452a1b91c8e3eda7e8832172557d", "type": "electric_scooter", "is_disabled": 0, "lat": 38.963930833333336, "rental_uris": {"ios": "https://dc.lft.to/lastmile_qr_scan", "android": "https://dc.lft.to/lastmile_qr_scan"}, "is_reserved": 0, "fusion_lon": 0.0, "fusion_lat": 0.0, "lon": -77.02591766666667, "name": "d85c452a1b91c8e3eda7e8832172557d"}, {"bike_id": "59ee41af40bc2cfd25ef8b1d81c61e18", "type": "electric_scooter", "is_disabled": 0, "lat": 38.86684133333333, "rental_uris": {"ios": "https://dc.lft.to/lastmile_qr_scan", "android": "https://dc.lft.to/lastmile_qr_scan"}, "is_reserved": 0, "fusion_lon": 0.0, "fusion_lat": 0.0, "lon": -76.98576733333333, "name": "59ee41af40bc2cfd25ef8b1d81c61e18"}, {"bike_id": "9a5436663c3aba6c295284009603af81", "type": "electric_scooter", "is_disabled": 0, "lat": 38.86649233333333, "rental_uris": {"ios": "https://dc.lft.to/lastmile_qr_scan", "android": "https://dc.lft.to/lastmile_qr_scan"}, "is_reserved": 0, "fusion_lon": 0.0, "fusion_lat": 0.0, "lon": -76.9881555, "name": "9a5436663c3aba6c295284009603af81"}, {"bike_id": "744fef85ba2a4379091eafb9062e03d7", "type": "electric_bike", "is_disabled": 0, "lat": 38.9372035, "rental_uris": {"ios": "https://dc.lft.to/lastmile_qr_scan", "android": "https://dc.lft.to/lastmile_qr_scan"}, "is_reserved": 0, "fusion_lon": 0.0, "fusion_lat": 0.0, "lon": -76.99148833333334, "name": "744fef85ba2a4379091eafb9062e03d7"}, {"bike_id": "d39a9b6c2afe7e2b7004e4db1cecb190", "type": "electric_scooter", "is_disabled": 0, "lat": 38.92739516666666, "rental_uris": {"ios": "https://dc.lft.to/lastmile_qr_scan", "android": "https://dc.lft.to/lastmile_qr_scan"}, "is_reserved": 0, "fusion_lon": 0.0, "fusion_lat": 0.0, "lon": -77.02531183333333, "name": "d39a9b6c2afe7e2b7004e4db1cecb190"}, {"bike_id": "38e7e1100fda447384a8f4ca915f5b39", "type": "electric_bike", "is_disabled": 0, "lat": 38.983647166666664, "rental_uris": {"ios": "https://dc.lft.to/lastmile_qr_scan", "android": "https://dc.lft.to/lastmile_qr_scan"}, "is_reserved": 0, "fusion_lon": 0.0, "fusion_lat": 0.0, "lon": -76.97213883333333, "name": "38e7e1100fda447384a8f4ca915f5b39"}, {"bike_id": "98baed4437dfd380ee3c3fd61557f720", "type": "electric_scooter", "is_disabled": 0, "lat": 38.90714666666667, "rental_uris": {"ios": "https://dc.lft.to/lastmile_qr_scan", "android": "https://dc.lft.to/lastmile_qr_scan"}, "is_reserved": 0, "fusion_lon": 0.0, "fusion_lat": 0.0, "lon": -77.0240235, "name": "98baed4437dfd380ee3c3fd61557f720"}, {"bike_id": "5fbf5e88e9b67dc58caf0f9febb7323c", "type": "electric_scooter", "is_disabled": 0, "lat": 38.897078, "rental_uris": {"ios": "https://dc.lft.to/lastmile_qr_scan", "android": "https://dc.lft.to/lastmile_qr_scan"}, "is_reserved": 0, "fusion_lon": 0.0, "fusion_lat": 0.0, "lon": -77.00834466666667, "name": "5fbf5e88e9b67dc58caf0f9febb7323c"}, {"bike_id": "a10b59b714e39e5e8ee1351dab22cd7f", "type": "electric_scooter", "is_disabled": 0, "lat": 38.919301, "rental_uris": {"ios": "https://dc.lft.to/lastmile_qr_scan", "android": "https://dc.lft.to/lastmile_qr_scan"}, "is_reserved": 0, "fusion_lon": 0.0, "fusion_lat": 0.0, "lon": -77.03210283333334, "name": "a10b59b714e39e5e8ee1351dab22cd7f"}, {"bike_id": "9b45825e70983f74afb1987055e703ad", "type": "electric_scooter", "is_disabled": 0, "lat": 38.9071625, "rental_uris": {"ios": "https://dc.lft.to/lastmile_qr_scan", "android": "https://dc.lft.to/lastmile_qr_scan"}, "is_reserved": 0, "fusion_lon": 0.0, "fusion_lat": 0.0, "lon": -77.03188216666666, "name": "9b45825e70983f74afb1987055e703ad"}, {"bike_id": "74a8f76cbb285844d9dbf72c413005c2", "type": "electric_scooter", "is_disabled": 0, "lat": 38.919236833333336, "rental_uris": {"ios": "https://dc.lft.to/lastmile_qr_scan", "android": "https://dc.lft.to/lastmile_qr_scan"}, "is_reserved": 0, "fusion_lon": 0.0, "fusion_lat": 0.0, "lon": -77.04501316666666, "name": "74a8f76cbb285844d9dbf72c413005c2"}, {"bike_id": "49bce711b591abb3056b2873c024d534", "type": "electric_scooter", "is_disabled": 0, "lat": 38.89842616666667, "rental_uris": {"ios": "https://dc.lft.to/lastmile_qr_scan", "android": "https://dc.lft.to/lastmile_qr_scan"}, "is_reserved": 0, "fusion_lon": 0.0, "fusion_lat": 0.0, "lon": -76.94630433333333, "name": "49bce711b591abb3056b2873c024d534"}, {"bike_id": "c9ee759895e47f4f61553e1e405bb67e", "type": "electric_scooter", "is_disabled": 0, "lat": 38.90265816666667, "rental_uris": {"ios": "https://dc.lft.to/lastmile_qr_scan", "android": "https://dc.lft.to/lastmile_qr_scan"}, "is_reserved": 0, "fusion_lon": 0.0, "fusion_lat": 0.0, "lon": -77.05473433333333, "name": "c9ee759895e47f4f61553e1e405bb67e"}, {"bike_id": "e90c1d94c014de7cf18435a8cb52a572", "type": "electric_scooter", "is_disabled": 0, "lat": 38.9025845, "rental_uris": {"ios": "https://dc.lft.to/lastmile_qr_scan", "android": "https://dc.lft.to/lastmile_qr_scan"}, "is_reserved": 0, "fusion_lon": 0.0, "fusion_lat": 0.0, "lon": -77.016384, "name": "e90c1d94c014de7cf18435a8cb52a572"}, {"bike_id": "3bd458802f01569d6bd8cf0b4d67dbaf", "type": "electric_scooter", "is_disabled": 0, "lat": 38.896202333333335, "rental_uris": {"ios": "https://dc.lft.to/lastmile_qr_scan", "android": "https://dc.lft.to/lastmile_qr_scan"}, "is_reserved": 0, "fusion_lon": 0.0, "fusion_lat": 0.0, "lon": -76.98570833333333, "name": "3bd458802f01569d6bd8cf0b4d67dbaf"}, {"bike_id": "686d23366e637f2bfd74b2daf94bee11", "type": "electric_scooter", "is_disabled": 0, "lat": 38.906326, "rental_uris": {"ios": "https://dc.lft.to/lastmile_qr_scan", "android": "https://dc.lft.to/lastmile_qr_scan"}, "is_reserved": 0, "fusion_lon": 0.0, "fusion_lat": 0.0, "lon": -77.0296075, "name": "686d23366e637f2bfd74b2daf94bee11"}, {"bike_id": "669a8c9b64a6327241676990bd617886", "type": "electric_scooter", "is_disabled": 0, "lat": 38.921518666666664, "rental_uris": {"ios": "https://dc.lft.to/lastmile_qr_scan", "android": "https://dc.lft.to/lastmile_qr_scan"}, "is_reserved": 0, "fusion_lon": 0.0, "fusion_lat": 0.0, "lon": -77.03517066666667, "name": "669a8c9b64a6327241676990bd617886"}, {"bike_id": "e9b2aa355fbd144e21bbccf42a7c0de7", "type": "electric_scooter", "is_disabled": 0, "lat": 38.89479083333333, "rental_uris": {"ios": "https://dc.lft.to/lastmile_qr_scan", "android": "https://dc.lft.to/lastmile_qr_scan"}, "is_reserved": 0, "fusion_lon": 0.0, "fusion_lat": 0.0, "lon": -76.948608, "name": "e9b2aa355fbd144e21bbccf42a7c0de7"}, {"bike_id": "9740dbd6d8a82d258d36242469ef9b18", "type": "electric_scooter", "is_disabled": 0, "lat": 38.907378666666666, "rental_uris": {"ios": "https://dc.lft.to/lastmile_qr_scan", "android": "https://dc.lft.to/lastmile_qr_scan"}, "is_reserved": 0, "fusion_lon": 0.0, "fusion_lat": 0.0, "lon": -77.00932233333333, "name": "9740dbd6d8a82d258d36242469ef9b18"}, {"bike_id": "2ede1329df77da6a76b25e357bbbaada", "type": "electric_scooter", "is_disabled": 0, "lat": 38.90774016666667, "rental_uris": {"ios": "https://dc.lft.to/lastmile_qr_scan", "android": "https://dc.lft.to/lastmile_qr_scan"}, "is_reserved": 0, "fusion_lon": 0.0, "fusion_lat": 0.0, "lon": -77.07146566666667, "name": "2ede1329df77da6a76b25e357bbbaada"}, {"bike_id": "d4ef689a2713226e2bb000039e96cd13", "type": "electric_scooter", "is_disabled": 0, "lat": 38.91180666666666, "rental_uris": {"ios": "https://dc.lft.to/lastmile_qr_scan", "android": "https://dc.lft.to/lastmile_qr_scan"}, "is_reserved": 0, "fusion_lon": 0.0, "fusion_lat": 0.0, "lon": -77.0403195, "name": "d4ef689a2713226e2bb000039e96cd13"}, {"bike_id": "9ff55eb446c0d9229d1ee5ff1fc9f9ed", "type": "electric_scooter", "is_disabled": 0, "lat": 38.9169135, "rental_uris": {"ios": "https://dc.lft.to/lastmile_qr_scan", "android": "https://dc.lft.to/lastmile_qr_scan"}, "is_reserved": 0, "fusion_lon": 0.0, "fusion_lat": 0.0, "lon": -77.02878933333334, "name": "9ff55eb446c0d9229d1ee5ff1fc9f9ed"}, {"bike_id": "cb01e19dc0e6b3e4bea1e0d255e21087", "type": "electric_scooter", "is_disabled": 0, "lat": 38.906437333333336, "rental_uris": {"ios": "https://dc.lft.to/lastmile_qr_scan", "android": "https://dc.lft.to/lastmile_qr_scan"}, "is_reserved": 0, "fusion_lon": 0.0, "fusion_lat": 0.0, "lon": -77.00610866666666, "name": "cb01e19dc0e6b3e4bea1e0d255e21087"}, {"bike_id": "f0c52d13c15c321ac2515c56f2b26e32", "type": "electric_scooter", "is_disabled": 0, "lat": 38.92484533333333, "rental_uris": {"ios": "https://dc.lft.to/lastmile_qr_scan", "android": "https://dc.lft.to/lastmile_qr_scan"}, "is_reserved": 0, "fusion_lon": 0.0, "fusion_lat": 0.0, "lon": -77.02960066666667, "name": "f0c52d13c15c321ac2515c56f2b26e32"}, {"bike_id": "1af33960a280d3c21e73414192c17ef9", "type": "electric_scooter", "is_disabled": 0, "lat": 38.89221516666667, "rental_uris": {"ios": "https://dc.lft.to/lastmile_qr_scan", "android": "https://dc.lft.to/lastmile_qr_scan"}, "is_reserved": 0, "fusion_lon": 0.0, "fusion_lat": 0.0, "lon": -77.02596116666666, "name": "1af33960a280d3c21e73414192c17ef9"}, {"bike_id": "0cac8dad0f9907c6566ee2aed713fc52", "type": "electric_scooter", "is_disabled": 0, "lat": 38.942013333333335, "rental_uris": {"ios": "https://dc.lft.to/lastmile_qr_scan", "android": "https://dc.lft.to/lastmile_qr_scan"}, "is_reserved": 0, "fusion_lon": 0.0, "fusion_lat": 0.0, "lon": -77.025441, "name": "0cac8dad0f9907c6566ee2aed713fc52"}, {"bike_id": "c9cc56fc5a57dfc4197b093c636a53ac", "type": "electric_scooter", "is_disabled": 0, "lat": 38.899675333333334, "rental_uris": {"ios": "https://dc.lft.to/lastmile_qr_scan", "android": "https://dc.lft.to/lastmile_qr_scan"}, "is_reserved": 0, "fusion_lon": 0.0, "fusion_lat": 0.0, "lon": -76.98304066666667, "name": "c9cc56fc5a57dfc4197b093c636a53ac"}, {"bike_id": "052d16671770f946b235aecbcb317c2b", "type": "electric_scooter", "is_disabled": 0, "lat": 38.9078935, "rental_uris": {"ios": "https://dc.lft.to/lastmile_qr_scan", "android": "https://dc.lft.to/lastmile_qr_scan"}, "is_reserved": 0, "fusion_lon": 0.0, "fusion_lat": 0.0, "lon": -76.9942705, "name": "052d16671770f946b235aecbcb317c2b"}, {"bike_id": "99bfbc2c1a8f9d661966e5a8b8af2986", "type": "electric_scooter", "is_disabled": 0, "lat": 38.866242666666665, "rental_uris": {"ios": "https://dc.lft.to/lastmile_qr_scan", "android": "https://dc.lft.to/lastmile_qr_scan"}, "is_reserved": 0, "fusion_lon": 0.0, "fusion_lat": 0.0, "lon": -76.98714833333334, "name": "99bfbc2c1a8f9d661966e5a8b8af2986"}, {"bike_id": "6f2e7dad5cf2cfd257088a1deaa2c085", "type": "electric_scooter", "is_disabled": 0, "lat": 38.92329483333333, "rental_uris": {"ios": "https://dc.lft.to/lastmile_qr_scan", "android": "https://dc.lft.to/lastmile_qr_scan"}, "is_reserved": 0, "fusion_lon": 0.0, "fusion_lat": 0.0, "lon": -77.000507, "name": "6f2e7dad5cf2cfd257088a1deaa2c085"}, {"bike_id": "08aae185f365cf32f3048017b9f60da3", "type": "electric_scooter", "is_disabled": 0, "lat": 38.939786833333336, "rental_uris": {"ios": "https://dc.lft.to/lastmile_qr_scan", "android": "https://dc.lft.to/lastmile_qr_scan"}, "is_reserved": 0, "fusion_lon": 0.0, "fusion_lat": 0.0, "lon": -77.028725, "name": "08aae185f365cf32f3048017b9f60da3"}, {"bike_id": "f6cf9d0548c072dc8b488076ff1d83aa", "type": "electric_scooter", "is_disabled": 0, "lat": 38.89486483333334, "rental_uris": {"ios": "https://dc.lft.to/lastmile_qr_scan", "android": "https://dc.lft.to/lastmile_qr_scan"}, "is_reserved": 0, "fusion_lon": 0.0, "fusion_lat": 0.0, "lon": -76.98781983333333, "name": "f6cf9d0548c072dc8b488076ff1d83aa"}, {"bike_id": "766ddc91f5eef88a4215ed19d0463335", "type": "electric_scooter", "is_disabled": 0, "lat": 38.93318766666667, "rental_uris": {"ios": "https://dc.lft.to/lastmile_qr_scan", "android": "https://dc.lft.to/lastmile_qr_scan"}, "is_reserved": 0, "fusion_lon": 0.0, "fusion_lat": 0.0, "lon": -77.02386283333334, "name": "766ddc91f5eef88a4215ed19d0463335"}, {"bike_id": "a6f44352700eb7425e5b5d939084729e", "type": "electric_scooter", "is_disabled": 0, "lat": 38.892858833333335, "rental_uris": {"ios": "https://dc.lft.to/lastmile_qr_scan", "android": "https://dc.lft.to/lastmile_qr_scan"}, "is_reserved": 0, "fusion_lon": 0.0, "fusion_lat": 0.0, "lon": -77.02044633333334, "name": "a6f44352700eb7425e5b5d939084729e"}, {"bike_id": "89e2f26354bcd70fbb8d05a953a61dcb", "type": "electric_bike", "is_disabled": 0, "lat": 38.9436215, "rental_uris": {"ios": "https://dc.lft.to/lastmile_qr_scan", "android": "https://dc.lft.to/lastmile_qr_scan"}, "is_reserved": 0, "fusion_lon": 0.0, "fusion_lat": 0.0, "lon": -77.00352316666667, "name": "89e2f26354bcd70fbb8d05a953a61dcb"}, {"bike_id": "ba227d0c90c3fc73deff2fd1d7029f69", "type": "electric_scooter", "is_disabled": 0, "lat": 38.870711166666666, "rental_uris": {"ios": "https://dc.lft.to/lastmile_qr_scan", "android": "https://dc.lft.to/lastmile_qr_scan"}, "is_reserved": 0, "fusion_lon": 0.0, "fusion_lat": 0.0, "lon": -76.98130166666667, "name": "ba227d0c90c3fc73deff2fd1d7029f69"}, {"bike_id": "a504622a74f2e8b23f1c10f6230a1674", "type": "electric_bike", "is_disabled": 0, "lat": 38.807528833333336, "rental_uris": {"ios": "https://dc.lft.to/lastmile_qr_scan", "android": "https://dc.lft.to/lastmile_qr_scan"}, "is_reserved": 0, "fusion_lon": 0.0, "fusion_lat": 0.0, "lon": -77.094531, "name": "a504622a74f2e8b23f1c10f6230a1674"}, {"bike_id": "5b169c6f040d97b40102eb1cf46af676", "type": "electric_bike", "is_disabled": 0, "lat": 38.86463366666667, "rental_uris": {"ios": "https://dc.lft.to/lastmile_qr_scan", "android": "https://dc.lft.to/lastmile_qr_scan"}, "is_reserved": 0, "fusion_lon": 0.0, "fusion_lat": 0.0, "lon": -76.9773345, "name": "5b169c6f040d97b40102eb1cf46af676"}, {"bike_id": "6995875af7180478e2f4690d6b144d54", "type": "electric_scooter", "is_disabled": 0, "lat": 38.887120833333334, "rental_uris": {"ios": "https://dc.lft.to/lastmile_qr_scan", "android": "https://dc.lft.to/lastmile_qr_scan"}, "is_reserved": 0, "fusion_lon": 0.0, "fusion_lat": 0.0, "lon": -77.022072, "name": "6995875af7180478e2f4690d6b144d54"}, {"bike_id": "d4ca379220dbd06c644c55eb13fbf051", "type": "electric_scooter", "is_disabled": 0, "lat": 38.85807233333333, "rental_uris": {"ios": "https://dc.lft.to/lastmile_qr_scan", "android": "https://dc.lft.to/lastmile_qr_scan"}, "is_reserved": 0, "fusion_lon": 0.0, "fusion_lat": 0.0, "lon": -76.989218, "name": "d4ca379220dbd06c644c55eb13fbf051"}, {"bike_id": "6fa13a6167624c14d9214e1919208ae8", "type": "electric_scooter", "is_disabled": 0, "lat": 38.891919, "rental_uris": {"ios": "https://dc.lft.to/lastmile_qr_scan", "android": "https://dc.lft.to/lastmile_qr_scan"}, "is_reserved": 0, "fusion_lon": 0.0, "fusion_lat": 0.0, "lon": -77.02504783333333, "name": "6fa13a6167624c14d9214e1919208ae8"}, {"bike_id": "9ebd31445f4b8f925b53249c642bcd73", "type": "electric_scooter", "is_disabled": 0, "lat": 38.914030833333335, "rental_uris": {"ios": "https://dc.lft.to/lastmile_qr_scan", "android": "https://dc.lft.to/lastmile_qr_scan"}, "is_reserved": 0, "fusion_lon": 0.0, "fusion_lat": 0.0, "lon": -77.03958033333333, "name": "9ebd31445f4b8f925b53249c642bcd73"}, {"bike_id": "bb6bcc6b172c5fa7a20936e835842d11", "type": "electric_scooter", "is_disabled": 0, "lat": 38.88118016666667, "rental_uris": {"ios": "https://dc.lft.to/lastmile_qr_scan", "android": "https://dc.lft.to/lastmile_qr_scan"}, "is_reserved": 0, "fusion_lon": 0.0, "fusion_lat": 0.0, "lon": -77.02652733333333, "name": "bb6bcc6b172c5fa7a20936e835842d11"}, {"bike_id": "e898578743c41453ea56c279a3df20d4", "type": "electric_scooter", "is_disabled": 0, "lat": 38.83826883333333, "rental_uris": {"ios": "https://dc.lft.to/lastmile_qr_scan", "android": "https://dc.lft.to/lastmile_qr_scan"}, "is_reserved": 0, "fusion_lon": 0.0, "fusion_lat": 0.0, "lon": -77.00269066666667, "name": "e898578743c41453ea56c279a3df20d4"}, {"bike_id": "884050b5f40c8c59e41addbca6e99cbc", "type": "electric_scooter", "is_disabled": 0, "lat": 38.9046265, "rental_uris": {"ios": "https://dc.lft.to/lastmile_qr_scan", "android": "https://dc.lft.to/lastmile_qr_scan"}, "is_reserved": 0, "fusion_lon": 0.0, "fusion_lat": 0.0, "lon": -77.0071645, "name": "884050b5f40c8c59e41addbca6e99cbc"}, {"bike_id": "f2371e27989e757ce82031af61f7f9a5", "type": "electric_scooter", "is_disabled": 0, "lat": 38.9147795, "rental_uris": {"ios": "https://dc.lft.to/lastmile_qr_scan", "android": "https://dc.lft.to/lastmile_qr_scan"}, "is_reserved": 0, "fusion_lon": 0.0, "fusion_lat": 0.0, "lon": -76.98562733333333, "name": "f2371e27989e757ce82031af61f7f9a5"}, {"bike_id": "a5fa900a54b75af81950a6b5b3b1d511", "type": "electric_scooter", "is_disabled": 0, "lat": 38.902535, "rental_uris": {"ios": "https://dc.lft.to/lastmile_qr_scan", "android": "https://dc.lft.to/lastmile_qr_scan"}, "is_reserved": 0, "fusion_lon": 0.0, "fusion_lat": 0.0, "lon": -76.98665866666667, "name": "a5fa900a54b75af81950a6b5b3b1d511"}, {"bike_id": "e310ecda5b66f506359e3b7f5a2b5c33", "type": "electric_scooter", "is_disabled": 0, "lat": 38.89669283333333, "rental_uris": {"ios": "https://dc.lft.to/lastmile_qr_scan", "android": "https://dc.lft.to/lastmile_qr_scan"}, "is_reserved": 0, "fusion_lon": 0.0, "fusion_lat": 0.0, "lon": -77.02380533333333, "name": "e310ecda5b66f506359e3b7f5a2b5c33"}, {"bike_id": "3d7b150a4c28583fae01adb261c80725", "type": "electric_scooter", "is_disabled": 0, "lat": 38.921571666666665, "rental_uris": {"ios": "https://dc.lft.to/lastmile_qr_scan", "android": "https://dc.lft.to/lastmile_qr_scan"}, "is_reserved": 0, "fusion_lon": 0.0, "fusion_lat": 0.0, "lon": -77.03318066666667, "name": "3d7b150a4c28583fae01adb261c80725"}, {"bike_id": "7fe93094cfef193188e37b000598efb0", "type": "electric_scooter", "is_disabled": 0, "lat": 38.9156925, "rental_uris": {"ios": "https://dc.lft.to/lastmile_qr_scan", "android": "https://dc.lft.to/lastmile_qr_scan"}, "is_reserved": 0, "fusion_lon": 0.0, "fusion_lat": 0.0, "lon": -77.02018783333334, "name": "7fe93094cfef193188e37b000598efb0"}, {"bike_id": "b90c1f15143287c32365f645c21ae7b5", "type": "electric_scooter", "is_disabled": 0, "lat": 38.899982333333334, "rental_uris": {"ios": "https://dc.lft.to/lastmile_qr_scan", "android": "https://dc.lft.to/lastmile_qr_scan"}, "is_reserved": 0, "fusion_lon": 0.0, "fusion_lat": 0.0, "lon": -77.0104085, "name": "b90c1f15143287c32365f645c21ae7b5"}, {"bike_id": "c92373187ac3a22845e3725cb07e15d7", "type": "electric_scooter", "is_disabled": 0, "lat": 38.921335166666665, "rental_uris": {"ios": "https://dc.lft.to/lastmile_qr_scan", "android": "https://dc.lft.to/lastmile_qr_scan"}, "is_reserved": 0, "fusion_lon": 0.0, "fusion_lat": 0.0, "lon": -77.01836783333333, "name": "c92373187ac3a22845e3725cb07e15d7"}, {"bike_id": "d0b9a26fd162d07f0ef9e81b3759e72c", "type": "electric_scooter", "is_disabled": 0, "lat": 38.901266, "rental_uris": {"ios": "https://dc.lft.to/lastmile_qr_scan", "android": "https://dc.lft.to/lastmile_qr_scan"}, "is_reserved": 0, "fusion_lon": 0.0, "fusion_lat": 0.0, "lon": -77.03836066666666, "name": "d0b9a26fd162d07f0ef9e81b3759e72c"}, {"bike_id": "c804a8dbbe2dbb8d8c44498c7c93e5aa", "type": "electric_bike", "is_disabled": 0, "lat": 38.88678483333333, "rental_uris": {"ios": "https://dc.lft.to/lastmile_qr_scan", "android": "https://dc.lft.to/lastmile_qr_scan"}, "is_reserved": 0, "fusion_lon": 0.0, "fusion_lat": 0.0, "lon": -77.16251316666667, "name": "c804a8dbbe2dbb8d8c44498c7c93e5aa"}, {"bike_id": "bbbef85c926bdbf04746749c258af1e7", "type": "electric_scooter", "is_disabled": 0, "lat": 38.843127, "rental_uris": {"ios": "https://dc.lft.to/lastmile_qr_scan", "android": "https://dc.lft.to/lastmile_qr_scan"}, "is_reserved": 0, "fusion_lon": 0.0, "fusion_lat": 0.0, "lon": -76.99928866666667, "name": "bbbef85c926bdbf04746749c258af1e7"}, {"bike_id": "c99c9f65512d41dbe10e39381cce8ff5", "type": "electric_scooter", "is_disabled": 0, "lat": 38.9198675, "rental_uris": {"ios": "https://dc.lft.to/lastmile_qr_scan", "android": "https://dc.lft.to/lastmile_qr_scan"}, "is_reserved": 0, "fusion_lon": 0.0, "fusion_lat": 0.0, "lon": -77.018047, "name": "c99c9f65512d41dbe10e39381cce8ff5"}, {"bike_id": "1a0433d927b4c8efd883821749e731a7", "type": "electric_scooter", "is_disabled": 0, "lat": 38.864704333333336, "rental_uris": {"ios": "https://dc.lft.to/lastmile_qr_scan", "android": "https://dc.lft.to/lastmile_qr_scan"}, "is_reserved": 0, "fusion_lon": 0.0, "fusion_lat": 0.0, "lon": -77.0000795, "name": "1a0433d927b4c8efd883821749e731a7"}, {"bike_id": "8b0a50e6858cdd3a0abe7754d5b6ff3d", "type": "electric_scooter", "is_disabled": 0, "lat": 38.923618166666664, "rental_uris": {"ios": "https://dc.lft.to/lastmile_qr_scan", "android": "https://dc.lft.to/lastmile_qr_scan"}, "is_reserved": 0, "fusion_lon": 0.0, "fusion_lat": 0.0, "lon": -77.05131116666666, "name": "8b0a50e6858cdd3a0abe7754d5b6ff3d"}, {"bike_id": "c0ba4c7c0100e1ba8c517aba0745b705", "type": "electric_bike", "is_disabled": 0, "lat": 38.83609416666667, "rental_uris": {"ios": "https://dc.lft.to/lastmile_qr_scan", "android": "https://dc.lft.to/lastmile_qr_scan"}, "is_reserved": 0, "fusion_lon": 0.0, "fusion_lat": 0.0, "lon": -77.00381616666667, "name": "c0ba4c7c0100e1ba8c517aba0745b705"}, {"bike_id": "f235de7e48ef702e86a3d55b65260652", "type": "electric_scooter", "is_disabled": 0, "lat": 38.9016115, "rental_uris": {"ios": "https://dc.lft.to/lastmile_qr_scan", "android": "https://dc.lft.to/lastmile_qr_scan"}, "is_reserved": 0, "fusion_lon": 0.0, "fusion_lat": 0.0, "lon": -77.0531945, "name": "f235de7e48ef702e86a3d55b65260652"}, {"bike_id": "e5a320badcfb262bad3931a7ce3a7906", "type": "electric_scooter", "is_disabled": 0, "lat": 38.92266516666667, "rental_uris": {"ios": "https://dc.lft.to/lastmile_qr_scan", "android": "https://dc.lft.to/lastmile_qr_scan"}, "is_reserved": 0, "fusion_lon": 0.0, "fusion_lat": 0.0, "lon": -77.03661383333333, "name": "e5a320badcfb262bad3931a7ce3a7906"}, {"bike_id": "15e6ba803e83157c453385c9585c4a16", "type": "electric_scooter", "is_disabled": 0, "lat": 38.907992666666665, "rental_uris": {"ios": "https://dc.lft.to/lastmile_qr_scan", "android": "https://dc.lft.to/lastmile_qr_scan"}, "is_reserved": 0, "fusion_lon": 0.0, "fusion_lat": 0.0, "lon": -77.04200066666667, "name": "15e6ba803e83157c453385c9585c4a16"}, {"bike_id": "7a4357d0bc4f536d3649cf04e8128e61", "type": "electric_scooter", "is_disabled": 0, "lat": 38.9395035, "rental_uris": {"ios": "https://dc.lft.to/lastmile_qr_scan", "android": "https://dc.lft.to/lastmile_qr_scan"}, "is_reserved": 0, "fusion_lon": 0.0, "fusion_lat": 0.0, "lon": -77.07246483333333, "name": "7a4357d0bc4f536d3649cf04e8128e61"}, {"bike_id": "37d6e5b70560a6e2a42ac0c9c2983a51", "type": "electric_scooter", "is_disabled": 0, "lat": 38.9081165, "rental_uris": {"ios": "https://dc.lft.to/lastmile_qr_scan", "android": "https://dc.lft.to/lastmile_qr_scan"}, "is_reserved": 0, "fusion_lon": 0.0, "fusion_lat": 0.0, "lon": -77.0305335, "name": "37d6e5b70560a6e2a42ac0c9c2983a51"}, {"bike_id": "44ee4173172ea25d0a92c008a4db8280", "type": "electric_scooter", "is_disabled": 0, "lat": 38.90809633333333, "rental_uris": {"ios": "https://dc.lft.to/lastmile_qr_scan", "android": "https://dc.lft.to/lastmile_qr_scan"}, "is_reserved": 0, "fusion_lon": 0.0, "fusion_lat": 0.0, "lon": -77.034412, "name": "44ee4173172ea25d0a92c008a4db8280"}, {"bike_id": "41e53e60645c75cb57b07cea77d246c0", "type": "electric_scooter", "is_disabled": 0, "lat": 38.911025, "rental_uris": {"ios": "https://dc.lft.to/lastmile_qr_scan", "android": "https://dc.lft.to/lastmile_qr_scan"}, "is_reserved": 0, "fusion_lon": 0.0, "fusion_lat": 0.0, "lon": -77.0120845, "name": "41e53e60645c75cb57b07cea77d246c0"}, {"bike_id": "4e1b5950bcd32b3d9cdf03ce4582cef5", "type": "electric_bike", "is_disabled": 0, "lat": 38.91338233333333, "rental_uris": {"ios": "https://dc.lft.to/lastmile_qr_scan", "android": "https://dc.lft.to/lastmile_qr_scan"}, "is_reserved": 0, "fusion_lon": 0.0, "fusion_lat": 0.0, "lon": -77.01752516666667, "name": "4e1b5950bcd32b3d9cdf03ce4582cef5"}, {"bike_id": "9220d43120c0068cb9924ded0c94e8be", "type": "electric_scooter", "is_disabled": 0, "lat": 38.908233333333335, "rental_uris": {"ios": "https://dc.lft.to/lastmile_qr_scan", "android": "https://dc.lft.to/lastmile_qr_scan"}, "is_reserved": 0, "fusion_lon": 0.0, "fusion_lat": 0.0, "lon": -77.03656533333333, "name": "9220d43120c0068cb9924ded0c94e8be"}, {"bike_id": "0a03bceb0a43eb1e9c08cc48f172b531", "type": "electric_scooter", "is_disabled": 0, "lat": 38.899137833333334, "rental_uris": {"ios": "https://dc.lft.to/lastmile_qr_scan", "android": "https://dc.lft.to/lastmile_qr_scan"}, "is_reserved": 0, "fusion_lon": 0.0, "fusion_lat": 0.0, "lon": -76.9336695, "name": "0a03bceb0a43eb1e9c08cc48f172b531"}, {"bike_id": "1f911203b490eec60e3a80862a3c6fdd", "type": "electric_scooter", "is_disabled": 0, "lat": 38.94794266666667, "rental_uris": {"ios": "https://dc.lft.to/lastmile_qr_scan", "android": "https://dc.lft.to/lastmile_qr_scan"}, "is_reserved": 0, "fusion_lon": 0.0, "fusion_lat": 0.0, "lon": -77.021356, "name": "1f911203b490eec60e3a80862a3c6fdd"}, {"bike_id": "f22c9c43c2c5b85c7825baf704476d79", "type": "electric_scooter", "is_disabled": 0, "lat": 38.9361575, "rental_uris": {"ios": "https://dc.lft.to/lastmile_qr_scan", "android": "https://dc.lft.to/lastmile_qr_scan"}, "is_reserved": 0, "fusion_lon": 0.0, "fusion_lat": 0.0, "lon": -77.0559065, "name": "f22c9c43c2c5b85c7825baf704476d79"}, {"bike_id": "c9fbdc2576f1aa01c19b301de6867752", "type": "electric_scooter", "is_disabled": 0, "lat": 38.905579333333336, "rental_uris": {"ios": "https://dc.lft.to/lastmile_qr_scan", "android": "https://dc.lft.to/lastmile_qr_scan"}, "is_reserved": 0, "fusion_lon": 0.0, "fusion_lat": 0.0, "lon": -77.028158, "name": "c9fbdc2576f1aa01c19b301de6867752"}, {"bike_id": "d09434c4442dc2fe1402d2445caecb21", "type": "electric_scooter", "is_disabled": 0, "lat": 38.9585465, "rental_uris": {"ios": "https://dc.lft.to/lastmile_qr_scan", "android": "https://dc.lft.to/lastmile_qr_scan"}, "is_reserved": 0, "fusion_lon": 0.0, "fusion_lat": 0.0, "lon": -77.02793016666666, "name": "d09434c4442dc2fe1402d2445caecb21"}, {"bike_id": "a7fd7357db649653afe887ec57148555", "type": "electric_scooter", "is_disabled": 0, "lat": 38.93082066666667, "rental_uris": {"ios": "https://dc.lft.to/lastmile_qr_scan", "android": "https://dc.lft.to/lastmile_qr_scan"}, "is_reserved": 0, "fusion_lon": 0.0, "fusion_lat": 0.0, "lon": -77.0373685, "name": "a7fd7357db649653afe887ec57148555"}, {"bike_id": "350f93bfafa6426be6edcb67a52d8146", "type": "electric_scooter", "is_disabled": 0, "lat": 38.928128, "rental_uris": {"ios": "https://dc.lft.to/lastmile_qr_scan", "android": "https://dc.lft.to/lastmile_qr_scan"}, "is_reserved": 0, "fusion_lon": 0.0, "fusion_lat": 0.0, "lon": -77.02810916666667, "name": "350f93bfafa6426be6edcb67a52d8146"}, {"bike_id": "a0c463d42568d7bb092fa261c48c1527", "type": "electric_scooter", "is_disabled": 0, "lat": 38.921967, "rental_uris": {"ios": "https://dc.lft.to/lastmile_qr_scan", "android": "https://dc.lft.to/lastmile_qr_scan"}, "is_reserved": 0, "fusion_lon": 0.0, "fusion_lat": 0.0, "lon": -77.02029983333334, "name": "a0c463d42568d7bb092fa261c48c1527"}, {"bike_id": "9d7e1e067f71b340babf92e6b5d7f080", "type": "electric_scooter", "is_disabled": 0, "lat": 38.89900816666667, "rental_uris": {"ios": "https://dc.lft.to/lastmile_qr_scan", "android": "https://dc.lft.to/lastmile_qr_scan"}, "is_reserved": 0, "fusion_lon": 0.0, "fusion_lat": 0.0, "lon": -76.9768875, "name": "9d7e1e067f71b340babf92e6b5d7f080"}, {"bike_id": "550e92188fd7ccd4cc4141340a9bfc79", "type": "electric_scooter", "is_disabled": 0, "lat": 38.95647816666666, "rental_uris": {"ios": "https://dc.lft.to/lastmile_qr_scan", "android": "https://dc.lft.to/lastmile_qr_scan"}, "is_reserved": 0, "fusion_lon": 0.0, "fusion_lat": 0.0, "lon": -77.0239925, "name": "550e92188fd7ccd4cc4141340a9bfc79"}, {"bike_id": "fcf691a74f136364692d0d9aeee7d794", "type": "electric_scooter", "is_disabled": 0, "lat": 38.918693, "rental_uris": {"ios": "https://dc.lft.to/lastmile_qr_scan", "android": "https://dc.lft.to/lastmile_qr_scan"}, "is_reserved": 0, "fusion_lon": 0.0, "fusion_lat": 0.0, "lon": -77.012084, "name": "fcf691a74f136364692d0d9aeee7d794"}, {"bike_id": "8c02ed4d63b6e417b38d482c409b1885", "type": "electric_bike", "is_disabled": 0, "lat": 38.843520166666664, "rental_uris": {"ios": "https://dc.lft.to/lastmile_qr_scan", "android": "https://dc.lft.to/lastmile_qr_scan"}, "is_reserved": 0, "fusion_lon": 0.0, "fusion_lat": 0.0, "lon": -76.99955583333333, "name": "8c02ed4d63b6e417b38d482c409b1885"}, {"bike_id": "8b3ffb05bd3e4a069beb47cbb99cd8a2", "type": "electric_scooter", "is_disabled": 0, "lat": 38.9389695, "rental_uris": {"ios": "https://dc.lft.to/lastmile_qr_scan", "android": "https://dc.lft.to/lastmile_qr_scan"}, "is_reserved": 0, "fusion_lon": 0.0, "fusion_lat": 0.0, "lon": -77.0167775, "name": "8b3ffb05bd3e4a069beb47cbb99cd8a2"}, {"bike_id": "c2f1d5e59d01c66c73eb88ef781cb63b", "type": "electric_scooter", "is_disabled": 0, "lat": 38.911168833333335, "rental_uris": {"ios": "https://dc.lft.to/lastmile_qr_scan", "android": "https://dc.lft.to/lastmile_qr_scan"}, "is_reserved": 0, "fusion_lon": 0.0, "fusion_lat": 0.0, "lon": -77.031687, "name": "c2f1d5e59d01c66c73eb88ef781cb63b"}, {"bike_id": "e6c2b098f0e5ebec5407be9f7af3a218", "type": "electric_scooter", "is_disabled": 0, "lat": 38.925357, "rental_uris": {"ios": "https://dc.lft.to/lastmile_qr_scan", "android": "https://dc.lft.to/lastmile_qr_scan"}, "is_reserved": 0, "fusion_lon": 0.0, "fusion_lat": 0.0, "lon": -77.04128283333333, "name": "e6c2b098f0e5ebec5407be9f7af3a218"}, {"bike_id": "300dc8481f7d040e3927043f06117e11", "type": "electric_scooter", "is_disabled": 0, "lat": 38.91458383333333, "rental_uris": {"ios": "https://dc.lft.to/lastmile_qr_scan", "android": "https://dc.lft.to/lastmile_qr_scan"}, "is_reserved": 0, "fusion_lon": 0.0, "fusion_lat": 0.0, "lon": -77.07104633333333, "name": "300dc8481f7d040e3927043f06117e11"}, {"bike_id": "6e7cfcd8055441807731084350b1abbc", "type": "electric_scooter", "is_disabled": 0, "lat": 38.8922095, "rental_uris": {"ios": "https://dc.lft.to/lastmile_qr_scan", "android": "https://dc.lft.to/lastmile_qr_scan"}, "is_reserved": 0, "fusion_lon": 0.0, "fusion_lat": 0.0, "lon": -77.04194733333334, "name": "6e7cfcd8055441807731084350b1abbc"}, {"bike_id": "cf81d1cd3e0021866630d699ebcf613c", "type": "electric_scooter", "is_disabled": 0, "lat": 38.906839166666664, "rental_uris": {"ios": "https://dc.lft.to/lastmile_qr_scan", "android": "https://dc.lft.to/lastmile_qr_scan"}, "is_reserved": 0, "fusion_lon": 0.0, "fusion_lat": 0.0, "lon": -77.0238075, "name": "cf81d1cd3e0021866630d699ebcf613c"}, {"bike_id": "f1c407067998a5392cc203803b6eec83", "type": "electric_scooter", "is_disabled": 0, "lat": 38.90380916666667, "rental_uris": {"ios": "https://dc.lft.to/lastmile_qr_scan", "android": "https://dc.lft.to/lastmile_qr_scan"}, "is_reserved": 0, "fusion_lon": 0.0, "fusion_lat": 0.0, "lon": -77.0295165, "name": "f1c407067998a5392cc203803b6eec83"}, {"bike_id": "dd7ff883f02142f446be26a541fab405", "type": "electric_bike", "is_disabled": 0, "lat": 38.924625666666664, "rental_uris": {"ios": "https://dc.lft.to/lastmile_qr_scan", "android": "https://dc.lft.to/lastmile_qr_scan"}, "is_reserved": 0, "fusion_lon": 0.0, "fusion_lat": 0.0, "lon": -77.22580666666667, "name": "dd7ff883f02142f446be26a541fab405"}, {"bike_id": "ee0e2238d6501e03d670c671aedccfe3", "type": "electric_scooter", "is_disabled": 0, "lat": 38.9420015, "rental_uris": {"ios": "https://dc.lft.to/lastmile_qr_scan", "android": "https://dc.lft.to/lastmile_qr_scan"}, "is_reserved": 0, "fusion_lon": 0.0, "fusion_lat": 0.0, "lon": -77.02437866666666, "name": "ee0e2238d6501e03d670c671aedccfe3"}, {"bike_id": "abd8ed2168579b0e5140e69b87d7c914", "type": "electric_scooter", "is_disabled": 0, "lat": 38.90643683333333, "rental_uris": {"ios": "https://dc.lft.to/lastmile_qr_scan", "android": "https://dc.lft.to/lastmile_qr_scan"}, "is_reserved": 0, "fusion_lon": 0.0, "fusion_lat": 0.0, "lon": -77.00985933333334, "name": "abd8ed2168579b0e5140e69b87d7c914"}, {"bike_id": "01b388de0514b93669b3c6267faa8b98", "type": "electric_scooter", "is_disabled": 0, "lat": 38.898421, "rental_uris": {"ios": "https://dc.lft.to/lastmile_qr_scan", "android": "https://dc.lft.to/lastmile_qr_scan"}, "is_reserved": 0, "fusion_lon": 0.0, "fusion_lat": 0.0, "lon": -76.9463305, "name": "01b388de0514b93669b3c6267faa8b98"}, {"bike_id": "45baba6eba3237b004dae9bee81ab2db", "type": "electric_scooter", "is_disabled": 0, "lat": 38.914652833333335, "rental_uris": {"ios": "https://dc.lft.to/lastmile_qr_scan", "android": "https://dc.lft.to/lastmile_qr_scan"}, "is_reserved": 0, "fusion_lon": 0.0, "fusion_lat": 0.0, "lon": -77.0229705, "name": "45baba6eba3237b004dae9bee81ab2db"}, {"bike_id": "2c63594f8a7055aeafe3688719466f2d", "type": "electric_bike", "is_disabled": 0, "lat": 38.952154166666666, "rental_uris": {"ios": "https://dc.lft.to/lastmile_qr_scan", "android": "https://dc.lft.to/lastmile_qr_scan"}, "is_reserved": 0, "fusion_lon": 0.0, "fusion_lat": 0.0, "lon": -77.00253266666667, "name": "2c63594f8a7055aeafe3688719466f2d"}, {"bike_id": "3c5a6490e77d408ce7c0116ac0ee6a86", "type": "electric_bike", "is_disabled": 0, "lat": 38.946608166666664, "rental_uris": {"ios": "https://dc.lft.to/lastmile_qr_scan", "android": "https://dc.lft.to/lastmile_qr_scan"}, "is_reserved": 0, "fusion_lon": 0.0, "fusion_lat": 0.0, "lon": -76.95666666666666, "name": "3c5a6490e77d408ce7c0116ac0ee6a86"}, {"bike_id": "2db0cf69a35d99fadd7b3ca42018abf6", "type": "electric_bike", "is_disabled": 0, "lat": 38.878839, "rental_uris": {"ios": "https://dc.lft.to/lastmile_qr_scan", "android": "https://dc.lft.to/lastmile_qr_scan"}, "is_reserved": 0, "fusion_lon": 0.0, "fusion_lat": 0.0, "lon": -77.09614916666666, "name": "2db0cf69a35d99fadd7b3ca42018abf6"}, {"bike_id": "5f3808efd67e2294b96ece071bb76337", "type": "electric_scooter", "is_disabled": 0, "lat": 38.9173865, "rental_uris": {"ios": "https://dc.lft.to/lastmile_qr_scan", "android": "https://dc.lft.to/lastmile_qr_scan"}, "is_reserved": 0, "fusion_lon": 0.0, "fusion_lat": 0.0, "lon": -77.032031, "name": "5f3808efd67e2294b96ece071bb76337"}, {"bike_id": "19da8333ca2cf219232356072772d922", "type": "electric_scooter", "is_disabled": 0, "lat": 38.912636, "rental_uris": {"ios": "https://dc.lft.to/lastmile_qr_scan", "android": "https://dc.lft.to/lastmile_qr_scan"}, "is_reserved": 0, "fusion_lon": 0.0, "fusion_lat": 0.0, "lon": -77.04708566666666, "name": "19da8333ca2cf219232356072772d922"}, {"bike_id": "1ce3f2e20222c7b0e0f2abb1f35c3867", "type": "electric_scooter", "is_disabled": 0, "lat": 38.96742316666667, "rental_uris": {"ios": "https://dc.lft.to/lastmile_qr_scan", "android": "https://dc.lft.to/lastmile_qr_scan"}, "is_reserved": 0, "fusion_lon": 0.0, "fusion_lat": 0.0, "lon": -77.05516816666666, "name": "1ce3f2e20222c7b0e0f2abb1f35c3867"}, {"bike_id": "91585d63a0ea308e93880387e6f85f98", "type": "electric_scooter", "is_disabled": 0, "lat": 38.91940733333333, "rental_uris": {"ios": "https://dc.lft.to/lastmile_qr_scan", "android": "https://dc.lft.to/lastmile_qr_scan"}, "is_reserved": 0, "fusion_lon": 0.0, "fusion_lat": 0.0, "lon": -77.0450065, "name": "91585d63a0ea308e93880387e6f85f98"}, {"bike_id": "0073ace4d914dddaabd2141fbfd7eb50", "type": "electric_scooter", "is_disabled": 0, "lat": 38.92835566666667, "rental_uris": {"ios": "https://dc.lft.to/lastmile_qr_scan", "android": "https://dc.lft.to/lastmile_qr_scan"}, "is_reserved": 0, "fusion_lon": 0.0, "fusion_lat": 0.0, "lon": -77.02977933333334, "name": "0073ace4d914dddaabd2141fbfd7eb50"}, {"bike_id": "4adb786a8dec12c608b800926aca3a5e", "type": "electric_scooter", "is_disabled": 0, "lat": 38.877915, "rental_uris": {"ios": "https://dc.lft.to/lastmile_qr_scan", "android": "https://dc.lft.to/lastmile_qr_scan"}, "is_reserved": 0, "fusion_lon": 0.0, "fusion_lat": 0.0, "lon": -77.0012015, "name": "4adb786a8dec12c608b800926aca3a5e"}, {"bike_id": "9a36f623e01b4afe7f1227ce4cefb64f", "type": "electric_scooter", "is_disabled": 0, "lat": 38.9169385, "rental_uris": {"ios": "https://dc.lft.to/lastmile_qr_scan", "android": "https://dc.lft.to/lastmile_qr_scan"}, "is_reserved": 0, "fusion_lon": 0.0, "fusion_lat": 0.0, "lon": -77.03217466666666, "name": "9a36f623e01b4afe7f1227ce4cefb64f"}, {"bike_id": "b343e231b9bf745e06f7602f8fcbf9d2", "type": "electric_scooter", "is_disabled": 0, "lat": 38.8826725, "rental_uris": {"ios": "https://dc.lft.to/lastmile_qr_scan", "android": "https://dc.lft.to/lastmile_qr_scan"}, "is_reserved": 0, "fusion_lon": 0.0, "fusion_lat": 0.0, "lon": -76.99257466666667, "name": "b343e231b9bf745e06f7602f8fcbf9d2"}, {"bike_id": "0e817783226f1c538c9865e3d5025926", "type": "electric_scooter", "is_disabled": 0, "lat": 38.9186575, "rental_uris": {"ios": "https://dc.lft.to/lastmile_qr_scan", "android": "https://dc.lft.to/lastmile_qr_scan"}, "is_reserved": 0, "fusion_lon": 0.0, "fusion_lat": 0.0, "lon": -77.01506466666666, "name": "0e817783226f1c538c9865e3d5025926"}, {"bike_id": "74caf0c4639b183ec2113ac4728ef564", "type": "electric_scooter", "is_disabled": 0, "lat": 38.92158716666667, "rental_uris": {"ios": "https://dc.lft.to/lastmile_qr_scan", "android": "https://dc.lft.to/lastmile_qr_scan"}, "is_reserved": 0, "fusion_lon": 0.0, "fusion_lat": 0.0, "lon": -77.0332195, "name": "74caf0c4639b183ec2113ac4728ef564"}, {"bike_id": "ca1dba864cf8c0d6aedf138255c62a64", "type": "electric_scooter", "is_disabled": 0, "lat": 38.943268, "rental_uris": {"ios": "https://dc.lft.to/lastmile_qr_scan", "android": "https://dc.lft.to/lastmile_qr_scan"}, "is_reserved": 0, "fusion_lon": 0.0, "fusion_lat": 0.0, "lon": -77.0147995, "name": "ca1dba864cf8c0d6aedf138255c62a64"}, {"bike_id": "66d39d664b1e8561cee69d6c6232e7f3", "type": "electric_scooter", "is_disabled": 0, "lat": 38.931471, "rental_uris": {"ios": "https://dc.lft.to/lastmile_qr_scan", "android": "https://dc.lft.to/lastmile_qr_scan"}, "is_reserved": 0, "fusion_lon": 0.0, "fusion_lat": 0.0, "lon": -77.03355333333333, "name": "66d39d664b1e8561cee69d6c6232e7f3"}, {"bike_id": "9c65d9269602773d793c932a84df53e8", "type": "electric_scooter", "is_disabled": 0, "lat": 38.90962483333333, "rental_uris": {"ios": "https://dc.lft.to/lastmile_qr_scan", "android": "https://dc.lft.to/lastmile_qr_scan"}, "is_reserved": 0, "fusion_lon": 0.0, "fusion_lat": 0.0, "lon": -77.0322345, "name": "9c65d9269602773d793c932a84df53e8"}, {"bike_id": "fe3a3a7db0aa92c81ccbc31fc6f34635", "type": "electric_scooter", "is_disabled": 0, "lat": 38.911405333333335, "rental_uris": {"ios": "https://dc.lft.to/lastmile_qr_scan", "android": "https://dc.lft.to/lastmile_qr_scan"}, "is_reserved": 0, "fusion_lon": 0.0, "fusion_lat": 0.0, "lon": -77.06538916666666, "name": "fe3a3a7db0aa92c81ccbc31fc6f34635"}, {"bike_id": "4b0614237c456341f3b397b83b635d07", "type": "electric_scooter", "is_disabled": 0, "lat": 38.90386616666667, "rental_uris": {"ios": "https://dc.lft.to/lastmile_qr_scan", "android": "https://dc.lft.to/lastmile_qr_scan"}, "is_reserved": 0, "fusion_lon": 0.0, "fusion_lat": 0.0, "lon": -77.0685525, "name": "4b0614237c456341f3b397b83b635d07"}, {"bike_id": "6ef9812ba6d78d1c750fb26ce5120d2f", "type": "electric_scooter", "is_disabled": 0, "lat": 38.898050166666664, "rental_uris": {"ios": "https://dc.lft.to/lastmile_qr_scan", "android": "https://dc.lft.to/lastmile_qr_scan"}, "is_reserved": 0, "fusion_lon": 0.0, "fusion_lat": 0.0, "lon": -77.0237775, "name": "6ef9812ba6d78d1c750fb26ce5120d2f"}, {"bike_id": "478bd8d957bec1add1a48c75d219bdc8", "type": "electric_scooter", "is_disabled": 0, "lat": 38.93718283333333, "rental_uris": {"ios": "https://dc.lft.to/lastmile_qr_scan", "android": "https://dc.lft.to/lastmile_qr_scan"}, "is_reserved": 0, "fusion_lon": 0.0, "fusion_lat": 0.0, "lon": -76.99050383333334, "name": "478bd8d957bec1add1a48c75d219bdc8"}, {"bike_id": "3933458e1e755dd7eee2f4711865261d", "type": "electric_scooter", "is_disabled": 0, "lat": 38.912703666666665, "rental_uris": {"ios": "https://dc.lft.to/lastmile_qr_scan", "android": "https://dc.lft.to/lastmile_qr_scan"}, "is_reserved": 0, "fusion_lon": 0.0, "fusion_lat": 0.0, "lon": -77.05159883333333, "name": "3933458e1e755dd7eee2f4711865261d"}, {"bike_id": "c1395aa741893e7a2e52799a05bcb645", "type": "electric_scooter", "is_disabled": 0, "lat": 38.922141833333335, "rental_uris": {"ios": "https://dc.lft.to/lastmile_qr_scan", "android": "https://dc.lft.to/lastmile_qr_scan"},