{"data": {"bikes": [{"rental_uris": {"ios": "https://dc.lft.to/lastmile_qr_scan", "android": "https://dc.lft.to/lastmile_qr_scan"}, "type": "electric_scooter", "name": "2f48dc6ad955ffaab50774ebbd6dde34", "is_reserved": 0, "lon": -77.02596216666667, "is_disabled": 0, "fusion_lat": 0.0, "lat": 38.91459783333333, "bike_id": "2f48dc6ad955ffaab50774ebbd6dde34", "fusion_lon": 0.0}, {"rental_uris": {"ios": "https://dc.lft.to/lastmile_qr_scan", "android": "https://dc.lft.to/lastmile_qr_scan"}, "type": "electric_bike", "name": "848824c8323464c26b39213c99d1860c", "is_reserved": 0, "lon": -77.02800633333334, "is_disabled": 0, "fusion_lat": 0.0, "lat": 38.911028, "bike_id": "848824c8323464c26b39213c99d1860c", "fusion_lon": 0.0}, {"rental_uris": {"ios": "https://dc.lft.to/lastmile_qr_scan", "android": "https://dc.lft.to/lastmile_qr_scan"}, "type": "electric_scooter", "name": "2e2ed5ecb0ae7bc80683b08f6d4aa07e", "is_reserved": 0, "lon": -77.035186, "is_disabled": 0, "fusion_lat": 0.0, "lat": 38.90962483333333, "bike_id": "2e2ed5ecb0ae7bc80683b08f6d4aa07e", "fusion_lon": 0.0}, {"rental_uris": {"ios": "https://dc.lft.to/lastmile_qr_scan", "android": "https://dc.lft.to/lastmile_qr_scan"}, "type": "electric_scooter", "name": "5ee59c0cc4eae40166915d766bf89d65", "is_reserved": 0, "lon": -77.00352266666667, "is_disabled": 0, "fusion_lat": 0.0, "lat": 38.877281333333336, "bike_id": "5ee59c0cc4eae40166915d766bf89d65", "fusion_lon": 0.0}, {"rental_uris": {"ios": "https://dc.lft.to/lastmile_qr_scan", "android": "https://dc.lft.to/lastmile_qr_scan"}, "type": "electric_scooter", "name": "4d86ca9036390c4e53a0646287df46d7", "is_reserved": 0, "lon": -77.03578916666666, "is_disabled": 0, "fusion_lat": 0.0, "lat": 38.91047283333333, "bike_id": "4d86ca9036390c4e53a0646287df46d7", "fusion_lon": 0.0}, {"rental_uris": {"ios": "https://dc.lft.to/lastmile_qr_scan", "android": "https://dc.lft.to/lastmile_qr_scan"}, "type": "electric_scooter", "name": "6cb81c16ff43bb3d979d669c59430624", "is_reserved": 0, "lon": -77.04133166666666, "is_disabled": 0, "fusion_lat": 0.0, "lat": 38.90634983333333, "bike_id": "6cb81c16ff43bb3d979d669c59430624", "fusion_lon": 0.0}, {"rental_uris": {"ios": "https://dc.lft.to/lastmile_qr_scan", "android": "https://dc.lft.to/lastmile_qr_scan"}, "type": "electric_scooter", "name": "b5d6035d1cc50ec205df6565688534f9", "is_reserved": 0, "lon": -77.02817066666667, "is_disabled": 0, "fusion_lat": 0.0, "lat": 38.923731333333336, "bike_id": "b5d6035d1cc50ec205df6565688534f9", "fusion_lon": 0.0}, {"rental_uris": {"ios": "https://dc.lft.to/lastmile_qr_scan", "android": "https://dc.lft.to/lastmile_qr_scan"}, "type": "electric_scooter", "name": "f74e59a4ca2f0619bdd0db7dbce789bf", "is_reserved": 0, "lon": -77.02628666666666, "is_disabled": 0, "fusion_lat": 0.0, "lat": 38.88403266666667, "bike_id": "f74e59a4ca2f0619bdd0db7dbce789bf", "fusion_lon": 0.0}, {"rental_uris": {"ios": "https://dc.lft.to/lastmile_qr_scan", "android": "https://dc.lft.to/lastmile_qr_scan"}, "type": "electric_bike", "name": "a342611e8dd00823583e832ab468dfd4", "is_reserved": 0, "lon": -77.04069666666666, "is_disabled": 0, "fusion_lat": 0.0, "lat": 38.9938035, "bike_id": "a342611e8dd00823583e832ab468dfd4", "fusion_lon": 0.0}, {"rental_uris": {"ios": "https://dc.lft.to/lastmile_qr_scan", "android": "https://dc.lft.to/lastmile_qr_scan"}, "type": "electric_scooter", "name": "d7e43f1c2d1074b683fdb2fb4a3fea2f", "is_reserved": 0, "lon": -77.03091316666666, "is_disabled": 0, "fusion_lat": 0.0, "lat": 38.922489166666665, "bike_id": "d7e43f1c2d1074b683fdb2fb4a3fea2f", "fusion_lon": 0.0}, {"rental_uris": {"ios": "https://dc.lft.to/lastmile_qr_scan", "android": "https://dc.lft.to/lastmile_qr_scan"}, "type": "electric_scooter", "name": "1ee9ddb462c448f9c68e72fe34b47c52", "is_reserved": 0, "lon": -77.04503816666667, "is_disabled": 0, "fusion_lat": 0.0, "lat": 38.897324833333336, "bike_id": "1ee9ddb462c448f9c68e72fe34b47c52", "fusion_lon": 0.0}, {"rental_uris": {"ios": "https://dc.lft.to/lastmile_qr_scan", "android": "https://dc.lft.to/lastmile_qr_scan"}, "type": "electric_bike", "name": "66f5a6b78a633b4f8dda9505f290c936", "is_reserved": 0, "lon": -76.98813383333334, "is_disabled": 0, "fusion_lat": 0.0, "lat": 38.84278416666667, "bike_id": "66f5a6b78a633b4f8dda9505f290c936", "fusion_lon": 0.0}, {"rental_uris": {"ios": "https://dc.lft.to/lastmile_qr_scan", "android": "https://dc.lft.to/lastmile_qr_scan"}, "type": "electric_scooter", "name": "c1f6496217bff32766013011bef0a06b", "is_reserved": 0, "lon": -77.0354455, "is_disabled": 0, "fusion_lat": 0.0, "lat": 38.9247215, "bike_id": "c1f6496217bff32766013011bef0a06b", "fusion_lon": 0.0}, {"rental_uris": {"ios": "https://dc.lft.to/lastmile_qr_scan", "android": "https://dc.lft.to/lastmile_qr_scan"}, "type": "electric_scooter", "name": "93326ea0afea63fbb6feece966ff0c75", "is_reserved": 0, "lon": -77.04191233333333, "is_disabled": 0, "fusion_lat": 0.0, "lat": 38.905633, "bike_id": "93326ea0afea63fbb6feece966ff0c75", "fusion_lon": 0.0}, {"rental_uris": {"ios": "https://dc.lft.to/lastmile_qr_scan", "android": "https://dc.lft.to/lastmile_qr_scan"}, "type": "electric_scooter", "name": "e0a74125fdccce12cc07162cebbcf640", "is_reserved": 0, "lon": -77.03076866666666, "is_disabled": 0, "fusion_lat": 0.0, "lat": 38.922463, "bike_id": "e0a74125fdccce12cc07162cebbcf640", "fusion_lon": 0.0}, {"rental_uris": {"ios": "https://dc.lft.to/lastmile_qr_scan", "android": "https://dc.lft.to/lastmile_qr_scan"}, "type": "electric_scooter", "name": "345d4ef34b213c605580552835fee6b7", "is_reserved": 0, "lon": -77.03352583333333, "is_disabled": 0, "fusion_lat": 0.0, "lat": 38.954793, "bike_id": "345d4ef34b213c605580552835fee6b7", "fusion_lon": 0.0}, {"rental_uris": {"ios": "https://dc.lft.to/lastmile_qr_scan", "android": "https://dc.lft.to/lastmile_qr_scan"}, "type": "electric_scooter", "name": "88ec2ba44322294f00e5ebe98d68f497", "is_reserved": 0, "lon": -76.997053, "is_disabled": 0, "fusion_lat": 0.0, "lat": 38.88765883333333, "bike_id": "88ec2ba44322294f00e5ebe98d68f497", "fusion_lon": 0.0}, {"rental_uris": {"ios": "https://dc.lft.to/lastmile_qr_scan", "android": "https://dc.lft.to/lastmile_qr_scan"}, "type": "electric_scooter", "name": "a184e056c33213af1e60cf0e7f6a18d0", "is_reserved": 0, "lon": -77.01211533333333, "is_disabled": 0, "fusion_lat": 0.0, "lat": 38.91686466666667, "bike_id": "a184e056c33213af1e60cf0e7f6a18d0", "fusion_lon": 0.0}, {"rental_uris": {"ios": "https://dc.lft.to/lastmile_qr_scan", "android": "https://dc.lft.to/lastmile_qr_scan"}, "type": "electric_scooter", "name": "78cd1e826323e1e3552fb1dbfa614d02", "is_reserved": 0, "lon": -77.07453366666667, "is_disabled": 0, "fusion_lat": 0.0, "lat": 38.937814333333336, "bike_id": "78cd1e826323e1e3552fb1dbfa614d02", "fusion_lon": 0.0}, {"rental_uris": {"ios": "https://dc.lft.to/lastmile_qr_scan", "android": "https://dc.lft.to/lastmile_qr_scan"}, "type": "electric_scooter", "name": "98203a00543067aabb3293234731b574", "is_reserved": 0, "lon": -77.0216855, "is_disabled": 0, "fusion_lat": 0.0, "lat": 38.8947755, "bike_id": "98203a00543067aabb3293234731b574", "fusion_lon": 0.0}, {"rental_uris": {"ios": "https://dc.lft.to/lastmile_qr_scan", "android": "https://dc.lft.to/lastmile_qr_scan"}, "type": "electric_scooter", "name": "384768fb912db0ec164cf8a77e0c7b0a", "is_reserved": 0, "lon": -77.027047, "is_disabled": 0, "fusion_lat": 0.0, "lat": 38.897384833333334, "bike_id": "384768fb912db0ec164cf8a77e0c7b0a", "fusion_lon": 0.0}, {"rental_uris": {"ios": "https://dc.lft.to/lastmile_qr_scan", "android": "https://dc.lft.to/lastmile_qr_scan"}, "type": "electric_bike", "name": "40a65cc2b0467fcf57e502e0bb8e27f3", "is_reserved": 0, "lon": -77.08523516666666, "is_disabled": 0, "fusion_lat": 0.0, "lat": 38.856513166666666, "bike_id": "40a65cc2b0467fcf57e502e0bb8e27f3", "fusion_lon": 0.0}, {"rental_uris": {"ios": "https://dc.lft.to/lastmile_qr_scan", "android": "https://dc.lft.to/lastmile_qr_scan"}, "type": "electric_scooter", "name": "a9e86ce29df3f684276ecc80ec4cb76a", "is_reserved": 0, "lon": -77.02796916666667, "is_disabled": 0, "fusion_lat": 0.0, "lat": 38.9308045, "bike_id": "a9e86ce29df3f684276ecc80ec4cb76a", "fusion_lon": 0.0}, {"rental_uris": {"ios": "https://dc.lft.to/lastmile_qr_scan", "android": "https://dc.lft.to/lastmile_qr_scan"}, "type": "electric_scooter", "name": "c8f63602b5ac9724396066686fe2f078", "is_reserved": 0, "lon": -77.0341835, "is_disabled": 0, "fusion_lat": 0.0, "lat": 38.921927333333336, "bike_id": "c8f63602b5ac9724396066686fe2f078", "fusion_lon": 0.0}, {"rental_uris": {"ios": "https://dc.lft.to/lastmile_qr_scan", "android": "https://dc.lft.to/lastmile_qr_scan"}, "type": "electric_scooter", "name": "7631b9b3b252aaac4323ad8d32474570", "is_reserved": 0, "lon": -77.09026966666667, "is_disabled": 0, "fusion_lat": 0.0, "lat": 38.956079333333335, "bike_id": "7631b9b3b252aaac4323ad8d32474570", "fusion_lon": 0.0}, {"rental_uris": {"ios": "https://dc.lft.to/lastmile_qr_scan", "android": "https://dc.lft.to/lastmile_qr_scan"}, "type": "electric_scooter", "name": "a1bd3e4093acb2b8454be9b7a082caeb", "is_reserved": 0, "lon": -77.040278, "is_disabled": 0, "fusion_lat": 0.0, "lat": 38.904182166666665, "bike_id": "a1bd3e4093acb2b8454be9b7a082caeb", "fusion_lon": 0.0}, {"rental_uris": {"ios": "https://dc.lft.to/lastmile_qr_scan", "android": "https://dc.lft.to/lastmile_qr_scan"}, "type": "electric_scooter", "name": "902cde905c7d890c8440995579cf8617", "is_reserved": 0, "lon": -77.05913216666667, "is_disabled": 0, "fusion_lat": 0.0, "lat": 38.9026725, "bike_id": "902cde905c7d890c8440995579cf8617", "fusion_lon": 0.0}, {"rental_uris": {"ios": "https://dc.lft.to/lastmile_qr_scan", "android": "https://dc.lft.to/lastmile_qr_scan"}, "type": "electric_scooter", "name": "0441cb59371cc061e3fa6823cf3acb13", "is_reserved": 0, "lon": -77.00592433333334, "is_disabled": 0, "fusion_lat": 0.0, "lat": 38.87571783333333, "bike_id": "0441cb59371cc061e3fa6823cf3acb13", "fusion_lon": 0.0}, {"rental_uris": {"ios": "https://dc.lft.to/lastmile_qr_scan", "android": "https://dc.lft.to/lastmile_qr_scan"}, "type": "electric_scooter", "name": "2e33382318328b0a14d353b25f8e8ab1", "is_reserved": 0, "lon": -77.04172583333333, "is_disabled": 0, "fusion_lat": 0.0, "lat": 38.90155766666667, "bike_id": "2e33382318328b0a14d353b25f8e8ab1", "fusion_lon": 0.0}, {"rental_uris": {"ios": "https://dc.lft.to/lastmile_qr_scan", "android": "https://dc.lft.to/lastmile_qr_scan"}, "type": "electric_scooter", "name": "955d972ee1b9c1bebf6c5df4e43d0157", "is_reserved": 0, "lon": -77.0346485, "is_disabled": 0, "fusion_lat": 0.0, "lat": 38.909752833333336, "bike_id": "955d972ee1b9c1bebf6c5df4e43d0157", "fusion_lon": 0.0}, {"rental_uris": {"ios": "https://dc.lft.to/lastmile_qr_scan", "android": "https://dc.lft.to/lastmile_qr_scan"}, "type": "electric_scooter", "name": "6f21b9a8497fa2e65317a718c42c6a03", "is_reserved": 0, "lon": -76.97461183333333, "is_disabled": 0, "fusion_lat": 0.0, "lat": 38.8642545, "bike_id": "6f21b9a8497fa2e65317a718c42c6a03", "fusion_lon": 0.0}, {"rental_uris": {"ios": "https://dc.lft.to/lastmile_qr_scan", "android": "https://dc.lft.to/lastmile_qr_scan"}, "type": "electric_scooter", "name": "0d03a4b04775046de742c05a2f58a566", "is_reserved": 0, "lon": -77.04164716666666, "is_disabled": 0, "fusion_lat": 0.0, "lat": 38.92562066666667, "bike_id": "0d03a4b04775046de742c05a2f58a566", "fusion_lon": 0.0}, {"rental_uris": {"ios": "https://dc.lft.to/lastmile_qr_scan", "android": "https://dc.lft.to/lastmile_qr_scan"}, "type": "electric_scooter", "name": "214175fbc91bc44aa9ddf87245b91c05", "is_reserved": 0, "lon": -77.02452166666667, "is_disabled": 0, "fusion_lat": 0.0, "lat": 38.90316416666667, "bike_id": "214175fbc91bc44aa9ddf87245b91c05", "fusion_lon": 0.0}, {"rental_uris": {"ios": "https://dc.lft.to/lastmile_qr_scan", "android": "https://dc.lft.to/lastmile_qr_scan"}, "type": "electric_bike", "name": "f01d57999effcabf6381b1a33de5e4a5", "is_reserved": 0, "lon": -77.12654033333334, "is_disabled": 0, "fusion_lat": 0.0, "lat": 38.81910516666667, "bike_id": "f01d57999effcabf6381b1a33de5e4a5", "fusion_lon": 0.0}, {"rental_uris": {"ios": "https://dc.lft.to/lastmile_qr_scan", "android": "https://dc.lft.to/lastmile_qr_scan"}, "type": "electric_scooter", "name": "af177e2688ee12b68fed5d39f824f88f", "is_reserved": 0, "lon": -76.9438065, "is_disabled": 0, "fusion_lat": 0.0, "lat": 38.891165, "bike_id": "af177e2688ee12b68fed5d39f824f88f", "fusion_lon": 0.0}, {"rental_uris": {"ios": "https://dc.lft.to/lastmile_qr_scan", "android": "https://dc.lft.to/lastmile_qr_scan"}, "type": "electric_bike", "name": "228199d6de999401f504777898176541", "is_reserved": 0, "lon": -77.070167, "is_disabled": 0, "fusion_lat": 0.0, "lat": 38.841102666666664, "bike_id": "228199d6de999401f504777898176541", "fusion_lon": 0.0}, {"rental_uris": {"ios": "https://dc.lft.to/lastmile_qr_scan", "android": "https://dc.lft.to/lastmile_qr_scan"}, "type": "electric_scooter", "name": "23146f68f38a5aaf1d10bf2862824301", "is_reserved": 0, "lon": -76.9465055, "is_disabled": 0, "fusion_lat": 0.0, "lat": 38.898286666666664, "bike_id": "23146f68f38a5aaf1d10bf2862824301", "fusion_lon": 0.0}, {"rental_uris": {"ios": "https://dc.lft.to/lastmile_qr_scan", "android": "https://dc.lft.to/lastmile_qr_scan"}, "type": "electric_scooter", "name": "7dd5d08c84049adbf1cfb2b02d46fdd3", "is_reserved": 0, "lon": -77.07327666666667, "is_disabled": 0, "fusion_lat": 0.0, "lat": 38.907780833333334, "bike_id": "7dd5d08c84049adbf1cfb2b02d46fdd3", "fusion_lon": 0.0}, {"rental_uris": {"ios": "https://dc.lft.to/lastmile_qr_scan", "android": "https://dc.lft.to/lastmile_qr_scan"}, "type": "electric_scooter", "name": "d3cedc2e37be68283dbeca34178c76e1", "is_reserved": 0, "lon": -77.044056, "is_disabled": 0, "fusion_lat": 0.0, "lat": 38.929513666666665, "bike_id": "d3cedc2e37be68283dbeca34178c76e1", "fusion_lon": 0.0}, {"rental_uris": {"ios": "https://dc.lft.to/lastmile_qr_scan", "android": "https://dc.lft.to/lastmile_qr_scan"}, "type": "electric_scooter", "name": "75d33478a9d95e323da7948e365ac2cd", "is_reserved": 0, "lon": -77.03830533333333, "is_disabled": 0, "fusion_lat": 0.0, "lat": 38.911943666666666, "bike_id": "75d33478a9d95e323da7948e365ac2cd", "fusion_lon": 0.0}, {"rental_uris": {"ios": "https://dc.lft.to/lastmile_qr_scan", "android": "https://dc.lft.to/lastmile_qr_scan"}, "type": "electric_scooter", "name": "3c8239d027fa0004a892b61a907a46b3", "is_reserved": 0, "lon": -77.0245045, "is_disabled": 0, "fusion_lat": 0.0, "lat": 38.937496833333334, "bike_id": "3c8239d027fa0004a892b61a907a46b3", "fusion_lon": 0.0}, {"rental_uris": {"ios": "https://dc.lft.to/lastmile_qr_scan", "android": "https://dc.lft.to/lastmile_qr_scan"}, "type": "electric_bike", "name": "6c69f6e873180bb52c55d0434d433ebb", "is_reserved": 0, "lon": -77.03431366666666, "is_disabled": 0, "fusion_lat": 0.0, "lat": 38.9661895, "bike_id": "6c69f6e873180bb52c55d0434d433ebb", "fusion_lon": 0.0}, {"rental_uris": {"ios": "https://dc.lft.to/lastmile_qr_scan", "android": "https://dc.lft.to/lastmile_qr_scan"}, "type": "electric_bike", "name": "70cbb205cac4060567157e204d279f1d", "is_reserved": 0, "lon": -76.91800366666666, "is_disabled": 0, "fusion_lat": 0.0, "lat": 39.000033333333334, "bike_id": "70cbb205cac4060567157e204d279f1d", "fusion_lon": 0.0}, {"rental_uris": {"ios": "https://dc.lft.to/lastmile_qr_scan", "android": "https://dc.lft.to/lastmile_qr_scan"}, "type": "electric_scooter", "name": "e95fc5c1f8f4efd3a7b024e2878bdfc0", "is_reserved": 0, "lon": -77.0376495, "is_disabled": 0, "fusion_lat": 0.0, "lat": 38.90139333333333, "bike_id": "e95fc5c1f8f4efd3a7b024e2878bdfc0", "fusion_lon": 0.0}, {"rental_uris": {"ios": "https://dc.lft.to/lastmile_qr_scan", "android": "https://dc.lft.to/lastmile_qr_scan"}, "type": "electric_scooter", "name": "e4491e27caa958657c587aa7be62ba67", "is_reserved": 0, "lon": -77.041871, "is_disabled": 0, "fusion_lat": 0.0, "lat": 38.9166735, "bike_id": "e4491e27caa958657c587aa7be62ba67", "fusion_lon": 0.0}, {"rental_uris": {"ios": "https://dc.lft.to/lastmile_qr_scan", "android": "https://dc.lft.to/lastmile_qr_scan"}, "type": "electric_scooter", "name": "5a6a35cc7b4c1d327bcfb11497dbe669", "is_reserved": 0, "lon": -77.0179515, "is_disabled": 0, "fusion_lat": 0.0, "lat": 38.88625833333333, "bike_id": "5a6a35cc7b4c1d327bcfb11497dbe669", "fusion_lon": 0.0}, {"rental_uris": {"ios": "https://dc.lft.to/lastmile_qr_scan", "android": "https://dc.lft.to/lastmile_qr_scan"}, "type": "electric_bike", "name": "5b94143aef8a4e6aff211a0d1f408e7c", "is_reserved": 0, "lon": -76.98344716666666, "is_disabled": 0, "fusion_lat": 0.0, "lat": 38.862627, "bike_id": "5b94143aef8a4e6aff211a0d1f408e7c", "fusion_lon": 0.0}, {"rental_uris": {"ios": "https://dc.lft.to/lastmile_qr_scan", "android": "https://dc.lft.to/lastmile_qr_scan"}, "type": "electric_scooter", "name": "8cb8265e31afb18b516d260f8f389a03", "is_reserved": 0, "lon": -77.01854966666667, "is_disabled": 0, "fusion_lat": 0.0, "lat": 38.97370466666667, "bike_id": "8cb8265e31afb18b516d260f8f389a03", "fusion_lon": 0.0}, {"rental_uris": {"ios": "https://dc.lft.to/lastmile_qr_scan", "android": "https://dc.lft.to/lastmile_qr_scan"}, "type": "electric_scooter", "name": "0766e12120486f52231e1150c571a9e3", "is_reserved": 0, "lon": -77.04867233333333, "is_disabled": 0, "fusion_lat": 0.0, "lat": 38.89223166666667, "bike_id": "0766e12120486f52231e1150c571a9e3", "fusion_lon": 0.0}, {"rental_uris": {"ios": "https://dc.lft.to/lastmile_qr_scan", "android": "https://dc.lft.to/lastmile_qr_scan"}, "type": "electric_bike", "name": "587b3e36fb03673058dd4d4be4adb17d", "is_reserved": 0, "lon": -77.12979833333333, "is_disabled": 0, "fusion_lat": 0.0, "lat": 38.799885833333335, "bike_id": "587b3e36fb03673058dd4d4be4adb17d", "fusion_lon": 0.0}, {"rental_uris": {"ios": "https://dc.lft.to/lastmile_qr_scan", "android": "https://dc.lft.to/lastmile_qr_scan"}, "type": "electric_scooter", "name": "0946420fbf6acad5e4fe0f8ad13cc3d3", "is_reserved": 0, "lon": -77.05901483333334, "is_disabled": 0, "fusion_lat": 0.0, "lat": 38.902578166666665, "bike_id": "0946420fbf6acad5e4fe0f8ad13cc3d3", "fusion_lon": 0.0}, {"rental_uris": {"ios": "https://dc.lft.to/lastmile_qr_scan", "android": "https://dc.lft.to/lastmile_qr_scan"}, "type": "electric_scooter", "name": "a7eee93de01c30401d3b78634892a299", "is_reserved": 0, "lon": -77.02666166666667, "is_disabled": 0, "fusion_lat": 0.0, "lat": 38.927722, "bike_id": "a7eee93de01c30401d3b78634892a299", "fusion_lon": 0.0}, {"rental_uris": {"ios": "https://dc.lft.to/lastmile_qr_scan", "android": "https://dc.lft.to/lastmile_qr_scan"}, "type": "electric_scooter", "name": "d0e8b231701b28aa1ecfe7f1754f9bce", "is_reserved": 0, "lon": -76.9907245, "is_disabled": 0, "fusion_lat": 0.0, "lat": 38.9013745, "bike_id": "d0e8b231701b28aa1ecfe7f1754f9bce", "fusion_lon": 0.0}, {"rental_uris": {"ios": "https://dc.lft.to/lastmile_qr_scan", "android": "https://dc.lft.to/lastmile_qr_scan"}, "type": "electric_scooter", "name": "bf94eb418d0315546fb60bd3be9d32d5", "is_reserved": 0, "lon": -77.0041025, "is_disabled": 0, "fusion_lat": 0.0, "lat": 38.876727333333335, "bike_id": "bf94eb418d0315546fb60bd3be9d32d5", "fusion_lon": 0.0}, {"rental_uris": {"ios": "https://dc.lft.to/lastmile_qr_scan", "android": "https://dc.lft.to/lastmile_qr_scan"}, "type": "electric_scooter", "name": "c5bd78ec00d84a0dc19129325e4fdbf7", "is_reserved": 0, "lon": -77.02693883333333, "is_disabled": 0, "fusion_lat": 0.0, "lat": 38.9084325, "bike_id": "c5bd78ec00d84a0dc19129325e4fdbf7", "fusion_lon": 0.0}, {"rental_uris": {"ios": "https://dc.lft.to/lastmile_qr_scan", "android": "https://dc.lft.to/lastmile_qr_scan"}, "type": "electric_scooter", "name": "778841ee67309cef0166322d0c69ef25", "is_reserved": 0, "lon": -77.04361, "is_disabled": 0, "fusion_lat": 0.0, "lat": 38.92244066666667, "bike_id": "778841ee67309cef0166322d0c69ef25", "fusion_lon": 0.0}, {"rental_uris": {"ios": "https://dc.lft.to/lastmile_qr_scan", "android": "https://dc.lft.to/lastmile_qr_scan"}, "type": "electric_scooter", "name": "1af14effabe30492ac82b84203f02bda", "is_reserved": 0, "lon": -76.9321255, "is_disabled": 0, "fusion_lat": 0.0, "lat": 38.8966575, "bike_id": "1af14effabe30492ac82b84203f02bda", "fusion_lon": 0.0}, {"rental_uris": {"ios": "https://dc.lft.to/lastmile_qr_scan", "android": "https://dc.lft.to/lastmile_qr_scan"}, "type": "electric_scooter", "name": "0979500da35c5a15430df717a5385e0b", "is_reserved": 0, "lon": -77.022909, "is_disabled": 0, "fusion_lat": 0.0, "lat": 38.91754683333333, "bike_id": "0979500da35c5a15430df717a5385e0b", "fusion_lon": 0.0}, {"rental_uris": {"ios": "https://dc.lft.to/lastmile_qr_scan", "android": "https://dc.lft.to/lastmile_qr_scan"}, "type": "electric_scooter", "name": "2447ae8d1232bc904e83b40e6ef389d4", "is_reserved": 0, "lon": -77.02595883333333, "is_disabled": 0, "fusion_lat": 0.0, "lat": 38.9050055, "bike_id": "2447ae8d1232bc904e83b40e6ef389d4", "fusion_lon": 0.0}, {"rental_uris": {"ios": "https://dc.lft.to/lastmile_qr_scan", "android": "https://dc.lft.to/lastmile_qr_scan"}, "type": "electric_scooter", "name": "9294fbaadeb7981a9bdd143bbc8a8364", "is_reserved": 0, "lon": -76.92633116666667, "is_disabled": 0, "fusion_lat": 0.0, "lat": 38.901937, "bike_id": "9294fbaadeb7981a9bdd143bbc8a8364", "fusion_lon": 0.0}, {"rental_uris": {"ios": "https://dc.lft.to/lastmile_qr_scan", "android": "https://dc.lft.to/lastmile_qr_scan"}, "type": "electric_scooter", "name": "252964933822c0808d44d4faa2d15330", "is_reserved": 0, "lon": -77.029621, "is_disabled": 0, "fusion_lat": 0.0, "lat": 38.924615333333335, "bike_id": "252964933822c0808d44d4faa2d15330", "fusion_lon": 0.0}, {"rental_uris": {"ios": "https://dc.lft.to/lastmile_qr_scan", "android": "https://dc.lft.to/lastmile_qr_scan"}, "type": "electric_scooter", "name": "dbe2b68bb7a09c39bccea908b063345b", "is_reserved": 0, "lon": -76.98337583333333, "is_disabled": 0, "fusion_lat": 0.0, "lat": 38.90083766666667, "bike_id": "dbe2b68bb7a09c39bccea908b063345b", "fusion_lon": 0.0}, {"rental_uris": {"ios": "https://dc.lft.to/lastmile_qr_scan", "android": "https://dc.lft.to/lastmile_qr_scan"}, "type": "electric_scooter", "name": "3cfa27f6bb41d8165b2bfe9cc6fa7f12", "is_reserved": 0, "lon": -77.04381716666667, "is_disabled": 0, "fusion_lat": 0.0, "lat": 38.93422016666667, "bike_id": "3cfa27f6bb41d8165b2bfe9cc6fa7f12", "fusion_lon": 0.0}, {"rental_uris": {"ios": "https://dc.lft.to/lastmile_qr_scan", "android": "https://dc.lft.to/lastmile_qr_scan"}, "type": "electric_scooter", "name": "ad497a1ad530ff4d3c7d71eb70212b51", "is_reserved": 0, "lon": -77.031588, "is_disabled": 0, "fusion_lat": 0.0, "lat": 38.95935583333333, "bike_id": "ad497a1ad530ff4d3c7d71eb70212b51", "fusion_lon": 0.0}, {"rental_uris": {"ios": "https://dc.lft.to/lastmile_qr_scan", "android": "https://dc.lft.to/lastmile_qr_scan"}, "type": "electric_scooter", "name": "97f7f71bf52c6f8b2f2b582dffb46ba4", "is_reserved": 0, "lon": -77.04987966666667, "is_disabled": 0, "fusion_lat": 0.0, "lat": 38.90797166666667, "bike_id": "97f7f71bf52c6f8b2f2b582dffb46ba4", "fusion_lon": 0.0}, {"rental_uris": {"ios": "https://dc.lft.to/lastmile_qr_scan", "android": "https://dc.lft.to/lastmile_qr_scan"}, "type": "electric_scooter", "name": "0fac3d478af66776c1c05c066729265a", "is_reserved": 0, "lon": -76.95192083333333, "is_disabled": 0, "fusion_lat": 0.0, "lat": 38.905145833333336, "bike_id": "0fac3d478af66776c1c05c066729265a", "fusion_lon": 0.0}, {"rental_uris": {"ios": "https://dc.lft.to/lastmile_qr_scan", "android": "https://dc.lft.to/lastmile_qr_scan"}, "type": "electric_scooter", "name": "e95b35691ee97e391c102904176c568f", "is_reserved": 0, "lon": -77.02695233333333, "is_disabled": 0, "fusion_lat": 0.0, "lat": 38.91377283333333, "bike_id": "e95b35691ee97e391c102904176c568f", "fusion_lon": 0.0}, {"rental_uris": {"ios": "https://dc.lft.to/lastmile_qr_scan", "android": "https://dc.lft.to/lastmile_qr_scan"}, "type": "electric_bike", "name": "ad3071a574e3571e0dd675ac2bcca7f1", "is_reserved": 0, "lon": -77.0019925, "is_disabled": 0, "fusion_lat": 0.0, "lat": 38.94152, "bike_id": "ad3071a574e3571e0dd675ac2bcca7f1", "fusion_lon": 0.0}, {"rental_uris": {"ios": "https://dc.lft.to/lastmile_qr_scan", "android": "https://dc.lft.to/lastmile_qr_scan"}, "type": "electric_scooter", "name": "d722407f9f610923b561ed093cc7491f", "is_reserved": 0, "lon": -77.0262735, "is_disabled": 0, "fusion_lat": 0.0, "lat": 38.88382333333333, "bike_id": "d722407f9f610923b561ed093cc7491f", "fusion_lon": 0.0}, {"rental_uris": {"ios": "https://dc.lft.to/lastmile_qr_scan", "android": "https://dc.lft.to/lastmile_qr_scan"}, "type": "electric_scooter", "name": "1756dfacec26386c92a48e478128cfef", "is_reserved": 0, "lon": -77.02485383333334, "is_disabled": 0, "fusion_lat": 0.0, "lat": 38.91817966666667, "bike_id": "1756dfacec26386c92a48e478128cfef", "fusion_lon": 0.0}, {"rental_uris": {"ios": "https://dc.lft.to/lastmile_qr_scan", "android": "https://dc.lft.to/lastmile_qr_scan"}, "type": "electric_scooter", "name": "87416f4ac8dc0900112a0bea7a284672", "is_reserved": 0, "lon": -77.04364566666666, "is_disabled": 0, "fusion_lat": 0.0, "lat": 38.907892333333336, "bike_id": "87416f4ac8dc0900112a0bea7a284672", "fusion_lon": 0.0}, {"rental_uris": {"ios": "https://dc.lft.to/lastmile_qr_scan", "android": "https://dc.lft.to/lastmile_qr_scan"}, "type": "electric_scooter", "name": "42ff5f391e2251a357f06bee3c586619", "is_reserved": 0, "lon": -77.03184166666666, "is_disabled": 0, "fusion_lat": 0.0, "lat": 38.913499333333334, "bike_id": "42ff5f391e2251a357f06bee3c586619", "fusion_lon": 0.0}, {"rental_uris": {"ios": "https://dc.lft.to/lastmile_qr_scan", "android": "https://dc.lft.to/lastmile_qr_scan"}, "type": "electric_scooter", "name": "32f40b7baebe63ca590ac53b89188554", "is_reserved": 0, "lon": -77.03346783333333, "is_disabled": 0, "fusion_lat": 0.0, "lat": 38.898935, "bike_id": "32f40b7baebe63ca590ac53b89188554", "fusion_lon": 0.0}, {"rental_uris": {"ios": "https://dc.lft.to/lastmile_qr_scan", "android": "https://dc.lft.to/lastmile_qr_scan"}, "type": "electric_scooter", "name": "1980a1f659707e957e63a4f9553dc18b", "is_reserved": 0, "lon": -77.02477133333333, "is_disabled": 0, "fusion_lat": 0.0, "lat": 38.91813783333333, "bike_id": "1980a1f659707e957e63a4f9553dc18b", "fusion_lon": 0.0}, {"rental_uris": {"ios": "https://dc.lft.to/lastmile_qr_scan", "android": "https://dc.lft.to/lastmile_qr_scan"}, "type": "electric_scooter", "name": "95c7c39c66f60d3851cd1e3d34815701", "is_reserved": 0, "lon": -76.99626183333334, "is_disabled": 0, "fusion_lat": 0.0, "lat": 38.904553666666665, "bike_id": "95c7c39c66f60d3851cd1e3d34815701", "fusion_lon": 0.0}, {"rental_uris": {"ios": "https://dc.lft.to/lastmile_qr_scan", "android": "https://dc.lft.to/lastmile_qr_scan"}, "type": "electric_scooter", "name": "c3d636fcbd52040740e8d4f8b170db47", "is_reserved": 0, "lon": -77.02824033333333, "is_disabled": 0, "fusion_lat": 0.0, "lat": 38.90731, "bike_id": "c3d636fcbd52040740e8d4f8b170db47", "fusion_lon": 0.0}, {"rental_uris": {"ios": "https://dc.lft.to/lastmile_qr_scan", "android": "https://dc.lft.to/lastmile_qr_scan"}, "type": "electric_scooter", "name": "3dfa0e2b1db882192255613ab05941df", "is_reserved": 0, "lon": -77.02829416666667, "is_disabled": 0, "fusion_lat": 0.0, "lat": 38.93883133333333, "bike_id": "3dfa0e2b1db882192255613ab05941df", "fusion_lon": 0.0}, {"rental_uris": {"ios": "https://dc.lft.to/lastmile_qr_scan", "android": "https://dc.lft.to/lastmile_qr_scan"}, "type": "electric_scooter", "name": "66cc08969ed53e96f36a6aa678a85af7", "is_reserved": 0, "lon": -77.04882066666667, "is_disabled": 0, "fusion_lat": 0.0, "lat": 38.899157, "bike_id": "66cc08969ed53e96f36a6aa678a85af7", "fusion_lon": 0.0}, {"rental_uris": {"ios": "https://dc.lft.to/lastmile_qr_scan", "android": "https://dc.lft.to/lastmile_qr_scan"}, "type": "electric_scooter", "name": "688cb7e3bf3be8ffc50b54c796973af9", "is_reserved": 0, "lon": -76.99389016666666, "is_disabled": 0, "fusion_lat": 0.0, "lat": 38.91012583333333, "bike_id": "688cb7e3bf3be8ffc50b54c796973af9", "fusion_lon": 0.0}, {"rental_uris": {"ios": "https://dc.lft.to/lastmile_qr_scan", "android": "https://dc.lft.to/lastmile_qr_scan"}, "type": "electric_scooter", "name": "27cfc2b863c818baf749304acb4641d5", "is_reserved": 0, "lon": -77.00788083333333, "is_disabled": 0, "fusion_lat": 0.0, "lat": 38.89725166666667, "bike_id": "27cfc2b863c818baf749304acb4641d5", "fusion_lon": 0.0}, {"rental_uris": {"ios": "https://dc.lft.to/lastmile_qr_scan", "android": "https://dc.lft.to/lastmile_qr_scan"}, "type": "electric_bike", "name": "3cd1beda74566f28c4933dfd26460efa", "is_reserved": 0, "lon": -77.11321066666666, "is_disabled": 0, "fusion_lat": 0.0, "lat": 38.855846666666665, "bike_id": "3cd1beda74566f28c4933dfd26460efa", "fusion_lon": 0.0}, {"rental_uris": {"ios": "https://dc.lft.to/lastmile_qr_scan", "android": "https://dc.lft.to/lastmile_qr_scan"}, "type": "electric_scooter", "name": "96fc74df288edc55b67889ac4ca66245", "is_reserved": 0, "lon": -77.02779683333333, "is_disabled": 0, "fusion_lat": 0.0, "lat": 38.917084, "bike_id": "96fc74df288edc55b67889ac4ca66245", "fusion_lon": 0.0}, {"rental_uris": {"ios": "https://dc.lft.to/lastmile_qr_scan", "android": "https://dc.lft.to/lastmile_qr_scan"}, "type": "electric_scooter", "name": "18bc25a724a1751d153ba061d9d70dda", "is_reserved": 0, "lon": -77.0481265, "is_disabled": 0, "fusion_lat": 0.0, "lat": 38.916351666666664, "bike_id": "18bc25a724a1751d153ba061d9d70dda", "fusion_lon": 0.0}, {"rental_uris": {"ios": "https://dc.lft.to/lastmile_qr_scan", "android": "https://dc.lft.to/lastmile_qr_scan"}, "type": "electric_scooter", "name": "e4785bf6a6fdfe5c4a0fe23d684b541b", "is_reserved": 0, "lon": -77.03704233333333, "is_disabled": 0, "fusion_lat": 0.0, "lat": 38.926525833333336, "bike_id": "e4785bf6a6fdfe5c4a0fe23d684b541b", "fusion_lon": 0.0}, {"rental_uris": {"ios": "https://dc.lft.to/lastmile_qr_scan", "android": "https://dc.lft.to/lastmile_qr_scan"}, "type": "electric_scooter", "name": "f14675c16ab85e6e055bd0764f20ef74", "is_reserved": 0, "lon": -77.02525933333334, "is_disabled": 0, "fusion_lat": 0.0, "lat": 38.916878833333335, "bike_id": "f14675c16ab85e6e055bd0764f20ef74", "fusion_lon": 0.0}, {"rental_uris": {"ios": "https://dc.lft.to/lastmile_qr_scan", "android": "https://dc.lft.to/lastmile_qr_scan"}, "type": "electric_scooter", "name": "6a3c1dc6c8c8e3cf91edd23d1b35f6b5", "is_reserved": 0, "lon": -77.03081216666666, "is_disabled": 0, "fusion_lat": 0.0, "lat": 38.93877633333334, "bike_id": "6a3c1dc6c8c8e3cf91edd23d1b35f6b5", "fusion_lon": 0.0}, {"rental_uris": {"ios": "https://dc.lft.to/lastmile_qr_scan", "android": "https://dc.lft.to/lastmile_qr_scan"}, "type": "electric_scooter", "name": "4656b99fe85ccfe33fe2a971523f4683", "is_reserved": 0, "lon": -77.0326625, "is_disabled": 0, "fusion_lat": 0.0, "lat": 38.938860166666664, "bike_id": "4656b99fe85ccfe33fe2a971523f4683", "fusion_lon": 0.0}, {"rental_uris": {"ios": "https://dc.lft.to/lastmile_qr_scan", "android": "https://dc.lft.to/lastmile_qr_scan"}, "type": "electric_scooter", "name": "4f94c3075719057c19d660fa8194246d", "is_reserved": 0, "lon": -77.02697883333333, "is_disabled": 0, "fusion_lat": 0.0, "lat": 38.91375033333333, "bike_id": "4f94c3075719057c19d660fa8194246d", "fusion_lon": 0.0}, {"rental_uris": {"ios": "https://dc.lft.to/lastmile_qr_scan", "android": "https://dc.lft.to/lastmile_qr_scan"}, "type": "electric_scooter", "name": "5e2189cc2e58749ef0e22b9e76fcd019", "is_reserved": 0, "lon": -77.04338, "is_disabled": 0, "fusion_lat": 0.0, "lat": 38.8998105, "bike_id": "5e2189cc2e58749ef0e22b9e76fcd019", "fusion_lon": 0.0}, {"rental_uris": {"ios": "https://dc.lft.to/lastmile_qr_scan", "android": "https://dc.lft.to/lastmile_qr_scan"}, "type": "electric_scooter", "name": "a0b874483245585521e74adc74628e42", "is_reserved": 0, "lon": -77.021362, "is_disabled": 0, "fusion_lat": 0.0, "lat": 38.924908, "bike_id": "a0b874483245585521e74adc74628e42", "fusion_lon": 0.0}, {"rental_uris": {"ios": "https://dc.lft.to/lastmile_qr_scan", "android": "https://dc.lft.to/lastmile_qr_scan"}, "type": "electric_scooter", "name": "3391e4632863896660f4ec6fbda9dd3e", "is_reserved": 0, "lon": -77.07716583333334, "is_disabled": 0, "fusion_lat": 0.0, "lat": 38.94291316666666, "bike_id": "3391e4632863896660f4ec6fbda9dd3e", "fusion_lon": 0.0}, {"rental_uris": {"ios": "https://dc.lft.to/lastmile_qr_scan", "android": "https://dc.lft.to/lastmile_qr_scan"}, "type": "electric_scooter", "name": "42048f3a5b0b2ac32d34c061fdcfb1a0", "is_reserved": 0, "lon": -77.01855166666667, "is_disabled": 0, "fusion_lat": 0.0, "lat": 38.9147645, "bike_id": "42048f3a5b0b2ac32d34c061fdcfb1a0", "fusion_lon": 0.0}, {"rental_uris": {"ios": "https://dc.lft.to/lastmile_qr_scan", "android": "https://dc.lft.to/lastmile_qr_scan"}, "type": "electric_scooter", "name": "ad0c9b85ab89e1668a003ff841a565fa", "is_reserved": 0, "lon": -77.00401483333333, "is_disabled": 0, "fusion_lat": 0.0, "lat": 38.87439583333333, "bike_id": "ad0c9b85ab89e1668a003ff841a565fa", "fusion_lon": 0.0}, {"rental_uris": {"ios": "https://dc.lft.to/lastmile_qr_scan", "android": "https://dc.lft.to/lastmile_qr_scan"}, "type": "electric_scooter", "name": "03e66433d5cc2517832159d0bd4adb67", "is_reserved": 0, "lon": -77.02774316666667, "is_disabled": 0, "fusion_lat": 0.0, "lat": 38.887473, "bike_id": "03e66433d5cc2517832159d0bd4adb67", "fusion_lon": 0.0}, {"rental_uris": {"ios": "https://dc.lft.to/lastmile_qr_scan", "android": "https://dc.lft.to/lastmile_qr_scan"}, "type": "electric_scooter", "name": "73e4694964dbfa4066fb83e0904b6b17", "is_reserved": 0, "lon": -77.02847916666667, "is_disabled": 0, "fusion_lat": 0.0, "lat": 38.917555666666665, "bike_id": "73e4694964dbfa4066fb83e0904b6b17", "fusion_lon": 0.0}, {"rental_uris": {"ios": "https://dc.lft.to/lastmile_qr_scan", "android": "https://dc.lft.to/lastmile_qr_scan"}, "type": "electric_scooter", "name": "ad97d01768af27abeb57480ee14f6fbb", "is_reserved": 0, "lon": -77.01166283333333, "is_disabled": 0, "fusion_lat": 0.0, "lat": 38.8765765, "bike_id": "ad97d01768af27abeb57480ee14f6fbb", "fusion_lon": 0.0}, {"rental_uris": {"ios": "https://dc.lft.to/lastmile_qr_scan", "android": "https://dc.lft.to/lastmile_qr_scan"}, "type": "electric_scooter", "name": "4c591076fb34e5fc13e6f18f3db3b35e", "is_reserved": 0, "lon": -76.95688083333333, "is_disabled": 0, "fusion_lat": 0.0, "lat": 38.89205883333333, "bike_id": "4c591076fb34e5fc13e6f18f3db3b35e", "fusion_lon": 0.0}, {"rental_uris": {"ios": "https://dc.lft.to/lastmile_qr_scan", "android": "https://dc.lft.to/lastmile_qr_scan"}, "type": "electric_scooter", "name": "97857a8187da690953fb2fe3db3fcfe4", "is_reserved": 0, "lon": -77.043653, "is_disabled": 0, "fusion_lat": 0.0, "lat": 38.90120683333333, "bike_id": "97857a8187da690953fb2fe3db3fcfe4", "fusion_lon": 0.0}, {"rental_uris": {"ios": "https://dc.lft.to/lastmile_qr_scan", "android": "https://dc.lft.to/lastmile_qr_scan"}, "type": "electric_scooter", "name": "92773c9cb20fca2eea8da7a79e5fb80b", "is_reserved": 0, "lon": -77.03653816666667, "is_disabled": 0, "fusion_lat": 0.0, "lat": 38.9008375, "bike_id": "92773c9cb20fca2eea8da7a79e5fb80b", "fusion_lon": 0.0}, {"rental_uris": {"ios": "https://dc.lft.to/lastmile_qr_scan", "android": "https://dc.lft.to/lastmile_qr_scan"}, "type": "electric_scooter", "name": "1a4a00fe0e697699d1c1e5ddf438bd77", "is_reserved": 0, "lon": -76.9903545, "is_disabled": 0, "fusion_lat": 0.0, "lat": 38.88877466666667, "bike_id": "1a4a00fe0e697699d1c1e5ddf438bd77", "fusion_lon": 0.0}, {"rental_uris": {"ios": "https://dc.lft.to/lastmile_qr_scan", "android": "https://dc.lft.to/lastmile_qr_scan"}, "type": "electric_scooter", "name": "1fcda2631cc60dbd02e0f8a777874a5f", "is_reserved": 0, "lon": -76.98692566666666, "is_disabled": 0, "fusion_lat": 0.0, "lat": 38.90702983333333, "bike_id": "1fcda2631cc60dbd02e0f8a777874a5f", "fusion_lon": 0.0}, {"rental_uris": {"ios": "https://dc.lft.to/lastmile_qr_scan", "android": "https://dc.lft.to/lastmile_qr_scan"}, "type": "electric_scooter", "name": "1107a5e5acf2f34e3fee8197b1f349b0", "is_reserved": 0, "lon": -77.02482333333333, "is_disabled": 0, "fusion_lat": 0.0, "lat": 38.918154666666666, "bike_id": "1107a5e5acf2f34e3fee8197b1f349b0", "fusion_lon": 0.0}, {"rental_uris": {"ios": "https://dc.lft.to/lastmile_qr_scan", "android": "https://dc.lft.to/lastmile_qr_scan"}, "type": "electric_scooter", "name": "e38c88b057d87e62a083a791a1469be6", "is_reserved": 0, "lon": -77.032404, "is_disabled": 0, "fusion_lat": 0.0, "lat": 38.907311166666666, "bike_id": "e38c88b057d87e62a083a791a1469be6", "fusion_lon": 0.0}, {"rental_uris": {"ios": "https://dc.lft.to/lastmile_qr_scan", "android": "https://dc.lft.to/lastmile_qr_scan"}, "type": "electric_scooter", "name": "6cd53c9c3275413368a68e0c22b873da", "is_reserved": 0, "lon": -77.01163116666666, "is_disabled": 0, "fusion_lat": 0.0, "lat": 38.91482666666667, "bike_id": "6cd53c9c3275413368a68e0c22b873da", "fusion_lon": 0.0}, {"rental_uris": {"ios": "https://dc.lft.to/lastmile_qr_scan", "android": "https://dc.lft.to/lastmile_qr_scan"}, "type": "electric_scooter", "name": "e218a19fc2473855426b0c23c0854053", "is_reserved": 0, "lon": -77.01904433333333, "is_disabled": 0, "fusion_lat": 0.0, "lat": 38.92338483333333, "bike_id": "e218a19fc2473855426b0c23c0854053", "fusion_lon": 0.0}, {"rental_uris": {"ios": "https://dc.lft.to/lastmile_qr_scan", "android": "https://dc.lft.to/lastmile_qr_scan"}, "type": "electric_scooter", "name": "bb0223dcd8f8d30db04373107736ea61", "is_reserved": 0, "lon": -77.01978733333333, "is_disabled": 0, "fusion_lat": 0.0, "lat": 38.8759525, "bike_id": "bb0223dcd8f8d30db04373107736ea61", "fusion_lon": 0.0}, {"rental_uris": {"ios": "https://dc.lft.to/lastmile_qr_scan", "android": "https://dc.lft.to/lastmile_qr_scan"}, "type": "electric_scooter", "name": "cd2dc1db6ccdc29bf9169ed4857cdc9c", "is_reserved": 0, "lon": -77.06802316666666, "is_disabled": 0, "fusion_lat": 0.0, "lat": 38.905166333333334, "bike_id": "cd2dc1db6ccdc29bf9169ed4857cdc9c", "fusion_lon": 0.0}, {"rental_uris": {"ios": "https://dc.lft.to/lastmile_qr_scan", "android": "https://dc.lft.to/lastmile_qr_scan"}, "type": "electric_bike", "name": "7dea92a9581ec204f155025766fbfeb4", "is_reserved": 0, "lon": -76.99416816666667, "is_disabled": 0, "fusion_lat": 0.0, "lat": 38.958746, "bike_id": "7dea92a9581ec204f155025766fbfeb4", "fusion_lon": 0.0}, {"rental_uris": {"ios": "https://dc.lft.to/lastmile_qr_scan", "android": "https://dc.lft.to/lastmile_qr_scan"}, "type": "electric_bike", "name": "17902f341f2cd160dfb67a4486f71479", "is_reserved": 0, "lon": -77.12734983333333, "is_disabled": 0, "fusion_lat": 0.0, "lat": 38.895611833333334, "bike_id": "17902f341f2cd160dfb67a4486f71479", "fusion_lon": 0.0}, {"rental_uris": {"ios": "https://dc.lft.to/lastmile_qr_scan", "android": "https://dc.lft.to/lastmile_qr_scan"}, "type": "electric_scooter", "name": "ad07bf4ce716b77b85ae2741dd78e171", "is_reserved": 0, "lon": -77.0359365, "is_disabled": 0, "fusion_lat": 0.0, "lat": 38.90259533333333, "bike_id": "ad07bf4ce716b77b85ae2741dd78e171", "fusion_lon": 0.0}, {"rental_uris": {"ios": "https://dc.lft.to/lastmile_qr_scan", "android": "https://dc.lft.to/lastmile_qr_scan"}, "type": "electric_scooter", "name": "26a61fea4f634ade7e143971584e021e", "is_reserved": 0, "lon": -77.03806633333333, "is_disabled": 0, "fusion_lat": 0.0, "lat": 38.910436833333335, "bike_id": "26a61fea4f634ade7e143971584e021e", "fusion_lon": 0.0}, {"rental_uris": {"ios": "https://dc.lft.to/lastmile_qr_scan", "android": "https://dc.lft.to/lastmile_qr_scan"}, "type": "electric_scooter", "name": "f0fc8a39294b6885e56c636a9a2f943f", "is_reserved": 0, "lon": -77.03703483333334, "is_disabled": 0, "fusion_lat": 0.0, "lat": 38.9265355, "bike_id": "f0fc8a39294b6885e56c636a9a2f943f", "fusion_lon": 0.0}, {"rental_uris": {"ios": "https://dc.lft.to/lastmile_qr_scan", "android": "https://dc.lft.to/lastmile_qr_scan"}, "type": "electric_scooter", "name": "f3ff1e8097e387c60723a897c92f1556", "is_reserved": 0, "lon": -77.037957, "is_disabled": 0, "fusion_lat": 0.0, "lat": 38.93109666666667, "bike_id": "f3ff1e8097e387c60723a897c92f1556", "fusion_lon": 0.0}, {"rental_uris": {"ios": "https://dc.lft.to/lastmile_qr_scan", "android": "https://dc.lft.to/lastmile_qr_scan"}, "type": "electric_scooter", "name": "d8e99d01a09555468f9b40fe9c91de96", "is_reserved": 0, "lon": -77.07902616666667, "is_disabled": 0, "fusion_lat": 0.0, "lat": 38.947994333333334, "bike_id": "d8e99d01a09555468f9b40fe9c91de96", "fusion_lon": 0.0}, {"rental_uris": {"ios": "https://dc.lft.to/lastmile_qr_scan", "android": "https://dc.lft.to/lastmile_qr_scan"}, "type": "electric_bike", "name": "55da087707aacbadf5f1f70ba40ab424", "is_reserved": 0, "lon": -77.07521666666666, "is_disabled": 0, "fusion_lat": 0.0, "lat": 38.842838666666665, "bike_id": "55da087707aacbadf5f1f70ba40ab424", "fusion_lon": 0.0}, {"rental_uris": {"ios": "https://dc.lft.to/lastmile_qr_scan", "android": "https://dc.lft.to/lastmile_qr_scan"}, "type": "electric_scooter", "name": "5b88fd90525f96018b95afc8dad41651", "is_reserved": 0, "lon": -76.93731716666667, "is_disabled": 0, "fusion_lat": 0.0, "lat": 38.88886016666667, "bike_id": "5b88fd90525f96018b95afc8dad41651", "fusion_lon": 0.0}, {"rental_uris": {"ios": "https://dc.lft.to/lastmile_qr_scan", "android": "https://dc.lft.to/lastmile_qr_scan"}, "type": "electric_scooter", "name": "90489fe1023b6ec401bc3d6e6615071f", "is_reserved": 0, "lon": -77.04710133333333, "is_disabled": 0, "fusion_lat": 0.0, "lat": 38.90291416666667, "bike_id": "90489fe1023b6ec401bc3d6e6615071f", "fusion_lon": 0.0}, {"rental_uris": {"ios": "https://dc.lft.to/lastmile_qr_scan", "android": "https://dc.lft.to/lastmile_qr_scan"}, "type": "electric_scooter", "name": "8ef8a69fcbd7a75d3846bbc195b0a98e", "is_reserved": 0, "lon": -77.0406255, "is_disabled": 0, "fusion_lat": 0.0, "lat": 38.904549333333335, "bike_id": "8ef8a69fcbd7a75d3846bbc195b0a98e", "fusion_lon": 0.0}, {"rental_uris": {"ios": "https://dc.lft.to/lastmile_qr_scan", "android": "https://dc.lft.to/lastmile_qr_scan"}, "type": "electric_scooter", "name": "5738aa5dc20559f4559ec8bc672ce439", "is_reserved": 0, "lon": -76.99694666666667, "is_disabled": 0, "fusion_lat": 0.0, "lat": 38.921875, "bike_id": "5738aa5dc20559f4559ec8bc672ce439", "fusion_lon": 0.0}, {"rental_uris": {"ios": "https://dc.lft.to/lastmile_qr_scan", "android": "https://dc.lft.to/lastmile_qr_scan"}, "type": "electric_scooter", "name": "6f79b30ee83cc673456759b307d0e33f", "is_reserved": 0, "lon": -77.025698, "is_disabled": 0, "fusion_lat": 0.0, "lat": 38.88480116666667, "bike_id": "6f79b30ee83cc673456759b307d0e33f", "fusion_lon": 0.0}, {"rental_uris": {"ios": "https://dc.lft.to/lastmile_qr_scan", "android": "https://dc.lft.to/lastmile_qr_scan"}, "type": "electric_scooter", "name": "06fbf60f50dae0e5bb415ca3dea453a6", "is_reserved": 0, "lon": -77.0318745, "is_disabled": 0, "fusion_lat": 0.0, "lat": 38.90115733333333, "bike_id": "06fbf60f50dae0e5bb415ca3dea453a6", "fusion_lon": 0.0}, {"rental_uris": {"ios": "https://dc.lft.to/lastmile_qr_scan", "android": "https://dc.lft.to/lastmile_qr_scan"}, "type": "electric_scooter", "name": "e1a40c41014f27e009affbc5c2c66c0c", "is_reserved": 0, "lon": -77.0456265, "is_disabled": 0, "fusion_lat": 0.0, "lat": 38.91938066666667, "bike_id": "e1a40c41014f27e009affbc5c2c66c0c", "fusion_lon": 0.0}, {"rental_uris": {"ios": "https://dc.lft.to/lastmile_qr_scan", "android": "https://dc.lft.to/lastmile_qr_scan"}, "type": "electric_scooter", "name": "a345dc173e5ffe188fda6dddd8ff5d45", "is_reserved": 0, "lon": -77.0323125, "is_disabled": 0, "fusion_lat": 0.0, "lat": 38.93874016666667, "bike_id": "a345dc173e5ffe188fda6dddd8ff5d45", "fusion_lon": 0.0}, {"rental_uris": {"ios": "https://dc.lft.to/lastmile_qr_scan", "android": "https://dc.lft.to/lastmile_qr_scan"}, "type": "electric_scooter", "name": "f706ff68e30cec0a18b29a9de405ef4e", "is_reserved": 0, "lon": -77.01363283333333, "is_disabled": 0, "fusion_lat": 0.0, "lat": 38.919287833333335, "bike_id": "f706ff68e30cec0a18b29a9de405ef4e", "fusion_lon": 0.0}, {"rental_uris": {"ios": "https://dc.lft.to/lastmile_qr_scan", "android": "https://dc.lft.to/lastmile_qr_scan"}, "type": "electric_scooter", "name": "977b0439d2650b7bc8ac8ee650b9eb83", "is_reserved": 0, "lon": -77.08338316666666, "is_disabled": 0, "fusion_lat": 0.0, "lat": 38.894209000000004, "bike_id": "977b0439d2650b7bc8ac8ee650b9eb83", "fusion_lon": 0.0}, {"rental_uris": {"ios": "https://dc.lft.to/lastmile_qr_scan", "android": "https://dc.lft.to/lastmile_qr_scan"}, "type": "electric_scooter", "name": "1f6fbc9bb45a2dc7940bd4a6404fe5ed", "is_reserved": 0, "lon": -77.03851316666666, "is_disabled": 0, "fusion_lat": 0.0, "lat": 38.91094916666667, "bike_id": "1f6fbc9bb45a2dc7940bd4a6404fe5ed", "fusion_lon": 0.0}, {"rental_uris": {"ios": "https://dc.lft.to/lastmile_qr_scan", "android": "https://dc.lft.to/lastmile_qr_scan"}, "type": "electric_scooter", "name": "ddf8c1d9b5a6b633f016ae3557d6cccf", "is_reserved": 0, "lon": -77.02346083333333, "is_disabled": 0, "fusion_lat": 0.0, "lat": 38.93180983333333, "bike_id": "ddf8c1d9b5a6b633f016ae3557d6cccf", "fusion_lon": 0.0}, {"rental_uris": {"ios": "https://dc.lft.to/lastmile_qr_scan", "android": "https://dc.lft.to/lastmile_qr_scan"}, "type": "electric_scooter", "name": "18a850361afabed38cbaae9c46854871", "is_reserved": 0, "lon": -77.073444, "is_disabled": 0, "fusion_lat": 0.0, "lat": 38.92859683333333, "bike_id": "18a850361afabed38cbaae9c46854871", "fusion_lon": 0.0}, {"rental_uris": {"ios": "https://dc.lft.to/lastmile_qr_scan", "android": "https://dc.lft.to/lastmile_qr_scan"}, "type": "electric_bike", "name": "2aea85e6e3fb66d91b296f3a6a0ab397", "is_reserved": 0, "lon": -76.99441133333333, "is_disabled": 0, "fusion_lat": 0.0, "lat": 38.831088666666666, "bike_id": "2aea85e6e3fb66d91b296f3a6a0ab397", "fusion_lon": 0.0}, {"rental_uris": {"ios": "https://dc.lft.to/lastmile_qr_scan", "android": "https://dc.lft.to/lastmile_qr_scan"}, "type": "electric_scooter", "name": "d15ca75bced970d76bc1fc9c2993509f", "is_reserved": 0, "lon": -77.02803283333333, "is_disabled": 0, "fusion_lat": 0.0, "lat": 38.907397833333334, "bike_id": "d15ca75bced970d76bc1fc9c2993509f", "fusion_lon": 0.0}, {"rental_uris": {"ios": "https://dc.lft.to/lastmile_qr_scan", "android": "https://dc.lft.to/lastmile_qr_scan"}, "type": "electric_scooter", "name": "cbedbfb348d31ec1ee0f96441959db17", "is_reserved": 0, "lon": -76.93367316666667, "is_disabled": 0, "fusion_lat": 0.0, "lat": 38.899198166666665, "bike_id": "cbedbfb348d31ec1ee0f96441959db17", "fusion_lon": 0.0}, {"rental_uris": {"ios": "https://dc.lft.to/lastmile_qr_scan", "android": "https://dc.lft.to/lastmile_qr_scan"}, "type": "electric_scooter", "name": "3860a92586eddf46c6d896f2c0b7a68a", "is_reserved": 0, "lon": -77.04043566666667, "is_disabled": 0, "fusion_lat": 0.0, "lat": 38.90410133333334, "bike_id": "3860a92586eddf46c6d896f2c0b7a68a", "fusion_lon": 0.0}, {"rental_uris": {"ios": "https://dc.lft.to/lastmile_qr_scan", "android": "https://dc.lft.to/lastmile_qr_scan"}, "type": "electric_scooter", "name": "082ecbbe1cefb9f2e0f634d67f8f7f7a", "is_reserved": 0, "lon": -77.00537966666667, "is_disabled": 0, "fusion_lat": 0.0, "lat": 38.90037133333333, "bike_id": "082ecbbe1cefb9f2e0f634d67f8f7f7a", "fusion_lon": 0.0}, {"rental_uris": {"ios": "https://dc.lft.to/lastmile_qr_scan", "android": "https://dc.lft.to/lastmile_qr_scan"}, "type": "electric_scooter", "name": "75928bac32123b387c8854ad4202d86e", "is_reserved": 0, "lon": -77.04403883333333, "is_disabled": 0, "fusion_lat": 0.0, "lat": 38.90590183333333, "bike_id": "75928bac32123b387c8854ad4202d86e", "fusion_lon": 0.0}, {"rental_uris": {"ios": "https://dc.lft.to/lastmile_qr_scan", "android": "https://dc.lft.to/lastmile_qr_scan"}, "type": "electric_scooter", "name": "01e6c56dbc8ee4fba9e52f1df505c6b6", "is_reserved": 0, "lon": -77.02802983333333, "is_disabled": 0, "fusion_lat": 0.0, "lat": 38.907417, "bike_id": "01e6c56dbc8ee4fba9e52f1df505c6b6", "fusion_lon": 0.0}, {"rental_uris": {"ios": "https://dc.lft.to/lastmile_qr_scan", "android": "https://dc.lft.to/lastmile_qr_scan"}, "type": "electric_scooter", "name": "c0c774943eb998643a19bcd6f125902d", "is_reserved": 0, "lon": -77.04859183333333, "is_disabled": 0, "fusion_lat": 0.0, "lat": 38.91268216666667, "bike_id": "c0c774943eb998643a19bcd6f125902d", "fusion_lon": 0.0}, {"rental_uris": {"ios": "https://dc.lft.to/lastmile_qr_scan", "android": "https://dc.lft.to/lastmile_qr_scan"}, "type": "electric_scooter", "name": "5fdbb0bca36a2395ea4211b729865937", "is_reserved": 0, "lon": -77.04404216666667, "is_disabled": 0, "fusion_lat": 0.0, "lat": 38.92040633333333, "bike_id": "5fdbb0bca36a2395ea4211b729865937", "fusion_lon": 0.0}, {"rental_uris": {"ios": "https://dc.lft.to/lastmile_qr_scan", "android": "https://dc.lft.to/lastmile_qr_scan"}, "type": "electric_scooter", "name": "afc9025d1e2f5044e047f7867390ae90", "is_reserved": 0, "lon": -77.00658333333334, "is_disabled": 0, "fusion_lat": 0.0, "lat": 38.90106316666667, "bike_id": "afc9025d1e2f5044e047f7867390ae90", "fusion_lon": 0.0}, {"rental_uris": {"ios": "https://dc.lft.to/lastmile_qr_scan", "android": "https://dc.lft.to/lastmile_qr_scan"}, "type": "electric_scooter", "name": "1e0a3d2eb64000f28b18b8297b026246", "is_reserved": 0, "lon": -77.025331, "is_disabled": 0, "fusion_lat": 0.0, "lat": 38.9453695, "bike_id": "1e0a3d2eb64000f28b18b8297b026246", "fusion_lon": 0.0}, {"rental_uris": {"ios": "https://dc.lft.to/lastmile_qr_scan", "android": "https://dc.lft.to/lastmile_qr_scan"}, "type": "electric_scooter", "name": "0b5c50db39ab47266cd6f847bb3188d4", "is_reserved": 0, "lon": -77.03091716666667, "is_disabled": 0, "fusion_lat": 0.0, "lat": 38.94675683333333, "bike_id": "0b5c50db39ab47266cd6f847bb3188d4", "fusion_lon": 0.0}, {"rental_uris": {"ios": "https://dc.lft.to/lastmile_qr_scan", "android": "https://dc.lft.to/lastmile_qr_scan"}, "type": "electric_scooter", "name": "1af5ad70e1fdf96ec9b5a041d2c6a23a", "is_reserved": 0, "lon": -77.01867416666667, "is_disabled": 0, "fusion_lat": 0.0, "lat": 38.951525, "bike_id": "1af5ad70e1fdf96ec9b5a041d2c6a23a", "fusion_lon": 0.0}, {"rental_uris": {"ios": "https://dc.lft.to/lastmile_qr_scan", "android": "https://dc.lft.to/lastmile_qr_scan"}, "type": "electric_scooter", "name": "0ad6f835edff8567025d981a8ee5d2f4", "is_reserved": 0, "lon": -77.062857, "is_disabled": 0, "fusion_lat": 0.0, "lat": 38.90501283333333, "bike_id": "0ad6f835edff8567025d981a8ee5d2f4", "fusion_lon": 0.0}, {"rental_uris": {"ios": "https://dc.lft.to/lastmile_qr_scan", "android": "https://dc.lft.to/lastmile_qr_scan"}, "type": "electric_bike", "name": "47437024cf205d8016f5e656545efb28", "is_reserved": 0, "lon": -77.076598, "is_disabled": 0, "fusion_lat": 0.0, "lat": 38.88850733333334, "bike_id": "47437024cf205d8016f5e656545efb28", "fusion_lon": 0.0}, {"rental_uris": {"ios": "https://dc.lft.to/lastmile_qr_scan", "android": "https://dc.lft.to/lastmile_qr_scan"}, "type": "electric_scooter", "name": "78e4669b918a918c95c3fba0b475c0d9", "is_reserved": 0, "lon": -76.98316316666667, "is_disabled": 0, "fusion_lat": 0.0, "lat": 38.925893, "bike_id": "78e4669b918a918c95c3fba0b475c0d9", "fusion_lon": 0.0}, {"rental_uris": {"ios": "https://dc.lft.to/lastmile_qr_scan", "android": "https://dc.lft.to/lastmile_qr_scan"}, "type": "electric_scooter", "name": "2b3c58adb96ed6ea6a2c64fdf082903e", "is_reserved": 0, "lon": -77.03126616666667, "is_disabled": 0, "fusion_lat": 0.0, "lat": 38.92017883333333, "bike_id": "2b3c58adb96ed6ea6a2c64fdf082903e", "fusion_lon": 0.0}, {"rental_uris": {"ios": "https://dc.lft.to/lastmile_qr_scan", "android": "https://dc.lft.to/lastmile_qr_scan"}, "type": "electric_scooter", "name": "046a5e297b129e219c50e1a7d82fec5c", "is_reserved": 0, "lon": -77.0416315, "is_disabled": 0, "fusion_lat": 0.0, "lat": 38.892640666666665, "bike_id": "046a5e297b129e219c50e1a7d82fec5c", "fusion_lon": 0.0}, {"rental_uris": {"ios": "https://dc.lft.to/lastmile_qr_scan", "android": "https://dc.lft.to/lastmile_qr_scan"}, "type": "electric_scooter", "name": "564f6fe21a4a7daa4d84aa5409c920de", "is_reserved": 0, "lon": -77.00291166666666, "is_disabled": 0, "fusion_lat": 0.0, "lat": 38.90135766666667, "bike_id": "564f6fe21a4a7daa4d84aa5409c920de", "fusion_lon": 0.0}, {"rental_uris": {"ios": "https://dc.lft.to/lastmile_qr_scan", "android": "https://dc.lft.to/lastmile_qr_scan"}, "type": "electric_scooter", "name": "1df37fef3f9589efaf2753a4df8d4fb8", "is_reserved": 0, "lon": -77.049151, "is_disabled": 0, "fusion_lat": 0.0, "lat": 38.9104145, "bike_id": "1df37fef3f9589efaf2753a4df8d4fb8", "fusion_lon": 0.0}, {"rental_uris": {"ios": "https://dc.lft.to/lastmile_qr_scan", "android": "https://dc.lft.to/lastmile_qr_scan"}, "type": "electric_scooter", "name": "f3407245b124cb8426cf444be353ba8a", "is_reserved": 0, "lon": -77.02165666666667, "is_disabled": 0, "fusion_lat": 0.0, "lat": 38.89409, "bike_id": "f3407245b124cb8426cf444be353ba8a", "fusion_lon": 0.0}, {"rental_uris": {"ios": "https://dc.lft.to/lastmile_qr_scan", "android": "https://dc.lft.to/lastmile_qr_scan"}, "type": "electric_scooter", "name": "1e0434a63c99fb9ef5bf4c12a9dee8d2", "is_reserved": 0, "lon": -77.01803033333333, "is_disabled": 0, "fusion_lat": 0.0, "lat": 38.91987016666667, "bike_id": "1e0434a63c99fb9ef5bf4c12a9dee8d2", "fusion_lon": 0.0}, {"rental_uris": {"ios": "https://dc.lft.to/lastmile_qr_scan", "android": "https://dc.lft.to/lastmile_qr_scan"}, "type": "electric_scooter", "name": "fdbccc2f8728c4927175c99bf291e4ee", "is_reserved": 0, "lon": -77.0450345, "is_disabled": 0, "fusion_lat": 0.0, "lat": 38.89227066666667, "bike_id": "fdbccc2f8728c4927175c99bf291e4ee", "fusion_lon": 0.0}, {"rental_uris": {"ios": "https://dc.lft.to/lastmile_qr_scan", "android": "https://dc.lft.to/lastmile_qr_scan"}, "type": "electric_scooter", "name": "be5c6b804fe60fcb923f11a27f1c6700", "is_reserved": 0, "lon": -77.05455633333334, "is_disabled": 0, "fusion_lat": 0.0, "lat": 38.9290085, "bike_id": "be5c6b804fe60fcb923f11a27f1c6700", "fusion_lon": 0.0}, {"rental_uris": {"ios": "https://dc.lft.to/lastmile_qr_scan", "android": "https://dc.lft.to/lastmile_qr_scan"}, "type": "electric_scooter", "name": "640ff8ec48d539efd72207634ecb83d0", "is_reserved": 0, "lon": -77.063216, "is_disabled": 0, "fusion_lat": 0.0, "lat": 38.913397333333336, "bike_id": "640ff8ec48d539efd72207634ecb83d0", "fusion_lon": 0.0}, {"rental_uris": {"ios": "https://dc.lft.to/lastmile_qr_scan", "android": "https://dc.lft.to/lastmile_qr_scan"}, "type": "electric_bike", "name": "eba2d3777f8fc0b8e5dc3e134718cbbf", "is_reserved": 0, "lon": -77.11281883333334, "is_disabled": 0, "fusion_lat": 0.0, "lat": 38.8310595, "bike_id": "eba2d3777f8fc0b8e5dc3e134718cbbf", "fusion_lon": 0.0}, {"rental_uris": {"ios": "https://dc.lft.to/lastmile_qr_scan", "android": "https://dc.lft.to/lastmile_qr_scan"}, "type": "electric_scooter", "name": "e90a94426772e7f80bc0cfd06078bbed", "is_reserved": 0, "lon": -77.08779483333333, "is_disabled": 0, "fusion_lat": 0.0, "lat": 38.93558683333333, "bike_id": "e90a94426772e7f80bc0cfd06078bbed", "fusion_lon": 0.0}, {"rental_uris": {"ios": "https://dc.lft.to/lastmile_qr_scan", "android": "https://dc.lft.to/lastmile_qr_scan"}, "type": "electric_scooter", "name": "5dc6d58d62a90ad8a72032a9ec3b022c", "is_reserved": 0, "lon": -77.00826383333333, "is_disabled": 0, "fusion_lat": 0.0, "lat": 38.915624666666666, "bike_id": "5dc6d58d62a90ad8a72032a9ec3b022c", "fusion_lon": 0.0}, {"rental_uris": {"ios": "https://dc.lft.to/lastmile_qr_scan", "android": "https://dc.lft.to/lastmile_qr_scan"}, "type": "electric_scooter", "name": "b43d26b4647d2497f01c0343b5dbfaba", "is_reserved": 0, "lon": -77.02412466666667, "is_disabled": 0, "fusion_lat": 0.0, "lat": 38.920692833333334, "bike_id": "b43d26b4647d2497f01c0343b5dbfaba", "fusion_lon": 0.0}, {"rental_uris": {"ios": "https://dc.lft.to/lastmile_qr_scan", "android": "https://dc.lft.to/lastmile_qr_scan"}, "type": "electric_bike", "name": "965578ce0be82bf68ce6ab8af0ea7628", "is_reserved": 0, "lon": -77.02271866666666, "is_disabled": 0, "fusion_lat": 0.0, "lat": 38.923359, "bike_id": "965578ce0be82bf68ce6ab8af0ea7628", "fusion_lon": 0.0}, {"rental_uris": {"ios": "https://dc.lft.to/lastmile_qr_scan", "android": "https://dc.lft.to/lastmile_qr_scan"}, "type": "electric_scooter", "name": "97ee274dc19a720e0a196973c9321e30", "is_reserved": 0, "lon": -77.0166625, "is_disabled": 0, "fusion_lat": 0.0, "lat": 38.935214333333334, "bike_id": "97ee274dc19a720e0a196973c9321e30", "fusion_lon": 0.0}, {"rental_uris": {"ios": "https://dc.lft.to/lastmile_qr_scan", "android": "https://dc.lft.to/lastmile_qr_scan"}, "type": "electric_bike", "name": "95968a6e543a46d136044228ca2fe8e2", "is_reserved": 0, "lon": -76.96916833333333, "is_disabled": 0, "fusion_lat": 0.0, "lat": 38.84612033333333, "bike_id": "95968a6e543a46d136044228ca2fe8e2", "fusion_lon": 0.0}, {"rental_uris": {"ios": "https://dc.lft.to/lastmile_qr_scan", "android": "https://dc.lft.to/lastmile_qr_scan"}, "type": "electric_scooter", "name": "353fa73f1a5af0c96428d97cf5c2bc9c", "is_reserved": 0, "lon": -76.97935816666667, "is_disabled": 0, "fusion_lat": 0.0, "lat": 38.906633666666664, "bike_id": "353fa73f1a5af0c96428d97cf5c2bc9c", "fusion_lon": 0.0}, {"rental_uris": {"ios": "https://dc.lft.to/lastmile_qr_scan", "android": "https://dc.lft.to/lastmile_qr_scan"}, "type": "electric_scooter", "name": "c631754b80e8ce7c682525f45889ae31", "is_reserved": 0, "lon": -77.05148833333334, "is_disabled": 0, "fusion_lat": 0.0, "lat": 38.904801, "bike_id": "c631754b80e8ce7c682525f45889ae31", "fusion_lon": 0.0}, {"rental_uris": {"ios": "https://dc.lft.to/lastmile_qr_scan", "android": "https://dc.lft.to/lastmile_qr_scan"}, "type": "electric_scooter", "name": "e10918309e040ef799d24ded3b39921c", "is_reserved": 0, "lon": -76.94655466666667, "is_disabled": 0, "fusion_lat": 0.0, "lat": 38.89825166666667, "bike_id": "e10918309e040ef799d24ded3b39921c", "fusion_lon": 0.0}, {"rental_uris": {"ios": "https://dc.lft.to/lastmile_qr_scan", "android": "https://dc.lft.to/lastmile_qr_scan"}, "type": "electric_scooter", "name": "4010a58dee147512f0ed425b83bc33b3", "is_reserved": 0, "lon": -77.0351875, "is_disabled": 0, "fusion_lat": 0.0, "lat": 38.90960916666667, "bike_id": "4010a58dee147512f0ed425b83bc33b3", "fusion_lon": 0.0}, {"rental_uris": {"ios": "https://dc.lft.to/lastmile_qr_scan", "android": "https://dc.lft.to/lastmile_qr_scan"}, "type": "electric_scooter", "name": "a638cf53e664d3da8a39fd4a3506c593", "is_reserved": 0, "lon": -77.00918733333333, "is_disabled": 0, "fusion_lat": 0.0, "lat": 38.898874666666664, "bike_id": "a638cf53e664d3da8a39fd4a3506c593", "fusion_lon": 0.0}, {"rental_uris": {"ios": "https://dc.lft.to/lastmile_qr_scan", "android": "https://dc.lft.to/lastmile_qr_scan"}, "type": "electric_scooter", "name": "f50109daeb453c456cb8c13efe7e59bb", "is_reserved": 0, "lon": -77.056938, "is_disabled": 0, "fusion_lat": 0.0, "lat": 38.90484033333333, "bike_id": "f50109daeb453c456cb8c13efe7e59bb", "fusion_lon": 0.0}, {"rental_uris": {"ios": "https://dc.lft.to/lastmile_qr_scan", "android": "https://dc.lft.to/lastmile_qr_scan"}, "type": "electric_scooter", "name": "ee7b3280f446523c7554d7a7035e2d55", "is_reserved": 0, "lon": -77.05792183333334, "is_disabled": 0, "fusion_lat": 0.0, "lat": 38.905128500000004, "bike_id": "ee7b3280f446523c7554d7a7035e2d55", "fusion_lon": 0.0}, {"rental_uris": {"ios": "https://dc.lft.to/lastmile_qr_scan", "android": "https://dc.lft.to/lastmile_qr_scan"}, "type": "electric_scooter", "name": "a277a1f427b53a0e57f453612356db6d", "is_reserved": 0, "lon": -77.00198416666667, "is_disabled": 0, "fusion_lat": 0.0, "lat": 38.8932995, "bike_id": "a277a1f427b53a0e57f453612356db6d", "fusion_lon": 0.0}, {"rental_uris": {"ios": "https://dc.lft.to/lastmile_qr_scan", "android": "https://dc.lft.to/lastmile_qr_scan"}, "type": "electric_scooter", "name": "d501b76dd6c55ece6b6282a538a6f4ac", "is_reserved": 0, "lon": -76.99598483333334, "is_disabled": 0, "fusion_lat": 0.0, "lat": 38.90026266666667, "bike_id": "d501b76dd6c55ece6b6282a538a6f4ac", "fusion_lon": 0.0}, {"rental_uris": {"ios": "https://dc.lft.to/lastmile_qr_scan", "android": "https://dc.lft.to/lastmile_qr_scan"}, "type": "electric_scooter", "name": "319f5b058d84281993a07001de939b82", "is_reserved": 0, "lon": -77.02311816666666, "is_disabled": 0, "fusion_lat": 0.0, "lat": 38.90957266666667, "bike_id": "319f5b058d84281993a07001de939b82", "fusion_lon": 0.0}, {"rental_uris": {"ios": "https://dc.lft.to/lastmile_qr_scan", "android": "https://dc.lft.to/lastmile_qr_scan"}, "type": "electric_scooter", "name": "32d785a688b9696cf98d2089af99d3d0", "is_reserved": 0, "lon": -77.03181433333333, "is_disabled": 0, "fusion_lat": 0.0, "lat": 38.916069666666665, "bike_id": "32d785a688b9696cf98d2089af99d3d0", "fusion_lon": 0.0}, {"rental_uris": {"ios": "https://dc.lft.to/lastmile_qr_scan", "android": "https://dc.lft.to/lastmile_qr_scan"}, "type": "electric_scooter", "name": "ed1a1ae1abe64c6df6b9ec00a4689874", "is_reserved": 0, "lon": -77.061111, "is_disabled": 0, "fusion_lat": 0.0, "lat": 38.912893333333336, "bike_id": "ed1a1ae1abe64c6df6b9ec00a4689874", "fusion_lon": 0.0}, {"rental_uris": {"ios": "https://dc.lft.to/lastmile_qr_scan", "android": "https://dc.lft.to/lastmile_qr_scan"}, "type": "electric_scooter", "name": "d03c4fef5156302afe9a8a27ea9632df", "is_reserved": 0, "lon": -76.99796133333334, "is_disabled": 0, "fusion_lat": 0.0, "lat": 38.90855533333333, "bike_id": "d03c4fef5156302afe9a8a27ea9632df", "fusion_lon": 0.0}, {"rental_uris": {"ios": "https://dc.lft.to/lastmile_qr_scan", "android": "https://dc.lft.to/lastmile_qr_scan"}, "type": "electric_scooter", "name": "887a81ab6b47c9a0e3641d6276b6e393", "is_reserved": 0, "lon": -77.040311, "is_disabled": 0, "fusion_lat": 0.0, "lat": 38.92454766666667, "bike_id": "887a81ab6b47c9a0e3641d6276b6e393", "fusion_lon": 0.0}, {"rental_uris": {"ios": "https://dc.lft.to/lastmile_qr_scan", "android": "https://dc.lft.to/lastmile_qr_scan"}, "type": "electric_scooter", "name": "f3a7596826080f614b7a59421eea7739", "is_reserved": 0, "lon": -77.02973616666667, "is_disabled": 0, "fusion_lat": 0.0, "lat": 38.92412566666667, "bike_id": "f3a7596826080f614b7a59421eea7739", "fusion_lon": 0.0}, {"rental_uris": {"ios": "https://dc.lft.to/lastmile_qr_scan", "android": "https://dc.lft.to/lastmile_qr_scan"}, "type": "electric_scooter", "name": "3a492b90a0153559cc5579fcf39a5b12", "is_reserved": 0, "lon": -77.0732745, "is_disabled": 0, "fusion_lat": 0.0, "lat": 38.913605, "bike_id": "3a492b90a0153559cc5579fcf39a5b12", "fusion_lon": 0.0}, {"rental_uris": {"ios": "https://dc.lft.to/lastmile_qr_scan", "android": "https://dc.lft.to/lastmile_qr_scan"}, "type": "electric_scooter", "name": "7a035449fc768ed8e4de9d5eda7e43ad", "is_reserved": 0, "lon": -76.92892566666667, "is_disabled": 0, "fusion_lat": 0.0, "lat": 38.8794875, "bike_id": "7a035449fc768ed8e4de9d5eda7e43ad", "fusion_lon": 0.0}, {"rental_uris": {"ios": "https://dc.lft.to/lastmile_qr_scan", "android": "https://dc.lft.to/lastmile_qr_scan"}, "type": "electric_scooter", "name": "300fa6f5007af7afaaad4ca0ad8dc13e", "is_reserved": 0, "lon": -77.00983083333334, "is_disabled": 0, "fusion_lat": 0.0, "lat": 38.90560166666667, "bike_id": "300fa6f5007af7afaaad4ca0ad8dc13e", "fusion_lon": 0.0}, {"rental_uris": {"ios": "https://dc.lft.to/lastmile_qr_scan", "android": "https://dc.lft.to/lastmile_qr_scan"}, "type": "electric_scooter", "name": "9595a98419f6fd000cbf1446b6ad1418", "is_reserved": 0, "lon": -77.005593, "is_disabled": 0, "fusion_lat": 0.0, "lat": 38.8747095, "bike_id": "9595a98419f6fd000cbf1446b6ad1418", "fusion_lon": 0.0}, {"rental_uris": {"ios": "https://dc.lft.to/lastmile_qr_scan", "android": "https://dc.lft.to/lastmile_qr_scan"}, "type": "electric_scooter", "name": "a757a6dafa3743d94e6fb7351265fa8e", "is_reserved": 0, "lon": -77.03265383333333, "is_disabled": 0, "fusion_lat": 0.0, "lat": 38.904625, "bike_id": "a757a6dafa3743d94e6fb7351265fa8e", "fusion_lon": 0.0}, {"rental_uris": {"ios": "https://dc.lft.to/lastmile_qr_scan", "android": "https://dc.lft.to/lastmile_qr_scan"}, "type": "electric_scooter", "name": "2b9916e1e7bdb68759b65ad459252e6e", "is_reserved": 0, "lon": -77.03520433333334, "is_disabled": 0, "fusion_lat": 0.0, "lat": 38.92238066666667, "bike_id": "2b9916e1e7bdb68759b65ad459252e6e", "fusion_lon": 0.0}, {"rental_uris": {"ios": "https://dc.lft.to/lastmile_qr_scan", "android": "https://dc.lft.to/lastmile_qr_scan"}, "type": "electric_bike", "name": "7d625f9b1b1b671c2ef361a6f3796da6", "is_reserved": 0, "lon": -76.91715916666666, "is_disabled": 0, "fusion_lat": 0.0, "lat": 38.88033983333333, "bike_id": "7d625f9b1b1b671c2ef361a6f3796da6", "fusion_lon": 0.0}, {"rental_uris": {"ios": "https://dc.lft.to/lastmile_qr_scan", "android": "https://dc.lft.to/lastmile_qr_scan"}, "type": "electric_scooter", "name": "7cc43c0e029490d0d042197e89f157f2", "is_reserved": 0, "lon": -77.04123483333333, "is_disabled": 0, "fusion_lat": 0.0, "lat": 38.933639, "bike_id": "7cc43c0e029490d0d042197e89f157f2", "fusion_lon": 0.0}, {"rental_uris": {"ios": "https://dc.lft.to/lastmile_qr_scan", "android": "https://dc.lft.to/lastmile_qr_scan"}, "type": "electric_scooter", "name": "79a914ea3e6ea87920a5b02707bdafc2", "is_reserved": 0, "lon": -77.0271185, "is_disabled": 0, "fusion_lat": 0.0, "lat": 38.91829716666667, "bike_id": "79a914ea3e6ea87920a5b02707bdafc2", "fusion_lon": 0.0}, {"rental_uris": {"ios": "https://dc.lft.to/lastmile_qr_scan", "android": "https://dc.lft.to/lastmile_qr_scan"}, "type": "electric_scooter", "name": "94bf62dcba6b3a241da66fe3affba9a1", "is_reserved": 0, "lon": -77.03855283333333, "is_disabled": 0, "fusion_lat": 0.0, "lat": 38.93204383333333, "bike_id": "94bf62dcba6b3a241da66fe3affba9a1", "fusion_lon": 0.0}, {"rental_uris": {"ios": "https://dc.lft.to/lastmile_qr_scan", "android": "https://dc.lft.to/lastmile_qr_scan"}, "type": "electric_scooter", "name": "9ed382113fdd90311bfb5e3c4fb75438", "is_reserved": 0, "lon": -77.03648783333334, "is_disabled": 0, "fusion_lat": 0.0, "lat": 38.916203833333334, "bike_id": "9ed382113fdd90311bfb5e3c4fb75438", "fusion_lon": 0.0}, {"rental_uris": {"ios": "https://dc.lft.to/lastmile_qr_scan", "android": "https://dc.lft.to/lastmile_qr_scan"}, "type": "electric_scooter", "name": "0ac38b56d7044a603c5618626d0f9a49", "is_reserved": 0, "lon": -76.99504583333334, "is_disabled": 0, "fusion_lat": 0.0, "lat": 38.88307233333333, "bike_id": "0ac38b56d7044a603c5618626d0f9a49", "fusion_lon": 0.0}, {"rental_uris": {"ios": "https://dc.lft.to/lastmile_qr_scan", "android": "https://dc.lft.to/lastmile_qr_scan"}, "type": "electric_scooter", "name": "32f44cd489e45c5bf5acf6e0b98a0ba5", "is_reserved": 0, "lon": -77.03862866666667, "is_disabled": 0, "fusion_lat": 0.0, "lat": 38.903740166666665, "bike_id": "32f44cd489e45c5bf5acf6e0b98a0ba5", "fusion_lon": 0.0}, {"rental_uris": {"ios": "https://dc.lft.to/lastmile_qr_scan", "android": "https://dc.lft.to/lastmile_qr_scan"}, "type": "electric_scooter", "name": "3a94a62931cc464179dfa120a975df6f", "is_reserved": 0, "lon": -77.05326033333333, "is_disabled": 0, "fusion_lat": 0.0, "lat": 38.906414, "bike_id": "3a94a62931cc464179dfa120a975df6f", "fusion_lon": 0.0}, {"rental_uris": {"ios": "https://dc.lft.to/lastmile_qr_scan", "android": "https://dc.lft.to/lastmile_qr_scan"}, "type": "electric_scooter", "name": "366710f8172849f3bfa6a948bcf3fbbf", "is_reserved": 0, "lon": -77.02481416666667, "is_disabled": 0, "fusion_lat": 0.0, "lat": 38.91411883333333, "bike_id": "366710f8172849f3bfa6a948bcf3fbbf", "fusion_lon": 0.0}, {"rental_uris": {"ios": "https://dc.lft.to/lastmile_qr_scan", "android": "https://dc.lft.to/lastmile_qr_scan"}, "type": "electric_bike", "name": "730cee4c91bd7fb5765dfa6c4d5d05f4", "is_reserved": 0, "lon": -77.023858, "is_disabled": 0, "fusion_lat": 0.0, "lat": 38.91601033333333, "bike_id": "730cee4c91bd7fb5765dfa6c4d5d05f4", "fusion_lon": 0.0}, {"rental_uris": {"ios": "https://dc.lft.to/lastmile_qr_scan", "android": "https://dc.lft.to/lastmile_qr_scan"}, "type": "electric_scooter", "name": "ebfbaa33736034fdde2d3b24bceeb675", "is_reserved": 0, "lon": -77.0371495, "is_disabled": 0, "fusion_lat": 0.0, "lat": 38.9002555, "bike_id": "ebfbaa33736034fdde2d3b24bceeb675", "fusion_lon": 0.0}, {"rental_uris": {"ios": "https://dc.lft.to/lastmile_qr_scan", "android": "https://dc.lft.to/lastmile_qr_scan"}, "type": "electric_scooter", "name": "78a76b0eb98668d7874f9d715422ae95", "is_reserved": 0, "lon": -77.05222216666667, "is_disabled": 0, "fusion_lat": 0.0, "lat": 38.909778833333334, "bike_id": "78a76b0eb98668d7874f9d715422ae95", "fusion_lon": 0.0}, {"rental_uris": {"ios": "https://dc.lft.to/lastmile_qr_scan", "android": "https://dc.lft.to/lastmile_qr_scan"}, "type": "electric_scooter", "name": "639fdcc77ecdd5bd1bdaa313f2abbed6", "is_reserved": 0, "lon": -76.98375166666666, "is_disabled": 0, "fusion_lat": 0.0, "lat": 38.914789999999996, "bike_id": "639fdcc77ecdd5bd1bdaa313f2abbed6", "fusion_lon": 0.0}, {"rental_uris": {"ios": "https://dc.lft.to/lastmile_qr_scan", "android": "https://dc.lft.to/lastmile_qr_scan"}, "type": "electric_scooter", "name": "b6e256dd212b0a3188f74385b26a3c22", "is_reserved": 0, "lon": -77.02957533333333, "is_disabled": 0, "fusion_lat": 0.0, "lat": 38.916998666666665, "bike_id": "b6e256dd212b0a3188f74385b26a3c22", "fusion_lon": 0.0}, {"rental_uris": {"ios": "https://dc.lft.to/lastmile_qr_scan", "android": "https://dc.lft.to/lastmile_qr_scan"}, "type": "electric_scooter", "name": "32987a4c7bac74f60cf5672c7ee85150", "is_reserved": 0, "lon": -77.02549, "is_disabled": 0, "fusion_lat": 0.0, "lat": 38.951782333333334, "bike_id": "32987a4c7bac74f60cf5672c7ee85150", "fusion_lon": 0.0}, {"rental_uris": {"ios": "https://dc.lft.to/lastmile_qr_scan", "android": "https://dc.lft.to/lastmile_qr_scan"}, "type": "electric_scooter", "name": "e74be57147b4b02c5759bed9132e4767", "is_reserved": 0, "lon": -77.04155583333333, "is_disabled": 0, "fusion_lat": 0.0, "lat": 38.9056855, "bike_id": "e74be57147b4b02c5759bed9132e4767", "fusion_lon": 0.0}, {"rental_uris": {"ios": "https://dc.lft.to/lastmile_qr_scan", "android": "https://dc.lft.to/lastmile_qr_scan"}, "type": "electric_scooter", "name": "00feb3c91608ca429f206f5c9e966e4e", "is_reserved": 0, "lon": -76.99162116666666, "is_disabled": 0, "fusion_lat": 0.0, "lat": 38.89018883333333, "bike_id": "00feb3c91608ca429f206f5c9e966e4e", "fusion_lon": 0.0}, {"rental_uris": {"ios": "https://dc.lft.to/lastmile_qr_scan", "android": "https://dc.lft.to/lastmile_qr_scan"}, "type": "electric_scooter", "name": "25ab77f669c777ae7f7e19ff049a3bed", "is_reserved": 0, "lon": -77.02713033333333, "is_disabled": 0, "fusion_lat": 0.0, "lat": 38.91832183333333, "bike_id": "25ab77f669c777ae7f7e19ff049a3bed", "fusion_lon": 0.0}, {"rental_uris": {"ios": "https://dc.lft.to/lastmile_qr_scan", "android": "https://dc.lft.to/lastmile_qr_scan"}, "type": "electric_scooter", "name": "97be1c28bebaa569cc9a59be8db64512", "is_reserved": 0, "lon": -77.04048116666667, "is_disabled": 0, "fusion_lat": 0.0, "lat": 38.9301735, "bike_id": "97be1c28bebaa569cc9a59be8db64512", "fusion_lon": 0.0}, {"rental_uris": {"ios": "https://dc.lft.to/lastmile_qr_scan", "android": "https://dc.lft.to/lastmile_qr_scan"}, "type": "electric_scooter", "name": "60de638c2345cff14a06cf543d18922b", "is_reserved": 0, "lon": -77.0431345, "is_disabled": 0, "fusion_lat": 0.0, "lat": 38.934228166666664, "bike_id": "60de638c2345cff14a06cf543d18922b", "fusion_lon": 0.0}, {"rental_uris": {"ios": "https://dc.lft.to/lastmile_qr_scan", "android": "https://dc.lft.to/lastmile_qr_scan"}, "type": "electric_scooter", "name": "bd06d96743e67b2a8a393ae29e0a6b38", "is_reserved": 0, "lon": -77.05995683333333, "is_disabled": 0, "fusion_lat": 0.0, "lat": 38.90523616666667, "bike_id": "bd06d96743e67b2a8a393ae29e0a6b38", "fusion_lon": 0.0}, {"rental_uris": {"ios": "https://dc.lft.to/lastmile_qr_scan", "android": "https://dc.lft.to/lastmile_qr_scan"}, "type": "electric_scooter", "name": "9a28ffc201f64f2e67bf4d38f89fdbac", "is_reserved": 0, "lon": -77.03450133333334, "is_disabled": 0, "fusion_lat": 0.0, "lat": 38.91199666666667, "bike_id": "9a28ffc201f64f2e67bf4d38f89fdbac", "fusion_lon": 0.0}, {"rental_uris": {"ios": "https://dc.lft.to/lastmile_qr_scan", "android": "https://dc.lft.to/lastmile_qr_scan"}, "type": "electric_scooter", "name": "ab3dbfa00a504be57318287e18217f20", "is_reserved": 0, "lon": -77.0441695, "is_disabled": 0, "fusion_lat": 0.0, "lat": 38.911340333333335, "bike_id": "ab3dbfa00a504be57318287e18217f20", "fusion_lon": 0.0}, {"rental_uris": {"ios": "https://dc.lft.to/lastmile_qr_scan", "android": "https://dc.lft.to/lastmile_qr_scan"}, "type": "electric_scooter", "name": "38358ca48a25fb4916e940fd327bd42b", "is_reserved": 0, "lon": -77.0240665, "is_disabled": 0, "fusion_lat": 0.0, "lat": 38.945080833333336, "bike_id": "38358ca48a25fb4916e940fd327bd42b", "fusion_lon": 0.0}, {"rental_uris": {"ios": "https://dc.lft.to/lastmile_qr_scan", "android": "https://dc.lft.to/lastmile_qr_scan"}, "type": "electric_bike", "name": "142f6e4c3b91bb723a7ca1a116756262", "is_reserved": 0, "lon": -76.98058116666667, "is_disabled": 0, "fusion_lat": 0.0, "lat": 38.9725405, "bike_id": "142f6e4c3b91bb723a7ca1a116756262", "fusion_lon": 0.0}, {"rental_uris": {"ios": "https://dc.lft.to/lastmile_qr_scan", "android": "https://dc.lft.to/lastmile_qr_scan"}, "type": "electric_scooter", "name": "a2cd29f31cddc06f312a83ecea65b5d7", "is_reserved": 0, "lon": -77.03248633333334, "is_disabled": 0, "fusion_lat": 0.0, "lat": 38.928854, "bike_id": "a2cd29f31cddc06f312a83ecea65b5d7", "fusion_lon": 0.0}, {"rental_uris": {"ios": "https://dc.lft.to/lastmile_qr_scan", "android": "https://dc.lft.to/lastmile_qr_scan"}, "type": "electric_scooter", "name": "b752cbc23b97e4052de9d7ad3f7657cf", "is_reserved": 0, "lon": -77.02601066666666, "is_disabled": 0, "fusion_lat": 0.0, "lat": 38.9049725, "bike_id": "b752cbc23b97e4052de9d7ad3f7657cf", "fusion_lon": 0.0}, {"rental_uris": {"ios": "https://dc.lft.to/lastmile_qr_scan", "android": "https://dc.lft.to/lastmile_qr_scan"}, "type": "electric_scooter", "name": "763db561bc81cfc155f35c151449e9d0", "is_reserved": 0, "lon": -77.039559, "is_disabled": 0, "fusion_lat": 0.0, "lat": 38.901358, "bike_id": "763db561bc81cfc155f35c151449e9d0", "fusion_lon": 0.0}, {"rental_uris": {"ios": "https://dc.lft.to/lastmile_qr_scan", "android": "https://dc.lft.to/lastmile_qr_scan"}, "type": "electric_bike", "name": "b0294d6e6b55232a4e8ce6399efc3a5b", "is_reserved": 0, "lon": -77.003834, "is_disabled": 0, "fusion_lat": 0.0, "lat": 38.92111883333333, "bike_id": "b0294d6e6b55232a4e8ce6399efc3a5b", "fusion_lon": 0.0}, {"rental_uris": {"ios": "https://dc.lft.to/lastmile_qr_scan", "android": "https://dc.lft.to/lastmile_qr_scan"}, "type": "electric_scooter", "name": "221480c4c5a81fdefdb95fbaa09d734f", "is_reserved": 0, "lon": -77.03631416666667, "is_disabled": 0, "fusion_lat": 0.0, "lat": 38.9287535, "bike_id": "221480c4c5a81fdefdb95fbaa09d734f", "fusion_lon": 0.0}, {"rental_uris": {"ios": "https://dc.lft.to/lastmile_qr_scan", "android": "https://dc.lft.to/lastmile_qr_scan"}, "type": "electric_scooter", "name": "de1f3076abb18fac8560052a535ff049", "is_reserved": 0, "lon": -77.007433, "is_disabled": 0, "fusion_lat": 0.0, "lat": 38.903617833333335, "bike_id": "de1f3076abb18fac8560052a535ff049", "fusion_lon": 0.0}, {"rental_uris": {"ios": "https://dc.lft.to/lastmile_qr_scan", "android": "https://dc.lft.to/lastmile_qr_scan"}, "type": "electric_scooter", "name": "e72a258b2ebe836450d5bde798d8e17a", "is_reserved": 0, "lon": -77.05129483333333, "is_disabled": 0, "fusion_lat": 0.0, "lat": 38.92366616666666, "bike_id": "e72a258b2ebe836450d5bde798d8e17a", "fusion_lon": 0.0}, {"rental_uris": {"ios": "https://dc.lft.to/lastmile_qr_scan", "android": "https://dc.lft.to/lastmile_qr_scan"}, "type": "electric_scooter", "name": "4e3f6b25a2eec3b773591940098d6c60", "is_reserved": 0, "lon": -77.019508, "is_disabled": 0, "fusion_lat": 0.0, "lat": 38.9226125, "bike_id": "4e3f6b25a2eec3b773591940098d6c60", "fusion_lon": 0.0}, {"rental_uris": {"ios": "https://dc.lft.to/lastmile_qr_scan", "android": "https://dc.lft.to/lastmile_qr_scan"}, "type": "electric_scooter", "name": "5b102301b7825eb601412906d7d82861", "is_reserved": 0, "lon": -77.02756566666666, "is_disabled": 0, "fusion_lat": 0.0, "lat": 38.91345466666667, "bike_id": "5b102301b7825eb601412906d7d82861", "fusion_lon": 0.0}, {"rental_uris": {"ios": "https://dc.lft.to/lastmile_qr_scan", "android": "https://dc.lft.to/lastmile_qr_scan"}, "type": "electric_scooter", "name": "dd714717bbe57e6f6b6d34d65bf6763d", "is_reserved": 0, "lon": -77.00608816666667, "is_disabled": 0, "fusion_lat": 0.0, "lat": 38.87181916666667, "bike_id": "dd714717bbe57e6f6b6d34d65bf6763d", "fusion_lon": 0.0}, {"rental_uris": {"ios": "https://dc.lft.to/lastmile_qr_scan", "android": "https://dc.lft.to/lastmile_qr_scan"}, "type": "electric_scooter", "name": "5d2d574b9a6a95a858f8cc898ed38b56", "is_reserved": 0, "lon": -77.04470533333334, "is_disabled": 0, "fusion_lat": 0.0, "lat": 38.92289483333333, "bike_id": "5d2d574b9a6a95a858f8cc898ed38b56", "fusion_lon": 0.0}, {"rental_uris": {"ios": "https://dc.lft.to/lastmile_qr_scan", "android": "https://dc.lft.to/lastmile_qr_scan"}, "type": "electric_bike", "name": "9cadb9fd5790b0443c48c575412e16c2", "is_reserved": 0, "lon": -76.99906733333333, "is_disabled": 0, "fusion_lat": 0.0, "lat": 38.994702, "bike_id": "9cadb9fd5790b0443c48c575412e16c2", "fusion_lon": 0.0}, {"rental_uris": {"ios": "https://dc.lft.to/lastmile_qr_scan", "android": "https://dc.lft.to/lastmile_qr_scan"}, "type": "electric_scooter", "name": "26f0a9a4f5084055753e5fdca3962b9a", "is_reserved": 0, "lon": -77.01423566666666, "is_disabled": 0, "fusion_lat": 0.0, "lat": 38.9132805, "bike_id": "26f0a9a4f5084055753e5fdca3962b9a", "fusion_lon": 0.0}, {"rental_uris": {"ios": "https://dc.lft.to/lastmile_qr_scan", "android": "https://dc.lft.to/lastmile_qr_scan"}, "type": "electric_scooter", "name": "c3d6b77a5f0dd340c97ced2db16439f2", "is_reserved": 0, "lon": -77.066033, "is_disabled": 0, "fusion_lat": 0.0, "lat": 38.911123833333335, "bike_id": "c3d6b77a5f0dd340c97ced2db16439f2", "fusion_lon": 0.0}, {"rental_uris": {"ios": "https://dc.lft.to/lastmile_qr_scan", "android": "https://dc.lft.to/lastmile_qr_scan"}, "type": "electric_scooter", "name": "c8e953884a3b501476087495649e7131", "is_reserved": 0, "lon": -77.029181, "is_disabled": 0, "fusion_lat": 0.0, "lat": 38.944434, "bike_id": "c8e953884a3b501476087495649e7131", "fusion_lon": 0.0}, {"rental_uris": {"ios": "https://dc.lft.to/lastmile_qr_scan", "android": "https://dc.lft.to/lastmile_qr_scan"}, "type": "electric_bike", "name": "b82a09e5472e53b55a1cbb525aa9b8d9", "is_reserved": 0, "lon": -77.05517333333333, "is_disabled": 0, "fusion_lat": 0.0, "lat": 38.944100166666665, "bike_id": "b82a09e5472e53b55a1cbb525aa9b8d9", "fusion_lon": 0.0}, {"rental_uris": {"ios": "https://dc.lft.to/lastmile_qr_scan", "android": "https://dc.lft.to/lastmile_qr_scan"}, "type": "electric_scooter", "name": "ed23c23d0693eb9d0c87d31a959f9cdd", "is_reserved": 0, "lon": -77.04176516666666, "is_disabled": 0, "fusion_lat": 0.0, "lat": 38.91096566666667, "bike_id": "ed23c23d0693eb9d0c87d31a959f9cdd", "fusion_lon": 0.0}, {"rental_uris": {"ios": "https://dc.lft.to/lastmile_qr_scan", "android": "https://dc.lft.to/lastmile_qr_scan"}, "type": "electric_scooter", "name": "38fb0bd12779a1b357fc547d838f1dc9", "is_reserved": 0, "lon": -77.03177666666667, "is_disabled": 0, "fusion_lat": 0.0, "lat": 38.91682466666666, "bike_id": "38fb0bd12779a1b357fc547d838f1dc9", "fusion_lon": 0.0}, {"rental_uris": {"ios": "https://dc.lft.to/lastmile_qr_scan", "android": "https://dc.lft.to/lastmile_qr_scan"}, "type": "electric_scooter", "name": "68ef95e1a14dca710ee0f14be7edc570", "is_reserved": 0, "lon": -77.04669983333334, "is_disabled": 0, "fusion_lat": 0.0, "lat": 38.892838833333336, "bike_id": "68ef95e1a14dca710ee0f14be7edc570", "fusion_lon": 0.0}, {"rental_uris": {"ios": "https://dc.lft.to/lastmile_qr_scan", "android": "https://dc.lft.to/lastmile_qr_scan"}, "type": "electric_scooter", "name": "e65a4de24641a4c81498f4c06e74e881", "is_reserved": 0, "lon": -77.05124766666667, "is_disabled": 0, "fusion_lat": 0.0, "lat": 38.92530033333333, "bike_id": "e65a4de24641a4c81498f4c06e74e881", "fusion_lon": 0.0}, {"rental_uris": {"ios": "https://dc.lft.to/lastmile_qr_scan", "android": "https://dc.lft.to/lastmile_qr_scan"}, "type": "electric_scooter", "name": "ddbc8683749235ee62d1444f00984514", "is_reserved": 0, "lon": -77.04484983333333, "is_disabled": 0, "fusion_lat": 0.0, "lat": 38.900707, "bike_id": "ddbc8683749235ee62d1444f00984514", "fusion_lon": 0.0}, {"rental_uris": {"ios": "https://dc.lft.to/lastmile_qr_scan", "android": "https://dc.lft.to/lastmile_qr_scan"}, "type": "electric_scooter", "name": "2924e3d97e0266bf8b133bc770d388a2", "is_reserved": 0, "lon": -77.01524416666666, "is_disabled": 0, "fusion_lat": 0.0, "lat": 38.9021845, "bike_id": "2924e3d97e0266bf8b133bc770d388a2", "fusion_lon": 0.0}, {"rental_uris": {"ios": "https://dc.lft.to/lastmile_qr_scan", "android": "https://dc.lft.to/lastmile_qr_scan"}, "type": "electric_scooter", "name": "df549cef665b053553e0c257726d5513", "is_reserved": 0, "lon": -76.98888383333333, "is_disabled": 0, "fusion_lat": 0.0, "lat": 38.89951633333333, "bike_id": "df549cef665b053553e0c257726d5513", "fusion_lon": 0.0}, {"rental_uris": {"ios": "https://dc.lft.to/lastmile_qr_scan", "android": "https://dc.lft.to/lastmile_qr_scan"}, "type": "electric_scooter", "name": "b1118a90fbc559b2fbeecd4feb8104d2", "is_reserved": 0, "lon": -77.03101383333333, "is_disabled": 0, "fusion_lat": 0.0, "lat": 38.91861633333333, "bike_id": "b1118a90fbc559b2fbeecd4feb8104d2", "fusion_lon": 0.0}, {"rental_uris": {"ios": "https://dc.lft.to/lastmile_qr_scan", "android": "https://dc.lft.to/lastmile_qr_scan"}, "type": "electric_scooter", "name": "4705875b32e86e6ee083165d331a9064", "is_reserved": 0, "lon": -77.04168066666666, "is_disabled": 0, "fusion_lat": 0.0, "lat": 38.9015235, "bike_id": "4705875b32e86e6ee083165d331a9064", "fusion_lon": 0.0}, {"rental_uris": {"ios": "https://dc.lft.to/lastmile_qr_scan", "android": "https://dc.lft.to/lastmile_qr_scan"}, "type": "electric_scooter", "name": "89e3d8fab67fb145e405dd6d1b3b4235", "is_reserved": 0, "lon": -77.031819, "is_disabled": 0, "fusion_lat": 0.0, "lat": 38.9248515, "bike_id": "89e3d8fab67fb145e405dd6d1b3b4235", "fusion_lon": 0.0}, {"rental_uris": {"ios": "https://dc.lft.to/lastmile_qr_scan", "android": "https://dc.lft.to/lastmile_qr_scan"}, "type": "electric_scooter", "name": "17f9f9984050ab3621b68365292df2e3", "is_reserved": 0, "lon": -77.04887, "is_disabled": 0, "fusion_lat": 0.0, "lat": 38.90090166666667, "bike_id": "17f9f9984050ab3621b68365292df2e3", "fusion_lon": 0.0}, {"rental_uris": {"ios": "https://dc.lft.to/lastmile_qr_scan", "android": "https://dc.lft.to/lastmile_qr_scan"}, "type": "electric_scooter", "name": "21b5c770bc6f043428fd963bcb941620", "is_reserved": 0, "lon": -77.0439405, "is_disabled": 0, "fusion_lat": 0.0, "lat": 38.910972666666666, "bike_id": "21b5c770bc6f043428fd963bcb941620", "fusion_lon": 0.0}, {"rental_uris": {"ios": "https://dc.lft.to/lastmile_qr_scan", "android": "https://dc.lft.to/lastmile_qr_scan"}, "type": "electric_scooter", "name": "46af0bf863a7f6a067499a974c2180d4", "is_reserved": 0, "lon": -76.9909985, "is_disabled": 0, "fusion_lat": 0.0, "lat": 38.857299, "bike_id": "46af0bf863a7f6a067499a974c2180d4", "fusion_lon": 0.0}, {"rental_uris": {"ios": "https://dc.lft.to/lastmile_qr_scan", "android": "https://dc.lft.to/lastmile_qr_scan"}, "type": "electric_scooter", "name": "c275515494befc93cc5886b41ab9b6c6", "is_reserved": 0, "lon": -77.02399516666667, "is_disabled": 0, "fusion_lat": 0.0, "lat": 38.93820216666667, "bike_id": "c275515494befc93cc5886b41ab9b6c6", "fusion_lon": 0.0}, {"rental_uris": {"ios": "https://dc.lft.to/lastmile_qr_scan", "android": "https://dc.lft.to/lastmile_qr_scan"}, "type": "electric_scooter", "name": "62f271251766418628471a5024884e5b", "is_reserved": 0, "lon": -77.0076625, "is_disabled": 0, "fusion_lat": 0.0, "lat": 38.897497666666666, "bike_id": "62f271251766418628471a5024884e5b", "fusion_lon": 0.0}, {"rental_uris": {"ios": "https://dc.lft.to/lastmile_qr_scan", "android": "https://dc.lft.to/lastmile_qr_scan"}, "type": "electric_scooter", "name": "5b0161787c9930c7d8ff52307434adcd", "is_reserved": 0, "lon": -76.98356483333333, "is_disabled": 0, "fusion_lat": 0.0, "lat": 38.88739983333333, "bike_id": "5b0161787c9930c7d8ff52307434adcd", "fusion_lon": 0.0}, {"rental_uris": {"ios": "https://dc.lft.to/lastmile_qr_scan", "android": "https://dc.lft.to/lastmile_qr_scan"}, "type": "electric_scooter", "name": "a61ee7d54364c1318be078583c946da6", "is_reserved": 0, "lon": -77.01800283333333, "is_disabled": 0, "fusion_lat": 0.0, "lat": 38.92146233333333, "bike_id": "a61ee7d54364c1318be078583c946da6", "fusion_lon": 0.0}, {"rental_uris": {"ios": "https://dc.lft.to/lastmile_qr_scan", "android": "https://dc.lft.to/lastmile_qr_scan"}, "type": "electric_scooter", "name": "f044eeda63a7410b7efbea56fcbb24cd", "is_reserved": 0, "lon": -77.02570683333333, "is_disabled": 0, "fusion_lat": 0.0, "lat": 38.88086083333334, "bike_id": "f044eeda63a7410b7efbea56fcbb24cd", "fusion_lon": 0.0}, {"rental_uris": {"ios": "https://dc.lft.to/lastmile_qr_scan", "android": "https://dc.lft.to/lastmile_qr_scan"}, "type": "electric_scooter", "name": "1e7a28642a7e4db067aabf737e85852b", "is_reserved": 0, "lon": -77.000631, "is_disabled": 0, "fusion_lat": 0.0, "lat": 38.87384616666667, "bike_id": "1e7a28642a7e4db067aabf737e85852b", "fusion_lon": 0.0}, {"rental_uris": {"ios": "https://dc.lft.to/lastmile_qr_scan", "android": "https://dc.lft.to/lastmile_qr_scan"}, "type": "electric_scooter", "name": "bc8026332f993c7ab346d410dd1fa974", "is_reserved": 0, "lon": -77.02707133333334, "is_disabled": 0, "fusion_lat": 0.0, "lat": 38.907669166666665, "bike_id": "bc8026332f993c7ab346d410dd1fa974", "fusion_lon": 0.0}, {"rental_uris": {"ios": "https://dc.lft.to/lastmile_qr_scan", "android": "https://dc.lft.to/lastmile_qr_scan"}, "type": "electric_scooter", "name": "37622a2cd1d6bb2f8d274ffaf782a010", "is_reserved": 0, "lon": -77.01752866666666, "is_disabled": 0, "fusion_lat": 0.0, "lat": 38.87456366666667, "bike_id": "37622a2cd1d6bb2f8d274ffaf782a010", "fusion_lon": 0.0}, {"rental_uris": {"ios": "https://dc.lft.to/lastmile_qr_scan", "android": "https://dc.lft.to/lastmile_qr_scan"}, "type": "electric_scooter", "name": "b49e62eb3e268c55caa3edfff7826ad2", "is_reserved": 0, "lon": -77.02529316666667, "is_disabled": 0, "fusion_lat": 0.0, "lat": 38.91818816666667, "bike_id": "b49e62eb3e268c55caa3edfff7826ad2", "fusion_lon": 0.0}, {"rental_uris": {"ios": "https://dc.lft.to/lastmile_qr_scan", "android": "https://dc.lft.to/lastmile_qr_scan"}, "type": "electric_scooter", "name": "e3e954d94baf3d440aa2adcbe2f919d2", "is_reserved": 0, "lon": -77.01125416666666, "is_disabled": 0, "fusion_lat": 0.0, "lat": 38.895132333333336, "bike_id": "e3e954d94baf3d440aa2adcbe2f919d2", "fusion_lon": 0.0}, {"rental_uris": {"ios": "https://dc.lft.to/lastmile_qr_scan", "android": "https://dc.lft.to/lastmile_qr_scan"}, "type": "electric_bike", "name": "7ddccbee0461ee8542131b02542a2363", "is_reserved": 0, "lon": -77.099627, "is_disabled": 0, "fusion_lat": 0.0, "lat": 38.85788433333333, "bike_id": "7ddccbee0461ee8542131b02542a2363", "fusion_lon": 0.0}, {"rental_uris": {"ios": "https://dc.lft.to/lastmile_qr_scan", "android": "https://dc.lft.to/lastmile_qr_scan"}, "type": "electric_scooter", "name": "b6778af7c3059484ac2f767e29ac5aa5", "is_reserved": 0, "lon": -76.98701633333333, "is_disabled": 0, "fusion_lat": 0.0, "lat": 38.8884185, "bike_id": "b6778af7c3059484ac2f767e29ac5aa5", "fusion_lon": 0.0}, {"rental_uris": {"ios": "https://dc.lft.to/lastmile_qr_scan", "android": "https://dc.lft.to/lastmile_qr_scan"}, "type": "electric_scooter", "name": "c8ba093240b918de628d16c64c0f639c", "is_reserved": 0, "lon": -77.0184495, "is_disabled": 0, "fusion_lat": 0.0, "lat": 38.94995266666667, "bike_id": "c8ba093240b918de628d16c64c0f639c", "fusion_lon": 0.0}, {"rental_uris": {"ios": "https://dc.lft.to/lastmile_qr_scan", "android": "https://dc.lft.to/lastmile_qr_scan"}, "type": "electric_scooter", "name": "cbca1c892cd73773a601f245c434596f", "is_reserved": 0, "lon": -77.00937216666667, "is_disabled": 0, "fusion_lat": 0.0, "lat": 38.912721166666664, "bike_id": "cbca1c892cd73773a601f245c434596f", "fusion_lon": 0.0}, {"rental_uris": {"ios": "https://dc.lft.to/lastmile_qr_scan", "android": "https://dc.lft.to/lastmile_qr_scan"}, "type": "electric_scooter", "name": "84a11291d450b57440b33ed7504fa624", "is_reserved": 0, "lon": -77.031979, "is_disabled": 0, "fusion_lat": 0.0, "lat": 38.912204833333334, "bike_id": "84a11291d450b57440b33ed7504fa624", "fusion_lon": 0.0}, {"rental_uris": {"ios": "https://dc.lft.to/lastmile_qr_scan", "android": "https://dc.lft.to/lastmile_qr_scan"}, "type": "electric_scooter", "name": "29700ec99c13612c6d09380eeae19026", "is_reserved": 0, "lon": -76.97939216666667, "is_disabled": 0, "fusion_lat": 0.0, "lat": 38.916006, "bike_id": "29700ec99c13612c6d09380eeae19026", "fusion_lon": 0.0}, {"rental_uris": {"ios": "https://dc.lft.to/lastmile_qr_scan", "android": "https://dc.lft.to/lastmile_qr_scan"}, "type": "electric_scooter", "name": "e312556846136bf4859744070bc67071", "is_reserved": 0, "lon": -76.97330483333333, "is_disabled": 0, "fusion_lat": 0.0, "lat": 38.9041115, "bike_id": "e312556846136bf4859744070bc67071", "fusion_lon": 0.0}, {"rental_uris": {"ios": "https://dc.lft.to/lastmile_qr_scan", "android": "https://dc.lft.to/lastmile_qr_scan"}, "type": "electric_scooter", "name": "2b92c76ab459803d62995ba11dfd0ef9", "is_reserved": 0, "lon": -77.00587533333334, "is_disabled": 0, "fusion_lat": 0.0, "lat": 38.87453716666667, "bike_id": "2b92c76ab459803d62995ba11dfd0ef9", "fusion_lon": 0.0}, {"rental_uris": {"ios": "https://dc.lft.to/lastmile_qr_scan", "android": "https://dc.lft.to/lastmile_qr_scan"}, "type": "electric_scooter", "name": "7a6ad78ee66388f1db8edf7c352caf01", "is_reserved": 0, "lon": -77.0413075, "is_disabled": 0, "fusion_lat": 0.0, "lat": 38.914096666666666, "bike_id": "7a6ad78ee66388f1db8edf7c352caf01", "fusion_lon": 0.0}, {"rental_uris": {"ios": "https://dc.lft.to/lastmile_qr_scan", "android": "https://dc.lft.to/lastmile_qr_scan"}, "type": "electric_scooter", "name": "8d1e24ee8fe66d00c9044e27d9d48ce1", "is_reserved": 0, "lon": -77.01664616666666, "is_disabled": 0, "fusion_lat": 0.0, "lat": 38.87936333333333, "bike_id": "8d1e24ee8fe66d00c9044e27d9d48ce1", "fusion_lon": 0.0}, {"rental_uris": {"ios": "https://dc.lft.to/lastmile_qr_scan", "android": "https://dc.lft.to/lastmile_qr_scan"}, "type": "electric_scooter", "name": "676431001309864e4bae74684ebca5e4", "is_reserved": 0, "lon": -77.04862883333334, "is_disabled": 0, "fusion_lat": 0.0, "lat": 38.89222866666667, "bike_id": "676431001309864e4bae74684ebca5e4", "fusion_lon": 0.0}, {"rental_uris": {"ios": "https://dc.lft.to/lastmile_qr_scan", "android": "https://dc.lft.to/lastmile_qr_scan"}, "type": "electric_bike", "name": "eaa1194e564f4bc2a1357526fae2d0eb", "is_reserved": 0, "lon": -76.90739616666667, "is_disabled": 0, "fusion_lat": 0.0, "lat": 38.896185333333335, "bike_id": "eaa1194e564f4bc2a1357526fae2d0eb", "fusion_lon": 0.0}, {"rental_uris": {"ios": "https://dc.lft.to/lastmile_qr_scan", "android": "https://dc.lft.to/lastmile_qr_scan"}, "type": "electric_scooter", "name": "9e4a1424fb0a0596647cd699242f7c91", "is_reserved": 0, "lon": -77.03021116666666, "is_disabled": 0, "fusion_lat": 0.0, "lat": 38.878512, "bike_id": "9e4a1424fb0a0596647cd699242f7c91", "fusion_lon": 0.0}, {"rental_uris": {"ios": "https://dc.lft.to/lastmile_qr_scan", "android": "https://dc.lft.to/lastmile_qr_scan"}, "type": "electric_scooter", "name": "829671a94905cb5291ca242f5b8c0c6a", "is_reserved": 0, "lon": -77.042489, "is_disabled": 0, "fusion_lat": 0.0, "lat": 38.9223795, "bike_id": "829671a94905cb5291ca242f5b8c0c6a", "fusion_lon": 0.0}, {"rental_uris": {"ios": "https://dc.lft.to/lastmile_qr_scan", "android": "https://dc.lft.to/lastmile_qr_scan"}, "type": "electric_scooter", "name": "f9beafe7addd05b9f6bcf24f5b79b62a", "is_reserved": 0, "lon": -77.00733316666667, "is_disabled": 0, "fusion_lat": 0.0, "lat": 38.89883533333333, "bike_id": "f9beafe7addd05b9f6bcf24f5b79b62a", "fusion_lon": 0.0}, {"rental_uris": {"ios": "https://dc.lft.to/lastmile_qr_scan", "android": "https://dc.lft.to/lastmile_qr_scan"}, "type": "electric_scooter", "name": "01da1bb613c7716f8f685774c94661f8", "is_reserved": 0, "lon": -77.05791466666666, "is_disabled": 0, "fusion_lat": 0.0, "lat": 38.9348035, "bike_id": "01da1bb613c7716f8f685774c94661f8", "fusion_lon": 0.0}, {"rental_uris": {"ios": "https://dc.lft.to/lastmile_qr_scan", "android": "https://dc.lft.to/lastmile_qr_scan"}, "type": "electric_scooter", "name": "f34df335fc80f1547ec15cc743ff6bcd", "is_reserved": 0, "lon": -77.01371633333333, "is_disabled": 0, "fusion_lat": 0.0, "lat": 38.8867865, "bike_id": "f34df335fc80f1547ec15cc743ff6bcd", "fusion_lon": 0.0}, {"rental_uris": {"ios": "https://dc.lft.to/lastmile_qr_scan", "android": "https://dc.lft.to/lastmile_qr_scan"}, "type": "electric_scooter", "name": "5b57bb0e62b1d969740c23ac1ed8b718", "is_reserved": 0, "lon": -77.03235633333334, "is_disabled": 0, "fusion_lat": 0.0, "lat": 38.91562733333333, "bike_id": "5b57bb0e62b1d969740c23ac1ed8b718", "fusion_lon": 0.0}, {"rental_uris": {"ios": "https://dc.lft.to/lastmile_qr_scan", "android": "https://dc.lft.to/lastmile_qr_scan"}, "type": "electric_scooter", "name": "5ad55d9a0546d0e9f0463ecf68a79af3", "is_reserved": 0, "lon": -77.03075666666666, "is_disabled": 0, "fusion_lat": 0.0, "lat": 38.915548333333334, "bike_id": "5ad55d9a0546d0e9f0463ecf68a79af3", "fusion_lon": 0.0}, {"rental_uris": {"ios": "https://dc.lft.to/lastmile_qr_scan", "android": "https://dc.lft.to/lastmile_qr_scan"}, "type": "electric_bike", "name": "904a356a0f6b0b019106d2627c8a1ae2", "is_reserved": 0, "lon": -76.99494366666667, "is_disabled": 0, "fusion_lat": 0.0, "lat": 38.862184, "bike_id": "904a356a0f6b0b019106d2627c8a1ae2", "fusion_lon": 0.0}, {"rental_uris": {"ios": "https://dc.lft.to/lastmile_qr_scan", "android": "https://dc.lft.to/lastmile_qr_scan"}, "type": "electric_scooter", "name": "a8a28ca9b401ef4ac9646698e94c35a3", "is_reserved": 0, "lon": -77.045665, "is_disabled": 0, "fusion_lat": 0.0, "lat": 38.91405616666667, "bike_id": "a8a28ca9b401ef4ac9646698e94c35a3", "fusion_lon": 0.0}, {"rental_uris": {"ios": "https://dc.lft.to/lastmile_qr_scan", "android": "https://dc.lft.to/lastmile_qr_scan"}, "type": "electric_scooter", "name": "5f3a8dd7dbfbf2180f4fa8aa5937e936", "is_reserved": 0, "lon": -77.01811616666667, "is_disabled": 0, "fusion_lat": 0.0, "lat": 38.92138416666667, "bike_id": "5f3a8dd7dbfbf2180f4fa8aa5937e936", "fusion_lon": 0.0}, {"rental_uris": {"ios": "https://dc.lft.to/lastmile_qr_scan", "android": "https://dc.lft.to/lastmile_qr_scan"}, "type": "electric_scooter", "name": "a8cbf08860251f379d67b70d32bbb200", "is_reserved": 0, "lon": -77.03185366666666, "is_disabled": 0, "fusion_lat": 0.0, "lat": 38.9297335, "bike_id": "a8cbf08860251f379d67b70d32bbb200", "fusion_lon": 0.0}, {"rental_uris": {"ios": "https://dc.lft.to/lastmile_qr_scan", "android": "https://dc.lft.to/lastmile_qr_scan"}, "type": "electric_scooter", "name": "2ce67f0b69cd07e8d1e7cda64c16fd8e", "is_reserved": 0, "lon": -77.030449, "is_disabled": 0, "fusion_lat": 0.0, "lat": 38.99036516666666, "bike_id": "2ce67f0b69cd07e8d1e7cda64c16fd8e", "fusion_lon": 0.0}, {"rental_uris": {"ios": "https://dc.lft.to/lastmile_qr_scan", "android": "https://dc.lft.to/lastmile_qr_scan"}, "type": "electric_scooter", "name": "67f2074505dd664839c9e9da46f2f184", "is_reserved": 0, "lon": -77.050557, "is_disabled": 0, "fusion_lat": 0.0, "lat": 38.92586283333333, "bike_id": "67f2074505dd664839c9e9da46f2f184", "fusion_lon": 0.0}, {"rental_uris": {"ios": "https://dc.lft.to/lastmile_qr_scan", "android": "https://dc.lft.to/lastmile_qr_scan"}, "type": "electric_scooter", "name": "ab3a445f17bdb52347fe25207ee3dee3", "is_reserved": 0, "lon": -77.031435, "is_disabled": 0, "fusion_lat": 0.0, "lat": 38.916226, "bike_id": "ab3a445f17bdb52347fe25207ee3dee3", "fusion_lon": 0.0}, {"rental_uris": {"ios": "https://dc.lft.to/lastmile_qr_scan", "android": "https://dc.lft.to/lastmile_qr_scan"}, "type": "electric_scooter", "name": "c2d8c0a1f915061dfa150b4fa6d24475", "is_reserved": 0, "lon": -76.9298975, "is_disabled": 0, "fusion_lat": 0.0, "lat": 38.8929665, "bike_id": "c2d8c0a1f915061dfa150b4fa6d24475", "fusion_lon": 0.0}, {"rental_uris": {"ios": "https://dc.lft.to/lastmile_qr_scan", "android": "https://dc.lft.to/lastmile_qr_scan"}, "type": "electric_scooter", "name": "f169bdbe482458366776736b015efdf1", "is_reserved": 0, "lon": -76.97888333333333, "is_disabled": 0, "fusion_lat": 0.0, "lat": 38.894018333333335, "bike_id": "f169bdbe482458366776736b015efdf1", "fusion_lon": 0.0}, {"rental_uris": {"ios": "https://dc.lft.to/lastmile_qr_scan", "android": "https://dc.lft.to/lastmile_qr_scan"}, "type": "electric_scooter", "name": "c35989da11dbe0b4c21e7dce2b4dd2b4", "is_reserved": 0, "lon": -77.02571966666666, "is_disabled": 0, "fusion_lat": 0.0, "lat": 38.88745683333333, "bike_id": "c35989da11dbe0b4c21e7dce2b4dd2b4", "fusion_lon": 0.0}, {"rental_uris": {"ios": "https://dc.lft.to/lastmile_qr_scan", "android": "https://dc.lft.to/lastmile_qr_scan"}, "type": "electric_scooter", "name": "fda6d9d96e51e4705106aa78fb6d3aa2", "is_reserved": 0, "lon": -77.02792666666667, "is_disabled": 0, "fusion_lat": 0.0, "lat": 38.92481316666667, "bike_id": "fda6d9d96e51e4705106aa78fb6d3aa2", "fusion_lon": 0.0}, {"rental_uris": {"ios": "https://dc.lft.to/lastmile_qr_scan", "android": "https://dc.lft.to/lastmile_qr_scan"}, "type": "electric_scooter", "name": "2ff6d4872d2cc8101bbc640e4532ff50", "is_reserved": 0, "lon": -77.022002, "is_disabled": 0, "fusion_lat": 0.0, "lat": 38.89444233333333, "bike_id": "2ff6d4872d2cc8101bbc640e4532ff50", "fusion_lon": 0.0}, {"rental_uris": {"ios": "https://dc.lft.to/lastmile_qr_scan", "android": "https://dc.lft.to/lastmile_qr_scan"}, "type": "electric_scooter", "name": "cc59febc729a53b8db537898858150db", "is_reserved": 0, "lon": -77.0642215, "is_disabled": 0, "fusion_lat": 0.0, "lat": 38.90520316666667, "bike_id": "cc59febc729a53b8db537898858150db", "fusion_lon": 0.0}, {"rental_uris": {"ios": "https://dc.lft.to/lastmile_qr_scan", "android": "https://dc.lft.to/lastmile_qr_scan"}, "type": "electric_scooter", "name": "3599aaac64708406cf8cc429e3f52937", "is_reserved": 0, "lon": -77.02707983333333, "is_disabled": 0, "fusion_lat": 0.0, "lat": 38.900659166666664, "bike_id": "3599aaac64708406cf8cc429e3f52937", "fusion_lon": 0.0}, {"rental_uris": {"ios": "https://dc.lft.to/lastmile_qr_scan", "android": "https://dc.lft.to/lastmile_qr_scan"}, "type": "electric_scooter", "name": "4380900d652058fcb857cdde8c91f473", "is_reserved": 0, "lon": -76.97412566666667, "is_disabled": 0, "fusion_lat": 0.0, "lat": 38.9014335, "bike_id": "4380900d652058fcb857cdde8c91f473", "fusion_lon": 0.0}, {"rental_uris": {"ios": "https://dc.lft.to/lastmile_qr_scan", "android": "https://dc.lft.to/lastmile_qr_scan"}, "type": "electric_scooter", "name": "6bfc054768110a7490d202bca6b821eb", "is_reserved": 0, "lon": -77.02212916666667, "is_disabled": 0, "fusion_lat": 0.0, "lat": 38.924687, "bike_id": "6bfc054768110a7490d202bca6b821eb", "fusion_lon": 0.0}, {"rental_uris": {"ios": "https://dc.lft.to/lastmile_qr_scan", "android": "https://dc.lft.to/lastmile_qr_scan"}, "type": "electric_scooter", "name": "0bf2a79561f25732af83bbbe60796b21", "is_reserved": 0, "lon": -77.02663366666667, "is_disabled": 0, "fusion_lat": 0.0, "lat": 38.93864883333333, "bike_id": "0bf2a79561f25732af83bbbe60796b21", "fusion_lon": 0.0}, {"rental_uris": {"ios": "https://dc.lft.to/lastmile_qr_scan", "android": "https://dc.lft.to/lastmile_qr_scan"}, "type": "electric_scooter", "name": "75209d55663e6a6fba76194896fb7f76", "is_reserved": 0, "lon": -77.02593283333333, "is_disabled": 0, "fusion_lat": 0.0, "lat": 38.884319166666664, "bike_id": "75209d55663e6a6fba76194896fb7f76", "fusion_lon": 0.0},