{"data": {"bikes": [{"bike_id": "2bbed0783d9b14115146b0f0464daf59", "lon": -77.05492166666667, "lat": 38.89365883333333, "fusion_lon": 0.0, "rental_uris": {"ios": "https://dc.lft.to/lastmile_qr_scan", "android": "https://dc.lft.to/lastmile_qr_scan"}, "is_disabled": 0, "is_reserved": 0, "name": "2bbed0783d9b14115146b0f0464daf59", "type": "electric_scooter", "fusion_lat": 0.0}, {"bike_id": "b2a1435efc5891efa6245a57e2971d60", "lon": -77.03827683333333, "lat": 38.90772, "fusion_lon": 0.0, "rental_uris": {"ios": "https://dc.lft.to/lastmile_qr_scan", "android": "https://dc.lft.to/lastmile_qr_scan"}, "is_disabled": 0, "is_reserved": 0, "name": "b2a1435efc5891efa6245a57e2971d60", "type": "electric_scooter", "fusion_lat": 0.0}, {"bike_id": "af377c8f521827a04409be01ebe79af7", "lon": -77.02314216666667, "lat": 38.90899183333333, "fusion_lon": 0.0, "rental_uris": {"ios": "https://dc.lft.to/lastmile_qr_scan", "android": "https://dc.lft.to/lastmile_qr_scan"}, "is_disabled": 0, "is_reserved": 0, "name": "af377c8f521827a04409be01ebe79af7", "type": "electric_scooter", "fusion_lat": 0.0}, {"bike_id": "f8ccdf87b6345b492f8106790a0ac9bb", "lon": -77.055643, "lat": 38.899744, "fusion_lon": 0.0, "rental_uris": {"ios": "https://dc.lft.to/lastmile_qr_scan", "android": "https://dc.lft.to/lastmile_qr_scan"}, "is_disabled": 0, "is_reserved": 0, "name": "f8ccdf87b6345b492f8106790a0ac9bb", "type": "electric_scooter", "fusion_lat": 0.0}, {"bike_id": "afae5d2aae3230f4038925a08c445bd4", "lon": -77.04298266666666, "lat": 38.9230215, "fusion_lon": 0.0, "rental_uris": {"ios": "https://dc.lft.to/lastmile_qr_scan", "android": "https://dc.lft.to/lastmile_qr_scan"}, "is_disabled": 0, "is_reserved": 0, "name": "afae5d2aae3230f4038925a08c445bd4", "type": "electric_scooter", "fusion_lat": 0.0}, {"bike_id": "a0e9cfada4a315fe322c2bc439a29d30", "lon": -77.01208416666667, "lat": 38.87091683333333, "fusion_lon": 0.0, "rental_uris": {"ios": "https://dc.lft.to/lastmile_qr_scan", "android": "https://dc.lft.to/lastmile_qr_scan"}, "is_disabled": 0, "is_reserved": 0, "name": "a0e9cfada4a315fe322c2bc439a29d30", "type": "electric_scooter", "fusion_lat": 0.0}, {"bike_id": "205708608ed2c2feff6149d81547e531", "lon": -76.98163066666666, "lat": 38.89617233333333, "fusion_lon": 0.0, "rental_uris": {"ios": "https://dc.lft.to/lastmile_qr_scan", "android": "https://dc.lft.to/lastmile_qr_scan"}, "is_disabled": 0, "is_reserved": 0, "name": "205708608ed2c2feff6149d81547e531", "type": "electric_scooter", "fusion_lat": 0.0}, {"bike_id": "39742d9fcdd2ac1c9ea9fd33d59b3dee", "lon": -76.99819733333334, "lat": 38.9072075, "fusion_lon": 0.0, "rental_uris": {"ios": "https://dc.lft.to/lastmile_qr_scan", "android": "https://dc.lft.to/lastmile_qr_scan"}, "is_disabled": 0, "is_reserved": 0, "name": "39742d9fcdd2ac1c9ea9fd33d59b3dee", "type": "electric_scooter", "fusion_lat": 0.0}, {"bike_id": "0a211d17d2bf61642b190aaf705d5f41", "lon": -76.95446333333334, "lat": 38.883926833333334, "fusion_lon": 0.0, "rental_uris": {"ios": "https://dc.lft.to/lastmile_qr_scan", "android": "https://dc.lft.to/lastmile_qr_scan"}, "is_disabled": 0, "is_reserved": 0, "name": "0a211d17d2bf61642b190aaf705d5f41", "type": "electric_scooter", "fusion_lat": 0.0}, {"bike_id": "c18c0c0cb314004216525f907e6038b3", "lon": -77.046625, "lat": 38.9021535, "fusion_lon": 0.0, "rental_uris": {"ios": "https://dc.lft.to/lastmile_qr_scan", "android": "https://dc.lft.to/lastmile_qr_scan"}, "is_disabled": 0, "is_reserved": 0, "name": "c18c0c0cb314004216525f907e6038b3", "type": "electric_scooter", "fusion_lat": 0.0}, {"bike_id": "3b8a4cbc27440e5f903c8091c428151d", "lon": -77.04264016666667, "lat": 38.922943833333335, "fusion_lon": 0.0, "rental_uris": {"ios": "https://dc.lft.to/lastmile_qr_scan", "android": "https://dc.lft.to/lastmile_qr_scan"}, "is_disabled": 0, "is_reserved": 0, "name": "3b8a4cbc27440e5f903c8091c428151d", "type": "electric_scooter", "fusion_lat": 0.0}, {"bike_id": "90fec02557a0a2e8389d9b3b71353cd8", "lon": -77.0235505, "lat": 38.924989, "fusion_lon": 0.0, "rental_uris": {"ios": "https://dc.lft.to/lastmile_qr_scan", "android": "https://dc.lft.to/lastmile_qr_scan"}, "is_disabled": 0, "is_reserved": 0, "name": "90fec02557a0a2e8389d9b3b71353cd8", "type": "electric_scooter", "fusion_lat": 0.0}, {"bike_id": "f142948d0f2ad64de89bbbc15f14b4b8", "lon": -77.02615933333334, "lat": 38.95183933333333, "fusion_lon": 0.0, "rental_uris": {"ios": "https://dc.lft.to/lastmile_qr_scan", "android": "https://dc.lft.to/lastmile_qr_scan"}, "is_disabled": 0, "is_reserved": 0, "name": "f142948d0f2ad64de89bbbc15f14b4b8", "type": "electric_scooter", "fusion_lat": 0.0}, {"bike_id": "c2b8747be56e0d28de5a646bc4130bd2", "lon": -77.02656, "lat": 38.884776333333335, "fusion_lon": 0.0, "rental_uris": {"ios": "https://dc.lft.to/lastmile_qr_scan", "android": "https://dc.lft.to/lastmile_qr_scan"}, "is_disabled": 0, "is_reserved": 0, "name": "c2b8747be56e0d28de5a646bc4130bd2", "type": "electric_scooter", "fusion_lat": 0.0}, {"bike_id": "c4dc788fecfe26026ca32c9b687adba3", "lon": -76.996171, "lat": 38.8813895, "fusion_lon": 0.0, "rental_uris": {"ios": "https://dc.lft.to/lastmile_qr_scan", "android": "https://dc.lft.to/lastmile_qr_scan"}, "is_disabled": 0, "is_reserved": 0, "name": "c4dc788fecfe26026ca32c9b687adba3", "type": "electric_scooter", "fusion_lat": 0.0}, {"bike_id": "5b6a8ea3c7f68630f8b79ebdd905cfc0", "lon": -77.030913, "lat": 38.90752966666667, "fusion_lon": 0.0, "rental_uris": {"ios": "https://dc.lft.to/lastmile_qr_scan", "android": "https://dc.lft.to/lastmile_qr_scan"}, "is_disabled": 0, "is_reserved": 0, "name": "5b6a8ea3c7f68630f8b79ebdd905cfc0", "type": "electric_scooter", "fusion_lat": 0.0}, {"bike_id": "c017d607c462a339f906c046a59241fb", "lon": -77.02849566666667, "lat": 38.904442333333336, "fusion_lon": 0.0, "rental_uris": {"ios": "https://dc.lft.to/lastmile_qr_scan", "android": "https://dc.lft.to/lastmile_qr_scan"}, "is_disabled": 0, "is_reserved": 0, "name": "c017d607c462a339f906c046a59241fb", "type": "electric_scooter", "fusion_lat": 0.0}, {"bike_id": "f1e630b5cf19d23f986aaa5c124a8471", "lon": -77.036889, "lat": 38.91816933333333, "fusion_lon": 0.0, "rental_uris": {"ios": "https://dc.lft.to/lastmile_qr_scan", "android": "https://dc.lft.to/lastmile_qr_scan"}, "is_disabled": 0, "is_reserved": 0, "name": "f1e630b5cf19d23f986aaa5c124a8471", "type": "electric_scooter", "fusion_lat": 0.0}, {"bike_id": "26cac68fb53d0e397420d427cfef7d9e", "lon": -77.021209, "lat": 38.923256, "fusion_lon": 0.0, "rental_uris": {"ios": "https://dc.lft.to/lastmile_qr_scan", "android": "https://dc.lft.to/lastmile_qr_scan"}, "is_disabled": 0, "is_reserved": 0, "name": "26cac68fb53d0e397420d427cfef7d9e", "type": "electric_scooter", "fusion_lat": 0.0}, {"bike_id": "9fd97ad69d9a0fea2cce60f065888b6e", "lon": -77.03700633333334, "lat": 38.92832766666667, "fusion_lon": 0.0, "rental_uris": {"ios": "https://dc.lft.to/lastmile_qr_scan", "android": "https://dc.lft.to/lastmile_qr_scan"}, "is_disabled": 0, "is_reserved": 0, "name": "9fd97ad69d9a0fea2cce60f065888b6e", "type": "electric_scooter", "fusion_lat": 0.0}, {"bike_id": "2c19d61d54a3546c2246eaf086052bde", "lon": -77.03456366666667, "lat": 38.917963666666665, "fusion_lon": 0.0, "rental_uris": {"ios": "https://dc.lft.to/lastmile_qr_scan", "android": "https://dc.lft.to/lastmile_qr_scan"}, "is_disabled": 0, "is_reserved": 0, "name": "2c19d61d54a3546c2246eaf086052bde", "type": "electric_scooter", "fusion_lat": 0.0}, {"bike_id": "f0cf95234d79da1580e947aafdf0bc89", "lon": -77.0145465, "lat": 38.9297755, "fusion_lon": 0.0, "rental_uris": {"ios": "https://dc.lft.to/lastmile_qr_scan", "android": "https://dc.lft.to/lastmile_qr_scan"}, "is_disabled": 0, "is_reserved": 0, "name": "f0cf95234d79da1580e947aafdf0bc89", "type": "electric_scooter", "fusion_lat": 0.0}, {"bike_id": "4d522b01542c6f98ac369f0897f21b33", "lon": -76.99510766666667, "lat": 38.886099333333334, "fusion_lon": 0.0, "rental_uris": {"ios": "https://dc.lft.to/lastmile_qr_scan", "android": "https://dc.lft.to/lastmile_qr_scan"}, "is_disabled": 0, "is_reserved": 0, "name": "4d522b01542c6f98ac369f0897f21b33", "type": "electric_scooter", "fusion_lat": 0.0}, {"bike_id": "1aa3a16b136a84bb05a1057c924f0c2b", "lon": -77.02899866666667, "lat": 38.91689816666667, "fusion_lon": 0.0, "rental_uris": {"ios": "https://dc.lft.to/lastmile_qr_scan", "android": "https://dc.lft.to/lastmile_qr_scan"}, "is_disabled": 0, "is_reserved": 0, "name": "1aa3a16b136a84bb05a1057c924f0c2b", "type": "electric_scooter", "fusion_lat": 0.0}, {"bike_id": "b45705993a71aaf549ba2682319bf5ed", "lon": -76.99576716666667, "lat": 38.862152333333334, "fusion_lon": 0.0, "rental_uris": {"ios": "https://dc.lft.to/lastmile_qr_scan", "android": "https://dc.lft.to/lastmile_qr_scan"}, "is_disabled": 0, "is_reserved": 0, "name": "b45705993a71aaf549ba2682319bf5ed", "type": "electric_bike", "fusion_lat": 0.0}, {"bike_id": "46be69b24be8d95a20adb2a0156a0e82", "lon": -76.93370933333334, "lat": 38.901857666666665, "fusion_lon": 0.0, "rental_uris": {"ios": "https://dc.lft.to/lastmile_qr_scan", "android": "https://dc.lft.to/lastmile_qr_scan"}, "is_disabled": 0, "is_reserved": 0, "name": "46be69b24be8d95a20adb2a0156a0e82", "type": "electric_scooter", "fusion_lat": 0.0}, {"bike_id": "bf375b03318fe5b715db5e309b743421", "lon": -77.03956616666666, "lat": 38.8924685, "fusion_lon": 0.0, "rental_uris": {"ios": "https://dc.lft.to/lastmile_qr_scan", "android": "https://dc.lft.to/lastmile_qr_scan"}, "is_disabled": 0, "is_reserved": 0, "name": "bf375b03318fe5b715db5e309b743421", "type": "electric_scooter", "fusion_lat": 0.0}, {"bike_id": "61f72bf12252444f32d160cf20d12648", "lon": -77.0297635, "lat": 38.920600666666665, "fusion_lon": 0.0, "rental_uris": {"ios": "https://dc.lft.to/lastmile_qr_scan", "android": "https://dc.lft.to/lastmile_qr_scan"}, "is_disabled": 0, "is_reserved": 0, "name": "61f72bf12252444f32d160cf20d12648", "type": "electric_scooter", "fusion_lat": 0.0}, {"bike_id": "d5d9774e4b8c054d9c37b78511f4b6c6", "lon": -77.022158, "lat": 38.90580583333333, "fusion_lon": 0.0, "rental_uris": {"ios": "https://dc.lft.to/lastmile_qr_scan", "android": "https://dc.lft.to/lastmile_qr_scan"}, "is_disabled": 0, "is_reserved": 0, "name": "d5d9774e4b8c054d9c37b78511f4b6c6", "type": "electric_scooter", "fusion_lat": 0.0}, {"bike_id": "801e0f81d3e857b8677c311b298c1e15", "lon": -77.048929, "lat": 38.903987666666666, "fusion_lon": 0.0, "rental_uris": {"ios": "https://dc.lft.to/lastmile_qr_scan", "android": "https://dc.lft.to/lastmile_qr_scan"}, "is_disabled": 0, "is_reserved": 0, "name": "801e0f81d3e857b8677c311b298c1e15", "type": "electric_scooter", "fusion_lat": 0.0}, {"bike_id": "64d6cdaf3a78ea4927a458c3b4f7403d", "lon": -77.0230335, "lat": 38.917027833333336, "fusion_lon": 0.0, "rental_uris": {"ios": "https://dc.lft.to/lastmile_qr_scan", "android": "https://dc.lft.to/lastmile_qr_scan"}, "is_disabled": 0, "is_reserved": 0, "name": "64d6cdaf3a78ea4927a458c3b4f7403d", "type": "electric_scooter", "fusion_lat": 0.0}, {"bike_id": "0acbf76210b4df643f9e98d5bd1a62cf", "lon": -77.023822, "lat": 38.906347833333335, "fusion_lon": 0.0, "rental_uris": {"ios": "https://dc.lft.to/lastmile_qr_scan", "android": "https://dc.lft.to/lastmile_qr_scan"}, "is_disabled": 0, "is_reserved": 0, "name": "0acbf76210b4df643f9e98d5bd1a62cf", "type": "electric_scooter", "fusion_lat": 0.0}, {"bike_id": "7efd674109fdce0992417effed068c7f", "lon": -77.0449755, "lat": 38.910292, "fusion_lon": 0.0, "rental_uris": {"ios": "https://dc.lft.to/lastmile_qr_scan", "android": "https://dc.lft.to/lastmile_qr_scan"}, "is_disabled": 0, "is_reserved": 0, "name": "7efd674109fdce0992417effed068c7f", "type": "electric_scooter", "fusion_lat": 0.0}, {"bike_id": "6f999ca39fd847dd3d88f6c018c48d70", "lon": -77.03655633333334, "lat": 38.918451166666664, "fusion_lon": 0.0, "rental_uris": {"ios": "https://dc.lft.to/lastmile_qr_scan", "android": "https://dc.lft.to/lastmile_qr_scan"}, "is_disabled": 0, "is_reserved": 0, "name": "6f999ca39fd847dd3d88f6c018c48d70", "type": "electric_scooter", "fusion_lat": 0.0}, {"bike_id": "1518d48f8d8e23de32706902ca3d135c", "lon": -77.04691333333334, "lat": 38.8922415, "fusion_lon": 0.0, "rental_uris": {"ios": "https://dc.lft.to/lastmile_qr_scan", "android": "https://dc.lft.to/lastmile_qr_scan"}, "is_disabled": 0, "is_reserved": 0, "name": "1518d48f8d8e23de32706902ca3d135c", "type": "electric_scooter", "fusion_lat": 0.0}, {"bike_id": "5954ab59d0c6a535227393599bb72a35", "lon": -76.99308183333333, "lat": 38.90028016666667, "fusion_lon": 0.0, "rental_uris": {"ios": "https://dc.lft.to/lastmile_qr_scan", "android": "https://dc.lft.to/lastmile_qr_scan"}, "is_disabled": 0, "is_reserved": 0, "name": "5954ab59d0c6a535227393599bb72a35", "type": "electric_scooter", "fusion_lat": 0.0}, {"bike_id": "0573377d23fc1c17c4be9dc66519b1db", "lon": -77.040971, "lat": 38.91564, "fusion_lon": 0.0, "rental_uris": {"ios": "https://dc.lft.to/lastmile_qr_scan", "android": "https://dc.lft.to/lastmile_qr_scan"}, "is_disabled": 0, "is_reserved": 0, "name": "0573377d23fc1c17c4be9dc66519b1db", "type": "electric_scooter", "fusion_lat": 0.0}, {"bike_id": "f33581a77c8dea8d46bf8d67396c7dd5", "lon": -77.03641283333333, "lat": 38.917443666666664, "fusion_lon": 0.0, "rental_uris": {"ios": "https://dc.lft.to/lastmile_qr_scan", "android": "https://dc.lft.to/lastmile_qr_scan"}, "is_disabled": 0, "is_reserved": 0, "name": "f33581a77c8dea8d46bf8d67396c7dd5", "type": "electric_scooter", "fusion_lat": 0.0}, {"bike_id": "a8527621299ee5be6358fc6d5c076b4a", "lon": -77.05496766666667, "lat": 39.014780333333334, "fusion_lon": 0.0, "rental_uris": {"ios": "https://dc.lft.to/lastmile_qr_scan", "android": "https://dc.lft.to/lastmile_qr_scan"}, "is_disabled": 0, "is_reserved": 0, "name": "a8527621299ee5be6358fc6d5c076b4a", "type": "electric_bike", "fusion_lat": 0.0}, {"bike_id": "b3a8d0d715808bdf2aa84097f34fc01f", "lon": -76.9730555, "lat": 38.919884, "fusion_lon": 0.0, "rental_uris": {"ios": "https://dc.lft.to/lastmile_qr_scan", "android": "https://dc.lft.to/lastmile_qr_scan"}, "is_disabled": 0, "is_reserved": 0, "name": "b3a8d0d715808bdf2aa84097f34fc01f", "type": "electric_scooter", "fusion_lat": 0.0}, {"bike_id": "2045be78fb2aaa51d0abfd40df8156b5", "lon": -77.0249645, "lat": 38.90654833333333, "fusion_lon": 0.0, "rental_uris": {"ios": "https://dc.lft.to/lastmile_qr_scan", "android": "https://dc.lft.to/lastmile_qr_scan"}, "is_disabled": 0, "is_reserved": 0, "name": "2045be78fb2aaa51d0abfd40df8156b5", "type": "electric_scooter", "fusion_lat": 0.0}, {"bike_id": "e5d6402baa624bece7971ab110c8dee5", "lon": -77.03828033333333, "lat": 38.9077485, "fusion_lon": 0.0, "rental_uris": {"ios": "https://dc.lft.to/lastmile_qr_scan", "android": "https://dc.lft.to/lastmile_qr_scan"}, "is_disabled": 0, "is_reserved": 0, "name": "e5d6402baa624bece7971ab110c8dee5", "type": "electric_scooter", "fusion_lat": 0.0}, {"bike_id": "59b3848ec6a27b17d133e8b68e276b11", "lon": -77.0269865, "lat": 38.900886166666666, "fusion_lon": 0.0, "rental_uris": {"ios": "https://dc.lft.to/lastmile_qr_scan", "android": "https://dc.lft.to/lastmile_qr_scan"}, "is_disabled": 0, "is_reserved": 0, "name": "59b3848ec6a27b17d133e8b68e276b11", "type": "electric_scooter", "fusion_lat": 0.0}, {"bike_id": "0871639a5041926da236be92c2e82990", "lon": -77.04291583333334, "lat": 38.92288833333333, "fusion_lon": 0.0, "rental_uris": {"ios": "https://dc.lft.to/lastmile_qr_scan", "android": "https://dc.lft.to/lastmile_qr_scan"}, "is_disabled": 0, "is_reserved": 0, "name": "0871639a5041926da236be92c2e82990", "type": "electric_scooter", "fusion_lat": 0.0}, {"bike_id": "64b362b1110baeb5804039d8b9d6f29c", "lon": -77.02514683333334, "lat": 38.91930516666667, "fusion_lon": 0.0, "rental_uris": {"ios": "https://dc.lft.to/lastmile_qr_scan", "android": "https://dc.lft.to/lastmile_qr_scan"}, "is_disabled": 0, "is_reserved": 0, "name": "64b362b1110baeb5804039d8b9d6f29c", "type": "electric_scooter", "fusion_lat": 0.0}, {"bike_id": "78a5c23009dc5dbd48d9ff02187d84a6", "lon": -77.043765, "lat": 38.892177, "fusion_lon": 0.0, "rental_uris": {"ios": "https://dc.lft.to/lastmile_qr_scan", "android": "https://dc.lft.to/lastmile_qr_scan"}, "is_disabled": 0, "is_reserved": 0, "name": "78a5c23009dc5dbd48d9ff02187d84a6", "type": "electric_scooter", "fusion_lat": 0.0}, {"bike_id": "27a76b039fea9046935611046fb0c3ce", "lon": -77.03213966666667, "lat": 38.9178415, "fusion_lon": 0.0, "rental_uris": {"ios": "https://dc.lft.to/lastmile_qr_scan", "android": "https://dc.lft.to/lastmile_qr_scan"}, "is_disabled": 0, "is_reserved": 0, "name": "27a76b039fea9046935611046fb0c3ce", "type": "electric_scooter", "fusion_lat": 0.0}, {"bike_id": "bbfb38f01a42ef837bbdd076ee560858", "lon": -76.98569883333333, "lat": 38.914842166666666, "fusion_lon": 0.0, "rental_uris": {"ios": "https://dc.lft.to/lastmile_qr_scan", "android": "https://dc.lft.to/lastmile_qr_scan"}, "is_disabled": 0, "is_reserved": 0, "name": "bbfb38f01a42ef837bbdd076ee560858", "type": "electric_scooter", "fusion_lat": 0.0}, {"bike_id": "5e52063c12759245b101da09b47eb861", "lon": -77.03330016666666, "lat": 38.9211145, "fusion_lon": 0.0, "rental_uris": {"ios": "https://dc.lft.to/lastmile_qr_scan", "android": "https://dc.lft.to/lastmile_qr_scan"}, "is_disabled": 0, "is_reserved": 0, "name": "5e52063c12759245b101da09b47eb861", "type": "electric_scooter", "fusion_lat": 0.0}, {"bike_id": "fb5c165fb21e0255c5e54b70491d7fc2", "lon": -77.05075833333333, "lat": 38.923573833333336, "fusion_lon": 0.0, "rental_uris": {"ios": "https://dc.lft.to/lastmile_qr_scan", "android": "https://dc.lft.to/lastmile_qr_scan"}, "is_disabled": 0, "is_reserved": 0, "name": "fb5c165fb21e0255c5e54b70491d7fc2", "type": "electric_scooter", "fusion_lat": 0.0}, {"bike_id": "1429e5fb39832df4f74f4e5a45715ed2", "lon": -77.01303533333333, "lat": 38.92999483333333, "fusion_lon": 0.0, "rental_uris": {"ios": "https://dc.lft.to/lastmile_qr_scan", "android": "https://dc.lft.to/lastmile_qr_scan"}, "is_disabled": 0, "is_reserved": 0, "name": "1429e5fb39832df4f74f4e5a45715ed2", "type": "electric_scooter", "fusion_lat": 0.0}, {"bike_id": "c7f6c9c9964f928d5e7e0966c63239a2", "lon": -77.03854466666667, "lat": 38.90308533333334, "fusion_lon": 0.0, "rental_uris": {"ios": "https://dc.lft.to/lastmile_qr_scan", "android": "https://dc.lft.to/lastmile_qr_scan"}, "is_disabled": 0, "is_reserved": 0, "name": "c7f6c9c9964f928d5e7e0966c63239a2", "type": "electric_scooter", "fusion_lat": 0.0}, {"bike_id": "b2208edb98a0d4a1771e90f46b2f98fc", "lon": -77.0054255, "lat": 38.874582, "fusion_lon": 0.0, "rental_uris": {"ios": "https://dc.lft.to/lastmile_qr_scan", "android": "https://dc.lft.to/lastmile_qr_scan"}, "is_disabled": 0, "is_reserved": 0, "name": "b2208edb98a0d4a1771e90f46b2f98fc", "type": "electric_scooter", "fusion_lat": 0.0}, {"bike_id": "abcfb9e3106c4688032d5a43aaedfca0", "lon": -77.0322095, "lat": 38.919904, "fusion_lon": 0.0, "rental_uris": {"ios": "https://dc.lft.to/lastmile_qr_scan", "android": "https://dc.lft.to/lastmile_qr_scan"}, "is_disabled": 0, "is_reserved": 0, "name": "abcfb9e3106c4688032d5a43aaedfca0", "type": "electric_scooter", "fusion_lat": 0.0}, {"bike_id": "8bb920b19164a8931eadb1e71b8dd371", "lon": -76.93730966666666, "lat": 38.8901745, "fusion_lon": 0.0, "rental_uris": {"ios": "https://dc.lft.to/lastmile_qr_scan", "android": "https://dc.lft.to/lastmile_qr_scan"}, "is_disabled": 0, "is_reserved": 0, "name": "8bb920b19164a8931eadb1e71b8dd371", "type": "electric_scooter", "fusion_lat": 0.0}, {"bike_id": "5cdfaab9d9fc50ef972e27145394071e", "lon": -77.04030916666666, "lat": 38.897928666666665, "fusion_lon": 0.0, "rental_uris": {"ios": "https://dc.lft.to/lastmile_qr_scan", "android": "https://dc.lft.to/lastmile_qr_scan"}, "is_disabled": 0, "is_reserved": 0, "name": "5cdfaab9d9fc50ef972e27145394071e", "type": "electric_scooter", "fusion_lat": 0.0}, {"bike_id": "d873bc9b398fa3592b06bc98fec9a8f7", "lon": -77.00865316666666, "lat": 38.90142083333333, "fusion_lon": 0.0, "rental_uris": {"ios": "https://dc.lft.to/lastmile_qr_scan", "android": "https://dc.lft.to/lastmile_qr_scan"}, "is_disabled": 0, "is_reserved": 0, "name": "d873bc9b398fa3592b06bc98fec9a8f7", "type": "electric_scooter", "fusion_lat": 0.0}, {"bike_id": "853b19e028c53656ca74769a1fcd0d9d", "lon": -77.0425385, "lat": 38.922652666666664, "fusion_lon": 0.0, "rental_uris": {"ios": "https://dc.lft.to/lastmile_qr_scan", "android": "https://dc.lft.to/lastmile_qr_scan"}, "is_disabled": 0, "is_reserved": 0, "name": "853b19e028c53656ca74769a1fcd0d9d", "type": "electric_scooter", "fusion_lat": 0.0}, {"bike_id": "c6f2c41c0419ff980de905d8acd49b80", "lon": -77.06482716666666, "lat": 38.93480733333333, "fusion_lon": 0.0, "rental_uris": {"ios": "https://dc.lft.to/lastmile_qr_scan", "android": "https://dc.lft.to/lastmile_qr_scan"}, "is_disabled": 0, "is_reserved": 0, "name": "c6f2c41c0419ff980de905d8acd49b80", "type": "electric_scooter", "fusion_lat": 0.0}, {"bike_id": "856e59edf42f275d8a6beba033ba5d35", "lon": -77.02729783333334, "lat": 38.95202466666667, "fusion_lon": 0.0, "rental_uris": {"ios": "https://dc.lft.to/lastmile_qr_scan", "android": "https://dc.lft.to/lastmile_qr_scan"}, "is_disabled": 0, "is_reserved": 0, "name": "856e59edf42f275d8a6beba033ba5d35", "type": "electric_scooter", "fusion_lat": 0.0}, {"bike_id": "b18f8f1cce046b9fb94d647944719ef9", "lon": -77.04174116666667, "lat": 38.905257666666664, "fusion_lon": 0.0, "rental_uris": {"ios": "https://dc.lft.to/lastmile_qr_scan", "android": "https://dc.lft.to/lastmile_qr_scan"}, "is_disabled": 0, "is_reserved": 0, "name": "b18f8f1cce046b9fb94d647944719ef9", "type": "electric_scooter", "fusion_lat": 0.0}, {"bike_id": "1d801781e3cf318b5d79b52b5e39ac98", "lon": -77.004062, "lat": 38.87668166666667, "fusion_lon": 0.0, "rental_uris": {"ios": "https://dc.lft.to/lastmile_qr_scan", "android": "https://dc.lft.to/lastmile_qr_scan"}, "is_disabled": 0, "is_reserved": 0, "name": "1d801781e3cf318b5d79b52b5e39ac98", "type": "electric_scooter", "fusion_lat": 0.0}, {"bike_id": "cf53e169e7624732221c94776e8775f3", "lon": -77.04426866666667, "lat": 38.91080783333334, "fusion_lon": 0.0, "rental_uris": {"ios": "https://dc.lft.to/lastmile_qr_scan", "android": "https://dc.lft.to/lastmile_qr_scan"}, "is_disabled": 0, "is_reserved": 0, "name": "cf53e169e7624732221c94776e8775f3", "type": "electric_scooter", "fusion_lat": 0.0}, {"bike_id": "e07a3f3205393a2f45e7a3e57b30efc1", "lon": -77.02111066666667, "lat": 38.935803, "fusion_lon": 0.0, "rental_uris": {"ios": "https://dc.lft.to/lastmile_qr_scan", "android": "https://dc.lft.to/lastmile_qr_scan"}, "is_disabled": 0, "is_reserved": 0, "name": "e07a3f3205393a2f45e7a3e57b30efc1", "type": "electric_scooter", "fusion_lat": 0.0}, {"bike_id": "b9c9422229224fcbc7b8a069970bf86d", "lon": -77.04209383333334, "lat": 38.90703216666667, "fusion_lon": 0.0, "rental_uris": {"ios": "https://dc.lft.to/lastmile_qr_scan", "android": "https://dc.lft.to/lastmile_qr_scan"}, "is_disabled": 0, "is_reserved": 0, "name": "b9c9422229224fcbc7b8a069970bf86d", "type": "electric_scooter", "fusion_lat": 0.0}, {"bike_id": "785548de2c30426e87e0e932813ff7d7", "lon": -76.98487383333334, "lat": 38.90505233333333, "fusion_lon": 0.0, "rental_uris": {"ios": "https://dc.lft.to/lastmile_qr_scan", "android": "https://dc.lft.to/lastmile_qr_scan"}, "is_disabled": 0, "is_reserved": 0, "name": "785548de2c30426e87e0e932813ff7d7", "type": "electric_scooter", "fusion_lat": 0.0}, {"bike_id": "0c7cb72cbeb4f91c1fa2ca649b94bb48", "lon": -77.00783233333334, "lat": 38.8793815, "fusion_lon": 0.0, "rental_uris": {"ios": "https://dc.lft.to/lastmile_qr_scan", "android": "https://dc.lft.to/lastmile_qr_scan"}, "is_disabled": 0, "is_reserved": 0, "name": "0c7cb72cbeb4f91c1fa2ca649b94bb48", "type": "electric_scooter", "fusion_lat": 0.0}, {"bike_id": "ba809e0da4d1f33eb4b2ff039fd72869", "lon": -76.99252766666666, "lat": 38.88266266666667, "fusion_lon": 0.0, "rental_uris": {"ios": "https://dc.lft.to/lastmile_qr_scan", "android": "https://dc.lft.to/lastmile_qr_scan"}, "is_disabled": 0, "is_reserved": 0, "name": "ba809e0da4d1f33eb4b2ff039fd72869", "type": "electric_scooter", "fusion_lat": 0.0}, {"bike_id": "fdab1430c0e8286ee22db3dfd1114c07", "lon": -77.041944, "lat": 38.90743, "fusion_lon": 0.0, "rental_uris": {"ios": "https://dc.lft.to/lastmile_qr_scan", "android": "https://dc.lft.to/lastmile_qr_scan"}, "is_disabled": 0, "is_reserved": 0, "name": "fdab1430c0e8286ee22db3dfd1114c07", "type": "electric_scooter", "fusion_lat": 0.0}, {"bike_id": "fe1332f3a65d0ed8b913b4efa40527a9", "lon": -77.03210566666667, "lat": 38.91737916666666, "fusion_lon": 0.0, "rental_uris": {"ios": "https://dc.lft.to/lastmile_qr_scan", "android": "https://dc.lft.to/lastmile_qr_scan"}, "is_disabled": 0, "is_reserved": 0, "name": "fe1332f3a65d0ed8b913b4efa40527a9", "type": "electric_scooter", "fusion_lat": 0.0}, {"bike_id": "552fb8c45656a542db75d5d91dbfd154", "lon": -77.07163666666666, "lat": 38.90870866666667, "fusion_lon": 0.0, "rental_uris": {"ios": "https://dc.lft.to/lastmile_qr_scan", "android": "https://dc.lft.to/lastmile_qr_scan"}, "is_disabled": 0, "is_reserved": 0, "name": "552fb8c45656a542db75d5d91dbfd154", "type": "electric_scooter", "fusion_lat": 0.0}, {"bike_id": "5cf7cb925a8be793cebe428ef6e11ed6", "lon": -77.04165883333333, "lat": 38.91514083333333, "fusion_lon": 0.0, "rental_uris": {"ios": "https://dc.lft.to/lastmile_qr_scan", "android": "https://dc.lft.to/lastmile_qr_scan"}, "is_disabled": 0, "is_reserved": 0, "name": "5cf7cb925a8be793cebe428ef6e11ed6", "type": "electric_scooter", "fusion_lat": 0.0}, {"bike_id": "06f37c16029b54fb0488c7d1af806119", "lon": -77.04196066666667, "lat": 38.9234295, "fusion_lon": 0.0, "rental_uris": {"ios": "https://dc.lft.to/lastmile_qr_scan", "android": "https://dc.lft.to/lastmile_qr_scan"}, "is_disabled": 0, "is_reserved": 0, "name": "06f37c16029b54fb0488c7d1af806119", "type": "electric_scooter", "fusion_lat": 0.0}, {"bike_id": "8cd2060e58af897f3bac358165354c3d", "lon": -77.02304316666667, "lat": 38.920159, "fusion_lon": 0.0, "rental_uris": {"ios": "https://dc.lft.to/lastmile_qr_scan", "android": "https://dc.lft.to/lastmile_qr_scan"}, "is_disabled": 0, "is_reserved": 0, "name": "8cd2060e58af897f3bac358165354c3d", "type": "electric_scooter", "fusion_lat": 0.0}, {"bike_id": "baaa530245e82bb1638e0f3b62232673", "lon": -77.00916216666667, "lat": 38.827887833333335, "fusion_lon": 0.0, "rental_uris": {"ios": "https://dc.lft.to/lastmile_qr_scan", "android": "https://dc.lft.to/lastmile_qr_scan"}, "is_disabled": 0, "is_reserved": 0, "name": "baaa530245e82bb1638e0f3b62232673", "type": "electric_bike", "fusion_lat": 0.0}, {"bike_id": "c9cca11091880777fa934e87b563feff", "lon": -77.0078215, "lat": 38.91691633333333, "fusion_lon": 0.0, "rental_uris": {"ios": "https://dc.lft.to/lastmile_qr_scan", "android": "https://dc.lft.to/lastmile_qr_scan"}, "is_disabled": 0, "is_reserved": 0, "name": "c9cca11091880777fa934e87b563feff", "type": "electric_scooter", "fusion_lat": 0.0}, {"bike_id": "edabbd1f8b96f5dc8d4522dfafd4ff3e", "lon": -77.0112385, "lat": 38.898785, "fusion_lon": 0.0, "rental_uris": {"ios": "https://dc.lft.to/lastmile_qr_scan", "android": "https://dc.lft.to/lastmile_qr_scan"}, "is_disabled": 0, "is_reserved": 0, "name": "edabbd1f8b96f5dc8d4522dfafd4ff3e", "type": "electric_scooter", "fusion_lat": 0.0}, {"bike_id": "ec894bccd14f76d789ef87be33ca1807", "lon": -77.0190785, "lat": 38.90243983333333, "fusion_lon": 0.0, "rental_uris": {"ios": "https://dc.lft.to/lastmile_qr_scan", "android": "https://dc.lft.to/lastmile_qr_scan"}, "is_disabled": 0, "is_reserved": 0, "name": "ec894bccd14f76d789ef87be33ca1807", "type": "electric_scooter", "fusion_lat": 0.0}, {"bike_id": "f23abc99b91a62cf95f726804f4f6a49", "lon": -76.97332483333334, "lat": 38.904111666666665, "fusion_lon": 0.0, "rental_uris": {"ios": "https://dc.lft.to/lastmile_qr_scan", "android": "https://dc.lft.to/lastmile_qr_scan"}, "is_disabled": 0, "is_reserved": 0, "name": "f23abc99b91a62cf95f726804f4f6a49", "type": "electric_scooter", "fusion_lat": 0.0}, {"bike_id": "d6904d378392ce61268f9b71dd7fb76f", "lon": -77.03479766666666, "lat": 38.90835633333333, "fusion_lon": 0.0, "rental_uris": {"ios": "https://dc.lft.to/lastmile_qr_scan", "android": "https://dc.lft.to/lastmile_qr_scan"}, "is_disabled": 0, "is_reserved": 0, "name": "d6904d378392ce61268f9b71dd7fb76f", "type": "electric_scooter", "fusion_lat": 0.0}, {"bike_id": "5112b166fd5dffc68daf853c32b289d9", "lon": -77.038588, "lat": 38.9062375, "fusion_lon": 0.0, "rental_uris": {"ios": "https://dc.lft.to/lastmile_qr_scan", "android": "https://dc.lft.to/lastmile_qr_scan"}, "is_disabled": 0, "is_reserved": 0, "name": "5112b166fd5dffc68daf853c32b289d9", "type": "electric_scooter", "fusion_lat": 0.0}, {"bike_id": "89d4585c1cd22c2989ac00c370b46e1f", "lon": -76.946203, "lat": 38.83237283333333, "fusion_lon": 0.0, "rental_uris": {"ios": "https://dc.lft.to/lastmile_qr_scan", "android": "https://dc.lft.to/lastmile_qr_scan"}, "is_disabled": 0, "is_reserved": 0, "name": "89d4585c1cd22c2989ac00c370b46e1f", "type": "electric_bike", "fusion_lat": 0.0}, {"bike_id": "ceec1a6c67aa5ef51acc8c2a18c875f2", "lon": -77.0434515, "lat": 38.921862, "fusion_lon": 0.0, "rental_uris": {"ios": "https://dc.lft.to/lastmile_qr_scan", "android": "https://dc.lft.to/lastmile_qr_scan"}, "is_disabled": 0, "is_reserved": 0, "name": "ceec1a6c67aa5ef51acc8c2a18c875f2", "type": "electric_scooter", "fusion_lat": 0.0}, {"bike_id": "01fcef5ab48c5f1657af97c8039fad65", "lon": -77.00562883333333, "lat": 38.885018, "fusion_lon": 0.0, "rental_uris": {"ios": "https://dc.lft.to/lastmile_qr_scan", "android": "https://dc.lft.to/lastmile_qr_scan"}, "is_disabled": 0, "is_reserved": 0, "name": "01fcef5ab48c5f1657af97c8039fad65", "type": "electric_scooter", "fusion_lat": 0.0}, {"bike_id": "069d7d1aa5912abb610fdcffbfcef4f7", "lon": -77.01755866666667, "lat": 38.9024135, "fusion_lon": 0.0, "rental_uris": {"ios": "https://dc.lft.to/lastmile_qr_scan", "android": "https://dc.lft.to/lastmile_qr_scan"}, "is_disabled": 0, "is_reserved": 0, "name": "069d7d1aa5912abb610fdcffbfcef4f7", "type": "electric_scooter", "fusion_lat": 0.0}, {"bike_id": "e04a6f8d35e9f5997d70fe39247b671c", "lon": -77.02350933333334, "lat": 38.90870283333334, "fusion_lon": 0.0, "rental_uris": {"ios": "https://dc.lft.to/lastmile_qr_scan", "android": "https://dc.lft.to/lastmile_qr_scan"}, "is_disabled": 0, "is_reserved": 0, "name": "e04a6f8d35e9f5997d70fe39247b671c", "type": "electric_scooter", "fusion_lat": 0.0}, {"bike_id": "c68d7723ca6990c13f07993fc04ff4ff", "lon": -77.03787633333333, "lat": 38.918028166666666, "fusion_lon": 0.0, "rental_uris": {"ios": "https://dc.lft.to/lastmile_qr_scan", "android": "https://dc.lft.to/lastmile_qr_scan"}, "is_disabled": 0, "is_reserved": 0, "name": "c68d7723ca6990c13f07993fc04ff4ff", "type": "electric_scooter", "fusion_lat": 0.0}, {"bike_id": "eb7947669b00256e6cf3eed37afbda58", "lon": -77.06311183333334, "lat": 38.93024283333333, "fusion_lon": 0.0, "rental_uris": {"ios": "https://dc.lft.to/lastmile_qr_scan", "android": "https://dc.lft.to/lastmile_qr_scan"}, "is_disabled": 0, "is_reserved": 0, "name": "eb7947669b00256e6cf3eed37afbda58", "type": "electric_scooter", "fusion_lat": 0.0}, {"bike_id": "1dd5492de08c6d352fa7dec553ccd50c", "lon": -77.018515, "lat": 38.874595, "fusion_lon": 0.0, "rental_uris": {"ios": "https://dc.lft.to/lastmile_qr_scan", "android": "https://dc.lft.to/lastmile_qr_scan"}, "is_disabled": 0, "is_reserved": 0, "name": "1dd5492de08c6d352fa7dec553ccd50c", "type": "electric_scooter", "fusion_lat": 0.0}, {"bike_id": "45c5fc7c05851bdd63cd070868ff41fe", "lon": -77.046416, "lat": 38.9063435, "fusion_lon": 0.0, "rental_uris": {"ios": "https://dc.lft.to/lastmile_qr_scan", "android": "https://dc.lft.to/lastmile_qr_scan"}, "is_disabled": 0, "is_reserved": 0, "name": "45c5fc7c05851bdd63cd070868ff41fe", "type": "electric_scooter", "fusion_lat": 0.0}, {"bike_id": "f1e4cd499f07e803b67f0595d049a079", "lon": -77.031887, "lat": 38.91167566666667, "fusion_lon": 0.0, "rental_uris": {"ios": "https://dc.lft.to/lastmile_qr_scan", "android": "https://dc.lft.to/lastmile_qr_scan"}, "is_disabled": 0, "is_reserved": 0, "name": "f1e4cd499f07e803b67f0595d049a079", "type": "electric_scooter", "fusion_lat": 0.0}, {"bike_id": "ee331e1de5334ef21c107b31bc4936a5", "lon": -77.04482633333333, "lat": 38.912177166666666, "fusion_lon": 0.0, "rental_uris": {"ios": "https://dc.lft.to/lastmile_qr_scan", "android": "https://dc.lft.to/lastmile_qr_scan"}, "is_disabled": 0, "is_reserved": 0, "name": "ee331e1de5334ef21c107b31bc4936a5", "type": "electric_scooter", "fusion_lat": 0.0}, {"bike_id": "fae9a5e07879a2437bfcf0f66b9fbb14", "lon": -77.05143666666666, "lat": 39.05052216666667, "fusion_lon": 0.0, "rental_uris": {"ios": "https://dc.lft.to/lastmile_qr_scan", "android": "https://dc.lft.to/lastmile_qr_scan"}, "is_disabled": 0, "is_reserved": 0, "name": "fae9a5e07879a2437bfcf0f66b9fbb14", "type": "electric_bike", "fusion_lat": 0.0}, {"bike_id": "e4bcbd7197db7acd59a0b107f30b045d", "lon": -77.027914, "lat": 38.893834, "fusion_lon": 0.0, "rental_uris": {"ios": "https://dc.lft.to/lastmile_qr_scan", "android": "https://dc.lft.to/lastmile_qr_scan"}, "is_disabled": 0, "is_reserved": 0, "name": "e4bcbd7197db7acd59a0b107f30b045d", "type": "electric_scooter", "fusion_lat": 0.0}, {"bike_id": "482d16f2d738722ab300f5057c76d598", "lon": -77.0560795, "lat": 38.9316485, "fusion_lon": 0.0, "rental_uris": {"ios": "https://dc.lft.to/lastmile_qr_scan", "android": "https://dc.lft.to/lastmile_qr_scan"}, "is_disabled": 0, "is_reserved": 0, "name": "482d16f2d738722ab300f5057c76d598", "type": "electric_scooter", "fusion_lat": 0.0}, {"bike_id": "36582a38493bc6c544f2306a60abac80", "lon": -77.01212833333334, "lat": 38.914403, "fusion_lon": 0.0, "rental_uris": {"ios": "https://dc.lft.to/lastmile_qr_scan", "android": "https://dc.lft.to/lastmile_qr_scan"}, "is_disabled": 0, "is_reserved": 0, "name": "36582a38493bc6c544f2306a60abac80", "type": "electric_scooter", "fusion_lat": 0.0}, {"bike_id": "ce320920c285bd18fc5e10c53047ded0", "lon": -77.0365905, "lat": 38.92112683333333, "fusion_lon": 0.0, "rental_uris": {"ios": "https://dc.lft.to/lastmile_qr_scan", "android": "https://dc.lft.to/lastmile_qr_scan"}, "is_disabled": 0, "is_reserved": 0, "name": "ce320920c285bd18fc5e10c53047ded0", "type": "electric_scooter", "fusion_lat": 0.0}, {"bike_id": "daf534ce54722b35f97e0923f0786109", "lon": -77.05235333333333, "lat": 38.924667166666666, "fusion_lon": 0.0, "rental_uris": {"ios": "https://dc.lft.to/lastmile_qr_scan", "android": "https://dc.lft.to/lastmile_qr_scan"}, "is_disabled": 0, "is_reserved": 0, "name": "daf534ce54722b35f97e0923f0786109", "type": "electric_scooter", "fusion_lat": 0.0}, {"bike_id": "3b58fff874cdc6e078cf8e3676c07e1c", "lon": -77.02983733333333, "lat": 38.92051633333333, "fusion_lon": 0.0, "rental_uris": {"ios": "https://dc.lft.to/lastmile_qr_scan", "android": "https://dc.lft.to/lastmile_qr_scan"}, "is_disabled": 0, "is_reserved": 0, "name": "3b58fff874cdc6e078cf8e3676c07e1c", "type": "electric_scooter", "fusion_lat": 0.0}, {"bike_id": "7e684f881ee446cbac48d987a577afb8", "lon": -77.02754133333333, "lat": 38.9396505, "fusion_lon": 0.0, "rental_uris": {"ios": "https://dc.lft.to/lastmile_qr_scan", "android": "https://dc.lft.to/lastmile_qr_scan"}, "is_disabled": 0, "is_reserved": 0, "name": "7e684f881ee446cbac48d987a577afb8", "type": "electric_scooter", "fusion_lat": 0.0}, {"bike_id": "e4a5304a01112d40851101aa10363f28", "lon": -77.04265466666666, "lat": 38.89219766666667, "fusion_lon": 0.0, "rental_uris": {"ios": "https://dc.lft.to/lastmile_qr_scan", "android": "https://dc.lft.to/lastmile_qr_scan"}, "is_disabled": 0, "is_reserved": 0, "name": "e4a5304a01112d40851101aa10363f28", "type": "electric_scooter", "fusion_lat": 0.0}, {"bike_id": "d0bad639a8da4aa13c50077d9658d04f", "lon": -76.99626683333334, "lat": 38.88588583333333, "fusion_lon": 0.0, "rental_uris": {"ios": "https://dc.lft.to/lastmile_qr_scan", "android": "https://dc.lft.to/lastmile_qr_scan"}, "is_disabled": 0, "is_reserved": 0, "name": "d0bad639a8da4aa13c50077d9658d04f", "type": "electric_scooter", "fusion_lat": 0.0}, {"bike_id": "d30edb420b9b6fc09a9e6c5ae6772ae7", "lon": -77.0420105, "lat": 38.918684999999996, "fusion_lon": 0.0, "rental_uris": {"ios": "https://dc.lft.to/lastmile_qr_scan", "android": "https://dc.lft.to/lastmile_qr_scan"}, "is_disabled": 0, "is_reserved": 0, "name": "d30edb420b9b6fc09a9e6c5ae6772ae7", "type": "electric_scooter", "fusion_lat": 0.0}, {"bike_id": "a0c50261355cba8bc959fa2bb7b843d2", "lon": -77.05747483333333, "lat": 38.93539083333334, "fusion_lon": 0.0, "rental_uris": {"ios": "https://dc.lft.to/lastmile_qr_scan", "android": "https://dc.lft.to/lastmile_qr_scan"}, "is_disabled": 0, "is_reserved": 0, "name": "a0c50261355cba8bc959fa2bb7b843d2", "type": "electric_scooter", "fusion_lat": 0.0}, {"bike_id": "115eafff62f6a453c048e0bcf7a0018c", "lon": -76.93088316666666, "lat": 38.877976833333335, "fusion_lon": 0.0, "rental_uris": {"ios": "https://dc.lft.to/lastmile_qr_scan", "android": "https://dc.lft.to/lastmile_qr_scan"}, "is_disabled": 0, "is_reserved": 0, "name": "115eafff62f6a453c048e0bcf7a0018c", "type": "electric_scooter", "fusion_lat": 0.0}, {"bike_id": "88b90e959ad48547e24129e71531e549", "lon": -77.02976033333333, "lat": 38.917243666666664, "fusion_lon": 0.0, "rental_uris": {"ios": "https://dc.lft.to/lastmile_qr_scan", "android": "https://dc.lft.to/lastmile_qr_scan"}, "is_disabled": 0, "is_reserved": 0, "name": "88b90e959ad48547e24129e71531e549", "type": "electric_scooter", "fusion_lat": 0.0}, {"bike_id": "12eeab6d1a51b749b36200f2a8cc6d1c", "lon": -77.04309283333333, "lat": 38.92330033333333, "fusion_lon": 0.0, "rental_uris": {"ios": "https://dc.lft.to/lastmile_qr_scan", "android": "https://dc.lft.to/lastmile_qr_scan"}, "is_disabled": 0, "is_reserved": 0, "name": "12eeab6d1a51b749b36200f2a8cc6d1c", "type": "electric_scooter", "fusion_lat": 0.0}, {"bike_id": "477c33b6c4b00b5844dbb53c2f424e39", "lon": -77.04399666666667, "lat": 38.92597116666666, "fusion_lon": 0.0, "rental_uris": {"ios": "https://dc.lft.to/lastmile_qr_scan", "android": "https://dc.lft.to/lastmile_qr_scan"}, "is_disabled": 0, "is_reserved": 0, "name": "477c33b6c4b00b5844dbb53c2f424e39", "type": "electric_scooter", "fusion_lat": 0.0}, {"bike_id": "33402bc171c5c5654b0cde1bb9732d5b", "lon": -76.99338783333333, "lat": 38.91034366666667, "fusion_lon": 0.0, "rental_uris": {"ios": "https://dc.lft.to/lastmile_qr_scan", "android": "https://dc.lft.to/lastmile_qr_scan"}, "is_disabled": 0, "is_reserved": 0, "name": "33402bc171c5c5654b0cde1bb9732d5b", "type": "electric_scooter", "fusion_lat": 0.0}, {"bike_id": "a3ebeae57dd85698034114d79e9d5e91", "lon": -77.02586733333334, "lat": 38.884008666666666, "fusion_lon": 0.0, "rental_uris": {"ios": "https://dc.lft.to/lastmile_qr_scan", "android": "https://dc.lft.to/lastmile_qr_scan"}, "is_disabled": 0, "is_reserved": 0, "name": "a3ebeae57dd85698034114d79e9d5e91", "type": "electric_scooter", "fusion_lat": 0.0}, {"bike_id": "bbe8d22128c4d8a47c64a9d8738d8ca2", "lon": -77.02674883333333, "lat": 38.97191266666667, "fusion_lon": 0.0, "rental_uris": {"ios": "https://dc.lft.to/lastmile_qr_scan", "android": "https://dc.lft.to/lastmile_qr_scan"}, "is_disabled": 0, "is_reserved": 0, "name": "bbe8d22128c4d8a47c64a9d8738d8ca2", "type": "electric_scooter", "fusion_lat": 0.0}, {"bike_id": "48371d297667d4c4fec42a37221325f9", "lon": -77.04447733333333, "lat": 38.9116665, "fusion_lon": 0.0, "rental_uris": {"ios": "https://dc.lft.to/lastmile_qr_scan", "android": "https://dc.lft.to/lastmile_qr_scan"}, "is_disabled": 0, "is_reserved": 0, "name": "48371d297667d4c4fec42a37221325f9", "type": "electric_scooter", "fusion_lat": 0.0}, {"bike_id": "69c8294d81de54ca5b1832c77b84b195", "lon": -77.03166616666667, "lat": 38.89218233333333, "fusion_lon": 0.0, "rental_uris": {"ios": "https://dc.lft.to/lastmile_qr_scan", "android": "https://dc.lft.to/lastmile_qr_scan"}, "is_disabled": 0, "is_reserved": 0, "name": "69c8294d81de54ca5b1832c77b84b195", "type": "electric_scooter", "fusion_lat": 0.0}, {"bike_id": "d01d9d22e184e4a23ac891dba16efc93", "lon": -77.02280016666667, "lat": 38.916599833333336, "fusion_lon": 0.0, "rental_uris": {"ios": "https://dc.lft.to/lastmile_qr_scan", "android": "https://dc.lft.to/lastmile_qr_scan"}, "is_disabled": 0, "is_reserved": 0, "name": "d01d9d22e184e4a23ac891dba16efc93", "type": "electric_scooter", "fusion_lat": 0.0}, {"bike_id": "fb9e4e6678c4d906fb63abcf8e1db987", "lon": -77.05949916666667, "lat": 38.918402, "fusion_lon": 0.0, "rental_uris": {"ios": "https://dc.lft.to/lastmile_qr_scan", "android": "https://dc.lft.to/lastmile_qr_scan"}, "is_disabled": 0, "is_reserved": 0, "name": "fb9e4e6678c4d906fb63abcf8e1db987", "type": "electric_scooter", "fusion_lat": 0.0}, {"bike_id": "1b552698f8d4738fbb07004208971bc2", "lon": -77.03445616666667, "lat": 38.9071605, "fusion_lon": 0.0, "rental_uris": {"ios": "https://dc.lft.to/lastmile_qr_scan", "android": "https://dc.lft.to/lastmile_qr_scan"}, "is_disabled": 0, "is_reserved": 0, "name": "1b552698f8d4738fbb07004208971bc2", "type": "electric_scooter", "fusion_lat": 0.0}, {"bike_id": "a49ba7b92ed23f2837ce75f8752e47f5", "lon": -76.93710616666667, "lat": 38.889625, "fusion_lon": 0.0, "rental_uris": {"ios": "https://dc.lft.to/lastmile_qr_scan", "android": "https://dc.lft.to/lastmile_qr_scan"}, "is_disabled": 0, "is_reserved": 0, "name": "a49ba7b92ed23f2837ce75f8752e47f5", "type": "electric_scooter", "fusion_lat": 0.0}, {"bike_id": "f70ef9388ec1c1d73f7e115b3a5d14bd", "lon": -76.973288, "lat": 38.90408433333333, "fusion_lon": 0.0, "rental_uris": {"ios": "https://dc.lft.to/lastmile_qr_scan", "android": "https://dc.lft.to/lastmile_qr_scan"}, "is_disabled": 0, "is_reserved": 0, "name": "f70ef9388ec1c1d73f7e115b3a5d14bd", "type": "electric_scooter", "fusion_lat": 0.0}, {"bike_id": "887057db810da8eef89a7be4949f561b", "lon": -77.027032, "lat": 38.94990283333333, "fusion_lon": 0.0, "rental_uris": {"ios": "https://dc.lft.to/lastmile_qr_scan", "android": "https://dc.lft.to/lastmile_qr_scan"}, "is_disabled": 0, "is_reserved": 0, "name": "887057db810da8eef89a7be4949f561b", "type": "electric_scooter", "fusion_lat": 0.0}, {"bike_id": "c29375521095398250c2ef596ec5d023", "lon": -77.00783583333333, "lat": 38.89721433333333, "fusion_lon": 0.0, "rental_uris": {"ios": "https://dc.lft.to/lastmile_qr_scan", "android": "https://dc.lft.to/lastmile_qr_scan"}, "is_disabled": 0, "is_reserved": 0, "name": "c29375521095398250c2ef596ec5d023", "type": "electric_scooter", "fusion_lat": 0.0}, {"bike_id": "e1405daf58f1517f0ca50c8e2427f138", "lon": -76.99542166666667, "lat": 38.9266105, "fusion_lon": 0.0, "rental_uris": {"ios": "https://dc.lft.to/lastmile_qr_scan", "android": "https://dc.lft.to/lastmile_qr_scan"}, "is_disabled": 0, "is_reserved": 0, "name": "e1405daf58f1517f0ca50c8e2427f138", "type": "electric_scooter", "fusion_lat": 0.0}, {"bike_id": "69d00afee5c697c741e3b2b0ad7bc5e2", "lon": -77.0364355, "lat": 38.91742166666667, "fusion_lon": 0.0, "rental_uris": {"ios": "https://dc.lft.to/lastmile_qr_scan", "android": "https://dc.lft.to/lastmile_qr_scan"}, "is_disabled": 0, "is_reserved": 0, "name": "69d00afee5c697c741e3b2b0ad7bc5e2", "type": "electric_scooter", "fusion_lat": 0.0}, {"bike_id": "ea18763689bed11229331ad1f9fe7053", "lon": -77.03510533333333, "lat": 38.92162833333333, "fusion_lon": 0.0, "rental_uris": {"ios": "https://dc.lft.to/lastmile_qr_scan", "android": "https://dc.lft.to/lastmile_qr_scan"}, "is_disabled": 0, "is_reserved": 0, "name": "ea18763689bed11229331ad1f9fe7053", "type": "electric_scooter", "fusion_lat": 0.0}, {"bike_id": "8c8fbb5189a1622f00d4c036068ced85", "lon": -77.0312405, "lat": 38.91701466666667, "fusion_lon": 0.0, "rental_uris": {"ios": "https://dc.lft.to/lastmile_qr_scan", "android": "https://dc.lft.to/lastmile_qr_scan"}, "is_disabled": 0, "is_reserved": 0, "name": "8c8fbb5189a1622f00d4c036068ced85", "type": "electric_scooter", "fusion_lat": 0.0}, {"bike_id": "057c512bf7f5c954cb8f54a181b91c30", "lon": -77.04563283333333, "lat": 38.9096125, "fusion_lon": 0.0, "rental_uris": {"ios": "https://dc.lft.to/lastmile_qr_scan", "android": "https://dc.lft.to/lastmile_qr_scan"}, "is_disabled": 0, "is_reserved": 0, "name": "057c512bf7f5c954cb8f54a181b91c30", "type": "electric_scooter", "fusion_lat": 0.0}, {"bike_id": "9309a33d54c1e5bebffd8e7d9f9ec1ac", "lon": -76.99647416666667, "lat": 38.904433833333336, "fusion_lon": 0.0, "rental_uris": {"ios": "https://dc.lft.to/lastmile_qr_scan", "android": "https://dc.lft.to/lastmile_qr_scan"}, "is_disabled": 0, "is_reserved": 0, "name": "9309a33d54c1e5bebffd8e7d9f9ec1ac", "type": "electric_scooter", "fusion_lat": 0.0}, {"bike_id": "05297816150f930fcb670daef49d65a9", "lon": -77.02503983333334, "lat": 38.941996333333336, "fusion_lon": 0.0, "rental_uris": {"ios": "https://dc.lft.to/lastmile_qr_scan", "android": "https://dc.lft.to/lastmile_qr_scan"}, "is_disabled": 0, "is_reserved": 0, "name": "05297816150f930fcb670daef49d65a9", "type": "electric_scooter", "fusion_lat": 0.0}, {"bike_id": "0df5c4a60f5884be6382bd1d4be98174", "lon": -77.02729666666667, "lat": 38.887452833333334, "fusion_lon": 0.0, "rental_uris": {"ios": "https://dc.lft.to/lastmile_qr_scan", "android": "https://dc.lft.to/lastmile_qr_scan"}, "is_disabled": 0, "is_reserved": 0, "name": "0df5c4a60f5884be6382bd1d4be98174", "type": "electric_scooter", "fusion_lat": 0.0}, {"bike_id": "30bba427e14138d794f41731523f1cd0", "lon": -77.02386333333334, "lat": 38.911463499999996, "fusion_lon": 0.0, "rental_uris": {"ios": "https://dc.lft.to/lastmile_qr_scan", "android": "https://dc.lft.to/lastmile_qr_scan"}, "is_disabled": 0, "is_reserved": 0, "name": "30bba427e14138d794f41731523f1cd0", "type": "electric_scooter", "fusion_lat": 0.0}, {"bike_id": "d918804bfe8381203078421b8a7e8075", "lon": -77.02866716666666, "lat": 38.897257333333336, "fusion_lon": 0.0, "rental_uris": {"ios": "https://dc.lft.to/lastmile_qr_scan", "android": "https://dc.lft.to/lastmile_qr_scan"}, "is_disabled": 0, "is_reserved": 0, "name": "d918804bfe8381203078421b8a7e8075", "type": "electric_scooter", "fusion_lat": 0.0}, {"bike_id": "7aa829bd4b5c8bc6af6088981be42460", "lon": -77.04131766666667, "lat": 38.902668, "fusion_lon": 0.0, "rental_uris": {"ios": "https://dc.lft.to/lastmile_qr_scan", "android": "https://dc.lft.to/lastmile_qr_scan"}, "is_disabled": 0, "is_reserved": 0, "name": "7aa829bd4b5c8bc6af6088981be42460", "type": "electric_scooter", "fusion_lat": 0.0}, {"bike_id": "be75bb0b819998c11bfcb52be7a3786c", "lon": -77.04780416666667, "lat": 38.917607, "fusion_lon": 0.0, "rental_uris": {"ios": "https://dc.lft.to/lastmile_qr_scan", "android": "https://dc.lft.to/lastmile_qr_scan"}, "is_disabled": 0, "is_reserved": 0, "name": "be75bb0b819998c11bfcb52be7a3786c", "type": "electric_scooter", "fusion_lat": 0.0}, {"bike_id": "e20ea77c3dc4401b60935f026272c9c1", "lon": -77.042879, "lat": 38.908084, "fusion_lon": 0.0, "rental_uris": {"ios": "https://dc.lft.to/lastmile_qr_scan", "android": "https://dc.lft.to/lastmile_qr_scan"}, "is_disabled": 0, "is_reserved": 0, "name": "e20ea77c3dc4401b60935f026272c9c1", "type": "electric_scooter", "fusion_lat": 0.0}, {"bike_id": "7cbff86f07950d14725a238837b300f4", "lon": -76.97335166666667, "lat": 38.865154833333335, "fusion_lon": 0.0, "rental_uris": {"ios": "https://dc.lft.to/lastmile_qr_scan", "android": "https://dc.lft.to/lastmile_qr_scan"}, "is_disabled": 0, "is_reserved": 0, "name": "7cbff86f07950d14725a238837b300f4", "type": "electric_bike", "fusion_lat": 0.0}, {"bike_id": "2701c455254a66dc5cb784f650769723", "lon": -77.07163483333333, "lat": 38.90681033333333, "fusion_lon": 0.0, "rental_uris": {"ios": "https://dc.lft.to/lastmile_qr_scan", "android": "https://dc.lft.to/lastmile_qr_scan"}, "is_disabled": 0, "is_reserved": 0, "name": "2701c455254a66dc5cb784f650769723", "type": "electric_scooter", "fusion_lat": 0.0}, {"bike_id": "2ee827452989cd8e5a2620f43d3042d8", "lon": -77.00202866666666, "lat": 38.873740166666664, "fusion_lon": 0.0, "rental_uris": {"ios": "https://dc.lft.to/lastmile_qr_scan", "android": "https://dc.lft.to/lastmile_qr_scan"}, "is_disabled": 0, "is_reserved": 0, "name": "2ee827452989cd8e5a2620f43d3042d8", "type": "electric_scooter", "fusion_lat": 0.0}, {"bike_id": "0c0d7e30c67eecd92c5d45b42f117925", "lon": -77.02403866666667, "lat": 38.92084366666667, "fusion_lon": 0.0, "rental_uris": {"ios": "https://dc.lft.to/lastmile_qr_scan", "android": "https://dc.lft.to/lastmile_qr_scan"}, "is_disabled": 0, "is_reserved": 0, "name": "0c0d7e30c67eecd92c5d45b42f117925", "type": "electric_scooter", "fusion_lat": 0.0}, {"bike_id": "46b333078a56f259cc8aea73bded2425", "lon": -77.0467975, "lat": 38.907959, "fusion_lon": 0.0, "rental_uris": {"ios": "https://dc.lft.to/lastmile_qr_scan", "android": "https://dc.lft.to/lastmile_qr_scan"}, "is_disabled": 0, "is_reserved": 0, "name": "46b333078a56f259cc8aea73bded2425", "type": "electric_scooter", "fusion_lat": 0.0}, {"bike_id": "4f5c2edef3b2ea98d060bff97bed8b59", "lon": -77.02640533333333, "lat": 38.96227716666667, "fusion_lon": 0.0, "rental_uris": {"ios": "https://dc.lft.to/lastmile_qr_scan", "android": "https://dc.lft.to/lastmile_qr_scan"}, "is_disabled": 0, "is_reserved": 0, "name": "4f5c2edef3b2ea98d060bff97bed8b59", "type": "electric_bike", "fusion_lat": 0.0}, {"bike_id": "c2f41fb7959c3cd8dd8959fcb5d95216", "lon": -77.02406216666667, "lat": 38.91567583333333, "fusion_lon": 0.0, "rental_uris": {"ios": "https://dc.lft.to/lastmile_qr_scan", "android": "https://dc.lft.to/lastmile_qr_scan"}, "is_disabled": 0, "is_reserved": 0, "name": "c2f41fb7959c3cd8dd8959fcb5d95216", "type": "electric_scooter", "fusion_lat": 0.0}, {"bike_id": "412b3f42bf1d0d432145b0056019567d", "lon": -76.95749533333333, "lat": 38.96958716666666, "fusion_lon": 0.0, "rental_uris": {"ios": "https://dc.lft.to/lastmile_qr_scan", "android": "https://dc.lft.to/lastmile_qr_scan"}, "is_disabled": 0, "is_reserved": 0, "name": "412b3f42bf1d0d432145b0056019567d", "type": "electric_bike", "fusion_lat": 0.0}, {"bike_id": "41d80be41855176edc87777c875d2ec7", "lon": -77.07722983333333, "lat": 38.94403283333333, "fusion_lon": 0.0, "rental_uris": {"ios": "https://dc.lft.to/lastmile_qr_scan", "android": "https://dc.lft.to/lastmile_qr_scan"}, "is_disabled": 0, "is_reserved": 0, "name": "41d80be41855176edc87777c875d2ec7", "type": "electric_bike", "fusion_lat": 0.0}, {"bike_id": "4c3f04b073192344649ea51bb0c20105", "lon": -77.02249366666666, "lat": 38.9247375, "fusion_lon": 0.0, "rental_uris": {"ios": "https://dc.lft.to/lastmile_qr_scan", "android": "https://dc.lft.to/lastmile_qr_scan"}, "is_disabled": 0, "is_reserved": 0, "name": "4c3f04b073192344649ea51bb0c20105", "type": "electric_scooter", "fusion_lat": 0.0}, {"bike_id": "9bcbaf15b920c5cb756d809879362fce", "lon": -77.02477166666667, "lat": 38.880131666666664, "fusion_lon": 0.0, "rental_uris": {"ios": "https://dc.lft.to/lastmile_qr_scan", "android": "https://dc.lft.to/lastmile_qr_scan"}, "is_disabled": 0, "is_reserved": 0, "name": "9bcbaf15b920c5cb756d809879362fce", "type": "electric_scooter", "fusion_lat": 0.0}, {"bike_id": "96ead8e1d0a49d802cd0a6f68730420d", "lon": -77.0101375, "lat": 38.9118455, "fusion_lon": 0.0, "rental_uris": {"ios": "https://dc.lft.to/lastmile_qr_scan", "android": "https://dc.lft.to/lastmile_qr_scan"}, "is_disabled": 0, "is_reserved": 0, "name": "96ead8e1d0a49d802cd0a6f68730420d", "type": "electric_scooter", "fusion_lat": 0.0}, {"bike_id": "e7358813af2f65c4a9e6f404906fea9a", "lon": -77.02198566666667, "lat": 38.9105535, "fusion_lon": 0.0, "rental_uris": {"ios": "https://dc.lft.to/lastmile_qr_scan", "android": "https://dc.lft.to/lastmile_qr_scan"}, "is_disabled": 0, "is_reserved": 0, "name": "e7358813af2f65c4a9e6f404906fea9a", "type": "electric_scooter", "fusion_lat": 0.0}, {"bike_id": "13608b2e22562af7b880f9a487cfd944", "lon": -76.99609533333333, "lat": 38.930878166666666, "fusion_lon": 0.0, "rental_uris": {"ios": "https://dc.lft.to/lastmile_qr_scan", "android": "https://dc.lft.to/lastmile_qr_scan"}, "is_disabled": 0, "is_reserved": 0, "name": "13608b2e22562af7b880f9a487cfd944", "type": "electric_scooter", "fusion_lat": 0.0}, {"bike_id": "c5df125b83ea2686da3345645c57279e", "lon": -77.02803116666666, "lat": 38.89511866666667, "fusion_lon": 0.0, "rental_uris": {"ios": "https://dc.lft.to/lastmile_qr_scan", "android": "https://dc.lft.to/lastmile_qr_scan"}, "is_disabled": 0, "is_reserved": 0, "name": "c5df125b83ea2686da3345645c57279e", "type": "electric_scooter", "fusion_lat": 0.0}, {"bike_id": "3833f7bc6c91e1b610c509ec7159038e", "lon": -77.0265205, "lat": 38.921790666666666, "fusion_lon": 0.0, "rental_uris": {"ios": "https://dc.lft.to/lastmile_qr_scan", "android": "https://dc.lft.to/lastmile_qr_scan"}, "is_disabled": 0, "is_reserved": 0, "name": "3833f7bc6c91e1b610c509ec7159038e", "type": "electric_scooter", "fusion_lat": 0.0}, {"bike_id": "6001b52f18c4326e80fe823e191bc9be", "lon": -76.949348, "lat": 38.89358433333334, "fusion_lon": 0.0, "rental_uris": {"ios": "https://dc.lft.to/lastmile_qr_scan", "android": "https://dc.lft.to/lastmile_qr_scan"}, "is_disabled": 0, "is_reserved": 0, "name": "6001b52f18c4326e80fe823e191bc9be", "type": "electric_scooter", "fusion_lat": 0.0}, {"bike_id": "b000584640cb2632640ed12cb191fe7d", "lon": -77.04115633333333, "lat": 38.9231185, "fusion_lon": 0.0, "rental_uris": {"ios": "https://dc.lft.to/lastmile_qr_scan", "android": "https://dc.lft.to/lastmile_qr_scan"}, "is_disabled": 0, "is_reserved": 0, "name": "b000584640cb2632640ed12cb191fe7d", "type": "electric_scooter", "fusion_lat": 0.0}, {"bike_id": "197eba36c290c9d01eb3d71adc7002a9", "lon": -77.02801183333334, "lat": 38.90993316666667, "fusion_lon": 0.0, "rental_uris": {"ios": "https://dc.lft.to/lastmile_qr_scan", "android": "https://dc.lft.to/lastmile_qr_scan"}, "is_disabled": 0, "is_reserved": 0, "name": "197eba36c290c9d01eb3d71adc7002a9", "type": "electric_scooter", "fusion_lat": 0.0}, {"bike_id": "d3f9c030131c6c4cbed54f9c9ade9262", "lon": -77.05062533333333, "lat": 38.9003825, "fusion_lon": 0.0, "rental_uris": {"ios": "https://dc.lft.to/lastmile_qr_scan", "android": "https://dc.lft.to/lastmile_qr_scan"}, "is_disabled": 0, "is_reserved": 0, "name": "d3f9c030131c6c4cbed54f9c9ade9262", "type": "electric_scooter", "fusion_lat": 0.0}, {"bike_id": "60711e89639acc3fc13cb540122cfdff", "lon": -77.22303933333333, "lat": 38.9131535, "fusion_lon": 0.0, "rental_uris": {"ios": "https://dc.lft.to/lastmile_qr_scan", "android": "https://dc.lft.to/lastmile_qr_scan"}, "is_disabled": 0, "is_reserved": 0, "name": "60711e89639acc3fc13cb540122cfdff", "type": "electric_bike", "fusion_lat": 0.0}, {"bike_id": "100b0146dd5654aefc072711ea84b0af", "lon": -77.0250445, "lat": 38.942184166666664, "fusion_lon": 0.0, "rental_uris": {"ios": "https://dc.lft.to/lastmile_qr_scan", "android": "https://dc.lft.to/lastmile_qr_scan"}, "is_disabled": 0, "is_reserved": 0, "name": "100b0146dd5654aefc072711ea84b0af", "type": "electric_scooter", "fusion_lat": 0.0}, {"bike_id": "91cd7320aa1eaf69afa37603a510e568", "lon": -76.99063783333334, "lat": 38.86375, "fusion_lon": 0.0, "rental_uris": {"ios": "https://dc.lft.to/lastmile_qr_scan", "android": "https://dc.lft.to/lastmile_qr_scan"}, "is_disabled": 0, "is_reserved": 0, "name": "91cd7320aa1eaf69afa37603a510e568", "type": "electric_scooter", "fusion_lat": 0.0}, {"bike_id": "41143982e543ca01e1a63d007fedf26a", "lon": -76.99032916666667, "lat": 38.8887185, "fusion_lon": 0.0, "rental_uris": {"ios": "https://dc.lft.to/lastmile_qr_scan", "android": "https://dc.lft.to/lastmile_qr_scan"}, "is_disabled": 0, "is_reserved": 0, "name": "41143982e543ca01e1a63d007fedf26a", "type": "electric_scooter", "fusion_lat": 0.0}, {"bike_id": "83919c35236e24469ebc34e90c72ab7f", "lon": -77.0271535, "lat": 38.94086216666667, "fusion_lon": 0.0, "rental_uris": {"ios": "https://dc.lft.to/lastmile_qr_scan", "android": "https://dc.lft.to/lastmile_qr_scan"}, "is_disabled": 0, "is_reserved": 0, "name": "83919c35236e24469ebc34e90c72ab7f", "type": "electric_scooter", "fusion_lat": 0.0}, {"bike_id": "6670d72b6cc7a0f4fcbe759301aae959", "lon": -77.029549, "lat": 38.91419416666667, "fusion_lon": 0.0, "rental_uris": {"ios": "https://dc.lft.to/lastmile_qr_scan", "android": "https://dc.lft.to/lastmile_qr_scan"}, "is_disabled": 0, "is_reserved": 0, "name": "6670d72b6cc7a0f4fcbe759301aae959", "type": "electric_scooter", "fusion_lat": 0.0}, {"bike_id": "8a563b4097fe9dabcb91e4b17af08941", "lon": -76.97741883333333, "lat": 38.871682, "fusion_lon": 0.0, "rental_uris": {"ios": "https://dc.lft.to/lastmile_qr_scan", "android": "https://dc.lft.to/lastmile_qr_scan"}, "is_disabled": 0, "is_reserved": 0, "name": "8a563b4097fe9dabcb91e4b17af08941", "type": "electric_scooter", "fusion_lat": 0.0}, {"bike_id": "f558695575eab68a3c6b8073cf242c6d", "lon": -77.0395835, "lat": 38.91492983333333, "fusion_lon": 0.0, "rental_uris": {"ios": "https://dc.lft.to/lastmile_qr_scan", "android": "https://dc.lft.to/lastmile_qr_scan"}, "is_disabled": 0, "is_reserved": 0, "name": "f558695575eab68a3c6b8073cf242c6d", "type": "electric_scooter", "fusion_lat": 0.0}, {"bike_id": "e4037b2219bdd2a1d990a1a9a59dc7f9", "lon": -77.03843116666667, "lat": 38.906719, "fusion_lon": 0.0, "rental_uris": {"ios": "https://dc.lft.to/lastmile_qr_scan", "android": "https://dc.lft.to/lastmile_qr_scan"}, "is_disabled": 0, "is_reserved": 0, "name": "e4037b2219bdd2a1d990a1a9a59dc7f9", "type": "electric_scooter", "fusion_lat": 0.0}, {"bike_id": "cd9d08437cf17ddd4935a1ff6ca86f58", "lon": -77.02090883333334, "lat": 38.921419666666665, "fusion_lon": 0.0, "rental_uris": {"ios": "https://dc.lft.to/lastmile_qr_scan", "android": "https://dc.lft.to/lastmile_qr_scan"}, "is_disabled": 0, "is_reserved": 0, "name": "cd9d08437cf17ddd4935a1ff6ca86f58", "type": "electric_scooter", "fusion_lat": 0.0}, {"bike_id": "bb8cbb6646478f7f3f5312d91e62c16a", "lon": -77.01775933333333, "lat": 38.90275533333333, "fusion_lon": 0.0, "rental_uris": {"ios": "https://dc.lft.to/lastmile_qr_scan", "android": "https://dc.lft.to/lastmile_qr_scan"}, "is_disabled": 0, "is_reserved": 0, "name": "bb8cbb6646478f7f3f5312d91e62c16a", "type": "electric_scooter", "fusion_lat": 0.0}, {"bike_id": "1ca84fd28a7eaeab21e2dfc9aa411ae7", "lon": -77.01570016666666, "lat": 38.915088, "fusion_lon": 0.0, "rental_uris": {"ios": "https://dc.lft.to/lastmile_qr_scan", "android": "https://dc.lft.to/lastmile_qr_scan"}, "is_disabled": 0, "is_reserved": 0, "name": "1ca84fd28a7eaeab21e2dfc9aa411ae7", "type": "electric_scooter", "fusion_lat": 0.0}, {"bike_id": "47b68fe6e4af2abc7ae0257b601eb324", "lon": -77.02333566666667, "lat": 38.922313, "fusion_lon": 0.0, "rental_uris": {"ios": "https://dc.lft.to/lastmile_qr_scan", "android": "https://dc.lft.to/lastmile_qr_scan"}, "is_disabled": 0, "is_reserved": 0, "name": "47b68fe6e4af2abc7ae0257b601eb324", "type": "electric_scooter", "fusion_lat": 0.0}, {"bike_id": "7080f5bd231e57a723302fe26e6d620e", "lon": -77.0448365, "lat": 38.905718, "fusion_lon": 0.0, "rental_uris": {"ios": "https://dc.lft.to/lastmile_qr_scan", "android": "https://dc.lft.to/lastmile_qr_scan"}, "is_disabled": 0, "is_reserved": 0, "name": "7080f5bd231e57a723302fe26e6d620e", "type": "electric_scooter", "fusion_lat": 0.0}, {"bike_id": "64cbe82e308d69eabed2798ac16e5929", "lon": -77.02940366666667, "lat": 38.912607333333334, "fusion_lon": 0.0, "rental_uris": {"ios": "https://dc.lft.to/lastmile_qr_scan", "android": "https://dc.lft.to/lastmile_qr_scan"}, "is_disabled": 0, "is_reserved": 0, "name": "64cbe82e308d69eabed2798ac16e5929", "type": "electric_scooter", "fusion_lat": 0.0}, {"bike_id": "c1d017ba62d25a05755bb164422be1d3", "lon": -76.9745265, "lat": 38.86408683333333, "fusion_lon": 0.0, "rental_uris": {"ios": "https://dc.lft.to/lastmile_qr_scan", "android": "https://dc.lft.to/lastmile_qr_scan"}, "is_disabled": 0, "is_reserved": 0, "name": "c1d017ba62d25a05755bb164422be1d3", "type": "electric_scooter", "fusion_lat": 0.0}, {"bike_id": "4237603a7f50070f285e7fa6b3abe1a7", "lon": -77.13101083333333, "lat": 39.0243405, "fusion_lon": 0.0, "rental_uris": {"ios": "https://dc.lft.to/lastmile_qr_scan", "android": "https://dc.lft.to/lastmile_qr_scan"}, "is_disabled": 0, "is_reserved": 0, "name": "4237603a7f50070f285e7fa6b3abe1a7", "type": "electric_bike", "fusion_lat": 0.0}, {"bike_id": "e29a84fd3460606bd6bc7185972e168d", "lon": -77.04868416666666, "lat": 38.89219283333333, "fusion_lon": 0.0, "rental_uris": {"ios": "https://dc.lft.to/lastmile_qr_scan", "android": "https://dc.lft.to/lastmile_qr_scan"}, "is_disabled": 0, "is_reserved": 0, "name": "e29a84fd3460606bd6bc7185972e168d", "type": "electric_scooter", "fusion_lat": 0.0}, {"bike_id": "5d0bde3fee23eda44cfdc1d487a6824c", "lon": -76.96902116666666, "lat": 38.8607045, "fusion_lon": 0.0, "rental_uris": {"ios": "https://dc.lft.to/lastmile_qr_scan", "android": "https://dc.lft.to/lastmile_qr_scan"}, "is_disabled": 0, "is_reserved": 0, "name": "5d0bde3fee23eda44cfdc1d487a6824c", "type": "electric_scooter", "fusion_lat": 0.0}, {"bike_id": "5f97d4f0836931a5e98f081685198b2d", "lon": -77.04653666666667, "lat": 38.905769, "fusion_lon": 0.0, "rental_uris": {"ios": "https://dc.lft.to/lastmile_qr_scan", "android": "https://dc.lft.to/lastmile_qr_scan"}, "is_disabled": 0, "is_reserved": 0, "name": "5f97d4f0836931a5e98f081685198b2d", "type": "electric_scooter", "fusion_lat": 0.0}, {"bike_id": "2a407a6a48013f693938780c3edb18f4", "lon": -76.97210083333333, "lat": 38.947843166666665, "fusion_lon": 0.0, "rental_uris": {"ios": "https://dc.lft.to/lastmile_qr_scan", "android": "https://dc.lft.to/lastmile_qr_scan"}, "is_disabled": 0, "is_reserved": 0, "name": "2a407a6a48013f693938780c3edb18f4", "type": "electric_bike", "fusion_lat": 0.0}, {"bike_id": "47bf227e736eb0fba9ee04cdb9f4954a", "lon": -76.95596333333333, "lat": 38.8876495, "fusion_lon": 0.0, "rental_uris": {"ios": "https://dc.lft.to/lastmile_qr_scan", "android": "https://dc.lft.to/lastmile_qr_scan"}, "is_disabled": 0, "is_reserved": 0, "name": "47bf227e736eb0fba9ee04cdb9f4954a", "type": "electric_scooter", "fusion_lat": 0.0}, {"bike_id": "591d61998e4926175079c8f355344876", "lon": -77.0344, "lat": 38.91692116666667, "fusion_lon": 0.0, "rental_uris": {"ios": "https://dc.lft.to/lastmile_qr_scan", "android": "https://dc.lft.to/lastmile_qr_scan"}, "is_disabled": 0, "is_reserved": 0, "name": "591d61998e4926175079c8f355344876", "type": "electric_scooter", "fusion_lat": 0.0}, {"bike_id": "64180dee6213a20a19b96fdaca2eba78", "lon": -77.0401655, "lat": 38.9078095, "fusion_lon": 0.0, "rental_uris": {"ios": "https://dc.lft.to/lastmile_qr_scan", "android": "https://dc.lft.to/lastmile_qr_scan"}, "is_disabled": 0, "is_reserved": 0, "name": "64180dee6213a20a19b96fdaca2eba78", "type": "electric_scooter", "fusion_lat": 0.0}, {"bike_id": "e0e389750dedc4e13cb6765dded0207f", "lon": -77.12851183333333, "lat": 39.063731, "fusion_lon": 0.0, "rental_uris": {"ios": "https://dc.lft.to/lastmile_qr_scan", "android": "https://dc.lft.to/lastmile_qr_scan"}, "is_disabled": 0, "is_reserved": 0, "name": "e0e389750dedc4e13cb6765dded0207f", "type": "electric_bike", "fusion_lat": 0.0}, {"bike_id": "b082a58542ab79710ebfa642f150eefe", "lon": -77.04124583333333, "lat": 38.91711683333333, "fusion_lon": 0.0, "rental_uris": {"ios": "https://dc.lft.to/lastmile_qr_scan", "android": "https://dc.lft.to/lastmile_qr_scan"}, "is_disabled": 0, "is_reserved": 0, "name": "b082a58542ab79710ebfa642f150eefe", "type": "electric_scooter", "fusion_lat": 0.0}, {"bike_id": "c32b24439dfabf64f580fb09a80d8cde", "lon": -77.04691033333333, "lat": 38.90593583333333, "fusion_lon": 0.0, "rental_uris": {"ios": "https://dc.lft.to/lastmile_qr_scan", "android": "https://dc.lft.to/lastmile_qr_scan"}, "is_disabled": 0, "is_reserved": 0, "name": "c32b24439dfabf64f580fb09a80d8cde", "type": "electric_scooter", "fusion_lat": 0.0}, {"bike_id": "428324ff6bb17b7b63ead6156344dc03", "lon": -77.011289, "lat": 38.88042083333333, "fusion_lon": 0.0, "rental_uris": {"ios": "https://dc.lft.to/lastmile_qr_scan", "android": "https://dc.lft.to/lastmile_qr_scan"}, "is_disabled": 0, "is_reserved": 0, "name": "428324ff6bb17b7b63ead6156344dc03", "type": "electric_bike", "fusion_lat": 0.0}, {"bike_id": "b3324ae186c0c0ae765dcbac085203bf", "lon": -77.03289833333334, "lat": 38.93440916666667, "fusion_lon": 0.0, "rental_uris": {"ios": "https://dc.lft.to/lastmile_qr_scan", "android": "https://dc.lft.to/lastmile_qr_scan"}, "is_disabled": 0, "is_reserved": 0, "name": "b3324ae186c0c0ae765dcbac085203bf", "type": "electric_scooter", "fusion_lat": 0.0}, {"bike_id": "b442e3a103021303f2941ce7171885ca", "lon": -77.02387083333333, "lat": 38.91290716666666, "fusion_lon": 0.0, "rental_uris": {"ios": "https://dc.lft.to/lastmile_qr_scan", "android": "https://dc.lft.to/lastmile_qr_scan"}, "is_disabled": 0, "is_reserved": 0, "name": "b442e3a103021303f2941ce7171885ca", "type": "electric_scooter", "fusion_lat": 0.0}, {"bike_id": "d4558badc34a7ac2c919a886986ac9ea", "lon": -77.0528245, "lat": 38.91009283333333, "fusion_lon": 0.0, "rental_uris": {"ios": "https://dc.lft.to/lastmile_qr_scan", "android": "https://dc.lft.to/lastmile_qr_scan"}, "is_disabled": 0, "is_reserved": 0, "name": "d4558badc34a7ac2c919a886986ac9ea", "type": "electric_scooter", "fusion_lat": 0.0}, {"bike_id": "a818957b9eddcf1638155fcaf41e90ae", "lon": -77.00567016666666, "lat": 38.87445983333333, "fusion_lon": 0.0, "rental_uris": {"ios": "https://dc.lft.to/lastmile_qr_scan", "android": "https://dc.lft.to/lastmile_qr_scan"}, "is_disabled": 0, "is_reserved": 0, "name": "a818957b9eddcf1638155fcaf41e90ae", "type": "electric_scooter", "fusion_lat": 0.0}, {"bike_id": "f6fe250f828744f96ebe47b827777813", "lon": -77.02582733333334, "lat": 38.8950195, "fusion_lon": 0.0, "rental_uris": {"ios": "https://dc.lft.to/lastmile_qr_scan", "android": "https://dc.lft.to/lastmile_qr_scan"}, "is_disabled": 0, "is_reserved": 0, "name": "f6fe250f828744f96ebe47b827777813", "type": "electric_scooter", "fusion_lat": 0.0}, {"bike_id": "b05b78ddbfd5dbf4f81b78079c76cc96", "lon": -77.032847, "lat": 38.90292866666667, "fusion_lon": 0.0, "rental_uris": {"ios": "https://dc.lft.to/lastmile_qr_scan", "android": "https://dc.lft.to/lastmile_qr_scan"}, "is_disabled": 0, "is_reserved": 0, "name": "b05b78ddbfd5dbf4f81b78079c76cc96", "type": "electric_scooter", "fusion_lat": 0.0}, {"bike_id": "d1c980079c03a6f44c7339d3663db553", "lon": -77.04574733333334, "lat": 38.90374816666667, "fusion_lon": 0.0, "rental_uris": {"ios": "https://dc.lft.to/lastmile_qr_scan", "android": "https://dc.lft.to/lastmile_qr_scan"}, "is_disabled": 0, "is_reserved": 0, "name": "d1c980079c03a6f44c7339d3663db553", "type": "electric_scooter", "fusion_lat": 0.0}, {"bike_id": "dfff9ecbfb84576bd3a6d32db44ff3db", "lon": -76.99623066666666, "lat": 38.90005016666667, "fusion_lon": 0.0, "rental_uris": {"ios": "https://dc.lft.to/lastmile_qr_scan", "android": "https://dc.lft.to/lastmile_qr_scan"}, "is_disabled": 0, "is_reserved": 0, "name": "dfff9ecbfb84576bd3a6d32db44ff3db", "type": "electric_scooter", "fusion_lat": 0.0}, {"bike_id": "ac7728aef17d2317260d9b5be594c361", "lon": -77.04150133333333, "lat": 38.923476, "fusion_lon": 0.0, "rental_uris": {"ios": "https://dc.lft.to/lastmile_qr_scan", "android": "https://dc.lft.to/lastmile_qr_scan"}, "is_disabled": 0, "is_reserved": 0, "name": "ac7728aef17d2317260d9b5be594c361", "type": "electric_scooter", "fusion_lat": 0.0}, {"bike_id": "1da5116efda423dc500fce850343de50", "lon": -77.00767166666667, "lat": 38.89596266666667, "fusion_lon": 0.0, "rental_uris": {"ios": "https://dc.lft.to/lastmile_qr_scan", "android": "https://dc.lft.to/lastmile_qr_scan"}, "is_disabled": 0, "is_reserved": 0, "name": "1da5116efda423dc500fce850343de50", "type": "electric_scooter", "fusion_lat": 0.0}, {"bike_id": "4da7bb85f3bc77a960dd84fc2cc6f54b", "lon": -77.0199675, "lat": 38.966260166666665, "fusion_lon": 0.0, "rental_uris": {"ios": "https://dc.lft.to/lastmile_qr_scan", "android": "https://dc.lft.to/lastmile_qr_scan"}, "is_disabled": 0, "is_reserved": 0, "name": "4da7bb85f3bc77a960dd84fc2cc6f54b", "type": "electric_scooter", "fusion_lat": 0.0}, {"bike_id": "810163f29c41a8e1d0d4760997b88e75", "lon": -77.05027816666667, "lat": 38.896636, "fusion_lon": 0.0, "rental_uris": {"ios": "https://dc.lft.to/lastmile_qr_scan", "android": "https://dc.lft.to/lastmile_qr_scan"}, "is_disabled": 0, "is_reserved": 0, "name": "810163f29c41a8e1d0d4760997b88e75", "type": "electric_scooter", "fusion_lat": 0.0}, {"bike_id": "98db4ca504bacd3da9c2d8b5e202fb55", "lon": -77.00139033333333, "lat": 38.90512666666667, "fusion_lon": 0.0, "rental_uris": {"ios": "https://dc.lft.to/lastmile_qr_scan", "android": "https://dc.lft.to/lastmile_qr_scan"}, "is_disabled": 0, "is_reserved": 0, "name": "98db4ca504bacd3da9c2d8b5e202fb55", "type": "electric_scooter", "fusion_lat": 0.0}, {"bike_id": "7c84b6a41bd50d25957939fc478b4c75", "lon": -77.02986, "lat": 38.900862000000004, "fusion_lon": 0.0, "rental_uris": {"ios": "https://dc.lft.to/lastmile_qr_scan", "android": "https://dc.lft.to/lastmile_qr_scan"}, "is_disabled": 0, "is_reserved": 0, "name": "7c84b6a41bd50d25957939fc478b4c75", "type": "electric_scooter", "fusion_lat": 0.0}, {"bike_id": "15ab4e98cad2d1c6478ccff2a3c4a66a", "lon": -77.02713383333334, "lat": 38.90847083333333, "fusion_lon": 0.0, "rental_uris": {"ios": "https://dc.lft.to/lastmile_qr_scan", "android": "https://dc.lft.to/lastmile_qr_scan"}, "is_disabled": 0, "is_reserved": 0, "name": "15ab4e98cad2d1c6478ccff2a3c4a66a", "type": "electric_scooter", "fusion_lat": 0.0}, {"bike_id": "49bb8890cf74e0dd1a821f2e45b01e53", "lon": -77.015942, "lat": 38.908785333333334, "fusion_lon": 0.0, "rental_uris": {"ios": "https://dc.lft.to/lastmile_qr_scan", "android": "https://dc.lft.to/lastmile_qr_scan"}, "is_disabled": 0, "is_reserved": 0, "name": "49bb8890cf74e0dd1a821f2e45b01e53", "type": "electric_scooter", "fusion_lat": 0.0}, {"bike_id": "719011a52b41c3881a7ad7e1d941e4eb", "lon": -77.04087083333333, "lat": 38.9055495, "fusion_lon": 0.0, "rental_uris": {"ios": "https://dc.lft.to/lastmile_qr_scan", "android": "https://dc.lft.to/lastmile_qr_scan"}, "is_disabled": 0, "is_reserved": 0, "name": "719011a52b41c3881a7ad7e1d941e4eb", "type": "electric_scooter", "fusion_lat": 0.0}, {"bike_id": "076772f1601fcc80f2f513182c0a93d8", "lon": -76.99828416666666, "lat": 38.87681216666667, "fusion_lon": 0.0, "rental_uris": {"ios": "https://dc.lft.to/lastmile_qr_scan", "android": "https://dc.lft.to/lastmile_qr_scan"}, "is_disabled": 0, "is_reserved": 0, "name": "076772f1601fcc80f2f513182c0a93d8", "type": "electric_scooter", "fusion_lat": 0.0}, {"bike_id": "e7c7bcb906fcdac7607ad153cc196473", "lon": -77.04025066666667, "lat": 38.91796, "fusion_lon": 0.0, "rental_uris": {"ios": "https://dc.lft.to/lastmile_qr_scan", "android": "https://dc.lft.to/lastmile_qr_scan"}, "is_disabled": 0, "is_reserved": 0, "name": "e7c7bcb906fcdac7607ad153cc196473", "type": "electric_scooter", "fusion_lat": 0.0}, {"bike_id": "a714369c2ee02ca69a473e1b9c3910c3", "lon": -77.02498133333333, "lat": 38.8991395, "fusion_lon": 0.0, "rental_uris": {"ios": "https://dc.lft.to/lastmile_qr_scan", "android": "https://dc.lft.to/lastmile_qr_scan"}, "is_disabled": 0, "is_reserved": 0, "name": "a714369c2ee02ca69a473e1b9c3910c3", "type": "electric_scooter", "fusion_lat": 0.0}, {"bike_id": "2fc1a87992c1068819fac466234cf171", "lon": -76.9992485, "lat": 39.039907666666664, "fusion_lon": 0.0, "rental_uris": {"ios": "https://dc.lft.to/lastmile_qr_scan", "android": "https://dc.lft.to/lastmile_qr_scan"}, "is_disabled": 0, "is_reserved": 0, "name": "2fc1a87992c1068819fac466234cf171", "type": "electric_bike", "fusion_lat": 0.0}, {"bike_id": "d8f3ba2be7e0a532dc363024e97e808b", "lon": -77.0278065, "lat": 38.9553045, "fusion_lon": 0.0, "rental_uris": {"ios": "https://dc.lft.to/lastmile_qr_scan", "android": "https://dc.lft.to/lastmile_qr_scan"}, "is_disabled": 0, "is_reserved": 0, "name": "d8f3ba2be7e0a532dc363024e97e808b", "type": "electric_scooter", "fusion_lat": 0.0}, {"bike_id": "e5e23ff0dd8fcfe3d49bc6ae51fc7b1f", "lon": -77.0168245, "lat": 38.971237333333335, "fusion_lon": 0.0, "rental_uris": {"ios": "https://dc.lft.to/lastmile_qr_scan", "android": "https://dc.lft.to/lastmile_qr_scan"}, "is_disabled": 0, "is_reserved": 0, "name": "e5e23ff0dd8fcfe3d49bc6ae51fc7b1f", "type": "electric_scooter", "fusion_lat": 0.0}, {"bike_id": "02188b4b45743490acadb3b8744f7e06", "lon": -77.0581905, "lat": 38.93529916666667, "fusion_lon": 0.0, "rental_uris": {"ios": "https://dc.lft.to/lastmile_qr_scan", "android": "https://dc.lft.to/lastmile_qr_scan"}, "is_disabled": 0, "is_reserved": 0, "name": "02188b4b45743490acadb3b8744f7e06", "type": "electric_scooter", "fusion_lat": 0.0}, {"bike_id": "8724d41367ad55873421d916f571677c", "lon": -77.03677133333333, "lat": 38.9080075, "fusion_lon": 0.0, "rental_uris": {"ios": "https://dc.lft.to/lastmile_qr_scan", "android": "https://dc.lft.to/lastmile_qr_scan"}, "is_disabled": 0, "is_reserved": 0, "name": "8724d41367ad55873421d916f571677c", "type": "electric_scooter", "fusion_lat": 0.0}, {"bike_id": "0bda3103285df14aabd89958e1393096", "lon": -77.01714566666666, "lat": 38.89344833333333, "fusion_lon": 0.0, "rental_uris": {"ios": "https://dc.lft.to/lastmile_qr_scan", "android": "https://dc.lft.to/lastmile_qr_scan"}, "is_disabled": 0, "is_reserved": 0, "name": "0bda3103285df14aabd89958e1393096", "type": "electric_scooter", "fusion_lat": 0.0}, {"bike_id": "5e514b0b7c11fb75a97b49f3863920b3", "lon": -77.04339683333333, "lat": 38.92157133333333, "fusion_lon": 0.0, "rental_uris": {"ios": "https://dc.lft.to/lastmile_qr_scan", "android": "https://dc.lft.to/lastmile_qr_scan"}, "is_disabled": 0, "is_reserved": 0, "name": "5e514b0b7c11fb75a97b49f3863920b3", "type": "electric_scooter", "fusion_lat": 0.0}, {"bike_id": "d04a67507354b29afffa0593648a01f7", "lon": -77.0952495, "lat": 38.838092, "fusion_lon": 0.0, "rental_uris": {"ios": "https://dc.lft.to/lastmile_qr_scan", "android": "https://dc.lft.to/lastmile_qr_scan"}, "is_disabled": 0, "is_reserved": 0, "name": "d04a67507354b29afffa0593648a01f7", "type": "electric_bike", "fusion_lat": 0.0}, {"bike_id": "26d233c781e675fa5bc3f1766baae28b", "lon": -77.030661, "lat": 38.92774266666667, "fusion_lon": 0.0, "rental_uris": {"ios": "https://dc.lft.to/lastmile_qr_scan", "android": "https://dc.lft.to/lastmile_qr_scan"}, "is_disabled": 0, "is_reserved": 0, "name": "26d233c781e675fa5bc3f1766baae28b", "type": "electric_scooter", "fusion_lat": 0.0}, {"bike_id": "9cf83d6f6929c5279f2c89fc0c33721f", "lon": -77.02732816666666, "lat": 38.95177233333333, "fusion_lon": 0.0, "rental_uris": {"ios": "https://dc.lft.to/lastmile_qr_scan", "android": "https://dc.lft.to/lastmile_qr_scan"}, "is_disabled": 0, "is_reserved": 0, "name": "9cf83d6f6929c5279f2c89fc0c33721f", "type": "electric_scooter", "fusion_lat": 0.0}, {"bike_id": "ab9af0dd3a5d83f1e409af3814c0769e", "lon": -76.98748233333333, "lat": 38.857648833333336, "fusion_lon": 0.0, "rental_uris": {"ios": "https://dc.lft.to/lastmile_qr_scan", "android": "https://dc.lft.to/lastmile_qr_scan"}, "is_disabled": 0, "is_reserved": 0, "name": "ab9af0dd3a5d83f1e409af3814c0769e", "type": "electric_bike", "fusion_lat": 0.0}, {"bike_id": "c413153d901c95f5fd45dc1edfcaabef", "lon": -76.9771735, "lat": 38.89899833333333, "fusion_lon": 0.0, "rental_uris": {"ios": "https://dc.lft.to/lastmile_qr_scan", "android": "https://dc.lft.to/lastmile_qr_scan"}, "is_disabled": 0, "is_reserved": 0, "name": "c413153d901c95f5fd45dc1edfcaabef", "type": "electric_scooter", "fusion_lat": 0.0}, {"bike_id": "1440b10e7ee31565280fc61ce65f611e", "lon": -77.0477705, "lat": 38.9186215, "fusion_lon": 0.0, "rental_uris": {"ios": "https://dc.lft.to/lastmile_qr_scan", "android": "https://dc.lft.to/lastmile_qr_scan"}, "is_disabled": 0, "is_reserved": 0, "name": "1440b10e7ee31565280fc61ce65f611e", "type": "electric_scooter", "fusion_lat": 0.0}, {"bike_id": "1e6fbd4f06a57e576b0f8cffc7c06f14", "lon": -77.02483533333333, "lat": 38.88012583333333, "fusion_lon": 0.0, "rental_uris": {"ios": "https://dc.lft.to/lastmile_qr_scan", "android": "https://dc.lft.to/lastmile_qr_scan"}, "is_disabled": 0, "is_reserved": 0, "name": "1e6fbd4f06a57e576b0f8cffc7c06f14", "type": "electric_scooter", "fusion_lat": 0.0}, {"bike_id": "213d66dd21b242f3045d98e867a36e5c", "lon": -76.9909995, "lat": 38.88599716666667, "fusion_lon": 0.0, "rental_uris": {"ios": "https://dc.lft.to/lastmile_qr_scan", "android": "https://dc.lft.to/lastmile_qr_scan"}, "is_disabled": 0, "is_reserved": 0, "name": "213d66dd21b242f3045d98e867a36e5c", "type": "electric_scooter", "fusion_lat": 0.0}, {"bike_id": "524454b6997fdac153d7edd6693ef781", "lon": -77.021775, "lat": 38.91117583333333, "fusion_lon": 0.0, "rental_uris": {"ios": "https://dc.lft.to/lastmile_qr_scan", "android": "https://dc.lft.to/lastmile_qr_scan"}, "is_disabled": 0, "is_reserved": 0, "name": "524454b6997fdac153d7edd6693ef781", "type": "electric_scooter", "fusion_lat": 0.0}, {"bike_id": "f086875cc3e176d7b6abde688e83d9ce", "lon": -77.045503, "lat": 38.89611333333333, "fusion_lon": 0.0, "rental_uris": {"ios": "https://dc.lft.to/lastmile_qr_scan", "android": "https://dc.lft.to/lastmile_qr_scan"}, "is_disabled": 0, "is_reserved": 0, "name": "f086875cc3e176d7b6abde688e83d9ce", "type": "electric_scooter", "fusion_lat": 0.0}, {"bike_id": "0f2a84ec8adbdd09d9ffb116904c23cf", "lon": -77.0434525, "lat": 38.90879833333334, "fusion_lon": 0.0, "rental_uris": {"ios": "https://dc.lft.to/lastmile_qr_scan", "android": "https://dc.lft.to/lastmile_qr_scan"}, "is_disabled": 0, "is_reserved": 0, "name": "0f2a84ec8adbdd09d9ffb116904c23cf", "type": "electric_scooter", "fusion_lat": 0.0}, {"bike_id": "07a3dceaf956833ccc4e8cefd7dda4bc", "lon": -77.051489, "lat": 38.902520833333334, "fusion_lon": 0.0, "rental_uris": {"ios": "https://dc.lft.to/lastmile_qr_scan", "android": "https://dc.lft.to/lastmile_qr_scan"}, "is_disabled": 0, "is_reserved": 0, "name": "07a3dceaf956833ccc4e8cefd7dda4bc", "type": "electric_scooter", "fusion_lat": 0.0}, {"bike_id": "9d00fc14fab2bd29b53211452a062d91", "lon": -77.022023, "lat": 38.9161575, "fusion_lon": 0.0, "rental_uris": {"ios": "https://dc.lft.to/lastmile_qr_scan", "android": "https://dc.lft.to/lastmile_qr_scan"}, "is_disabled": 0, "is_reserved": 0, "name": "9d00fc14fab2bd29b53211452a062d91", "type": "electric_scooter", "fusion_lat": 0.0}, {"bike_id": "a0dd03a11b29f269344e4162c7c65019", "lon": -77.03277566666667, "lat": 38.928485333333334, "fusion_lon": 0.0, "rental_uris": {"ios": "https://dc.lft.to/lastmile_qr_scan", "android": "https://dc.lft.to/lastmile_qr_scan"}, "is_disabled": 0, "is_reserved": 0, "name": "a0dd03a11b29f269344e4162c7c65019", "type": "electric_scooter", "fusion_lat": 0.0}, {"bike_id": "3d6ceff0469182e8faaab1681594d559", "lon": -77.0417075, "lat": 38.90632383333333, "fusion_lon": 0.0, "rental_uris": {"ios": "https://dc.lft.to/lastmile_qr_scan", "android": "https://dc.lft.to/lastmile_qr_scan"}, "is_disabled": 0, "is_reserved": 0, "name": "3d6ceff0469182e8faaab1681594d559", "type": "electric_scooter", "fusion_lat": 0.0}, {"bike_id": "df9d9b78a4ae34d2264c777d809c3525", "lon": -76.97331199999999, "lat": 38.90408466666667, "fusion_lon": 0.0, "rental_uris": {"ios": "https://dc.lft.to/lastmile_qr_scan", "android": "https://dc.lft.to/lastmile_qr_scan"}, "is_disabled": 0, "is_reserved": 0, "name": "df9d9b78a4ae34d2264c777d809c3525", "type": "electric_scooter", "fusion_lat": 0.0}, {"bike_id": "446dcc34ff104e101d8b0aa86573edef", "lon": -76.9213895, "lat": 39.01370983333333, "fusion_lon": 0.0, "rental_uris": {"ios": "https://dc.lft.to/lastmile_qr_scan", "android": "https://dc.lft.to/lastmile_qr_scan"}, "is_disabled": 0, "is_reserved": 0, "name": "446dcc34ff104e101d8b0aa86573edef", "type": "electric_bike", "fusion_lat": 0.0}, {"bike_id": "34ad91f8e107392c944c68cafcd84084", "lon": -76.99611566666667, "lat": 38.88575016666667, "fusion_lon": 0.0, "rental_uris": {"ios": "https://dc.lft.to/lastmile_qr_scan", "android": "https://dc.lft.to/lastmile_qr_scan"}, "is_disabled": 0, "is_reserved": 0, "name": "34ad91f8e107392c944c68cafcd84084", "type": "electric_scooter", "fusion_lat": 0.0}, {"bike_id": "33f0acc43d55137c4519bc3868660c4e", "lon": -77.04335933333333, "lat": 38.892259333333335, "fusion_lon": 0.0, "rental_uris": {"ios": "https://dc.lft.to/lastmile_qr_scan", "android": "https://dc.lft.to/lastmile_qr_scan"}, "is_disabled": 0, "is_reserved": 0, "name": "33f0acc43d55137c4519bc3868660c4e", "type": "electric_scooter", "fusion_lat": 0.0}, {"bike_id": "bd5718c6aa190386b0dc151d96abdb21", "lon": -77.03853383333333, "lat": 38.91963466666667, "fusion_lon": 0.0, "rental_uris": {"ios": "https://dc.lft.to/lastmile_qr_scan", "android": "https://dc.lft.to/lastmile_qr_scan"}, "is_disabled": 0, "is_reserved": 0, "name": "bd5718c6aa190386b0dc151d96abdb21", "type": "electric_scooter", "fusion_lat": 0.0}, {"bike_id": "29708ca1a8abb78fcceb5f78d23cab1e", "lon": -77.02801616666666, "lat": 38.906150333333336, "fusion_lon": 0.0, "rental_uris": {"ios": "https://dc.lft.to/lastmile_qr_scan", "android": "https://dc.lft.to/lastmile_qr_scan"}, "is_disabled": 0, "is_reserved": 0, "name": "29708ca1a8abb78fcceb5f78d23cab1e", "type": "electric_scooter", "fusion_lat": 0.0}, {"bike_id": "16ce21b5105bf17930d05fd707798ccc", "lon": -77.033845, "lat": 38.919615, "fusion_lon": 0.0, "rental_uris": {"ios": "https://dc.lft.to/lastmile_qr_scan", "android": "https://dc.lft.to/lastmile_qr_scan"}, "is_disabled": 0, "is_reserved": 0, "name": "16ce21b5105bf17930d05fd707798ccc", "type": "electric_scooter", "fusion_lat": 0.0}, {"bike_id": "ef53cd74c56f9886707a304fad1ecddc", "lon": -77.07380916666666, "lat": 38.91926616666667, "fusion_lon": 0.0, "rental_uris": {"ios": "https://dc.lft.to/lastmile_qr_scan", "android": "https://dc.lft.to/lastmile_qr_scan"}, "is_disabled": 0, "is_reserved": 0, "name": "ef53cd74c56f9886707a304fad1ecddc", "type": "electric_bike", "fusion_lat": 0.0}, {"bike_id": "cde94cecc5c3cd2a38588fdf1a8f8bfd", "lon": -77.0158215, "lat": 38.91698216666666, "fusion_lon": 0.0, "rental_uris": {"ios": "https://dc.lft.to/lastmile_qr_scan", "android": "https://dc.lft.to/lastmile_qr_scan"}, "is_disabled": 0, "is_reserved": 0, "name": "cde94cecc5c3cd2a38588fdf1a8f8bfd", "type": "electric_scooter", "fusion_lat": 0.0}, {"bike_id": "44d62c1235f8622b6bbfcf7b6d7f0c93", "lon": -76.99939016666667, "lat": 38.84311616666667, "fusion_lon": 0.0, "rental_uris": {"ios": "https://dc.lft.to/lastmile_qr_scan", "android": "https://dc.lft.to/lastmile_qr_scan"}, "is_disabled": 0, "is_reserved": 0, "name": "44d62c1235f8622b6bbfcf7b6d7f0c93", "type": "electric_scooter", "fusion_lat": 0.0}, {"bike_id": "6b24f4738ba2b50ebf6736e9046eb001", "lon": -77.0336415, "lat": 38.90943, "fusion_lon": 0.0, "rental_uris": {"ios": "https://dc.lft.to/lastmile_qr_scan", "android": "https://dc.lft.to/lastmile_qr_scan"}, "is_disabled": 0, "is_reserved": 0, "name": "6b24f4738ba2b50ebf6736e9046eb001", "type": "electric_scooter", "fusion_lat": 0.0}, {"bike_id": "9aeac80eb0db5346a1853bd7a18e7c00", "lon": -76.9881835, "lat": 38.90048316666667, "fusion_lon": 0.0, "rental_uris": {"ios": "https://dc.lft.to/lastmile_qr_scan", "android": "https://dc.lft.to/lastmile_qr_scan"}, "is_disabled": 0, "is_reserved": 0, "name": "9aeac80eb0db5346a1853bd7a18e7c00", "type": "electric_scooter", "fusion_lat": 0.0}, {"bike_id": "170509e5eb442abcd9c79c8635d19d4c", "lon": -77.02338416666667, "lat": 38.91678433333333, "fusion_lon": 0.0, "rental_uris": {"ios": "https://dc.lft.to/lastmile_qr_scan", "android": "https://dc.lft.to/lastmile_qr_scan"}, "is_disabled": 0, "is_reserved": 0, "name": "170509e5eb442abcd9c79c8635d19d4c", "type": "electric_scooter", "fusion_lat": 0.0}, {"bike_id": "e1bc80994ee3dcaa76c52f59046c5a03", "lon": -77.0085515, "lat": 38.882617333333336, "fusion_lon": 0.0, "rental_uris": {"ios": "https://dc.lft.to/lastmile_qr_scan", "android": "https://dc.lft.to/lastmile_qr_scan"}, "is_disabled": 0, "is_reserved": 0, "name": "e1bc80994ee3dcaa76c52f59046c5a03", "type": "electric_scooter", "fusion_lat": 0.0}, {"bike_id": "34460be69d46c2b5b7718c5b8c6f07d3", "lon": -77.050844, "lat": 38.923474166666665, "fusion_lon": 0.0, "rental_uris": {"ios": "https://dc.lft.to/lastmile_qr_scan", "android": "https://dc.lft.to/lastmile_qr_scan"}, "is_disabled": 0, "is_reserved": 0, "name": "34460be69d46c2b5b7718c5b8c6f07d3", "type": "electric_scooter", "fusion_lat": 0.0}, {"bike_id": "07ef102e0211e91c8b138af33f168f5a", "lon": -77.00201233333334, "lat": 38.873752333333336, "fusion_lon": 0.0, "rental_uris": {"ios": "https://dc.lft.to/lastmile_qr_scan", "android": "https://dc.lft.to/lastmile_qr_scan"}, "is_disabled": 0, "is_reserved": 0, "name": "07ef102e0211e91c8b138af33f168f5a", "type": "electric_scooter", "fusion_lat": 0.0}, {"bike_id": "d5fdbac7d41b606d9a670447f0eae6be", "lon": -77.01223883333333, "lat": 38.86978116666667, "fusion_lon": 0.0, "rental_uris": {"ios": "https://dc.lft.to/lastmile_qr_scan", "android": "https://dc.lft.to/lastmile_qr_scan"}, "is_disabled": 0, "is_reserved": 0, "name": "d5fdbac7d41b606d9a670447f0eae6be", "type": "electric_scooter", "fusion_lat": 0.0}, {"bike_id": "20595e981aba0366c6ba04a13b28261d", "lon": -76.999608, "lat": 38.903172833333336, "fusion_lon": 0.0, "rental_uris": {"ios": "https://dc.lft.to/lastmile_qr_scan", "android": "https://dc.lft.to/lastmile_qr_scan"}, "is_disabled": 0, "is_reserved": 0, "name": "20595e981aba0366c6ba04a13b28261d", "type": "electric_scooter", "fusion_lat": 0.0}, {"bike_id": "00563cf1d91a47c0bf4a64b9aa15086d", "lon": -77.02021566666667, "lat": 38.92439783333333, "fusion_lon": 0.0, "rental_uris": {"ios": "https://dc.lft.to/lastmile_qr_scan", "android": "https://dc.lft.to/lastmile_qr_scan"}, "is_disabled": 0, "is_reserved": 0, "name": "00563cf1d91a47c0bf4a64b9aa15086d", "type": "electric_scooter", "fusion_lat": 0.0}, {"bike_id": "336d88bba9015f4f39ee98d1858c823f", "lon": -76.993542, "lat": 38.95505683333333, "fusion_lon": 0.0, "rental_uris": {"ios": "https://dc.lft.to/lastmile_qr_scan", "android": "https://dc.lft.to/lastmile_qr_scan"}, "is_disabled": 0, "is_reserved": 0, "name": "336d88bba9015f4f39ee98d1858c823f", "type": "electric_bike", "fusion_lat": 0.0}, {"bike_id": "9a01aa3d3720d6afdb09d685eda1c77b", "lon": -77.02885633333334, "lat": 38.919459, "fusion_lon": 0.0, "rental_uris": {"ios": "https://dc.lft.to/lastmile_qr_scan", "android": "https://dc.lft.to/lastmile_qr_scan"}, "is_disabled": 0, "is_reserved": 0, "name": "9a01aa3d3720d6afdb09d685eda1c77b", "type": "electric_scooter", "fusion_lat": 0.0}, {"bike_id": "6baa47d012382c5f24738873a85049f6", "lon": -77.01514266666666, "lat": 38.9583865, "fusion_lon": 0.0, "rental_uris": {"ios": "https://dc.lft.to/lastmile_qr_scan", "android": "https://dc.lft.to/lastmile_qr_scan"}, "is_disabled": 0, "is_reserved": 0, "name": "6baa47d012382c5f24738873a85049f6", "type": "electric_scooter", "fusion_lat": 0.0}, {"bike_id": "79abef975e2fe6b37b69708d2e4a8a6d", "lon": -77.04309116666667, "lat": 38.892226, "fusion_lon": 0.0, "rental_uris": {"ios": "https://dc.lft.to/lastmile_qr_scan", "android": "https://dc.lft.to/lastmile_qr_scan"}, "is_disabled": 0, "is_reserved": 0, "name": "79abef975e2fe6b37b69708d2e4a8a6d", "type": "electric_scooter", "fusion_lat": 0.0}, {"bike_id": "60662f5714b079c87ff2c4d676abd9cd", "lon": -77.0122755, "lat": 38.90031966666667, "fusion_lon": 0.0, "rental_uris": {"ios": "https://dc.lft.to/lastmile_qr_scan", "android": "https://dc.lft.to/lastmile_qr_scan"}, "is_disabled": 0, "is_reserved": 0, "name": "60662f5714b079c87ff2c4d676abd9cd", "type": "electric_scooter", "fusion_lat": 0.0}, {"bike_id": "a420d9673023c169cb80d85d9ed28f55", "lon": -77.0251795, "lat": 38.921403, "fusion_lon": 0.0, "rental_uris": {"ios": "https://dc.lft.to/lastmile_qr_scan", "android": "https://dc.lft.to/lastmile_qr_scan"}, "is_disabled": 0, "is_reserved": 0, "name": "a420d9673023c169cb80d85d9ed28f55", "type": "electric_scooter", "fusion_lat": 0.0}, {"bike_id": "cef3a0eb16deb6593ef444cd946d4854", "lon": -77.0272165, "lat": 38.95136, "fusion_lon": 0.0, "rental_uris": {"ios": "https://dc.lft.to/lastmile_qr_scan", "android": "https://dc.lft.to/lastmile_qr_scan"}, "is_disabled": 0, "is_reserved": 0, "name": "cef3a0eb16deb6593ef444cd946d4854", "type": "electric_scooter", "fusion_lat": 0.0}, {"bike_id": "4fe284739973586d526db372194d3f76", "lon": -77.02762333333334, "lat": 38.95616483333333, "fusion_lon": 0.0, "rental_uris": {"ios": "https://dc.lft.to/lastmile_qr_scan", "android": "https://dc.lft.to/lastmile_qr_scan"}, "is_disabled": 0, "is_reserved": 0, "name": "4fe284739973586d526db372194d3f76", "type": "electric_scooter", "fusion_lat": 0.0}, {"bike_id": "f074d5a987e1a0329c923bf772defb6d", "lon": -77.03195916666667, "lat": 38.930504166666665, "fusion_lon": 0.0, "rental_uris": {"ios": "https://dc.lft.to/lastmile_qr_scan", "android": "https://dc.lft.to/lastmile_qr_scan"}, "is_disabled": 0, "is_reserved": 0, "name": "f074d5a987e1a0329c923bf772defb6d", "type": "electric_scooter", "fusion_lat": 0.0}, {"bike_id": "d7eeeee824dbd3b522a924f0d4518fb3", "lon": -77.030768, "lat": 39.04231, "fusion_lon": 0.0, "rental_uris": {"ios": "https://dc.lft.to/lastmile_qr_scan", "android": "https://dc.lft.to/lastmile_qr_scan"}, "is_disabled": 0, "is_reserved": 0, "name": "d7eeeee824dbd3b522a924f0d4518fb3", "type": "electric_bike", "fusion_lat": 0.0}, {"bike_id": "b3e654a7111080c11cebed76357d048d", "lon": -76.965073, "lat": 38.87647116666667, "fusion_lon": 0.0, "rental_uris": {"ios": "https://dc.lft.to/lastmile_qr_scan", "android": "https://dc.lft.to/lastmile_qr_scan"}, "is_disabled": 0, "is_reserved": 0, "name": "b3e654a7111080c11cebed76357d048d", "type": "electric_scooter", "fusion_lat": 0.0}, {"bike_id": "e1c1cbf7e088d6f7f956912efcb46d47", "lon": -77.02500916666666, "lat": 38.899168333333336, "fusion_lon": 0.0, "rental_uris": {"ios": "https://dc.lft.to/lastmile_qr_scan", "android": "https://dc.lft.to/lastmile_qr_scan"}, "is_disabled": 0, "is_reserved": 0, "name": "e1c1cbf7e088d6f7f956912efcb46d47", "type": "electric_scooter", "fusion_lat": 0.0}, {"bike_id": "29266a1f88f87baf466cf02e5aa4a237", "lon": -76.9904245, "lat": 38.863870666666664, "fusion_lon": 0.0, "rental_uris": {"ios": "https://dc.lft.to/lastmile_qr_scan", "android": "https://dc.lft.to/lastmile_qr_scan"}, "is_disabled": 0, "is_reserved": 0, "name": "29266a1f88f87baf466cf02e5aa4a237", "type": "electric_scooter", "fusion_lat": 0.0}, {"bike_id": "0564000c8ad88cc5d3e2c46b6837b36b", "lon": -76.98673116666667, "lat": 38.899674833333336, "fusion_lon": 0.0, "rental_uris": {"ios": "https://dc.lft.to/lastmile_qr_scan", "android": "https://dc.lft.to/lastmile_qr_scan"}, "is_disabled": 0, "is_reserved": 0, "name": "0564000c8ad88cc5d3e2c46b6837b36b", "type": "electric_bike", "fusion_lat": 0.0}, {"bike_id": "141eb39d0cb7e8a9e4b9d78bef077e30", "lon": -77.01458266666667, "lat": 38.926632833333336, "fusion_lon": 0.0, "rental_uris": {"ios": "https://dc.lft.to/lastmile_qr_scan", "android": "https://dc.lft.to/lastmile_qr_scan"}, "is_disabled": 0, "is_reserved": 0, "name": "141eb39d0cb7e8a9e4b9d78bef077e30", "type": "electric_scooter", "fusion_lat": 0.0}, {"bike_id": "12eb89766b5c4fbd1e75466c53e1df04", "lon": -76.99267716666667, "lat": 38.910854, "fusion_lon": 0.0, "rental_uris": {"ios": "https://dc.lft.to/lastmile_qr_scan", "android": "https://dc.lft.to/lastmile_qr_scan"}, "is_disabled": 0, "is_reserved": 0, "name": "12eb89766b5c4fbd1e75466c53e1df04", "type": "electric_scooter", "fusion_lat": 0.0}, {"bike_id": "351c99011716c9ae26c9da06d59ed26c", "lon": -76.93042816666667, "lat": 38.883977, "fusion_lon": 0.0, "rental_uris": {"ios": "https://dc.lft.to/lastmile_qr_scan", "android": "https://dc.lft.to/lastmile_qr_scan"}, "is_disabled": 0, "is_reserved": 0, "name": "351c99011716c9ae26c9da06d59ed26c", "type": "electric_scooter", "fusion_lat": 0.0}, {"bike_id": "d6def63d2012295de3f8ea9ba486b464", "lon": -77.0901845, "lat": 38.93624633333334, "fusion_lon": 0.0, "rental_uris": {"ios": "https://dc.lft.to/lastmile_qr_scan", "android": "https://dc.lft.to/lastmile_qr_scan"}, "is_disabled": 0, "is_reserved": 0, "name": "d6def63d2012295de3f8ea9ba486b464", "type": "electric_bike", "fusion_lat": 0.0}, {"bike_id": "18a7c3dcfb8819d7f4219ec5980d727d", "lon": -77.0417065, "lat": 38.90140616666667, "fusion_lon": 0.0, "rental_uris": {"ios": "https://dc.lft.to/lastmile_qr_scan", "android": "https://dc.lft.to/lastmile_qr_scan"}, "is_disabled": 0, "is_reserved": 0, "name": "18a7c3dcfb8819d7f4219ec5980d727d", "type": "electric_scooter", "fusion_lat": 0.0}, {"bike_id": "761fb6d427cedea28fc009655d674553", "lon": -77.02800483333333, "lat": 38.9309695, "fusion_lon": 0.0, "rental_uris": {"ios": "https://dc.lft.to/lastmile_qr_scan", "android": "https://dc.lft.to/lastmile_qr_scan"}, "is_disabled": 0, "is_reserved": 0, "name": "761fb6d427cedea28fc009655d674553", "type": "electric_scooter", "fusion_lat": 0.0}, {"bike_id": "f7a59b9c6843410109f726c5e7ca0363", "lon": -77.07047533333333, "lat": 38.8013045, "fusion_lon": 0.0, "rental_uris": {"ios": "https://dc.lft.to/lastmile_qr_scan", "android": "https://dc.lft.to/lastmile_qr_scan"}, "is_disabled": 0, "is_reserved": 0, "name": "f7a59b9c6843410109f726c5e7ca0363", "type": "electric_bike", "fusion_lat": 0.0}, {"bike_id": "6a23eefaeda2ff5b776816492b0e3e1f", "lon": -77.03184683333333, "lat": 38.91571283333333, "fusion_lon": 0.0, "rental_uris": {"ios": "https://dc.lft.to/lastmile_qr_scan", "android": "https://dc.lft.to/lastmile_qr_scan"}, "is_disabled": 0, "is_reserved": 0, "name": "6a23eefaeda2ff5b776816492b0e3e1f", "type": "electric_scooter", "fusion_lat": 0.0}, {"bike_id": "9175f5fa2ac960ba55ca4bd82ef0607a", "lon": -77.006112, "lat": 38.87182516666667, "fusion_lon": 0.0, "rental_uris": {"ios": "https://dc.lft.to/lastmile_qr_scan", "android": "https://dc.lft.to/lastmile_qr_scan"}, "is_disabled": 0, "is_reserved": 0, "name": "9175f5fa2ac960ba55ca4bd82ef0607a", "type": "electric_scooter", "fusion_lat": 0.0}, {"bike_id": "d08ce70432b20decee71bba0327273e0", "lon": -77.0347015, "lat": 38.90876333333333, "fusion_lon": 0.0, "rental_uris": {"ios": "https://dc.lft.to/lastmile_qr_scan", "android": "https://dc.lft.to/lastmile_qr_scan"}, "is_disabled": 0, "is_reserved": 0, "name": "d08ce70432b20decee71bba0327273e0", "type": "electric_scooter", "fusion_lat": 0.0}, {"bike_id": "7d1d95557e2c840658951c5aa835cee5", "lon": -77.02529066666666, "lat": 38.91815, "fusion_lon": 0.0, "rental_uris": {"ios": "https://dc.lft.to/lastmile_qr_scan", "android": "https://dc.lft.to/lastmile_qr_scan"}, "is_disabled": 0, "is_reserved": 0, "name": "7d1d95557e2c840658951c5aa835cee5", "type": "electric_scooter", "fusion_lat": 0.0}, {"bike_id": "d0b853df45292d4f91d461b3aa1c2f3e", "lon": -77.00065016666667, "lat": 38.87938466666667, "fusion_lon": 0.0, "rental_uris": {"ios": "https://dc.lft.to/lastmile_qr_scan", "android": "https://dc.lft.to/lastmile_qr_scan"}, "is_disabled": 0, "is_reserved": 0, "name": "d0b853df45292d4f91d461b3aa1c2f3e", "type": "electric_scooter", "fusion_lat": 0.0}, {"bike_id": "26ce2fd912159330a7c00be18073a341", "lon": -76.981656, "lat": 38.898539, "fusion_lon": 0.0, "rental_uris": {"ios": "https://dc.lft.to/lastmile_qr_scan", "android": "https://dc.lft.to/lastmile_qr_scan"}, "is_disabled": 0, "is_reserved": 0, "name": "26ce2fd912159330a7c00be18073a341", "type": "electric_scooter", "fusion_lat": 0.0}, {"bike_id": "b51f16bee92dd9f792023ea196be29f8", "lon": -77.036705, "lat": 38.9224165, "fusion_lon": 0.0, "rental_uris": {"ios": "https://dc.lft.to/lastmile_qr_scan", "android": "https://dc.lft.to/lastmile_qr_scan"}, "is_disabled": 0, "is_reserved": 0, "name": "b51f16bee92dd9f792023ea196be29f8", "type": "electric_scooter", "fusion_lat": 0.0}, {"bike_id": "c627e44781e3213025c5da64d2391da7", "lon": -76.9557725, "lat": 38.886152833333334, "fusion_lon": 0.0, "rental_uris": {"ios": "https://dc.lft.to/lastmile_qr_scan", "android": "https://dc.lft.to/lastmile_qr_scan"}, "is_disabled": 0, "is_reserved": 0, "name": "c627e44781e3213025c5da64d2391da7", "type": "electric_scooter", "fusion_lat": 0.0}, {"bike_id": "aaf64e703d4b3269cf5132fbb3047e44", "lon": -77.02298966666666, "lat": 38.87879233333334, "fusion_lon": 0.0, "rental_uris": {"ios": "https://dc.lft.to/lastmile_qr_scan", "android": "https://dc.lft.to/lastmile_qr_scan"}, "is_disabled": 0, "is_reserved": 0, "name": "aaf64e703d4b3269cf5132fbb3047e44", "type": "electric_bike", "fusion_lat": 0.0}, {"bike_id": "98aa7846b002d54b06d545a3aa6fd2b2", "lon": -76.9904515, "lat": 38.863881, "fusion_lon": 0.0, "rental_uris": {"ios": "https://dc.lft.to/lastmile_qr_scan", "android": "https://dc.lft.to/lastmile_qr_scan"}, "is_disabled": 0, "is_reserved": 0, "name": "98aa7846b002d54b06d545a3aa6fd2b2", "type": "electric_scooter", "fusion_lat": 0.0}, {"bike_id": "b311ebfdf0ed1b1f2e803f254b234763", "lon": -77.03212766666667, "lat": 38.91920416666667, "fusion_lon": 0.0, "rental_uris": {"ios": "https://dc.lft.to/lastmile_qr_scan", "android": "https://dc.lft.to/lastmile_qr_scan"}, "is_disabled": 0, "is_reserved": 0, "name": "b311ebfdf0ed1b1f2e803f254b234763", "type": "electric_scooter", "fusion_lat": 0.0}, {"bike_id": "9ea03023d99a269aa7450dbf74ff0a58", "lon": -77.0617275, "lat": 38.80710716666667, "fusion_lon": 0.0, "rental_uris": {"ios": "https://dc.lft.to/lastmile_qr_scan", "android": "https://dc.lft.to/lastmile_qr_scan"}, "is_disabled": 0, "is_reserved": 0, "name": "9ea03023d99a269aa7450dbf74ff0a58", "type": "electric_bike", "fusion_lat": 0.0}, {"bike_id": "2d42fd57b1282c10029416db8e163b7a", "lon": -77.02829633333333, "lat": 38.88731133333334, "fusion_lon": 0.0, "rental_uris": {"ios": "https://dc.lft.to/lastmile_qr_scan", "android": "https://dc.lft.to/lastmile_qr_scan"}, "is_disabled": 0, "is_reserved": 0, "name": "2d42fd57b1282c10029416db8e163b7a", "type": "electric_scooter", "fusion_lat": 0.0}, {"bike_id": "0fea8bbfc612fdaf4c6e425cafe3c013", "lon": -77.04660183333333, "lat": 38.8975615, "fusion_lon": 0.0, "rental_uris": {"ios": "https://dc.lft.to/lastmile_qr_scan", "android": "https://dc.lft.to/lastmile_qr_scan"}, "is_disabled": 0, "is_reserved": 0, "name": "0fea8bbfc612fdaf4c6e425cafe3c013", "type": "electric_scooter", "fusion_lat": 0.0}, {"bike_id": "0080f1efc40d46e0635cdb1df9456ff9", "lon": -77.03179016666667, "lat": 38.88470816666667, "fusion_lon": 0.0, "rental_uris": {"ios": "https://dc.lft.to/lastmile_qr_scan", "android": "https://dc.lft.to/lastmile_qr_scan"}, "is_disabled": 0, "is_reserved": 0, "name": "0080f1efc40d46e0635cdb1df9456ff9", "type": "electric_scooter", "fusion_lat": 0.0}, {"bike_id": "0051656b3d8a88e1f1d695dfa3b6c454", "lon": -77.0130845, "lat": 38.9006665, "fusion_lon": 0.0, "rental_uris": {"ios": "https://dc.lft.to/lastmile_qr_scan", "android": "https://dc.lft.to/lastmile_qr_scan"}, "is_disabled": 0, "is_reserved": 0, "name": "0051656b3d8a88e1f1d695dfa3b6c454", "type": "electric_scooter", "fusion_lat": 0.0}, {"bike_id": "a719a50465a862c4e7e0c2319d5e5c17", "lon": -76.97549133333334, "lat": 38.9032265, "fusion_lon": 0.0, "rental_uris": {"ios": "https://dc.lft.to/lastmile_qr_scan", "android": "https://dc.lft.to/lastmile_qr_scan"}, "is_disabled": 0, "is_reserved": 0, "name": "a719a50465a862c4e7e0c2319d5e5c17", "type": "electric_scooter", "fusion_lat": 0.0}, {"bike_id": "67a578e69018a611b0bcb44a935f9f14", "lon": -77.01422316666667, "lat": 38.92837816666667, "fusion_lon": 0.0, "rental_uris": {"ios": "https://dc.lft.to/lastmile_qr_scan", "android": "https://dc.lft.to/lastmile_qr_scan"}, "is_disabled": 0, "is_reserved": 0, "name": "67a578e69018a611b0bcb44a935f9f14", "type": "electric_scooter", "fusion_lat": 0.0}, {"bike_id": "e9e854c9ae5beb8098f5b1047f5a8625", "lon": -77.043695, "lat": 38.9013105, "fusion_lon": 0.0, "rental_uris": {"ios": "https://dc.lft.to/lastmile_qr_scan", "android": "https://dc.lft.to/lastmile_qr_scan"}, "is_disabled": 0, "is_reserved": 0, "name": "e9e854c9ae5beb8098f5b1047f5a8625", "type": "electric_scooter", "fusion_lat": 0.0}, {"bike_id": "1692a6ad32b11fd6f737875c936cab6b", "lon": -76.98589616666666, "lat": 38.8669945, "fusion_lon": 0.0, "rental_uris": {"ios": "https://dc.lft.to/lastmile_qr_scan", "android": "https://dc.lft.to/lastmile_qr_scan"},