{"data": {"bikes": [{"rental_uris": {"ios": "https://dc.lft.to/lastmile_qr_scan", "android": "https://dc.lft.to/lastmile_qr_scan"}, "lon": -76.99806633333333, "type": "electric_scooter", "fusion_lat": 0.0, "lat": 38.90008366666667, "name": "0c708536068ab96a45758ef83844bc76", "fusion_lon": 0.0, "bike_id": "0c708536068ab96a45758ef83844bc76", "is_disabled": 0, "is_reserved": 0}, {"rental_uris": {"ios": "https://dc.lft.to/lastmile_qr_scan", "android": "https://dc.lft.to/lastmile_qr_scan"}, "lon": -77.02841566666666, "type": "electric_scooter", "fusion_lat": 0.0, "lat": 38.942649833333334, "name": "5d57befe79114edf90e5e9aa365faea0", "fusion_lon": 0.0, "bike_id": "5d57befe79114edf90e5e9aa365faea0", "is_disabled": 0, "is_reserved": 0}, {"rental_uris": {"ios": "https://dc.lft.to/lastmile_qr_scan", "android": "https://dc.lft.to/lastmile_qr_scan"}, "lon": -77.00727333333333, "type": "electric_scooter", "fusion_lat": 0.0, "lat": 38.884944, "name": "6b78987235ae56695746da6390e2e214", "fusion_lon": 0.0, "bike_id": "6b78987235ae56695746da6390e2e214", "is_disabled": 0, "is_reserved": 0}, {"rental_uris": {"ios": "https://dc.lft.to/lastmile_qr_scan", "android": "https://dc.lft.to/lastmile_qr_scan"}, "lon": -77.35311916666667, "type": "electric_bike", "fusion_lat": 0.0, "lat": 38.950059833333334, "name": "3bfed70cd82b07beb3fe58737da374de", "fusion_lon": 0.0, "bike_id": "3bfed70cd82b07beb3fe58737da374de", "is_disabled": 0, "is_reserved": 0}, {"rental_uris": {"ios": "https://dc.lft.to/lastmile_qr_scan", "android": "https://dc.lft.to/lastmile_qr_scan"}, "lon": -77.047406, "type": "electric_scooter", "fusion_lat": 0.0, "lat": 38.91776016666667, "name": "2f370ee0379d48c68db6af3a8ee1580a", "fusion_lon": 0.0, "bike_id": "2f370ee0379d48c68db6af3a8ee1580a", "is_disabled": 0, "is_reserved": 0}, {"rental_uris": {"ios": "https://dc.lft.to/lastmile_qr_scan", "android": "https://dc.lft.to/lastmile_qr_scan"}, "lon": -77.02974116666667, "type": "electric_scooter", "fusion_lat": 0.0, "lat": 38.90615866666667, "name": "2dce876903336c069db654837559a0de", "fusion_lon": 0.0, "bike_id": "2dce876903336c069db654837559a0de", "is_disabled": 0, "is_reserved": 0}, {"rental_uris": {"ios": "https://dc.lft.to/lastmile_qr_scan", "android": "https://dc.lft.to/lastmile_qr_scan"}, "lon": -76.93176266666667, "type": "electric_scooter", "fusion_lat": 0.0, "lat": 38.898864833333334, "name": "dcfcffdd3829034009adf9b327120e7e", "fusion_lon": 0.0, "bike_id": "dcfcffdd3829034009adf9b327120e7e", "is_disabled": 0, "is_reserved": 0}, {"rental_uris": {"ios": "https://dc.lft.to/lastmile_qr_scan", "android": "https://dc.lft.to/lastmile_qr_scan"}, "lon": -77.0318395, "type": "electric_scooter", "fusion_lat": 0.0, "lat": 38.91920916666667, "name": "813f919a4319797323b738bbd5b799c0", "fusion_lon": 0.0, "bike_id": "813f919a4319797323b738bbd5b799c0", "is_disabled": 0, "is_reserved": 0}, {"rental_uris": {"ios": "https://dc.lft.to/lastmile_qr_scan", "android": "https://dc.lft.to/lastmile_qr_scan"}, "lon": -76.994821, "type": "electric_scooter", "fusion_lat": 0.0, "lat": 38.86234683333333, "name": "839a306683a71b0c7161b1afad33284a", "fusion_lon": 0.0, "bike_id": "839a306683a71b0c7161b1afad33284a", "is_disabled": 0, "is_reserved": 0}, {"rental_uris": {"ios": "https://dc.lft.to/lastmile_qr_scan", "android": "https://dc.lft.to/lastmile_qr_scan"}, "lon": -76.98609883333333, "type": "electric_bike", "fusion_lat": 0.0, "lat": 38.906334666666666, "name": "7bfe5bc27391b534429e465c3ef7e4dc", "fusion_lon": 0.0, "bike_id": "7bfe5bc27391b534429e465c3ef7e4dc", "is_disabled": 0, "is_reserved": 0}, {"rental_uris": {"ios": "https://dc.lft.to/lastmile_qr_scan", "android": "https://dc.lft.to/lastmile_qr_scan"}, "lon": -76.988871, "type": "electric_scooter", "fusion_lat": 0.0, "lat": 38.866595833333335, "name": "a35523b5de037df7bcb3d99e09811788", "fusion_lon": 0.0, "bike_id": "a35523b5de037df7bcb3d99e09811788", "is_disabled": 0, "is_reserved": 0}, {"rental_uris": {"ios": "https://dc.lft.to/lastmile_qr_scan", "android": "https://dc.lft.to/lastmile_qr_scan"}, "lon": -77.021763, "type": "electric_scooter", "fusion_lat": 0.0, "lat": 38.89646316666666, "name": "63a77af1cbb57a953434fa27bb24e86d", "fusion_lon": 0.0, "bike_id": "63a77af1cbb57a953434fa27bb24e86d", "is_disabled": 0, "is_reserved": 0}, {"rental_uris": {"ios": "https://dc.lft.to/lastmile_qr_scan", "android": "https://dc.lft.to/lastmile_qr_scan"}, "lon": -77.04169033333334, "type": "electric_scooter", "fusion_lat": 0.0, "lat": 38.909926666666664, "name": "3c2aeef6f22805deb32f109408c1e518", "fusion_lon": 0.0, "bike_id": "3c2aeef6f22805deb32f109408c1e518", "is_disabled": 0, "is_reserved": 0}, {"rental_uris": {"ios": "https://dc.lft.to/lastmile_qr_scan", "android": "https://dc.lft.to/lastmile_qr_scan"}, "lon": -77.05122533333333, "type": "electric_bike", "fusion_lat": 0.0, "lat": 38.999715, "name": "bd6f59151c32d55cbe7645cf20091193", "fusion_lon": 0.0, "bike_id": "bd6f59151c32d55cbe7645cf20091193", "is_disabled": 0, "is_reserved": 0}, {"rental_uris": {"ios": "https://dc.lft.to/lastmile_qr_scan", "android": "https://dc.lft.to/lastmile_qr_scan"}, "lon": -77.05008116666667, "type": "electric_scooter", "fusion_lat": 0.0, "lat": 38.892365, "name": "8015d1b888927bd26e007b792d70e3b1", "fusion_lon": 0.0, "bike_id": "8015d1b888927bd26e007b792d70e3b1", "is_disabled": 0, "is_reserved": 0}, {"rental_uris": {"ios": "https://dc.lft.to/lastmile_qr_scan", "android": "https://dc.lft.to/lastmile_qr_scan"}, "lon": -77.0021665, "type": "electric_scooter", "fusion_lat": 0.0, "lat": 38.90036033333333, "name": "21a5def1df3dd081e7a95b2052f1228e", "fusion_lon": 0.0, "bike_id": "21a5def1df3dd081e7a95b2052f1228e", "is_disabled": 0, "is_reserved": 0}, {"rental_uris": {"ios": "https://dc.lft.to/lastmile_qr_scan", "android": "https://dc.lft.to/lastmile_qr_scan"}, "lon": -77.0337495, "type": "electric_scooter", "fusion_lat": 0.0, "lat": 38.9287505, "name": "540e51f0427b1f86a75c63a9681ab101", "fusion_lon": 0.0, "bike_id": "540e51f0427b1f86a75c63a9681ab101", "is_disabled": 0, "is_reserved": 0}, {"rental_uris": {"ios": "https://dc.lft.to/lastmile_qr_scan", "android": "https://dc.lft.to/lastmile_qr_scan"}, "lon": -76.93162416666667, "type": "electric_scooter", "fusion_lat": 0.0, "lat": 38.8988195, "name": "fc2cc67a892bc9d3ec5ee45e6154d79b", "fusion_lon": 0.0, "bike_id": "fc2cc67a892bc9d3ec5ee45e6154d79b", "is_disabled": 0, "is_reserved": 0}, {"rental_uris": {"ios": "https://dc.lft.to/lastmile_qr_scan", "android": "https://dc.lft.to/lastmile_qr_scan"}, "lon": -76.98159183333334, "type": "electric_scooter", "fusion_lat": 0.0, "lat": 38.900243833333334, "name": "444a2f46407a3713e476a8f61e05d632", "fusion_lon": 0.0, "bike_id": "444a2f46407a3713e476a8f61e05d632", "is_disabled": 0, "is_reserved": 0}, {"rental_uris": {"ios": "https://dc.lft.to/lastmile_qr_scan", "android": "https://dc.lft.to/lastmile_qr_scan"}, "lon": -76.9630385, "type": "electric_bike", "fusion_lat": 0.0, "lat": 38.927095333333334, "name": "56539c33b1f54c9f9b4a875bc47bad31", "fusion_lon": 0.0, "bike_id": "56539c33b1f54c9f9b4a875bc47bad31", "is_disabled": 0, "is_reserved": 0}, {"rental_uris": {"ios": "https://dc.lft.to/lastmile_qr_scan", "android": "https://dc.lft.to/lastmile_qr_scan"}, "lon": -77.01187166666666, "type": "electric_scooter", "fusion_lat": 0.0, "lat": 38.900348666666666, "name": "6b5699007b74635d3f32346a39164f57", "fusion_lon": 0.0, "bike_id": "6b5699007b74635d3f32346a39164f57", "is_disabled": 0, "is_reserved": 0}, {"rental_uris": {"ios": "https://dc.lft.to/lastmile_qr_scan", "android": "https://dc.lft.to/lastmile_qr_scan"}, "lon": -77.04457416666666, "type": "electric_scooter", "fusion_lat": 0.0, "lat": 38.9111985, "name": "9572098532d85f79b73534c1a0d50a36", "fusion_lon": 0.0, "bike_id": "9572098532d85f79b73534c1a0d50a36", "is_disabled": 0, "is_reserved": 0}, {"rental_uris": {"ios": "https://dc.lft.to/lastmile_qr_scan", "android": "https://dc.lft.to/lastmile_qr_scan"}, "lon": -77.03846783333333, "type": "electric_scooter", "fusion_lat": 0.0, "lat": 38.909818, "name": "de46a3aa41c2a31ff77a925c3d4fcb49", "fusion_lon": 0.0, "bike_id": "de46a3aa41c2a31ff77a925c3d4fcb49", "is_disabled": 0, "is_reserved": 0}, {"rental_uris": {"ios": "https://dc.lft.to/lastmile_qr_scan", "android": "https://dc.lft.to/lastmile_qr_scan"}, "lon": -77.03958216666666, "type": "electric_scooter", "fusion_lat": 0.0, "lat": 38.892507333333334, "name": "3744f52ad8ed0108512e63830b2d84c9", "fusion_lon": 0.0, "bike_id": "3744f52ad8ed0108512e63830b2d84c9", "is_disabled": 0, "is_reserved": 0}, {"rental_uris": {"ios": "https://dc.lft.to/lastmile_qr_scan", "android": "https://dc.lft.to/lastmile_qr_scan"}, "lon": -77.04026466666667, "type": "electric_scooter", "fusion_lat": 0.0, "lat": 38.92451466666667, "name": "6422ffee3e04c05fe1f76f2390aec1a7", "fusion_lon": 0.0, "bike_id": "6422ffee3e04c05fe1f76f2390aec1a7", "is_disabled": 0, "is_reserved": 0}, {"rental_uris": {"ios": "https://dc.lft.to/lastmile_qr_scan", "android": "https://dc.lft.to/lastmile_qr_scan"}, "lon": -77.01937816666667, "type": "electric_scooter", "fusion_lat": 0.0, "lat": 38.949262, "name": "9f00e4b1b843538c5a4ec0290efb1a80", "fusion_lon": 0.0, "bike_id": "9f00e4b1b843538c5a4ec0290efb1a80", "is_disabled": 0, "is_reserved": 0}, {"rental_uris": {"ios": "https://dc.lft.to/lastmile_qr_scan", "android": "https://dc.lft.to/lastmile_qr_scan"}, "lon": -77.03810316666667, "type": "electric_scooter", "fusion_lat": 0.0, "lat": 38.90674716666667, "name": "967d2b03da31cadfb6750df5dd9b468d", "fusion_lon": 0.0, "bike_id": "967d2b03da31cadfb6750df5dd9b468d", "is_disabled": 0, "is_reserved": 0}, {"rental_uris": {"ios": "https://dc.lft.to/lastmile_qr_scan", "android": "https://dc.lft.to/lastmile_qr_scan"}, "lon": -77.03799366666667, "type": "electric_scooter", "fusion_lat": 0.0, "lat": 38.9122315, "name": "9766074e49ab19c8e0446c7cbe0bbe9e", "fusion_lon": 0.0, "bike_id": "9766074e49ab19c8e0446c7cbe0bbe9e", "is_disabled": 0, "is_reserved": 0}, {"rental_uris": {"ios": "https://dc.lft.to/lastmile_qr_scan", "android": "https://dc.lft.to/lastmile_qr_scan"}, "lon": -77.04340333333333, "type": "electric_scooter", "fusion_lat": 0.0, "lat": 38.89665816666667, "name": "a94996d71caa9288791f9e26496b7376", "fusion_lon": 0.0, "bike_id": "a94996d71caa9288791f9e26496b7376", "is_disabled": 0, "is_reserved": 0}, {"rental_uris": {"ios": "https://dc.lft.to/lastmile_qr_scan", "android": "https://dc.lft.to/lastmile_qr_scan"}, "lon": -77.01221883333334, "type": "electric_scooter", "fusion_lat": 0.0, "lat": 38.92031383333333, "name": "68e59cb805f5cd09472092cb81be031c", "fusion_lon": 0.0, "bike_id": "68e59cb805f5cd09472092cb81be031c", "is_disabled": 0, "is_reserved": 0}, {"rental_uris": {"ios": "https://dc.lft.to/lastmile_qr_scan", "android": "https://dc.lft.to/lastmile_qr_scan"}, "lon": -77.00202733333333, "type": "electric_scooter", "fusion_lat": 0.0, "lat": 38.90067416666667, "name": "375c3077cdcbce0a7be7c8f6f85846ae", "fusion_lon": 0.0, "bike_id": "375c3077cdcbce0a7be7c8f6f85846ae", "is_disabled": 0, "is_reserved": 0}, {"rental_uris": {"ios": "https://dc.lft.to/lastmile_qr_scan", "android": "https://dc.lft.to/lastmile_qr_scan"}, "lon": -77.04036883333333, "type": "electric_scooter", "fusion_lat": 0.0, "lat": 38.924322833333335, "name": "bbe5686355a8c1c9acda7a729b817ade", "fusion_lon": 0.0, "bike_id": "bbe5686355a8c1c9acda7a729b817ade", "is_disabled": 0, "is_reserved": 0}, {"rental_uris": {"ios": "https://dc.lft.to/lastmile_qr_scan", "android": "https://dc.lft.to/lastmile_qr_scan"}, "lon": -77.06378483333333, "type": "electric_scooter", "fusion_lat": 0.0, "lat": 38.908317, "name": "a04d5b4638fbb1fa9a2fb598b2fcf5de", "fusion_lon": 0.0, "bike_id": "a04d5b4638fbb1fa9a2fb598b2fcf5de", "is_disabled": 0, "is_reserved": 0}, {"rental_uris": {"ios": "https://dc.lft.to/lastmile_qr_scan", "android": "https://dc.lft.to/lastmile_qr_scan"}, "lon": -77.038507, "type": "electric_scooter", "fusion_lat": 0.0, "lat": 38.913367666666666, "name": "7c8b44de8e3d3d566d310ae8f267db0d", "fusion_lon": 0.0, "bike_id": "7c8b44de8e3d3d566d310ae8f267db0d", "is_disabled": 0, "is_reserved": 0}, {"rental_uris": {"ios": "https://dc.lft.to/lastmile_qr_scan", "android": "https://dc.lft.to/lastmile_qr_scan"}, "lon": -77.02810733333334, "type": "electric_scooter", "fusion_lat": 0.0, "lat": 38.899101333333334, "name": "6618f8d4b81e6e459593000182355b12", "fusion_lon": 0.0, "bike_id": "6618f8d4b81e6e459593000182355b12", "is_disabled": 0, "is_reserved": 0}, {"rental_uris": {"ios": "https://dc.lft.to/lastmile_qr_scan", "android": "https://dc.lft.to/lastmile_qr_scan"}, "lon": -77.0075815, "type": "electric_bike", "fusion_lat": 0.0, "lat": 38.89814116666667, "name": "ee99fca13123d2464adb5a8e952cc94e", "fusion_lon": 0.0, "bike_id": "ee99fca13123d2464adb5a8e952cc94e", "is_disabled": 0, "is_reserved": 0}, {"rental_uris": {"ios": "https://dc.lft.to/lastmile_qr_scan", "android": "https://dc.lft.to/lastmile_qr_scan"}, "lon": -77.04371766666667, "type": "electric_bike", "fusion_lat": 0.0, "lat": 38.92807916666667, "name": "4c335e59b9defee48e131f71ed783e32", "fusion_lon": 0.0, "bike_id": "4c335e59b9defee48e131f71ed783e32", "is_disabled": 0, "is_reserved": 0}, {"rental_uris": {"ios": "https://dc.lft.to/lastmile_qr_scan", "android": "https://dc.lft.to/lastmile_qr_scan"}, "lon": -77.04355183333334, "type": "electric_scooter", "fusion_lat": 0.0, "lat": 38.906660333333335, "name": "3da306cc9e1db0bfd95b2edbb2e71236", "fusion_lon": 0.0, "bike_id": "3da306cc9e1db0bfd95b2edbb2e71236", "is_disabled": 0, "is_reserved": 0}, {"rental_uris": {"ios": "https://dc.lft.to/lastmile_qr_scan", "android": "https://dc.lft.to/lastmile_qr_scan"}, "lon": -77.06261666666667, "type": "electric_bike", "fusion_lat": 0.0, "lat": 38.90310933333333, "name": "c6212613864d82b970eef93713ca745d", "fusion_lon": 0.0, "bike_id": "c6212613864d82b970eef93713ca745d", "is_disabled": 0, "is_reserved": 0}, {"rental_uris": {"ios": "https://dc.lft.to/lastmile_qr_scan", "android": "https://dc.lft.to/lastmile_qr_scan"}, "lon": -76.96525433333333, "type": "electric_scooter", "fusion_lat": 0.0, "lat": 38.876308333333334, "name": "4ce9fd7b5db975efc4cccdc4959bf515", "fusion_lon": 0.0, "bike_id": "4ce9fd7b5db975efc4cccdc4959bf515", "is_disabled": 0, "is_reserved": 0}, {"rental_uris": {"ios": "https://dc.lft.to/lastmile_qr_scan", "android": "https://dc.lft.to/lastmile_qr_scan"}, "lon": -77.032996, "type": "electric_scooter", "fusion_lat": 0.0, "lat": 38.91121016666666, "name": "6811b43a5bcd873b70009d88415162bc", "fusion_lon": 0.0, "bike_id": "6811b43a5bcd873b70009d88415162bc", "is_disabled": 0, "is_reserved": 0}, {"rental_uris": {"ios": "https://dc.lft.to/lastmile_qr_scan", "android": "https://dc.lft.to/lastmile_qr_scan"}, "lon": -77.01619516666666, "type": "electric_scooter", "fusion_lat": 0.0, "lat": 38.89979433333333, "name": "2081dd15ee0a91781a078812569e52c4", "fusion_lon": 0.0, "bike_id": "2081dd15ee0a91781a078812569e52c4", "is_disabled": 0, "is_reserved": 0}, {"rental_uris": {"ios": "https://dc.lft.to/lastmile_qr_scan", "android": "https://dc.lft.to/lastmile_qr_scan"}, "lon": -77.01097966666667, "type": "electric_scooter", "fusion_lat": 0.0, "lat": 38.90364316666667, "name": "a9eef7f16f7c1e2c8b421cccc3327e58", "fusion_lon": 0.0, "bike_id": "a9eef7f16f7c1e2c8b421cccc3327e58", "is_disabled": 0, "is_reserved": 0}, {"rental_uris": {"ios": "https://dc.lft.to/lastmile_qr_scan", "android": "https://dc.lft.to/lastmile_qr_scan"}, "lon": -77.00373983333333, "type": "electric_scooter", "fusion_lat": 0.0, "lat": 38.90739966666667, "name": "521f69032c64a4121f3e67808f23e844", "fusion_lon": 0.0, "bike_id": "521f69032c64a4121f3e67808f23e844", "is_disabled": 0, "is_reserved": 0}, {"rental_uris": {"ios": "https://dc.lft.to/lastmile_qr_scan", "android": "https://dc.lft.to/lastmile_qr_scan"}, "lon": -76.97325283333333, "type": "electric_scooter", "fusion_lat": 0.0, "lat": 38.904822, "name": "6ed568276e6d976c7a5801859a4aaa18", "fusion_lon": 0.0, "bike_id": "6ed568276e6d976c7a5801859a4aaa18", "is_disabled": 0, "is_reserved": 0}, {"rental_uris": {"ios": "https://dc.lft.to/lastmile_qr_scan", "android": "https://dc.lft.to/lastmile_qr_scan"}, "lon": -77.03810833333333, "type": "electric_scooter", "fusion_lat": 0.0, "lat": 38.93033966666667, "name": "dfbd055e62498a514da091b62c010d8b", "fusion_lon": 0.0, "bike_id": "dfbd055e62498a514da091b62c010d8b", "is_disabled": 0, "is_reserved": 0}, {"rental_uris": {"ios": "https://dc.lft.to/lastmile_qr_scan", "android": "https://dc.lft.to/lastmile_qr_scan"}, "lon": -77.0486405, "type": "electric_scooter", "fusion_lat": 0.0, "lat": 38.905279, "name": "00afad364629f1a46bf7db371156b226", "fusion_lon": 0.0, "bike_id": "00afad364629f1a46bf7db371156b226", "is_disabled": 0, "is_reserved": 0}, {"rental_uris": {"ios": "https://dc.lft.to/lastmile_qr_scan", "android": "https://dc.lft.to/lastmile_qr_scan"}, "lon": -77.0111085, "type": "electric_bike", "fusion_lat": 0.0, "lat": 38.9630955, "name": "537561a39532bf1872a97921401b76bd", "fusion_lon": 0.0, "bike_id": "537561a39532bf1872a97921401b76bd", "is_disabled": 0, "is_reserved": 0}, {"rental_uris": {"ios": "https://dc.lft.to/lastmile_qr_scan", "android": "https://dc.lft.to/lastmile_qr_scan"}, "lon": -77.10898433333334, "type": "electric_bike", "fusion_lat": 0.0, "lat": 38.830436666666664, "name": "5a31f7434a9572390f13748ae1672cc3", "fusion_lon": 0.0, "bike_id": "5a31f7434a9572390f13748ae1672cc3", "is_disabled": 0, "is_reserved": 0}, {"rental_uris": {"ios": "https://dc.lft.to/lastmile_qr_scan", "android": "https://dc.lft.to/lastmile_qr_scan"}, "lon": -76.9951875, "type": "electric_scooter", "fusion_lat": 0.0, "lat": 38.8837275, "name": "ea8061b76dfac11e342252feaa425bf4", "fusion_lon": 0.0, "bike_id": "ea8061b76dfac11e342252feaa425bf4", "is_disabled": 0, "is_reserved": 0}, {"rental_uris": {"ios": "https://dc.lft.to/lastmile_qr_scan", "android": "https://dc.lft.to/lastmile_qr_scan"}, "lon": -76.99146333333333, "type": "electric_scooter", "fusion_lat": 0.0, "lat": 38.893439, "name": "22435ce54ef42485e2d796b5efc9bed8", "fusion_lon": 0.0, "bike_id": "22435ce54ef42485e2d796b5efc9bed8", "is_disabled": 0, "is_reserved": 0}, {"rental_uris": {"ios": "https://dc.lft.to/lastmile_qr_scan", "android": "https://dc.lft.to/lastmile_qr_scan"}, "lon": -77.0400885, "type": "electric_scooter", "fusion_lat": 0.0, "lat": 38.918187, "name": "b9b3d5597d917fda8ce1f67fa4c4a9b2", "fusion_lon": 0.0, "bike_id": "b9b3d5597d917fda8ce1f67fa4c4a9b2", "is_disabled": 0, "is_reserved": 0}, {"rental_uris": {"ios": "https://dc.lft.to/lastmile_qr_scan", "android": "https://dc.lft.to/lastmile_qr_scan"}, "lon": -77.02707966666667, "type": "electric_scooter", "fusion_lat": 0.0, "lat": 38.92879883333333, "name": "670ff7bc152099800d8552ac26dce67c", "fusion_lon": 0.0, "bike_id": "670ff7bc152099800d8552ac26dce67c", "is_disabled": 0, "is_reserved": 0}, {"rental_uris": {"ios": "https://dc.lft.to/lastmile_qr_scan", "android": "https://dc.lft.to/lastmile_qr_scan"}, "lon": -77.02214033333334, "type": "electric_scooter", "fusion_lat": 0.0, "lat": 38.90533166666667, "name": "91a77d72c5163c688a591b17001b9707", "fusion_lon": 0.0, "bike_id": "91a77d72c5163c688a591b17001b9707", "is_disabled": 0, "is_reserved": 0}, {"rental_uris": {"ios": "https://dc.lft.to/lastmile_qr_scan", "android": "https://dc.lft.to/lastmile_qr_scan"}, "lon": -77.01781166666666, "type": "electric_scooter", "fusion_lat": 0.0, "lat": 38.903900666666665, "name": "a6d311cb2eae3b91b34594b095221165", "fusion_lon": 0.0, "bike_id": "a6d311cb2eae3b91b34594b095221165", "is_disabled": 0, "is_reserved": 0}, {"rental_uris": {"ios": "https://dc.lft.to/lastmile_qr_scan", "android": "https://dc.lft.to/lastmile_qr_scan"}, "lon": -77.0013265, "type": "electric_scooter", "fusion_lat": 0.0, "lat": 38.9041295, "name": "aeb8f4435e5d0bac7c191aa9c6924ff7", "fusion_lon": 0.0, "bike_id": "aeb8f4435e5d0bac7c191aa9c6924ff7", "is_disabled": 0, "is_reserved": 0}, {"rental_uris": {"ios": "https://dc.lft.to/lastmile_qr_scan", "android": "https://dc.lft.to/lastmile_qr_scan"}, "lon": -77.03003533333333, "type": "electric_scooter", "fusion_lat": 0.0, "lat": 38.91029483333333, "name": "6ca39ad6394ea35c3cb3dcf7ee2f80b2", "fusion_lon": 0.0, "bike_id": "6ca39ad6394ea35c3cb3dcf7ee2f80b2", "is_disabled": 0, "is_reserved": 0}, {"rental_uris": {"ios": "https://dc.lft.to/lastmile_qr_scan", "android": "https://dc.lft.to/lastmile_qr_scan"}, "lon": -77.04207633333333, "type": "electric_scooter", "fusion_lat": 0.0, "lat": 38.90558016666667, "name": "d62967e0d8d9f0ca957d74f9878892ee", "fusion_lon": 0.0, "bike_id": "d62967e0d8d9f0ca957d74f9878892ee", "is_disabled": 0, "is_reserved": 0}, {"rental_uris": {"ios": "https://dc.lft.to/lastmile_qr_scan", "android": "https://dc.lft.to/lastmile_qr_scan"}, "lon": -76.994988, "type": "electric_scooter", "fusion_lat": 0.0, "lat": 38.881856, "name": "3a999f2bb0eca6e65ee28762c8ed4955", "fusion_lon": 0.0, "bike_id": "3a999f2bb0eca6e65ee28762c8ed4955", "is_disabled": 0, "is_reserved": 0}, {"rental_uris": {"ios": "https://dc.lft.to/lastmile_qr_scan", "android": "https://dc.lft.to/lastmile_qr_scan"}, "lon": -77.03200233333334, "type": "electric_scooter", "fusion_lat": 0.0, "lat": 38.9102115, "name": "3049f2e5eeecdc1b53e9ea247e5e26c0", "fusion_lon": 0.0, "bike_id": "3049f2e5eeecdc1b53e9ea247e5e26c0", "is_disabled": 0, "is_reserved": 0}, {"rental_uris": {"ios": "https://dc.lft.to/lastmile_qr_scan", "android": "https://dc.lft.to/lastmile_qr_scan"}, "lon": -77.014075, "type": "electric_scooter", "fusion_lat": 0.0, "lat": 38.92839583333333, "name": "2f6edb9598f67ac620e33e4d322c6885", "fusion_lon": 0.0, "bike_id": "2f6edb9598f67ac620e33e4d322c6885", "is_disabled": 0, "is_reserved": 0}, {"rental_uris": {"ios": "https://dc.lft.to/lastmile_qr_scan", "android": "https://dc.lft.to/lastmile_qr_scan"}, "lon": -77.15266933333334, "type": "electric_bike", "fusion_lat": 0.0, "lat": 39.105681833333335, "name": "984f6eb273940c71d4594a0831749d29", "fusion_lon": 0.0, "bike_id": "984f6eb273940c71d4594a0831749d29", "is_disabled": 0, "is_reserved": 0}, {"rental_uris": {"ios": "https://dc.lft.to/lastmile_qr_scan", "android": "https://dc.lft.to/lastmile_qr_scan"}, "lon": -77.02415133333334, "type": "electric_scooter", "fusion_lat": 0.0, "lat": 38.91704266666667, "name": "bd21b18f4dbebc1d4a34888cad8f9bbf", "fusion_lon": 0.0, "bike_id": "bd21b18f4dbebc1d4a34888cad8f9bbf", "is_disabled": 0, "is_reserved": 0}, {"rental_uris": {"ios": "https://dc.lft.to/lastmile_qr_scan", "android": "https://dc.lft.to/lastmile_qr_scan"}, "lon": -77.031416, "type": "electric_scooter", "fusion_lat": 0.0, "lat": 38.9247225, "name": "787e4df2e07f04c09e1d3fc1590f9b2f", "fusion_lon": 0.0, "bike_id": "787e4df2e07f04c09e1d3fc1590f9b2f", "is_disabled": 0, "is_reserved": 0}, {"rental_uris": {"ios": "https://dc.lft.to/lastmile_qr_scan", "android": "https://dc.lft.to/lastmile_qr_scan"}, "lon": -76.98327216666667, "type": "electric_scooter", "fusion_lat": 0.0, "lat": 38.86168883333333, "name": "62c76ddef5f15bfe6a5ad7eb0471858e", "fusion_lon": 0.0, "bike_id": "62c76ddef5f15bfe6a5ad7eb0471858e", "is_disabled": 0, "is_reserved": 0}, {"rental_uris": {"ios": "https://dc.lft.to/lastmile_qr_scan", "android": "https://dc.lft.to/lastmile_qr_scan"}, "lon": -76.95761983333334, "type": "electric_scooter", "fusion_lat": 0.0, "lat": 38.8843335, "name": "f9eb93ff13196af3a90da809844aee6e", "fusion_lon": 0.0, "bike_id": "f9eb93ff13196af3a90da809844aee6e", "is_disabled": 0, "is_reserved": 0}, {"rental_uris": {"ios": "https://dc.lft.to/lastmile_qr_scan", "android": "https://dc.lft.to/lastmile_qr_scan"}, "lon": -77.041995, "type": "electric_scooter", "fusion_lat": 0.0, "lat": 38.90349333333333, "name": "4c9494d118fae32e66bf77efb9bbdadc", "fusion_lon": 0.0, "bike_id": "4c9494d118fae32e66bf77efb9bbdadc", "is_disabled": 0, "is_reserved": 0}, {"rental_uris": {"ios": "https://dc.lft.to/lastmile_qr_scan", "android": "https://dc.lft.to/lastmile_qr_scan"}, "lon": -77.01356916666667, "type": "electric_scooter", "fusion_lat": 0.0, "lat": 38.91632033333333, "name": "8c753a6c81883f9e6cb85092425440ec", "fusion_lon": 0.0, "bike_id": "8c753a6c81883f9e6cb85092425440ec", "is_disabled": 0, "is_reserved": 0}, {"rental_uris": {"ios": "https://dc.lft.to/lastmile_qr_scan", "android": "https://dc.lft.to/lastmile_qr_scan"}, "lon": -77.05223616666666, "type": "electric_scooter", "fusion_lat": 0.0, "lat": 38.924943, "name": "4b0a81f094cf9da3b1ac4e6478a765bc", "fusion_lon": 0.0, "bike_id": "4b0a81f094cf9da3b1ac4e6478a765bc", "is_disabled": 0, "is_reserved": 0}, {"rental_uris": {"ios": "https://dc.lft.to/lastmile_qr_scan", "android": "https://dc.lft.to/lastmile_qr_scan"}, "lon": -77.00496983333333, "type": "electric_scooter", "fusion_lat": 0.0, "lat": 38.878873, "name": "1a7c2ef433eb804844ad5b5fc65c55a7", "fusion_lon": 0.0, "bike_id": "1a7c2ef433eb804844ad5b5fc65c55a7", "is_disabled": 0, "is_reserved": 0}, {"rental_uris": {"ios": "https://dc.lft.to/lastmile_qr_scan", "android": "https://dc.lft.to/lastmile_qr_scan"}, "lon": -77.00361666666667, "type": "electric_scooter", "fusion_lat": 0.0, "lat": 38.892711, "name": "d90321f451bde69afb399fa5eb1d4b88", "fusion_lon": 0.0, "bike_id": "d90321f451bde69afb399fa5eb1d4b88", "is_disabled": 0, "is_reserved": 0}, {"rental_uris": {"ios": "https://dc.lft.to/lastmile_qr_scan", "android": "https://dc.lft.to/lastmile_qr_scan"}, "lon": -77.04119216666666, "type": "electric_scooter", "fusion_lat": 0.0, "lat": 38.9340745, "name": "3ada91529aad012c5e289e3da94269bb", "fusion_lon": 0.0, "bike_id": "3ada91529aad012c5e289e3da94269bb", "is_disabled": 0, "is_reserved": 0}, {"rental_uris": {"ios": "https://dc.lft.to/lastmile_qr_scan", "android": "https://dc.lft.to/lastmile_qr_scan"}, "lon": -77.0034755, "type": "electric_scooter", "fusion_lat": 0.0, "lat": 38.89533983333333, "name": "72abab52c91063212e8aee965fe2b903", "fusion_lon": 0.0, "bike_id": "72abab52c91063212e8aee965fe2b903", "is_disabled": 0, "is_reserved": 0}, {"rental_uris": {"ios": "https://dc.lft.to/lastmile_qr_scan", "android": "https://dc.lft.to/lastmile_qr_scan"}, "lon": -76.99885666666667, "type": "electric_scooter", "fusion_lat": 0.0, "lat": 38.90756183333333, "name": "e3daec8783b18b16bf4d350ed2b5921d", "fusion_lon": 0.0, "bike_id": "e3daec8783b18b16bf4d350ed2b5921d", "is_disabled": 0, "is_reserved": 0}, {"rental_uris": {"ios": "https://dc.lft.to/lastmile_qr_scan", "android": "https://dc.lft.to/lastmile_qr_scan"}, "lon": -77.022972, "type": "electric_scooter", "fusion_lat": 0.0, "lat": 38.901545, "name": "577d154b6efb5b1262541ee8e69eb335", "fusion_lon": 0.0, "bike_id": "577d154b6efb5b1262541ee8e69eb335", "is_disabled": 0, "is_reserved": 0}, {"rental_uris": {"ios": "https://dc.lft.to/lastmile_qr_scan", "android": "https://dc.lft.to/lastmile_qr_scan"}, "lon": -77.04633816666667, "type": "electric_scooter", "fusion_lat": 0.0, "lat": 38.91582483333333, "name": "9a2e42766f03356e2c0dde8f98943518", "fusion_lon": 0.0, "bike_id": "9a2e42766f03356e2c0dde8f98943518", "is_disabled": 0, "is_reserved": 0}, {"rental_uris": {"ios": "https://dc.lft.to/lastmile_qr_scan", "android": "https://dc.lft.to/lastmile_qr_scan"}, "lon": -76.94632183333333, "type": "electric_bike", "fusion_lat": 0.0, "lat": 38.94628933333333, "name": "6ea249103460871079baeb08eb69ca5e", "fusion_lon": 0.0, "bike_id": "6ea249103460871079baeb08eb69ca5e", "is_disabled": 0, "is_reserved": 0}, {"rental_uris": {"ios": "https://dc.lft.to/lastmile_qr_scan", "android": "https://dc.lft.to/lastmile_qr_scan"}, "lon": -77.02201966666667, "type": "electric_scooter", "fusion_lat": 0.0, "lat": 38.908334833333335, "name": "d84e8fe5a4e1944a481035e1e39ab763", "fusion_lon": 0.0, "bike_id": "d84e8fe5a4e1944a481035e1e39ab763", "is_disabled": 0, "is_reserved": 0}, {"rental_uris": {"ios": "https://dc.lft.to/lastmile_qr_scan", "android": "https://dc.lft.to/lastmile_qr_scan"}, "lon": -76.97201916666667, "type": "electric_scooter", "fusion_lat": 0.0, "lat": 38.855025499999996, "name": "196d728114ddf134f41899fba9b842f0", "fusion_lon": 0.0, "bike_id": "196d728114ddf134f41899fba9b842f0", "is_disabled": 0, "is_reserved": 0}, {"rental_uris": {"ios": "https://dc.lft.to/lastmile_qr_scan", "android": "https://dc.lft.to/lastmile_qr_scan"}, "lon": -77.03851433333334, "type": "electric_scooter", "fusion_lat": 0.0, "lat": 38.915459, "name": "4a7e4dcd4f5286c9e823e3cf00aa6a29", "fusion_lon": 0.0, "bike_id": "4a7e4dcd4f5286c9e823e3cf00aa6a29", "is_disabled": 0, "is_reserved": 0}, {"rental_uris": {"ios": "https://dc.lft.to/lastmile_qr_scan", "android": "https://dc.lft.to/lastmile_qr_scan"}, "lon": -77.01911133333333, "type": "electric_scooter", "fusion_lat": 0.0, "lat": 38.901476, "name": "1bc10322b8ada6cf36794d5100ab04f8", "fusion_lon": 0.0, "bike_id": "1bc10322b8ada6cf36794d5100ab04f8", "is_disabled": 0, "is_reserved": 0}, {"rental_uris": {"ios": "https://dc.lft.to/lastmile_qr_scan", "android": "https://dc.lft.to/lastmile_qr_scan"}, "lon": -77.03997266666667, "type": "electric_scooter", "fusion_lat": 0.0, "lat": 38.888724833333335, "name": "7ce79b902f657ea1a3c5ffb0cc9581e8", "fusion_lon": 0.0, "bike_id": "7ce79b902f657ea1a3c5ffb0cc9581e8", "is_disabled": 0, "is_reserved": 0}, {"rental_uris": {"ios": "https://dc.lft.to/lastmile_qr_scan", "android": "https://dc.lft.to/lastmile_qr_scan"}, "lon": -77.03634033333333, "type": "electric_scooter", "fusion_lat": 0.0, "lat": 38.93724916666667, "name": "5dd4c2ab3e14f5cce6625ec2811cdee1", "fusion_lon": 0.0, "bike_id": "5dd4c2ab3e14f5cce6625ec2811cdee1", "is_disabled": 0, "is_reserved": 0}, {"rental_uris": {"ios": "https://dc.lft.to/lastmile_qr_scan", "android": "https://dc.lft.to/lastmile_qr_scan"}, "lon": -77.07164583333333, "type": "electric_scooter", "fusion_lat": 0.0, "lat": 38.90745883333334, "name": "32695f422f193eba46bd4461fa34d69c", "fusion_lon": 0.0, "bike_id": "32695f422f193eba46bd4461fa34d69c", "is_disabled": 0, "is_reserved": 0}, {"rental_uris": {"ios": "https://dc.lft.to/lastmile_qr_scan", "android": "https://dc.lft.to/lastmile_qr_scan"}, "lon": -77.0328065, "type": "electric_scooter", "fusion_lat": 0.0, "lat": 38.93203116666667, "name": "7718fcd8d3d2e2f9fd06992d79373686", "fusion_lon": 0.0, "bike_id": "7718fcd8d3d2e2f9fd06992d79373686", "is_disabled": 0, "is_reserved": 0}, {"rental_uris": {"ios": "https://dc.lft.to/lastmile_qr_scan", "android": "https://dc.lft.to/lastmile_qr_scan"}, "lon": -77.06293616666666, "type": "electric_scooter", "fusion_lat": 0.0, "lat": 38.90398416666667, "name": "52bc93ff593271194df00240344be956", "fusion_lon": 0.0, "bike_id": "52bc93ff593271194df00240344be956", "is_disabled": 0, "is_reserved": 0}, {"rental_uris": {"ios": "https://dc.lft.to/lastmile_qr_scan", "android": "https://dc.lft.to/lastmile_qr_scan"}, "lon": -77.05156466666666, "type": "electric_scooter", "fusion_lat": 0.0, "lat": 38.90586, "name": "43dcff7a4ea99ef3d9f65c46dcf51f28", "fusion_lon": 0.0, "bike_id": "43dcff7a4ea99ef3d9f65c46dcf51f28", "is_disabled": 0, "is_reserved": 0}, {"rental_uris": {"ios": "https://dc.lft.to/lastmile_qr_scan", "android": "https://dc.lft.to/lastmile_qr_scan"}, "lon": -77.0238145, "type": "electric_scooter", "fusion_lat": 0.0, "lat": 38.93230466666667, "name": "d9cd42177591bfeb678dc9f7d5a5fa26", "fusion_lon": 0.0, "bike_id": "d9cd42177591bfeb678dc9f7d5a5fa26", "is_disabled": 0, "is_reserved": 0}, {"rental_uris": {"ios": "https://dc.lft.to/lastmile_qr_scan", "android": "https://dc.lft.to/lastmile_qr_scan"}, "lon": -77.04269966666666, "type": "electric_scooter", "fusion_lat": 0.0, "lat": 38.934171666666664, "name": "21a30d6feb07faa150c56a5bf71bc49d", "fusion_lon": 0.0, "bike_id": "21a30d6feb07faa150c56a5bf71bc49d", "is_disabled": 0, "is_reserved": 0}, {"rental_uris": {"ios": "https://dc.lft.to/lastmile_qr_scan", "android": "https://dc.lft.to/lastmile_qr_scan"}, "lon": -77.03205583333333, "type": "electric_scooter", "fusion_lat": 0.0, "lat": 38.893738, "name": "189c841aa0877af49aa1643c6b9ee1b7", "fusion_lon": 0.0, "bike_id": "189c841aa0877af49aa1643c6b9ee1b7", "is_disabled": 0, "is_reserved": 0}, {"rental_uris": {"ios": "https://dc.lft.to/lastmile_qr_scan", "android": "https://dc.lft.to/lastmile_qr_scan"}, "lon": -77.02598133333333, "type": "electric_scooter", "fusion_lat": 0.0, "lat": 38.88741266666667, "name": "f883c030a6ab557c9bbb230b9c789643", "fusion_lon": 0.0, "bike_id": "f883c030a6ab557c9bbb230b9c789643", "is_disabled": 0, "is_reserved": 0}, {"rental_uris": {"ios": "https://dc.lft.to/lastmile_qr_scan", "android": "https://dc.lft.to/lastmile_qr_scan"}, "lon": -76.97598266666667, "type": "electric_scooter", "fusion_lat": 0.0, "lat": 38.90331583333333, "name": "2c264a873ddf0c4403b3dbcbc18e8044", "fusion_lon": 0.0, "bike_id": "2c264a873ddf0c4403b3dbcbc18e8044", "is_disabled": 0, "is_reserved": 0}, {"rental_uris": {"ios": "https://dc.lft.to/lastmile_qr_scan", "android": "https://dc.lft.to/lastmile_qr_scan"}, "lon": -77.0239385, "type": "electric_scooter", "fusion_lat": 0.0, "lat": 38.915971, "name": "77240e5d3d7c1ffb06657ff643bfa844", "fusion_lon": 0.0, "bike_id": "77240e5d3d7c1ffb06657ff643bfa844", "is_disabled": 0, "is_reserved": 0}, {"rental_uris": {"ios": "https://dc.lft.to/lastmile_qr_scan", "android": "https://dc.lft.to/lastmile_qr_scan"}, "lon": -76.94624283333333, "type": "electric_bike", "fusion_lat": 0.0, "lat": 38.832369, "name": "d35db2eb042aa8c9ea2969fd63749151", "fusion_lon": 0.0, "bike_id": "d35db2eb042aa8c9ea2969fd63749151", "is_disabled": 0, "is_reserved": 0}, {"rental_uris": {"ios": "https://dc.lft.to/lastmile_qr_scan", "android": "https://dc.lft.to/lastmile_qr_scan"}, "lon": -77.05140216666666, "type": "electric_scooter", "fusion_lat": 0.0, "lat": 38.89915666666667, "name": "8574e122be43c47c3a95e3aaaa8373c2", "fusion_lon": 0.0, "bike_id": "8574e122be43c47c3a95e3aaaa8373c2", "is_disabled": 0, "is_reserved": 0}, {"rental_uris": {"ios": "https://dc.lft.to/lastmile_qr_scan", "android": "https://dc.lft.to/lastmile_qr_scan"}, "lon": -77.043659, "type": "electric_scooter", "fusion_lat": 0.0, "lat": 38.93334883333333, "name": "c93743296bafc4fc4c54f174abeffcc6", "fusion_lon": 0.0, "bike_id": "c93743296bafc4fc4c54f174abeffcc6", "is_disabled": 0, "is_reserved": 0}, {"rental_uris": {"ios": "https://dc.lft.to/lastmile_qr_scan", "android": "https://dc.lft.to/lastmile_qr_scan"}, "lon": -77.00938933333333, "type": "electric_scooter", "fusion_lat": 0.0, "lat": 38.876312166666665, "name": "fb189fa215afc709bbed58c46147d0a3", "fusion_lon": 0.0, "bike_id": "fb189fa215afc709bbed58c46147d0a3", "is_disabled": 0, "is_reserved": 0}, {"rental_uris": {"ios": "https://dc.lft.to/lastmile_qr_scan", "android": "https://dc.lft.to/lastmile_qr_scan"}, "lon": -77.02307083333334, "type": "electric_bike", "fusion_lat": 0.0, "lat": 38.916014833333335, "name": "a03814a327e7cc1be9ecd512b2319fe6", "fusion_lon": 0.0, "bike_id": "a03814a327e7cc1be9ecd512b2319fe6", "is_disabled": 0, "is_reserved": 0}, {"rental_uris": {"ios": "https://dc.lft.to/lastmile_qr_scan", "android": "https://dc.lft.to/lastmile_qr_scan"}, "lon": -77.0417825, "type": "electric_scooter", "fusion_lat": 0.0, "lat": 38.91194016666667, "name": "8bf3e42b7e42a3abb4f859d7646384fd", "fusion_lon": 0.0, "bike_id": "8bf3e42b7e42a3abb4f859d7646384fd", "is_disabled": 0, "is_reserved": 0}, {"rental_uris": {"ios": "https://dc.lft.to/lastmile_qr_scan", "android": "https://dc.lft.to/lastmile_qr_scan"}, "lon": -77.03266766666667, "type": "electric_scooter", "fusion_lat": 0.0, "lat": 38.9198725, "name": "a46a90b4dbbe92328ae3e0f1aa2c1b3b", "fusion_lon": 0.0, "bike_id": "a46a90b4dbbe92328ae3e0f1aa2c1b3b", "is_disabled": 0, "is_reserved": 0}, {"rental_uris": {"ios": "https://dc.lft.to/lastmile_qr_scan", "android": "https://dc.lft.to/lastmile_qr_scan"}, "lon": -77.0298985, "type": "electric_scooter", "fusion_lat": 0.0, "lat": 38.95632, "name": "0925e24b6f0b02751e6ae034bf8b9819", "fusion_lon": 0.0, "bike_id": "0925e24b6f0b02751e6ae034bf8b9819", "is_disabled": 0, "is_reserved": 0}, {"rental_uris": {"ios": "https://dc.lft.to/lastmile_qr_scan", "android": "https://dc.lft.to/lastmile_qr_scan"}, "lon": -77.03641133333333, "type": "electric_scooter", "fusion_lat": 0.0, "lat": 38.916236166666664, "name": "7496e9a2d180c8bc26794082d0bfac21", "fusion_lon": 0.0, "bike_id": "7496e9a2d180c8bc26794082d0bfac21", "is_disabled": 0, "is_reserved": 0}, {"rental_uris": {"ios": "https://dc.lft.to/lastmile_qr_scan", "android": "https://dc.lft.to/lastmile_qr_scan"}, "lon": -77.08945366666667, "type": "electric_bike", "fusion_lat": 0.0, "lat": 38.841077, "name": "16f57ddbc9020dbdd2bccc1e54af61b4", "fusion_lon": 0.0, "bike_id": "16f57ddbc9020dbdd2bccc1e54af61b4", "is_disabled": 0, "is_reserved": 0}, {"rental_uris": {"ios": "https://dc.lft.to/lastmile_qr_scan", "android": "https://dc.lft.to/lastmile_qr_scan"}, "lon": -77.05839116666667, "type": "electric_scooter", "fusion_lat": 0.0, "lat": 38.935867333333334, "name": "d20ee0ecd7bc38fda99a8bce203d1eeb", "fusion_lon": 0.0, "bike_id": "d20ee0ecd7bc38fda99a8bce203d1eeb", "is_disabled": 0, "is_reserved": 0}, {"rental_uris": {"ios": "https://dc.lft.to/lastmile_qr_scan", "android": "https://dc.lft.to/lastmile_qr_scan"}, "lon": -77.05753016666667, "type": "electric_scooter", "fusion_lat": 0.0, "lat": 38.9246375, "name": "4d0093819d05ab09577f65104d507274", "fusion_lon": 0.0, "bike_id": "4d0093819d05ab09577f65104d507274", "is_disabled": 0, "is_reserved": 0}, {"rental_uris": {"ios": "https://dc.lft.to/lastmile_qr_scan", "android": "https://dc.lft.to/lastmile_qr_scan"}, "lon": -76.99381633333333, "type": "electric_scooter", "fusion_lat": 0.0, "lat": 38.90061333333333, "name": "606f524265acb504e9d9a53b9c51df67", "fusion_lon": 0.0, "bike_id": "606f524265acb504e9d9a53b9c51df67", "is_disabled": 0, "is_reserved": 0}, {"rental_uris": {"ios": "https://dc.lft.to/lastmile_qr_scan", "android": "https://dc.lft.to/lastmile_qr_scan"}, "lon": -77.05221233333333, "type": "electric_scooter", "fusion_lat": 0.0, "lat": 38.9249645, "name": "0387eb12dc95a071acd2ce533d189aba", "fusion_lon": 0.0, "bike_id": "0387eb12dc95a071acd2ce533d189aba", "is_disabled": 0, "is_reserved": 0}, {"rental_uris": {"ios": "https://dc.lft.to/lastmile_qr_scan", "android": "https://dc.lft.to/lastmile_qr_scan"}, "lon": -77.03198766666667, "type": "electric_scooter", "fusion_lat": 0.0, "lat": 38.922406, "name": "a6c2a5fa9c38c38d75a3060a6a97f118", "fusion_lon": 0.0, "bike_id": "a6c2a5fa9c38c38d75a3060a6a97f118", "is_disabled": 0, "is_reserved": 0}, {"rental_uris": {"ios": "https://dc.lft.to/lastmile_qr_scan", "android": "https://dc.lft.to/lastmile_qr_scan"}, "lon": -77.04074433333334, "type": "electric_bike", "fusion_lat": 0.0, "lat": 38.81241516666667, "name": "6899cda0e5565b003a0e62d6c47b1758", "fusion_lon": 0.0, "bike_id": "6899cda0e5565b003a0e62d6c47b1758", "is_disabled": 0, "is_reserved": 0}, {"rental_uris": {"ios": "https://dc.lft.to/lastmile_qr_scan", "android": "https://dc.lft.to/lastmile_qr_scan"}, "lon": -77.04613766666667, "type": "electric_scooter", "fusion_lat": 0.0, "lat": 38.900638, "name": "10df9fc9f03ac4f9339e5f04668150c5", "fusion_lon": 0.0, "bike_id": "10df9fc9f03ac4f9339e5f04668150c5", "is_disabled": 0, "is_reserved": 0}, {"rental_uris": {"ios": "https://dc.lft.to/lastmile_qr_scan", "android": "https://dc.lft.to/lastmile_qr_scan"}, "lon": -77.025736, "type": "electric_scooter", "fusion_lat": 0.0, "lat": 38.972476, "name": "08567f91f48bf22dc3ae22f588cc0a8c", "fusion_lon": 0.0, "bike_id": "08567f91f48bf22dc3ae22f588cc0a8c", "is_disabled": 0, "is_reserved": 0}, {"rental_uris": {"ios": "https://dc.lft.to/lastmile_qr_scan", "android": "https://dc.lft.to/lastmile_qr_scan"}, "lon": -76.9389405, "type": "electric_bike", "fusion_lat": 0.0, "lat": 38.88331733333333, "name": "374b274ca7019be847714f83c1160331", "fusion_lon": 0.0, "bike_id": "374b274ca7019be847714f83c1160331", "is_disabled": 0, "is_reserved": 0}, {"rental_uris": {"ios": "https://dc.lft.to/lastmile_qr_scan", "android": "https://dc.lft.to/lastmile_qr_scan"}, "lon": -77.0395925, "type": "electric_scooter", "fusion_lat": 0.0, "lat": 38.926142666666664, "name": "31b11f6e14824de0bcc2388eb691fecd", "fusion_lon": 0.0, "bike_id": "31b11f6e14824de0bcc2388eb691fecd", "is_disabled": 0, "is_reserved": 0}, {"rental_uris": {"ios": "https://dc.lft.to/lastmile_qr_scan", "android": "https://dc.lft.to/lastmile_qr_scan"}, "lon": -77.02617833333333, "type": "electric_scooter", "fusion_lat": 0.0, "lat": 38.951878, "name": "865b62b3278f4113aae0c3efaec6e2cb", "fusion_lon": 0.0, "bike_id": "865b62b3278f4113aae0c3efaec6e2cb", "is_disabled": 0, "is_reserved": 0}, {"rental_uris": {"ios": "https://dc.lft.to/lastmile_qr_scan", "android": "https://dc.lft.to/lastmile_qr_scan"}, "lon": -77.029806, "type": "electric_scooter", "fusion_lat": 0.0, "lat": 38.958361833333335, "name": "6cb4618afdd416f9bf1ecd053ec3720d", "fusion_lon": 0.0, "bike_id": "6cb4618afdd416f9bf1ecd053ec3720d", "is_disabled": 0, "is_reserved": 0}, {"rental_uris": {"ios": "https://dc.lft.to/lastmile_qr_scan", "android": "https://dc.lft.to/lastmile_qr_scan"}, "lon": -77.03297566666667, "type": "electric_scooter", "fusion_lat": 0.0, "lat": 38.928735333333336, "name": "22b81fe9b866be2f19a6f199c744db17", "fusion_lon": 0.0, "bike_id": "22b81fe9b866be2f19a6f199c744db17", "is_disabled": 0, "is_reserved": 0}, {"rental_uris": {"ios": "https://dc.lft.to/lastmile_qr_scan", "android": "https://dc.lft.to/lastmile_qr_scan"}, "lon": -77.04293433333333, "type": "electric_scooter", "fusion_lat": 0.0, "lat": 38.910509833333336, "name": "76c7a88a97547cc10c79fde7da97e401", "fusion_lon": 0.0, "bike_id": "76c7a88a97547cc10c79fde7da97e401", "is_disabled": 0, "is_reserved": 0}, {"rental_uris": {"ios": "https://dc.lft.to/lastmile_qr_scan", "android": "https://dc.lft.to/lastmile_qr_scan"}, "lon": -77.03212433333333, "type": "electric_scooter", "fusion_lat": 0.0, "lat": 38.93755816666667, "name": "de73500105e4e4383ba2ffd21872b4f1", "fusion_lon": 0.0, "bike_id": "de73500105e4e4383ba2ffd21872b4f1", "is_disabled": 0, "is_reserved": 0}, {"rental_uris": {"ios": "https://dc.lft.to/lastmile_qr_scan", "android": "https://dc.lft.to/lastmile_qr_scan"}, "lon": -77.01531566666667, "type": "electric_scooter", "fusion_lat": 0.0, "lat": 38.90254983333333, "name": "349f07c109c724128a9b216baba151d6", "fusion_lon": 0.0, "bike_id": "349f07c109c724128a9b216baba151d6", "is_disabled": 0, "is_reserved": 0}, {"rental_uris": {"ios": "https://dc.lft.to/lastmile_qr_scan", "android": "https://dc.lft.to/lastmile_qr_scan"}, "lon": -77.01524866666666, "type": "electric_scooter", "fusion_lat": 0.0, "lat": 38.913555, "name": "06a5ccfb5ff7ec89ce4992c33a51ce4b", "fusion_lon": 0.0, "bike_id": "06a5ccfb5ff7ec89ce4992c33a51ce4b", "is_disabled": 0, "is_reserved": 0}, {"rental_uris": {"ios": "https://dc.lft.to/lastmile_qr_scan", "android": "https://dc.lft.to/lastmile_qr_scan"}, "lon": -76.94654566666667, "type": "electric_scooter", "fusion_lat": 0.0, "lat": 38.898287, "name": "6f685c312909f196cd7bff7a85565f3f", "fusion_lon": 0.0, "bike_id": "6f685c312909f196cd7bff7a85565f3f", "is_disabled": 0, "is_reserved": 0}, {"rental_uris": {"ios": "https://dc.lft.to/lastmile_qr_scan", "android": "https://dc.lft.to/lastmile_qr_scan"}, "lon": -77.05883966666667, "type": "electric_scooter", "fusion_lat": 0.0, "lat": 38.93638466666667, "name": "d1dae7e15d998469ac0c5878ce75905e", "fusion_lon": 0.0, "bike_id": "d1dae7e15d998469ac0c5878ce75905e", "is_disabled": 0, "is_reserved": 0}, {"rental_uris": {"ios": "https://dc.lft.to/lastmile_qr_scan", "android": "https://dc.lft.to/lastmile_qr_scan"}, "lon": -77.0384795, "type": "electric_scooter", "fusion_lat": 0.0, "lat": 38.9109115, "name": "7e90fd4f864024b50fe4167212442f68", "fusion_lon": 0.0, "bike_id": "7e90fd4f864024b50fe4167212442f68", "is_disabled": 0, "is_reserved": 0}, {"rental_uris": {"ios": "https://dc.lft.to/lastmile_qr_scan", "android": "https://dc.lft.to/lastmile_qr_scan"}, "lon": -76.97252833333333, "type": "electric_bike", "fusion_lat": 0.0, "lat": 38.95743983333333, "name": "e79dbb40b79270ccbce8de351bd7be6e", "fusion_lon": 0.0, "bike_id": "e79dbb40b79270ccbce8de351bd7be6e", "is_disabled": 0, "is_reserved": 0}, {"rental_uris": {"ios": "https://dc.lft.to/lastmile_qr_scan", "android": "https://dc.lft.to/lastmile_qr_scan"}, "lon": -77.03440066666667, "type": "electric_scooter", "fusion_lat": 0.0, "lat": 38.918002666666666, "name": "f2586bbfdfbee4eb4975c016d42765a6", "fusion_lon": 0.0, "bike_id": "f2586bbfdfbee4eb4975c016d42765a6", "is_disabled": 0, "is_reserved": 0}, {"rental_uris": {"ios": "https://dc.lft.to/lastmile_qr_scan", "android": "https://dc.lft.to/lastmile_qr_scan"}, "lon": -77.0318195, "type": "electric_scooter", "fusion_lat": 0.0, "lat": 38.919258166666665, "name": "15a79f56dad939e462145b4a15e4ea10", "fusion_lon": 0.0, "bike_id": "15a79f56dad939e462145b4a15e4ea10", "is_disabled": 0, "is_reserved": 0}, {"rental_uris": {"ios": "https://dc.lft.to/lastmile_qr_scan", "android": "https://dc.lft.to/lastmile_qr_scan"}, "lon": -77.02971033333333, "type": "electric_scooter", "fusion_lat": 0.0, "lat": 38.904992, "name": "6b706da8dbe0091374b5ce1454fff409", "fusion_lon": 0.0, "bike_id": "6b706da8dbe0091374b5ce1454fff409", "is_disabled": 0, "is_reserved": 0}, {"rental_uris": {"ios": "https://dc.lft.to/lastmile_qr_scan", "android": "https://dc.lft.to/lastmile_qr_scan"}, "lon": -77.0239295, "type": "electric_scooter", "fusion_lat": 0.0, "lat": 38.91605333333333, "name": "9a4b90d710e738dd93bd3412ae0d832f", "fusion_lon": 0.0, "bike_id": "9a4b90d710e738dd93bd3412ae0d832f", "is_disabled": 0, "is_reserved": 0}, {"rental_uris": {"ios": "https://dc.lft.to/lastmile_qr_scan", "android": "https://dc.lft.to/lastmile_qr_scan"}, "lon": -76.9741895, "type": "electric_scooter", "fusion_lat": 0.0, "lat": 38.9024335, "name": "023a4ea8e7a00d084f4114681a1d9d53", "fusion_lon": 0.0, "bike_id": "023a4ea8e7a00d084f4114681a1d9d53", "is_disabled": 0, "is_reserved": 0}, {"rental_uris": {"ios": "https://dc.lft.to/lastmile_qr_scan", "android": "https://dc.lft.to/lastmile_qr_scan"}, "lon": -76.9568025, "type": "electric_bike", "fusion_lat": 0.0, "lat": 38.9473195, "name": "7751bdf14ea3739f0213fd2623738f2b", "fusion_lon": 0.0, "bike_id": "7751bdf14ea3739f0213fd2623738f2b", "is_disabled": 0, "is_reserved": 0}, {"rental_uris": {"ios": "https://dc.lft.to/lastmile_qr_scan", "android": "https://dc.lft.to/lastmile_qr_scan"}, "lon": -77.03420033333333, "type": "electric_scooter", "fusion_lat": 0.0, "lat": 38.92427083333333, "name": "ee181b4a078f95f212660cbc6af96387", "fusion_lon": 0.0, "bike_id": "ee181b4a078f95f212660cbc6af96387", "is_disabled": 0, "is_reserved": 0}, {"rental_uris": {"ios": "https://dc.lft.to/lastmile_qr_scan", "android": "https://dc.lft.to/lastmile_qr_scan"}, "lon": -77.0805575, "type": "electric_bike", "fusion_lat": 0.0, "lat": 38.84845833333333, "name": "4fd39389d87f39978dab887c2234a5b3", "fusion_lon": 0.0, "bike_id": "4fd39389d87f39978dab887c2234a5b3", "is_disabled": 0, "is_reserved": 0}, {"rental_uris": {"ios": "https://dc.lft.to/lastmile_qr_scan", "android": "https://dc.lft.to/lastmile_qr_scan"}, "lon": -77.04703633333334, "type": "electric_scooter", "fusion_lat": 0.0, "lat": 38.90230833333333, "name": "9429e34494c79dc6c7b0625f61f8bbef", "fusion_lon": 0.0, "bike_id": "9429e34494c79dc6c7b0625f61f8bbef", "is_disabled": 0, "is_reserved": 0}, {"rental_uris": {"ios": "https://dc.lft.to/lastmile_qr_scan", "android": "https://dc.lft.to/lastmile_qr_scan"}, "lon": -77.04363133333334, "type": "electric_scooter", "fusion_lat": 0.0, "lat": 38.89223066666667, "name": "9a9d01af852e7f080f635f7e43d520e7", "fusion_lon": 0.0, "bike_id": "9a9d01af852e7f080f635f7e43d520e7", "is_disabled": 0, "is_reserved": 0}, {"rental_uris": {"ios": "https://dc.lft.to/lastmile_qr_scan", "android": "https://dc.lft.to/lastmile_qr_scan"}, "lon": -76.9860975, "type": "electric_scooter", "fusion_lat": 0.0, "lat": 38.878419666666666, "name": "afd05e05ffe69d33bd4a0ab2b56be89c", "fusion_lon": 0.0, "bike_id": "afd05e05ffe69d33bd4a0ab2b56be89c", "is_disabled": 0, "is_reserved": 0}, {"rental_uris": {"ios": "https://dc.lft.to/lastmile_qr_scan", "android": "https://dc.lft.to/lastmile_qr_scan"}, "lon": -77.011151, "type": "electric_scooter", "fusion_lat": 0.0, "lat": 38.87085066666667, "name": "4bc30c05287e2bf04ec0ae7c6b09b487", "fusion_lon": 0.0, "bike_id": "4bc30c05287e2bf04ec0ae7c6b09b487", "is_disabled": 0, "is_reserved": 0}, {"rental_uris": {"ios": "https://dc.lft.to/lastmile_qr_scan", "android": "https://dc.lft.to/lastmile_qr_scan"}, "lon": -77.04865, "type": "electric_scooter", "fusion_lat": 0.0, "lat": 38.8922145, "name": "c0397a4333fa982f3a9f2a7bc2ee2b1e", "fusion_lon": 0.0, "bike_id": "c0397a4333fa982f3a9f2a7bc2ee2b1e", "is_disabled": 0, "is_reserved": 0}, {"rental_uris": {"ios": "https://dc.lft.to/lastmile_qr_scan", "android": "https://dc.lft.to/lastmile_qr_scan"}, "lon": -76.99463583333333, "type": "electric_scooter", "fusion_lat": 0.0, "lat": 38.851636666666664, "name": "00cfa7e1e217cf7758a2ba2f203b8a08", "fusion_lon": 0.0, "bike_id": "00cfa7e1e217cf7758a2ba2f203b8a08", "is_disabled": 0, "is_reserved": 0}, {"rental_uris": {"ios": "https://dc.lft.to/lastmile_qr_scan", "android": "https://dc.lft.to/lastmile_qr_scan"}, "lon": -76.928789, "type": "electric_scooter", "fusion_lat": 0.0, "lat": 38.88442916666666, "name": "68f331c546b40b271fe1a5015123b8c9", "fusion_lon": 0.0, "bike_id": "68f331c546b40b271fe1a5015123b8c9", "is_disabled": 0, "is_reserved": 0}, {"rental_uris": {"ios": "https://dc.lft.to/lastmile_qr_scan", "android": "https://dc.lft.to/lastmile_qr_scan"}, "lon": -77.035754, "type": "electric_scooter", "fusion_lat": 0.0, "lat": 38.939770833333334, "name": "52927c6e529a9ec4ed134d9da576483b", "fusion_lon": 0.0, "bike_id": "52927c6e529a9ec4ed134d9da576483b", "is_disabled": 0, "is_reserved": 0}, {"rental_uris": {"ios": "https://dc.lft.to/lastmile_qr_scan", "android": "https://dc.lft.to/lastmile_qr_scan"}, "lon": -76.94823816666667, "type": "electric_scooter", "fusion_lat": 0.0, "lat": 38.8841395, "name": "bd9003a8687db366fdb91f44b7ff3695", "fusion_lon": 0.0, "bike_id": "bd9003a8687db366fdb91f44b7ff3695", "is_disabled": 0, "is_reserved": 0}, {"rental_uris": {"ios": "https://dc.lft.to/lastmile_qr_scan", "android": "https://dc.lft.to/lastmile_qr_scan"}, "lon": -76.93160866666666, "type": "electric_scooter", "fusion_lat": 0.0, "lat": 38.898793166666664, "name": "de87032900a3e28fc38eb6bdbfc542bc", "fusion_lon": 0.0, "bike_id": "de87032900a3e28fc38eb6bdbfc542bc", "is_disabled": 0, "is_reserved": 0}, {"rental_uris": {"ios": "https://dc.lft.to/lastmile_qr_scan", "android": "https://dc.lft.to/lastmile_qr_scan"}, "lon": -76.928446, "type": "electric_scooter", "fusion_lat": 0.0, "lat": 38.883595666666665, "name": "bec7d711f436bbeffb94f98be6485596", "fusion_lon": 0.0, "bike_id": "bec7d711f436bbeffb94f98be6485596", "is_disabled": 0, "is_reserved": 0}, {"rental_uris": {"ios": "https://dc.lft.to/lastmile_qr_scan", "android": "https://dc.lft.to/lastmile_qr_scan"}, "lon": -77.04823333333333, "type": "electric_scooter", "fusion_lat": 0.0, "lat": 38.909636166666665, "name": "e7a807b80dd257961368ef57369a2181", "fusion_lon": 0.0, "bike_id": "e7a807b80dd257961368ef57369a2181", "is_disabled": 0, "is_reserved": 0}, {"rental_uris": {"ios": "https://dc.lft.to/lastmile_qr_scan", "android": "https://dc.lft.to/lastmile_qr_scan"}, "lon": -77.00338316666667, "type": "electric_bike", "fusion_lat": 0.0, "lat": 38.876616, "name": "a341d30aac269d17069ba6473a74ac35", "fusion_lon": 0.0, "bike_id": "a341d30aac269d17069ba6473a74ac35", "is_disabled": 0, "is_reserved": 0}, {"rental_uris": {"ios": "https://dc.lft.to/lastmile_qr_scan", "android": "https://dc.lft.to/lastmile_qr_scan"}, "lon": -76.98751033333333, "type": "electric_scooter", "fusion_lat": 0.0, "lat": 38.9102275, "name": "4c7df868173efa89b50b45e7bd58e08f", "fusion_lon": 0.0, "bike_id": "4c7df868173efa89b50b45e7bd58e08f", "is_disabled": 0, "is_reserved": 0}, {"rental_uris": {"ios": "https://dc.lft.to/lastmile_qr_scan", "android": "https://dc.lft.to/lastmile_qr_scan"}, "lon": -77.0847935, "type": "electric_bike", "fusion_lat": 0.0, "lat": 38.890624333333335, "name": "3841074d21c8291e8613e6405e705019", "fusion_lon": 0.0, "bike_id": "3841074d21c8291e8613e6405e705019", "is_disabled": 0, "is_reserved": 0}, {"rental_uris": {"ios": "https://dc.lft.to/lastmile_qr_scan", "android": "https://dc.lft.to/lastmile_qr_scan"}, "lon": -77.03845616666666, "type": "electric_scooter", "fusion_lat": 0.0, "lat": 38.90755166666667, "name": "7ad42d3441d12157fcfd9ee92a4d1667", "fusion_lon": 0.0, "bike_id": "7ad42d3441d12157fcfd9ee92a4d1667", "is_disabled": 0, "is_reserved": 0}, {"rental_uris": {"ios": "https://dc.lft.to/lastmile_qr_scan", "android": "https://dc.lft.to/lastmile_qr_scan"}, "lon": -77.029614, "type": "electric_scooter", "fusion_lat": 0.0, "lat": 38.917232, "name": "5dd7073850147a37f539d1a979a09de3", "fusion_lon": 0.0, "bike_id": "5dd7073850147a37f539d1a979a09de3", "is_disabled": 0, "is_reserved": 0}, {"rental_uris": {"ios": "https://dc.lft.to/lastmile_qr_scan", "android": "https://dc.lft.to/lastmile_qr_scan"}, "lon": -77.0320475, "type": "electric_scooter", "fusion_lat": 0.0, "lat": 38.91851716666667, "name": "28f0c07d52211abece0bb74dabeb9882", "fusion_lon": 0.0, "bike_id": "28f0c07d52211abece0bb74dabeb9882", "is_disabled": 0, "is_reserved": 0}, {"rental_uris": {"ios": "https://dc.lft.to/lastmile_qr_scan", "android": "https://dc.lft.to/lastmile_qr_scan"}, "lon": -77.02635283333333, "type": "electric_scooter", "fusion_lat": 0.0, "lat": 38.929173666666664, "name": "e2ddb58957f66b591012b9a3d12688a5", "fusion_lon": 0.0, "bike_id": "e2ddb58957f66b591012b9a3d12688a5", "is_disabled": 0, "is_reserved": 0}, {"rental_uris": {"ios": "https://dc.lft.to/lastmile_qr_scan", "android": "https://dc.lft.to/lastmile_qr_scan"}, "lon": -77.0307665, "type": "electric_scooter", "fusion_lat": 0.0, "lat": 38.91179983333333, "name": "204adc6085c95d55ba1f55ac944f40f0", "fusion_lon": 0.0, "bike_id": "204adc6085c95d55ba1f55ac944f40f0", "is_disabled": 0, "is_reserved": 0}, {"rental_uris": {"ios": "https://dc.lft.to/lastmile_qr_scan", "android": "https://dc.lft.to/lastmile_qr_scan"}, "lon": -77.05753033333333, "type": "electric_scooter", "fusion_lat": 0.0, "lat": 38.934165166666666, "name": "530b2669fc8153fec92f68d91c4c5ba8", "fusion_lon": 0.0, "bike_id": "530b2669fc8153fec92f68d91c4c5ba8", "is_disabled": 0, "is_reserved": 0}, {"rental_uris": {"ios": "https://dc.lft.to/lastmile_qr_scan", "android": "https://dc.lft.to/lastmile_qr_scan"}, "lon": -77.037583, "type": "electric_scooter", "fusion_lat": 0.0, "lat": 38.92600133333333, "name": "7fac4a3d9501d5dad5f26d61904e1d6c", "fusion_lon": 0.0, "bike_id": "7fac4a3d9501d5dad5f26d61904e1d6c", "is_disabled": 0, "is_reserved": 0}, {"rental_uris": {"ios": "https://dc.lft.to/lastmile_qr_scan", "android": "https://dc.lft.to/lastmile_qr_scan"}, "lon": -77.04800233333333, "type": "electric_scooter", "fusion_lat": 0.0, "lat": 38.9038285, "name": "d41b71f57f17ccad20114a45d6b5f0b5", "fusion_lon": 0.0, "bike_id": "d41b71f57f17ccad20114a45d6b5f0b5", "is_disabled": 0, "is_reserved": 0}, {"rental_uris": {"ios": "https://dc.lft.to/lastmile_qr_scan", "android": "https://dc.lft.to/lastmile_qr_scan"}, "lon": -77.02395183333333, "type": "electric_scooter", "fusion_lat": 0.0, "lat": 38.900148, "name": "36b9211a7bb1d0dc8d78a116ab4d56c8", "fusion_lon": 0.0, "bike_id": "36b9211a7bb1d0dc8d78a116ab4d56c8", "is_disabled": 0, "is_reserved": 0}, {"rental_uris": {"ios": "https://dc.lft.to/lastmile_qr_scan", "android": "https://dc.lft.to/lastmile_qr_scan"}, "lon": -77.0143465, "type": "electric_scooter", "fusion_lat": 0.0, "lat": 38.91313183333333, "name": "2302ab596a5ba3bcc6c6a0c5c1433174", "fusion_lon": 0.0, "bike_id": "2302ab596a5ba3bcc6c6a0c5c1433174", "is_disabled": 0, "is_reserved": 0}, {"rental_uris": {"ios": "https://dc.lft.to/lastmile_qr_scan", "android": "https://dc.lft.to/lastmile_qr_scan"}, "lon": -77.03859633333333, "type": "electric_scooter", "fusion_lat": 0.0, "lat": 38.9154945, "name": "b21d2ef0bfc2164bd9de1a39d177bb7b", "fusion_lon": 0.0, "bike_id": "b21d2ef0bfc2164bd9de1a39d177bb7b", "is_disabled": 0, "is_reserved": 0}, {"rental_uris": {"ios": "https://dc.lft.to/lastmile_qr_scan", "android": "https://dc.lft.to/lastmile_qr_scan"}, "lon": -76.99913, "type": "electric_scooter", "fusion_lat": 0.0, "lat": 38.9094115, "name": "211379d5c7f44dc2a66fb9a21703e999", "fusion_lon": 0.0, "bike_id": "211379d5c7f44dc2a66fb9a21703e999", "is_disabled": 0, "is_reserved": 0}, {"rental_uris": {"ios": "https://dc.lft.to/lastmile_qr_scan", "android": "https://dc.lft.to/lastmile_qr_scan"}, "lon": -77.03195816666667, "type": "electric_scooter", "fusion_lat": 0.0, "lat": 38.90954283333333, "name": "72dffcb680e882c7e8c4bed528dd12f1", "fusion_lon": 0.0, "bike_id": "72dffcb680e882c7e8c4bed528dd12f1", "is_disabled": 0, "is_reserved": 0}, {"rental_uris": {"ios": "https://dc.lft.to/lastmile_qr_scan", "android": "https://dc.lft.to/lastmile_qr_scan"}, "lon": -77.11524816666666, "type": "electric_bike", "fusion_lat": 0.0, "lat": 38.85495566666667, "name": "842953db04e741ecf9d805a1fbef9b57", "fusion_lon": 0.0, "bike_id": "842953db04e741ecf9d805a1fbef9b57", "is_disabled": 0, "is_reserved": 0}, {"rental_uris": {"ios": "https://dc.lft.to/lastmile_qr_scan", "android": "https://dc.lft.to/lastmile_qr_scan"}, "lon": -77.04586033333334, "type": "electric_scooter", "fusion_lat": 0.0, "lat": 38.91717833333333, "name": "cd01d2ff6de55054babe75e4b6e2fff0", "fusion_lon": 0.0, "bike_id": "cd01d2ff6de55054babe75e4b6e2fff0", "is_disabled": 0, "is_reserved": 0}, {"rental_uris": {"ios": "https://dc.lft.to/lastmile_qr_scan", "android": "https://dc.lft.to/lastmile_qr_scan"}, "lon": -77.03204533333333, "type": "electric_scooter", "fusion_lat": 0.0, "lat": 38.90367783333333, "name": "2445485bf26b2b511331d0c0c80285d2", "fusion_lon": 0.0, "bike_id": "2445485bf26b2b511331d0c0c80285d2", "is_disabled": 0, "is_reserved": 0}, {"rental_uris": {"ios": "https://dc.lft.to/lastmile_qr_scan", "android": "https://dc.lft.to/lastmile_qr_scan"}, "lon": -77.015119, "type": "electric_scooter", "fusion_lat": 0.0, "lat": 38.88736133333333, "name": "8ecc457ff50f2d4e744a7151f9b9e89c", "fusion_lon": 0.0, "bike_id": "8ecc457ff50f2d4e744a7151f9b9e89c", "is_disabled": 0, "is_reserved": 0}, {"rental_uris": {"ios": "https://dc.lft.to/lastmile_qr_scan", "android": "https://dc.lft.to/lastmile_qr_scan"}, "lon": -77.01744883333333, "type": "electric_scooter", "fusion_lat": 0.0, "lat": 38.91712883333334, "name": "d6610ccd258b3309e72c6b060da1182b", "fusion_lon": 0.0, "bike_id": "d6610ccd258b3309e72c6b060da1182b", "is_disabled": 0, "is_reserved": 0}, {"rental_uris": {"ios": "https://dc.lft.to/lastmile_qr_scan", "android": "https://dc.lft.to/lastmile_qr_scan"}, "lon": -77.02493383333334, "type": "electric_scooter", "fusion_lat": 0.0, "lat": 38.936438, "name": "7a24226cf3affb6e7140194cda277cf7", "fusion_lon": 0.0, "bike_id": "7a24226cf3affb6e7140194cda277cf7", "is_disabled": 0, "is_reserved": 0}, {"rental_uris": {"ios": "https://dc.lft.to/lastmile_qr_scan", "android": "https://dc.lft.to/lastmile_qr_scan"}, "lon": -77.0259885, "type": "electric_scooter", "fusion_lat": 0.0, "lat": 38.919946333333336, "name": "7430d08f4d80acc3b3bd75001806fd32", "fusion_lon": 0.0, "bike_id": "7430d08f4d80acc3b3bd75001806fd32", "is_disabled": 0, "is_reserved": 0}, {"rental_uris": {"ios": "https://dc.lft.to/lastmile_qr_scan", "android": "https://dc.lft.to/lastmile_qr_scan"}, "lon": -76.90437933333334, "type": "electric_bike", "fusion_lat": 0.0, "lat": 38.8977855, "name": "310664a44052b9b10c2d81fdc9d0602e", "fusion_lon": 0.0, "bike_id": "310664a44052b9b10c2d81fdc9d0602e", "is_disabled": 0, "is_reserved": 0}, {"rental_uris": {"ios": "https://dc.lft.to/lastmile_qr_scan", "android": "https://dc.lft.to/lastmile_qr_scan"}, "lon": -77.02470733333334, "type": "electric_scooter", "fusion_lat": 0.0, "lat": 38.93300166666667, "name": "fc1d53cc1a633138a33e2e54cbeeeaae", "fusion_lon": 0.0, "bike_id": "fc1d53cc1a633138a33e2e54cbeeeaae", "is_disabled": 0, "is_reserved": 0}, {"rental_uris": {"ios": "https://dc.lft.to/lastmile_qr_scan", "android": "https://dc.lft.to/lastmile_qr_scan"}, "lon": -77.03578733333333, "type": "electric_scooter", "fusion_lat": 0.0, "lat": 38.90236616666667, "name": "7453615790c850bdcfa9c49a26b0e92e", "fusion_lon": 0.0, "bike_id": "7453615790c850bdcfa9c49a26b0e92e", "is_disabled": 0, "is_reserved": 0}, {"rental_uris": {"ios": "https://dc.lft.to/lastmile_qr_scan", "android": "https://dc.lft.to/lastmile_qr_scan"}, "lon": -77.04882433333333, "type": "electric_scooter", "fusion_lat": 0.0, "lat": 38.9123905, "name": "2d16a66927362d12a202f283f89dd806", "fusion_lon": 0.0, "bike_id": "2d16a66927362d12a202f283f89dd806", "is_disabled": 0, "is_reserved": 0}, {"rental_uris": {"ios": "https://dc.lft.to/lastmile_qr_scan", "android": "https://dc.lft.to/lastmile_qr_scan"}, "lon": -77.03081366666666, "type": "electric_scooter", "fusion_lat": 0.0, "lat": 38.90991283333334, "name": "0f27e3dd8f7944457ed508e898dc86ae", "fusion_lon": 0.0, "bike_id": "0f27e3dd8f7944457ed508e898dc86ae", "is_disabled": 0, "is_reserved": 0}, {"rental_uris": {"ios": "https://dc.lft.to/lastmile_qr_scan", "android": "https://dc.lft.to/lastmile_qr_scan"}, "lon": -77.0121375, "type": "electric_scooter", "fusion_lat": 0.0, "lat": 38.915207833333334, "name": "b5076dddf53ee45f0a6dbcabcf760f8e", "fusion_lon": 0.0, "bike_id": "b5076dddf53ee45f0a6dbcabcf760f8e", "is_disabled": 0, "is_reserved": 0}, {"rental_uris": {"ios": "https://dc.lft.to/lastmile_qr_scan", "android": "https://dc.lft.to/lastmile_qr_scan"}, "lon": -77.034541, "type": "electric_scooter", "fusion_lat": 0.0, "lat": 38.903612, "name": "5c0cf2ca9cfb086866f44f78345cf648", "fusion_lon": 0.0, "bike_id": "5c0cf2ca9cfb086866f44f78345cf648", "is_disabled": 0, "is_reserved": 0}, {"rental_uris": {"ios": "https://dc.lft.to/lastmile_qr_scan", "android": "https://dc.lft.to/lastmile_qr_scan"}, "lon": -77.00728816666667, "type": "electric_scooter", "fusion_lat": 0.0, "lat": 38.884949666666664, "name": "f9e6056d48005d412d1abffbe53cba69", "fusion_lon": 0.0, "bike_id": "f9e6056d48005d412d1abffbe53cba69", "is_disabled": 0, "is_reserved": 0}, {"rental_uris": {"ios": "https://dc.lft.to/lastmile_qr_scan", "android": "https://dc.lft.to/lastmile_qr_scan"}, "lon": -77.046084, "type": "electric_scooter", "fusion_lat": 0.0, "lat": 38.91396983333333, "name": "90324d20da36a9bdc5bea2ab7b3df5ed", "fusion_lon": 0.0, "bike_id": "90324d20da36a9bdc5bea2ab7b3df5ed", "is_disabled": 0, "is_reserved": 0}, {"rental_uris": {"ios": "https://dc.lft.to/lastmile_qr_scan", "android": "https://dc.lft.to/lastmile_qr_scan"}, "lon": -77.04822333333334, "type": "electric_scooter", "fusion_lat": 0.0, "lat": 38.920376166666664, "name": "c32d555e72463de2a56e23af12a4d867", "fusion_lon": 0.0, "bike_id": "c32d555e72463de2a56e23af12a4d867", "is_disabled": 0, "is_reserved": 0}, {"rental_uris": {"ios": "https://dc.lft.to/lastmile_qr_scan", "android": "https://dc.lft.to/lastmile_qr_scan"}, "lon": -76.94665466666666, "type": "electric_scooter", "fusion_lat": 0.0, "lat": 38.898697, "name": "7dfbfe0f454e603302c9272fa798c591", "fusion_lon": 0.0, "bike_id": "7dfbfe0f454e603302c9272fa798c591", "is_disabled": 0, "is_reserved": 0}, {"rental_uris": {"ios": "https://dc.lft.to/lastmile_qr_scan", "android": "https://dc.lft.to/lastmile_qr_scan"}, "lon": -77.03221066666667, "type": "electric_scooter", "fusion_lat": 0.0, "lat": 38.9160915, "name": "9f8bd4453bfa1096f11e53fe47892e9b", "fusion_lon": 0.0, "bike_id": "9f8bd4453bfa1096f11e53fe47892e9b", "is_disabled": 0, "is_reserved": 0}, {"rental_uris": {"ios": "https://dc.lft.to/lastmile_qr_scan", "android": "https://dc.lft.to/lastmile_qr_scan"}, "lon": -76.99816916666667, "type": "electric_bike", "fusion_lat": 0.0, "lat": 38.84433816666667, "name": "b24cd47e820a306c8f96df3bf46ec439", "fusion_lon": 0.0, "bike_id": "b24cd47e820a306c8f96df3bf46ec439", "is_disabled": 0, "is_reserved": 0}, {"rental_uris": {"ios": "https://dc.lft.to/lastmile_qr_scan", "android": "https://dc.lft.to/lastmile_qr_scan"}, "lon": -77.01190816666667, "type": "electric_scooter", "fusion_lat": 0.0, "lat": 38.91549716666667, "name": "5836345c5ca53d2e890634178745108d", "fusion_lon": 0.0, "bike_id": "5836345c5ca53d2e890634178745108d", "is_disabled": 0, "is_reserved": 0}, {"rental_uris": {"ios": "https://dc.lft.to/lastmile_qr_scan", "android": "https://dc.lft.to/lastmile_qr_scan"}, "lon": -77.00069616666667, "type": "electric_scooter", "fusion_lat": 0.0, "lat": 38.925534, "name": "ffdffde56c3a9ed2ef1113fdc1660ebc", "fusion_lon": 0.0, "bike_id": "ffdffde56c3a9ed2ef1113fdc1660ebc", "is_disabled": 0, "is_reserved": 0}, {"rental_uris": {"ios": "https://dc.lft.to/lastmile_qr_scan", "android": "https://dc.lft.to/lastmile_qr_scan"}, "lon": -77.04783133333333, "type": "electric_scooter", "fusion_lat": 0.0, "lat": 38.89961233333333, "name": "542f6c31010a0290ab447c97f320ebf6", "fusion_lon": 0.0, "bike_id": "542f6c31010a0290ab447c97f320ebf6", "is_disabled": 0, "is_reserved": 0}, {"rental_uris": {"ios": "https://dc.lft.to/lastmile_qr_scan", "android": "https://dc.lft.to/lastmile_qr_scan"}, "lon": -77.021749, "type": "electric_scooter", "fusion_lat": 0.0, "lat": 38.88036566666667, "name": "829d51dbc4234560b0a7abbd0d15e8a0", "fusion_lon": 0.0, "bike_id": "829d51dbc4234560b0a7abbd0d15e8a0", "is_disabled": 0, "is_reserved": 0}, {"rental_uris": {"ios": "https://dc.lft.to/lastmile_qr_scan", "android": "https://dc.lft.to/lastmile_qr_scan"}, "lon": -77.02500066666667, "type": "electric_scooter", "fusion_lat": 0.0, "lat": 38.91947783333333, "name": "5a82ac7de75521c5151f60dc6f9e0b6e", "fusion_lon": 0.0, "bike_id": "5a82ac7de75521c5151f60dc6f9e0b6e", "is_disabled": 0, "is_reserved": 0}, {"rental_uris": {"ios": "https://dc.lft.to/lastmile_qr_scan", "android": "https://dc.lft.to/lastmile_qr_scan"}, "lon": -77.02308366666666, "type": "electric_scooter", "fusion_lat": 0.0, "lat": 38.90882366666666, "name": "c6b63f8b6560d72698a8a80b20601996", "fusion_lon": 0.0, "bike_id": "c6b63f8b6560d72698a8a80b20601996", "is_disabled": 0, "is_reserved": 0}, {"rental_uris": {"ios": "https://dc.lft.to/lastmile_qr_scan", "android": "https://dc.lft.to/lastmile_qr_scan"}, "lon": -77.071022, "type": "electric_bike", "fusion_lat": 0.0, "lat": 38.91452966666667, "name": "ef5c890dcc27aaa2b661b6dee895cf7b", "fusion_lon": 0.0, "bike_id": "ef5c890dcc27aaa2b661b6dee895cf7b", "is_disabled": 0, "is_reserved": 0}, {"rental_uris": {"ios": "https://dc.lft.to/lastmile_qr_scan", "android": "https://dc.lft.to/lastmile_qr_scan"}, "lon": -77.04685433333333, "type": "electric_scooter", "fusion_lat": 0.0, "lat": 38.89227366666667, "name": "d143458f6d9c25e60c443cb8415d8f6b", "fusion_lon": 0.0, "bike_id": "d143458f6d9c25e60c443cb8415d8f6b", "is_disabled": 0, "is_reserved": 0}, {"rental_uris": {"ios": "https://dc.lft.to/lastmile_qr_scan", "android": "https://dc.lft.to/lastmile_qr_scan"}, "lon": -77.02538833333334, "type": "electric_scooter", "fusion_lat": 0.0, "lat": 38.92406583333333, "name": "18ae5a2e97cb5293b22fafafead5f824", "fusion_lon": 0.0, "bike_id": "18ae5a2e97cb5293b22fafafead5f824", "is_disabled": 0, "is_reserved": 0}, {"rental_uris": {"ios": "https://dc.lft.to/lastmile_qr_scan", "android": "https://dc.lft.to/lastmile_qr_scan"}, "lon": -77.07729483333334, "type": "electric_scooter", "fusion_lat": 0.0, "lat": 38.9470715, "name": "2ced3b648e748bab31ec5cd2aa2dfeab", "fusion_lon": 0.0, "bike_id": "2ced3b648e748bab31ec5cd2aa2dfeab", "is_disabled": 0, "is_reserved": 0}, {"rental_uris": {"ios": "https://dc.lft.to/lastmile_qr_scan", "android": "https://dc.lft.to/lastmile_qr_scan"}, "lon": -77.02775516666667, "type": "electric_scooter", "fusion_lat": 0.0, "lat": 38.953872833333335, "name": "62471b861e33d00c00d9374e707aec37", "fusion_lon": 0.0, "bike_id": "62471b861e33d00c00d9374e707aec37", "is_disabled": 0, "is_reserved": 0}, {"rental_uris": {"ios": "https://dc.lft.to/lastmile_qr_scan", "android": "https://dc.lft.to/lastmile_qr_scan"}, "lon": -77.0560105, "type": "electric_bike", "fusion_lat": 0.0, "lat": 38.9085125, "name": "99d927e75d0d65e86f94e54c30dc8707", "fusion_lon": 0.0, "bike_id": "99d927e75d0d65e86f94e54c30dc8707", "is_disabled": 0, "is_reserved": 0}, {"rental_uris": {"ios": "https://dc.lft.to/lastmile_qr_scan", "android": "https://dc.lft.to/lastmile_qr_scan"}, "lon": -77.03466083333333, "type": "electric_scooter", "fusion_lat": 0.0, "lat": 38.923511500000004, "name": "fe085d8b904054c496a10f4f5d6d5464", "fusion_lon": 0.0, "bike_id": "fe085d8b904054c496a10f4f5d6d5464", "is_disabled": 0, "is_reserved": 0}, {"rental_uris": {"ios": "https://dc.lft.to/lastmile_qr_scan", "android": "https://dc.lft.to/lastmile_qr_scan"}, "lon": -76.980933, "type": "electric_bike", "fusion_lat": 0.0, "lat": 38.881371666666666, "name": "3b4b2707e9b2687f1e204a9483ea4bac", "fusion_lon": 0.0, "bike_id": "3b4b2707e9b2687f1e204a9483ea4bac", "is_disabled": 0, "is_reserved": 0}, {"rental_uris": {"ios": "https://dc.lft.to/lastmile_qr_scan", "android": "https://dc.lft.to/lastmile_qr_scan"}, "lon": -77.00600983333334, "type": "electric_scooter", "fusion_lat": 0.0, "lat": 38.884911, "name": "373e369434cf5399f1f29d3005f96396", "fusion_lon": 0.0, "bike_id": "373e369434cf5399f1f29d3005f96396", "is_disabled": 0, "is_reserved": 0}, {"rental_uris": {"ios": "https://dc.lft.to/lastmile_qr_scan", "android": "https://dc.lft.to/lastmile_qr_scan"}, "lon": -76.94640033333333, "type": "electric_scooter", "fusion_lat": 0.0, "lat": 38.89836483333333, "name": "56f1c48c49fb46b46b7c793f43ae123b", "fusion_lon": 0.0, "bike_id": "56f1c48c49fb46b46b7c793f43ae123b", "is_disabled": 0, "is_reserved": 0}, {"rental_uris": {"ios": "https://dc.lft.to/lastmile_qr_scan", "android": "https://dc.lft.to/lastmile_qr_scan"}, "lon": -77.02799433333334, "type": "electric_scooter", "fusion_lat": 0.0, "lat": 38.96191233333333, "name": "e7b518d35b21577701125f64c726cb29", "fusion_lon": 0.0, "bike_id": "e7b518d35b21577701125f64c726cb29", "is_disabled": 0, "is_reserved": 0}, {"rental_uris": {"ios": "https://dc.lft.to/lastmile_qr_scan", "android": "https://dc.lft.to/lastmile_qr_scan"}, "lon": -77.02145466666667, "type": "electric_scooter", "fusion_lat": 0.0, "lat": 38.897122833333334, "name": "93b7c056e814b7671cae49465249d751", "fusion_lon": 0.0, "bike_id": "93b7c056e814b7671cae49465249d751", "is_disabled": 0, "is_reserved": 0}, {"rental_uris": {"ios": "https://dc.lft.to/lastmile_qr_scan", "android": "https://dc.lft.to/lastmile_qr_scan"}, "lon": -77.095537, "type": "electric_bike", "fusion_lat": 0.0, "lat": 38.83736483333333, "name": "3ac72284066bc2f509e7aba0f8fc8f59", "fusion_lon": 0.0, "bike_id": "3ac72284066bc2f509e7aba0f8fc8f59", "is_disabled": 0, "is_reserved": 0}, {"rental_uris": {"ios": "https://dc.lft.to/lastmile_qr_scan", "android": "https://dc.lft.to/lastmile_qr_scan"}, "lon": -77.00379533333333, "type": "electric_bike", "fusion_lat": 0.0, "lat": 38.836048, "name": "7cee5caa74226fe6fe61a088c67df197", "fusion_lon": 0.0, "bike_id": "7cee5caa74226fe6fe61a088c67df197", "is_disabled": 0, "is_reserved": 0}, {"rental_uris": {"ios": "https://dc.lft.to/lastmile_qr_scan", "android": "https://dc.lft.to/lastmile_qr_scan"}, "lon": -77.05060066666667, "type": "electric_scooter", "fusion_lat": 0.0, "lat": 38.90540766666667, "name": "9a446c3647b9f7006a24aa1ab4196542", "fusion_lon": 0.0, "bike_id": "9a446c3647b9f7006a24aa1ab4196542", "is_disabled": 0, "is_reserved": 0}, {"rental_uris": {"ios": "https://dc.lft.to/lastmile_qr_scan", "android": "https://dc.lft.to/lastmile_qr_scan"}, "lon": -77.00364466666667, "type": "electric_scooter", "fusion_lat": 0.0, "lat": 38.83812733333333, "name": "1929538e8b9d4284df8684603c2a6655", "fusion_lon": 0.0, "bike_id": "1929538e8b9d4284df8684603c2a6655", "is_disabled": 0, "is_reserved": 0}, {"rental_uris": {"ios": "https://dc.lft.to/lastmile_qr_scan", "android": "https://dc.lft.to/lastmile_qr_scan"}, "lon": -77.05195233333333, "type": "electric_scooter", "fusion_lat": 0.0, "lat": 38.924069833333334, "name": "a07597079d06109086373c6332186a37", "fusion_lon": 0.0, "bike_id": "a07597079d06109086373c6332186a37", "is_disabled": 0, "is_reserved": 0}, {"rental_uris": {"ios": "https://dc.lft.to/lastmile_qr_scan", "android": "https://dc.lft.to/lastmile_qr_scan"}, "lon": -77.03831083333333, "type": "electric_scooter", "fusion_lat": 0.0, "lat": 38.92176383333333, "name": "2bb435256851ab80266fd1d818bf5008", "fusion_lon": 0.0, "bike_id": "2bb435256851ab80266fd1d818bf5008", "is_disabled": 0, "is_reserved": 0}, {"rental_uris": {"ios": "https://dc.lft.to/lastmile_qr_scan", "android": "https://dc.lft.to/lastmile_qr_scan"}, "lon": -76.95733766666666, "type": "electric_scooter", "fusion_lat": 0.0, "lat": 38.892220333333334, "name": "f0df8a6f09eb1841db2a0f1f3a0ca61f", "fusion_lon": 0.0, "bike_id": "f0df8a6f09eb1841db2a0f1f3a0ca61f", "is_disabled": 0, "is_reserved": 0}, {"rental_uris": {"ios": "https://dc.lft.to/lastmile_qr_scan", "android": "https://dc.lft.to/lastmile_qr_scan"}, "lon": -77.0321525, "type": "electric_scooter", "fusion_lat": 0.0, "lat": 38.90401833333333, "name": "8d95a343a2a0dc4346ad68964683dc03", "fusion_lon": 0.0, "bike_id": "8d95a343a2a0dc4346ad68964683dc03", "is_disabled": 0, "is_reserved": 0}, {"rental_uris": {"ios": "https://dc.lft.to/lastmile_qr_scan", "android": "https://dc.lft.to/lastmile_qr_scan"}, "lon": -77.01881316666666, "type": "electric_scooter", "fusion_lat": 0.0, "lat": 38.906130166666664, "name": "7c1274817da45adb4f13d1779566cb33", "fusion_lon": 0.0, "bike_id": "7c1274817da45adb4f13d1779566cb33", "is_disabled": 0, "is_reserved": 0}, {"rental_uris": {"ios": "https://dc.lft.to/lastmile_qr_scan", "android": "https://dc.lft.to/lastmile_qr_scan"}, "lon": -77.02997783333333, "type": "electric_bike", "fusion_lat": 0.0, "lat": 38.9004285, "name": "bc1dc7be253aa028a9dc8b5140ee9969", "fusion_lon": 0.0, "bike_id": "bc1dc7be253aa028a9dc8b5140ee9969", "is_disabled": 0, "is_reserved": 0}, {"rental_uris": {"ios": "https://dc.lft.to/lastmile_qr_scan", "android": "https://dc.lft.to/lastmile_qr_scan"}, "lon": -77.037992, "type": "electric_bike", "fusion_lat": 0.0, "lat": 38.99678333333333, "name": "affd0b8b3e32fed8000fea653d7ec935", "fusion_lon": 0.0, "bike_id": "affd0b8b3e32fed8000fea653d7ec935", "is_disabled": 0, "is_reserved": 0}, {"rental_uris": {"ios": "https://dc.lft.to/lastmile_qr_scan", "android": "https://dc.lft.to/lastmile_qr_scan"}, "lon": -77.04282883333333, "type": "electric_scooter", "fusion_lat": 0.0, "lat": 38.907174833333336, "name": "3fe006a859300b64c45df2d248f527bd", "fusion_lon": 0.0, "bike_id": "3fe006a859300b64c45df2d248f527bd", "is_disabled": 0, "is_reserved": 0}, {"rental_uris": {"ios": "https://dc.lft.to/lastmile_qr_scan", "android": "https://dc.lft.to/lastmile_qr_scan"}, "lon": -77.04037283333334, "type": "electric_scooter", "fusion_lat": 0.0, "lat": 38.92433616666667, "name": "b61ce2aee266df2c073fa22a1d9505de", "fusion_lon": 0.0, "bike_id": "b61ce2aee266df2c073fa22a1d9505de", "is_disabled": 0, "is_reserved": 0}, {"rental_uris": {"ios": "https://dc.lft.to/lastmile_qr_scan", "android": "https://dc.lft.to/lastmile_qr_scan"}, "lon": -77.03339666666666, "type": "electric_scooter", "fusion_lat": 0.0, "lat": 38.90334383333333, "name": "8a088f86b1c79c941d839af45e3fe8ab", "fusion_lon": 0.0, "bike_id": "8a088f86b1c79c941d839af45e3fe8ab", "is_disabled": 0, "is_reserved": 0}, {"rental_uris": {"ios": "https://dc.lft.to/lastmile_qr_scan", "android": "https://dc.lft.to/lastmile_qr_scan"}, "lon": -77.05004016666666, "type": "electric_scooter", "fusion_lat": 0.0, "lat": 38.892361333333334, "name": "c0b843a72f7112bdd2259fd391ba5153", "fusion_lon": 0.0, "bike_id": "c0b843a72f7112bdd2259fd391ba5153", "is_disabled": 0, "is_reserved": 0}, {"rental_uris": {"ios": "https://dc.lft.to/lastmile_qr_scan", "android": "https://dc.lft.to/lastmile_qr_scan"}, "lon": -77.02500916666666, "type": "electric_scooter", "fusion_lat": 0.0, "lat": 38.880275833333336, "name": "8ab52d794a658238dc291591f793b859", "fusion_lon": 0.0, "bike_id": "8ab52d794a658238dc291591f793b859", "is_disabled": 0, "is_reserved": 0}, {"rental_uris": {"ios": "https://dc.lft.to/lastmile_qr_scan", "android": "https://dc.lft.to/lastmile_qr_scan"}, "lon": -77.13185133333333, "type": "electric_bike", "fusion_lat": 0.0, "lat": 38.86913366666667, "name": "e813dc8dae1bce31e05158c497b57b6c", "fusion_lon": 0.0, "bike_id": "e813dc8dae1bce31e05158c497b57b6c", "is_disabled": 0, "is_reserved": 0}, {"rental_uris": {"ios": "https://dc.lft.to/lastmile_qr_scan", "android": "https://dc.lft.to/lastmile_qr_scan"}, "lon": -76.97440483333334, "type": "electric_bike", "fusion_lat": 0.0, "lat": 38.864208833333336, "name": "16cdbb176634e010fce7881a54e8e477", "fusion_lon": 0.0, "bike_id": "16cdbb176634e010fce7881a54e8e477", "is_disabled": 0, "is_reserved": 0}, {"rental_uris": {"ios": "https://dc.lft.to/lastmile_qr_scan", "android": "https://dc.lft.to/lastmile_qr_scan"}, "lon": -77.03942783333333, "type": "electric_scooter", "fusion_lat": 0.0, "lat": 38.93152883333333, "name": "d2fd6678658cb9e197f107d71e7c1f95", "fusion_lon": 0.0, "bike_id": "d2fd6678658cb9e197f107d71e7c1f95", "is_disabled": 0, "is_reserved": 0}, {"rental_uris": {"ios": "https://dc.lft.to/lastmile_qr_scan", "android": "https://dc.lft.to/lastmile_qr_scan"}, "lon": -76.97729683333333, "type": "electric_scooter", "fusion_lat": 0.0, "lat": 38.87290933333333, "name": "32c90b12c752531154d1f44ca4d04bdc", "fusion_lon": 0.0, "bike_id": "32c90b12c752531154d1f44ca4d04bdc", "is_disabled": 0, "is_reserved": 0}, {"rental_uris": {"ios": "https://dc.lft.to/lastmile_qr_scan", "android": "https://dc.lft.to/lastmile_qr_scan"}, "lon": -77.0248575, "type": "electric_scooter", "fusion_lat": 0.0, "lat": 38.90170283333333, "name": "1fc5478555034fd9d29e3aaddf4ec781", "fusion_lon": 0.0, "bike_id": "1fc5478555034fd9d29e3aaddf4ec781", "is_disabled": 0, "is_reserved": 0}, {"rental_uris": {"ios": "https://dc.lft.to/lastmile_qr_scan", "android": "https://dc.lft.to/lastmile_qr_scan"}, "lon": -76.9494415, "type": "electric_scooter", "fusion_lat": 0.0, "lat": 38.8838355, "name": "8a7083d85968855cdf3d9eb18be56ee8", "fusion_lon": 0.0, "bike_id": "8a7083d85968855cdf3d9eb18be56ee8", "is_disabled": 0, "is_reserved": 0}, {"rental_uris": {"ios": "https://dc.lft.to/lastmile_qr_scan", "android": "https://dc.lft.to/lastmile_qr_scan"}, "lon": -77.04804783333333, "type": "electric_scooter", "fusion_lat": 0.0, "lat": 38.91634916666667, "name": "a605fab10e0e815621936650913c35d2", "fusion_lon": 0.0, "bike_id": "a605fab10e0e815621936650913c35d2", "is_disabled": 0, "is_reserved": 0}, {"rental_uris": {"ios": "https://dc.lft.to/lastmile_qr_scan", "android": "https://dc.lft.to/lastmile_qr_scan"}, "lon": -77.05059533333333, "type": "electric_scooter", "fusion_lat": 0.0, "lat": 38.90517533333333, "name": "3a3da98ab42cd2150c444e6b35dd713e", "fusion_lon": 0.0, "bike_id": "3a3da98ab42cd2150c444e6b35dd713e", "is_disabled": 0, "is_reserved": 0}, {"rental_uris": {"ios": "https://dc.lft.to/lastmile_qr_scan", "android": "https://dc.lft.to/lastmile_qr_scan"}, "lon": -77.03266616666667, "type": "electric_scooter", "fusion_lat": 0.0, "lat": 38.91981233333333, "name": "7355a3bee21e873e1da11ad9f5a362c7", "fusion_lon": 0.0, "bike_id": "7355a3bee21e873e1da11ad9f5a362c7", "is_disabled": 0, "is_reserved": 0}, {"rental_uris": {"ios": "https://dc.lft.to/lastmile_qr_scan", "android": "https://dc.lft.to/lastmile_qr_scan"}, "lon": -77.030251, "type": "electric_scooter", "fusion_lat": 0.0, "lat": 38.897283333333334, "name": "a5a2d268eb39575377e1ed4d4625f616", "fusion_lon": 0.0, "bike_id": "a5a2d268eb39575377e1ed4d4625f616", "is_disabled": 0, "is_reserved": 0}, {"rental_uris": {"ios": "https://dc.lft.to/lastmile_qr_scan", "android": "https://dc.lft.to/lastmile_qr_scan"}, "lon": -77.006651, "type": "electric_scooter", "fusion_lat": 0.0, "lat": 38.874680833333336, "name": "f9d98bdc6d5c35e027aa7cc31766572b", "fusion_lon": 0.0, "bike_id": "f9d98bdc6d5c35e027aa7cc31766572b", "is_disabled": 0, "is_reserved": 0}, {"rental_uris": {"ios": "https://dc.lft.to/lastmile_qr_scan", "android": "https://dc.lft.to/lastmile_qr_scan"}, "lon": -77.0335535, "type": "electric_scooter", "fusion_lat": 0.0, "lat": 38.88507833333333, "name": "039939135733899c494cdabf20b7fad4", "fusion_lon": 0.0, "bike_id": "039939135733899c494cdabf20b7fad4", "is_disabled": 0, "is_reserved": 0}, {"rental_uris": {"ios": "https://dc.lft.to/lastmile_qr_scan", "android": "https://dc.lft.to/lastmile_qr_scan"}, "lon": -77.02976883333334, "type": "electric_scooter", "fusion_lat": 0.0, "lat": 38.962291, "name": "3557cc94ab7197d74118aec82bf3a64b", "fusion_lon": 0.0, "bike_id": "3557cc94ab7197d74118aec82bf3a64b", "is_disabled": 0, "is_reserved": 0}, {"rental_uris": {"ios": "https://dc.lft.to/lastmile_qr_scan", "android": "https://dc.lft.to/lastmile_qr_scan"}, "lon": -77.04422983333333, "type": "electric_scooter", "fusion_lat": 0.0, "lat": 38.8923005, "name": "e376a1ed5c2acc60c556e8ae593dab5f", "fusion_lon": 0.0, "bike_id": "e376a1ed5c2acc60c556e8ae593dab5f", "is_disabled": 0, "is_reserved": 0}, {"rental_uris": {"ios": "https://dc.lft.to/lastmile_qr_scan", "android": "https://dc.lft.to/lastmile_qr_scan"}, "lon": -77.17851833333333, "type": "electric_bike", "fusion_lat": 0.0, "lat": 39.08902966666667, "name": "a54a60234305b8f6d97b4db7ac2c6844", "fusion_lon": 0.0, "bike_id": "a54a60234305b8f6d97b4db7ac2c6844", "is_disabled": 0, "is_reserved": 0}, {"rental_uris": {"ios": "https://dc.lft.to/lastmile_qr_scan", "android": "https://dc.lft.to/lastmile_qr_scan"}, "lon": -77.0410515, "type": "electric_scooter", "fusion_lat": 0.0, "lat": 38.918516833333335, "name": "f4058eb69cfcd7271cf23979133fa4dc", "fusion_lon": 0.0, "bike_id": "f4058eb69cfcd7271cf23979133fa4dc", "is_disabled": 0, "is_reserved": 0}, {"rental_uris": {"ios": "https://dc.lft.to/lastmile_qr_scan", "android": "https://dc.lft.to/lastmile_qr_scan"}, "lon": -77.08544216666667, "type": "electric_bike", "fusion_lat": 0.0, "lat": 38.856189, "name": "cdc937365a9831e7645bfb99ea723bf3", "fusion_lon": 0.0, "bike_id": "cdc937365a9831e7645bfb99ea723bf3", "is_disabled": 0, "is_reserved": 0}, {"rental_uris": {"ios": "https://dc.lft.to/lastmile_qr_scan", "android": "https://dc.lft.to/lastmile_qr_scan"}, "lon": -77.031897, "type": "electric_scooter", "fusion_lat": 0.0, "lat": 38.930700333333334, "name": "1dbbc442b8487c1d24f34f216f9c62fe", "fusion_lon": 0.0, "bike_id": "1dbbc442b8487c1d24f34f216f9c62fe", "is_disabled": 0, "is_reserved": 0}, {"rental_uris": {"ios": "https://dc.lft.to/lastmile_qr_scan", "android": "https://dc.lft.to/lastmile_qr_scan"}, "lon": -77.03470966666667, "type": "electric_scooter", "fusion_lat": 0.0, "lat": 38.934460666666666, "name": "0542f1655647bce70dc9e2a58bb11441", "fusion_lon": 0.0, "bike_id": "0542f1655647bce70dc9e2a58bb11441", "is_disabled": 0, "is_reserved": 0}, {"rental_uris": {"ios": "https://dc.lft.to/lastmile_qr_scan", "android": "https://dc.lft.to/lastmile_qr_scan"}, "lon": -76.9955015, "type": "electric_scooter", "fusion_lat": 0.0, "lat": 38.9003435, "name": "9f3d41f294d844ce4848f7c3cab60d1f", "fusion_lon": 0.0, "bike_id": "9f3d41f294d844ce4848f7c3cab60d1f", "is_disabled": 0, "is_reserved": 0}, {"rental_uris": {"ios": "https://dc.lft.to/lastmile_qr_scan", "android": "https://dc.lft.to/lastmile_qr_scan"}, "lon": -77.0264905, "type": "electric_scooter", "fusion_lat": 0.0, "lat": 38.892245333333335, "name": "3c962777d0749a1c17a56126104eed9a", "fusion_lon": 0.0, "bike_id": "3c962777d0749a1c17a56126104eed9a", "is_disabled": 0, "is_reserved": 0}, {"rental_uris": {"ios": "https://dc.lft.to/lastmile_qr_scan", "android": "https://dc.lft.to/lastmile_qr_scan"}, "lon": -76.99822083333333, "type": "electric_scooter", "fusion_lat": 0.0, "lat": 38.88871983333333, "name": "4834adb65d90bcff3a82bdebd9837d93", "fusion_lon": 0.0, "bike_id": "4834adb65d90bcff3a82bdebd9837d93", "is_disabled": 0, "is_reserved": 0}, {"rental_uris": {"ios": "https://dc.lft.to/lastmile_qr_scan", "android": "https://dc.lft.to/lastmile_qr_scan"}, "lon": -77.00209333333333, "type": "electric_scooter", "fusion_lat": 0.0, "lat": 38.9002715, "name": "8ee63c235d6e4b63015efb684aca9365", "fusion_lon": 0.0, "bike_id": "8ee63c235d6e4b63015efb684aca9365", "is_disabled": 0, "is_reserved": 0}, {"rental_uris": {"ios": "https://dc.lft.to/lastmile_qr_scan", "android": "https://dc.lft.to/lastmile_qr_scan"}, "lon": -77.01616233333333, "type": "electric_scooter", "fusion_lat": 0.0, "lat": 38.90712966666667, "name": "4bf271f28c7ce54e53c2c9c8c6d696fd", "fusion_lon": 0.0, "bike_id": "4bf271f28c7ce54e53c2c9c8c6d696fd", "is_disabled": 0, "is_reserved": 0}, {"rental_uris": {"ios": "https://dc.lft.to/lastmile_qr_scan", "android": "https://dc.lft.to/lastmile_qr_scan"}, "lon": -77.00593566666667, "type": "electric_scooter", "fusion_lat": 0.0, "lat": 38.877101333333336, "name": "6e9d6d0f5b21c323a9f8554f8c7b2124", "fusion_lon": 0.0, "bike_id": "6e9d6d0f5b21c323a9f8554f8c7b2124", "is_disabled": 0, "is_reserved": 0}, {"rental_uris": {"ios": "https://dc.lft.to/lastmile_qr_scan", "android": "https://dc.lft.to/lastmile_qr_scan"}, "lon": -77.03269533333334, "type": "electric_scooter", "fusion_lat": 0.0, "lat": 38.904132833333335, "name": "a623f8afb908a26d2955a6b4da8b2b37", "fusion_lon": 0.0, "bike_id": "a623f8afb908a26d2955a6b4da8b2b37", "is_disabled": 0, "is_reserved": 0}, {"rental_uris": {"ios": "https://dc.lft.to/lastmile_qr_scan", "android": "https://dc.lft.to/lastmile_qr_scan"}, "lon": -77.04333583333333, "type": "electric_scooter", "fusion_lat": 0.0, "lat": 38.9056745, "name": "f72a64b43cd25c26c6e82483507fd428", "fusion_lon": 0.0, "bike_id": "f72a64b43cd25c26c6e82483507fd428", "is_disabled": 0, "is_reserved": 0}, {"rental_uris": {"ios": "https://dc.lft.to/lastmile_qr_scan", "android": "https://dc.lft.to/lastmile_qr_scan"}, "lon": -77.03447916666667, "type": "electric_scooter", "fusion_lat": 0.0, "lat": 38.917493, "name": "f6965e0e779507e6247117ceefdce5b0", "fusion_lon": 0.0, "bike_id": "f6965e0e779507e6247117ceefdce5b0", "is_disabled": 0, "is_reserved": 0}, {"rental_uris": {"ios": "https://dc.lft.to/lastmile_qr_scan", "android": "https://dc.lft.to/lastmile_qr_scan"}, "lon": -77.06019633333334, "type": "electric_bike", "fusion_lat": 0.0, "lat": 38.9041745, "name": "bde9434e6636a3c440de7cbef8dabec2", "fusion_lon": 0.0, "bike_id": "bde9434e6636a3c440de7cbef8dabec2", "is_disabled": 0, "is_reserved": 0}, {"rental_uris": {"ios": "https://dc.lft.to/lastmile_qr_scan", "android": "https://dc.lft.to/lastmile_qr_scan"}, "lon": -77.02558366666666, "type": "electric_scooter", "fusion_lat": 0.0, "lat": 38.884203, "name": "ded23d14a2f0b8210b1b42848d11c8c7", "fusion_lon": 0.0, "bike_id": "ded23d14a2f0b8210b1b42848d11c8c7", "is_disabled": 0, "is_reserved": 0}, {"rental_uris": {"ios": "https://dc.lft.to/lastmile_qr_scan", "android": "https://dc.lft.to/lastmile_qr_scan"}, "lon": -77.0385485, "type": "electric_scooter", "fusion_lat": 0.0, "lat": 38.915504, "name": "b8047720552c0b8041083d1ac1ba3168", "fusion_lon": 0.0, "bike_id": "b8047720552c0b8041083d1ac1ba3168", "is_disabled": 0, "is_reserved": 0}, {"rental_uris": {"ios": "https://dc.lft.to/lastmile_qr_scan", "android": "https://dc.lft.to/lastmile_qr_scan"}, "lon": -77.04370733333333, "type": "electric_scooter", "fusion_lat": 0.0, "lat": 38.917854, "name": "d68b5b4c70850463af6a9842635ab704", "fusion_lon": 0.0, "bike_id": "d68b5b4c70850463af6a9842635ab704", "is_disabled": 0, "is_reserved": 0}, {"rental_uris": {"ios": "https://dc.lft.to/lastmile_qr_scan", "android": "https://dc.lft.to/lastmile_qr_scan"}, "lon": -77.03559566666667, "type": "electric_bike", "fusion_lat": 0.0, "lat": 38.96478066666667, "name": "b07324f0a58458f9a9ee188f5fd5c782", "fusion_lon": 0.0, "bike_id": "b07324f0a58458f9a9ee188f5fd5c782", "is_disabled": 0, "is_reserved": 0}, {"rental_uris": {"ios": "https://dc.lft.to/lastmile_qr_scan", "android": "https://dc.lft.to/lastmile_qr_scan"}, "lon": -77.043681, "type": "electric_scooter", "fusion_lat": 0.0, "lat": 38.892268333333334, "name": "60a1c33002daedc10bb8fb2b8f592ce0", "fusion_lon": 0.0, "bike_id": "60a1c33002daedc10bb8fb2b8f592ce0", "is_disabled": 0, "is_reserved": 0}, {"rental_uris": {"ios": "https://dc.lft.to/lastmile_qr_scan", "android": "https://dc.lft.to/lastmile_qr_scan"}, "lon": -77.04350133333334, "type": "electric_scooter", "fusion_lat": 0.0, "lat": 38.8966025, "name": "ca994d442587d5dd34eeb340b46192b4", "fusion_lon": 0.0, "bike_id": "ca994d442587d5dd34eeb340b46192b4", "is_disabled": 0, "is_reserved": 0}, {"rental_uris": {"ios": "https://dc.lft.to/lastmile_qr_scan", "android": "https://dc.lft.to/lastmile_qr_scan"}, "lon": -76.98510033333334, "type": "electric_scooter", "fusion_lat": 0.0, "lat": 38.906078666666666, "name": "e738e4033f5ae302de9f2590b3977bb4", "fusion_lon": 0.0, "bike_id": "e738e4033f5ae302de9f2590b3977bb4", "is_disabled": 0, "is_reserved": 0}, {"rental_uris": {"ios": "https://dc.lft.to/lastmile_qr_scan", "android": "https://dc.lft.to/lastmile_qr_scan"}, "lon": -76.99958566666666, "type": "electric_scooter", "fusion_lat": 0.0, "lat": 38.90933116666667, "name": "53d2f0457734d29e68846d012dd39e28", "fusion_lon": 0.0, "bike_id": "53d2f0457734d29e68846d012dd39e28", "is_disabled": 0, "is_reserved": 0}, {"rental_uris": {"ios": "https://dc.lft.to/lastmile_qr_scan", "android": "https://dc.lft.to/lastmile_qr_scan"}, "lon": -77.02762433333334, "type": "electric_bike", "fusion_lat": 0.0, "lat": 38.9048205, "name": "d7fc87af439f3c01249d252da64ed72d", "fusion_lon": 0.0, "bike_id": "d7fc87af439f3c01249d252da64ed72d", "is_disabled": 0, "is_reserved": 0}, {"rental_uris": {"ios": "https://dc.lft.to/lastmile_qr_scan", "android": "https://dc.lft.to/lastmile_qr_scan"}, "lon": -77.0417095, "type": "electric_scooter", "fusion_lat": 0.0, "lat": 38.919431833333334, "name": "ca9a1a2147f4c7602b7163e5a3cd9be6", "fusion_lon": 0.0, "bike_id": "ca9a1a2147f4c7602b7163e5a3cd9be6", "is_disabled": 0, "is_reserved": 0}, {"rental_uris": {"ios": "https://dc.lft.to/lastmile_qr_scan", "android": "https://dc.lft.to/lastmile_qr_scan"}, "lon": -77.03515966666667, "type": "electric_scooter", "fusion_lat": 0.0, "lat": 38.922202166666665, "name": "fba90590023573c772932af47bc077f5", "fusion_lon": 0.0, "bike_id": "fba90590023573c772932af47bc077f5", "is_disabled": 0, "is_reserved": 0}, {"rental_uris": {"ios": "https://dc.lft.to/lastmile_qr_scan", "android": "https://dc.lft.to/lastmile_qr_scan"}, "lon": -77.04639083333333, "type": "electric_scooter", "fusion_lat": 0.0, "lat": 38.915831, "name": "eb552133937dd847b277c46e985b0d6e", "fusion_lon": 0.0, "bike_id": "eb552133937dd847b277c46e985b0d6e", "is_disabled": 0, "is_reserved": 0}, {"rental_uris": {"ios": "https://dc.lft.to/lastmile_qr_scan", "android": "https://dc.lft.to/lastmile_qr_scan"}, "lon": -76.97326033333333, "type": "electric_scooter", "fusion_lat": 0.0, "lat": 38.930292333333334, "name": "34a41ffb4ff8d504bfffa6febaaabb00", "fusion_lon": 0.0, "bike_id": "34a41ffb4ff8d504bfffa6febaaabb00", "is_disabled": 0, "is_reserved": 0}, {"rental_uris": {"ios": "https://dc.lft.to/lastmile_qr_scan", "android": "https://dc.lft.to/lastmile_qr_scan"}, "lon": -76.975055, "type": "electric_bike", "fusion_lat": 0.0, "lat": 38.919376, "name": "f4505e2cadddf56aee03e9c0ca66e80e", "fusion_lon": 0.0, "bike_id": "f4505e2cadddf56aee03e9c0ca66e80e", "is_disabled": 0, "is_reserved": 0}, {"rental_uris": {"ios": "https://dc.lft.to/lastmile_qr_scan", "android": "https://dc.lft.to/lastmile_qr_scan"}, "lon": -77.03836466666667, "type": "electric_scooter", "fusion_lat": 0.0, "lat": 38.91119783333333, "name": "40726281d6a32f672052f3d94725f57f", "fusion_lon": 0.0, "bike_id": "40726281d6a32f672052f3d94725f57f", "is_disabled": 0, "is_reserved": 0}, {"rental_uris": {"ios": "https://dc.lft.to/lastmile_qr_scan", "android": "https://dc.lft.to/lastmile_qr_scan"}, "lon": -76.99609766666667, "type": "electric_scooter", "fusion_lat": 0.0, "lat": 38.88628033333333, "name": "7c8ce60907f61087dcd5af3b6212e79d", "fusion_lon": 0.0, "bike_id": "7c8ce60907f61087dcd5af3b6212e79d", "is_disabled": 0, "is_reserved": 0}, {"rental_uris": {"ios": "https://dc.lft.to/lastmile_qr_scan", "android": "https://dc.lft.to/lastmile_qr_scan"}, "lon": -76.98572416666667, "type": "electric_scooter", "fusion_lat": 0.0, "lat": 38.86150883333333, "name": "4a7d0c25beb13cffc0476cb89ada0c38", "fusion_lon": 0.0, "bike_id": "4a7d0c25beb13cffc0476cb89ada0c38", "is_disabled": 0, "is_reserved": 0}, {"rental_uris": {"ios": "https://dc.lft.to/lastmile_qr_scan", "android": "https://dc.lft.to/lastmile_qr_scan"}, "lon": -77.04666666666667, "type": "electric_scooter", "fusion_lat": 0.0, "lat": 38.89661516666666, "name": "dc73b2125af22d6f54fef9e27fd65b21", "fusion_lon": 0.0, "bike_id": "dc73b2125af22d6f54fef9e27fd65b21", "is_disabled": 0, "is_reserved": 0}, {"rental_uris": {"ios": "https://dc.lft.to/lastmile_qr_scan", "android": "https://dc.lft.to/lastmile_qr_scan"}, "lon": -76.9756445, "type": "electric_scooter", "fusion_lat": 0.0, "lat": 38.904473333333335, "name": "f6f0ca95b8814f7a64370c66eb35d0e9", "fusion_lon": 0.0, "bike_id": "f6f0ca95b8814f7a64370c66eb35d0e9", "is_disabled": 0, "is_reserved": 0}, {"rental_uris": {"ios": "https://dc.lft.to/lastmile_qr_scan", "android": "https://dc.lft.to/lastmile_qr_scan"}, "lon": -77.04487116666667, "type": "electric_scooter", "fusion_lat": 0.0, "lat": 38.915195, "name": "32ed759a3eb44ac4a03a741289f08d58", "fusion_lon": 0.0, "bike_id": "32ed759a3eb44ac4a03a741289f08d58", "is_disabled": 0, "is_reserved": 0}, {"rental_uris": {"ios": "https://dc.lft.to/lastmile_qr_scan", "android": "https://dc.lft.to/lastmile_qr_scan"}, "lon": -76.9986805, "type": "electric_scooter", "fusion_lat": 0.0, "lat": 38.900298166666666, "name": "bf4c68704bf9cd2724cdcc62753bf1fa", "fusion_lon": 0.0, "bike_id": "bf4c68704bf9cd2724cdcc62753bf1fa", "is_disabled": 0, "is_reserved": 0}, {"rental_uris": {"ios": "https://dc.lft.to/lastmile_qr_scan", "android": "https://dc.lft.to/lastmile_qr_scan"}, "lon": -77.0109445, "type": "electric_scooter", "fusion_lat": 0.0, "lat": 38.91561, "name": "04ad1b31a9be1f7446b7fbc656540d3b", "fusion_lon": 0.0, "bike_id": "04ad1b31a9be1f7446b7fbc656540d3b", "is_disabled": 0, "is_reserved": 0}, {"rental_uris": {"ios": "https://dc.lft.to/lastmile_qr_scan", "android": "https://dc.lft.to/lastmile_qr_scan"}, "lon": -77.04552716666667, "type": "electric_scooter", "fusion_lat": 0.0, "lat": 38.89222633333333, "name": "609ab542634f155d255d108846095195", "fusion_lon": 0.0, "bike_id": "609ab542634f155d255d108846095195", "is_disabled": 0, "is_reserved": 0}, {"rental_uris": {"ios": "https://dc.lft.to/lastmile_qr_scan", "android": "https://dc.lft.to/lastmile_qr_scan"}, "lon": -77.03206983333334, "type": "electric_scooter", "fusion_lat": 0.0, "lat": 38.90423233333333, "name": "7c19350c5025ef09712da679714d67e9", "fusion_lon": 0.0, "bike_id": "7c19350c5025ef09712da679714d67e9", "is_disabled": 0, "is_reserved": 0}, {"rental_uris": {"ios": "https://dc.lft.to/lastmile_qr_scan", "android": "https://dc.lft.to/lastmile_qr_scan"}, "lon": -77.027284, "type": "electric_scooter", "fusion_lat": 0.0, "lat": 38.9248555, "name": "776895568568158193e315bd1f9d1410", "fusion_lon": 0.0, "bike_id": "776895568568158193e315bd1f9d1410", "is_disabled": 0, "is_reserved": 0}, {"rental_uris": {"ios": "https://dc.lft.to/lastmile_qr_scan", "android": "https://dc.lft.to/lastmile_qr_scan"}, "lon": -76.97329816666667, "type": "electric_bike", "fusion_lat": 0.0, "lat": 38.850635, "name": "1901a205e415cff1381408965a36f11d", "fusion_lon": 0.0, "bike_id": "1901a205e415cff1381408965a36f11d", "is_disabled": 0, "is_reserved": 0}, {"rental_uris": {"ios": "https://dc.lft.to/lastmile_qr_scan", "android": "https://dc.lft.to/lastmile_qr_scan"}, "lon": -77.00781783333333, "type": "electric_scooter", "fusion_lat": 0.0, "lat": 38.907512833333335, "name": "5f3d20b00641533563d92406ee4b9b96", "fusion_lon": 0.0, "bike_id": "5f3d20b00641533563d92406ee4b9b96", "is_disabled": 0, "is_reserved": 0}, {"rental_uris": {"ios": "https://dc.lft.to/lastmile_qr_scan", "android": "https://dc.lft.to/lastmile_qr_scan"}, "lon": -77.06094583333334, "type": "electric_scooter", "fusion_lat": 0.0, "lat": 38.912210333333334, "name": "3d4d9dc2c80ffd1e223497f1d0f370f9", "fusion_lon": 0.0, "bike_id": "3d4d9dc2c80ffd1e223497f1d0f370f9", "is_disabled": 0, "is_reserved": 0}, {"rental_uris": {"ios": "https://dc.lft.to/lastmile_qr_scan", "android": "https://dc.lft.to/lastmile_qr_scan"}, "lon": -77.0089225, "type": "electric_scooter", "fusion_lat": 0.0, "lat": 38.924162833333334, "name": "f6b42383e57ea0f25d974fbb92935df5", "fusion_lon": 0.0, "bike_id": "f6b42383e57ea0f25d974fbb92935df5", "is_disabled": 0, "is_reserved": 0}, {"rental_uris": {"ios": "https://dc.lft.to/lastmile_qr_scan", "android": "https://dc.lft.to/lastmile_qr_scan"}, "lon": -77.02637133333333, "type": "electric_scooter", "fusion_lat": 0.0, "lat": 38.884183166666666, "name": "ca2d4a4800f98a1d25276d0e89033889", "fusion_lon": 0.0, "bike_id": "ca2d4a4800f98a1d25276d0e89033889", "is_disabled": 0, "is_reserved": 0}, {"rental_uris": {"ios": "https://dc.lft.to/lastmile_qr_scan", "android": "https://dc.lft.to/lastmile_qr_scan"}, "lon": -77.0454565, "type": "electric_scooter", "fusion_lat": 0.0, "lat": 38.9194405, "name": "af5f3d05d4e2f940ca83f9ed0d3dbc8e", "fusion_lon": 0.0, "bike_id": "af5f3d05d4e2f940ca83f9ed0d3dbc8e", "is_disabled": 0, "is_reserved": 0}, {"rental_uris": {"ios": "https://dc.lft.to/lastmile_qr_scan", "android": "https://dc.lft.to/lastmile_qr_scan"}, "lon": -77.0058, "type": "electric_scooter", "fusion_lat": 0.0, "lat": 38.9057035, "name": "680a71980dfa2d6b5d7a4048dce963df", "fusion_lon": 0.0, "bike_id": "680a71980dfa2d6b5d7a4048dce963df", "is_disabled": 0, "is_reserved": 0}, {"rental_uris": {"ios": "https://dc.lft.to/lastmile_qr_scan", "android": "https://dc.lft.to/lastmile_qr_scan"}, "lon": -77.03227416666667, "type": "electric_scooter", "fusion_lat": 0.0, "lat": 38.927525333333335, "name": "63bd91dae9ea578ed9ed1401c64bc696", "fusion_lon": 0.0, "bike_id": "63bd91dae9ea578ed9ed1401c64bc696", "is_disabled": 0, "is_reserved": 0}, {"rental_uris": {"ios": "https://dc.lft.to/lastmile_qr_scan", "android": "https://dc.lft.to/lastmile_qr_scan"}, "lon": -77.05269633333333, "type": "electric_scooter", "fusion_lat": 0.0, "lat": 38.910159, "name": "2db29e6b23a8b89ad15e0337497aa44d", "fusion_lon": 0.0, "bike_id": "2db29e6b23a8b89ad15e0337497aa44d", "is_disabled": 0, "is_reserved": 0}, {"rental_uris": {"ios": "https://dc.lft.to/lastmile_qr_scan", "android": "https://dc.lft.to/lastmile_qr_scan"}, "lon": -77.03971866666667, "type": "electric_scooter", "fusion_lat": 0.0, "lat": 38.902742333333336, "name": "c5601cf4035175a1ad5cf00bcc7d2c26", "fusion_lon": 0.0, "bike_id": "c5601cf4035175a1ad5cf00bcc7d2c26", "is_disabled": 0, "is_reserved": 0}, {"rental_uris": {"ios": "https://dc.lft.to/lastmile_qr_scan", "android": "https://dc.lft.to/lastmile_qr_scan"}, "lon": -77.038525, "type": "electric_scooter", "fusion_lat": 0.0, "lat": 38.9097895, "name": "770a92e028d99bf5850c698dd86bd596", "fusion_lon": 0.0, "bike_id": "770a92e028d99bf5850c698dd86bd596", "is_disabled": 0, "is_reserved": 0}, {"rental_uris": {"ios": "https://dc.lft.to/lastmile_qr_scan", "android": "https://dc.lft.to/lastmile_qr_scan"}, "lon": -77.12503966666667, "type": "electric_bike", "fusion_lat": 0.0, "lat": 39.02427, "name": "899230ddc9a52ff56277759eb4faa9d0", "fusion_lon": 0.0, "bike_id": "899230ddc9a52ff56277759eb4faa9d0", "is_disabled": 0, "is_reserved": 0}, {"rental_uris": {"ios": "https://dc.lft.to/lastmile_qr_scan", "android": "https://dc.lft.to/lastmile_qr_scan"}, "lon": -77.03211566666667, "type": "electric_scooter", "fusion_lat": 0.0, "lat": 38.91793333333333, "name": "1d649c60754ca615ab9fcfa567a40d18", "fusion_lon": 0.0, "bike_id": "1d649c60754ca615ab9fcfa567a40d18", "is_disabled": 0, "is_reserved": 0}, {"rental_uris": {"ios": "https://dc.lft.to/lastmile_qr_scan", "android": "https://dc.lft.to/lastmile_qr_scan"}, "lon": -77.04345483333333, "type": "electric_scooter", "fusion_lat": 0.0, "lat": 38.921903, "name": "986e796959bd32f9eead772127016f99", "fusion_lon": 0.0, "bike_id": "986e796959bd32f9eead772127016f99", "is_disabled": 0, "is_reserved": 0}, {"rental_uris": {"ios": "https://dc.lft.to/lastmile_qr_scan", "android": "https://dc.lft.to/lastmile_qr_scan"},