{"data": {"bikes": [{"name": "c2406b422b3cf59ace318d8c7e12fa27", "fusion_lat": 0.0, "type": "electric_scooter", "lat": 38.928980833333334, "is_reserved": 0, "is_disabled": 0, "fusion_lon": 0.0, "bike_id": "c2406b422b3cf59ace318d8c7e12fa27", "lon": -77.05941866666667, "rental_uris": {"ios": "https://dc.lft.to/lastmile_qr_scan", "android": "https://dc.lft.to/lastmile_qr_scan"}}, {"name": "801e4320a9299b66618f47d671b53269", "fusion_lat": 0.0, "type": "electric_scooter", "lat": 38.9330015, "is_reserved": 0, "is_disabled": 0, "fusion_lon": 0.0, "bike_id": "801e4320a9299b66618f47d671b53269", "lon": -77.02468833333333, "rental_uris": {"ios": "https://dc.lft.to/lastmile_qr_scan", "android": "https://dc.lft.to/lastmile_qr_scan"}}, {"name": "5ab50c9e4fe042db386add5e6cc5ac4a", "fusion_lat": 0.0, "type": "electric_scooter", "lat": 38.91107616666667, "is_reserved": 0, "is_disabled": 0, "fusion_lon": 0.0, "bike_id": "5ab50c9e4fe042db386add5e6cc5ac4a", "lon": -77.03479833333333, "rental_uris": {"ios": "https://dc.lft.to/lastmile_qr_scan", "android": "https://dc.lft.to/lastmile_qr_scan"}}, {"name": "376b5251946bd93c21711b2a0cd78323", "fusion_lat": 0.0, "type": "electric_bike", "lat": 38.954818, "is_reserved": 0, "is_disabled": 0, "fusion_lon": 0.0, "bike_id": "376b5251946bd93c21711b2a0cd78323", "lon": -77.08244733333333, "rental_uris": {"ios": "https://dc.lft.to/lastmile_qr_scan", "android": "https://dc.lft.to/lastmile_qr_scan"}}, {"name": "81fc7ea1a43033f033bdcbb32bdd0907", "fusion_lat": 0.0, "type": "electric_scooter", "lat": 38.904962, "is_reserved": 0, "is_disabled": 0, "fusion_lon": 0.0, "bike_id": "81fc7ea1a43033f033bdcbb32bdd0907", "lon": -77.0415, "rental_uris": {"ios": "https://dc.lft.to/lastmile_qr_scan", "android": "https://dc.lft.to/lastmile_qr_scan"}}, {"name": "e464335692cec9ee7dc6aafad835c83f", "fusion_lat": 0.0, "type": "electric_scooter", "lat": 38.900758333333336, "is_reserved": 0, "is_disabled": 0, "fusion_lon": 0.0, "bike_id": "e464335692cec9ee7dc6aafad835c83f", "lon": -77.05022916666667, "rental_uris": {"ios": "https://dc.lft.to/lastmile_qr_scan", "android": "https://dc.lft.to/lastmile_qr_scan"}}, {"name": "4ee650025228f1bee0343ce0e6857920", "fusion_lat": 0.0, "type": "electric_scooter", "lat": 38.9242705, "is_reserved": 0, "is_disabled": 0, "fusion_lon": 0.0, "bike_id": "4ee650025228f1bee0343ce0e6857920", "lon": -77.01949033333334, "rental_uris": {"ios": "https://dc.lft.to/lastmile_qr_scan", "android": "https://dc.lft.to/lastmile_qr_scan"}}, {"name": "90d6a72d0a84364c01819b71609774a4", "fusion_lat": 0.0, "type": "electric_scooter", "lat": 38.89672, "is_reserved": 0, "is_disabled": 0, "fusion_lon": 0.0, "bike_id": "90d6a72d0a84364c01819b71609774a4", "lon": -77.0487795, "rental_uris": {"ios": "https://dc.lft.to/lastmile_qr_scan", "android": "https://dc.lft.to/lastmile_qr_scan"}}, {"name": "7c6504fa27f4c905beb147bdf6e224e2", "fusion_lat": 0.0, "type": "electric_scooter", "lat": 38.92879533333333, "is_reserved": 0, "is_disabled": 0, "fusion_lon": 0.0, "bike_id": "7c6504fa27f4c905beb147bdf6e224e2", "lon": -77.04126466666666, "rental_uris": {"ios": "https://dc.lft.to/lastmile_qr_scan", "android": "https://dc.lft.to/lastmile_qr_scan"}}, {"name": "488c2b76423bed4dddd7f4bff34b48c3", "fusion_lat": 0.0, "type": "electric_scooter", "lat": 38.9044225, "is_reserved": 0, "is_disabled": 0, "fusion_lon": 0.0, "bike_id": "488c2b76423bed4dddd7f4bff34b48c3", "lon": -77.03268916666667, "rental_uris": {"ios": "https://dc.lft.to/lastmile_qr_scan", "android": "https://dc.lft.to/lastmile_qr_scan"}}, {"name": "a9fa1da298f0ca0f1d7746eaf29c0a28", "fusion_lat": 0.0, "type": "electric_scooter", "lat": 38.933682166666664, "is_reserved": 0, "is_disabled": 0, "fusion_lon": 0.0, "bike_id": "a9fa1da298f0ca0f1d7746eaf29c0a28", "lon": -77.057275, "rental_uris": {"ios": "https://dc.lft.to/lastmile_qr_scan", "android": "https://dc.lft.to/lastmile_qr_scan"}}, {"name": "60abffd64a081e10aa0cfff7aebedd62", "fusion_lat": 0.0, "type": "electric_scooter", "lat": 38.90275416666667, "is_reserved": 0, "is_disabled": 0, "fusion_lon": 0.0, "bike_id": "60abffd64a081e10aa0cfff7aebedd62", "lon": -77.03837666666666, "rental_uris": {"ios": "https://dc.lft.to/lastmile_qr_scan", "android": "https://dc.lft.to/lastmile_qr_scan"}}, {"name": "6c94387781a4356237413b0fbf0102a7", "fusion_lat": 0.0, "type": "electric_scooter", "lat": 38.914074666666664, "is_reserved": 0, "is_disabled": 0, "fusion_lon": 0.0, "bike_id": "6c94387781a4356237413b0fbf0102a7", "lon": -77.02725766666667, "rental_uris": {"ios": "https://dc.lft.to/lastmile_qr_scan", "android": "https://dc.lft.to/lastmile_qr_scan"}}, {"name": "7f926823637f38fadb2b61349633bd2e", "fusion_lat": 0.0, "type": "electric_scooter", "lat": 38.9180085, "is_reserved": 0, "is_disabled": 0, "fusion_lon": 0.0, "bike_id": "7f926823637f38fadb2b61349633bd2e", "lon": -77.04017716666667, "rental_uris": {"ios": "https://dc.lft.to/lastmile_qr_scan", "android": "https://dc.lft.to/lastmile_qr_scan"}}, {"name": "28e9c98d15c66fc1cf773e1c24f40aaa", "fusion_lat": 0.0, "type": "electric_scooter", "lat": 38.90733083333333, "is_reserved": 0, "is_disabled": 0, "fusion_lon": 0.0, "bike_id": "28e9c98d15c66fc1cf773e1c24f40aaa", "lon": -77.0449445, "rental_uris": {"ios": "https://dc.lft.to/lastmile_qr_scan", "android": "https://dc.lft.to/lastmile_qr_scan"}}, {"name": "147fbaf01dd2c8a59a5146fec2a4c350", "fusion_lat": 0.0, "type": "electric_scooter", "lat": 38.934714, "is_reserved": 0, "is_disabled": 0, "fusion_lon": 0.0, "bike_id": "147fbaf01dd2c8a59a5146fec2a4c350", "lon": -77.02848266666666, "rental_uris": {"ios": "https://dc.lft.to/lastmile_qr_scan", "android": "https://dc.lft.to/lastmile_qr_scan"}}, {"name": "9fbad8ef2494d7ed66cead099b54382f", "fusion_lat": 0.0, "type": "electric_scooter", "lat": 38.927083833333334, "is_reserved": 0, "is_disabled": 0, "fusion_lon": 0.0, "bike_id": "9fbad8ef2494d7ed66cead099b54382f", "lon": -77.03732033333333, "rental_uris": {"ios": "https://dc.lft.to/lastmile_qr_scan", "android": "https://dc.lft.to/lastmile_qr_scan"}}, {"name": "cf88288c9bc6b9754f9c732b809e3e7c", "fusion_lat": 0.0, "type": "electric_scooter", "lat": 38.9157675, "is_reserved": 0, "is_disabled": 0, "fusion_lon": 0.0, "bike_id": "cf88288c9bc6b9754f9c732b809e3e7c", "lon": -77.03202283333333, "rental_uris": {"ios": "https://dc.lft.to/lastmile_qr_scan", "android": "https://dc.lft.to/lastmile_qr_scan"}}, {"name": "a65da1ceb2cfadd8889b79e70400aac1", "fusion_lat": 0.0, "type": "electric_scooter", "lat": 38.92237083333333, "is_reserved": 0, "is_disabled": 0, "fusion_lon": 0.0, "bike_id": "a65da1ceb2cfadd8889b79e70400aac1", "lon": -77.042462, "rental_uris": {"ios": "https://dc.lft.to/lastmile_qr_scan", "android": "https://dc.lft.to/lastmile_qr_scan"}}, {"name": "9d606292c98ab0ed15477c0328d9609b", "fusion_lat": 0.0, "type": "electric_bike", "lat": 38.852511666666665, "is_reserved": 0, "is_disabled": 0, "fusion_lon": 0.0, "bike_id": "9d606292c98ab0ed15477c0328d9609b", "lon": -77.11430233333333, "rental_uris": {"ios": "https://dc.lft.to/lastmile_qr_scan", "android": "https://dc.lft.to/lastmile_qr_scan"}}, {"name": "08017f1a3f02eb587761e63df6335ddc", "fusion_lat": 0.0, "type": "electric_scooter", "lat": 38.958731, "is_reserved": 0, "is_disabled": 0, "fusion_lon": 0.0, "bike_id": "08017f1a3f02eb587761e63df6335ddc", "lon": -77.02051383333334, "rental_uris": {"ios": "https://dc.lft.to/lastmile_qr_scan", "android": "https://dc.lft.to/lastmile_qr_scan"}}, {"name": "ba67d83dcfb52d4b280b7c93383f2e8d", "fusion_lat": 0.0, "type": "electric_scooter", "lat": 38.929114, "is_reserved": 0, "is_disabled": 0, "fusion_lon": 0.0, "bike_id": "ba67d83dcfb52d4b280b7c93383f2e8d", "lon": -77.0261755, "rental_uris": {"ios": "https://dc.lft.to/lastmile_qr_scan", "android": "https://dc.lft.to/lastmile_qr_scan"}}, {"name": "04b2d4872a385e53495ce996fe86cd29", "fusion_lat": 0.0, "type": "electric_scooter", "lat": 38.90964783333333, "is_reserved": 0, "is_disabled": 0, "fusion_lon": 0.0, "bike_id": "04b2d4872a385e53495ce996fe86cd29", "lon": -77.041349, "rental_uris": {"ios": "https://dc.lft.to/lastmile_qr_scan", "android": "https://dc.lft.to/lastmile_qr_scan"}}, {"name": "6940930763d5ee1a0b1f71f8ec892a9d", "fusion_lat": 0.0, "type": "electric_scooter", "lat": 38.84294583333333, "is_reserved": 0, "is_disabled": 0, "fusion_lon": 0.0, "bike_id": "6940930763d5ee1a0b1f71f8ec892a9d", "lon": -76.99949983333333, "rental_uris": {"ios": "https://dc.lft.to/lastmile_qr_scan", "android": "https://dc.lft.to/lastmile_qr_scan"}}, {"name": "b073a76ffb95eeefe0afe8e7011bea24", "fusion_lat": 0.0, "type": "electric_scooter", "lat": 38.927364, "is_reserved": 0, "is_disabled": 0, "fusion_lon": 0.0, "bike_id": "b073a76ffb95eeefe0afe8e7011bea24", "lon": -77.0231545, "rental_uris": {"ios": "https://dc.lft.to/lastmile_qr_scan", "android": "https://dc.lft.to/lastmile_qr_scan"}}, {"name": "98c77ef2f5e4888dfe05daa335e6f391", "fusion_lat": 0.0, "type": "electric_scooter", "lat": 38.888427666666665, "is_reserved": 0, "is_disabled": 0, "fusion_lon": 0.0, "bike_id": "98c77ef2f5e4888dfe05daa335e6f391", "lon": -77.049089, "rental_uris": {"ios": "https://dc.lft.to/lastmile_qr_scan", "android": "https://dc.lft.to/lastmile_qr_scan"}}, {"name": "a8f3997ddcc87dd6ca84005f35701334", "fusion_lat": 0.0, "type": "electric_scooter", "lat": 38.933665500000004, "is_reserved": 0, "is_disabled": 0, "fusion_lon": 0.0, "bike_id": "a8f3997ddcc87dd6ca84005f35701334", "lon": -77.03450533333333, "rental_uris": {"ios": "https://dc.lft.to/lastmile_qr_scan", "android": "https://dc.lft.to/lastmile_qr_scan"}}, {"name": "338c11b751df66a8a737b1e71175d67c", "fusion_lat": 0.0, "type": "electric_scooter", "lat": 38.90428083333333, "is_reserved": 0, "is_disabled": 0, "fusion_lon": 0.0, "bike_id": "338c11b751df66a8a737b1e71175d67c", "lon": -77.0532385, "rental_uris": {"ios": "https://dc.lft.to/lastmile_qr_scan", "android": "https://dc.lft.to/lastmile_qr_scan"}}, {"name": "7879cc6f2e826e1de0895c48625cfb63", "fusion_lat": 0.0, "type": "electric_bike", "lat": 38.9345635, "is_reserved": 0, "is_disabled": 0, "fusion_lon": 0.0, "bike_id": "7879cc6f2e826e1de0895c48625cfb63", "lon": -77.07289166666666, "rental_uris": {"ios": "https://dc.lft.to/lastmile_qr_scan", "android": "https://dc.lft.to/lastmile_qr_scan"}}, {"name": "44e001954b582d60750c472c4414a538", "fusion_lat": 0.0, "type": "electric_scooter", "lat": 38.91695, "is_reserved": 0, "is_disabled": 0, "fusion_lon": 0.0, "bike_id": "44e001954b582d60750c472c4414a538", "lon": -77.04335116666667, "rental_uris": {"ios": "https://dc.lft.to/lastmile_qr_scan", "android": "https://dc.lft.to/lastmile_qr_scan"}}, {"name": "1e53621e11ed6f3126389c2bbaa4c590", "fusion_lat": 0.0, "type": "electric_scooter", "lat": 38.86077366666667, "is_reserved": 0, "is_disabled": 0, "fusion_lon": 0.0, "bike_id": "1e53621e11ed6f3126389c2bbaa4c590", "lon": -76.96745466666667, "rental_uris": {"ios": "https://dc.lft.to/lastmile_qr_scan", "android": "https://dc.lft.to/lastmile_qr_scan"}}, {"name": "27b3575495d50dd26c16934a38e2403d", "fusion_lat": 0.0, "type": "electric_bike", "lat": 38.93123633333333, "is_reserved": 0, "is_disabled": 0, "fusion_lon": 0.0, "bike_id": "27b3575495d50dd26c16934a38e2403d", "lon": -77.0271515, "rental_uris": {"ios": "https://dc.lft.to/lastmile_qr_scan", "android": "https://dc.lft.to/lastmile_qr_scan"}}, {"name": "140aa9836d98b664c154f029b5ded71f", "fusion_lat": 0.0, "type": "electric_scooter", "lat": 38.90965533333333, "is_reserved": 0, "is_disabled": 0, "fusion_lon": 0.0, "bike_id": "140aa9836d98b664c154f029b5ded71f", "lon": -77.02384, "rental_uris": {"ios": "https://dc.lft.to/lastmile_qr_scan", "android": "https://dc.lft.to/lastmile_qr_scan"}}, {"name": "a143cfbe2d94c3dd64ada231e2beca6f", "fusion_lat": 0.0, "type": "electric_scooter", "lat": 38.906685333333336, "is_reserved": 0, "is_disabled": 0, "fusion_lon": 0.0, "bike_id": "a143cfbe2d94c3dd64ada231e2beca6f", "lon": -77.027186, "rental_uris": {"ios": "https://dc.lft.to/lastmile_qr_scan", "android": "https://dc.lft.to/lastmile_qr_scan"}}, {"name": "f81eefcdbb3d409aba2c5c4569ad6d77", "fusion_lat": 0.0, "type": "electric_scooter", "lat": 38.919471, "is_reserved": 0, "is_disabled": 0, "fusion_lon": 0.0, "bike_id": "f81eefcdbb3d409aba2c5c4569ad6d77", "lon": -77.04547616666666, "rental_uris": {"ios": "https://dc.lft.to/lastmile_qr_scan", "android": "https://dc.lft.to/lastmile_qr_scan"}}, {"name": "a9e5d1b08b8f4ee058868e23a7bed9e9", "fusion_lat": 0.0, "type": "electric_scooter", "lat": 38.89971, "is_reserved": 0, "is_disabled": 0, "fusion_lon": 0.0, "bike_id": "a9e5d1b08b8f4ee058868e23a7bed9e9", "lon": -77.02935416666666, "rental_uris": {"ios": "https://dc.lft.to/lastmile_qr_scan", "android": "https://dc.lft.to/lastmile_qr_scan"}}, {"name": "8bf296bc6edbb1841491116ceacc7690", "fusion_lat": 0.0, "type": "electric_scooter", "lat": 38.948049833333336, "is_reserved": 0, "is_disabled": 0, "fusion_lon": 0.0, "bike_id": "8bf296bc6edbb1841491116ceacc7690", "lon": -77.079105, "rental_uris": {"ios": "https://dc.lft.to/lastmile_qr_scan", "android": "https://dc.lft.to/lastmile_qr_scan"}}, {"name": "8ad3ebbc32450b9c85369f2314286fc4", "fusion_lat": 0.0, "type": "electric_scooter", "lat": 38.903179333333334, "is_reserved": 0, "is_disabled": 0, "fusion_lon": 0.0, "bike_id": "8ad3ebbc32450b9c85369f2314286fc4", "lon": -77.02999733333333, "rental_uris": {"ios": "https://dc.lft.to/lastmile_qr_scan", "android": "https://dc.lft.to/lastmile_qr_scan"}}, {"name": "bc66090fe3cad2644060216545948b4e", "fusion_lat": 0.0, "type": "electric_scooter", "lat": 38.917147166666666, "is_reserved": 0, "is_disabled": 0, "fusion_lon": 0.0, "bike_id": "bc66090fe3cad2644060216545948b4e", "lon": -77.04674066666666, "rental_uris": {"ios": "https://dc.lft.to/lastmile_qr_scan", "android": "https://dc.lft.to/lastmile_qr_scan"}}, {"name": "af8b525b9396a20d126f00e32b0b5f2f", "fusion_lat": 0.0, "type": "electric_bike", "lat": 38.936738166666665, "is_reserved": 0, "is_disabled": 0, "fusion_lon": 0.0, "bike_id": "af8b525b9396a20d126f00e32b0b5f2f", "lon": -76.95206466666667, "rental_uris": {"ios": "https://dc.lft.to/lastmile_qr_scan", "android": "https://dc.lft.to/lastmile_qr_scan"}}, {"name": "69708e901c17d4bbb1bc316af0bc0dec", "fusion_lat": 0.0, "type": "electric_scooter", "lat": 38.920291666666664, "is_reserved": 0, "is_disabled": 0, "fusion_lon": 0.0, "bike_id": "69708e901c17d4bbb1bc316af0bc0dec", "lon": -77.03120116666666, "rental_uris": {"ios": "https://dc.lft.to/lastmile_qr_scan", "android": "https://dc.lft.to/lastmile_qr_scan"}}, {"name": "00940795d4d43cd244e2313202b0a70f", "fusion_lat": 0.0, "type": "electric_scooter", "lat": 38.88346816666667, "is_reserved": 0, "is_disabled": 0, "fusion_lon": 0.0, "bike_id": "00940795d4d43cd244e2313202b0a70f", "lon": -76.98562866666667, "rental_uris": {"ios": "https://dc.lft.to/lastmile_qr_scan", "android": "https://dc.lft.to/lastmile_qr_scan"}}, {"name": "af968f629b02235c8d9ef5277e50c55e", "fusion_lat": 0.0, "type": "electric_scooter", "lat": 38.894205, "is_reserved": 0, "is_disabled": 0, "fusion_lon": 0.0, "bike_id": "af968f629b02235c8d9ef5277e50c55e", "lon": -76.93965883333334, "rental_uris": {"ios": "https://dc.lft.to/lastmile_qr_scan", "android": "https://dc.lft.to/lastmile_qr_scan"}}, {"name": "43737e978241bb21c60b459bb4d98c1c", "fusion_lat": 0.0, "type": "electric_scooter", "lat": 38.925887333333336, "is_reserved": 0, "is_disabled": 0, "fusion_lon": 0.0, "bike_id": "43737e978241bb21c60b459bb4d98c1c", "lon": -77.02971016666666, "rental_uris": {"ios": "https://dc.lft.to/lastmile_qr_scan", "android": "https://dc.lft.to/lastmile_qr_scan"}}, {"name": "3232b8b7ebb94f74b2ddfa91d68990f0", "fusion_lat": 0.0, "type": "electric_scooter", "lat": 38.903073, "is_reserved": 0, "is_disabled": 0, "fusion_lon": 0.0, "bike_id": "3232b8b7ebb94f74b2ddfa91d68990f0", "lon": -77.02909233333334, "rental_uris": {"ios": "https://dc.lft.to/lastmile_qr_scan", "android": "https://dc.lft.to/lastmile_qr_scan"}}, {"name": "32401c2ff49f589abc7d51561045fbb5", "fusion_lat": 0.0, "type": "electric_scooter", "lat": 38.90136833333333, "is_reserved": 0, "is_disabled": 0, "fusion_lon": 0.0, "bike_id": "32401c2ff49f589abc7d51561045fbb5", "lon": -77.02893616666667, "rental_uris": {"ios": "https://dc.lft.to/lastmile_qr_scan", "android": "https://dc.lft.to/lastmile_qr_scan"}}, {"name": "57d37915aa5d05bb68d48a2f2e5ac2fd", "fusion_lat": 0.0, "type": "electric_scooter", "lat": 38.903302, "is_reserved": 0, "is_disabled": 0, "fusion_lon": 0.0, "bike_id": "57d37915aa5d05bb68d48a2f2e5ac2fd", "lon": -77.038384, "rental_uris": {"ios": "https://dc.lft.to/lastmile_qr_scan", "android": "https://dc.lft.to/lastmile_qr_scan"}}, {"name": "d3ebd8b277a2cf073d1963c3f5458e33", "fusion_lat": 0.0, "type": "electric_scooter", "lat": 38.9180485, "is_reserved": 0, "is_disabled": 0, "fusion_lon": 0.0, "bike_id": "d3ebd8b277a2cf073d1963c3f5458e33", "lon": -77.0281585, "rental_uris": {"ios": "https://dc.lft.to/lastmile_qr_scan", "android": "https://dc.lft.to/lastmile_qr_scan"}}, {"name": "edc8c7cb14b0b41b5ab7030e2ea9e9b9", "fusion_lat": 0.0, "type": "electric_scooter", "lat": 38.9220915, "is_reserved": 0, "is_disabled": 0, "fusion_lon": 0.0, "bike_id": "edc8c7cb14b0b41b5ab7030e2ea9e9b9", "lon": -77.04240033333333, "rental_uris": {"ios": "https://dc.lft.to/lastmile_qr_scan", "android": "https://dc.lft.to/lastmile_qr_scan"}}, {"name": "374df89ba15e9da85a9c719dc60e075a", "fusion_lat": 0.0, "type": "electric_scooter", "lat": 38.93093266666666, "is_reserved": 0, "is_disabled": 0, "fusion_lon": 0.0, "bike_id": "374df89ba15e9da85a9c719dc60e075a", "lon": -77.02406633333334, "rental_uris": {"ios": "https://dc.lft.to/lastmile_qr_scan", "android": "https://dc.lft.to/lastmile_qr_scan"}}, {"name": "71920cafa4d4245391f72f50d3600da1", "fusion_lat": 0.0, "type": "electric_scooter", "lat": 38.939644333333334, "is_reserved": 0, "is_disabled": 0, "fusion_lon": 0.0, "bike_id": "71920cafa4d4245391f72f50d3600da1", "lon": -77.03285016666666, "rental_uris": {"ios": "https://dc.lft.to/lastmile_qr_scan", "android": "https://dc.lft.to/lastmile_qr_scan"}}, {"name": "5480e9051bca750a38d5a3e92149976f", "fusion_lat": 0.0, "type": "electric_scooter", "lat": 38.901415666666665, "is_reserved": 0, "is_disabled": 0, "fusion_lon": 0.0, "bike_id": "5480e9051bca750a38d5a3e92149976f", "lon": -76.99971566666666, "rental_uris": {"ios": "https://dc.lft.to/lastmile_qr_scan", "android": "https://dc.lft.to/lastmile_qr_scan"}}, {"name": "a244c87e623643c1f194ba29b77dbfe6", "fusion_lat": 0.0, "type": "electric_bike", "lat": 38.97326833333333, "is_reserved": 0, "is_disabled": 0, "fusion_lon": 0.0, "bike_id": "a244c87e623643c1f194ba29b77dbfe6", "lon": -77.02150066666667, "rental_uris": {"ios": "https://dc.lft.to/lastmile_qr_scan", "android": "https://dc.lft.to/lastmile_qr_scan"}}, {"name": "9686401aaa4b8e49c15d004d57c49545", "fusion_lat": 0.0, "type": "electric_scooter", "lat": 38.903079166666664, "is_reserved": 0, "is_disabled": 0, "fusion_lon": 0.0, "bike_id": "9686401aaa4b8e49c15d004d57c49545", "lon": -77.03205033333333, "rental_uris": {"ios": "https://dc.lft.to/lastmile_qr_scan", "android": "https://dc.lft.to/lastmile_qr_scan"}}, {"name": "c4cbb6a8e9ecc7b9084b3a21e412f4ea", "fusion_lat": 0.0, "type": "electric_scooter", "lat": 38.91424216666667, "is_reserved": 0, "is_disabled": 0, "fusion_lon": 0.0, "bike_id": "c4cbb6a8e9ecc7b9084b3a21e412f4ea", "lon": -77.026109, "rental_uris": {"ios": "https://dc.lft.to/lastmile_qr_scan", "android": "https://dc.lft.to/lastmile_qr_scan"}}, {"name": "b3cee3418bf8d16f91dc39d756a84d48", "fusion_lat": 0.0, "type": "electric_scooter", "lat": 38.88933016666667, "is_reserved": 0, "is_disabled": 0, "fusion_lon": 0.0, "bike_id": "b3cee3418bf8d16f91dc39d756a84d48", "lon": -76.9478505, "rental_uris": {"ios": "https://dc.lft.to/lastmile_qr_scan", "android": "https://dc.lft.to/lastmile_qr_scan"}}, {"name": "36bd1c5448a40dcbe9dea768f389ac22", "fusion_lat": 0.0, "type": "electric_bike", "lat": 38.838603666666664, "is_reserved": 0, "is_disabled": 0, "fusion_lon": 0.0, "bike_id": "36bd1c5448a40dcbe9dea768f389ac22", "lon": -77.0886835, "rental_uris": {"ios": "https://dc.lft.to/lastmile_qr_scan", "android": "https://dc.lft.to/lastmile_qr_scan"}}, {"name": "92eb5d274e7b7e28b7cf108547106f21", "fusion_lat": 0.0, "type": "electric_bike", "lat": 38.96501683333334, "is_reserved": 0, "is_disabled": 0, "fusion_lon": 0.0, "bike_id": "92eb5d274e7b7e28b7cf108547106f21", "lon": -77.06495316666667, "rental_uris": {"ios": "https://dc.lft.to/lastmile_qr_scan", "android": "https://dc.lft.to/lastmile_qr_scan"}}, {"name": "3e8c40a0c1679977c84f5f45d4eaf855", "fusion_lat": 0.0, "type": "electric_scooter", "lat": 38.91156983333333, "is_reserved": 0, "is_disabled": 0, "fusion_lon": 0.0, "bike_id": "3e8c40a0c1679977c84f5f45d4eaf855", "lon": -77.044299, "rental_uris": {"ios": "https://dc.lft.to/lastmile_qr_scan", "android": "https://dc.lft.to/lastmile_qr_scan"}}, {"name": "e57065930ac9c272f008f791e4a78de8", "fusion_lat": 0.0, "type": "electric_scooter", "lat": 38.901378666666666, "is_reserved": 0, "is_disabled": 0, "fusion_lon": 0.0, "bike_id": "e57065930ac9c272f008f791e4a78de8", "lon": -77.044957, "rental_uris": {"ios": "https://dc.lft.to/lastmile_qr_scan", "android": "https://dc.lft.to/lastmile_qr_scan"}}, {"name": "6f383cb01f42c2cf59f9718817098104", "fusion_lat": 0.0, "type": "electric_scooter", "lat": 38.9057045, "is_reserved": 0, "is_disabled": 0, "fusion_lon": 0.0, "bike_id": "6f383cb01f42c2cf59f9718817098104", "lon": -77.03461316666667, "rental_uris": {"ios": "https://dc.lft.to/lastmile_qr_scan", "android": "https://dc.lft.to/lastmile_qr_scan"}}, {"name": "7cec603b3f3b1a45bc5c17da4a557dbf", "fusion_lat": 0.0, "type": "electric_scooter", "lat": 38.89969933333333, "is_reserved": 0, "is_disabled": 0, "fusion_lon": 0.0, "bike_id": "7cec603b3f3b1a45bc5c17da4a557dbf", "lon": -77.02936383333333, "rental_uris": {"ios": "https://dc.lft.to/lastmile_qr_scan", "android": "https://dc.lft.to/lastmile_qr_scan"}}, {"name": "5580cc5c8d18d31f6e37d8b36c6ba40b", "fusion_lat": 0.0, "type": "electric_scooter", "lat": 38.9093945, "is_reserved": 0, "is_disabled": 0, "fusion_lon": 0.0, "bike_id": "5580cc5c8d18d31f6e37d8b36c6ba40b", "lon": -77.04121766666667, "rental_uris": {"ios": "https://dc.lft.to/lastmile_qr_scan", "android": "https://dc.lft.to/lastmile_qr_scan"}}, {"name": "db4f40cf5318b3464c70c7159d71c904", "fusion_lat": 0.0, "type": "electric_scooter", "lat": 38.9257435, "is_reserved": 0, "is_disabled": 0, "fusion_lon": 0.0, "bike_id": "db4f40cf5318b3464c70c7159d71c904", "lon": -77.02845216666667, "rental_uris": {"ios": "https://dc.lft.to/lastmile_qr_scan", "android": "https://dc.lft.to/lastmile_qr_scan"}}, {"name": "e890fcaedf1f144261aea1c6827786c1", "fusion_lat": 0.0, "type": "electric_scooter", "lat": 38.91201566666667, "is_reserved": 0, "is_disabled": 0, "fusion_lon": 0.0, "bike_id": "e890fcaedf1f144261aea1c6827786c1", "lon": -77.000837, "rental_uris": {"ios": "https://dc.lft.to/lastmile_qr_scan", "android": "https://dc.lft.to/lastmile_qr_scan"}}, {"name": "30841931a5139ce8645eb5ecb58820bc", "fusion_lat": 0.0, "type": "electric_scooter", "lat": 38.911311166666664, "is_reserved": 0, "is_disabled": 0, "fusion_lon": 0.0, "bike_id": "30841931a5139ce8645eb5ecb58820bc", "lon": -77.03183466666667, "rental_uris": {"ios": "https://dc.lft.to/lastmile_qr_scan", "android": "https://dc.lft.to/lastmile_qr_scan"}}, {"name": "e126bc8e6ebb49278e10e910a72a5c6a", "fusion_lat": 0.0, "type": "electric_scooter", "lat": 38.920628666666666, "is_reserved": 0, "is_disabled": 0, "fusion_lon": 0.0, "bike_id": "e126bc8e6ebb49278e10e910a72a5c6a", "lon": -77.02961383333333, "rental_uris": {"ios": "https://dc.lft.to/lastmile_qr_scan", "android": "https://dc.lft.to/lastmile_qr_scan"}}, {"name": "ea63344d189505eec3907446c3ebc7f1", "fusion_lat": 0.0, "type": "electric_scooter", "lat": 38.93535583333333, "is_reserved": 0, "is_disabled": 0, "fusion_lon": 0.0, "bike_id": "ea63344d189505eec3907446c3ebc7f1", "lon": -77.023539, "rental_uris": {"ios": "https://dc.lft.to/lastmile_qr_scan", "android": "https://dc.lft.to/lastmile_qr_scan"}}, {"name": "4bea87fcde6084269f0448ca70e0b95f", "fusion_lat": 0.0, "type": "electric_scooter", "lat": 38.9123865, "is_reserved": 0, "is_disabled": 0, "fusion_lon": 0.0, "bike_id": "4bea87fcde6084269f0448ca70e0b95f", "lon": -77.0091935, "rental_uris": {"ios": "https://dc.lft.to/lastmile_qr_scan", "android": "https://dc.lft.to/lastmile_qr_scan"}}, {"name": "1c10cd501c184afb07ba6b2fe64dfab9", "fusion_lat": 0.0, "type": "electric_scooter", "lat": 38.900284166666665, "is_reserved": 0, "is_disabled": 0, "fusion_lon": 0.0, "bike_id": "1c10cd501c184afb07ba6b2fe64dfab9", "lon": -76.98851516666667, "rental_uris": {"ios": "https://dc.lft.to/lastmile_qr_scan", "android": "https://dc.lft.to/lastmile_qr_scan"}}, {"name": "465fc093910b2d489247ab6e5ca4dfdf", "fusion_lat": 0.0, "type": "electric_scooter", "lat": 38.91290333333333, "is_reserved": 0, "is_disabled": 0, "fusion_lon": 0.0, "bike_id": "465fc093910b2d489247ab6e5ca4dfdf", "lon": -77.02387416666667, "rental_uris": {"ios": "https://dc.lft.to/lastmile_qr_scan", "android": "https://dc.lft.to/lastmile_qr_scan"}}, {"name": "9efa6942db521d4f2952ccbc77caf93e", "fusion_lat": 0.0, "type": "electric_scooter", "lat": 38.90987233333333, "is_reserved": 0, "is_disabled": 0, "fusion_lon": 0.0, "bike_id": "9efa6942db521d4f2952ccbc77caf93e", "lon": -77.04869866666667, "rental_uris": {"ios": "https://dc.lft.to/lastmile_qr_scan", "android": "https://dc.lft.to/lastmile_qr_scan"}}, {"name": "4c232971ff2e4c0bba4579266dedba60", "fusion_lat": 0.0, "type": "electric_scooter", "lat": 38.92385983333333, "is_reserved": 0, "is_disabled": 0, "fusion_lon": 0.0, "bike_id": "4c232971ff2e4c0bba4579266dedba60", "lon": -77.01911066666666, "rental_uris": {"ios": "https://dc.lft.to/lastmile_qr_scan", "android": "https://dc.lft.to/lastmile_qr_scan"}}, {"name": "ff84b19e041496afb7f8566f9212cf50", "fusion_lat": 0.0, "type": "electric_bike", "lat": 39.05203516666667, "is_reserved": 0, "is_disabled": 0, "fusion_lon": 0.0, "bike_id": "ff84b19e041496afb7f8566f9212cf50", "lon": -77.109109, "rental_uris": {"ios": "https://dc.lft.to/lastmile_qr_scan", "android": "https://dc.lft.to/lastmile_qr_scan"}}, {"name": "a102a28c1ab5c20cb3d9e1a6b821e0de", "fusion_lat": 0.0, "type": "electric_scooter", "lat": 38.90140916666667, "is_reserved": 0, "is_disabled": 0, "fusion_lon": 0.0, "bike_id": "a102a28c1ab5c20cb3d9e1a6b821e0de", "lon": -76.99121616666666, "rental_uris": {"ios": "https://dc.lft.to/lastmile_qr_scan", "android": "https://dc.lft.to/lastmile_qr_scan"}}, {"name": "650f7b6178e911476138376a0cc3034d", "fusion_lat": 0.0, "type": "electric_bike", "lat": 38.841623166666665, "is_reserved": 0, "is_disabled": 0, "fusion_lon": 0.0, "bike_id": "650f7b6178e911476138376a0cc3034d", "lon": -77.08889033333334, "rental_uris": {"ios": "https://dc.lft.to/lastmile_qr_scan", "android": "https://dc.lft.to/lastmile_qr_scan"}}, {"name": "b1922d241a22572e815c791c68abb7b0", "fusion_lat": 0.0, "type": "electric_scooter", "lat": 38.874205333333336, "is_reserved": 0, "is_disabled": 0, "fusion_lon": 0.0, "bike_id": "b1922d241a22572e815c791c68abb7b0", "lon": -76.96089633333334, "rental_uris": {"ios": "https://dc.lft.to/lastmile_qr_scan", "android": "https://dc.lft.to/lastmile_qr_scan"}}, {"name": "32f6c1075bb7cadb074371e84e3fb626", "fusion_lat": 0.0, "type": "electric_scooter", "lat": 38.89667933333333, "is_reserved": 0, "is_disabled": 0, "fusion_lon": 0.0, "bike_id": "32f6c1075bb7cadb074371e84e3fb626", "lon": -76.948496, "rental_uris": {"ios": "https://dc.lft.to/lastmile_qr_scan", "android": "https://dc.lft.to/lastmile_qr_scan"}}, {"name": "86f2a5e524221391a83f67e3a2c2aa4d", "fusion_lat": 0.0, "type": "electric_scooter", "lat": 38.909202, "is_reserved": 0, "is_disabled": 0, "fusion_lon": 0.0, "bike_id": "86f2a5e524221391a83f67e3a2c2aa4d", "lon": -77.03838266666666, "rental_uris": {"ios": "https://dc.lft.to/lastmile_qr_scan", "android": "https://dc.lft.to/lastmile_qr_scan"}}, {"name": "021540684a59b74e9c2ab9fd90375640", "fusion_lat": 0.0, "type": "electric_scooter", "lat": 38.91834266666667, "is_reserved": 0, "is_disabled": 0, "fusion_lon": 0.0, "bike_id": "021540684a59b74e9c2ab9fd90375640", "lon": -77.02299233333333, "rental_uris": {"ios": "https://dc.lft.to/lastmile_qr_scan", "android": "https://dc.lft.to/lastmile_qr_scan"}}, {"name": "5f895dc3f7eb3ccb2f7f98c0d7b12778", "fusion_lat": 0.0, "type": "electric_scooter", "lat": 38.91873483333333, "is_reserved": 0, "is_disabled": 0, "fusion_lon": 0.0, "bike_id": "5f895dc3f7eb3ccb2f7f98c0d7b12778", "lon": -77.0231765, "rental_uris": {"ios": "https://dc.lft.to/lastmile_qr_scan", "android": "https://dc.lft.to/lastmile_qr_scan"}}, {"name": "68a06000fc109997ecad2da0977374e9", "fusion_lat": 0.0, "type": "electric_scooter", "lat": 38.90315183333333, "is_reserved": 0, "is_disabled": 0, "fusion_lon": 0.0, "bike_id": "68a06000fc109997ecad2da0977374e9", "lon": -76.9916515, "rental_uris": {"ios": "https://dc.lft.to/lastmile_qr_scan", "android": "https://dc.lft.to/lastmile_qr_scan"}}, {"name": "bbe42de844e8671eebceae3457531a3e", "fusion_lat": 0.0, "type": "electric_scooter", "lat": 38.942945, "is_reserved": 0, "is_disabled": 0, "fusion_lon": 0.0, "bike_id": "bbe42de844e8671eebceae3457531a3e", "lon": -77.02169316666667, "rental_uris": {"ios": "https://dc.lft.to/lastmile_qr_scan", "android": "https://dc.lft.to/lastmile_qr_scan"}}, {"name": "5a20666d1ec12ecfe1e52b215fb19f7c", "fusion_lat": 0.0, "type": "electric_scooter", "lat": 38.90982533333333, "is_reserved": 0, "is_disabled": 0, "fusion_lon": 0.0, "bike_id": "5a20666d1ec12ecfe1e52b215fb19f7c", "lon": -77.06716766666666, "rental_uris": {"ios": "https://dc.lft.to/lastmile_qr_scan", "android": "https://dc.lft.to/lastmile_qr_scan"}}, {"name": "10b51f18d9a60dc8f72483fc42aa9da0", "fusion_lat": 0.0, "type": "electric_scooter", "lat": 38.889009333333334, "is_reserved": 0, "is_disabled": 0, "fusion_lon": 0.0, "bike_id": "10b51f18d9a60dc8f72483fc42aa9da0", "lon": -77.03284883333333, "rental_uris": {"ios": "https://dc.lft.to/lastmile_qr_scan", "android": "https://dc.lft.to/lastmile_qr_scan"}}, {"name": "18afbc5c937f7c6dc0a1015b9eade088", "fusion_lat": 0.0, "type": "electric_scooter", "lat": 38.91118516666667, "is_reserved": 0, "is_disabled": 0, "fusion_lon": 0.0, "bike_id": "18afbc5c937f7c6dc0a1015b9eade088", "lon": -77.03831716666667, "rental_uris": {"ios": "https://dc.lft.to/lastmile_qr_scan", "android": "https://dc.lft.to/lastmile_qr_scan"}}, {"name": "73dcd23cc532ee6d6d877aa56def02d8", "fusion_lat": 0.0, "type": "electric_scooter", "lat": 38.925792333333334, "is_reserved": 0, "is_disabled": 0, "fusion_lon": 0.0, "bike_id": "73dcd23cc532ee6d6d877aa56def02d8", "lon": -76.99492166666667, "rental_uris": {"ios": "https://dc.lft.to/lastmile_qr_scan", "android": "https://dc.lft.to/lastmile_qr_scan"}}, {"name": "b6670c37aaf35c7de80835170bd9acf1", "fusion_lat": 0.0, "type": "electric_scooter", "lat": 38.90348983333333, "is_reserved": 0, "is_disabled": 0, "fusion_lon": 0.0, "bike_id": "b6670c37aaf35c7de80835170bd9acf1", "lon": -77.02608216666667, "rental_uris": {"ios": "https://dc.lft.to/lastmile_qr_scan", "android": "https://dc.lft.to/lastmile_qr_scan"}}, {"name": "dae4f080099cc4faed9c655a4e20bb54", "fusion_lat": 0.0, "type": "electric_scooter", "lat": 38.901824500000004, "is_reserved": 0, "is_disabled": 0, "fusion_lon": 0.0, "bike_id": "dae4f080099cc4faed9c655a4e20bb54", "lon": -77.047106, "rental_uris": {"ios": "https://dc.lft.to/lastmile_qr_scan", "android": "https://dc.lft.to/lastmile_qr_scan"}}, {"name": "be5352c97570f45be2235f23d0ba734d", "fusion_lat": 0.0, "type": "electric_scooter", "lat": 38.94202383333333, "is_reserved": 0, "is_disabled": 0, "fusion_lon": 0.0, "bike_id": "be5352c97570f45be2235f23d0ba734d", "lon": -77.02516583333333, "rental_uris": {"ios": "https://dc.lft.to/lastmile_qr_scan", "android": "https://dc.lft.to/lastmile_qr_scan"}}, {"name": "7031c2713d51d7d08c6bec02b734c296", "fusion_lat": 0.0, "type": "electric_scooter", "lat": 38.861538833333334, "is_reserved": 0, "is_disabled": 0, "fusion_lon": 0.0, "bike_id": "7031c2713d51d7d08c6bec02b734c296", "lon": -76.98930916666667, "rental_uris": {"ios": "https://dc.lft.to/lastmile_qr_scan", "android": "https://dc.lft.to/lastmile_qr_scan"}}, {"name": "a5bfaafae0db22af9bbdcbfa3e8d3c56", "fusion_lat": 0.0, "type": "electric_scooter", "lat": 38.907437, "is_reserved": 0, "is_disabled": 0, "fusion_lon": 0.0, "bike_id": "a5bfaafae0db22af9bbdcbfa3e8d3c56", "lon": -77.04339233333333, "rental_uris": {"ios": "https://dc.lft.to/lastmile_qr_scan", "android": "https://dc.lft.to/lastmile_qr_scan"}}, {"name": "22a66e6a51c671afc1cd8b38c3ae34a8", "fusion_lat": 0.0, "type": "electric_bike", "lat": 38.831508, "is_reserved": 0, "is_disabled": 0, "fusion_lon": 0.0, "bike_id": "22a66e6a51c671afc1cd8b38c3ae34a8", "lon": -77.11328433333334, "rental_uris": {"ios": "https://dc.lft.to/lastmile_qr_scan", "android": "https://dc.lft.to/lastmile_qr_scan"}}, {"name": "5b576a77c52a5ce1bb08fd7cb69a2754", "fusion_lat": 0.0, "type": "electric_scooter", "lat": 38.921328833333334, "is_reserved": 0, "is_disabled": 0, "fusion_lon": 0.0, "bike_id": "5b576a77c52a5ce1bb08fd7cb69a2754", "lon": -77.0251405, "rental_uris": {"ios": "https://dc.lft.to/lastmile_qr_scan", "android": "https://dc.lft.to/lastmile_qr_scan"}}, {"name": "33a4804e4b6df8cf96b25cf51705d0f5", "fusion_lat": 0.0, "type": "electric_bike", "lat": 38.9243475, "is_reserved": 0, "is_disabled": 0, "fusion_lon": 0.0, "bike_id": "33a4804e4b6df8cf96b25cf51705d0f5", "lon": -76.99133466666666, "rental_uris": {"ios": "https://dc.lft.to/lastmile_qr_scan", "android": "https://dc.lft.to/lastmile_qr_scan"}}, {"name": "8109569729e6edb8d23fe52c8aa7b660", "fusion_lat": 0.0, "type": "electric_scooter", "lat": 38.9083455, "is_reserved": 0, "is_disabled": 0, "fusion_lon": 0.0, "bike_id": "8109569729e6edb8d23fe52c8aa7b660", "lon": -77.00283966666667, "rental_uris": {"ios": "https://dc.lft.to/lastmile_qr_scan", "android": "https://dc.lft.to/lastmile_qr_scan"}}, {"name": "24885888022c071148a759cb3c6a67f8", "fusion_lat": 0.0, "type": "electric_bike", "lat": 38.84276766666667, "is_reserved": 0, "is_disabled": 0, "fusion_lon": 0.0, "bike_id": "24885888022c071148a759cb3c6a67f8", "lon": -76.98842233333333, "rental_uris": {"ios": "https://dc.lft.to/lastmile_qr_scan", "android": "https://dc.lft.to/lastmile_qr_scan"}}, {"name": "54550b89a7e4f050296911c36eb8f785", "fusion_lat": 0.0, "type": "electric_scooter", "lat": 38.928254333333335, "is_reserved": 0, "is_disabled": 0, "fusion_lon": 0.0, "bike_id": "54550b89a7e4f050296911c36eb8f785", "lon": -77.02258066666667, "rental_uris": {"ios": "https://dc.lft.to/lastmile_qr_scan", "android": "https://dc.lft.to/lastmile_qr_scan"}}, {"name": "6f795f5c2bffda169dee448cc9c6ddd8", "fusion_lat": 0.0, "type": "electric_scooter", "lat": 38.917129333333335, "is_reserved": 0, "is_disabled": 0, "fusion_lon": 0.0, "bike_id": "6f795f5c2bffda169dee448cc9c6ddd8", "lon": -77.02799916666666, "rental_uris": {"ios": "https://dc.lft.to/lastmile_qr_scan", "android": "https://dc.lft.to/lastmile_qr_scan"}}, {"name": "114f83b1fb7a4b7618e80dc53f006efe", "fusion_lat": 0.0, "type": "electric_bike", "lat": 38.960103833333335, "is_reserved": 0, "is_disabled": 0, "fusion_lon": 0.0, "bike_id": "114f83b1fb7a4b7618e80dc53f006efe", "lon": -76.99871166666667, "rental_uris": {"ios": "https://dc.lft.to/lastmile_qr_scan", "android": "https://dc.lft.to/lastmile_qr_scan"}}, {"name": "19358af43208338f7377e881222bf5e3", "fusion_lat": 0.0, "type": "electric_scooter", "lat": 38.90052416666666, "is_reserved": 0, "is_disabled": 0, "fusion_lon": 0.0, "bike_id": "19358af43208338f7377e881222bf5e3", "lon": -77.00215033333333, "rental_uris": {"ios": "https://dc.lft.to/lastmile_qr_scan", "android": "https://dc.lft.to/lastmile_qr_scan"}}, {"name": "88d5b957db8964d5a249e1bc1ffb90af", "fusion_lat": 0.0, "type": "electric_bike", "lat": 38.881216, "is_reserved": 0, "is_disabled": 0, "fusion_lon": 0.0, "bike_id": "88d5b957db8964d5a249e1bc1ffb90af", "lon": -77.01352933333334, "rental_uris": {"ios": "https://dc.lft.to/lastmile_qr_scan", "android": "https://dc.lft.to/lastmile_qr_scan"}}, {"name": "91483875216922c2f9fc8685db984d76", "fusion_lat": 0.0, "type": "electric_scooter", "lat": 38.907016166666665, "is_reserved": 0, "is_disabled": 0, "fusion_lon": 0.0, "bike_id": "91483875216922c2f9fc8685db984d76", "lon": -76.98856083333334, "rental_uris": {"ios": "https://dc.lft.to/lastmile_qr_scan", "android": "https://dc.lft.to/lastmile_qr_scan"}}, {"name": "9f50bca7f2b606762cfc94545da195db", "fusion_lat": 0.0, "type": "electric_scooter", "lat": 38.93258566666667, "is_reserved": 0, "is_disabled": 0, "fusion_lon": 0.0, "bike_id": "9f50bca7f2b606762cfc94545da195db", "lon": -77.03994433333334, "rental_uris": {"ios": "https://dc.lft.to/lastmile_qr_scan", "android": "https://dc.lft.to/lastmile_qr_scan"}}, {"name": "30ff20e0d3487c8285bae775a6396653", "fusion_lat": 0.0, "type": "electric_scooter", "lat": 38.926931, "is_reserved": 0, "is_disabled": 0, "fusion_lon": 0.0, "bike_id": "30ff20e0d3487c8285bae775a6396653", "lon": -77.037776, "rental_uris": {"ios": "https://dc.lft.to/lastmile_qr_scan", "android": "https://dc.lft.to/lastmile_qr_scan"}}, {"name": "37f89611d37e006e4d17db22cecea0be", "fusion_lat": 0.0, "type": "electric_scooter", "lat": 38.90508716666667, "is_reserved": 0, "is_disabled": 0, "fusion_lon": 0.0, "bike_id": "37f89611d37e006e4d17db22cecea0be", "lon": -77.0448195, "rental_uris": {"ios": "https://dc.lft.to/lastmile_qr_scan", "android": "https://dc.lft.to/lastmile_qr_scan"}}, {"name": "d5c70d50eb9e6ab1f42a7e8e8cc62fc7", "fusion_lat": 0.0, "type": "electric_scooter", "lat": 38.918256166666666, "is_reserved": 0, "is_disabled": 0, "fusion_lon": 0.0, "bike_id": "d5c70d50eb9e6ab1f42a7e8e8cc62fc7", "lon": -77.02709833333333, "rental_uris": {"ios": "https://dc.lft.to/lastmile_qr_scan", "android": "https://dc.lft.to/lastmile_qr_scan"}}, {"name": "ad9ca30000c3c0ecb42f428ca46fff60", "fusion_lat": 0.0, "type": "electric_scooter", "lat": 38.91261733333333, "is_reserved": 0, "is_disabled": 0, "fusion_lon": 0.0, "bike_id": "ad9ca30000c3c0ecb42f428ca46fff60", "lon": -77.038661, "rental_uris": {"ios": "https://dc.lft.to/lastmile_qr_scan", "android": "https://dc.lft.to/lastmile_qr_scan"}}, {"name": "5b3bc16c9e42c8ba5423a7875bb5d0c6", "fusion_lat": 0.0, "type": "electric_scooter", "lat": 38.890912666666665, "is_reserved": 0, "is_disabled": 0, "fusion_lon": 0.0, "bike_id": "5b3bc16c9e42c8ba5423a7875bb5d0c6", "lon": -76.987352, "rental_uris": {"ios": "https://dc.lft.to/lastmile_qr_scan", "android": "https://dc.lft.to/lastmile_qr_scan"}}, {"name": "943d6438d31cf9fd21ed3042cec26848", "fusion_lat": 0.0, "type": "electric_scooter", "lat": 38.91691466666666, "is_reserved": 0, "is_disabled": 0, "fusion_lon": 0.0, "bike_id": "943d6438d31cf9fd21ed3042cec26848", "lon": -77.02460166666667, "rental_uris": {"ios": "https://dc.lft.to/lastmile_qr_scan", "android": "https://dc.lft.to/lastmile_qr_scan"}}, {"name": "211021c76c11a1dfdfd4714ef3451cf3", "fusion_lat": 0.0, "type": "electric_scooter", "lat": 38.9132275, "is_reserved": 0, "is_disabled": 0, "fusion_lon": 0.0, "bike_id": "211021c76c11a1dfdfd4714ef3451cf3", "lon": -77.01785666666666, "rental_uris": {"ios": "https://dc.lft.to/lastmile_qr_scan", "android": "https://dc.lft.to/lastmile_qr_scan"}}, {"name": "a13dcca5c70fa4bdbcc5df24a2902219", "fusion_lat": 0.0, "type": "electric_scooter", "lat": 38.924469, "is_reserved": 0, "is_disabled": 0, "fusion_lon": 0.0, "bike_id": "a13dcca5c70fa4bdbcc5df24a2902219", "lon": -77.02980483333333, "rental_uris": {"ios": "https://dc.lft.to/lastmile_qr_scan", "android": "https://dc.lft.to/lastmile_qr_scan"}}, {"name": "f0730c06c91edacaab70eb56eb635b79", "fusion_lat": 0.0, "type": "electric_scooter", "lat": 38.925610666666664, "is_reserved": 0, "is_disabled": 0, "fusion_lon": 0.0, "bike_id": "f0730c06c91edacaab70eb56eb635b79", "lon": -77.062794, "rental_uris": {"ios": "https://dc.lft.to/lastmile_qr_scan", "android": "https://dc.lft.to/lastmile_qr_scan"}}, {"name": "361f746e69f5dfc1745ce3d91f75e434", "fusion_lat": 0.0, "type": "electric_bike", "lat": 38.928544333333335, "is_reserved": 0, "is_disabled": 0, "fusion_lon": 0.0, "bike_id": "361f746e69f5dfc1745ce3d91f75e434", "lon": -77.10682016666667, "rental_uris": {"ios": "https://dc.lft.to/lastmile_qr_scan", "android": "https://dc.lft.to/lastmile_qr_scan"}}, {"name": "3846b06d099f71b0ed32789a2ebf3f61", "fusion_lat": 0.0, "type": "electric_scooter", "lat": 38.88350066666667, "is_reserved": 0, "is_disabled": 0, "fusion_lon": 0.0, "bike_id": "3846b06d099f71b0ed32789a2ebf3f61", "lon": -76.949439, "rental_uris": {"ios": "https://dc.lft.to/lastmile_qr_scan", "android": "https://dc.lft.to/lastmile_qr_scan"}}, {"name": "c8d136741ac4aba01c4d7cac7a5a9763", "fusion_lat": 0.0, "type": "electric_scooter", "lat": 38.902889333333334, "is_reserved": 0, "is_disabled": 0, "fusion_lon": 0.0, "bike_id": "c8d136741ac4aba01c4d7cac7a5a9763", "lon": -77.04250483333334, "rental_uris": {"ios": "https://dc.lft.to/lastmile_qr_scan", "android": "https://dc.lft.to/lastmile_qr_scan"}}, {"name": "10cc5b3be64ce23fbab6ced59290ad8b", "fusion_lat": 0.0, "type": "electric_scooter", "lat": 38.89483166666667, "is_reserved": 0, "is_disabled": 0, "fusion_lon": 0.0, "bike_id": "10cc5b3be64ce23fbab6ced59290ad8b", "lon": -77.01075933333334, "rental_uris": {"ios": "https://dc.lft.to/lastmile_qr_scan", "android": "https://dc.lft.to/lastmile_qr_scan"}}, {"name": "6d5e8e7c3beea54d3ecf9b82e9a0c7bf", "fusion_lat": 0.0, "type": "electric_scooter", "lat": 38.86370633333333, "is_reserved": 0, "is_disabled": 0, "fusion_lon": 0.0, "bike_id": "6d5e8e7c3beea54d3ecf9b82e9a0c7bf", "lon": -77.013651, "rental_uris": {"ios": "https://dc.lft.to/lastmile_qr_scan", "android": "https://dc.lft.to/lastmile_qr_scan"}}, {"name": "32605ca64d2dc170e0c743a2fddbaf26", "fusion_lat": 0.0, "type": "electric_scooter", "lat": 38.89730083333333, "is_reserved": 0, "is_disabled": 0, "fusion_lon": 0.0, "bike_id": "32605ca64d2dc170e0c743a2fddbaf26", "lon": -77.04341316666667, "rental_uris": {"ios": "https://dc.lft.to/lastmile_qr_scan", "android": "https://dc.lft.to/lastmile_qr_scan"}}, {"name": "35f01a1ffa6919387d65660ebacc3bf9", "fusion_lat": 0.0, "type": "electric_scooter", "lat": 38.91257733333333, "is_reserved": 0, "is_disabled": 0, "fusion_lon": 0.0, "bike_id": "35f01a1ffa6919387d65660ebacc3bf9", "lon": -77.00771366666666, "rental_uris": {"ios": "https://dc.lft.to/lastmile_qr_scan", "android": "https://dc.lft.to/lastmile_qr_scan"}}, {"name": "63470e6d38f023e178cf296007317bfd", "fusion_lat": 0.0, "type": "electric_scooter", "lat": 38.930573, "is_reserved": 0, "is_disabled": 0, "fusion_lon": 0.0, "bike_id": "63470e6d38f023e178cf296007317bfd", "lon": -77.02323566666666, "rental_uris": {"ios": "https://dc.lft.to/lastmile_qr_scan", "android": "https://dc.lft.to/lastmile_qr_scan"}}, {"name": "e6e8db89f071e59ae783a70bc6acc184", "fusion_lat": 0.0, "type": "electric_scooter", "lat": 38.897345666666666, "is_reserved": 0, "is_disabled": 0, "fusion_lon": 0.0, "bike_id": "e6e8db89f071e59ae783a70bc6acc184", "lon": -77.0475965, "rental_uris": {"ios": "https://dc.lft.to/lastmile_qr_scan", "android": "https://dc.lft.to/lastmile_qr_scan"}}, {"name": "ad15a9fc66f8c9555fabbd415c4c1abb", "fusion_lat": 0.0, "type": "electric_scooter", "lat": 38.908956, "is_reserved": 0, "is_disabled": 0, "fusion_lon": 0.0, "bike_id": "ad15a9fc66f8c9555fabbd415c4c1abb", "lon": -77.0320835, "rental_uris": {"ios": "https://dc.lft.to/lastmile_qr_scan", "android": "https://dc.lft.to/lastmile_qr_scan"}}, {"name": "c780fe0245f7bfac81a1869841fb2359", "fusion_lat": 0.0, "type": "electric_scooter", "lat": 38.8626935, "is_reserved": 0, "is_disabled": 0, "fusion_lon": 0.0, "bike_id": "c780fe0245f7bfac81a1869841fb2359", "lon": -76.9872065, "rental_uris": {"ios": "https://dc.lft.to/lastmile_qr_scan", "android": "https://dc.lft.to/lastmile_qr_scan"}}, {"name": "f14c80b29d0fe910312bbd73914355b5", "fusion_lat": 0.0, "type": "electric_scooter", "lat": 38.903112666666665, "is_reserved": 0, "is_disabled": 0, "fusion_lon": 0.0, "bike_id": "f14c80b29d0fe910312bbd73914355b5", "lon": -77.04985383333333, "rental_uris": {"ios": "https://dc.lft.to/lastmile_qr_scan", "android": "https://dc.lft.to/lastmile_qr_scan"}}, {"name": "46ef1b4f1c0e447ccdf2802f0792aa43", "fusion_lat": 0.0, "type": "electric_scooter", "lat": 38.9339225, "is_reserved": 0, "is_disabled": 0, "fusion_lon": 0.0, "bike_id": "46ef1b4f1c0e447ccdf2802f0792aa43", "lon": -77.0738715, "rental_uris": {"ios": "https://dc.lft.to/lastmile_qr_scan", "android": "https://dc.lft.to/lastmile_qr_scan"}}, {"name": "1aefbd23d6dc14d4e627081d6ed20633", "fusion_lat": 0.0, "type": "electric_scooter", "lat": 38.9029675, "is_reserved": 0, "is_disabled": 0, "fusion_lon": 0.0, "bike_id": "1aefbd23d6dc14d4e627081d6ed20633", "lon": -77.0383995, "rental_uris": {"ios": "https://dc.lft.to/lastmile_qr_scan", "android": "https://dc.lft.to/lastmile_qr_scan"}}, {"name": "e577a477f413af3b25a8ed73758ba4f6", "fusion_lat": 0.0, "type": "electric_scooter", "lat": 38.917288, "is_reserved": 0, "is_disabled": 0, "fusion_lon": 0.0, "bike_id": "e577a477f413af3b25a8ed73758ba4f6", "lon": -77.02892783333333, "rental_uris": {"ios": "https://dc.lft.to/lastmile_qr_scan", "android": "https://dc.lft.to/lastmile_qr_scan"}}, {"name": "7494bf81e9e8dcc2686ca0cdb7d22fe3", "fusion_lat": 0.0, "type": "electric_scooter", "lat": 38.894911666666665, "is_reserved": 0, "is_disabled": 0, "fusion_lon": 0.0, "bike_id": "7494bf81e9e8dcc2686ca0cdb7d22fe3", "lon": -77.0101795, "rental_uris": {"ios": "https://dc.lft.to/lastmile_qr_scan", "android": "https://dc.lft.to/lastmile_qr_scan"}}, {"name": "f63439232795d6c7ff1a6ea6bb978d17", "fusion_lat": 0.0, "type": "electric_scooter", "lat": 38.90267816666667, "is_reserved": 0, "is_disabled": 0, "fusion_lon": 0.0, "bike_id": "f63439232795d6c7ff1a6ea6bb978d17", "lon": -77.03840716666667, "rental_uris": {"ios": "https://dc.lft.to/lastmile_qr_scan", "android": "https://dc.lft.to/lastmile_qr_scan"}}, {"name": "1561c4551d5bafbae5c3705a1eb8a225", "fusion_lat": 0.0, "type": "electric_bike", "lat": 38.886172, "is_reserved": 0, "is_disabled": 0, "fusion_lon": 0.0, "bike_id": "1561c4551d5bafbae5c3705a1eb8a225", "lon": -77.10755383333333, "rental_uris": {"ios": "https://dc.lft.to/lastmile_qr_scan", "android": "https://dc.lft.to/lastmile_qr_scan"}}, {"name": "ef88ac38dffa782c2c92faa0f05c4bfc", "fusion_lat": 0.0, "type": "electric_scooter", "lat": 38.9215765, "is_reserved": 0, "is_disabled": 0, "fusion_lon": 0.0, "bike_id": "ef88ac38dffa782c2c92faa0f05c4bfc", "lon": -77.0332875, "rental_uris": {"ios": "https://dc.lft.to/lastmile_qr_scan", "android": "https://dc.lft.to/lastmile_qr_scan"}}, {"name": "852ebc65e0dba76f0e4928de91935930", "fusion_lat": 0.0, "type": "electric_scooter", "lat": 38.88385483333333, "is_reserved": 0, "is_disabled": 0, "fusion_lon": 0.0, "bike_id": "852ebc65e0dba76f0e4928de91935930", "lon": -76.93055216666667, "rental_uris": {"ios": "https://dc.lft.to/lastmile_qr_scan", "android": "https://dc.lft.to/lastmile_qr_scan"}}, {"name": "e480915524e4c9e71cc46eb29a8f28e5", "fusion_lat": 0.0, "type": "electric_scooter", "lat": 38.93882883333333, "is_reserved": 0, "is_disabled": 0, "fusion_lon": 0.0, "bike_id": "e480915524e4c9e71cc46eb29a8f28e5", "lon": -77.0246865, "rental_uris": {"ios": "https://dc.lft.to/lastmile_qr_scan", "android": "https://dc.lft.to/lastmile_qr_scan"}}, {"name": "0664bf343976db70fa09714ef782c7e9", "fusion_lat": 0.0, "type": "electric_bike", "lat": 38.922083, "is_reserved": 0, "is_disabled": 0, "fusion_lon": 0.0, "bike_id": "0664bf343976db70fa09714ef782c7e9", "lon": -76.9879895, "rental_uris": {"ios": "https://dc.lft.to/lastmile_qr_scan", "android": "https://dc.lft.to/lastmile_qr_scan"}}, {"name": "88148a5804ad008658fc924f51875e5b", "fusion_lat": 0.0, "type": "electric_scooter", "lat": 38.88754733333333, "is_reserved": 0, "is_disabled": 0, "fusion_lon": 0.0, "bike_id": "88148a5804ad008658fc924f51875e5b", "lon": -76.9798515, "rental_uris": {"ios": "https://dc.lft.to/lastmile_qr_scan", "android": "https://dc.lft.to/lastmile_qr_scan"}}, {"name": "c1851c4558f120a21b7460e3ecd2455b", "fusion_lat": 0.0, "type": "electric_scooter", "lat": 38.9247865, "is_reserved": 0, "is_disabled": 0, "fusion_lon": 0.0, "bike_id": "c1851c4558f120a21b7460e3ecd2455b", "lon": -77.03138433333334, "rental_uris": {"ios": "https://dc.lft.to/lastmile_qr_scan", "android": "https://dc.lft.to/lastmile_qr_scan"}}, {"name": "134e042ea474dc29509a79cdf3500218", "fusion_lat": 0.0, "type": "electric_bike", "lat": 38.992385, "is_reserved": 0, "is_disabled": 0, "fusion_lon": 0.0, "bike_id": "134e042ea474dc29509a79cdf3500218", "lon": -76.87820766666667, "rental_uris": {"ios": "https://dc.lft.to/lastmile_qr_scan", "android": "https://dc.lft.to/lastmile_qr_scan"}}, {"name": "123766b05f9eea84e81c52602b240fa7", "fusion_lat": 0.0, "type": "electric_scooter", "lat": 38.90343333333333, "is_reserved": 0, "is_disabled": 0, "fusion_lon": 0.0, "bike_id": "123766b05f9eea84e81c52602b240fa7", "lon": -76.94667866666667, "rental_uris": {"ios": "https://dc.lft.to/lastmile_qr_scan", "android": "https://dc.lft.to/lastmile_qr_scan"}}, {"name": "20dba9089061f43abe4ea99455bdcf4c", "fusion_lat": 0.0, "type": "electric_scooter", "lat": 38.901498, "is_reserved": 0, "is_disabled": 0, "fusion_lon": 0.0, "bike_id": "20dba9089061f43abe4ea99455bdcf4c", "lon": -77.03966283333334, "rental_uris": {"ios": "https://dc.lft.to/lastmile_qr_scan", "android": "https://dc.lft.to/lastmile_qr_scan"}}, {"name": "3a30b2d09230c33541ca68e7736263f0", "fusion_lat": 0.0, "type": "electric_scooter", "lat": 38.907378333333334, "is_reserved": 0, "is_disabled": 0, "fusion_lon": 0.0, "bike_id": "3a30b2d09230c33541ca68e7736263f0", "lon": -77.03448616666667, "rental_uris": {"ios": "https://dc.lft.to/lastmile_qr_scan", "android": "https://dc.lft.to/lastmile_qr_scan"}}, {"name": "6c080d4907a4e6481a44cf2f78a7485e", "fusion_lat": 0.0, "type": "electric_scooter", "lat": 38.901411333333336, "is_reserved": 0, "is_disabled": 0, "fusion_lon": 0.0, "bike_id": "6c080d4907a4e6481a44cf2f78a7485e", "lon": -77.04497166666667, "rental_uris": {"ios": "https://dc.lft.to/lastmile_qr_scan", "android": "https://dc.lft.to/lastmile_qr_scan"}}, {"name": "5c3d375fc33da6373f6988d4c54ec200", "fusion_lat": 0.0, "type": "electric_scooter", "lat": 38.90847316666667, "is_reserved": 0, "is_disabled": 0, "fusion_lon": 0.0, "bike_id": "5c3d375fc33da6373f6988d4c54ec200", "lon": -77.03184833333333, "rental_uris": {"ios": "https://dc.lft.to/lastmile_qr_scan", "android": "https://dc.lft.to/lastmile_qr_scan"}}, {"name": "76660d5b4ec3738c5d3c1d1eb4d46d9b", "fusion_lat": 0.0, "type": "electric_scooter", "lat": 38.911183666666666, "is_reserved": 0, "is_disabled": 0, "fusion_lon": 0.0, "bike_id": "76660d5b4ec3738c5d3c1d1eb4d46d9b", "lon": -77.03741733333334, "rental_uris": {"ios": "https://dc.lft.to/lastmile_qr_scan", "android": "https://dc.lft.to/lastmile_qr_scan"}}, {"name": "1fd0a71147f4a262d4b8d28807b47813", "fusion_lat": 0.0, "type": "electric_scooter", "lat": 38.904657, "is_reserved": 0, "is_disabled": 0, "fusion_lon": 0.0, "bike_id": "1fd0a71147f4a262d4b8d28807b47813", "lon": -76.982554, "rental_uris": {"ios": "https://dc.lft.to/lastmile_qr_scan", "android": "https://dc.lft.to/lastmile_qr_scan"}}, {"name": "b271cedd2e6226e07f7ad6a846176513", "fusion_lat": 0.0, "type": "electric_scooter", "lat": 38.90659183333333, "is_reserved": 0, "is_disabled": 0, "fusion_lon": 0.0, "bike_id": "b271cedd2e6226e07f7ad6a846176513", "lon": -77.05336733333333, "rental_uris": {"ios": "https://dc.lft.to/lastmile_qr_scan", "android": "https://dc.lft.to/lastmile_qr_scan"}}, {"name": "850c4805f225538a6246912c48ef7b9e", "fusion_lat": 0.0, "type": "electric_bike", "lat": 38.94364866666667, "is_reserved": 0, "is_disabled": 0, "fusion_lon": 0.0, "bike_id": "850c4805f225538a6246912c48ef7b9e", "lon": -77.00346666666667, "rental_uris": {"ios": "https://dc.lft.to/lastmile_qr_scan", "android": "https://dc.lft.to/lastmile_qr_scan"}}, {"name": "d264d56671414de0273e5476064015ba", "fusion_lat": 0.0, "type": "electric_scooter", "lat": 38.885985, "is_reserved": 0, "is_disabled": 0, "fusion_lon": 0.0, "bike_id": "d264d56671414de0273e5476064015ba", "lon": -77.0220645, "rental_uris": {"ios": "https://dc.lft.to/lastmile_qr_scan", "android": "https://dc.lft.to/lastmile_qr_scan"}}, {"name": "995658198009e165e0132476035c4c3f", "fusion_lat": 0.0, "type": "electric_scooter", "lat": 38.90543433333333, "is_reserved": 0, "is_disabled": 0, "fusion_lon": 0.0, "bike_id": "995658198009e165e0132476035c4c3f", "lon": -77.06285766666667, "rental_uris": {"ios": "https://dc.lft.to/lastmile_qr_scan", "android": "https://dc.lft.to/lastmile_qr_scan"}}, {"name": "fe47b8454e4085b6c61ad5e07a2a5dfc", "fusion_lat": 0.0, "type": "electric_scooter", "lat": 38.92729966666667, "is_reserved": 0, "is_disabled": 0, "fusion_lon": 0.0, "bike_id": "fe47b8454e4085b6c61ad5e07a2a5dfc", "lon": -77.07151916666666, "rental_uris": {"ios": "https://dc.lft.to/lastmile_qr_scan", "android": "https://dc.lft.to/lastmile_qr_scan"}}, {"name": "f1a1843ec8eee2ad4209e5c84b5d9218", "fusion_lat": 0.0, "type": "electric_scooter", "lat": 38.9104515, "is_reserved": 0, "is_disabled": 0, "fusion_lon": 0.0, "bike_id": "f1a1843ec8eee2ad4209e5c84b5d9218", "lon": -77.043799, "rental_uris": {"ios": "https://dc.lft.to/lastmile_qr_scan", "android": "https://dc.lft.to/lastmile_qr_scan"}}, {"name": "283d97c0c1a88cc115423af46f155e2e", "fusion_lat": 0.0, "type": "electric_scooter", "lat": 38.898545666666664, "is_reserved": 0, "is_disabled": 0, "fusion_lon": 0.0, "bike_id": "283d97c0c1a88cc115423af46f155e2e", "lon": -77.0161535, "rental_uris": {"ios": "https://dc.lft.to/lastmile_qr_scan", "android": "https://dc.lft.to/lastmile_qr_scan"}}, {"name": "30ec4a65f6111d5e19ae894b7d6c0442", "fusion_lat": 0.0, "type": "electric_scooter", "lat": 38.9002375, "is_reserved": 0, "is_disabled": 0, "fusion_lon": 0.0, "bike_id": "30ec4a65f6111d5e19ae894b7d6c0442", "lon": -76.99856116666666, "rental_uris": {"ios": "https://dc.lft.to/lastmile_qr_scan", "android": "https://dc.lft.to/lastmile_qr_scan"}}, {"name": "dc71b8e6462fe8b990eaf653c97cf111", "fusion_lat": 0.0, "type": "electric_scooter", "lat": 38.89373116666667, "is_reserved": 0, "is_disabled": 0, "fusion_lon": 0.0, "bike_id": "dc71b8e6462fe8b990eaf653c97cf111", "lon": -76.9499745, "rental_uris": {"ios": "https://dc.lft.to/lastmile_qr_scan", "android": "https://dc.lft.to/lastmile_qr_scan"}}, {"name": "7d8b991e445da836363ffe12c3140abd", "fusion_lat": 0.0, "type": "electric_scooter", "lat": 38.9428205, "is_reserved": 0, "is_disabled": 0, "fusion_lon": 0.0, "bike_id": "7d8b991e445da836363ffe12c3140abd", "lon": -77.02507583333333, "rental_uris": {"ios": "https://dc.lft.to/lastmile_qr_scan", "android": "https://dc.lft.to/lastmile_qr_scan"}}, {"name": "e86990972d17a297ffe8d09f4533aad2", "fusion_lat": 0.0, "type": "electric_scooter", "lat": 38.9002565, "is_reserved": 0, "is_disabled": 0, "fusion_lon": 0.0, "bike_id": "e86990972d17a297ffe8d09f4533aad2", "lon": -76.99839316666667, "rental_uris": {"ios": "https://dc.lft.to/lastmile_qr_scan", "android": "https://dc.lft.to/lastmile_qr_scan"}}, {"name": "ec9cb5efb3a069264b53b9b4320f41d3", "fusion_lat": 0.0, "type": "electric_scooter", "lat": 38.9341475, "is_reserved": 0, "is_disabled": 0, "fusion_lon": 0.0, "bike_id": "ec9cb5efb3a069264b53b9b4320f41d3", "lon": -77.04186233333333, "rental_uris": {"ios": "https://dc.lft.to/lastmile_qr_scan", "android": "https://dc.lft.to/lastmile_qr_scan"}}, {"name": "20f8a4902e118390e2cabb4e7c43528d", "fusion_lat": 0.0, "type": "electric_bike", "lat": 38.88346766666667, "is_reserved": 0, "is_disabled": 0, "fusion_lon": 0.0, "bike_id": "20f8a4902e118390e2cabb4e7c43528d", "lon": -77.18304383333333, "rental_uris": {"ios": "https://dc.lft.to/lastmile_qr_scan", "android": "https://dc.lft.to/lastmile_qr_scan"}}, {"name": "bc4ac8f652e272d5562e38b855336406", "fusion_lat": 0.0, "type": "electric_scooter", "lat": 38.90362583333334, "is_reserved": 0, "is_disabled": 0, "fusion_lon": 0.0, "bike_id": "bc4ac8f652e272d5562e38b855336406", "lon": -77.03552433333333, "rental_uris": {"ios": "https://dc.lft.to/lastmile_qr_scan", "android": "https://dc.lft.to/lastmile_qr_scan"}}, {"name": "c3870d22cabae5c245b4c178891585f7", "fusion_lat": 0.0, "type": "electric_scooter", "lat": 38.901832166666665, "is_reserved": 0, "is_disabled": 0, "fusion_lon": 0.0, "bike_id": "c3870d22cabae5c245b4c178891585f7", "lon": -77.0470595, "rental_uris": {"ios": "https://dc.lft.to/lastmile_qr_scan", "android": "https://dc.lft.to/lastmile_qr_scan"}}, {"name": "163265e6c84cce13c7441df35193f80e", "fusion_lat": 0.0, "type": "electric_scooter", "lat": 38.91077466666667, "is_reserved": 0, "is_disabled": 0, "fusion_lon": 0.0, "bike_id": "163265e6c84cce13c7441df35193f80e", "lon": -77.027237, "rental_uris": {"ios": "https://dc.lft.to/lastmile_qr_scan", "android": "https://dc.lft.to/lastmile_qr_scan"}}, {"name": "1e870b831646b5cb1ae219e6c5bc88d6", "fusion_lat": 0.0, "type": "electric_scooter", "lat": 38.914064333333336, "is_reserved": 0, "is_disabled": 0, "fusion_lon": 0.0, "bike_id": "1e870b831646b5cb1ae219e6c5bc88d6", "lon": -77.00844916666667, "rental_uris": {"ios": "https://dc.lft.to/lastmile_qr_scan", "android": "https://dc.lft.to/lastmile_qr_scan"}}, {"name": "f1fee242cc7d7d36763f7686744e0c49", "fusion_lat": 0.0, "type": "electric_scooter", "lat": 38.91562966666667, "is_reserved": 0, "is_disabled": 0, "fusion_lon": 0.0, "bike_id": "f1fee242cc7d7d36763f7686744e0c49", "lon": -77.05222533333334, "rental_uris": {"ios": "https://dc.lft.to/lastmile_qr_scan", "android": "https://dc.lft.to/lastmile_qr_scan"}}, {"name": "e5bc636f72091f9c0170c3b399f32aa5", "fusion_lat": 0.0, "type": "electric_scooter", "lat": 38.9002025, "is_reserved": 0, "is_disabled": 0, "fusion_lon": 0.0, "bike_id": "e5bc636f72091f9c0170c3b399f32aa5", "lon": -76.99566366666667, "rental_uris": {"ios": "https://dc.lft.to/lastmile_qr_scan", "android": "https://dc.lft.to/lastmile_qr_scan"}}, {"name": "28d1ae38c88395ed6aab9845617af2b2", "fusion_lat": 0.0, "type": "electric_scooter", "lat": 38.91762633333333, "is_reserved": 0, "is_disabled": 0, "fusion_lon": 0.0, "bike_id": "28d1ae38c88395ed6aab9845617af2b2", "lon": -77.0151145, "rental_uris": {"ios": "https://dc.lft.to/lastmile_qr_scan", "android": "https://dc.lft.to/lastmile_qr_scan"}}, {"name": "b238cf0a8fb28fe0fc5bc5aad3dd06b9", "fusion_lat": 0.0, "type": "electric_scooter", "lat": 38.939657, "is_reserved": 0, "is_disabled": 0, "fusion_lon": 0.0, "bike_id": "b238cf0a8fb28fe0fc5bc5aad3dd06b9", "lon": -77.03284933333333, "rental_uris": {"ios": "https://dc.lft.to/lastmile_qr_scan", "android": "https://dc.lft.to/lastmile_qr_scan"}}, {"name": "909edbc4b7ed0f75436b368b714a54b1", "fusion_lat": 0.0, "type": "electric_bike", "lat": 38.867603, "is_reserved": 0, "is_disabled": 0, "fusion_lon": 0.0, "bike_id": "909edbc4b7ed0f75436b368b714a54b1", "lon": -76.945346, "rental_uris": {"ios": "https://dc.lft.to/lastmile_qr_scan", "android": "https://dc.lft.to/lastmile_qr_scan"}}, {"name": "abafd9a79df6ac0c0043c4374d0538ce", "fusion_lat": 0.0, "type": "electric_scooter", "lat": 38.907513333333334, "is_reserved": 0, "is_disabled": 0, "fusion_lon": 0.0, "bike_id": "abafd9a79df6ac0c0043c4374d0538ce", "lon": -77.04488366666666, "rental_uris": {"ios": "https://dc.lft.to/lastmile_qr_scan", "android": "https://dc.lft.to/lastmile_qr_scan"}}, {"name": "3768082c1cf97194ef2b9b1dd1aa9220", "fusion_lat": 0.0, "type": "electric_scooter", "lat": 38.911214, "is_reserved": 0, "is_disabled": 0, "fusion_lon": 0.0, "bike_id": "3768082c1cf97194ef2b9b1dd1aa9220", "lon": -77.03824816666666, "rental_uris": {"ios": "https://dc.lft.to/lastmile_qr_scan", "android": "https://dc.lft.to/lastmile_qr_scan"}}, {"name": "e529d547c0a0d06aa10e99e1e0067d92", "fusion_lat": 0.0, "type": "electric_scooter", "lat": 38.91769683333333, "is_reserved": 0, "is_disabled": 0, "fusion_lon": 0.0, "bike_id": "e529d547c0a0d06aa10e99e1e0067d92", "lon": -77.02708566666666, "rental_uris": {"ios": "https://dc.lft.to/lastmile_qr_scan", "android": "https://dc.lft.to/lastmile_qr_scan"}}, {"name": "7019309d866fca442f0ad6b7124da27a", "fusion_lat": 0.0, "type": "electric_scooter", "lat": 38.93283783333333, "is_reserved": 0, "is_disabled": 0, "fusion_lon": 0.0, "bike_id": "7019309d866fca442f0ad6b7124da27a", "lon": -77.02530083333333, "rental_uris": {"ios": "https://dc.lft.to/lastmile_qr_scan", "android": "https://dc.lft.to/lastmile_qr_scan"}}, {"name": "e69b839978dc0549975081d60b85ac1c", "fusion_lat": 0.0, "type": "electric_scooter", "lat": 38.91702466666667, "is_reserved": 0, "is_disabled": 0, "fusion_lon": 0.0, "bike_id": "e69b839978dc0549975081d60b85ac1c", "lon": -77.03346733333333, "rental_uris": {"ios": "https://dc.lft.to/lastmile_qr_scan", "android": "https://dc.lft.to/lastmile_qr_scan"}}, {"name": "ff2f90d9386a8802221fadc7c38261bd", "fusion_lat": 0.0, "type": "electric_scooter", "lat": 38.84429033333333, "is_reserved": 0, "is_disabled": 0, "fusion_lon": 0.0, "bike_id": "ff2f90d9386a8802221fadc7c38261bd", "lon": -76.99779666666667, "rental_uris": {"ios": "https://dc.lft.to/lastmile_qr_scan", "android": "https://dc.lft.to/lastmile_qr_scan"}}, {"name": "34583ef91555cb41c23c2c87e41e4250", "fusion_lat": 0.0, "type": "electric_scooter", "lat": 38.89222633333333, "is_reserved": 0, "is_disabled": 0, "fusion_lon": 0.0, "bike_id": "34583ef91555cb41c23c2c87e41e4250", "lon": -77.01371416666667, "rental_uris": {"ios": "https://dc.lft.to/lastmile_qr_scan", "android": "https://dc.lft.to/lastmile_qr_scan"}}, {"name": "caf2b83b249b03d39a97f34648dd032c", "fusion_lat": 0.0, "type": "electric_scooter", "lat": 38.905575666666664, "is_reserved": 0, "is_disabled": 0, "fusion_lon": 0.0, "bike_id": "caf2b83b249b03d39a97f34648dd032c", "lon": -77.00585433333333, "rental_uris": {"ios": "https://dc.lft.to/lastmile_qr_scan", "android": "https://dc.lft.to/lastmile_qr_scan"}}, {"name": "04c48e3e6948e199d62b7a594861a75f", "fusion_lat": 0.0, "type": "electric_bike", "lat": 38.86906283333333, "is_reserved": 0, "is_disabled": 0, "fusion_lon": 0.0, "bike_id": "04c48e3e6948e199d62b7a594861a75f", "lon": -77.13181166666666, "rental_uris": {"ios": "https://dc.lft.to/lastmile_qr_scan", "android": "https://dc.lft.to/lastmile_qr_scan"}}, {"name": "45af43e22a2495487d5fbab9bf5be30e", "fusion_lat": 0.0, "type": "electric_scooter", "lat": 38.90643383333333, "is_reserved": 0, "is_disabled": 0, "fusion_lon": 0.0, "bike_id": "45af43e22a2495487d5fbab9bf5be30e", "lon": -76.9857795, "rental_uris": {"ios": "https://dc.lft.to/lastmile_qr_scan", "android": "https://dc.lft.to/lastmile_qr_scan"}}, {"name": "a6014a99014b3e61ed3ff47117970697", "fusion_lat": 0.0, "type": "electric_scooter", "lat": 38.9009515, "is_reserved": 0, "is_disabled": 0, "fusion_lon": 0.0, "bike_id": "a6014a99014b3e61ed3ff47117970697", "lon": -77.01340483333334, "rental_uris": {"ios": "https://dc.lft.to/lastmile_qr_scan", "android": "https://dc.lft.to/lastmile_qr_scan"}}, {"name": "3053c84bad3ac0cab8ad72f3fae393d9", "fusion_lat": 0.0, "type": "electric_scooter", "lat": 38.911154833333335, "is_reserved": 0, "is_disabled": 0, "fusion_lon": 0.0, "bike_id": "3053c84bad3ac0cab8ad72f3fae393d9", "lon": -77.03920666666667, "rental_uris": {"ios": "https://dc.lft.to/lastmile_qr_scan", "android": "https://dc.lft.to/lastmile_qr_scan"}}, {"name": "c8d9a15cd3618b8affef6f8770c1d894", "fusion_lat": 0.0, "type": "electric_scooter", "lat": 38.89926083333334, "is_reserved": 0, "is_disabled": 0, "fusion_lon": 0.0, "bike_id": "c8d9a15cd3618b8affef6f8770c1d894", "lon": -77.00359233333333, "rental_uris": {"ios": "https://dc.lft.to/lastmile_qr_scan", "android": "https://dc.lft.to/lastmile_qr_scan"}}, {"name": "28c4b57ad0248cdbdf890fe31b7ef11c", "fusion_lat": 0.0, "type": "electric_scooter", "lat": 38.895985, "is_reserved": 0, "is_disabled": 0, "fusion_lon": 0.0, "bike_id": "28c4b57ad0248cdbdf890fe31b7ef11c", "lon": -77.028479, "rental_uris": {"ios": "https://dc.lft.to/lastmile_qr_scan", "android": "https://dc.lft.to/lastmile_qr_scan"}}, {"name": "cf97253860231491d6b165372e4f642a", "fusion_lat": 0.0, "type": "electric_bike", "lat": 38.83445583333334, "is_reserved": 0, "is_disabled": 0, "fusion_lon": 0.0, "bike_id": "cf97253860231491d6b165372e4f642a", "lon": -77.0084245, "rental_uris": {"ios": "https://dc.lft.to/lastmile_qr_scan", "android": "https://dc.lft.to/lastmile_qr_scan"}}, {"name": "15922a61c97500424b3f4290589afa67", "fusion_lat": 0.0, "type": "electric_scooter", "lat": 38.8937325, "is_reserved": 0, "is_disabled": 0, "fusion_lon": 0.0, "bike_id": "15922a61c97500424b3f4290589afa67", "lon": -76.94989283333334, "rental_uris": {"ios": "https://dc.lft.to/lastmile_qr_scan", "android": "https://dc.lft.to/lastmile_qr_scan"}}, {"name": "8b339fb19145eabeeef43c0e99234850", "fusion_lat": 0.0, "type": "electric_scooter", "lat": 38.907293333333335, "is_reserved": 0, "is_disabled": 0, "fusion_lon": 0.0, "bike_id": "8b339fb19145eabeeef43c0e99234850", "lon": -77.0297235, "rental_uris": {"ios": "https://dc.lft.to/lastmile_qr_scan", "android": "https://dc.lft.to/lastmile_qr_scan"}}, {"name": "57694a110a8f94df6d73a66da2fe43ab", "fusion_lat": 0.0, "type": "electric_bike", "lat": 38.8637365, "is_reserved": 0, "is_disabled": 0, "fusion_lon": 0.0, "bike_id": "57694a110a8f94df6d73a66da2fe43ab", "lon": -76.97004366666667, "rental_uris": {"ios": "https://dc.lft.to/lastmile_qr_scan", "android": "https://dc.lft.to/lastmile_qr_scan"}}, {"name": "c54f0264ae5e07b9036f38a5d43f711e", "fusion_lat": 0.0, "type": "electric_scooter", "lat": 38.93554916666667, "is_reserved": 0, "is_disabled": 0, "fusion_lon": 0.0, "bike_id": "c54f0264ae5e07b9036f38a5d43f711e", "lon": -77.08195283333333, "rental_uris": {"ios": "https://dc.lft.to/lastmile_qr_scan", "android": "https://dc.lft.to/lastmile_qr_scan"}}, {"name": "026aca12cda07537310f06fc8770d4d7", "fusion_lat": 0.0, "type": "electric_scooter", "lat": 38.894716833333334, "is_reserved": 0, "is_disabled": 0, "fusion_lon": 0.0, "bike_id": "026aca12cda07537310f06fc8770d4d7", "lon": -77.0203615, "rental_uris": {"ios": "https://dc.lft.to/lastmile_qr_scan", "android": "https://dc.lft.to/lastmile_qr_scan"}}, {"name": "a7b4595147bbb7737ab7f949991bc729", "fusion_lat": 0.0, "type": "electric_scooter", "lat": 38.918081, "is_reserved": 0, "is_disabled": 0, "fusion_lon": 0.0, "bike_id": "a7b4595147bbb7737ab7f949991bc729", "lon": -77.03207816666666, "rental_uris": {"ios": "https://dc.lft.to/lastmile_qr_scan", "android": "https://dc.lft.to/lastmile_qr_scan"}}, {"name": "0da084c4adc19f3b6ffc6532ade073b4", "fusion_lat": 0.0, "type": "electric_scooter", "lat": 38.905739, "is_reserved": 0, "is_disabled": 0, "fusion_lon": 0.0, "bike_id": "0da084c4adc19f3b6ffc6532ade073b4", "lon": -77.04496433333334, "rental_uris": {"ios": "https://dc.lft.to/lastmile_qr_scan", "android": "https://dc.lft.to/lastmile_qr_scan"}}, {"name": "f7f557670761035d1b8ef259eb80de63", "fusion_lat": 0.0, "type": "electric_bike", "lat": 38.965381666666666, "is_reserved": 0, "is_disabled": 0, "fusion_lon": 0.0, "bike_id": "f7f557670761035d1b8ef259eb80de63", "lon": -77.03520133333333, "rental_uris": {"ios": "https://dc.lft.to/lastmile_qr_scan", "android": "https://dc.lft.to/lastmile_qr_scan"}}, {"name": "99fdf714e9bf5ab99eeedc7fd6762342", "fusion_lat": 0.0, "type": "electric_scooter", "lat": 38.9176425, "is_reserved": 0, "is_disabled": 0, "fusion_lon": 0.0, "bike_id": "99fdf714e9bf5ab99eeedc7fd6762342", "lon": -77.01493483333333, "rental_uris": {"ios": "https://dc.lft.to/lastmile_qr_scan", "android": "https://dc.lft.to/lastmile_qr_scan"}}, {"name": "ccdb7141ebe19a12b398ebc8eee80e8f", "fusion_lat": 0.0, "type": "electric_scooter", "lat": 38.903166666666664, "is_reserved": 0, "is_disabled": 0, "fusion_lon": 0.0, "bike_id": "ccdb7141ebe19a12b398ebc8eee80e8f", "lon": -77.05342616666667, "rental_uris": {"ios": "https://dc.lft.to/lastmile_qr_scan", "android": "https://dc.lft.to/lastmile_qr_scan"}}, {"name": "1a5b6e157936b209e0766232c7396989", "fusion_lat": 0.0, "type": "electric_bike", "lat": 38.81940866666667, "is_reserved": 0, "is_disabled": 0, "fusion_lon": 0.0, "bike_id": "1a5b6e157936b209e0766232c7396989", "lon": -77.00211316666666, "rental_uris": {"ios": "https://dc.lft.to/lastmile_qr_scan", "android": "https://dc.lft.to/lastmile_qr_scan"}}, {"name": "5370b1b5a30cec2a78b850dac3761bd5", "fusion_lat": 0.0, "type": "electric_scooter", "lat": 38.915525333333335, "is_reserved": 0, "is_disabled": 0, "fusion_lon": 0.0, "bike_id": "5370b1b5a30cec2a78b850dac3761bd5", "lon": -77.03856983333333, "rental_uris": {"ios": "https://dc.lft.to/lastmile_qr_scan", "android": "https://dc.lft.to/lastmile_qr_scan"}}, {"name": "74f5173e9d8a6919db44ab9d9d29d1e3", "fusion_lat": 0.0, "type": "electric_scooter", "lat": 38.94205183333333, "is_reserved": 0, "is_disabled": 0, "fusion_lon": 0.0, "bike_id": "74f5173e9d8a6919db44ab9d9d29d1e3", "lon": -77.02518483333333, "rental_uris": {"ios": "https://dc.lft.to/lastmile_qr_scan", "android": "https://dc.lft.to/lastmile_qr_scan"}}, {"name": "a4d38de210cf4abc4901aae82182898f", "fusion_lat": 0.0, "type": "electric_scooter", "lat": 38.9070595, "is_reserved": 0, "is_disabled": 0, "fusion_lon": 0.0, "bike_id": "a4d38de210cf4abc4901aae82182898f", "lon": -76.98703416666666, "rental_uris": {"ios": "https://dc.lft.to/lastmile_qr_scan", "android": "https://dc.lft.to/lastmile_qr_scan"}}, {"name": "fa69e6da315e118a0f7a97e1eef5e133", "fusion_lat": 0.0, "type": "electric_scooter", "lat": 38.88416633333333, "is_reserved": 0, "is_disabled": 0, "fusion_lon": 0.0, "bike_id": "fa69e6da315e118a0f7a97e1eef5e133", "lon": -76.9760295, "rental_uris": {"ios": "https://dc.lft.to/lastmile_qr_scan", "android": "https://dc.lft.to/lastmile_qr_scan"}}, {"name": "0b6ae9cad046d9719a42f36964916394", "fusion_lat": 0.0, "type": "electric_scooter", "lat": 38.90898816666667, "is_reserved": 0, "is_disabled": 0, "fusion_lon": 0.0, "bike_id": "0b6ae9cad046d9719a42f36964916394", "lon": -77.03208333333333, "rental_uris": {"ios": "https://dc.lft.to/lastmile_qr_scan", "android": "https://dc.lft.to/lastmile_qr_scan"}}, {"name": "cca2cbbbe17c38d9f25cc62fd9d1d921", "fusion_lat": 0.0, "type": "electric_bike", "lat": 38.85219566666667, "is_reserved": 0, "is_disabled": 0, "fusion_lon": 0.0, "bike_id": "cca2cbbbe17c38d9f25cc62fd9d1d921", "lon": -77.12953466666667, "rental_uris": {"ios": "https://dc.lft.to/lastmile_qr_scan", "android": "https://dc.lft.to/lastmile_qr_scan"}}, {"name": "1e36992f3330ae72e9bd319464955e07", "fusion_lat": 0.0, "type": "electric_scooter", "lat": 38.87923466666667, "is_reserved": 0, "is_disabled": 0, "fusion_lon": 0.0, "bike_id": "1e36992f3330ae72e9bd319464955e07", "lon": -77.0215745, "rental_uris": {"ios": "https://dc.lft.to/lastmile_qr_scan", "android": "https://dc.lft.to/lastmile_qr_scan"}}, {"name": "f7fbeb0bc148195d86c1524604e550aa", "fusion_lat": 0.0, "type": "electric_scooter", "lat": 38.89556683333333, "is_reserved": 0, "is_disabled": 0, "fusion_lon": 0.0, "bike_id": "f7fbeb0bc148195d86c1524604e550aa", "lon": -76.98378666666666, "rental_uris": {"ios": "https://dc.lft.to/lastmile_qr_scan", "android": "https://dc.lft.to/lastmile_qr_scan"}}, {"name": "84b48f75bb0e9fbbd1ac9f514bb02559", "fusion_lat": 0.0, "type": "electric_scooter", "lat": 38.90061933333333, "is_reserved": 0, "is_disabled": 0, "fusion_lon": 0.0, "bike_id": "84b48f75bb0e9fbbd1ac9f514bb02559", "lon": -77.04895933333333, "rental_uris": {"ios": "https://dc.lft.to/lastmile_qr_scan", "android": "https://dc.lft.to/lastmile_qr_scan"}}, {"name": "6c76db0196936ece5a17e348e75fbbbf", "fusion_lat": 0.0, "type": "electric_scooter", "lat": 38.876734, "is_reserved": 0, "is_disabled": 0, "fusion_lon": 0.0, "bike_id": "6c76db0196936ece5a17e348e75fbbbf", "lon": -77.00424383333333, "rental_uris": {"ios": "https://dc.lft.to/lastmile_qr_scan", "android": "https://dc.lft.to/lastmile_qr_scan"}}, {"name": "4036bac456460aceca24294d49180ab0", "fusion_lat": 0.0, "type": "electric_bike", "lat": 38.98454433333333, "is_reserved": 0, "is_disabled": 0, "fusion_lon": 0.0, "bike_id": "4036bac456460aceca24294d49180ab0", "lon": -76.9552935, "rental_uris": {"ios": "https://dc.lft.to/lastmile_qr_scan", "android": "https://dc.lft.to/lastmile_qr_scan"}}, {"name": "a56d5b6b3fe3831d6ba26a2cedd9f817", "fusion_lat": 0.0, "type": "electric_scooter", "lat": 38.917286833333335, "is_reserved": 0, "is_disabled": 0, "fusion_lon": 0.0, "bike_id": "a56d5b6b3fe3831d6ba26a2cedd9f817", "lon": -77.03841116666666, "rental_uris": {"ios": "https://dc.lft.to/lastmile_qr_scan", "android": "https://dc.lft.to/lastmile_qr_scan"}}, {"name": "a7fa1c0d69e3554906bfcdc841b01c08", "fusion_lat": 0.0, "type": "electric_bike", "lat": 38.865998, "is_reserved": 0, "is_disabled": 0, "fusion_lon": 0.0, "bike_id": "a7fa1c0d69e3554906bfcdc841b01c08", "lon": -76.93233, "rental_uris": {"ios": "https://dc.lft.to/lastmile_qr_scan", "android": "https://dc.lft.to/lastmile_qr_scan"}}, {"name": "94105d72b5e3c0fd3b7f73975175154e", "fusion_lat": 0.0, "type": "electric_scooter", "lat": 38.9296765, "is_reserved": 0, "is_disabled": 0, "fusion_lon": 0.0, "bike_id": "94105d72b5e3c0fd3b7f73975175154e", "lon": -77.0197545, "rental_uris": {"ios": "https://dc.lft.to/lastmile_qr_scan", "android": "https://dc.lft.to/lastmile_qr_scan"}}, {"name": "eedc7a3d6a8386599ef14e6d08cc7d23", "fusion_lat": 0.0, "type": "electric_scooter", "lat": 38.880512333333336, "is_reserved": 0, "is_disabled": 0, "fusion_lon": 0.0, "bike_id": "eedc7a3d6a8386599ef14e6d08cc7d23", "lon": -76.95985916666666, "rental_uris": {"ios": "https://dc.lft.to/lastmile_qr_scan", "android": "https://dc.lft.to/lastmile_qr_scan"}}, {"name": "a43b6f9f87601d6af21c197cce43990f", "fusion_lat": 0.0, "type": "electric_scooter", "lat": 38.91581633333333, "is_reserved": 0, "is_disabled": 0, "fusion_lon": 0.0, "bike_id": "a43b6f9f87601d6af21c197cce43990f", "lon": -77.032087, "rental_uris": {"ios": "https://dc.lft.to/lastmile_qr_scan", "android": "https://dc.lft.to/lastmile_qr_scan"}}, {"name": "9d53a9a28eb6ea45d12d30f415d8e443", "fusion_lat": 0.0, "type": "electric_scooter", "lat": 38.91949066666667, "is_reserved": 0, "is_disabled": 0, "fusion_lon": 0.0, "bike_id": "9d53a9a28eb6ea45d12d30f415d8e443", "lon": -77.013861, "rental_uris": {"ios": "https://dc.lft.to/lastmile_qr_scan", "android": "https://dc.lft.to/lastmile_qr_scan"}}, {"name": "be1d9c4fc719413fd9e705e5ce42f611", "fusion_lat": 0.0, "type": "electric_scooter", "lat": 38.90847216666667, "is_reserved": 0, "is_disabled": 0, "fusion_lon": 0.0, "bike_id": "be1d9c4fc719413fd9e705e5ce42f611", "lon": -77.02051116666667, "rental_uris": {"ios": "https://dc.lft.to/lastmile_qr_scan", "android": "https://dc.lft.to/lastmile_qr_scan"}}, {"name": "80b684ee94f61ad7fe0a40f8f2fa1ab0", "fusion_lat": 0.0, "type": "electric_scooter", "lat": 38.91262733333333, "is_reserved": 0, "is_disabled": 0, "fusion_lon": 0.0, "bike_id": "80b684ee94f61ad7fe0a40f8f2fa1ab0", "lon": -77.02225416666667, "rental_uris": {"ios": "https://dc.lft.to/lastmile_qr_scan", "android": "https://dc.lft.to/lastmile_qr_scan"}}, {"name": "1c2b2ba82d840321b9cf09f9b7c0b515", "fusion_lat": 0.0, "type": "electric_scooter", "lat": 38.93006116666667, "is_reserved": 0, "is_disabled": 0, "fusion_lon": 0.0, "bike_id": "1c2b2ba82d840321b9cf09f9b7c0b515", "lon": -77.02308416666666, "rental_uris": {"ios": "https://dc.lft.to/lastmile_qr_scan", "android": "https://dc.lft.to/lastmile_qr_scan"}}, {"name": "d373d51ec5451f241d2cb16a579cfe80", "fusion_lat": 0.0, "type": "electric_scooter", "lat": 38.9015255, "is_reserved": 0, "is_disabled": 0, "fusion_lon": 0.0, "bike_id": "d373d51ec5451f241d2cb16a579cfe80", "lon": -77.0217445, "rental_uris": {"ios": "https://dc.lft.to/lastmile_qr_scan", "android": "https://dc.lft.to/lastmile_qr_scan"}}, {"name": "4e09936426403b7759f50baa9865a1e9", "fusion_lat": 0.0, "type": "electric_scooter", "lat": 38.94293733333333, "is_reserved": 0, "is_disabled": 0, "fusion_lon": 0.0, "bike_id": "4e09936426403b7759f50baa9865a1e9", "lon": -77.02173316666666, "rental_uris": {"ios": "https://dc.lft.to/lastmile_qr_scan", "android": "https://dc.lft.to/lastmile_qr_scan"}}, {"name": "9356a30575f08708a3f27989c772f4eb", "fusion_lat": 0.0, "type": "electric_scooter", "lat": 38.897416, "is_reserved": 0, "is_disabled": 0, "fusion_lon": 0.0, "bike_id": "9356a30575f08708a3f27989c772f4eb", "lon": -76.94258733333334, "rental_uris": {"ios": "https://dc.lft.to/lastmile_qr_scan", "android": "https://dc.lft.to/lastmile_qr_scan"}}, {"name": "0ca304fb1a77e288123f1b47c15c865b", "fusion_lat": 0.0, "type": "electric_scooter", "lat": 38.900102833333335, "is_reserved": 0, "is_disabled": 0, "fusion_lon": 0.0, "bike_id": "0ca304fb1a77e288123f1b47c15c865b", "lon": -77.03321383333333, "rental_uris": {"ios": "https://dc.lft.to/lastmile_qr_scan", "android": "https://dc.lft.to/lastmile_qr_scan"}}, {"name": "ef72d6dc1f0fcfbc42d84f4bdbca5599", "fusion_lat": 0.0, "type": "electric_scooter", "lat": 38.91422683333333, "is_reserved": 0, "is_disabled": 0, "fusion_lon": 0.0, "bike_id": "ef72d6dc1f0fcfbc42d84f4bdbca5599", "lon": -77.031745, "rental_uris": {"ios": "https://dc.lft.to/lastmile_qr_scan", "android": "https://dc.lft.to/lastmile_qr_scan"}}, {"name": "9e3ea307f0824fbb147f2d8bfe25e1d8", "fusion_lat": 0.0, "type": "electric_bike", "lat": 38.935999, "is_reserved": 0, "is_disabled": 0, "fusion_lon": 0.0, "bike_id": "9e3ea307f0824fbb147f2d8bfe25e1d8", "lon": -77.0211875, "rental_uris": {"ios": "https://dc.lft.to/lastmile_qr_scan", "android": "https://dc.lft.to/lastmile_qr_scan"}}, {"name": "803c213373235c2bd55c4effae39ba35", "fusion_lat": 0.0, "type": "electric_scooter", "lat": 38.90797116666667, "is_reserved": 0, "is_disabled": 0, "fusion_lon": 0.0, "bike_id": "803c213373235c2bd55c4effae39ba35", "lon": -77.04827516666667, "rental_uris": {"ios": "https://dc.lft.to/lastmile_qr_scan", "android": "https://dc.lft.to/lastmile_qr_scan"}}, {"name": "e1961a31a08a7da4437af049fd911109", "fusion_lat": 0.0, "type": "electric_scooter", "lat": 38.90865133333333, "is_reserved": 0, "is_disabled": 0, "fusion_lon": 0.0, "bike_id": "e1961a31a08a7da4437af049fd911109", "lon": -77.02714616666667, "rental_uris": {"ios": "https://dc.lft.to/lastmile_qr_scan", "android": "https://dc.lft.to/lastmile_qr_scan"}}, {"name": "1f2677502b209deef177d88244dbbdab", "fusion_lat": 0.0, "type": "electric_scooter", "lat": 38.933871, "is_reserved": 0, "is_disabled": 0, "fusion_lon": 0.0, "bike_id": "1f2677502b209deef177d88244dbbdab", "lon": -77.05770016666666, "rental_uris": {"ios": "https://dc.lft.to/lastmile_qr_scan", "android": "https://dc.lft.to/lastmile_qr_scan"}}, {"name": "f238d4661b371322dea22e937aa7369a", "fusion_lat": 0.0, "type": "electric_bike", "lat": 38.914036333333335, "is_reserved": 0, "is_disabled": 0, "fusion_lon": 0.0, "bike_id": "f238d4661b371322dea22e937aa7369a", "lon": -77.03224533333334, "rental_uris": {"ios": "https://dc.lft.to/lastmile_qr_scan", "android": "https://dc.lft.to/lastmile_qr_scan"}}, {"name": "0083a05dd5c4e76d07af0b34d1e30ef7", "fusion_lat": 0.0, "type": "electric_scooter", "lat": 38.90648633333333, "is_reserved": 0, "is_disabled": 0, "fusion_lon": 0.0, "bike_id": "0083a05dd5c4e76d07af0b34d1e30ef7", "lon": -76.98383116666666, "rental_uris": {"ios": "https://dc.lft.to/lastmile_qr_scan", "android": "https://dc.lft.to/lastmile_qr_scan"}}, {"name": "361eb5fa7e5274e1d0e44b9ee2f3e661", "fusion_lat": 0.0, "type": "electric_scooter", "lat": 38.91420566666667, "is_reserved": 0, "is_disabled": 0, "fusion_lon": 0.0, "bike_id": "361eb5fa7e5274e1d0e44b9ee2f3e661", "lon": -77.0415445, "rental_uris": {"ios": "https://dc.lft.to/lastmile_qr_scan", "android": "https://dc.lft.to/lastmile_qr_scan"}}, {"name": "e79646324e641858016ff2d5736074c8", "fusion_lat": 0.0, "type": "electric_bike", "lat": 38.89840016666667, "is_reserved": 0, "is_disabled": 0, "fusion_lon": 0.0, "bike_id": "e79646324e641858016ff2d5736074c8", "lon": -77.11803516666667, "rental_uris": {"ios": "https://dc.lft.to/lastmile_qr_scan", "android": "https://dc.lft.to/lastmile_qr_scan"}}, {"name": "da0dd8abfcf51432c074bd4004376aec", "fusion_lat": 0.0, "type": "electric_scooter", "lat": 38.90982133333333, "is_reserved": 0, "is_disabled": 0, "fusion_lon": 0.0, "bike_id": "da0dd8abfcf51432c074bd4004376aec", "lon": -76.98718666666667, "rental_uris": {"ios": "https://dc.lft.to/lastmile_qr_scan", "android": "https://dc.lft.to/lastmile_qr_scan"}}, {"name": "3d2f3901479c8bca8b43cb823275c210", "fusion_lat": 0.0, "type": "electric_scooter", "lat": 38.91257, "is_reserved": 0, "is_disabled": 0, "fusion_lon": 0.0, "bike_id": "3d2f3901479c8bca8b43cb823275c210", "lon": -77.00777166666667, "rental_uris": {"ios": "https://dc.lft.to/lastmile_qr_scan", "android": "https://dc.lft.to/lastmile_qr_scan"}}, {"name": "650d6def8b1cb82ae5cb74de407b4bbf", "fusion_lat": 0.0, "type": "electric_scooter", "lat": 38.88614833333333, "is_reserved": 0, "is_disabled": 0, "fusion_lon": 0.0, "bike_id": "650d6def8b1cb82ae5cb74de407b4bbf", "lon": -76.97820783333333, "rental_uris": {"ios": "https://dc.lft.to/lastmile_qr_scan", "android": "https://dc.lft.to/lastmile_qr_scan"}}, {"name": "d2225215c005ad3716b953a9a103f282", "fusion_lat": 0.0, "type": "electric_scooter", "lat": 38.92132066666667, "is_reserved": 0, "is_disabled": 0, "fusion_lon": 0.0, "bike_id": "d2225215c005ad3716b953a9a103f282", "lon": -77.04578766666667, "rental_uris": {"ios": "https://dc.lft.to/lastmile_qr_scan", "android": "https://dc.lft.to/lastmile_qr_scan"}}, {"name": "8f3a9ac7df3a84ad333030a4397eb892", "fusion_lat": 0.0, "type": "electric_scooter", "lat": 38.9037075, "is_reserved": 0, "is_disabled": 0, "fusion_lon": 0.0, "bike_id": "8f3a9ac7df3a84ad333030a4397eb892", "lon": -77.04509916666666, "rental_uris": {"ios": "https://dc.lft.to/lastmile_qr_scan", "android": "https://dc.lft.to/lastmile_qr_scan"}}, {"name": "b418c2034f14e86f2e9dd60f164f2709", "fusion_lat": 0.0, "type": "electric_scooter", "lat": 38.933654833333335, "is_reserved": 0, "is_disabled": 0, "fusion_lon": 0.0, "bike_id": "b418c2034f14e86f2e9dd60f164f2709", "lon": -77.05727633333333, "rental_uris": {"ios": "https://dc.lft.to/lastmile_qr_scan", "android": "https://dc.lft.to/lastmile_qr_scan"}}, {"name": "4458adc2cc98865d2ea6c1541ae436f8", "fusion_lat": 0.0, "type": "electric_scooter", "lat": 38.920631666666665, "is_reserved": 0, "is_disabled": 0, "fusion_lon": 0.0, "bike_id": "4458adc2cc98865d2ea6c1541ae436f8", "lon": -77.02937833333333, "rental_uris": {"ios": "https://dc.lft.to/lastmile_qr_scan", "android": "https://dc.lft.to/lastmile_qr_scan"}}, {"name": "648497d942531da03b8153b882c73142", "fusion_lat": 0.0, "type": "electric_scooter", "lat": 38.909685, "is_reserved": 0, "is_disabled": 0, "fusion_lon": 0.0, "bike_id": "648497d942531da03b8153b882c73142", "lon": -77.03871066666666, "rental_uris": {"ios": "https://dc.lft.to/lastmile_qr_scan", "android": "https://dc.lft.to/lastmile_qr_scan"}}, {"name": "6080efeed6abe3e45b3f371d929f0742", "fusion_lat": 0.0, "type": "electric_bike", "lat": 38.8968205, "is_reserved": 0, "is_disabled": 0, "fusion_lon": 0.0, "bike_id": "6080efeed6abe3e45b3f371d929f0742", "lon": -76.9406465, "rental_uris": {"ios": "https://dc.lft.to/lastmile_qr_scan", "android": "https://dc.lft.to/lastmile_qr_scan"}}, {"name": "fcae68e7a9ed245ffd2b1142fdbb63f3", "fusion_lat": 0.0, "type": "electric_scooter", "lat": 38.93310983333333, "is_reserved": 0, "is_disabled": 0, "fusion_lon": 0.0, "bike_id": "fcae68e7a9ed245ffd2b1142fdbb63f3", "lon": -77.03096366666666, "rental_uris": {"ios": "https://dc.lft.to/lastmile_qr_scan", "android": "https://dc.lft.to/lastmile_qr_scan"}}, {"name": "260ec08a4a8169286d582cc80751fbb1", "fusion_lat": 0.0, "type": "electric_bike", "lat": 38.886412666666665, "is_reserved": 0, "is_disabled": 0, "fusion_lon": 0.0, "bike_id": "260ec08a4a8169286d582cc80751fbb1", "lon": -76.9546355, "rental_uris": {"ios": "https://dc.lft.to/lastmile_qr_scan", "android": "https://dc.lft.to/lastmile_qr_scan"}}, {"name": "de5062e40ee514cd19e9b5703b47a4de", "fusion_lat": 0.0, "type": "electric_scooter", "lat": 38.909927333333336, "is_reserved": 0, "is_disabled": 0, "fusion_lon": 0.0, "bike_id": "de5062e40ee514cd19e9b5703b47a4de", "lon": -77.04009583333334, "rental_uris": {"ios": "https://dc.lft.to/lastmile_qr_scan", "android": "https://dc.lft.to/lastmile_qr_scan"}}, {"name": "5fbd22688f91fa3fca97bd1877daf1a1", "fusion_lat": 0.0, "type": "electric_scooter", "lat": 38.931801, "is_reserved": 0, "is_disabled": 0, "fusion_lon": 0.0, "bike_id": "5fbd22688f91fa3fca97bd1877daf1a1", "lon": -77.027955, "rental_uris": {"ios": "https://dc.lft.to/lastmile_qr_scan", "android": "https://dc.lft.to/lastmile_qr_scan"}}, {"name": "553b212e2fac82cb586ef1bcdd808d97", "fusion_lat": 0.0, "type": "electric_scooter", "lat": 38.9237955, "is_reserved": 0, "is_disabled": 0, "fusion_lon": 0.0, "bike_id": "553b212e2fac82cb586ef1bcdd808d97", "lon": -77.02953566666666, "rental_uris": {"ios": "https://dc.lft.to/lastmile_qr_scan", "android": "https://dc.lft.to/lastmile_qr_scan"}}, {"name": "bb480028d897c1b0d76a91ba6bfc825c", "fusion_lat": 0.0, "type": "electric_scooter", "lat": 38.9134935, "is_reserved": 0, "is_disabled": 0, "fusion_lon": 0.0, "bike_id": "bb480028d897c1b0d76a91ba6bfc825c", "lon": -77.003497, "rental_uris": {"ios": "https://dc.lft.to/lastmile_qr_scan", "android": "https://dc.lft.to/lastmile_qr_scan"}}, {"name": "c3d3bb6575aad2197cadf6b8e594bc19", "fusion_lat": 0.0, "type": "electric_scooter", "lat": 38.9002825, "is_reserved": 0, "is_disabled": 0, "fusion_lon": 0.0, "bike_id": "c3d3bb6575aad2197cadf6b8e594bc19", "lon": -76.98848216666667, "rental_uris": {"ios": "https://dc.lft.to/lastmile_qr_scan", "android": "https://dc.lft.to/lastmile_qr_scan"}}, {"name": "cf1da34a6f768010decf3632dc832d0c", "fusion_lat": 0.0, "type": "electric_scooter", "lat": 38.9245365, "is_reserved": 0, "is_disabled": 0, "fusion_lon": 0.0, "bike_id": "cf1da34a6f768010decf3632dc832d0c", "lon": -77.03281066666666, "rental_uris": {"ios": "https://dc.lft.to/lastmile_qr_scan", "android": "https://dc.lft.to/lastmile_qr_scan"}}, {"name": "b3835276738f296cf7a0294fd3b97ec6", "fusion_lat": 0.0, "type": "electric_scooter", "lat": 38.90870666666667, "is_reserved": 0, "is_disabled": 0, "fusion_lon": 0.0, "bike_id": "b3835276738f296cf7a0294fd3b97ec6", "lon": -77.0860195, "rental_uris": {"ios": "https://dc.lft.to/lastmile_qr_scan", "android": "https://dc.lft.to/lastmile_qr_scan"}}, {"name": "5dbfe0a080e28bc24ef28556f82b8ab1", "fusion_lat": 0.0, "type": "electric_scooter", "lat": 38.935679, "is_reserved": 0, "is_disabled": 0, "fusion_lon": 0.0, "bike_id": "5dbfe0a080e28bc24ef28556f82b8ab1", "lon": -77.02361033333334, "rental_uris": {"ios": "https://dc.lft.to/lastmile_qr_scan", "android": "https://dc.lft.to/lastmile_qr_scan"}}, {"name": "c043bd8cfe5548fb7eda96bd42920792", "fusion_lat": 0.0, "type": "electric_scooter", "lat": 38.938886833333335, "is_reserved": 0, "is_disabled": 0, "fusion_lon": 0.0, "bike_id": "c043bd8cfe5548fb7eda96bd42920792", "lon": -77.02463933333334, "rental_uris": {"ios": "https://dc.lft.to/lastmile_qr_scan", "android": "https://dc.lft.to/lastmile_qr_scan"}}, {"name": "74980814ac043202c3f9b4d213efe5a9", "fusion_lat": 0.0, "type": "electric_scooter", "lat": 38.93610233333333, "is_reserved": 0, "is_disabled": 0, "fusion_lon": 0.0, "bike_id": "74980814ac043202c3f9b4d213efe5a9", "lon": -77.05596633333333, "rental_uris": {"ios": "https://dc.lft.to/lastmile_qr_scan", "android": "https://dc.lft.to/lastmile_qr_scan"}}, {"name": "da6452272e9a05bc2b369c8f6219edbe", "fusion_lat": 0.0, "type": "electric_scooter", "lat": 38.9097515, "is_reserved": 0, "is_disabled": 0, "fusion_lon": 0.0, "bike_id": "da6452272e9a05bc2b369c8f6219edbe", "lon": -77.02185783333333, "rental_uris": {"ios": "https://dc.lft.to/lastmile_qr_scan", "android": "https://dc.lft.to/lastmile_qr_scan"}}, {"name": "b3eed881e28b0af7d466f5c3bf7ab918", "fusion_lat": 0.0, "type": "electric_scooter", "lat": 38.906337666666666, "is_reserved": 0, "is_disabled": 0, "fusion_lon": 0.0, "bike_id": "b3eed881e28b0af7d466f5c3bf7ab918", "lon": -77.00612333333333, "rental_uris": {"ios": "https://dc.lft.to/lastmile_qr_scan", "android": "https://dc.lft.to/lastmile_qr_scan"}}, {"name": "5a279e15f6c14abf3a829f1464f7b672", "fusion_lat": 0.0, "type": "electric_bike", "lat": 38.94633683333333, "is_reserved": 0, "is_disabled": 0, "fusion_lon": 0.0, "bike_id": "5a279e15f6c14abf3a829f1464f7b672", "lon": -77.01846616666667, "rental_uris": {"ios": "https://dc.lft.to/lastmile_qr_scan", "android": "https://dc.lft.to/lastmile_qr_scan"}}, {"name": "b932f2ad0a1d0981b920bb73febc3085", "fusion_lat": 0.0, "type": "electric_scooter", "lat": 38.903810166666666, "is_reserved": 0, "is_disabled": 0, "fusion_lon": 0.0, "bike_id": "b932f2ad0a1d0981b920bb73febc3085", "lon": -77.04189466666666, "rental_uris": {"ios": "https://dc.lft.to/lastmile_qr_scan", "android": "https://dc.lft.to/lastmile_qr_scan"}}, {"name": "8ed2d152cf4516d5ed87e2e768c27b12", "fusion_lat": 0.0, "type": "electric_bike", "lat": 38.93103633333333, "is_reserved": 0, "is_disabled": 0, "fusion_lon": 0.0, "bike_id": "8ed2d152cf4516d5ed87e2e768c27b12", "lon": -77.02479766666667, "rental_uris": {"ios": "https://dc.lft.to/lastmile_qr_scan", "android": "https://dc.lft.to/lastmile_qr_scan"}}, {"name": "6ee423466cb72bb04a0cdd1940932166", "fusion_lat": 0.0, "type": "electric_scooter", "lat": 38.917132333333335, "is_reserved": 0, "is_disabled": 0, "fusion_lon": 0.0, "bike_id": "6ee423466cb72bb04a0cdd1940932166", "lon": -77.03571433333333, "rental_uris": {"ios": "https://dc.lft.to/lastmile_qr_scan", "android": "https://dc.lft.to/lastmile_qr_scan"}}, {"name": "5c589a76021ef309444bc3c85ecdc306", "fusion_lat": 0.0, "type": "electric_scooter", "lat": 38.9173185, "is_reserved": 0, "is_disabled": 0, "fusion_lon": 0.0, "bike_id": "5c589a76021ef309444bc3c85ecdc306", "lon": -77.028836, "rental_uris": {"ios": "https://dc.lft.to/lastmile_qr_scan", "android": "https://dc.lft.to/lastmile_qr_scan"}}, {"name": "69e87a221524138002eade4f4e7dcb6a", "fusion_lat": 0.0, "type": "electric_scooter", "lat": 38.93204183333334, "is_reserved": 0, "is_disabled": 0, "fusion_lon": 0.0, "bike_id": "69e87a221524138002eade4f4e7dcb6a", "lon": -77.03649716666666, "rental_uris": {"ios": "https://dc.lft.to/lastmile_qr_scan", "android": "https://dc.lft.to/lastmile_qr_scan"}}, {"name": "26d3218deb997a3686ccf061aa0fdec1", "fusion_lat": 0.0, "type": "electric_scooter", "lat": 38.91764416666667, "is_reserved": 0, "is_disabled": 0, "fusion_lon": 0.0, "bike_id": "26d3218deb997a3686ccf061aa0fdec1", "lon": -77.047391, "rental_uris": {"ios": "https://dc.lft.to/lastmile_qr_scan", "android": "https://dc.lft.to/lastmile_qr_scan"}}, {"name": "343bd7906088814852f212828b8b8f0a", "fusion_lat": 0.0, "type": "electric_scooter", "lat": 38.90648616666667, "is_reserved": 0, "is_disabled": 0, "fusion_lon": 0.0, "bike_id": "343bd7906088814852f212828b8b8f0a", "lon": -77.008223, "rental_uris": {"ios": "https://dc.lft.to/lastmile_qr_scan", "android": "https://dc.lft.to/lastmile_qr_scan"}}, {"name": "2c0898bc80e88618b9fa56c9110a3938", "fusion_lat": 0.0, "type": "electric_bike", "lat": 38.8544685, "is_reserved": 0, "is_disabled": 0, "fusion_lon": 0.0, "bike_id": "2c0898bc80e88618b9fa56c9110a3938", "lon": -77.11681866666666, "rental_uris": {"ios": "https://dc.lft.to/lastmile_qr_scan", "android": "https://dc.lft.to/lastmile_qr_scan"}}, {"name": "6ffc9e857f3d8d59ebe6178b529c9092", "fusion_lat": 0.0, "type": "electric_bike", "lat": 38.858724333333335, "is_reserved": 0, "is_disabled": 0, "fusion_lon": 0.0, "bike_id": "6ffc9e857f3d8d59ebe6178b529c9092", "lon": -77.09554283333334, "rental_uris": {"ios": "https://dc.lft.to/lastmile_qr_scan", "android": "https://dc.lft.to/lastmile_qr_scan"}}, {"name": "22faf22555045efc2d0f36a092e86639", "fusion_lat": 0.0, "type": "electric_scooter", "lat": 38.92917283333333, "is_reserved": 0, "is_disabled": 0, "fusion_lon": 0.0, "bike_id": "22faf22555045efc2d0f36a092e86639", "lon": -77.01956516666667, "rental_uris": {"ios": "https://dc.lft.to/lastmile_qr_scan", "android": "https://dc.lft.to/lastmile_qr_scan"}}, {"name": "c4c49dc134e4a96769327c384714cf98", "fusion_lat": 0.0, "type": "electric_scooter", "lat": 38.89213683333333, "is_reserved": 0, "is_disabled": 0, "fusion_lon": 0.0, "bike_id": "c4c49dc134e4a96769327c384714cf98", "lon": -76.99573483333333, "rental_uris": {"ios": "https://dc.lft.to/lastmile_qr_scan", "android": "https://dc.lft.to/lastmile_qr_scan"}}, {"name": "17d9739c5b2b76bfc7c7825a5c57b206", "fusion_lat": 0.0, "type": "electric_scooter", "lat": 38.91340733333333, "is_reserved": 0, "is_disabled": 0, "fusion_lon": 0.0, "bike_id": "17d9739c5b2b76bfc7c7825a5c57b206", "lon": -77.04264133333334, "rental_uris": {"ios": "https://dc.lft.to/lastmile_qr_scan", "android": "https://dc.lft.to/lastmile_qr_scan"}}, {"name": "9c147af6b27192e8f5091137b572059f", "fusion_lat": 0.0, "type": "electric_scooter", "lat": 38.908475833333334, "is_reserved": 0, "is_disabled": 0, "fusion_lon": 0.0, "bike_id": "9c147af6b27192e8f5091137b572059f", "lon": -77.03283483333334, "rental_uris": {"ios": "https://dc.lft.to/lastmile_qr_scan", "android": "https://dc.lft.to/lastmile_qr_scan"}}, {"name": "5dbce323b758934784758246d300c07b", "fusion_lat": 0.0, "type": "electric_scooter", "lat": 38.923451166666666, "is_reserved": 0, "is_disabled": 0, "fusion_lon": 0.0, "bike_id": "5dbce323b758934784758246d300c07b", "lon": -77.05097566666667, "rental_uris": {"ios": "https://dc.lft.to/lastmile_qr_scan", "android": "https://dc.lft.to/lastmile_qr_scan"}}, {"name": "41f35e3be801a8488672dcef7f9c4183", "fusion_lat": 0.0, "type": "electric_scooter", "lat": 38.895274666666666, "is_reserved": 0, "is_disabled": 0, "fusion_lon": 0.0, "bike_id": "41f35e3be801a8488672dcef7f9c4183", "lon": -77.01611516666667, "rental_uris": {"ios": "https://dc.lft.to/lastmile_qr_scan", "android": "https://dc.lft.to/lastmile_qr_scan"}}, {"name": "f7fe5a1dc679f156a7a2d96779ca63aa", "fusion_lat": 0.0, "type": "electric_scooter", "lat": 38.92342266666667, "is_reserved": 0, "is_disabled": 0, "fusion_lon": 0.0, "bike_id": "f7fe5a1dc679f156a7a2d96779ca63aa", "lon": -77.05016016666667, "rental_uris": {"ios": "https://dc.lft.to/lastmile_qr_scan", "android": "https://dc.lft.to/lastmile_qr_scan"}}, {"name": "03c36aedb173f0822656e705d4939348", "fusion_lat": 0.0, "type": "electric_scooter", "lat": 38.842975, "is_reserved": 0, "is_disabled": 0, "fusion_lon": 0.0, "bike_id": "03c36aedb173f0822656e705d4939348", "lon": -76.99943733333333, "rental_uris": {"ios": "https://dc.lft.to/lastmile_qr_scan", "android": "https://dc.lft.to/lastmile_qr_scan"}}, {"name": "0377e20ad502edf449db27ed8221ee1f", "fusion_lat": 0.0, "type": "electric_scooter", "lat": 38.894877, "is_reserved": 0, "is_disabled": 0, "fusion_lon": 0.0, "bike_id": "0377e20ad502edf449db27ed8221ee1f", "lon": -76.94875233333333, "rental_uris": {"ios": "https://dc.lft.to/lastmile_qr_scan", "android": "https://dc.lft.to/lastmile_qr_scan"}}, {"name": "ec3ea4ced46a61d377bb2d2c27025d95", "fusion_lat": 0.0, "type": "electric_scooter", "lat": 38.91807466666667, "is_reserved": 0, "is_disabled": 0, "fusion_lon": 0.0, "bike_id": "ec3ea4ced46a61d377bb2d2c27025d95", "lon": -77.068386, "rental_uris": {"ios": "https://dc.lft.to/lastmile_qr_scan", "android": "https://dc.lft.to/lastmile_qr_scan"}}, {"name": "620aa9ea0f46d04bfc1fb7cde2d217bf", "fusion_lat": 0.0, "type": "electric_scooter", "lat": 38.905419, "is_reserved": 0, "is_disabled": 0, "fusion_lon": 0.0, "bike_id": "620aa9ea0f46d04bfc1fb7cde2d217bf", "lon": -77.050325, "rental_uris": {"ios": "https://dc.lft.to/lastmile_qr_scan", "android": "https://dc.lft.to/lastmile_qr_scan"}}, {"name": "9ecf701f19908d08e1b41677727290b9", "fusion_lat": 0.0, "type": "electric_scooter", "lat": 38.91189216666667, "is_reserved": 0, "is_disabled": 0, "fusion_lon": 0.0, "bike_id": "9ecf701f19908d08e1b41677727290b9", "lon": -77.06097033333333, "rental_uris": {"ios": "https://dc.lft.to/lastmile_qr_scan", "android": "https://dc.lft.to/lastmile_qr_scan"}}, {"name": "d1eb036aaf8648f9f0aa2b6197fe7a3e", "fusion_lat": 0.0, "type": "electric_scooter", "lat": 38.9097145, "is_reserved": 0, "is_disabled": 0, "fusion_lon": 0.0, "bike_id": "d1eb036aaf8648f9f0aa2b6197fe7a3e", "lon": -77.01686283333333, "rental_uris": {"ios": "https://dc.lft.to/lastmile_qr_scan", "android": "https://dc.lft.to/lastmile_qr_scan"}}, {"name": "516d8136287c55bc3dbf763139b92748", "fusion_lat": 0.0, "type": "electric_scooter", "lat": 38.916355, "is_reserved": 0, "is_disabled": 0, "fusion_lon": 0.0, "bike_id": "516d8136287c55bc3dbf763139b92748", "lon": -77.00108116666667, "rental_uris": {"ios": "https://dc.lft.to/lastmile_qr_scan", "android": "https://dc.lft.to/lastmile_qr_scan"}}, {"name": "ca6537be6274765205162109c34e27a3", "fusion_lat": 0.0, "type": "electric_scooter", "lat": 38.974979166666664, "is_reserved": 0, "is_disabled": 0, "fusion_lon": 0.0, "bike_id": "ca6537be6274765205162109c34e27a3", "lon": -77.016893, "rental_uris": {"ios": "https://dc.lft.to/lastmile_qr_scan", "android": "https://dc.lft.to/lastmile_qr_scan"}}, {"name": "b2de5e91d9828823bd3e7af56fcae092", "fusion_lat": 0.0, "type": "electric_scooter", "lat": 38.8966135, "is_reserved": 0, "is_disabled": 0, "fusion_lon": 0.0, "bike_id": "b2de5e91d9828823bd3e7af56fcae092", "lon": -77.02603716666667, "rental_uris": {"ios": "https://dc.lft.to/lastmile_qr_scan", "android": "https://dc.lft.to/lastmile_qr_scan"}}, {"name": "ffe1fff3fd488dd425699d6a08c7f63c", "fusion_lat": 0.0, "type": "electric_scooter", "lat": 38.90145483333333, "is_reserved": 0, "is_disabled": 0, "fusion_lon": 0.0, "bike_id": "ffe1fff3fd488dd425699d6a08c7f63c", "lon": -77.03967433333334, "rental_uris": {"ios": "https://dc.lft.to/lastmile_qr_scan", "android": "https://dc.lft.to/lastmile_qr_scan"}}, {"name": "3a138e2a9f23153e38fd37cebd78360f", "fusion_lat": 0.0, "type": "electric_scooter", "lat": 38.890009, "is_reserved": 0, "is_disabled": 0, "fusion_lon": 0.0, "bike_id": "3a138e2a9f23153e38fd37cebd78360f", "lon": -76.95413333333333, "rental_uris": {"ios": "https://dc.lft.to/lastmile_qr_scan", "android": "https://dc.lft.to/lastmile_qr_scan"}}, {"name": "c3a49e095f033ed7a74c7e796e37ecd2", "fusion_lat": 0.0, "type": "electric_scooter", "lat": 38.902686833333334, "is_reserved": 0, "is_disabled": 0, "fusion_lon": 0.0, "bike_id": "c3a49e095f033ed7a74c7e796e37ecd2", "lon": -77.01778833333333, "rental_uris": {"ios": "https://dc.lft.to/lastmile_qr_scan", "android": "https://dc.lft.to/lastmile_qr_scan"}}, {"name": "ed9aa5d9319785f4356c34b2873af91a", "fusion_lat": 0.0, "type": "electric_scooter", "lat": 38.921814499999996, "is_reserved": 0, "is_disabled": 0, "fusion_lon": 0.0, "bike_id": "ed9aa5d9319785f4356c34b2873af91a", "lon": -77.042843, "rental_uris": {"ios": "https://dc.lft.to/lastmile_qr_scan", "android": "https://dc.lft.to/lastmile_qr_scan"}}, {"name": "38f835f1085301600fa4e97c6582864e", "fusion_lat": 0.0, "type": "electric_scooter", "lat": 38.907421666666664, "is_reserved": 0, "is_disabled": 0, "fusion_lon": 0.0, "bike_id": "38f835f1085301600fa4e97c6582864e", "lon": -77.02698333333333, "rental_uris": {"ios": "https://dc.lft.to/lastmile_qr_scan", "android": "https://dc.lft.to/lastmile_qr_scan"}}, {"name": "efe3b6ad232860b3e9affc5bd5471f99", "fusion_lat": 0.0, "type": "electric_scooter", "lat": 38.905547, "is_reserved": 0, "is_disabled": 0, "fusion_lon": 0.0, "bike_id": "efe3b6ad232860b3e9affc5bd5471f99", "lon": -77.0459885, "rental_uris": {"ios": "https://dc.lft.to/lastmile_qr_scan", "android": "https://dc.lft.to/lastmile_qr_scan"}}, {"name": "918111c6aca6e50fb1aaad8f1e2443c7", "fusion_lat": 0.0, "type": "electric_scooter", "lat": 38.93193183333333, "is_reserved": 0, "is_disabled": 0, "fusion_lon": 0.0, "bike_id": "918111c6aca6e50fb1aaad8f1e2443c7", "lon": -77.03454033333334, "rental_uris": {"ios": "https://dc.lft.to/lastmile_qr_scan", "android": "https://dc.lft.to/lastmile_qr_scan"}},