{"data": {"bikes": [{"bike_id": "77332bd2d2d2dff4d726e98214934def", "is_reserved": 0, "fusion_lon": 0.0, "lat": 38.90958583333333, "is_disabled": 0, "name": "77332bd2d2d2dff4d726e98214934def", "fusion_lat": 0.0, "rental_uris": {"ios": "https://dc.lft.to/lastmile_qr_scan", "android": "https://dc.lft.to/lastmile_qr_scan"}, "lon": -77.048648, "type": "electric_scooter"}, {"bike_id": "639e42e91917e764cc890a931b72066c", "is_reserved": 0, "fusion_lon": 0.0, "lat": 38.858047, "is_disabled": 0, "name": "639e42e91917e764cc890a931b72066c", "fusion_lat": 0.0, "rental_uris": {"ios": "https://dc.lft.to/lastmile_qr_scan", "android": "https://dc.lft.to/lastmile_qr_scan"}, "lon": -76.98654116666667, "type": "electric_scooter"}, {"bike_id": "6c236b7c3117cb9ca57c4c6eda195034", "is_reserved": 0, "fusion_lon": 0.0, "lat": 38.88831716666667, "is_disabled": 0, "name": "6c236b7c3117cb9ca57c4c6eda195034", "fusion_lat": 0.0, "rental_uris": {"ios": "https://dc.lft.to/lastmile_qr_scan", "android": "https://dc.lft.to/lastmile_qr_scan"}, "lon": -76.97733583333333, "type": "electric_scooter"}, {"bike_id": "c4ba2b36516f48660c9b24bb64dd29b9", "is_reserved": 0, "fusion_lon": 0.0, "lat": 39.03882016666667, "is_disabled": 0, "name": "c4ba2b36516f48660c9b24bb64dd29b9", "fusion_lat": 0.0, "rental_uris": {"ios": "https://dc.lft.to/lastmile_qr_scan", "android": "https://dc.lft.to/lastmile_qr_scan"}, "lon": -76.990415, "type": "electric_bike"}, {"bike_id": "52f7500a24fcb19e37820634c5ff83e7", "is_reserved": 0, "fusion_lon": 0.0, "lat": 38.88766916666667, "is_disabled": 0, "name": "52f7500a24fcb19e37820634c5ff83e7", "fusion_lat": 0.0, "rental_uris": {"ios": "https://dc.lft.to/lastmile_qr_scan", "android": "https://dc.lft.to/lastmile_qr_scan"}, "lon": -77.030156, "type": "electric_scooter"}, {"bike_id": "8a74cc38f33c9c59ed806f9f661a67e7", "is_reserved": 0, "fusion_lon": 0.0, "lat": 38.89218283333334, "is_disabled": 0, "name": "8a74cc38f33c9c59ed806f9f661a67e7", "fusion_lat": 0.0, "rental_uris": {"ios": "https://dc.lft.to/lastmile_qr_scan", "android": "https://dc.lft.to/lastmile_qr_scan"}, "lon": -77.02445966666667, "type": "electric_scooter"}, {"bike_id": "a3a4b53be75934d5700550b60f5e6d26", "is_reserved": 0, "fusion_lon": 0.0, "lat": 38.904945833333336, "is_disabled": 0, "name": "a3a4b53be75934d5700550b60f5e6d26", "fusion_lat": 0.0, "rental_uris": {"ios": "https://dc.lft.to/lastmile_qr_scan", "android": "https://dc.lft.to/lastmile_qr_scan"}, "lon": -77.02982033333333, "type": "electric_scooter"}, {"bike_id": "e6cfb9668281e7cc7c67da9627721038", "is_reserved": 0, "fusion_lon": 0.0, "lat": 38.90606783333333, "is_disabled": 0, "name": "e6cfb9668281e7cc7c67da9627721038", "fusion_lat": 0.0, "rental_uris": {"ios": "https://dc.lft.to/lastmile_qr_scan", "android": "https://dc.lft.to/lastmile_qr_scan"}, "lon": -77.07487033333334, "type": "electric_scooter"}, {"bike_id": "33c8a18dc878c71011784fb497789197", "is_reserved": 0, "fusion_lon": 0.0, "lat": 38.90854483333333, "is_disabled": 0, "name": "33c8a18dc878c71011784fb497789197", "fusion_lat": 0.0, "rental_uris": {"ios": "https://dc.lft.to/lastmile_qr_scan", "android": "https://dc.lft.to/lastmile_qr_scan"}, "lon": -77.02728616666667, "type": "electric_scooter"}, {"bike_id": "2223d9ec1e391fa3d063b1093419d525", "is_reserved": 0, "fusion_lon": 0.0, "lat": 38.914837166666665, "is_disabled": 0, "name": "2223d9ec1e391fa3d063b1093419d525", "fusion_lat": 0.0, "rental_uris": {"ios": "https://dc.lft.to/lastmile_qr_scan", "android": "https://dc.lft.to/lastmile_qr_scan"}, "lon": -77.03760683333333, "type": "electric_scooter"}, {"bike_id": "aef8de1ceafc66db9839148852366204", "is_reserved": 0, "fusion_lon": 0.0, "lat": 38.909096, "is_disabled": 0, "name": "aef8de1ceafc66db9839148852366204", "fusion_lat": 0.0, "rental_uris": {"ios": "https://dc.lft.to/lastmile_qr_scan", "android": "https://dc.lft.to/lastmile_qr_scan"}, "lon": -77.00914983333334, "type": "electric_scooter"}, {"bike_id": "c189fd0bed99755ad150081552e5314d", "is_reserved": 0, "fusion_lon": 0.0, "lat": 38.89226016666667, "is_disabled": 0, "name": "c189fd0bed99755ad150081552e5314d", "fusion_lat": 0.0, "rental_uris": {"ios": "https://dc.lft.to/lastmile_qr_scan", "android": "https://dc.lft.to/lastmile_qr_scan"}, "lon": -77.022061, "type": "electric_scooter"}, {"bike_id": "cff319a705362089d4de73a0ad5f29b9", "is_reserved": 0, "fusion_lon": 0.0, "lat": 38.912673, "is_disabled": 0, "name": "cff319a705362089d4de73a0ad5f29b9", "fusion_lat": 0.0, "rental_uris": {"ios": "https://dc.lft.to/lastmile_qr_scan", "android": "https://dc.lft.to/lastmile_qr_scan"}, "lon": -77.02574433333334, "type": "electric_scooter"}, {"bike_id": "ca4200cca554918ff57dcecb81a33726", "is_reserved": 0, "fusion_lon": 0.0, "lat": 38.916562166666665, "is_disabled": 0, "name": "ca4200cca554918ff57dcecb81a33726", "fusion_lat": 0.0, "rental_uris": {"ios": "https://dc.lft.to/lastmile_qr_scan", "android": "https://dc.lft.to/lastmile_qr_scan"}, "lon": -77.02383216666666, "type": "electric_scooter"}, {"bike_id": "b029b31815a1a273635081091bf2ac5a", "is_reserved": 0, "fusion_lon": 0.0, "lat": 38.8921885, "is_disabled": 0, "name": "b029b31815a1a273635081091bf2ac5a", "fusion_lat": 0.0, "rental_uris": {"ios": "https://dc.lft.to/lastmile_qr_scan", "android": "https://dc.lft.to/lastmile_qr_scan"}, "lon": -77.03216783333333, "type": "electric_scooter"}, {"bike_id": "d997df44c0ec6837a438d4feb7214758", "is_reserved": 0, "fusion_lon": 0.0, "lat": 38.92021533333333, "is_disabled": 0, "name": "d997df44c0ec6837a438d4feb7214758", "fusion_lat": 0.0, "rental_uris": {"ios": "https://dc.lft.to/lastmile_qr_scan", "android": "https://dc.lft.to/lastmile_qr_scan"}, "lon": -77.02796333333333, "type": "electric_scooter"}, {"bike_id": "2f249ea754c965228ee9df5c8d7ba277", "is_reserved": 0, "fusion_lon": 0.0, "lat": 38.90909833333333, "is_disabled": 0, "name": "2f249ea754c965228ee9df5c8d7ba277", "fusion_lat": 0.0, "rental_uris": {"ios": "https://dc.lft.to/lastmile_qr_scan", "android": "https://dc.lft.to/lastmile_qr_scan"}, "lon": -77.08001833333333, "type": "electric_scooter"}, {"bike_id": "ecbfff3fb51a6d08d102cdd6d518ed1f", "is_reserved": 0, "fusion_lon": 0.0, "lat": 38.90348516666667, "is_disabled": 0, "name": "ecbfff3fb51a6d08d102cdd6d518ed1f", "fusion_lat": 0.0, "rental_uris": {"ios": "https://dc.lft.to/lastmile_qr_scan", "android": "https://dc.lft.to/lastmile_qr_scan"}, "lon": -77.03760766666667, "type": "electric_scooter"}, {"bike_id": "36826d613125dfd2bf21a4863cc55c54", "is_reserved": 0, "fusion_lon": 0.0, "lat": 38.89607433333333, "is_disabled": 0, "name": "36826d613125dfd2bf21a4863cc55c54", "fusion_lat": 0.0, "rental_uris": {"ios": "https://dc.lft.to/lastmile_qr_scan", "android": "https://dc.lft.to/lastmile_qr_scan"}, "lon": -77.048, "type": "electric_scooter"}, {"bike_id": "3d0d1627cb9c04bb5d12c50f7019c6af", "is_reserved": 0, "fusion_lon": 0.0, "lat": 38.90442616666667, "is_disabled": 0, "name": "3d0d1627cb9c04bb5d12c50f7019c6af", "fusion_lat": 0.0, "rental_uris": {"ios": "https://dc.lft.to/lastmile_qr_scan", "android": "https://dc.lft.to/lastmile_qr_scan"}, "lon": -76.98880966666667, "type": "electric_scooter"}, {"bike_id": "a1dded29c3d765bdbb23d39dca250161", "is_reserved": 0, "fusion_lon": 0.0, "lat": 38.903802166666665, "is_disabled": 0, "name": "a1dded29c3d765bdbb23d39dca250161", "fusion_lat": 0.0, "rental_uris": {"ios": "https://dc.lft.to/lastmile_qr_scan", "android": "https://dc.lft.to/lastmile_qr_scan"}, "lon": -77.04202783333334, "type": "electric_scooter"}, {"bike_id": "6ebd778d0b98fdce215a7e6064bdfc65", "is_reserved": 0, "fusion_lon": 0.0, "lat": 38.892126166666664, "is_disabled": 0, "name": "6ebd778d0b98fdce215a7e6064bdfc65", "fusion_lat": 0.0, "rental_uris": {"ios": "https://dc.lft.to/lastmile_qr_scan", "android": "https://dc.lft.to/lastmile_qr_scan"}, "lon": -77.10780183333334, "type": "electric_bike"}, {"bike_id": "c108bd67c5fadfa40fdab8c1ba03210d", "is_reserved": 0, "fusion_lon": 0.0, "lat": 38.885018333333335, "is_disabled": 0, "name": "c108bd67c5fadfa40fdab8c1ba03210d", "fusion_lat": 0.0, "rental_uris": {"ios": "https://dc.lft.to/lastmile_qr_scan", "android": "https://dc.lft.to/lastmile_qr_scan"}, "lon": -77.00566266666667, "type": "electric_scooter"}, {"bike_id": "69bb229346fbde1fdb0c3a262eec4e03", "is_reserved": 0, "fusion_lon": 0.0, "lat": 38.919542, "is_disabled": 0, "name": "69bb229346fbde1fdb0c3a262eec4e03", "fusion_lat": 0.0, "rental_uris": {"ios": "https://dc.lft.to/lastmile_qr_scan", "android": "https://dc.lft.to/lastmile_qr_scan"}, "lon": -77.01472133333333, "type": "electric_scooter"}, {"bike_id": "fb1e8d9c577939e3a242b7caa9b1f72b", "is_reserved": 0, "fusion_lon": 0.0, "lat": 38.904972666666666, "is_disabled": 0, "name": "fb1e8d9c577939e3a242b7caa9b1f72b", "fusion_lat": 0.0, "rental_uris": {"ios": "https://dc.lft.to/lastmile_qr_scan", "android": "https://dc.lft.to/lastmile_qr_scan"}, "lon": -76.99018016666666, "type": "electric_scooter"}, {"bike_id": "29ddeb3888d993b456de5a1ddd87bac5", "is_reserved": 0, "fusion_lon": 0.0, "lat": 38.90489266666667, "is_disabled": 0, "name": "29ddeb3888d993b456de5a1ddd87bac5", "fusion_lat": 0.0, "rental_uris": {"ios": "https://dc.lft.to/lastmile_qr_scan", "android": "https://dc.lft.to/lastmile_qr_scan"}, "lon": -77.04664466666667, "type": "electric_scooter"}, {"bike_id": "7e5b67f84387f48e0f3a4ccd5400588f", "is_reserved": 0, "fusion_lon": 0.0, "lat": 38.90444333333333, "is_disabled": 0, "name": "7e5b67f84387f48e0f3a4ccd5400588f", "fusion_lat": 0.0, "rental_uris": {"ios": "https://dc.lft.to/lastmile_qr_scan", "android": "https://dc.lft.to/lastmile_qr_scan"}, "lon": -77.03253116666667, "type": "electric_scooter"}, {"bike_id": "c57660c22e7fa594605fe79f50df6d8f", "is_reserved": 0, "fusion_lon": 0.0, "lat": 38.90471433333333, "is_disabled": 0, "name": "c57660c22e7fa594605fe79f50df6d8f", "fusion_lat": 0.0, "rental_uris": {"ios": "https://dc.lft.to/lastmile_qr_scan", "android": "https://dc.lft.to/lastmile_qr_scan"}, "lon": -77.03467983333333, "type": "electric_scooter"}, {"bike_id": "019b2403ede8c8a8c4f96d64042c5cf7", "is_reserved": 0, "fusion_lon": 0.0, "lat": 38.8921995, "is_disabled": 0, "name": "019b2403ede8c8a8c4f96d64042c5cf7", "fusion_lat": 0.0, "rental_uris": {"ios": "https://dc.lft.to/lastmile_qr_scan", "android": "https://dc.lft.to/lastmile_qr_scan"}, "lon": -77.0464935, "type": "electric_scooter"}, {"bike_id": "9e5d7ce10c3055b6c8c44eb390609162", "is_reserved": 0, "fusion_lon": 0.0, "lat": 38.891916, "is_disabled": 0, "name": "9e5d7ce10c3055b6c8c44eb390609162", "fusion_lat": 0.0, "rental_uris": {"ios": "https://dc.lft.to/lastmile_qr_scan", "android": "https://dc.lft.to/lastmile_qr_scan"}, "lon": -77.02833166666667, "type": "electric_scooter"}, {"bike_id": "1dcbde8c4f5dc3992b05fcdb23cad646", "is_reserved": 0, "fusion_lon": 0.0, "lat": 38.917044, "is_disabled": 0, "name": "1dcbde8c4f5dc3992b05fcdb23cad646", "fusion_lat": 0.0, "rental_uris": {"ios": "https://dc.lft.to/lastmile_qr_scan", "android": "https://dc.lft.to/lastmile_qr_scan"}, "lon": -77.02631516666666, "type": "electric_scooter"}, {"bike_id": "96cd41ac3747985ee4ce00f487fe705d", "is_reserved": 0, "fusion_lon": 0.0, "lat": 38.89603666666667, "is_disabled": 0, "name": "96cd41ac3747985ee4ce00f487fe705d", "fusion_lat": 0.0, "rental_uris": {"ios": "https://dc.lft.to/lastmile_qr_scan", "android": "https://dc.lft.to/lastmile_qr_scan"}, "lon": -77.04785683333333, "type": "electric_scooter"}, {"bike_id": "32c4006ccc270f5ca5d96a03fcab2d31", "is_reserved": 0, "fusion_lon": 0.0, "lat": 38.959295, "is_disabled": 0, "name": "32c4006ccc270f5ca5d96a03fcab2d31", "fusion_lat": 0.0, "rental_uris": {"ios": "https://dc.lft.to/lastmile_qr_scan", "android": "https://dc.lft.to/lastmile_qr_scan"}, "lon": -77.0312515, "type": "electric_scooter"}, {"bike_id": "43427eeee784fda69b9fb5788051839e", "is_reserved": 0, "fusion_lon": 0.0, "lat": 38.90031283333333, "is_disabled": 0, "name": "43427eeee784fda69b9fb5788051839e", "fusion_lat": 0.0, "rental_uris": {"ios": "https://dc.lft.to/lastmile_qr_scan", "android": "https://dc.lft.to/lastmile_qr_scan"}, "lon": -77.02206666666666, "type": "electric_scooter"}, {"bike_id": "086cdfb0b3661643022c96488bcd6c99", "is_reserved": 0, "fusion_lon": 0.0, "lat": 38.94174683333333, "is_disabled": 0, "name": "086cdfb0b3661643022c96488bcd6c99", "fusion_lat": 0.0, "rental_uris": {"ios": "https://dc.lft.to/lastmile_qr_scan", "android": "https://dc.lft.to/lastmile_qr_scan"}, "lon": -77.03089133333333, "type": "electric_scooter"}, {"bike_id": "cebb588ba69e36c21afc66344a919051", "is_reserved": 0, "fusion_lon": 0.0, "lat": 38.905326, "is_disabled": 0, "name": "cebb588ba69e36c21afc66344a919051", "fusion_lat": 0.0, "rental_uris": {"ios": "https://dc.lft.to/lastmile_qr_scan", "android": "https://dc.lft.to/lastmile_qr_scan"}, "lon": -77.05152783333334, "type": "electric_scooter"}, {"bike_id": "155875e000dbc454cf5d69cbaac12935", "is_reserved": 0, "fusion_lon": 0.0, "lat": 38.907936, "is_disabled": 0, "name": "155875e000dbc454cf5d69cbaac12935", "fusion_lat": 0.0, "rental_uris": {"ios": "https://dc.lft.to/lastmile_qr_scan", "android": "https://dc.lft.to/lastmile_qr_scan"}, "lon": -76.99701116666667, "type": "electric_scooter"}, {"bike_id": "b27cb32c8e2d622e9bc136550f523757", "is_reserved": 0, "fusion_lon": 0.0, "lat": 38.92446833333333, "is_disabled": 0, "name": "b27cb32c8e2d622e9bc136550f523757", "fusion_lat": 0.0, "rental_uris": {"ios": "https://dc.lft.to/lastmile_qr_scan", "android": "https://dc.lft.to/lastmile_qr_scan"}, "lon": -77.04117433333333, "type": "electric_scooter"}, {"bike_id": "3020b23b6f01ea0f50cf63ba0be0cd31", "is_reserved": 0, "fusion_lon": 0.0, "lat": 38.85808016666667, "is_disabled": 0, "name": "3020b23b6f01ea0f50cf63ba0be0cd31", "fusion_lat": 0.0, "rental_uris": {"ios": "https://dc.lft.to/lastmile_qr_scan", "android": "https://dc.lft.to/lastmile_qr_scan"}, "lon": -76.98655983333333, "type": "electric_scooter"}, {"bike_id": "1df343e9b489d968478b8da52a975536", "is_reserved": 0, "fusion_lon": 0.0, "lat": 38.909576666666666, "is_disabled": 0, "name": "1df343e9b489d968478b8da52a975536", "fusion_lat": 0.0, "rental_uris": {"ios": "https://dc.lft.to/lastmile_qr_scan", "android": "https://dc.lft.to/lastmile_qr_scan"}, "lon": -77.0424085, "type": "electric_scooter"}, {"bike_id": "5ef29b694a4e4e61a7df77718664b805", "is_reserved": 0, "fusion_lon": 0.0, "lat": 38.899485, "is_disabled": 0, "name": "5ef29b694a4e4e61a7df77718664b805", "fusion_lat": 0.0, "rental_uris": {"ios": "https://dc.lft.to/lastmile_qr_scan", "android": "https://dc.lft.to/lastmile_qr_scan"}, "lon": -77.05052333333333, "type": "electric_scooter"}, {"bike_id": "e5468768333c2ead10670ef755ec7c2d", "is_reserved": 0, "fusion_lon": 0.0, "lat": 38.908639, "is_disabled": 0, "name": "e5468768333c2ead10670ef755ec7c2d", "fusion_lat": 0.0, "rental_uris": {"ios": "https://dc.lft.to/lastmile_qr_scan", "android": "https://dc.lft.to/lastmile_qr_scan"}, "lon": -77.08599016666666, "type": "electric_scooter"}, {"bike_id": "99b1d7f51711e7e3f04984f21ffb0b26", "is_reserved": 0, "fusion_lon": 0.0, "lat": 38.91801916666667, "is_disabled": 0, "name": "99b1d7f51711e7e3f04984f21ffb0b26", "fusion_lat": 0.0, "rental_uris": {"ios": "https://dc.lft.to/lastmile_qr_scan", "android": "https://dc.lft.to/lastmile_qr_scan"}, "lon": -77.0402635, "type": "electric_scooter"}, {"bike_id": "432db3b4613fe31546a791910a70a0fa", "is_reserved": 0, "fusion_lon": 0.0, "lat": 38.890097, "is_disabled": 0, "name": "432db3b4613fe31546a791910a70a0fa", "fusion_lat": 0.0, "rental_uris": {"ios": "https://dc.lft.to/lastmile_qr_scan", "android": "https://dc.lft.to/lastmile_qr_scan"}, "lon": -76.93735466666666, "type": "electric_scooter"}, {"bike_id": "7aaa1fd4d52fb54eec2fdd7ce1424193", "is_reserved": 0, "fusion_lon": 0.0, "lat": 38.901938333333334, "is_disabled": 0, "name": "7aaa1fd4d52fb54eec2fdd7ce1424193", "fusion_lat": 0.0, "rental_uris": {"ios": "https://dc.lft.to/lastmile_qr_scan", "android": "https://dc.lft.to/lastmile_qr_scan"}, "lon": -76.94192416666667, "type": "electric_scooter"}, {"bike_id": "544d4db1acf005d94a79e140a4033de4", "is_reserved": 0, "fusion_lon": 0.0, "lat": 38.87179883333334, "is_disabled": 0, "name": "544d4db1acf005d94a79e140a4033de4", "fusion_lat": 0.0, "rental_uris": {"ios": "https://dc.lft.to/lastmile_qr_scan", "android": "https://dc.lft.to/lastmile_qr_scan"}, "lon": -77.012169, "type": "electric_scooter"}, {"bike_id": "d65b5f50ec6bc90683973d0c71413e82", "is_reserved": 0, "fusion_lon": 0.0, "lat": 38.898996833333335, "is_disabled": 0, "name": "d65b5f50ec6bc90683973d0c71413e82", "fusion_lat": 0.0, "rental_uris": {"ios": "https://dc.lft.to/lastmile_qr_scan", "android": "https://dc.lft.to/lastmile_qr_scan"}, "lon": -76.93357283333333, "type": "electric_scooter"}, {"bike_id": "ca25122206f85786ac1a86a2eb96a2a5", "is_reserved": 0, "fusion_lon": 0.0, "lat": 38.9110655, "is_disabled": 0, "name": "ca25122206f85786ac1a86a2eb96a2a5", "fusion_lat": 0.0, "rental_uris": {"ios": "https://dc.lft.to/lastmile_qr_scan", "android": "https://dc.lft.to/lastmile_qr_scan"}, "lon": -77.0024385, "type": "electric_scooter"}, {"bike_id": "4d833f2a6e801f7c303526b560aacb77", "is_reserved": 0, "fusion_lon": 0.0, "lat": 38.9046035, "is_disabled": 0, "name": "4d833f2a6e801f7c303526b560aacb77", "fusion_lat": 0.0, "rental_uris": {"ios": "https://dc.lft.to/lastmile_qr_scan", "android": "https://dc.lft.to/lastmile_qr_scan"}, "lon": -77.0072925, "type": "electric_scooter"}, {"bike_id": "d773d514564e9505991b783788a7070b", "is_reserved": 0, "fusion_lon": 0.0, "lat": 38.9037625, "is_disabled": 0, "name": "d773d514564e9505991b783788a7070b", "fusion_lat": 0.0, "rental_uris": {"ios": "https://dc.lft.to/lastmile_qr_scan", "android": "https://dc.lft.to/lastmile_qr_scan"}, "lon": -77.0436705, "type": "electric_scooter"}, {"bike_id": "0c444bd77d5b0d95a921fc30b3ff65db", "is_reserved": 0, "fusion_lon": 0.0, "lat": 38.928696333333335, "is_disabled": 0, "name": "0c444bd77d5b0d95a921fc30b3ff65db", "fusion_lat": 0.0, "rental_uris": {"ios": "https://dc.lft.to/lastmile_qr_scan", "android": "https://dc.lft.to/lastmile_qr_scan"}, "lon": -77.02735833333334, "type": "electric_scooter"}, {"bike_id": "28cc09b87e34fa7981c8df00312c67d5", "is_reserved": 0, "fusion_lon": 0.0, "lat": 38.973234166666664, "is_disabled": 0, "name": "28cc09b87e34fa7981c8df00312c67d5", "fusion_lat": 0.0, "rental_uris": {"ios": "https://dc.lft.to/lastmile_qr_scan", "android": "https://dc.lft.to/lastmile_qr_scan"}, "lon": -77.02149266666666, "type": "electric_bike"}, {"bike_id": "94928e4a8213d62ad82399e246025470", "is_reserved": 0, "fusion_lon": 0.0, "lat": 38.9170315, "is_disabled": 0, "name": "94928e4a8213d62ad82399e246025470", "fusion_lat": 0.0, "rental_uris": {"ios": "https://dc.lft.to/lastmile_qr_scan", "android": "https://dc.lft.to/lastmile_qr_scan"}, "lon": -77.03000533333334, "type": "electric_scooter"}, {"bike_id": "f5d27e8ae7e99335956ed4743fc37142", "is_reserved": 0, "fusion_lon": 0.0, "lat": 38.89673766666667, "is_disabled": 0, "name": "f5d27e8ae7e99335956ed4743fc37142", "fusion_lat": 0.0, "rental_uris": {"ios": "https://dc.lft.to/lastmile_qr_scan", "android": "https://dc.lft.to/lastmile_qr_scan"}, "lon": -77.01207033333333, "type": "electric_scooter"}, {"bike_id": "e9e3ba81d8d69086409b00d3e54793f9", "is_reserved": 0, "fusion_lon": 0.0, "lat": 38.922148666666665, "is_disabled": 0, "name": "e9e3ba81d8d69086409b00d3e54793f9", "fusion_lat": 0.0, "rental_uris": {"ios": "https://dc.lft.to/lastmile_qr_scan", "android": "https://dc.lft.to/lastmile_qr_scan"}, "lon": -77.042435, "type": "electric_scooter"}, {"bike_id": "b6f7a0aa4dda9744e08a9222d9e7c96f", "is_reserved": 0, "fusion_lon": 0.0, "lat": 38.903251833333336, "is_disabled": 0, "name": "b6f7a0aa4dda9744e08a9222d9e7c96f", "fusion_lat": 0.0, "rental_uris": {"ios": "https://dc.lft.to/lastmile_qr_scan", "android": "https://dc.lft.to/lastmile_qr_scan"}, "lon": -77.03858583333333, "type": "electric_scooter"}, {"bike_id": "4060cc75bb740706e62fbdf6e7633284", "is_reserved": 0, "fusion_lon": 0.0, "lat": 38.91097416666667, "is_disabled": 0, "name": "4060cc75bb740706e62fbdf6e7633284", "fusion_lat": 0.0, "rental_uris": {"ios": "https://dc.lft.to/lastmile_qr_scan", "android": "https://dc.lft.to/lastmile_qr_scan"}, "lon": -77.00361083333334, "type": "electric_scooter"}, {"bike_id": "7f79d8d143ab4ca46e40dc9fcea9ea40", "is_reserved": 0, "fusion_lon": 0.0, "lat": 38.900159, "is_disabled": 0, "name": "7f79d8d143ab4ca46e40dc9fcea9ea40", "fusion_lat": 0.0, "rental_uris": {"ios": "https://dc.lft.to/lastmile_qr_scan", "android": "https://dc.lft.to/lastmile_qr_scan"}, "lon": -76.99793116666666, "type": "electric_scooter"}, {"bike_id": "9d358bc2828b90695f3ec17d4e6d36ab", "is_reserved": 0, "fusion_lon": 0.0, "lat": 38.95884483333333, "is_disabled": 0, "name": "9d358bc2828b90695f3ec17d4e6d36ab", "fusion_lat": 0.0, "rental_uris": {"ios": "https://dc.lft.to/lastmile_qr_scan", "android": "https://dc.lft.to/lastmile_qr_scan"}, "lon": -76.9247635, "type": "electric_bike"}, {"bike_id": "e20aa275970c3dd67ddf29c7a34b2966", "is_reserved": 0, "fusion_lon": 0.0, "lat": 38.901105, "is_disabled": 0, "name": "e20aa275970c3dd67ddf29c7a34b2966", "fusion_lat": 0.0, "rental_uris": {"ios": "https://dc.lft.to/lastmile_qr_scan", "android": "https://dc.lft.to/lastmile_qr_scan"}, "lon": -77.04322033333334, "type": "electric_scooter"}, {"bike_id": "330e99c0c11fc2882ad80534db017333", "is_reserved": 0, "fusion_lon": 0.0, "lat": 38.897033666666665, "is_disabled": 0, "name": "330e99c0c11fc2882ad80534db017333", "fusion_lat": 0.0, "rental_uris": {"ios": "https://dc.lft.to/lastmile_qr_scan", "android": "https://dc.lft.to/lastmile_qr_scan"}, "lon": -76.9176605, "type": "electric_scooter"}, {"bike_id": "1d5911de410bf985fbad9f780d6fa42e", "is_reserved": 0, "fusion_lon": 0.0, "lat": 38.90576183333334, "is_disabled": 0, "name": "1d5911de410bf985fbad9f780d6fa42e", "fusion_lat": 0.0, "rental_uris": {"ios": "https://dc.lft.to/lastmile_qr_scan", "android": "https://dc.lft.to/lastmile_qr_scan"}, "lon": -77.032586, "type": "electric_scooter"}, {"bike_id": "56e212b37380515d702283b16c8b89f5", "is_reserved": 0, "fusion_lon": 0.0, "lat": 38.87113816666667, "is_disabled": 0, "name": "56e212b37380515d702283b16c8b89f5", "fusion_lat": 0.0, "rental_uris": {"ios": "https://dc.lft.to/lastmile_qr_scan", "android": "https://dc.lft.to/lastmile_qr_scan"}, "lon": -77.00762866666666, "type": "electric_scooter"}, {"bike_id": "0857fb0f52fa9d399044f4e20b9646f9", "is_reserved": 0, "fusion_lon": 0.0, "lat": 38.9240805, "is_disabled": 0, "name": "0857fb0f52fa9d399044f4e20b9646f9", "fusion_lat": 0.0, "rental_uris": {"ios": "https://dc.lft.to/lastmile_qr_scan", "android": "https://dc.lft.to/lastmile_qr_scan"}, "lon": -77.01937633333333, "type": "electric_scooter"}, {"bike_id": "de1caaaec3bfeff9c3e919ef2c93b67e", "is_reserved": 0, "fusion_lon": 0.0, "lat": 38.9051225, "is_disabled": 0, "name": "de1caaaec3bfeff9c3e919ef2c93b67e", "fusion_lat": 0.0, "rental_uris": {"ios": "https://dc.lft.to/lastmile_qr_scan", "android": "https://dc.lft.to/lastmile_qr_scan"}, "lon": -77.043527, "type": "electric_scooter"}, {"bike_id": "667522b12d386ad2edeb98c0584831da", "is_reserved": 0, "fusion_lon": 0.0, "lat": 38.902713, "is_disabled": 0, "name": "667522b12d386ad2edeb98c0584831da", "fusion_lat": 0.0, "rental_uris": {"ios": "https://dc.lft.to/lastmile_qr_scan", "android": "https://dc.lft.to/lastmile_qr_scan"}, "lon": -77.03063183333333, "type": "electric_scooter"}, {"bike_id": "59fadb0da45d75ed027d0f4cf9fa9a7f", "is_reserved": 0, "fusion_lon": 0.0, "lat": 38.89552333333334, "is_disabled": 0, "name": "59fadb0da45d75ed027d0f4cf9fa9a7f", "fusion_lat": 0.0, "rental_uris": {"ios": "https://dc.lft.to/lastmile_qr_scan", "android": "https://dc.lft.to/lastmile_qr_scan"}, "lon": -77.04163866666667, "type": "electric_scooter"}, {"bike_id": "a646d7b4f8511235ae2f13b753a3284a", "is_reserved": 0, "fusion_lon": 0.0, "lat": 38.89549233333334, "is_disabled": 0, "name": "a646d7b4f8511235ae2f13b753a3284a", "fusion_lat": 0.0, "rental_uris": {"ios": "https://dc.lft.to/lastmile_qr_scan", "android": "https://dc.lft.to/lastmile_qr_scan"}, "lon": -76.933809, "type": "electric_scooter"}, {"bike_id": "da48b710b6dc1885b374bf4ad8a25ff2", "is_reserved": 0, "fusion_lon": 0.0, "lat": 38.92794416666667, "is_disabled": 0, "name": "da48b710b6dc1885b374bf4ad8a25ff2", "fusion_lat": 0.0, "rental_uris": {"ios": "https://dc.lft.to/lastmile_qr_scan", "android": "https://dc.lft.to/lastmile_qr_scan"}, "lon": -77.05359266666666, "type": "electric_scooter"}, {"bike_id": "950bb65ac269ed41af8c0fb4e8abc5bb", "is_reserved": 0, "fusion_lon": 0.0, "lat": 38.923581666666664, "is_disabled": 0, "name": "950bb65ac269ed41af8c0fb4e8abc5bb", "fusion_lat": 0.0, "rental_uris": {"ios": "https://dc.lft.to/lastmile_qr_scan", "android": "https://dc.lft.to/lastmile_qr_scan"}, "lon": -77.05030433333333, "type": "electric_scooter"}, {"bike_id": "a3b633bfc69b9c596bbb3552a3ff7d79", "is_reserved": 0, "fusion_lon": 0.0, "lat": 38.82724, "is_disabled": 0, "name": "a3b633bfc69b9c596bbb3552a3ff7d79", "fusion_lat": 0.0, "rental_uris": {"ios": "https://dc.lft.to/lastmile_qr_scan", "android": "https://dc.lft.to/lastmile_qr_scan"}, "lon": -77.00866083333334, "type": "electric_bike"}, {"bike_id": "4892ddc71cad623288e6e3e0c03040b4", "is_reserved": 0, "fusion_lon": 0.0, "lat": 38.880144, "is_disabled": 0, "name": "4892ddc71cad623288e6e3e0c03040b4", "fusion_lat": 0.0, "rental_uris": {"ios": "https://dc.lft.to/lastmile_qr_scan", "android": "https://dc.lft.to/lastmile_qr_scan"}, "lon": -76.9312805, "type": "electric_scooter"}, {"bike_id": "e4c47ee33f6dc3a624bd4c051f499aa2", "is_reserved": 0, "fusion_lon": 0.0, "lat": 38.89223066666667, "is_disabled": 0, "name": "e4c47ee33f6dc3a624bd4c051f499aa2", "fusion_lat": 0.0, "rental_uris": {"ios": "https://dc.lft.to/lastmile_qr_scan", "android": "https://dc.lft.to/lastmile_qr_scan"}, "lon": -77.02208066666667, "type": "electric_scooter"}, {"bike_id": "ab05c29adef6efb726293cfc39f5a44c", "is_reserved": 0, "fusion_lon": 0.0, "lat": 38.884620166666664, "is_disabled": 0, "name": "ab05c29adef6efb726293cfc39f5a44c", "fusion_lat": 0.0, "rental_uris": {"ios": "https://dc.lft.to/lastmile_qr_scan", "android": "https://dc.lft.to/lastmile_qr_scan"}, "lon": -77.02388033333334, "type": "electric_scooter"}, {"bike_id": "217524fdc4ac282764881f598e54a036", "is_reserved": 0, "fusion_lon": 0.0, "lat": 38.892158, "is_disabled": 0, "name": "217524fdc4ac282764881f598e54a036", "fusion_lat": 0.0, "rental_uris": {"ios": "https://dc.lft.to/lastmile_qr_scan", "android": "https://dc.lft.to/lastmile_qr_scan"}, "lon": -77.02579133333333, "type": "electric_scooter"}, {"bike_id": "f2494592bec5be2f474d04a8dcd63b33", "is_reserved": 0, "fusion_lon": 0.0, "lat": 38.81303616666667, "is_disabled": 0, "name": "f2494592bec5be2f474d04a8dcd63b33", "fusion_lat": 0.0, "rental_uris": {"ios": "https://dc.lft.to/lastmile_qr_scan", "android": "https://dc.lft.to/lastmile_qr_scan"}, "lon": -77.05092083333334, "type": "electric_bike"}, {"bike_id": "0abc0dfb06a89dd43ba73f388c2b4bdb", "is_reserved": 0, "fusion_lon": 0.0, "lat": 38.9284985, "is_disabled": 0, "name": "0abc0dfb06a89dd43ba73f388c2b4bdb", "fusion_lat": 0.0, "rental_uris": {"ios": "https://dc.lft.to/lastmile_qr_scan", "android": "https://dc.lft.to/lastmile_qr_scan"}, "lon": -76.98936916666666, "type": "electric_bike"}, {"bike_id": "8b31f48d6e551ba274228329e3227d84", "is_reserved": 0, "fusion_lon": 0.0, "lat": 38.9217365, "is_disabled": 0, "name": "8b31f48d6e551ba274228329e3227d84", "fusion_lat": 0.0, "rental_uris": {"ios": "https://dc.lft.to/lastmile_qr_scan", "android": "https://dc.lft.to/lastmile_qr_scan"}, "lon": -77.02537316666667, "type": "electric_scooter"}, {"bike_id": "07472ce83cf2a6947079bf50ae067970", "is_reserved": 0, "fusion_lon": 0.0, "lat": 38.913158833333334, "is_disabled": 0, "name": "07472ce83cf2a6947079bf50ae067970", "fusion_lat": 0.0, "rental_uris": {"ios": "https://dc.lft.to/lastmile_qr_scan", "android": "https://dc.lft.to/lastmile_qr_scan"}, "lon": -77.0325725, "type": "electric_scooter"}, {"bike_id": "b00f7dcd58dcaedaa1083157cde88ec8", "is_reserved": 0, "fusion_lon": 0.0, "lat": 38.92112016666667, "is_disabled": 0, "name": "b00f7dcd58dcaedaa1083157cde88ec8", "fusion_lat": 0.0, "rental_uris": {"ios": "https://dc.lft.to/lastmile_qr_scan", "android": "https://dc.lft.to/lastmile_qr_scan"}, "lon": -77.017761, "type": "electric_scooter"}, {"bike_id": "e50767de329b9886359e3d29bc75e95b", "is_reserved": 0, "fusion_lon": 0.0, "lat": 38.9079755, "is_disabled": 0, "name": "e50767de329b9886359e3d29bc75e95b", "fusion_lat": 0.0, "rental_uris": {"ios": "https://dc.lft.to/lastmile_qr_scan", "android": "https://dc.lft.to/lastmile_qr_scan"}, "lon": -77.042533, "type": "electric_scooter"}, {"bike_id": "3caf3d9fcb555a22be4a1c624acd3473", "is_reserved": 0, "fusion_lon": 0.0, "lat": 38.91802233333333, "is_disabled": 0, "name": "3caf3d9fcb555a22be4a1c624acd3473", "fusion_lat": 0.0, "rental_uris": {"ios": "https://dc.lft.to/lastmile_qr_scan", "android": "https://dc.lft.to/lastmile_qr_scan"}, "lon": -77.03302116666667, "type": "electric_scooter"}, {"bike_id": "a2da28cb79cfe9dcbc31ddb551948cd7", "is_reserved": 0, "fusion_lon": 0.0, "lat": 38.936645666666664, "is_disabled": 0, "name": "a2da28cb79cfe9dcbc31ddb551948cd7", "fusion_lat": 0.0, "rental_uris": {"ios": "https://dc.lft.to/lastmile_qr_scan", "android": "https://dc.lft.to/lastmile_qr_scan"}, "lon": -77.05938, "type": "electric_scooter"}, {"bike_id": "1794f9e8b8b6665e64105226cd972833", "is_reserved": 0, "fusion_lon": 0.0, "lat": 38.859503333333336, "is_disabled": 0, "name": "1794f9e8b8b6665e64105226cd972833", "fusion_lat": 0.0, "rental_uris": {"ios": "https://dc.lft.to/lastmile_qr_scan", "android": "https://dc.lft.to/lastmile_qr_scan"}, "lon": -76.99104183333333, "type": "electric_scooter"}, {"bike_id": "fe0686f9f5dcf778076b67969cbe066e", "is_reserved": 0, "fusion_lon": 0.0, "lat": 38.939781833333335, "is_disabled": 0, "name": "fe0686f9f5dcf778076b67969cbe066e", "fusion_lat": 0.0, "rental_uris": {"ios": "https://dc.lft.to/lastmile_qr_scan", "android": "https://dc.lft.to/lastmile_qr_scan"}, "lon": -77.02883433333334, "type": "electric_scooter"}, {"bike_id": "dcfdc5c945fd7d7c61fd4ff80ac7875b", "is_reserved": 0, "fusion_lon": 0.0, "lat": 38.90267633333333, "is_disabled": 0, "name": "dcfdc5c945fd7d7c61fd4ff80ac7875b", "fusion_lat": 0.0, "rental_uris": {"ios": "https://dc.lft.to/lastmile_qr_scan", "android": "https://dc.lft.to/lastmile_qr_scan"}, "lon": -77.03076883333334, "type": "electric_scooter"}, {"bike_id": "26e04c42d6ff71b988f77cc777bdd890", "is_reserved": 0, "fusion_lon": 0.0, "lat": 38.903941333333336, "is_disabled": 0, "name": "26e04c42d6ff71b988f77cc777bdd890", "fusion_lat": 0.0, "rental_uris": {"ios": "https://dc.lft.to/lastmile_qr_scan", "android": "https://dc.lft.to/lastmile_qr_scan"}, "lon": -77.04534916666667, "type": "electric_scooter"}, {"bike_id": "2a5f7093b6cf30ea287cb453767c47d5", "is_reserved": 0, "fusion_lon": 0.0, "lat": 38.91673516666667, "is_disabled": 0, "name": "2a5f7093b6cf30ea287cb453767c47d5", "fusion_lat": 0.0, "rental_uris": {"ios": "https://dc.lft.to/lastmile_qr_scan", "android": "https://dc.lft.to/lastmile_qr_scan"}, "lon": -77.03682633333334, "type": "electric_scooter"}, {"bike_id": "e6d94eaf9d3c2476fafd5933a44ae97f", "is_reserved": 0, "fusion_lon": 0.0, "lat": 38.92215266666667, "is_disabled": 0, "name": "e6d94eaf9d3c2476fafd5933a44ae97f", "fusion_lat": 0.0, "rental_uris": {"ios": "https://dc.lft.to/lastmile_qr_scan", "android": "https://dc.lft.to/lastmile_qr_scan"}, "lon": -77.042639, "type": "electric_scooter"}, {"bike_id": "b520e602df693c1ab29d497ae92ce00a", "is_reserved": 0, "fusion_lon": 0.0, "lat": 38.9038015, "is_disabled": 0, "name": "b520e602df693c1ab29d497ae92ce00a", "fusion_lat": 0.0, "rental_uris": {"ios": "https://dc.lft.to/lastmile_qr_scan", "android": "https://dc.lft.to/lastmile_qr_scan"}, "lon": -77.036238, "type": "electric_scooter"}, {"bike_id": "c3874941a6c2cae45cf59edbbf41d009", "is_reserved": 0, "fusion_lon": 0.0, "lat": 38.89215016666667, "is_disabled": 0, "name": "c3874941a6c2cae45cf59edbbf41d009", "fusion_lat": 0.0, "rental_uris": {"ios": "https://dc.lft.to/lastmile_qr_scan", "android": "https://dc.lft.to/lastmile_qr_scan"}, "lon": -77.03096466666666, "type": "electric_scooter"}, {"bike_id": "33f38415f0dcb264ea8007d056a42435", "is_reserved": 0, "fusion_lon": 0.0, "lat": 38.8921725, "is_disabled": 0, "name": "33f38415f0dcb264ea8007d056a42435", "fusion_lat": 0.0, "rental_uris": {"ios": "https://dc.lft.to/lastmile_qr_scan", "android": "https://dc.lft.to/lastmile_qr_scan"}, "lon": -77.03163066666667, "type": "electric_scooter"}, {"bike_id": "33a4eb0adce2928f4aafa3c261171b3e", "is_reserved": 0, "fusion_lon": 0.0, "lat": 38.884983, "is_disabled": 0, "name": "33a4eb0adce2928f4aafa3c261171b3e", "fusion_lat": 0.0, "rental_uris": {"ios": "https://dc.lft.to/lastmile_qr_scan", "android": "https://dc.lft.to/lastmile_qr_scan"}, "lon": -77.00893966666666, "type": "electric_scooter"}, {"bike_id": "a26ed3fbf7e15a03251a680345e96c6a", "is_reserved": 0, "fusion_lon": 0.0, "lat": 38.912147166666664, "is_disabled": 0, "name": "a26ed3fbf7e15a03251a680345e96c6a", "fusion_lat": 0.0, "rental_uris": {"ios": "https://dc.lft.to/lastmile_qr_scan", "android": "https://dc.lft.to/lastmile_qr_scan"}, "lon": -77.075947, "type": "electric_scooter"}, {"bike_id": "294204a9ddfb10ce06a79924f0d7ad63", "is_reserved": 0, "fusion_lon": 0.0, "lat": 38.892199166666664, "is_disabled": 0, "name": "294204a9ddfb10ce06a79924f0d7ad63", "fusion_lat": 0.0, "rental_uris": {"ios": "https://dc.lft.to/lastmile_qr_scan", "android": "https://dc.lft.to/lastmile_qr_scan"}, "lon": -77.04195183333333, "type": "electric_scooter"}, {"bike_id": "e683a4844b48ef28e424f856712044d4", "is_reserved": 0, "fusion_lon": 0.0, "lat": 38.8954835, "is_disabled": 0, "name": "e683a4844b48ef28e424f856712044d4", "fusion_lat": 0.0, "rental_uris": {"ios": "https://dc.lft.to/lastmile_qr_scan", "android": "https://dc.lft.to/lastmile_qr_scan"}, "lon": -77.00916366666667, "type": "electric_scooter"}, {"bike_id": "d0747583cff4f860d3ebf8ddc4a16835", "is_reserved": 0, "fusion_lon": 0.0, "lat": 38.8876365, "is_disabled": 0, "name": "d0747583cff4f860d3ebf8ddc4a16835", "fusion_lat": 0.0, "rental_uris": {"ios": "https://dc.lft.to/lastmile_qr_scan", "android": "https://dc.lft.to/lastmile_qr_scan"}, "lon": -76.98051983333333, "type": "electric_scooter"}, {"bike_id": "dee094495330c2c3441fedca08dceb2e", "is_reserved": 0, "fusion_lon": 0.0, "lat": 38.87328216666667, "is_disabled": 0, "name": "dee094495330c2c3441fedca08dceb2e", "fusion_lat": 0.0, "rental_uris": {"ios": "https://dc.lft.to/lastmile_qr_scan", "android": "https://dc.lft.to/lastmile_qr_scan"}, "lon": -77.10612416666666, "type": "electric_bike"}, {"bike_id": "ce41c3558939a428690dae28e6f93865", "is_reserved": 0, "fusion_lon": 0.0, "lat": 38.922579666666664, "is_disabled": 0, "name": "ce41c3558939a428690dae28e6f93865", "fusion_lat": 0.0, "rental_uris": {"ios": "https://dc.lft.to/lastmile_qr_scan", "android": "https://dc.lft.to/lastmile_qr_scan"}, "lon": -76.974223, "type": "electric_bike"}, {"bike_id": "b406de2a3774028f765632a422a60099", "is_reserved": 0, "fusion_lon": 0.0, "lat": 38.940388, "is_disabled": 0, "name": "b406de2a3774028f765632a422a60099", "fusion_lat": 0.0, "rental_uris": {"ios": "https://dc.lft.to/lastmile_qr_scan", "android": "https://dc.lft.to/lastmile_qr_scan"}, "lon": -77.02911366666666, "type": "electric_scooter"}, {"bike_id": "f01a28caf31ba38da4cd3a4f83011971", "is_reserved": 0, "fusion_lon": 0.0, "lat": 38.92360933333333, "is_disabled": 0, "name": "f01a28caf31ba38da4cd3a4f83011971", "fusion_lat": 0.0, "rental_uris": {"ios": "https://dc.lft.to/lastmile_qr_scan", "android": "https://dc.lft.to/lastmile_qr_scan"}, "lon": -77.0503255, "type": "electric_scooter"}, {"bike_id": "9ec19d9e4e5ff30886a057a5050ffd7b", "is_reserved": 0, "fusion_lon": 0.0, "lat": 38.90791383333333, "is_disabled": 0, "name": "9ec19d9e4e5ff30886a057a5050ffd7b", "fusion_lat": 0.0, "rental_uris": {"ios": "https://dc.lft.to/lastmile_qr_scan", "android": "https://dc.lft.to/lastmile_qr_scan"}, "lon": -77.04275133333333, "type": "electric_scooter"}, {"bike_id": "6b2db447b0686e979e0971657ee8420d", "is_reserved": 0, "fusion_lon": 0.0, "lat": 38.86621983333333, "is_disabled": 0, "name": "6b2db447b0686e979e0971657ee8420d", "fusion_lat": 0.0, "rental_uris": {"ios": "https://dc.lft.to/lastmile_qr_scan", "android": "https://dc.lft.to/lastmile_qr_scan"}, "lon": -76.98668233333333, "type": "electric_scooter"}, {"bike_id": "fd41dafbf0474bf2f8bd90e01d5d2940", "is_reserved": 0, "fusion_lon": 0.0, "lat": 38.93504983333333, "is_disabled": 0, "name": "fd41dafbf0474bf2f8bd90e01d5d2940", "fusion_lat": 0.0, "rental_uris": {"ios": "https://dc.lft.to/lastmile_qr_scan", "android": "https://dc.lft.to/lastmile_qr_scan"}, "lon": -77.0200705, "type": "electric_scooter"}, {"bike_id": "2dc0852aaef53ad671469d88d71e98d3", "is_reserved": 0, "fusion_lon": 0.0, "lat": 39.0303875, "is_disabled": 0, "name": "2dc0852aaef53ad671469d88d71e98d3", "fusion_lat": 0.0, "rental_uris": {"ios": "https://dc.lft.to/lastmile_qr_scan", "android": "https://dc.lft.to/lastmile_qr_scan"}, "lon": -77.094725, "type": "electric_bike"}, {"bike_id": "f4b6017427e83e3af0a466caee0a9918", "is_reserved": 0, "fusion_lon": 0.0, "lat": 38.91662383333333, "is_disabled": 0, "name": "f4b6017427e83e3af0a466caee0a9918", "fusion_lat": 0.0, "rental_uris": {"ios": "https://dc.lft.to/lastmile_qr_scan", "android": "https://dc.lft.to/lastmile_qr_scan"}, "lon": -77.02711083333334, "type": "electric_scooter"}, {"bike_id": "36142be1e255d49d7539e4e2743fce82", "is_reserved": 0, "fusion_lon": 0.0, "lat": 38.93109416666667, "is_disabled": 0, "name": "36142be1e255d49d7539e4e2743fce82", "fusion_lat": 0.0, "rental_uris": {"ios": "https://dc.lft.to/lastmile_qr_scan", "android": "https://dc.lft.to/lastmile_qr_scan"}, "lon": -77.03841516666667, "type": "electric_scooter"}, {"bike_id": "4681893cfc3e0007610fe3035c6e3e12", "is_reserved": 0, "fusion_lon": 0.0, "lat": 38.92475066666667, "is_disabled": 0, "name": "4681893cfc3e0007610fe3035c6e3e12", "fusion_lat": 0.0, "rental_uris": {"ios": "https://dc.lft.to/lastmile_qr_scan", "android": "https://dc.lft.to/lastmile_qr_scan"}, "lon": -77.05213633333334, "type": "electric_scooter"}, {"bike_id": "e2ed151dafeb5f676b5f8e9167560ccf", "is_reserved": 0, "fusion_lon": 0.0, "lat": 38.99827616666666, "is_disabled": 0, "name": "e2ed151dafeb5f676b5f8e9167560ccf", "fusion_lat": 0.0, "rental_uris": {"ios": "https://dc.lft.to/lastmile_qr_scan", "android": "https://dc.lft.to/lastmile_qr_scan"}, "lon": -76.88375866666667, "type": "electric_bike"}, {"bike_id": "e6a84ec2ecc4112eab87252146f4c271", "is_reserved": 0, "fusion_lon": 0.0, "lat": 38.907593166666665, "is_disabled": 0, "name": "e6a84ec2ecc4112eab87252146f4c271", "fusion_lat": 0.0, "rental_uris": {"ios": "https://dc.lft.to/lastmile_qr_scan", "android": "https://dc.lft.to/lastmile_qr_scan"}, "lon": -77.06916516666666, "type": "electric_scooter"}, {"bike_id": "1490a866de0409fcc017f01a48029ba1", "is_reserved": 0, "fusion_lon": 0.0, "lat": 38.9047185, "is_disabled": 0, "name": "1490a866de0409fcc017f01a48029ba1", "fusion_lat": 0.0, "rental_uris": {"ios": "https://dc.lft.to/lastmile_qr_scan", "android": "https://dc.lft.to/lastmile_qr_scan"}, "lon": -77.06014033333334, "type": "electric_scooter"}, {"bike_id": "11d28f8db1dbef54af47dc135643f03c", "is_reserved": 0, "fusion_lon": 0.0, "lat": 38.9013455, "is_disabled": 0, "name": "11d28f8db1dbef54af47dc135643f03c", "fusion_lat": 0.0, "rental_uris": {"ios": "https://dc.lft.to/lastmile_qr_scan", "android": "https://dc.lft.to/lastmile_qr_scan"}, "lon": -76.99791, "type": "electric_scooter"}, {"bike_id": "c2f9e69201969d954a0cc9949372d69e", "is_reserved": 0, "fusion_lon": 0.0, "lat": 38.900143, "is_disabled": 0, "name": "c2f9e69201969d954a0cc9949372d69e", "fusion_lat": 0.0, "rental_uris": {"ios": "https://dc.lft.to/lastmile_qr_scan", "android": "https://dc.lft.to/lastmile_qr_scan"}, "lon": -76.99538366666667, "type": "electric_scooter"}, {"bike_id": "94f7c953ff1bcae44869b3f393c00939", "is_reserved": 0, "fusion_lon": 0.0, "lat": 38.95637266666667, "is_disabled": 0, "name": "94f7c953ff1bcae44869b3f393c00939", "fusion_lat": 0.0, "rental_uris": {"ios": "https://dc.lft.to/lastmile_qr_scan", "android": "https://dc.lft.to/lastmile_qr_scan"}, "lon": -76.938837, "type": "electric_bike"}, {"bike_id": "d628e37fa32eb81ffe80e72595b0af23", "is_reserved": 0, "fusion_lon": 0.0, "lat": 38.93445633333333, "is_disabled": 0, "name": "d628e37fa32eb81ffe80e72595b0af23", "fusion_lat": 0.0, "rental_uris": {"ios": "https://dc.lft.to/lastmile_qr_scan", "android": "https://dc.lft.to/lastmile_qr_scan"}, "lon": -77.02844983333334, "type": "electric_scooter"}, {"bike_id": "8de3202679e5508313c5428361a2b73c", "is_reserved": 0, "fusion_lon": 0.0, "lat": 38.90956466666667, "is_disabled": 0, "name": "8de3202679e5508313c5428361a2b73c", "fusion_lat": 0.0, "rental_uris": {"ios": "https://dc.lft.to/lastmile_qr_scan", "android": "https://dc.lft.to/lastmile_qr_scan"}, "lon": -77.044583, "type": "electric_scooter"}, {"bike_id": "4d2df35b9bd3c7283dac12c5ddade6a4", "is_reserved": 0, "fusion_lon": 0.0, "lat": 38.9183885, "is_disabled": 0, "name": "4d2df35b9bd3c7283dac12c5ddade6a4", "fusion_lat": 0.0, "rental_uris": {"ios": "https://dc.lft.to/lastmile_qr_scan", "android": "https://dc.lft.to/lastmile_qr_scan"}, "lon": -77.03900166666666, "type": "electric_scooter"}, {"bike_id": "70a3260f3bf888012ea62cc0bdfbd1ec", "is_reserved": 0, "fusion_lon": 0.0, "lat": 38.89767666666667, "is_disabled": 0, "name": "70a3260f3bf888012ea62cc0bdfbd1ec", "fusion_lat": 0.0, "rental_uris": {"ios": "https://dc.lft.to/lastmile_qr_scan", "android": "https://dc.lft.to/lastmile_qr_scan"}, "lon": -77.02703116666666, "type": "electric_scooter"}, {"bike_id": "0b8c10ba6e0808bb4f6d93071001c437", "is_reserved": 0, "fusion_lon": 0.0, "lat": 38.920982333333335, "is_disabled": 0, "name": "0b8c10ba6e0808bb4f6d93071001c437", "fusion_lat": 0.0, "rental_uris": {"ios": "https://dc.lft.to/lastmile_qr_scan", "android": "https://dc.lft.to/lastmile_qr_scan"}, "lon": -77.02962666666667, "type": "electric_scooter"}, {"bike_id": "4a43f27fee39044040d8c8ae4b68d2b1", "is_reserved": 0, "fusion_lon": 0.0, "lat": 38.871706333333336, "is_disabled": 0, "name": "4a43f27fee39044040d8c8ae4b68d2b1", "fusion_lat": 0.0, "rental_uris": {"ios": "https://dc.lft.to/lastmile_qr_scan", "android": "https://dc.lft.to/lastmile_qr_scan"}, "lon": -77.00631883333334, "type": "electric_scooter"}, {"bike_id": "7c91772f35d18b3623c766441d858588", "is_reserved": 0, "fusion_lon": 0.0, "lat": 38.867204666666666, "is_disabled": 0, "name": "7c91772f35d18b3623c766441d858588", "fusion_lat": 0.0, "rental_uris": {"ios": "https://dc.lft.to/lastmile_qr_scan", "android": "https://dc.lft.to/lastmile_qr_scan"}, "lon": -76.98787883333334, "type": "electric_scooter"}, {"bike_id": "a5ef60c5c729a41c76916c2f61c880e3", "is_reserved": 0, "fusion_lon": 0.0, "lat": 38.88717466666667, "is_disabled": 0, "name": "a5ef60c5c729a41c76916c2f61c880e3", "fusion_lat": 0.0, "rental_uris": {"ios": "https://dc.lft.to/lastmile_qr_scan", "android": "https://dc.lft.to/lastmile_qr_scan"}, "lon": -77.03220516666667, "type": "electric_scooter"}, {"bike_id": "9bcfd23864ca1b09cb84b3136c911958", "is_reserved": 0, "fusion_lon": 0.0, "lat": 38.86631633333333, "is_disabled": 0, "name": "9bcfd23864ca1b09cb84b3136c911958", "fusion_lat": 0.0, "rental_uris": {"ios": "https://dc.lft.to/lastmile_qr_scan", "android": "https://dc.lft.to/lastmile_qr_scan"}, "lon": -76.98716983333334, "type": "electric_scooter"}, {"bike_id": "4deffb3551d90ba7613080620b6cf71a", "is_reserved": 0, "fusion_lon": 0.0, "lat": 38.9266765, "is_disabled": 0, "name": "4deffb3551d90ba7613080620b6cf71a", "fusion_lat": 0.0, "rental_uris": {"ios": "https://dc.lft.to/lastmile_qr_scan", "android": "https://dc.lft.to/lastmile_qr_scan"}, "lon": -77.028351, "type": "electric_scooter"}, {"bike_id": "a51d6adcfa7cfd4974fac85fd8c718a6", "is_reserved": 0, "fusion_lon": 0.0, "lat": 38.890078833333334, "is_disabled": 0, "name": "a51d6adcfa7cfd4974fac85fd8c718a6", "fusion_lat": 0.0, "rental_uris": {"ios": "https://dc.lft.to/lastmile_qr_scan", "android": "https://dc.lft.to/lastmile_qr_scan"}, "lon": -76.93744933333333, "type": "electric_scooter"}, {"bike_id": "c7bf0acbc809091f2dfa0a7774ae07ba", "is_reserved": 0, "fusion_lon": 0.0, "lat": 38.92333333333333, "is_disabled": 0, "name": "c7bf0acbc809091f2dfa0a7774ae07ba", "fusion_lat": 0.0, "rental_uris": {"ios": "https://dc.lft.to/lastmile_qr_scan", "android": "https://dc.lft.to/lastmile_qr_scan"}, "lon": -77.03497466666667, "type": "electric_scooter"}, {"bike_id": "c2139ea55b6e85b8f219cac60d60eae9", "is_reserved": 0, "fusion_lon": 0.0, "lat": 38.880289833333336, "is_disabled": 0, "name": "c2139ea55b6e85b8f219cac60d60eae9", "fusion_lat": 0.0, "rental_uris": {"ios": "https://dc.lft.to/lastmile_qr_scan", "android": "https://dc.lft.to/lastmile_qr_scan"}, "lon": -77.02519216666667, "type": "electric_scooter"}, {"bike_id": "f947409817cbaa57aa65d946a2ae6fe7", "is_reserved": 0, "fusion_lon": 0.0, "lat": 38.8963085, "is_disabled": 0, "name": "f947409817cbaa57aa65d946a2ae6fe7", "fusion_lat": 0.0, "rental_uris": {"ios": "https://dc.lft.to/lastmile_qr_scan", "android": "https://dc.lft.to/lastmile_qr_scan"}, "lon": -77.00897166666667, "type": "electric_scooter"}, {"bike_id": "ca8448b588a8c3711da9c2771e4995c0", "is_reserved": 0, "fusion_lon": 0.0, "lat": 38.88505033333333, "is_disabled": 0, "name": "ca8448b588a8c3711da9c2771e4995c0", "fusion_lat": 0.0, "rental_uris": {"ios": "https://dc.lft.to/lastmile_qr_scan", "android": "https://dc.lft.to/lastmile_qr_scan"}, "lon": -77.00568966666667, "type": "electric_scooter"}, {"bike_id": "1990a65972c3b63fdb59bd3655d5a0c0", "is_reserved": 0, "fusion_lon": 0.0, "lat": 38.895185, "is_disabled": 0, "name": "1990a65972c3b63fdb59bd3655d5a0c0", "fusion_lat": 0.0, "rental_uris": {"ios": "https://dc.lft.to/lastmile_qr_scan", "android": "https://dc.lft.to/lastmile_qr_scan"}, "lon": -77.01215133333334, "type": "electric_bike"}, {"bike_id": "33f902ae153ae8ecab8a79a4fe108044", "is_reserved": 0, "fusion_lon": 0.0, "lat": 38.897684, "is_disabled": 0, "name": "33f902ae153ae8ecab8a79a4fe108044", "fusion_lat": 0.0, "rental_uris": {"ios": "https://dc.lft.to/lastmile_qr_scan", "android": "https://dc.lft.to/lastmile_qr_scan"}, "lon": -76.90441016666666, "type": "electric_bike"}, {"bike_id": "23c23d3653f70acfaccf09bf21b29034", "is_reserved": 0, "fusion_lon": 0.0, "lat": 38.92464566666666, "is_disabled": 0, "name": "23c23d3653f70acfaccf09bf21b29034", "fusion_lat": 0.0, "rental_uris": {"ios": "https://dc.lft.to/lastmile_qr_scan", "android": "https://dc.lft.to/lastmile_qr_scan"}, "lon": -77.05209283333333, "type": "electric_scooter"}, {"bike_id": "7d55cb67bf83a50ad44ba36010c383ee", "is_reserved": 0, "fusion_lon": 0.0, "lat": 38.944375, "is_disabled": 0, "name": "7d55cb67bf83a50ad44ba36010c383ee", "fusion_lat": 0.0, "rental_uris": {"ios": "https://dc.lft.to/lastmile_qr_scan", "android": "https://dc.lft.to/lastmile_qr_scan"}, "lon": -77.06352583333333, "type": "electric_scooter"}, {"bike_id": "dada159a13375e4e196d1a59e130be65", "is_reserved": 0, "fusion_lon": 0.0, "lat": 38.913318, "is_disabled": 0, "name": "dada159a13375e4e196d1a59e130be65", "fusion_lat": 0.0, "rental_uris": {"ios": "https://dc.lft.to/lastmile_qr_scan", "android": "https://dc.lft.to/lastmile_qr_scan"}, "lon": -77.04814733333333, "type": "electric_scooter"}, {"bike_id": "daccdafebb99db8bc9748874ac80ef46", "is_reserved": 0, "fusion_lon": 0.0, "lat": 38.919734, "is_disabled": 0, "name": "daccdafebb99db8bc9748874ac80ef46", "fusion_lat": 0.0, "rental_uris": {"ios": "https://dc.lft.to/lastmile_qr_scan", "android": "https://dc.lft.to/lastmile_qr_scan"}, "lon": -77.04438833333333, "type": "electric_scooter"}, {"bike_id": "91043de614158c9c9b337ac90d0ed3c5", "is_reserved": 0, "fusion_lon": 0.0, "lat": 38.921974666666664, "is_disabled": 0, "name": "91043de614158c9c9b337ac90d0ed3c5", "fusion_lat": 0.0, "rental_uris": {"ios": "https://dc.lft.to/lastmile_qr_scan", "android": "https://dc.lft.to/lastmile_qr_scan"}, "lon": -77.042365, "type": "electric_scooter"}, {"bike_id": "d27eaef4a88d6ece6d507fc2a40ed9b6", "is_reserved": 0, "fusion_lon": 0.0, "lat": 38.879187, "is_disabled": 0, "name": "d27eaef4a88d6ece6d507fc2a40ed9b6", "fusion_lat": 0.0, "rental_uris": {"ios": "https://dc.lft.to/lastmile_qr_scan", "android": "https://dc.lft.to/lastmile_qr_scan"}, "lon": -76.99253, "type": "electric_scooter"}, {"bike_id": "728b8cb5393e372b00107bee67fbba95", "is_reserved": 0, "fusion_lon": 0.0, "lat": 38.905293, "is_disabled": 0, "name": "728b8cb5393e372b00107bee67fbba95", "fusion_lat": 0.0, "rental_uris": {"ios": "https://dc.lft.to/lastmile_qr_scan", "android": "https://dc.lft.to/lastmile_qr_scan"}, "lon": -77.05767766666666, "type": "electric_bike"}, {"bike_id": "3283ec49e72d21c45f44a5afcb1d6684", "is_reserved": 0, "fusion_lon": 0.0, "lat": 38.90772316666666, "is_disabled": 0, "name": "3283ec49e72d21c45f44a5afcb1d6684", "fusion_lat": 0.0, "rental_uris": {"ios": "https://dc.lft.to/lastmile_qr_scan", "android": "https://dc.lft.to/lastmile_qr_scan"}, "lon": -77.03863633333333, "type": "electric_scooter"}, {"bike_id": "1f113587a2e0b295b3831fba62da3cb6", "is_reserved": 0, "fusion_lon": 0.0, "lat": 38.90067616666666, "is_disabled": 0, "name": "1f113587a2e0b295b3831fba62da3cb6", "fusion_lat": 0.0, "rental_uris": {"ios": "https://dc.lft.to/lastmile_qr_scan", "android": "https://dc.lft.to/lastmile_qr_scan"}, "lon": -77.045318, "type": "electric_scooter"}, {"bike_id": "52713282909870908837a597ecf20c17", "is_reserved": 0, "fusion_lon": 0.0, "lat": 38.8955335, "is_disabled": 0, "name": "52713282909870908837a597ecf20c17", "fusion_lat": 0.0, "rental_uris": {"ios": "https://dc.lft.to/lastmile_qr_scan", "android": "https://dc.lft.to/lastmile_qr_scan"}, "lon": -77.046737, "type": "electric_scooter"}, {"bike_id": "dccb0ed8e4689e1e1a46c6b9ecb6d43b", "is_reserved": 0, "fusion_lon": 0.0, "lat": 38.93493, "is_disabled": 0, "name": "dccb0ed8e4689e1e1a46c6b9ecb6d43b", "fusion_lat": 0.0, "rental_uris": {"ios": "https://dc.lft.to/lastmile_qr_scan", "android": "https://dc.lft.to/lastmile_qr_scan"}, "lon": -77.02719633333334, "type": "electric_scooter"}, {"bike_id": "4fd1aaebe84803dbdddeddb50d35c3ed", "is_reserved": 0, "fusion_lon": 0.0, "lat": 38.905077, "is_disabled": 0, "name": "4fd1aaebe84803dbdddeddb50d35c3ed", "fusion_lat": 0.0, "rental_uris": {"ios": "https://dc.lft.to/lastmile_qr_scan", "android": "https://dc.lft.to/lastmile_qr_scan"}, "lon": -77.05696, "type": "electric_bike"}, {"bike_id": "7659468b9b6efe0319553c52880531eb", "is_reserved": 0, "fusion_lon": 0.0, "lat": 38.9397015, "is_disabled": 0, "name": "7659468b9b6efe0319553c52880531eb", "fusion_lat": 0.0, "rental_uris": {"ios": "https://dc.lft.to/lastmile_qr_scan", "android": "https://dc.lft.to/lastmile_qr_scan"}, "lon": -77.035906, "type": "electric_scooter"}, {"bike_id": "cecb9d8c710f893366c5124b66e87f23", "is_reserved": 0, "fusion_lon": 0.0, "lat": 38.8665755, "is_disabled": 0, "name": "cecb9d8c710f893366c5124b66e87f23", "fusion_lat": 0.0, "rental_uris": {"ios": "https://dc.lft.to/lastmile_qr_scan", "android": "https://dc.lft.to/lastmile_qr_scan"}, "lon": -76.98884133333334, "type": "electric_scooter"}, {"bike_id": "28b14dd28ee36df73bbc2faf4adf9703", "is_reserved": 0, "fusion_lon": 0.0, "lat": 38.862005333333336, "is_disabled": 0, "name": "28b14dd28ee36df73bbc2faf4adf9703", "fusion_lat": 0.0, "rental_uris": {"ios": "https://dc.lft.to/lastmile_qr_scan", "android": "https://dc.lft.to/lastmile_qr_scan"}, "lon": -76.99469066666667, "type": "electric_scooter"}, {"bike_id": "caf947a4ceef7946939d86f138010ad6", "is_reserved": 0, "fusion_lon": 0.0, "lat": 38.90516433333333, "is_disabled": 0, "name": "caf947a4ceef7946939d86f138010ad6", "fusion_lat": 0.0, "rental_uris": {"ios": "https://dc.lft.to/lastmile_qr_scan", "android": "https://dc.lft.to/lastmile_qr_scan"}, "lon": -77.04479966666666, "type": "electric_scooter"}, {"bike_id": "1214c7d8d4ad3ede7f74a6b8538b4562", "is_reserved": 0, "fusion_lon": 0.0, "lat": 38.89473366666667, "is_disabled": 0, "name": "1214c7d8d4ad3ede7f74a6b8538b4562", "fusion_lat": 0.0, "rental_uris": {"ios": "https://dc.lft.to/lastmile_qr_scan", "android": "https://dc.lft.to/lastmile_qr_scan"}, "lon": -77.0501985, "type": "electric_scooter"}, {"bike_id": "980453d7cffc49d63f5496093a96efac", "is_reserved": 0, "fusion_lon": 0.0, "lat": 38.892185, "is_disabled": 0, "name": "980453d7cffc49d63f5496093a96efac", "fusion_lat": 0.0, "rental_uris": {"ios": "https://dc.lft.to/lastmile_qr_scan", "android": "https://dc.lft.to/lastmile_qr_scan"}, "lon": -77.04366, "type": "electric_scooter"}, {"bike_id": "dd57e77beea72fdbcec349835ef7a2fd", "is_reserved": 0, "fusion_lon": 0.0, "lat": 38.90267466666667, "is_disabled": 0, "name": "dd57e77beea72fdbcec349835ef7a2fd", "fusion_lat": 0.0, "rental_uris": {"ios": "https://dc.lft.to/lastmile_qr_scan", "android": "https://dc.lft.to/lastmile_qr_scan"}, "lon": -77.0601235, "type": "electric_scooter"}, {"bike_id": "450689f0589cc8bc445a2d713b734265", "is_reserved": 0, "fusion_lon": 0.0, "lat": 38.90542116666667, "is_disabled": 0, "name": "450689f0589cc8bc445a2d713b734265", "fusion_lat": 0.0, "rental_uris": {"ios": "https://dc.lft.to/lastmile_qr_scan", "android": "https://dc.lft.to/lastmile_qr_scan"}, "lon": -77.050156, "type": "electric_scooter"}, {"bike_id": "ec1773407e04aeedeede29988c85710c", "is_reserved": 0, "fusion_lon": 0.0, "lat": 38.92369883333333, "is_disabled": 0, "name": "ec1773407e04aeedeede29988c85710c", "fusion_lat": 0.0, "rental_uris": {"ios": "https://dc.lft.to/lastmile_qr_scan", "android": "https://dc.lft.to/lastmile_qr_scan"}, "lon": -77.0206395, "type": "electric_scooter"}, {"bike_id": "d0696073f77d89c0b6eb2e8517345c5d", "is_reserved": 0, "fusion_lon": 0.0, "lat": 38.906390333333334, "is_disabled": 0, "name": "d0696073f77d89c0b6eb2e8517345c5d", "fusion_lat": 0.0, "rental_uris": {"ios": "https://dc.lft.to/lastmile_qr_scan", "android": "https://dc.lft.to/lastmile_qr_scan"}, "lon": -77.0389025, "type": "electric_scooter"}, {"bike_id": "83ba3beb6e6890f7b9be28e463af40f9", "is_reserved": 0, "fusion_lon": 0.0, "lat": 38.93855383333333, "is_disabled": 0, "name": "83ba3beb6e6890f7b9be28e463af40f9", "fusion_lat": 0.0, "rental_uris": {"ios": "https://dc.lft.to/lastmile_qr_scan", "android": "https://dc.lft.to/lastmile_qr_scan"}, "lon": -77.0246705, "type": "electric_scooter"}, {"bike_id": "93b44eb01f430fea5ab969170ff78062", "is_reserved": 0, "fusion_lon": 0.0, "lat": 38.914148833333336, "is_disabled": 0, "name": "93b44eb01f430fea5ab969170ff78062", "fusion_lat": 0.0, "rental_uris": {"ios": "https://dc.lft.to/lastmile_qr_scan", "android": "https://dc.lft.to/lastmile_qr_scan"}, "lon": -77.02680316666667, "type": "electric_scooter"}, {"bike_id": "801bfee02d6caf5ecebf2baf5567e0d9", "is_reserved": 0, "fusion_lon": 0.0, "lat": 38.90794733333333, "is_disabled": 0, "name": "801bfee02d6caf5ecebf2baf5567e0d9", "fusion_lat": 0.0, "rental_uris": {"ios": "https://dc.lft.to/lastmile_qr_scan", "android": "https://dc.lft.to/lastmile_qr_scan"}, "lon": -77.00016083333334, "type": "electric_scooter"}, {"bike_id": "83a767e7e6b7254184652fa0b43fbc79", "is_reserved": 0, "fusion_lon": 0.0, "lat": 38.91760216666667, "is_disabled": 0, "name": "83a767e7e6b7254184652fa0b43fbc79", "fusion_lat": 0.0, "rental_uris": {"ios": "https://dc.lft.to/lastmile_qr_scan", "android": "https://dc.lft.to/lastmile_qr_scan"}, "lon": -76.9898155, "type": "electric_bike"}, {"bike_id": "e880adcaaf22e5c97bfc7269a5906b7b", "is_reserved": 0, "fusion_lon": 0.0, "lat": 38.92649883333333, "is_disabled": 0, "name": "e880adcaaf22e5c97bfc7269a5906b7b", "fusion_lat": 0.0, "rental_uris": {"ios": "https://dc.lft.to/lastmile_qr_scan", "android": "https://dc.lft.to/lastmile_qr_scan"}, "lon": -77.03723316666667, "type": "electric_scooter"}, {"bike_id": "236c6c4cddad7d69c009b8a62907e3dd", "is_reserved": 0, "fusion_lon": 0.0, "lat": 38.903661666666665, "is_disabled": 0, "name": "236c6c4cddad7d69c009b8a62907e3dd", "fusion_lat": 0.0, "rental_uris": {"ios": "https://dc.lft.to/lastmile_qr_scan", "android": "https://dc.lft.to/lastmile_qr_scan"}, "lon": -77.0300235, "type": "electric_scooter"}, {"bike_id": "4b8e3c9099d5b75c31deeb74a877e223", "is_reserved": 0, "fusion_lon": 0.0, "lat": 38.9096045, "is_disabled": 0, "name": "4b8e3c9099d5b75c31deeb74a877e223", "fusion_lat": 0.0, "rental_uris": {"ios": "https://dc.lft.to/lastmile_qr_scan", "android": "https://dc.lft.to/lastmile_qr_scan"}, "lon": -77.03462216666667, "type": "electric_scooter"}, {"bike_id": "10a31ec9d160a1e15625f07e04fac740", "is_reserved": 0, "fusion_lon": 0.0, "lat": 38.890019, "is_disabled": 0, "name": "10a31ec9d160a1e15625f07e04fac740", "fusion_lat": 0.0, "rental_uris": {"ios": "https://dc.lft.to/lastmile_qr_scan", "android": "https://dc.lft.to/lastmile_qr_scan"}, "lon": -76.9374305, "type": "electric_scooter"}, {"bike_id": "1c16bdb138d1207236b4627c5bf75c61", "is_reserved": 0, "fusion_lon": 0.0, "lat": 38.90614716666666, "is_disabled": 0, "name": "1c16bdb138d1207236b4627c5bf75c61", "fusion_lat": 0.0, "rental_uris": {"ios": "https://dc.lft.to/lastmile_qr_scan", "android": "https://dc.lft.to/lastmile_qr_scan"}, "lon": -77.00262083333334, "type": "electric_scooter"}, {"bike_id": "b0ff7b23a03457fa21892877a034d24e", "is_reserved": 0, "fusion_lon": 0.0, "lat": 38.90046, "is_disabled": 0, "name": "b0ff7b23a03457fa21892877a034d24e", "fusion_lat": 0.0, "rental_uris": {"ios": "https://dc.lft.to/lastmile_qr_scan", "android": "https://dc.lft.to/lastmile_qr_scan"}, "lon": -77.04687566666666, "type": "electric_scooter"}, {"bike_id": "7ffc42e4280c1d602408904813488bae", "is_reserved": 0, "fusion_lon": 0.0, "lat": 38.9235995, "is_disabled": 0, "name": "7ffc42e4280c1d602408904813488bae", "fusion_lat": 0.0, "rental_uris": {"ios": "https://dc.lft.to/lastmile_qr_scan", "android": "https://dc.lft.to/lastmile_qr_scan"}, "lon": -77.050297, "type": "electric_scooter"}, {"bike_id": "eab0d75e33f3adab9a8056ee1743f936", "is_reserved": 0, "fusion_lon": 0.0, "lat": 38.90411916666667, "is_disabled": 0, "name": "eab0d75e33f3adab9a8056ee1743f936", "fusion_lat": 0.0, "rental_uris": {"ios": "https://dc.lft.to/lastmile_qr_scan", "android": "https://dc.lft.to/lastmile_qr_scan"}, "lon": -77.04359666666667, "type": "electric_scooter"}, {"bike_id": "a93139d47a0f9d9344bb7fb772794ce0", "is_reserved": 0, "fusion_lon": 0.0, "lat": 38.914102666666665, "is_disabled": 0, "name": "a93139d47a0f9d9344bb7fb772794ce0", "fusion_lat": 0.0, "rental_uris": {"ios": "https://dc.lft.to/lastmile_qr_scan", "android": "https://dc.lft.to/lastmile_qr_scan"}, "lon": -77.0282945, "type": "electric_scooter"}, {"bike_id": "d53a9a7232db39be145af5f88cfcf4a5", "is_reserved": 0, "fusion_lon": 0.0, "lat": 38.8948325, "is_disabled": 0, "name": "d53a9a7232db39be145af5f88cfcf4a5", "fusion_lat": 0.0, "rental_uris": {"ios": "https://dc.lft.to/lastmile_qr_scan", "android": "https://dc.lft.to/lastmile_qr_scan"}, "lon": -77.02173633333334, "type": "electric_scooter"}, {"bike_id": "aefe90e5e920905aece043ee5a011096", "is_reserved": 0, "fusion_lon": 0.0, "lat": 38.86654516666667, "is_disabled": 0, "name": "aefe90e5e920905aece043ee5a011096", "fusion_lat": 0.0, "rental_uris": {"ios": "https://dc.lft.to/lastmile_qr_scan", "android": "https://dc.lft.to/lastmile_qr_scan"}, "lon": -76.98881033333333, "type": "electric_scooter"}, {"bike_id": "f455e75048c2fb8cf3b153d762d3f6fe", "is_reserved": 0, "fusion_lon": 0.0, "lat": 38.86532966666667, "is_disabled": 0, "name": "f455e75048c2fb8cf3b153d762d3f6fe", "fusion_lat": 0.0, "rental_uris": {"ios": "https://dc.lft.to/lastmile_qr_scan", "android": "https://dc.lft.to/lastmile_qr_scan"}, "lon": -76.98707083333333, "type": "electric_scooter"}, {"bike_id": "1bce937e757cdce3777a4d6f1fbd59cf", "is_reserved": 0, "fusion_lon": 0.0, "lat": 38.887032, "is_disabled": 0, "name": "1bce937e757cdce3777a4d6f1fbd59cf", "fusion_lat": 0.0, "rental_uris": {"ios": "https://dc.lft.to/lastmile_qr_scan", "android": "https://dc.lft.to/lastmile_qr_scan"}, "lon": -77.01370233333333, "type": "electric_scooter"}, {"bike_id": "d6fa7d0b5311dad8b7d610e531a3a818", "is_reserved": 0, "fusion_lon": 0.0, "lat": 38.8922155, "is_disabled": 0, "name": "d6fa7d0b5311dad8b7d610e531a3a818", "fusion_lat": 0.0, "rental_uris": {"ios": "https://dc.lft.to/lastmile_qr_scan", "android": "https://dc.lft.to/lastmile_qr_scan"}, "lon": -77.03168133333334, "type": "electric_scooter"}, {"bike_id": "16d5205e993e5b3d91f30019d0fd4217", "is_reserved": 0, "fusion_lon": 0.0, "lat": 38.924692, "is_disabled": 0, "name": "16d5205e993e5b3d91f30019d0fd4217", "fusion_lat": 0.0, "rental_uris": {"ios": "https://dc.lft.to/lastmile_qr_scan", "android": "https://dc.lft.to/lastmile_qr_scan"}, "lon": -77.025524, "type": "electric_scooter"}, {"bike_id": "6318adc073ee66a4103b01f94c622570", "is_reserved": 0, "fusion_lon": 0.0, "lat": 38.9073485, "is_disabled": 0, "name": "6318adc073ee66a4103b01f94c622570", "fusion_lat": 0.0, "rental_uris": {"ios": "https://dc.lft.to/lastmile_qr_scan", "android": "https://dc.lft.to/lastmile_qr_scan"}, "lon": -77.0424275, "type": "electric_scooter"}, {"bike_id": "c1b6d4a2a0877d6e85d31aa7d9d94bdd", "is_reserved": 0, "fusion_lon": 0.0, "lat": 38.92243366666667, "is_disabled": 0, "name": "c1b6d4a2a0877d6e85d31aa7d9d94bdd", "fusion_lat": 0.0, "rental_uris": {"ios": "https://dc.lft.to/lastmile_qr_scan", "android": "https://dc.lft.to/lastmile_qr_scan"}, "lon": -77.018314, "type": "electric_scooter"}, {"bike_id": "b963b2768f99d69ecf7b7ff98c2934de", "is_reserved": 0, "fusion_lon": 0.0, "lat": 38.923231666666666, "is_disabled": 0, "name": "b963b2768f99d69ecf7b7ff98c2934de", "fusion_lat": 0.0, "rental_uris": {"ios": "https://dc.lft.to/lastmile_qr_scan", "android": "https://dc.lft.to/lastmile_qr_scan"}, "lon": -77.03898166666667, "type": "electric_scooter"}, {"bike_id": "1c2e870caf81d7f6df05d5b59d53c6e4", "is_reserved": 0, "fusion_lon": 0.0, "lat": 38.861617833333334, "is_disabled": 0, "name": "1c2e870caf81d7f6df05d5b59d53c6e4", "fusion_lat": 0.0, "rental_uris": {"ios": "https://dc.lft.to/lastmile_qr_scan", "android": "https://dc.lft.to/lastmile_qr_scan"}, "lon": -76.9506595, "type": "electric_bike"}, {"bike_id": "35c23f8ebffa16d9e44edeac7aa56c09", "is_reserved": 0, "fusion_lon": 0.0, "lat": 38.903042666666664, "is_disabled": 0, "name": "35c23f8ebffa16d9e44edeac7aa56c09", "fusion_lat": 0.0, "rental_uris": {"ios": "https://dc.lft.to/lastmile_qr_scan", "android": "https://dc.lft.to/lastmile_qr_scan"}, "lon": -77.043309, "type": "electric_scooter"}, {"bike_id": "05b3ba1de2941593c36e680ff0d08ad2", "is_reserved": 0, "fusion_lon": 0.0, "lat": 38.8955455, "is_disabled": 0, "name": "05b3ba1de2941593c36e680ff0d08ad2", "fusion_lat": 0.0, "rental_uris": {"ios": "https://dc.lft.to/lastmile_qr_scan", "android": "https://dc.lft.to/lastmile_qr_scan"}, "lon": -77.04676316666666, "type": "electric_scooter"}, {"bike_id": "36ef27518809712fae6a3c94a59bf000", "is_reserved": 0, "fusion_lon": 0.0, "lat": 38.91992316666666, "is_disabled": 0, "name": "36ef27518809712fae6a3c94a59bf000", "fusion_lat": 0.0, "rental_uris": {"ios": "https://dc.lft.to/lastmile_qr_scan", "android": "https://dc.lft.to/lastmile_qr_scan"}, "lon": -77.032274, "type": "electric_scooter"}, {"bike_id": "f1c5c37e5144c75d5f205ac41fd0f127", "is_reserved": 0, "fusion_lon": 0.0, "lat": 38.9218745, "is_disabled": 0, "name": "f1c5c37e5144c75d5f205ac41fd0f127", "fusion_lat": 0.0, "rental_uris": {"ios": "https://dc.lft.to/lastmile_qr_scan", "android": "https://dc.lft.to/lastmile_qr_scan"}, "lon": -77.04127066666666, "type": "electric_scooter"}, {"bike_id": "5f7cee7cf201034a682d4611f07ff03f", "is_reserved": 0, "fusion_lon": 0.0, "lat": 38.9012835, "is_disabled": 0, "name": "5f7cee7cf201034a682d4611f07ff03f", "fusion_lat": 0.0, "rental_uris": {"ios": "https://dc.lft.to/lastmile_qr_scan", "android": "https://dc.lft.to/lastmile_qr_scan"}, "lon": -77.044618, "type": "electric_scooter"}, {"bike_id": "388ec99de2f29c74d55915d94b013568", "is_reserved": 0, "fusion_lon": 0.0, "lat": 38.904561, "is_disabled": 0, "name": "388ec99de2f29c74d55915d94b013568", "fusion_lat": 0.0, "rental_uris": {"ios": "https://dc.lft.to/lastmile_qr_scan", "android": "https://dc.lft.to/lastmile_qr_scan"}, "lon": -77.05335783333334, "type": "electric_scooter"}, {"bike_id": "533e63601d3919e91789712be5f0ffe0", "is_reserved": 0, "fusion_lon": 0.0, "lat": 38.896080166666664, "is_disabled": 0, "name": "533e63601d3919e91789712be5f0ffe0", "fusion_lat": 0.0, "rental_uris": {"ios": "https://dc.lft.to/lastmile_qr_scan", "android": "https://dc.lft.to/lastmile_qr_scan"}, "lon": -77.04592533333333, "type": "electric_scooter"}, {"bike_id": "ba73c48070bd296c716b21a3d360b734", "is_reserved": 0, "fusion_lon": 0.0, "lat": 38.928478166666665, "is_disabled": 0, "name": "ba73c48070bd296c716b21a3d360b734", "fusion_lat": 0.0, "rental_uris": {"ios": "https://dc.lft.to/lastmile_qr_scan", "android": "https://dc.lft.to/lastmile_qr_scan"}, "lon": -77.05431783333333, "type": "electric_scooter"}, {"bike_id": "4b4da71a06ccb896c95b96f6527640ed", "is_reserved": 0, "fusion_lon": 0.0, "lat": 38.9231945, "is_disabled": 0, "name": "4b4da71a06ccb896c95b96f6527640ed", "fusion_lat": 0.0, "rental_uris": {"ios": "https://dc.lft.to/lastmile_qr_scan", "android": "https://dc.lft.to/lastmile_qr_scan"}, "lon": -77.04486733333333, "type": "electric_scooter"}, {"bike_id": "1ed5e6bff67556b97548e9d439b9e982", "is_reserved": 0, "fusion_lon": 0.0, "lat": 38.90650016666667, "is_disabled": 0, "name": "1ed5e6bff67556b97548e9d439b9e982", "fusion_lat": 0.0, "rental_uris": {"ios": "https://dc.lft.to/lastmile_qr_scan", "android": "https://dc.lft.to/lastmile_qr_scan"}, "lon": -77.026897, "type": "electric_scooter"}, {"bike_id": "e05a2fae2bf5aef9b4e92db452ed5ae2", "is_reserved": 0, "fusion_lon": 0.0, "lat": 38.9334175, "is_disabled": 0, "name": "e05a2fae2bf5aef9b4e92db452ed5ae2", "fusion_lat": 0.0, "rental_uris": {"ios": "https://dc.lft.to/lastmile_qr_scan", "android": "https://dc.lft.to/lastmile_qr_scan"}, "lon": -77.0571065, "type": "electric_scooter"}, {"bike_id": "b604314a1cd2a87271406ca52a4e3df1", "is_reserved": 0, "fusion_lon": 0.0, "lat": 38.90002066666667, "is_disabled": 0, "name": "b604314a1cd2a87271406ca52a4e3df1", "fusion_lat": 0.0, "rental_uris": {"ios": "https://dc.lft.to/lastmile_qr_scan", "android": "https://dc.lft.to/lastmile_qr_scan"}, "lon": -77.00921033333333, "type": "electric_scooter"}, {"bike_id": "00f2b34f3177267a712bf02b8e2f3677", "is_reserved": 0, "fusion_lon": 0.0, "lat": 38.92466483333333, "is_disabled": 0, "name": "00f2b34f3177267a712bf02b8e2f3677", "fusion_lat": 0.0, "rental_uris": {"ios": "https://dc.lft.to/lastmile_qr_scan", "android": "https://dc.lft.to/lastmile_qr_scan"}, "lon": -77.022725, "type": "electric_scooter"}, {"bike_id": "fe17e18db59b26881953b5b08294758d", "is_reserved": 0, "fusion_lon": 0.0, "lat": 38.898210166666665, "is_disabled": 0, "name": "fe17e18db59b26881953b5b08294758d", "fusion_lat": 0.0, "rental_uris": {"ios": "https://dc.lft.to/lastmile_qr_scan", "android": "https://dc.lft.to/lastmile_qr_scan"}, "lon": -76.98027383333333, "type": "electric_scooter"}, {"bike_id": "eda590a6983f1e6e279be2226c7b022d", "is_reserved": 0, "fusion_lon": 0.0, "lat": 38.89197566666667, "is_disabled": 0, "name": "eda590a6983f1e6e279be2226c7b022d", "fusion_lat": 0.0, "rental_uris": {"ios": "https://dc.lft.to/lastmile_qr_scan", "android": "https://dc.lft.to/lastmile_qr_scan"}, "lon": -77.01550433333334, "type": "electric_scooter"}, {"bike_id": "90ef291cd8c7cc92d382ca1ccd41ac04", "is_reserved": 0, "fusion_lon": 0.0, "lat": 38.94411733333333, "is_disabled": 0, "name": "90ef291cd8c7cc92d382ca1ccd41ac04", "fusion_lat": 0.0, "rental_uris": {"ios": "https://dc.lft.to/lastmile_qr_scan", "android": "https://dc.lft.to/lastmile_qr_scan"}, "lon": -77.06317383333334, "type": "electric_scooter"}, {"bike_id": "250600ceb4ae8dbcd62cdf59e3c6835f", "is_reserved": 0, "fusion_lon": 0.0, "lat": 38.902435833333335, "is_disabled": 0, "name": "250600ceb4ae8dbcd62cdf59e3c6835f", "fusion_lat": 0.0, "rental_uris": {"ios": "https://dc.lft.to/lastmile_qr_scan", "android": "https://dc.lft.to/lastmile_qr_scan"}, "lon": -77.034633, "type": "electric_scooter"}, {"bike_id": "f57591014cadf2fd64072d7989254a7e", "is_reserved": 0, "fusion_lon": 0.0, "lat": 39.03041733333333, "is_disabled": 0, "name": "f57591014cadf2fd64072d7989254a7e", "fusion_lat": 0.0, "rental_uris": {"ios": "https://dc.lft.to/lastmile_qr_scan", "android": "https://dc.lft.to/lastmile_qr_scan"}, "lon": -77.09479483333334, "type": "electric_bike"}, {"bike_id": "675c1ca9eacda6731f12c47d00dba464", "is_reserved": 0, "fusion_lon": 0.0, "lat": 38.887048, "is_disabled": 0, "name": "675c1ca9eacda6731f12c47d00dba464", "fusion_lat": 0.0, "rental_uris": {"ios": "https://dc.lft.to/lastmile_qr_scan", "android": "https://dc.lft.to/lastmile_qr_scan"}, "lon": -77.00150833333333, "type": "electric_scooter"}, {"bike_id": "283639ade087c58e33525cd46b908a21", "is_reserved": 0, "fusion_lon": 0.0, "lat": 38.91786333333334, "is_disabled": 0, "name": "283639ade087c58e33525cd46b908a21", "fusion_lat": 0.0, "rental_uris": {"ios": "https://dc.lft.to/lastmile_qr_scan", "android": "https://dc.lft.to/lastmile_qr_scan"}, "lon": -77.04420283333333, "type": "electric_scooter"}, {"bike_id": "efdc44422b2d2683b7ecbe153686a370", "is_reserved": 0, "fusion_lon": 0.0, "lat": 38.908261, "is_disabled": 0, "name": "efdc44422b2d2683b7ecbe153686a370", "fusion_lat": 0.0, "rental_uris": {"ios": "https://dc.lft.to/lastmile_qr_scan", "android": "https://dc.lft.to/lastmile_qr_scan"}, "lon": -76.99698066666667, "type": "electric_scooter"}, {"bike_id": "105d6b365195ee7b8f6a0be9cc356238", "is_reserved": 0, "fusion_lon": 0.0, "lat": 38.8922465, "is_disabled": 0, "name": "105d6b365195ee7b8f6a0be9cc356238", "fusion_lat": 0.0, "rental_uris": {"ios": "https://dc.lft.to/lastmile_qr_scan", "android": "https://dc.lft.to/lastmile_qr_scan"}, "lon": -77.00302933333333, "type": "electric_scooter"}, {"bike_id": "ecfc4a20001f819c8e0bc49728e64af2", "is_reserved": 0, "fusion_lon": 0.0, "lat": 38.90514366666667, "is_disabled": 0, "name": "ecfc4a20001f819c8e0bc49728e64af2", "fusion_lat": 0.0, "rental_uris": {"ios": "https://dc.lft.to/lastmile_qr_scan", "android": "https://dc.lft.to/lastmile_qr_scan"}, "lon": -77.0653355, "type": "electric_scooter"}, {"bike_id": "2e12b032a0b8aa8404afc55e60e87b0f", "is_reserved": 0, "fusion_lon": 0.0, "lat": 38.91773333333333, "is_disabled": 0, "name": "2e12b032a0b8aa8404afc55e60e87b0f", "fusion_lat": 0.0, "rental_uris": {"ios": "https://dc.lft.to/lastmile_qr_scan", "android": "https://dc.lft.to/lastmile_qr_scan"}, "lon": -76.97328583333334, "type": "electric_scooter"}, {"bike_id": "5cd3c1770dca2298c839072215be4ba4", "is_reserved": 0, "fusion_lon": 0.0, "lat": 38.88961183333333, "is_disabled": 0, "name": "5cd3c1770dca2298c839072215be4ba4", "fusion_lat": 0.0, "rental_uris": {"ios": "https://dc.lft.to/lastmile_qr_scan", "android": "https://dc.lft.to/lastmile_qr_scan"}, "lon": -76.98033883333333, "type": "electric_scooter"}, {"bike_id": "980e145189f0638da06e9d7295d84e5d", "is_reserved": 0, "fusion_lon": 0.0, "lat": 38.86163783333333, "is_disabled": 0, "name": "980e145189f0638da06e9d7295d84e5d", "fusion_lat": 0.0, "rental_uris": {"ios": "https://dc.lft.to/lastmile_qr_scan", "android": "https://dc.lft.to/lastmile_qr_scan"}, "lon": -77.1309695, "type": "electric_bike"}, {"bike_id": "64a45809a48a5dbf291b7ac3536b7208", "is_reserved": 0, "fusion_lon": 0.0, "lat": 38.90411183333333, "is_disabled": 0, "name": "64a45809a48a5dbf291b7ac3536b7208", "fusion_lat": 0.0, "rental_uris": {"ios": "https://dc.lft.to/lastmile_qr_scan", "android": "https://dc.lft.to/lastmile_qr_scan"}, "lon": -77.02973666666666, "type": "electric_scooter"}, {"bike_id": "cc53684428f1c153096ced22ea49fc92", "is_reserved": 0, "fusion_lon": 0.0, "lat": 38.901421, "is_disabled": 0, "name": "cc53684428f1c153096ced22ea49fc92", "fusion_lat": 0.0, "rental_uris": {"ios": "https://dc.lft.to/lastmile_qr_scan", "android": "https://dc.lft.to/lastmile_qr_scan"}, "lon": -77.043673, "type": "electric_scooter"}, {"bike_id": "24e9e479032ccaeb00594b174f26d93a", "is_reserved": 0, "fusion_lon": 0.0, "lat": 38.925809, "is_disabled": 0, "name": "24e9e479032ccaeb00594b174f26d93a", "fusion_lat": 0.0, "rental_uris": {"ios": "https://dc.lft.to/lastmile_qr_scan", "android": "https://dc.lft.to/lastmile_qr_scan"}, "lon": -77.00458083333334, "type": "electric_scooter"}, {"bike_id": "f39d024ae711ced131735f0f48c23623", "is_reserved": 0, "fusion_lon": 0.0, "lat": 38.896107666666666, "is_disabled": 0, "name": "f39d024ae711ced131735f0f48c23623", "fusion_lat": 0.0, "rental_uris": {"ios": "https://dc.lft.to/lastmile_qr_scan", "android": "https://dc.lft.to/lastmile_qr_scan"}, "lon": -76.9956795, "type": "electric_scooter"}, {"bike_id": "96643822a4da4cece1a0d0aee726b937", "is_reserved": 0, "fusion_lon": 0.0, "lat": 38.8954375, "is_disabled": 0, "name": "96643822a4da4cece1a0d0aee726b937", "fusion_lat": 0.0, "rental_uris": {"ios": "https://dc.lft.to/lastmile_qr_scan", "android": "https://dc.lft.to/lastmile_qr_scan"}, "lon": -76.980722, "type": "electric_scooter"}, {"bike_id": "23a2fd4e395e5f38998ac77cf9725e14", "is_reserved": 0, "fusion_lon": 0.0, "lat": 38.89224216666667, "is_disabled": 0, "name": "23a2fd4e395e5f38998ac77cf9725e14", "fusion_lat": 0.0, "rental_uris": {"ios": "https://dc.lft.to/lastmile_qr_scan", "android": "https://dc.lft.to/lastmile_qr_scan"}, "lon": -77.0334165, "type": "electric_scooter"}, {"bike_id": "7d00d1a1e4f6280f63a1bb987762bf63", "is_reserved": 0, "fusion_lon": 0.0, "lat": 38.90637733333333, "is_disabled": 0, "name": "7d00d1a1e4f6280f63a1bb987762bf63", "fusion_lat": 0.0, "rental_uris": {"ios": "https://dc.lft.to/lastmile_qr_scan", "android": "https://dc.lft.to/lastmile_qr_scan"}, "lon": -77.03871783333334, "type": "electric_scooter"}, {"bike_id": "1bf48cfb2df626e86711b683e73a9748", "is_reserved": 0, "fusion_lon": 0.0, "lat": 38.9055955, "is_disabled": 0, "name": "1bf48cfb2df626e86711b683e73a9748", "fusion_lat": 0.0, "rental_uris": {"ios": "https://dc.lft.to/lastmile_qr_scan", "android": "https://dc.lft.to/lastmile_qr_scan"}, "lon": -77.04434083333334, "type": "electric_scooter"}, {"bike_id": "9b284bc83885b1a3850b65b84b4b8f80", "is_reserved": 0, "fusion_lon": 0.0, "lat": 38.96758, "is_disabled": 0, "name": "9b284bc83885b1a3850b65b84b4b8f80", "fusion_lat": 0.0, "rental_uris": {"ios": "https://dc.lft.to/lastmile_qr_scan", "android": "https://dc.lft.to/lastmile_qr_scan"}, "lon": -77.09158783333334, "type": "electric_bike"}, {"bike_id": "1dbf619aa1a28e990f8661d3e5f05311", "is_reserved": 0, "fusion_lon": 0.0, "lat": 38.90295483333333, "is_disabled": 0, "name": "1dbf619aa1a28e990f8661d3e5f05311", "fusion_lat": 0.0, "rental_uris": {"ios": "https://dc.lft.to/lastmile_qr_scan", "android": "https://dc.lft.to/lastmile_qr_scan"}, "lon": -77.02615333333334, "type": "electric_scooter"}, {"bike_id": "631c2aefdf41e1f9a769e2d26ef434b8", "is_reserved": 0, "fusion_lon": 0.0, "lat": 38.91332583333333, "is_disabled": 0, "name": "631c2aefdf41e1f9a769e2d26ef434b8", "fusion_lat": 0.0, "rental_uris": {"ios": "https://dc.lft.to/lastmile_qr_scan", "android": "https://dc.lft.to/lastmile_qr_scan"}, "lon": -77.03445483333333, "type": "electric_scooter"}, {"bike_id": "737bb06a283e8ef9a91368b2a0c34c1f", "is_reserved": 0, "fusion_lon": 0.0, "lat": 38.902339, "is_disabled": 0, "name": "737bb06a283e8ef9a91368b2a0c34c1f", "fusion_lat": 0.0, "rental_uris": {"ios": "https://dc.lft.to/lastmile_qr_scan", "android": "https://dc.lft.to/lastmile_qr_scan"}, "lon": -76.97411033333333, "type": "electric_scooter"}, {"bike_id": "c82983da2e635d0a1adb05ffebb18b2b", "is_reserved": 0, "fusion_lon": 0.0, "lat": 38.84563933333333, "is_disabled": 0, "name": "c82983da2e635d0a1adb05ffebb18b2b", "fusion_lat": 0.0, "rental_uris": {"ios": "https://dc.lft.to/lastmile_qr_scan", "android": "https://dc.lft.to/lastmile_qr_scan"}, "lon": -77.066971, "type": "electric_bike"}, {"bike_id": "9c2230c7d09d94bdffe5d8853c896fcf", "is_reserved": 0, "fusion_lon": 0.0, "lat": 38.896047, "is_disabled": 0, "name": "9c2230c7d09d94bdffe5d8853c896fcf", "fusion_lat": 0.0, "rental_uris": {"ios": "https://dc.lft.to/lastmile_qr_scan", "android": "https://dc.lft.to/lastmile_qr_scan"}, "lon": -77.044582, "type": "electric_scooter"}, {"bike_id": "e313bbaa6f3ecaadaf4927e28472dde2", "is_reserved": 0, "fusion_lon": 0.0, "lat": 38.86661483333334, "is_disabled": 0, "name": "e313bbaa6f3ecaadaf4927e28472dde2", "fusion_lat": 0.0, "rental_uris": {"ios": "https://dc.lft.to/lastmile_qr_scan", "android": "https://dc.lft.to/lastmile_qr_scan"}, "lon": -76.98904566666667, "type": "electric_scooter"}, {"bike_id": "3e40b1bdb5f0c5ae3f954bd9914b5fd7", "is_reserved": 0, "fusion_lon": 0.0, "lat": 38.876230166666666, "is_disabled": 0, "name": "3e40b1bdb5f0c5ae3f954bd9914b5fd7", "fusion_lat": 0.0, "rental_uris": {"ios": "https://dc.lft.to/lastmile_qr_scan", "android": "https://dc.lft.to/lastmile_qr_scan"}, "lon": -76.96527266666666, "type": "electric_scooter"}, {"bike_id": "d9908b55f800dd913d8a147c34907656", "is_reserved": 0, "fusion_lon": 0.0, "lat": 38.93286633333334, "is_disabled": 0, "name": "d9908b55f800dd913d8a147c34907656", "fusion_lat": 0.0, "rental_uris": {"ios": "https://dc.lft.to/lastmile_qr_scan", "android": "https://dc.lft.to/lastmile_qr_scan"}, "lon": -77.03980416666667, "type": "electric_scooter"}, {"bike_id": "44567a3f93b817c0a6489f967b775612", "is_reserved": 0, "fusion_lon": 0.0, "lat": 38.94626516666667, "is_disabled": 0, "name": "44567a3f93b817c0a6489f967b775612", "fusion_lat": 0.0, "rental_uris": {"ios": "https://dc.lft.to/lastmile_qr_scan", "android": "https://dc.lft.to/lastmile_qr_scan"}, "lon": -77.01842783333333, "type": "electric_scooter"}, {"bike_id": "212acb7e49eba987a78e843fa6010708", "is_reserved": 0, "fusion_lon": 0.0, "lat": 38.933354, "is_disabled": 0, "name": "212acb7e49eba987a78e843fa6010708", "fusion_lat": 0.0, "rental_uris": {"ios": "https://dc.lft.to/lastmile_qr_scan", "android": "https://dc.lft.to/lastmile_qr_scan"}, "lon": -77.03283733333333, "type": "electric_scooter"}, {"bike_id": "7f71fcef0f880e95763b00dc363ea021", "is_reserved": 0, "fusion_lon": 0.0, "lat": 38.90329766666667, "is_disabled": 0, "name": "7f71fcef0f880e95763b00dc363ea021", "fusion_lat": 0.0, "rental_uris": {"ios": "https://dc.lft.to/lastmile_qr_scan", "android": "https://dc.lft.to/lastmile_qr_scan"}, "lon": -76.97591916666667, "type": "electric_scooter"}, {"bike_id": "7423c0db11c6ea7d5bed17fd4cb176c9", "is_reserved": 0, "fusion_lon": 0.0, "lat": 38.86516133333333, "is_disabled": 0, "name": "7423c0db11c6ea7d5bed17fd4cb176c9", "fusion_lat": 0.0, "rental_uris": {"ios": "https://dc.lft.to/lastmile_qr_scan", "android": "https://dc.lft.to/lastmile_qr_scan"}, "lon": -76.9903555, "type": "electric_scooter"}, {"bike_id": "a745d045b6dcfbb77ca6dc249e8dbaac", "is_reserved": 0, "fusion_lon": 0.0, "lat": 38.897354, "is_disabled": 0, "name": "a745d045b6dcfbb77ca6dc249e8dbaac", "fusion_lat": 0.0, "rental_uris": {"ios": "https://dc.lft.to/lastmile_qr_scan", "android": "https://dc.lft.to/lastmile_qr_scan"}, "lon": -76.93843466666667, "type": "electric_scooter"}, {"bike_id": "e918dbf64cf1dd7f3446f8ff13d6bcec", "is_reserved": 0, "fusion_lon": 0.0, "lat": 38.904628833333334, "is_disabled": 0, "name": "e918dbf64cf1dd7f3446f8ff13d6bcec", "fusion_lat": 0.0, "rental_uris": {"ios": "https://dc.lft.to/lastmile_qr_scan", "android": "https://dc.lft.to/lastmile_qr_scan"}, "lon": -77.02982033333333, "type": "electric_scooter"}, {"bike_id": "68cc8b682e012a6afcab6f89f8542400", "is_reserved": 0, "fusion_lon": 0.0, "lat": 38.834845333333334, "is_disabled": 0, "name": "68cc8b682e012a6afcab6f89f8542400", "fusion_lat": 0.0, "rental_uris": {"ios": "https://dc.lft.to/lastmile_qr_scan", "android": "https://dc.lft.to/lastmile_qr_scan"}, "lon": -76.9858315, "type": "electric_bike"}, {"bike_id": "8246588b9238f22eb099804bd0cacfaf", "is_reserved": 0, "fusion_lon": 0.0, "lat": 38.92868566666667, "is_disabled": 0, "name": "8246588b9238f22eb099804bd0cacfaf", "fusion_lat": 0.0, "rental_uris": {"ios": "https://dc.lft.to/lastmile_qr_scan", "android": "https://dc.lft.to/lastmile_qr_scan"}, "lon": -77.01379383333334, "type": "electric_scooter"}, {"bike_id": "292f4b387844d771b96e20fae1d97844", "is_reserved": 0, "fusion_lon": 0.0, "lat": 38.915976, "is_disabled": 0, "name": "292f4b387844d771b96e20fae1d97844", "fusion_lat": 0.0, "rental_uris": {"ios": "https://dc.lft.to/lastmile_qr_scan", "android": "https://dc.lft.to/lastmile_qr_scan"}, "lon": -77.04564266666667, "type": "electric_scooter"}, {"bike_id": "c1c6b773bf141bbbec250d31ebe94d53", "is_reserved": 0, "fusion_lon": 0.0, "lat": 38.89721466666667, "is_disabled": 0, "name": "c1c6b773bf141bbbec250d31ebe94d53", "fusion_lat": 0.0, "rental_uris": {"ios": "https://dc.lft.to/lastmile_qr_scan", "android": "https://dc.lft.to/lastmile_qr_scan"}, "lon": -77.046347, "type": "electric_scooter"}, {"bike_id": "dddca3d3fb7038fb47966a351ede57b7", "is_reserved": 0, "fusion_lon": 0.0, "lat": 38.892691, "is_disabled": 0, "name": "dddca3d3fb7038fb47966a351ede57b7", "fusion_lat": 0.0, "rental_uris": {"ios": "https://dc.lft.to/lastmile_qr_scan", "android": "https://dc.lft.to/lastmile_qr_scan"}, "lon": -77.02591916666667, "type": "electric_scooter"}, {"bike_id": "adfd05135b613829764b1a649a105a8f", "is_reserved": 0, "fusion_lon": 0.0, "lat": 38.940751, "is_disabled": 0, "name": "adfd05135b613829764b1a649a105a8f", "fusion_lat": 0.0, "rental_uris": {"ios": "https://dc.lft.to/lastmile_qr_scan", "android": "https://dc.lft.to/lastmile_qr_scan"}, "lon": -77.06190566666666, "type": "electric_scooter"}, {"bike_id": "af17ef45eb26911e4f149978c1f734b2", "is_reserved": 0, "fusion_lon": 0.0, "lat": 38.8651925, "is_disabled": 0, "name": "af17ef45eb26911e4f149978c1f734b2", "fusion_lat": 0.0, "rental_uris": {"ios": "https://dc.lft.to/lastmile_qr_scan", "android": "https://dc.lft.to/lastmile_qr_scan"}, "lon": -76.99043366666666, "type": "electric_scooter"}, {"bike_id": "0fa826790dfff427375a528d6881d7b0", "is_reserved": 0, "fusion_lon": 0.0, "lat": 38.9048465, "is_disabled": 0, "name": "0fa826790dfff427375a528d6881d7b0", "fusion_lat": 0.0, "rental_uris": {"ios": "https://dc.lft.to/lastmile_qr_scan", "android": "https://dc.lft.to/lastmile_qr_scan"}, "lon": -77.04666566666667, "type": "electric_scooter"}, {"bike_id": "717ce27ea2bd21189c7ec360a0c00b1b", "is_reserved": 0, "fusion_lon": 0.0, "lat": 38.892160833333335, "is_disabled": 0, "name": "717ce27ea2bd21189c7ec360a0c00b1b", "fusion_lat": 0.0, "rental_uris": {"ios": "https://dc.lft.to/lastmile_qr_scan", "android": "https://dc.lft.to/lastmile_qr_scan"}, "lon": -77.04870383333333, "type": "electric_scooter"}, {"bike_id": "850a991f63d21fd6ed426b996fefa940", "is_reserved": 0, "fusion_lon": 0.0, "lat": 38.85175683333333, "is_disabled": 0, "name": "850a991f63d21fd6ed426b996fefa940", "fusion_lat": 0.0, "rental_uris": {"ios": "https://dc.lft.to/lastmile_qr_scan", "android": "https://dc.lft.to/lastmile_qr_scan"}, "lon": -76.99583716666666, "type": "electric_scooter"}, {"bike_id": "184c6b8942d299fb2b1c11a5f1f6308b", "is_reserved": 0, "fusion_lon": 0.0, "lat": 38.883287333333335, "is_disabled": 0, "name": "184c6b8942d299fb2b1c11a5f1f6308b", "fusion_lat": 0.0, "rental_uris": {"ios": "https://dc.lft.to/lastmile_qr_scan", "android": "https://dc.lft.to/lastmile_qr_scan"}, "lon": -77.0052285, "type": "electric_scooter"}, {"bike_id": "87f1017fe3262a732bec7ae890cee0c0", "is_reserved": 0, "fusion_lon": 0.0, "lat": 38.88488316666667, "is_disabled": 0, "name": "87f1017fe3262a732bec7ae890cee0c0", "fusion_lat": 0.0, "rental_uris": {"ios": "https://dc.lft.to/lastmile_qr_scan", "android": "https://dc.lft.to/lastmile_qr_scan"}, "lon": -77.007238, "type": "electric_scooter"}, {"bike_id": "d70497a6d263bd4d8269675b74795a37", "is_reserved": 0, "fusion_lon": 0.0, "lat": 38.933969, "is_disabled": 0, "name": "d70497a6d263bd4d8269675b74795a37", "fusion_lat": 0.0, "rental_uris": {"ios": "https://dc.lft.to/lastmile_qr_scan", "android": "https://dc.lft.to/lastmile_qr_scan"}, "lon": -77.03885683333333, "type": "electric_scooter"}, {"bike_id": "9c12aa4fb07beb9a013cc9bde2e1693e", "is_reserved": 0, "fusion_lon": 0.0, "lat": 38.930800833333336, "is_disabled": 0, "name": "9c12aa4fb07beb9a013cc9bde2e1693e", "fusion_lat": 0.0, "rental_uris": {"ios": "https://dc.lft.to/lastmile_qr_scan", "android": "https://dc.lft.to/lastmile_qr_scan"}, "lon": -77.02659383333334, "type": "electric_scooter"}, {"bike_id": "091159e31787bb056d2cc025de29d480", "is_reserved": 0, "fusion_lon": 0.0, "lat": 38.959102666666666, "is_disabled": 0, "name": "091159e31787bb056d2cc025de29d480", "fusion_lat": 0.0, "rental_uris": {"ios": "https://dc.lft.to/lastmile_qr_scan", "android": "https://dc.lft.to/lastmile_qr_scan"}, "lon": -77.080781, "type": "electric_scooter"}, {"bike_id": "23a9029f4d5fdb008a1bcef4baed2d33", "is_reserved": 0, "fusion_lon": 0.0, "lat": 38.91807033333333, "is_disabled": 0, "name": "23a9029f4d5fdb008a1bcef4baed2d33", "fusion_lat": 0.0, "rental_uris": {"ios": "https://dc.lft.to/lastmile_qr_scan", "android": "https://dc.lft.to/lastmile_qr_scan"}, "lon": -77.03437283333334, "type": "electric_scooter"}, {"bike_id": "079483e213c7f5ed57f30c231a786627", "is_reserved": 0, "fusion_lon": 0.0, "lat": 38.92963983333333, "is_disabled": 0, "name": "079483e213c7f5ed57f30c231a786627", "fusion_lat": 0.0, "rental_uris": {"ios": "https://dc.lft.to/lastmile_qr_scan", "android": "https://dc.lft.to/lastmile_qr_scan"}, "lon": -77.05496416666666, "type": "electric_scooter"}, {"bike_id": "83c0f6a73e09f6b2b6b8eaba7e85dad6", "is_reserved": 0, "fusion_lon": 0.0, "lat": 38.88739, "is_disabled": 0, "name": "83c0f6a73e09f6b2b6b8eaba7e85dad6", "fusion_lat": 0.0, "rental_uris": {"ios": "https://dc.lft.to/lastmile_qr_scan", "android": "https://dc.lft.to/lastmile_qr_scan"}, "lon": -77.025686, "type": "electric_scooter"}, {"bike_id": "1436fab656e2db7e81d398b1fc952b19", "is_reserved": 0, "fusion_lon": 0.0, "lat": 38.92263966666667, "is_disabled": 0, "name": "1436fab656e2db7e81d398b1fc952b19", "fusion_lat": 0.0, "rental_uris": {"ios": "https://dc.lft.to/lastmile_qr_scan", "android": "https://dc.lft.to/lastmile_qr_scan"}, "lon": -77.04217033333333, "type": "electric_scooter"}, {"bike_id": "6455c467919cb7dfc6db990987dacef9", "is_reserved": 0, "fusion_lon": 0.0, "lat": 38.906537, "is_disabled": 0, "name": "6455c467919cb7dfc6db990987dacef9", "fusion_lat": 0.0, "rental_uris": {"ios": "https://dc.lft.to/lastmile_qr_scan", "android": "https://dc.lft.to/lastmile_qr_scan"}, "lon": -77.03853666666667, "type": "electric_scooter"}, {"bike_id": "5bb23ea8c1b8eb0410044c78f007fef2", "is_reserved": 0, "fusion_lon": 0.0, "lat": 38.90532833333333, "is_disabled": 0, "name": "5bb23ea8c1b8eb0410044c78f007fef2", "fusion_lat": 0.0, "rental_uris": {"ios": "https://dc.lft.to/lastmile_qr_scan", "android": "https://dc.lft.to/lastmile_qr_scan"}, "lon": -77.002123, "type": "electric_bike"}, {"bike_id": "21be2491f8098c17902850e1b1b10797", "is_reserved": 0, "fusion_lon": 0.0, "lat": 38.938888666666664, "is_disabled": 0, "name": "21be2491f8098c17902850e1b1b10797", "fusion_lat": 0.0, "rental_uris": {"ios": "https://dc.lft.to/lastmile_qr_scan", "android": "https://dc.lft.to/lastmile_qr_scan"}, "lon": -77.02968466666667, "type": "electric_scooter"}, {"bike_id": "3d06cec422a026c44a1626241d8061dc", "is_reserved": 0, "fusion_lon": 0.0, "lat": 38.908671, "is_disabled": 0, "name": "3d06cec422a026c44a1626241d8061dc", "fusion_lat": 0.0, "rental_uris": {"ios": "https://dc.lft.to/lastmile_qr_scan", "android": "https://dc.lft.to/lastmile_qr_scan"}, "lon": -77.04262433333334, "type": "electric_scooter"}, {"bike_id": "7823b0981b289273cae902048b14358d", "is_reserved": 0, "fusion_lon": 0.0, "lat": 38.922398, "is_disabled": 0, "name": "7823b0981b289273cae902048b14358d", "fusion_lat": 0.0, "rental_uris": {"ios": "https://dc.lft.to/lastmile_qr_scan", "android": "https://dc.lft.to/lastmile_qr_scan"}, "lon": -77.03078416666666, "type": "electric_scooter"}, {"bike_id": "64147d35889d7a70100359088e5f6124", "is_reserved": 0, "fusion_lon": 0.0, "lat": 39.01592483333334, "is_disabled": 0, "name": "64147d35889d7a70100359088e5f6124", "fusion_lat": 0.0, "rental_uris": {"ios": "https://dc.lft.to/lastmile_qr_scan", "android": "https://dc.lft.to/lastmile_qr_scan"}, "lon": -77.04429066666667, "type": "electric_bike"}, {"bike_id": "b219fa7f19675e272106e247a2c3ae0c", "is_reserved": 0, "fusion_lon": 0.0, "lat": 38.906599666666665, "is_disabled": 0, "name": "b219fa7f19675e272106e247a2c3ae0c", "fusion_lat": 0.0, "rental_uris": {"ios": "https://dc.lft.to/lastmile_qr_scan", "android": "https://dc.lft.to/lastmile_qr_scan"}, "lon": -77.03855366666667, "type": "electric_scooter"}, {"bike_id": "f20b6f110c3390fedb1a85f2f9b64867", "is_reserved": 0, "fusion_lon": 0.0, "lat": 38.9204305, "is_disabled": 0, "name": "f20b6f110c3390fedb1a85f2f9b64867", "fusion_lat": 0.0, "rental_uris": {"ios": "https://dc.lft.to/lastmile_qr_scan", "android": "https://dc.lft.to/lastmile_qr_scan"}, "lon": -77.0345985, "type": "electric_scooter"}, {"bike_id": "4ac65bc4ade5568e6cb288b4aa9b3d63", "is_reserved": 0, "fusion_lon": 0.0, "lat": 38.90551633333333, "is_disabled": 0, "name": "4ac65bc4ade5568e6cb288b4aa9b3d63", "fusion_lat": 0.0, "rental_uris": {"ios": "https://dc.lft.to/lastmile_qr_scan", "android": "https://dc.lft.to/lastmile_qr_scan"}, "lon": -77.03452983333334, "type": "electric_scooter"}, {"bike_id": "e736d1f735a2a04a1ddac6a504132283", "is_reserved": 0, "fusion_lon": 0.0, "lat": 38.902962, "is_disabled": 0, "name": "e736d1f735a2a04a1ddac6a504132283", "fusion_lat": 0.0, "rental_uris": {"ios": "https://dc.lft.to/lastmile_qr_scan", "android": "https://dc.lft.to/lastmile_qr_scan"}, "lon": -76.9444655, "type": "electric_bike"}, {"bike_id": "297c7a6e971321a3cae9ded4fbd0399a", "is_reserved": 0, "fusion_lon": 0.0, "lat": 38.900870833333336, "is_disabled": 0, "name": "297c7a6e971321a3cae9ded4fbd0399a", "fusion_lat": 0.0, "rental_uris": {"ios": "https://dc.lft.to/lastmile_qr_scan", "android": "https://dc.lft.to/lastmile_qr_scan"}, "lon": -77.047694, "type": "electric_scooter"}, {"bike_id": "bb1f42f4ac19d4897acb4da3a1c0fbc3", "is_reserved": 0, "fusion_lon": 0.0, "lat": 38.944344, "is_disabled": 0, "name": "bb1f42f4ac19d4897acb4da3a1c0fbc3", "fusion_lat": 0.0, "rental_uris": {"ios": "https://dc.lft.to/lastmile_qr_scan", "android": "https://dc.lft.to/lastmile_qr_scan"}, "lon": -77.0640265, "type": "electric_scooter"}, {"bike_id": "b8a5245d2612840964c137866929e5ba", "is_reserved": 0, "fusion_lon": 0.0, "lat": 38.88237516666667, "is_disabled": 0, "name": "b8a5245d2612840964c137866929e5ba", "fusion_lat": 0.0, "rental_uris": {"ios": "https://dc.lft.to/lastmile_qr_scan", "android": "https://dc.lft.to/lastmile_qr_scan"}, "lon": -76.99005316666667, "type": "electric_scooter"}, {"bike_id": "15c265919d07c91ce1be0505d5f39c8e", "is_reserved": 0, "fusion_lon": 0.0, "lat": 38.86172783333333, "is_disabled": 0, "name": "15c265919d07c91ce1be0505d5f39c8e", "fusion_lat": 0.0, "rental_uris": {"ios": "https://dc.lft.to/lastmile_qr_scan", "android": "https://dc.lft.to/lastmile_qr_scan"}, "lon": -76.96913966666666, "type": "electric_scooter"}, {"bike_id": "e8dd081c6336504e03f189b715c6980e", "is_reserved": 0, "fusion_lon": 0.0, "lat": 38.844217666666665, "is_disabled": 0, "name": "e8dd081c6336504e03f189b715c6980e", "fusion_lat": 0.0, "rental_uris": {"ios": "https://dc.lft.to/lastmile_qr_scan", "android": "https://dc.lft.to/lastmile_qr_scan"}, "lon": -76.9977895, "type": "electric_scooter"}, {"bike_id": "48a1000e7085950f79cefc970baae0c1", "is_reserved": 0, "fusion_lon": 0.0, "lat": 38.919895, "is_disabled": 0, "name": "48a1000e7085950f79cefc970baae0c1", "fusion_lat": 0.0, "rental_uris": {"ios": "https://dc.lft.to/lastmile_qr_scan", "android": "https://dc.lft.to/lastmile_qr_scan"}, "lon": -77.07108683333334, "type": "electric_bike"}, {"bike_id": "607b937016cbef555c6258405c8da3c0", "is_reserved": 0, "fusion_lon": 0.0, "lat": 38.865641833333335, "is_disabled": 0, "name": "607b937016cbef555c6258405c8da3c0", "fusion_lat": 0.0, "rental_uris": {"ios": "https://dc.lft.to/lastmile_qr_scan", "android": "https://dc.lft.to/lastmile_qr_scan"}, "lon": -76.9895345, "type": "electric_scooter"}, {"bike_id": "51a34efc32be0720a1c7456af839ea71", "is_reserved": 0, "fusion_lon": 0.0, "lat": 38.89219083333333, "is_disabled": 0, "name": "51a34efc32be0720a1c7456af839ea71", "fusion_lat": 0.0, "rental_uris": {"ios": "https://dc.lft.to/lastmile_qr_scan", "android": "https://dc.lft.to/lastmile_qr_scan"}, "lon": -77.04514316666666, "type": "electric_scooter"}, {"bike_id": "798026d52a88e6fbf582d0d685cb2c2b", "is_reserved": 0, "fusion_lon": 0.0, "lat": 38.898321, "is_disabled": 0, "name": "798026d52a88e6fbf582d0d685cb2c2b", "fusion_lat": 0.0, "rental_uris": {"ios": "https://dc.lft.to/lastmile_qr_scan", "android": "https://dc.lft.to/lastmile_qr_scan"}, "lon": -76.94633916666666, "type": "electric_scooter"}, {"bike_id": "ee11a987ff32710bd5588a9d86e8812b", "is_reserved": 0, "fusion_lon": 0.0, "lat": 38.91251883333334, "is_disabled": 0, "name": "ee11a987ff32710bd5588a9d86e8812b", "fusion_lat": 0.0, "rental_uris": {"ios": "https://dc.lft.to/lastmile_qr_scan", "android": "https://dc.lft.to/lastmile_qr_scan"}, "lon": -77.01442, "type": "electric_scooter"}, {"bike_id": "d017ec36db069148e00d84799511cfe7", "is_reserved": 0, "fusion_lon": 0.0, "lat": 38.91720516666667, "is_disabled": 0, "name": "d017ec36db069148e00d84799511cfe7", "fusion_lat": 0.0, "rental_uris": {"ios": "https://dc.lft.to/lastmile_qr_scan", "android": "https://dc.lft.to/lastmile_qr_scan"}, "lon": -77.04083333333334, "type": "electric_scooter"}, {"bike_id": "94eab17d400ea19bf8cb150f8d29548a", "is_reserved": 0, "fusion_lon": 0.0, "lat": 38.906073666666664, "is_disabled": 0, "name": "94eab17d400ea19bf8cb150f8d29548a", "fusion_lat": 0.0, "rental_uris": {"ios": "https://dc.lft.to/lastmile_qr_scan", "android": "https://dc.lft.to/lastmile_qr_scan"}, "lon": -77.06305433333333, "type": "electric_scooter"}, {"bike_id": "a1a9a57c9b6702cd758ad9205a9deba2", "is_reserved": 0, "fusion_lon": 0.0, "lat": 38.9139305, "is_disabled": 0, "name": "a1a9a57c9b6702cd758ad9205a9deba2", "fusion_lat": 0.0, "rental_uris": {"ios": "https://dc.lft.to/lastmile_qr_scan", "android": "https://dc.lft.to/lastmile_qr_scan"}, "lon": -77.01705633333333, "type": "electric_scooter"}, {"bike_id": "a6dcdb2d98cef99824b411a325ba2013", "is_reserved": 0, "fusion_lon": 0.0, "lat": 38.9732105, "is_disabled": 0, "name": "a6dcdb2d98cef99824b411a325ba2013", "fusion_lat": 0.0, "rental_uris": {"ios": "https://dc.lft.to/lastmile_qr_scan", "android": "https://dc.lft.to/lastmile_qr_scan"}, "lon": -77.02145866666666, "type": "electric_bike"}, {"bike_id": "19a5713a7f45519ffa960f46e70497ca", "is_reserved": 0, "fusion_lon": 0.0, "lat": 38.898273333333336, "is_disabled": 0, "name": "19a5713a7f45519ffa960f46e70497ca", "fusion_lat": 0.0, "rental_uris": {"ios": "https://dc.lft.to/lastmile_qr_scan", "android": "https://dc.lft.to/lastmile_qr_scan"}, "lon": -77.033435, "type": "electric_scooter"}, {"bike_id": "30eb4e565632457cdf8b2d4910c8f4e3", "is_reserved": 0, "fusion_lon": 0.0, "lat": 38.902665666666664, "is_disabled": 0, "name": "30eb4e565632457cdf8b2d4910c8f4e3", "fusion_lat": 0.0, "rental_uris": {"ios": "https://dc.lft.to/lastmile_qr_scan", "android": "https://dc.lft.to/lastmile_qr_scan"}, "lon": -77.03144716666667, "type": "electric_scooter"}, {"bike_id": "bb7893c89b1a91ffdd2f17eccf90ac79", "is_reserved": 0, "fusion_lon": 0.0, "lat": 38.91694916666667, "is_disabled": 0, "name": "bb7893c89b1a91ffdd2f17eccf90ac79", "fusion_lat": 0.0, "rental_uris": {"ios": "https://dc.lft.to/lastmile_qr_scan", "android": "https://dc.lft.to/lastmile_qr_scan"}, "lon": -77.0224535, "type": "electric_scooter"}, {"bike_id": "f4f9c11dcaf6e9297038e0fd389c7f3c", "is_reserved": 0, "fusion_lon": 0.0, "lat": 38.89718083333333, "is_disabled": 0, "name": "f4f9c11dcaf6e9297038e0fd389c7f3c", "fusion_lat": 0.0, "rental_uris": {"ios": "https://dc.lft.to/lastmile_qr_scan", "android": "https://dc.lft.to/lastmile_qr_scan"}, "lon": -77.02704916666667, "type": "electric_scooter"}, {"bike_id": "3da4383112aa62bb7c75b4c6811d6814", "is_reserved": 0, "fusion_lon": 0.0, "lat": 38.9225135, "is_disabled": 0, "name": "3da4383112aa62bb7c75b4c6811d6814", "fusion_lat": 0.0, "rental_uris": {"ios": "https://dc.lft.to/lastmile_qr_scan", "android": "https://dc.lft.to/lastmile_qr_scan"}, "lon": -77.02972983333333, "type": "electric_scooter"}, {"bike_id": "2b82e3d810932754937a4e51f9137967", "is_reserved": 0, "fusion_lon": 0.0, "lat": 38.945539333333336, "is_disabled": 0, "name": "2b82e3d810932754937a4e51f9137967", "fusion_lat": 0.0, "rental_uris": {"ios": "https://dc.lft.to/lastmile_qr_scan", "android": "https://dc.lft.to/lastmile_qr_scan"}, "lon": -76.89540116666667, "type": "electric_bike"}, {"bike_id": "4c23839c248770694cd4fa298e4c4a71", "is_reserved": 0, "fusion_lon": 0.0, "lat": 38.914905833333336, "is_disabled": 0, "name": "4c23839c248770694cd4fa298e4c4a71", "fusion_lat": 0.0, "rental_uris": {"ios": "https://dc.lft.to/lastmile_qr_scan", "android": "https://dc.lft.to/lastmile_qr_scan"}, "lon": -77.01856483333333, "type": "electric_scooter"}, {"bike_id": "e24d65471f9a6aac9505b2b51c7abded", "is_reserved": 0, "fusion_lon": 0.0, "lat": 38.892207666666664, "is_disabled": 0, "name": "e24d65471f9a6aac9505b2b51c7abded", "fusion_lat": 0.0, "rental_uris": {"ios": "https://dc.lft.to/lastmile_qr_scan", "android": "https://dc.lft.to/lastmile_qr_scan"}, "lon": -77.04363583333334, "type": "electric_scooter"}, {"bike_id": "09a502723c7a58d6c853da443cbbbf24", "is_reserved": 0, "fusion_lon": 0.0, "lat": 38.90013316666667, "is_disabled": 0, "name": "09a502723c7a58d6c853da443cbbbf24", "fusion_lat": 0.0, "rental_uris": {"ios": "https://dc.lft.to/lastmile_qr_scan", "android": "https://dc.lft.to/lastmile_qr_scan"}, "lon": -77.04667283333333, "type": "electric_scooter"}, {"bike_id": "70f12ebea58d4e2735b2144ee442fc4f", "is_reserved": 0, "fusion_lon": 0.0, "lat": 38.9012655, "is_disabled": 0, "name": "70f12ebea58d4e2735b2144ee442fc4f", "fusion_lat": 0.0, "rental_uris": {"ios": "https://dc.lft.to/lastmile_qr_scan", "android": "https://dc.lft.to/lastmile_qr_scan"}, "lon": -77.01781883333334, "type": "electric_bike"}, {"bike_id": "9da880d40c040c89b3b8c78c21d1b7e7", "is_reserved": 0, "fusion_lon": 0.0, "lat": 38.9027695, "is_disabled": 0, "name": "9da880d40c040c89b3b8c78c21d1b7e7", "fusion_lat": 0.0, "rental_uris": {"ios": "https://dc.lft.to/lastmile_qr_scan", "android": "https://dc.lft.to/lastmile_qr_scan"}, "lon": -77.05923166666666, "type": "electric_scooter"}, {"bike_id": "d19f615ca8b7bc8673200117d1fdcb0d", "is_reserved": 0, "fusion_lon": 0.0, "lat": 38.927854333333336, "is_disabled": 0, "name": "d19f615ca8b7bc8673200117d1fdcb0d", "fusion_lat": 0.0, "rental_uris": {"ios": "https://dc.lft.to/lastmile_qr_scan", "android": "https://dc.lft.to/lastmile_qr_scan"}, "lon": -77.032037, "type": "electric_scooter"}, {"bike_id": "d603c686630743a8916217c5a771607c", "is_reserved": 0, "fusion_lon": 0.0, "lat": 38.929024, "is_disabled": 0, "name": "d603c686630743a8916217c5a771607c", "fusion_lat": 0.0, "rental_uris": {"ios": "https://dc.lft.to/lastmile_qr_scan", "android": "https://dc.lft.to/lastmile_qr_scan"}, "lon": -77.03187066666666, "type": "electric_scooter"}, {"bike_id": "7dc6cfc53a2f885a03c9c90a43aeeba9", "is_reserved": 0, "fusion_lon": 0.0, "lat": 38.895577833333334, "is_disabled": 0, "name": "7dc6cfc53a2f885a03c9c90a43aeeba9", "fusion_lat": 0.0, "rental_uris": {"ios": "https://dc.lft.to/lastmile_qr_scan", "android": "https://dc.lft.to/lastmile_qr_scan"}, "lon": -77.04671633333334, "type": "electric_scooter"},