{"data": {"bikes": [{"lon": -77.04168433333334, "name": "cf216a190f9e3eb5cc4d4703856b1a0d", "is_disabled": 0, "type": "electric_scooter", "is_reserved": 0, "fusion_lon": 0.0, "lat": 38.91654333333334, "rental_uris": {"ios": "https://dc.lft.to/lastmile_qr_scan", "android": "https://dc.lft.to/lastmile_qr_scan"}, "bike_id": "cf216a190f9e3eb5cc4d4703856b1a0d", "fusion_lat": 0.0}, {"lon": -77.0193705, "name": "3f83575f792a4a2490d457d01428974b", "is_disabled": 0, "type": "electric_scooter", "is_reserved": 0, "fusion_lon": 0.0, "lat": 38.9240905, "rental_uris": {"ios": "https://dc.lft.to/lastmile_qr_scan", "android": "https://dc.lft.to/lastmile_qr_scan"}, "bike_id": "3f83575f792a4a2490d457d01428974b", "fusion_lat": 0.0}, {"lon": -77.0434955, "name": "4f0ecb085675671cf479a9e44afb2ea6", "is_disabled": 0, "type": "electric_scooter", "is_reserved": 0, "fusion_lon": 0.0, "lat": 38.905527666666664, "rental_uris": {"ios": "https://dc.lft.to/lastmile_qr_scan", "android": "https://dc.lft.to/lastmile_qr_scan"}, "bike_id": "4f0ecb085675671cf479a9e44afb2ea6", "fusion_lat": 0.0}, {"lon": -76.9321295, "name": "a3e6ceef95b13e66148c682594f56545", "is_disabled": 0, "type": "electric_scooter", "is_reserved": 0, "fusion_lon": 0.0, "lat": 38.8966985, "rental_uris": {"ios": "https://dc.lft.to/lastmile_qr_scan", "android": "https://dc.lft.to/lastmile_qr_scan"}, "bike_id": "a3e6ceef95b13e66148c682594f56545", "fusion_lat": 0.0}, {"lon": -77.004141, "name": "933eeae179922fda84332647603da0df", "is_disabled": 0, "type": "electric_bike", "is_reserved": 0, "fusion_lon": 0.0, "lat": 38.98533183333333, "rental_uris": {"ios": "https://dc.lft.to/lastmile_qr_scan", "android": "https://dc.lft.to/lastmile_qr_scan"}, "bike_id": "933eeae179922fda84332647603da0df", "fusion_lat": 0.0}, {"lon": -77.0490635, "name": "211e6b66d6a0087fb3ed1fa67dcaf830", "is_disabled": 0, "type": "electric_scooter", "is_reserved": 0, "fusion_lon": 0.0, "lat": 38.91592416666667, "rental_uris": {"ios": "https://dc.lft.to/lastmile_qr_scan", "android": "https://dc.lft.to/lastmile_qr_scan"}, "bike_id": "211e6b66d6a0087fb3ed1fa67dcaf830", "fusion_lat": 0.0}, {"lon": -77.04592283333334, "name": "ba6a67765e15ccd6a65e21d22b9fbfa5", "is_disabled": 0, "type": "electric_scooter", "is_reserved": 0, "fusion_lon": 0.0, "lat": 38.900634, "rental_uris": {"ios": "https://dc.lft.to/lastmile_qr_scan", "android": "https://dc.lft.to/lastmile_qr_scan"}, "bike_id": "ba6a67765e15ccd6a65e21d22b9fbfa5", "fusion_lat": 0.0}, {"lon": -77.01873633333334, "name": "41abfcb16ee991f52233e19464682b3c", "is_disabled": 0, "type": "electric_scooter", "is_reserved": 0, "fusion_lon": 0.0, "lat": 38.93054883333333, "rental_uris": {"ios": "https://dc.lft.to/lastmile_qr_scan", "android": "https://dc.lft.to/lastmile_qr_scan"}, "bike_id": "41abfcb16ee991f52233e19464682b3c", "fusion_lat": 0.0}, {"lon": -77.025314, "name": "4ed121e55a13642b44991f71a62faaf1", "is_disabled": 0, "type": "electric_scooter", "is_reserved": 0, "fusion_lon": 0.0, "lat": 38.92489883333333, "rental_uris": {"ios": "https://dc.lft.to/lastmile_qr_scan", "android": "https://dc.lft.to/lastmile_qr_scan"}, "bike_id": "4ed121e55a13642b44991f71a62faaf1", "fusion_lat": 0.0}, {"lon": -76.988601, "name": "1f404e6f494d5a15a5d6f024d90358c2", "is_disabled": 0, "type": "electric_scooter", "is_reserved": 0, "fusion_lon": 0.0, "lat": 38.900286666666666, "rental_uris": {"ios": "https://dc.lft.to/lastmile_qr_scan", "android": "https://dc.lft.to/lastmile_qr_scan"}, "bike_id": "1f404e6f494d5a15a5d6f024d90358c2", "fusion_lat": 0.0}, {"lon": -76.99104033333333, "name": "94287bf675cf995d6afa051acea909c3", "is_disabled": 0, "type": "electric_scooter", "is_reserved": 0, "fusion_lon": 0.0, "lat": 38.863258, "rental_uris": {"ios": "https://dc.lft.to/lastmile_qr_scan", "android": "https://dc.lft.to/lastmile_qr_scan"}, "bike_id": "94287bf675cf995d6afa051acea909c3", "fusion_lat": 0.0}, {"lon": -77.01275816666667, "name": "d84d485c395956e3db54abe084c51a6c", "is_disabled": 0, "type": "electric_scooter", "is_reserved": 0, "fusion_lon": 0.0, "lat": 38.909516833333335, "rental_uris": {"ios": "https://dc.lft.to/lastmile_qr_scan", "android": "https://dc.lft.to/lastmile_qr_scan"}, "bike_id": "d84d485c395956e3db54abe084c51a6c", "fusion_lat": 0.0}, {"lon": -77.018801, "name": "8a9037330ddd81aaf37a80ded7e1c841", "is_disabled": 0, "type": "electric_scooter", "is_reserved": 0, "fusion_lon": 0.0, "lat": 38.9193655, "rental_uris": {"ios": "https://dc.lft.to/lastmile_qr_scan", "android": "https://dc.lft.to/lastmile_qr_scan"}, "bike_id": "8a9037330ddd81aaf37a80ded7e1c841", "fusion_lat": 0.0}, {"lon": -77.02596416666667, "name": "62815cbdb1fbe57e8e1dae08cd92aa01", "is_disabled": 0, "type": "electric_scooter", "is_reserved": 0, "fusion_lon": 0.0, "lat": 38.91959133333334, "rental_uris": {"ios": "https://dc.lft.to/lastmile_qr_scan", "android": "https://dc.lft.to/lastmile_qr_scan"}, "bike_id": "62815cbdb1fbe57e8e1dae08cd92aa01", "fusion_lat": 0.0}, {"lon": -77.018598, "name": "505d70f988a231ff1ef368b17268f65c", "is_disabled": 0, "type": "electric_scooter", "is_reserved": 0, "fusion_lon": 0.0, "lat": 38.94920233333333, "rental_uris": {"ios": "https://dc.lft.to/lastmile_qr_scan", "android": "https://dc.lft.to/lastmile_qr_scan"}, "bike_id": "505d70f988a231ff1ef368b17268f65c", "fusion_lat": 0.0}, {"lon": -76.98571066666666, "name": "cba0e26e4c1826fdf9d5d3f2b861f763", "is_disabled": 0, "type": "electric_scooter", "is_reserved": 0, "fusion_lon": 0.0, "lat": 38.896227833333334, "rental_uris": {"ios": "https://dc.lft.to/lastmile_qr_scan", "android": "https://dc.lft.to/lastmile_qr_scan"}, "bike_id": "cba0e26e4c1826fdf9d5d3f2b861f763", "fusion_lat": 0.0}, {"lon": -76.98363866666666, "name": "c8ddada0d4abeac017d0ed8ae4bf4c22", "is_disabled": 0, "type": "electric_scooter", "is_reserved": 0, "fusion_lon": 0.0, "lat": 38.89162783333333, "rental_uris": {"ios": "https://dc.lft.to/lastmile_qr_scan", "android": "https://dc.lft.to/lastmile_qr_scan"}, "bike_id": "c8ddada0d4abeac017d0ed8ae4bf4c22", "fusion_lat": 0.0}, {"lon": -77.0270605, "name": "7000f7106e077bf7854369435b428023", "is_disabled": 0, "type": "electric_scooter", "is_reserved": 0, "fusion_lon": 0.0, "lat": 38.927695, "rental_uris": {"ios": "https://dc.lft.to/lastmile_qr_scan", "android": "https://dc.lft.to/lastmile_qr_scan"}, "bike_id": "7000f7106e077bf7854369435b428023", "fusion_lat": 0.0}, {"lon": -77.023176, "name": "0e97e7d5f09cf708b830aae17e5f4a4d", "is_disabled": 0, "type": "electric_scooter", "is_reserved": 0, "fusion_lon": 0.0, "lat": 38.920725166666664, "rental_uris": {"ios": "https://dc.lft.to/lastmile_qr_scan", "android": "https://dc.lft.to/lastmile_qr_scan"}, "bike_id": "0e97e7d5f09cf708b830aae17e5f4a4d", "fusion_lat": 0.0}, {"lon": -77.0006585, "name": "29d7cbde2192efcbb01c92fedeb05b56", "is_disabled": 0, "type": "electric_scooter", "is_reserved": 0, "fusion_lon": 0.0, "lat": 38.8750515, "rental_uris": {"ios": "https://dc.lft.to/lastmile_qr_scan", "android": "https://dc.lft.to/lastmile_qr_scan"}, "bike_id": "29d7cbde2192efcbb01c92fedeb05b56", "fusion_lat": 0.0}, {"lon": -77.04072166666667, "name": "02b3dfa2a2b446b3fb41210c1cc7ee8c", "is_disabled": 0, "type": "electric_scooter", "is_reserved": 0, "fusion_lon": 0.0, "lat": 38.9052065, "rental_uris": {"ios": "https://dc.lft.to/lastmile_qr_scan", "android": "https://dc.lft.to/lastmile_qr_scan"}, "bike_id": "02b3dfa2a2b446b3fb41210c1cc7ee8c", "fusion_lat": 0.0}, {"lon": -76.97564483333333, "name": "3a1d83fcc7defb1124edc1a8e07d49e8", "is_disabled": 0, "type": "electric_bike", "is_reserved": 0, "fusion_lon": 0.0, "lat": 38.872670666666664, "rental_uris": {"ios": "https://dc.lft.to/lastmile_qr_scan", "android": "https://dc.lft.to/lastmile_qr_scan"}, "bike_id": "3a1d83fcc7defb1124edc1a8e07d49e8", "fusion_lat": 0.0}, {"lon": -76.993826, "name": "7dd8116c95c33bef1f6db09c68b9addc", "is_disabled": 0, "type": "electric_scooter", "is_reserved": 0, "fusion_lon": 0.0, "lat": 38.8933895, "rental_uris": {"ios": "https://dc.lft.to/lastmile_qr_scan", "android": "https://dc.lft.to/lastmile_qr_scan"}, "bike_id": "7dd8116c95c33bef1f6db09c68b9addc", "fusion_lat": 0.0}, {"lon": -77.0275965, "name": "9b72ead6ef21412fb49751aa7ad5910d", "is_disabled": 0, "type": "electric_scooter", "is_reserved": 0, "fusion_lon": 0.0, "lat": 38.9258285, "rental_uris": {"ios": "https://dc.lft.to/lastmile_qr_scan", "android": "https://dc.lft.to/lastmile_qr_scan"}, "bike_id": "9b72ead6ef21412fb49751aa7ad5910d", "fusion_lat": 0.0}, {"lon": -77.03706683333333, "name": "6ca5f01ff22e408b408af472f63ef5fc", "is_disabled": 0, "type": "electric_scooter", "is_reserved": 0, "fusion_lon": 0.0, "lat": 38.93061383333333, "rental_uris": {"ios": "https://dc.lft.to/lastmile_qr_scan", "android": "https://dc.lft.to/lastmile_qr_scan"}, "bike_id": "6ca5f01ff22e408b408af472f63ef5fc", "fusion_lat": 0.0}, {"lon": -76.98724, "name": "9f03d5a0b47a1aa36571884a58e7f9b8", "is_disabled": 0, "type": "electric_bike", "is_reserved": 0, "fusion_lon": 0.0, "lat": 38.863341166666665, "rental_uris": {"ios": "https://dc.lft.to/lastmile_qr_scan", "android": "https://dc.lft.to/lastmile_qr_scan"}, "bike_id": "9f03d5a0b47a1aa36571884a58e7f9b8", "fusion_lat": 0.0}, {"lon": -77.01268833333333, "name": "b1008c36fc728ddee3ab8d76b813d3e1", "is_disabled": 0, "type": "electric_scooter", "is_reserved": 0, "fusion_lon": 0.0, "lat": 38.864595666666666, "rental_uris": {"ios": "https://dc.lft.to/lastmile_qr_scan", "android": "https://dc.lft.to/lastmile_qr_scan"}, "bike_id": "b1008c36fc728ddee3ab8d76b813d3e1", "fusion_lat": 0.0}, {"lon": -77.03222683333334, "name": "52f2b59fe8afa29c9f15e053229d26ba", "is_disabled": 0, "type": "electric_scooter", "is_reserved": 0, "fusion_lon": 0.0, "lat": 38.916347333333334, "rental_uris": {"ios": "https://dc.lft.to/lastmile_qr_scan", "android": "https://dc.lft.to/lastmile_qr_scan"}, "bike_id": "52f2b59fe8afa29c9f15e053229d26ba", "fusion_lat": 0.0}, {"lon": -77.00359916666666, "name": "5b3eec5aa9c9df7428742cf90ed38bf1", "is_disabled": 0, "type": "electric_scooter", "is_reserved": 0, "fusion_lon": 0.0, "lat": 38.9176755, "rental_uris": {"ios": "https://dc.lft.to/lastmile_qr_scan", "android": "https://dc.lft.to/lastmile_qr_scan"}, "bike_id": "5b3eec5aa9c9df7428742cf90ed38bf1", "fusion_lat": 0.0}, {"lon": -77.01851, "name": "d405a93641a1c4c36ed5a25c0abe7112", "is_disabled": 0, "type": "electric_scooter", "is_reserved": 0, "fusion_lon": 0.0, "lat": 38.9488925, "rental_uris": {"ios": "https://dc.lft.to/lastmile_qr_scan", "android": "https://dc.lft.to/lastmile_qr_scan"}, "bike_id": "d405a93641a1c4c36ed5a25c0abe7112", "fusion_lat": 0.0}, {"lon": -76.9910075, "name": "a8074aa8838a1ca3a1b0b4e75796ab0c", "is_disabled": 0, "type": "electric_bike", "is_reserved": 0, "fusion_lon": 0.0, "lat": 38.804825666666666, "rental_uris": {"ios": "https://dc.lft.to/lastmile_qr_scan", "android": "https://dc.lft.to/lastmile_qr_scan"}, "bike_id": "a8074aa8838a1ca3a1b0b4e75796ab0c", "fusion_lat": 0.0}, {"lon": -77.03025, "name": "c3eb5c26a68326f1a2a0db97cd5f8c77", "is_disabled": 0, "type": "electric_scooter", "is_reserved": 0, "fusion_lon": 0.0, "lat": 38.895772666666666, "rental_uris": {"ios": "https://dc.lft.to/lastmile_qr_scan", "android": "https://dc.lft.to/lastmile_qr_scan"}, "bike_id": "c3eb5c26a68326f1a2a0db97cd5f8c77", "fusion_lat": 0.0}, {"lon": -76.97685083333333, "name": "d7697d5863881854249a409a0e644056", "is_disabled": 0, "type": "electric_scooter", "is_reserved": 0, "fusion_lon": 0.0, "lat": 38.891972, "rental_uris": {"ios": "https://dc.lft.to/lastmile_qr_scan", "android": "https://dc.lft.to/lastmile_qr_scan"}, "bike_id": "d7697d5863881854249a409a0e644056", "fusion_lat": 0.0}, {"lon": -77.038381, "name": "e9680ebc3b7da9c09b4e50b5f1891803", "is_disabled": 0, "type": "electric_scooter", "is_reserved": 0, "fusion_lon": 0.0, "lat": 38.9038005, "rental_uris": {"ios": "https://dc.lft.to/lastmile_qr_scan", "android": "https://dc.lft.to/lastmile_qr_scan"}, "bike_id": "e9680ebc3b7da9c09b4e50b5f1891803", "fusion_lat": 0.0}, {"lon": -77.01916866666667, "name": "c0e802e8435483add1738218668a5780", "is_disabled": 0, "type": "electric_scooter", "is_reserved": 0, "fusion_lon": 0.0, "lat": 38.89727116666667, "rental_uris": {"ios": "https://dc.lft.to/lastmile_qr_scan", "android": "https://dc.lft.to/lastmile_qr_scan"}, "bike_id": "c0e802e8435483add1738218668a5780", "fusion_lat": 0.0}, {"lon": -77.03255983333334, "name": "04e35180b1d0ff293eb4892d943c5d41", "is_disabled": 0, "type": "electric_scooter", "is_reserved": 0, "fusion_lon": 0.0, "lat": 38.939693166666665, "rental_uris": {"ios": "https://dc.lft.to/lastmile_qr_scan", "android": "https://dc.lft.to/lastmile_qr_scan"}, "bike_id": "04e35180b1d0ff293eb4892d943c5d41", "fusion_lat": 0.0}, {"lon": -77.03609383333334, "name": "2c229f4b24bbfe93f77bb37344aa5891", "is_disabled": 0, "type": "electric_scooter", "is_reserved": 0, "fusion_lon": 0.0, "lat": 38.928552833333335, "rental_uris": {"ios": "https://dc.lft.to/lastmile_qr_scan", "android": "https://dc.lft.to/lastmile_qr_scan"}, "bike_id": "2c229f4b24bbfe93f77bb37344aa5891", "fusion_lat": 0.0}, {"lon": -76.99656116666667, "name": "f1a2ad73b919b52a1b5fc3afb6f32734", "is_disabled": 0, "type": "electric_bike", "is_reserved": 0, "fusion_lon": 0.0, "lat": 38.96779033333333, "rental_uris": {"ios": "https://dc.lft.to/lastmile_qr_scan", "android": "https://dc.lft.to/lastmile_qr_scan"}, "bike_id": "f1a2ad73b919b52a1b5fc3afb6f32734", "fusion_lat": 0.0}, {"lon": -76.99509616666667, "name": "3c6965dda8a8ff8e4981bc071bdd0cc7", "is_disabled": 0, "type": "electric_scooter", "is_reserved": 0, "fusion_lon": 0.0, "lat": 38.8907805, "rental_uris": {"ios": "https://dc.lft.to/lastmile_qr_scan", "android": "https://dc.lft.to/lastmile_qr_scan"}, "bike_id": "3c6965dda8a8ff8e4981bc071bdd0cc7", "fusion_lat": 0.0}, {"lon": -77.01504766666666, "name": "4d23dbadf1f62b44dc0dc0a1eb9f0fb0", "is_disabled": 0, "type": "electric_scooter", "is_reserved": 0, "fusion_lon": 0.0, "lat": 38.89677016666667, "rental_uris": {"ios": "https://dc.lft.to/lastmile_qr_scan", "android": "https://dc.lft.to/lastmile_qr_scan"}, "bike_id": "4d23dbadf1f62b44dc0dc0a1eb9f0fb0", "fusion_lat": 0.0}, {"lon": -77.0439385, "name": "3449d5c887899dae226bafd48f5376c1", "is_disabled": 0, "type": "electric_scooter", "is_reserved": 0, "fusion_lon": 0.0, "lat": 38.911093666666666, "rental_uris": {"ios": "https://dc.lft.to/lastmile_qr_scan", "android": "https://dc.lft.to/lastmile_qr_scan"}, "bike_id": "3449d5c887899dae226bafd48f5376c1", "fusion_lat": 0.0}, {"lon": -77.07233933333333, "name": "ec93c5c48fc8d0d31bde21768f512828", "is_disabled": 0, "type": "electric_scooter", "is_reserved": 0, "fusion_lon": 0.0, "lat": 38.92367333333333, "rental_uris": {"ios": "https://dc.lft.to/lastmile_qr_scan", "android": "https://dc.lft.to/lastmile_qr_scan"}, "bike_id": "ec93c5c48fc8d0d31bde21768f512828", "fusion_lat": 0.0}, {"lon": -77.02227283333333, "name": "d9818717755232b4f61b8a9048ef6d12", "is_disabled": 0, "type": "electric_scooter", "is_reserved": 0, "fusion_lon": 0.0, "lat": 38.899826833333336, "rental_uris": {"ios": "https://dc.lft.to/lastmile_qr_scan", "android": "https://dc.lft.to/lastmile_qr_scan"}, "bike_id": "d9818717755232b4f61b8a9048ef6d12", "fusion_lat": 0.0}, {"lon": -77.02277816666667, "name": "a45b58781181649d17baf7fb503e6302", "is_disabled": 0, "type": "electric_scooter", "is_reserved": 0, "fusion_lon": 0.0, "lat": 38.91675516666667, "rental_uris": {"ios": "https://dc.lft.to/lastmile_qr_scan", "android": "https://dc.lft.to/lastmile_qr_scan"}, "bike_id": "a45b58781181649d17baf7fb503e6302", "fusion_lat": 0.0}, {"lon": -76.9854445, "name": "ffa39464091f96db7367576a6cc42a8d", "is_disabled": 0, "type": "electric_scooter", "is_reserved": 0, "fusion_lon": 0.0, "lat": 38.90587433333334, "rental_uris": {"ios": "https://dc.lft.to/lastmile_qr_scan", "android": "https://dc.lft.to/lastmile_qr_scan"}, "bike_id": "ffa39464091f96db7367576a6cc42a8d", "fusion_lat": 0.0}, {"lon": -77.0222635, "name": "97991ef6d0f7b5c6df11f002d55abbda", "is_disabled": 0, "type": "electric_bike", "is_reserved": 0, "fusion_lon": 0.0, "lat": 38.9569085, "rental_uris": {"ios": "https://dc.lft.to/lastmile_qr_scan", "android": "https://dc.lft.to/lastmile_qr_scan"}, "bike_id": "97991ef6d0f7b5c6df11f002d55abbda", "fusion_lat": 0.0}, {"lon": -77.02607683333333, "name": "f63f6e5594e06997cf40e966d361502b", "is_disabled": 0, "type": "electric_scooter", "is_reserved": 0, "fusion_lon": 0.0, "lat": 38.90601183333333, "rental_uris": {"ios": "https://dc.lft.to/lastmile_qr_scan", "android": "https://dc.lft.to/lastmile_qr_scan"}, "bike_id": "f63f6e5594e06997cf40e966d361502b", "fusion_lat": 0.0}, {"lon": -77.02270666666666, "name": "4c714b2e66465604a70b4e3319d4d91e", "is_disabled": 0, "type": "electric_scooter", "is_reserved": 0, "fusion_lon": 0.0, "lat": 38.88135833333333, "rental_uris": {"ios": "https://dc.lft.to/lastmile_qr_scan", "android": "https://dc.lft.to/lastmile_qr_scan"}, "bike_id": "4c714b2e66465604a70b4e3319d4d91e", "fusion_lat": 0.0}, {"lon": -77.0347105, "name": "a5094a8011d5188de18cc824ebed76f0", "is_disabled": 0, "type": "electric_scooter", "is_reserved": 0, "fusion_lon": 0.0, "lat": 38.92909483333333, "rental_uris": {"ios": "https://dc.lft.to/lastmile_qr_scan", "android": "https://dc.lft.to/lastmile_qr_scan"}, "bike_id": "a5094a8011d5188de18cc824ebed76f0", "fusion_lat": 0.0}, {"lon": -77.03563433333333, "name": "8fdeca2774bafdcb0ff7a8a9c91cfc12", "is_disabled": 0, "type": "electric_scooter", "is_reserved": 0, "fusion_lon": 0.0, "lat": 38.908173, "rental_uris": {"ios": "https://dc.lft.to/lastmile_qr_scan", "android": "https://dc.lft.to/lastmile_qr_scan"}, "bike_id": "8fdeca2774bafdcb0ff7a8a9c91cfc12", "fusion_lat": 0.0}, {"lon": -77.04466316666667, "name": "e2c06f2df71d136cf9a6bb21f47d743a", "is_disabled": 0, "type": "electric_scooter", "is_reserved": 0, "fusion_lon": 0.0, "lat": 38.91895066666667, "rental_uris": {"ios": "https://dc.lft.to/lastmile_qr_scan", "android": "https://dc.lft.to/lastmile_qr_scan"}, "bike_id": "e2c06f2df71d136cf9a6bb21f47d743a", "fusion_lat": 0.0}, {"lon": -76.93522683333333, "name": "5a111623a92f5dc7becbd917be09e7b8", "is_disabled": 0, "type": "electric_scooter", "is_reserved": 0, "fusion_lon": 0.0, "lat": 38.878964, "rental_uris": {"ios": "https://dc.lft.to/lastmile_qr_scan", "android": "https://dc.lft.to/lastmile_qr_scan"}, "bike_id": "5a111623a92f5dc7becbd917be09e7b8", "fusion_lat": 0.0}, {"lon": -77.0402155, "name": "1293be7ded6af4a640e5d6a5c4645a76", "is_disabled": 0, "type": "electric_scooter", "is_reserved": 0, "fusion_lon": 0.0, "lat": 38.903059166666665, "rental_uris": {"ios": "https://dc.lft.to/lastmile_qr_scan", "android": "https://dc.lft.to/lastmile_qr_scan"}, "bike_id": "1293be7ded6af4a640e5d6a5c4645a76", "fusion_lat": 0.0}, {"lon": -77.02532883333333, "name": "516827cebb9225cfc09ed9c6b4505051", "is_disabled": 0, "type": "electric_scooter", "is_reserved": 0, "fusion_lon": 0.0, "lat": 38.967366, "rental_uris": {"ios": "https://dc.lft.to/lastmile_qr_scan", "android": "https://dc.lft.to/lastmile_qr_scan"}, "bike_id": "516827cebb9225cfc09ed9c6b4505051", "fusion_lat": 0.0}, {"lon": -77.02795166666667, "name": "23173781c329353fb53cd1071917722b", "is_disabled": 0, "type": "electric_scooter", "is_reserved": 0, "fusion_lon": 0.0, "lat": 38.94179033333333, "rental_uris": {"ios": "https://dc.lft.to/lastmile_qr_scan", "android": "https://dc.lft.to/lastmile_qr_scan"}, "bike_id": "23173781c329353fb53cd1071917722b", "fusion_lat": 0.0}, {"lon": -77.035258, "name": "6c45810b396673ac0a7910386d767377", "is_disabled": 0, "type": "electric_scooter", "is_reserved": 0, "fusion_lon": 0.0, "lat": 38.918206833333336, "rental_uris": {"ios": "https://dc.lft.to/lastmile_qr_scan", "android": "https://dc.lft.to/lastmile_qr_scan"}, "bike_id": "6c45810b396673ac0a7910386d767377", "fusion_lat": 0.0}, {"lon": -77.03174733333333, "name": "0839e80c983ad79b2902d789f7760d75", "is_disabled": 0, "type": "electric_scooter", "is_reserved": 0, "fusion_lon": 0.0, "lat": 38.89228116666666, "rental_uris": {"ios": "https://dc.lft.to/lastmile_qr_scan", "android": "https://dc.lft.to/lastmile_qr_scan"}, "bike_id": "0839e80c983ad79b2902d789f7760d75", "fusion_lat": 0.0}, {"lon": -76.9576925, "name": "a464460294051e9d04d54b8766827f16", "is_disabled": 0, "type": "electric_scooter", "is_reserved": 0, "fusion_lon": 0.0, "lat": 38.88353933333333, "rental_uris": {"ios": "https://dc.lft.to/lastmile_qr_scan", "android": "https://dc.lft.to/lastmile_qr_scan"}, "bike_id": "a464460294051e9d04d54b8766827f16", "fusion_lat": 0.0}, {"lon": -77.00788666666666, "name": "65633cfd2a99ac82b023194820468c32", "is_disabled": 0, "type": "electric_scooter", "is_reserved": 0, "fusion_lon": 0.0, "lat": 38.92665683333333, "rental_uris": {"ios": "https://dc.lft.to/lastmile_qr_scan", "android": "https://dc.lft.to/lastmile_qr_scan"}, "bike_id": "65633cfd2a99ac82b023194820468c32", "fusion_lat": 0.0}, {"lon": -77.02299966666666, "name": "de85d86eccf3023209f0f22fda91350f", "is_disabled": 0, "type": "electric_scooter", "is_reserved": 0, "fusion_lon": 0.0, "lat": 38.91787883333333, "rental_uris": {"ios": "https://dc.lft.to/lastmile_qr_scan", "android": "https://dc.lft.to/lastmile_qr_scan"}, "bike_id": "de85d86eccf3023209f0f22fda91350f", "fusion_lat": 0.0}, {"lon": -77.03829466666667, "name": "a6fe86de36ef58a0cdd4340c6b2ed492", "is_disabled": 0, "type": "electric_scooter", "is_reserved": 0, "fusion_lon": 0.0, "lat": 38.911087, "rental_uris": {"ios": "https://dc.lft.to/lastmile_qr_scan", "android": "https://dc.lft.to/lastmile_qr_scan"}, "bike_id": "a6fe86de36ef58a0cdd4340c6b2ed492", "fusion_lat": 0.0}, {"lon": -77.0072675, "name": "a3bf6ad15009532e370406f8e986785d", "is_disabled": 0, "type": "electric_scooter", "is_reserved": 0, "fusion_lon": 0.0, "lat": 38.878956333333335, "rental_uris": {"ios": "https://dc.lft.to/lastmile_qr_scan", "android": "https://dc.lft.to/lastmile_qr_scan"}, "bike_id": "a3bf6ad15009532e370406f8e986785d", "fusion_lat": 0.0}, {"lon": -77.032178, "name": "630bea04484c7c1e323d337460a6b731", "is_disabled": 0, "type": "electric_scooter", "is_reserved": 0, "fusion_lon": 0.0, "lat": 38.91914083333333, "rental_uris": {"ios": "https://dc.lft.to/lastmile_qr_scan", "android": "https://dc.lft.to/lastmile_qr_scan"}, "bike_id": "630bea04484c7c1e323d337460a6b731", "fusion_lat": 0.0}, {"lon": -77.01820233333333, "name": "6de58d076422bc8706edd3384d3bdb5f", "is_disabled": 0, "type": "electric_scooter", "is_reserved": 0, "fusion_lon": 0.0, "lat": 38.92062683333333, "rental_uris": {"ios": "https://dc.lft.to/lastmile_qr_scan", "android": "https://dc.lft.to/lastmile_qr_scan"}, "bike_id": "6de58d076422bc8706edd3384d3bdb5f", "fusion_lat": 0.0}, {"lon": -77.02499683333333, "name": "2b782db58e00a793734c620bab3129c3", "is_disabled": 0, "type": "electric_scooter", "is_reserved": 0, "fusion_lon": 0.0, "lat": 38.93759983333333, "rental_uris": {"ios": "https://dc.lft.to/lastmile_qr_scan", "android": "https://dc.lft.to/lastmile_qr_scan"}, "bike_id": "2b782db58e00a793734c620bab3129c3", "fusion_lat": 0.0}, {"lon": -77.025363, "name": "9a624c879bcf81f0bf2425d8d4f3c72f", "is_disabled": 0, "type": "electric_scooter", "is_reserved": 0, "fusion_lon": 0.0, "lat": 38.9209095, "rental_uris": {"ios": "https://dc.lft.to/lastmile_qr_scan", "android": "https://dc.lft.to/lastmile_qr_scan"}, "bike_id": "9a624c879bcf81f0bf2425d8d4f3c72f", "fusion_lat": 0.0}, {"lon": -77.05459583333334, "name": "4956c4863d67ece8400766feab348c26", "is_disabled": 0, "type": "electric_scooter", "is_reserved": 0, "fusion_lon": 0.0, "lat": 38.928972333333334, "rental_uris": {"ios": "https://dc.lft.to/lastmile_qr_scan", "android": "https://dc.lft.to/lastmile_qr_scan"}, "bike_id": "4956c4863d67ece8400766feab348c26", "fusion_lat": 0.0}, {"lon": -77.01674466666667, "name": "9e99e715c18df00f1f6ed06857335af4", "is_disabled": 0, "type": "electric_scooter", "is_reserved": 0, "fusion_lon": 0.0, "lat": 38.92047783333334, "rental_uris": {"ios": "https://dc.lft.to/lastmile_qr_scan", "android": "https://dc.lft.to/lastmile_qr_scan"}, "bike_id": "9e99e715c18df00f1f6ed06857335af4", "fusion_lat": 0.0}, {"lon": -77.049, "name": "89590a9d0b121c122c9e7fc35aca13be", "is_disabled": 0, "type": "electric_scooter", "is_reserved": 0, "fusion_lon": 0.0, "lat": 38.9006415, "rental_uris": {"ios": "https://dc.lft.to/lastmile_qr_scan", "android": "https://dc.lft.to/lastmile_qr_scan"}, "bike_id": "89590a9d0b121c122c9e7fc35aca13be", "fusion_lat": 0.0}, {"lon": -76.9982575, "name": "4dc44d81b4c819b8cd8d7a137f091de5", "is_disabled": 0, "type": "electric_scooter", "is_reserved": 0, "fusion_lon": 0.0, "lat": 38.90714166666667, "rental_uris": {"ios": "https://dc.lft.to/lastmile_qr_scan", "android": "https://dc.lft.to/lastmile_qr_scan"}, "bike_id": "4dc44d81b4c819b8cd8d7a137f091de5", "fusion_lat": 0.0}, {"lon": -77.02128066666667, "name": "fc2364270f279aa2563f4496ff8ef6c4", "is_disabled": 0, "type": "electric_scooter", "is_reserved": 0, "fusion_lon": 0.0, "lat": 38.9227345, "rental_uris": {"ios": "https://dc.lft.to/lastmile_qr_scan", "android": "https://dc.lft.to/lastmile_qr_scan"}, "bike_id": "fc2364270f279aa2563f4496ff8ef6c4", "fusion_lat": 0.0}, {"lon": -77.00499133333334, "name": "dc9bb381248f8708da42bc84ea79b8e6", "is_disabled": 0, "type": "electric_scooter", "is_reserved": 0, "fusion_lon": 0.0, "lat": 38.91621333333333, "rental_uris": {"ios": "https://dc.lft.to/lastmile_qr_scan", "android": "https://dc.lft.to/lastmile_qr_scan"}, "bike_id": "dc9bb381248f8708da42bc84ea79b8e6", "fusion_lat": 0.0}, {"lon": -77.09021383333334, "name": "231ff9a8f184f789d6dc85137848808d", "is_disabled": 0, "type": "electric_bike", "is_reserved": 0, "fusion_lon": 0.0, "lat": 38.926514, "rental_uris": {"ios": "https://dc.lft.to/lastmile_qr_scan", "android": "https://dc.lft.to/lastmile_qr_scan"}, "bike_id": "231ff9a8f184f789d6dc85137848808d", "fusion_lat": 0.0}, {"lon": -77.0160985, "name": "5536893f6abb01d67409ecc6fc4e6c3c", "is_disabled": 0, "type": "electric_scooter", "is_reserved": 0, "fusion_lon": 0.0, "lat": 38.9195245, "rental_uris": {"ios": "https://dc.lft.to/lastmile_qr_scan", "android": "https://dc.lft.to/lastmile_qr_scan"}, "bike_id": "5536893f6abb01d67409ecc6fc4e6c3c", "fusion_lat": 0.0}, {"lon": -77.02826116666667, "name": "2ab94bf334a5b2cc2b66bddc56374f3f", "is_disabled": 0, "type": "electric_scooter", "is_reserved": 0, "fusion_lon": 0.0, "lat": 38.90261016666667, "rental_uris": {"ios": "https://dc.lft.to/lastmile_qr_scan", "android": "https://dc.lft.to/lastmile_qr_scan"}, "bike_id": "2ab94bf334a5b2cc2b66bddc56374f3f", "fusion_lat": 0.0}, {"lon": -77.02955666666666, "name": "c0f0e09db6a4613e9d19e7b5f32beeaa", "is_disabled": 0, "type": "electric_scooter", "is_reserved": 0, "fusion_lon": 0.0, "lat": 38.943077333333335, "rental_uris": {"ios": "https://dc.lft.to/lastmile_qr_scan", "android": "https://dc.lft.to/lastmile_qr_scan"}, "bike_id": "c0f0e09db6a4613e9d19e7b5f32beeaa", "fusion_lat": 0.0}, {"lon": -77.021438, "name": "d4bbdac2efcddc8abd5a75dee6b9a941", "is_disabled": 0, "type": "electric_scooter", "is_reserved": 0, "fusion_lon": 0.0, "lat": 38.9244525, "rental_uris": {"ios": "https://dc.lft.to/lastmile_qr_scan", "android": "https://dc.lft.to/lastmile_qr_scan"}, "bike_id": "d4bbdac2efcddc8abd5a75dee6b9a941", "fusion_lat": 0.0}, {"lon": -77.06301566666667, "name": "32b7808df97937ddeeaf7b88822a3944", "is_disabled": 0, "type": "electric_scooter", "is_reserved": 0, "fusion_lon": 0.0, "lat": 38.907694666666664, "rental_uris": {"ios": "https://dc.lft.to/lastmile_qr_scan", "android": "https://dc.lft.to/lastmile_qr_scan"}, "bike_id": "32b7808df97937ddeeaf7b88822a3944", "fusion_lat": 0.0}, {"lon": -77.03235883333333, "name": "a2f298131f2500b9de33dae82e96d289", "is_disabled": 0, "type": "electric_scooter", "is_reserved": 0, "fusion_lon": 0.0, "lat": 38.92182916666667, "rental_uris": {"ios": "https://dc.lft.to/lastmile_qr_scan", "android": "https://dc.lft.to/lastmile_qr_scan"}, "bike_id": "a2f298131f2500b9de33dae82e96d289", "fusion_lat": 0.0}, {"lon": -77.0418305, "name": "290a0aca553d3f635d7cdaebb061522d", "is_disabled": 0, "type": "electric_scooter", "is_reserved": 0, "fusion_lon": 0.0, "lat": 38.92052416666667, "rental_uris": {"ios": "https://dc.lft.to/lastmile_qr_scan", "android": "https://dc.lft.to/lastmile_qr_scan"}, "bike_id": "290a0aca553d3f635d7cdaebb061522d", "fusion_lat": 0.0}, {"lon": -77.04457083333334, "name": "aac0a68aa5d810066a1b4a41943e0486", "is_disabled": 0, "type": "electric_scooter", "is_reserved": 0, "fusion_lon": 0.0, "lat": 38.92319416666667, "rental_uris": {"ios": "https://dc.lft.to/lastmile_qr_scan", "android": "https://dc.lft.to/lastmile_qr_scan"}, "bike_id": "aac0a68aa5d810066a1b4a41943e0486", "fusion_lat": 0.0}, {"lon": -77.06224683333333, "name": "9d870bffca4b705a253f4d4eec6ed123", "is_disabled": 0, "type": "electric_scooter", "is_reserved": 0, "fusion_lon": 0.0, "lat": 38.91316616666667, "rental_uris": {"ios": "https://dc.lft.to/lastmile_qr_scan", "android": "https://dc.lft.to/lastmile_qr_scan"}, "bike_id": "9d870bffca4b705a253f4d4eec6ed123", "fusion_lat": 0.0}, {"lon": -77.0346665, "name": "f2faacbaab5407d181079e12b07a8987", "is_disabled": 0, "type": "electric_scooter", "is_reserved": 0, "fusion_lon": 0.0, "lat": 38.92154083333333, "rental_uris": {"ios": "https://dc.lft.to/lastmile_qr_scan", "android": "https://dc.lft.to/lastmile_qr_scan"}, "bike_id": "f2faacbaab5407d181079e12b07a8987", "fusion_lat": 0.0}, {"lon": -77.0321315, "name": "23d2406dfe423b6eb65bcb30260245d0", "is_disabled": 0, "type": "electric_scooter", "is_reserved": 0, "fusion_lon": 0.0, "lat": 38.919148, "rental_uris": {"ios": "https://dc.lft.to/lastmile_qr_scan", "android": "https://dc.lft.to/lastmile_qr_scan"}, "bike_id": "23d2406dfe423b6eb65bcb30260245d0", "fusion_lat": 0.0}, {"lon": -77.08802933333334, "name": "03f22ad09e489bddb05b62050cf55ca0", "is_disabled": 0, "type": "electric_scooter", "is_reserved": 0, "fusion_lon": 0.0, "lat": 38.93538133333333, "rental_uris": {"ios": "https://dc.lft.to/lastmile_qr_scan", "android": "https://dc.lft.to/lastmile_qr_scan"}, "bike_id": "03f22ad09e489bddb05b62050cf55ca0", "fusion_lat": 0.0}, {"lon": -77.02347583333334, "name": "04b68c44c236e23c62ec458b6228a0ee", "is_disabled": 0, "type": "electric_scooter", "is_reserved": 0, "fusion_lon": 0.0, "lat": 38.94306866666667, "rental_uris": {"ios": "https://dc.lft.to/lastmile_qr_scan", "android": "https://dc.lft.to/lastmile_qr_scan"}, "bike_id": "04b68c44c236e23c62ec458b6228a0ee", "fusion_lat": 0.0}, {"lon": -77.0309215, "name": "8ca71c0ca0d2dbaeeb5e6ce8319ccb9e", "is_disabled": 0, "type": "electric_scooter", "is_reserved": 0, "fusion_lon": 0.0, "lat": 38.93540383333333, "rental_uris": {"ios": "https://dc.lft.to/lastmile_qr_scan", "android": "https://dc.lft.to/lastmile_qr_scan"}, "bike_id": "8ca71c0ca0d2dbaeeb5e6ce8319ccb9e", "fusion_lat": 0.0}, {"lon": -77.03276066666666, "name": "75cd105ab8f7c0d7c58dda83ad42fd6c", "is_disabled": 0, "type": "electric_scooter", "is_reserved": 0, "fusion_lon": 0.0, "lat": 38.932035166666665, "rental_uris": {"ios": "https://dc.lft.to/lastmile_qr_scan", "android": "https://dc.lft.to/lastmile_qr_scan"}, "bike_id": "75cd105ab8f7c0d7c58dda83ad42fd6c", "fusion_lat": 0.0}, {"lon": -77.01958666666667, "name": "2cc163432e82ca90c5496c31a7268346", "is_disabled": 0, "type": "electric_scooter", "is_reserved": 0, "fusion_lon": 0.0, "lat": 38.9236615, "rental_uris": {"ios": "https://dc.lft.to/lastmile_qr_scan", "android": "https://dc.lft.to/lastmile_qr_scan"}, "bike_id": "2cc163432e82ca90c5496c31a7268346", "fusion_lat": 0.0}, {"lon": -77.05988, "name": "cd44fabff02cce180201990dacc8d34d", "is_disabled": 0, "type": "electric_scooter", "is_reserved": 0, "fusion_lon": 0.0, "lat": 38.92709983333334, "rental_uris": {"ios": "https://dc.lft.to/lastmile_qr_scan", "android": "https://dc.lft.to/lastmile_qr_scan"}, "bike_id": "cd44fabff02cce180201990dacc8d34d", "fusion_lat": 0.0}, {"lon": -77.026137, "name": "7039c0782fbe94c3db9e483b28e88c4e", "is_disabled": 0, "type": "electric_bike", "is_reserved": 0, "fusion_lon": 0.0, "lat": 38.969288666666664, "rental_uris": {"ios": "https://dc.lft.to/lastmile_qr_scan", "android": "https://dc.lft.to/lastmile_qr_scan"}, "bike_id": "7039c0782fbe94c3db9e483b28e88c4e", "fusion_lat": 0.0}, {"lon": -77.053335, "name": "13d0f574ab01361e9d78b7136bdfdf63", "is_disabled": 0, "type": "electric_scooter", "is_reserved": 0, "fusion_lon": 0.0, "lat": 38.90418233333333, "rental_uris": {"ios": "https://dc.lft.to/lastmile_qr_scan", "android": "https://dc.lft.to/lastmile_qr_scan"}, "bike_id": "13d0f574ab01361e9d78b7136bdfdf63", "fusion_lat": 0.0}, {"lon": -77.05474233333334, "name": "59f4ce0590a136e2742d96a028632a19", "is_disabled": 0, "type": "electric_scooter", "is_reserved": 0, "fusion_lon": 0.0, "lat": 38.90301766666666, "rental_uris": {"ios": "https://dc.lft.to/lastmile_qr_scan", "android": "https://dc.lft.to/lastmile_qr_scan"}, "bike_id": "59f4ce0590a136e2742d96a028632a19", "fusion_lat": 0.0}, {"lon": -77.0195325, "name": "0c6d903f0de0ca495db5d01e68695776", "is_disabled": 0, "type": "electric_scooter", "is_reserved": 0, "fusion_lon": 0.0, "lat": 38.9225245, "rental_uris": {"ios": "https://dc.lft.to/lastmile_qr_scan", "android": "https://dc.lft.to/lastmile_qr_scan"}, "bike_id": "0c6d903f0de0ca495db5d01e68695776", "fusion_lat": 0.0}, {"lon": -77.03189866666666, "name": "327faa97b6e297666d04b02b25d10686", "is_disabled": 0, "type": "electric_scooter", "is_reserved": 0, "fusion_lon": 0.0, "lat": 38.918108833333335, "rental_uris": {"ios": "https://dc.lft.to/lastmile_qr_scan", "android": "https://dc.lft.to/lastmile_qr_scan"}, "bike_id": "327faa97b6e297666d04b02b25d10686", "fusion_lat": 0.0}, {"lon": -77.04754966666667, "name": "29a4ed12998f12fc502158ea0f8bf707", "is_disabled": 0, "type": "electric_scooter", "is_reserved": 0, "fusion_lon": 0.0, "lat": 38.90540633333333, "rental_uris": {"ios": "https://dc.lft.to/lastmile_qr_scan", "android": "https://dc.lft.to/lastmile_qr_scan"}, "bike_id": "29a4ed12998f12fc502158ea0f8bf707", "fusion_lat": 0.0}, {"lon": -76.990219, "name": "5b93b72a4417fcdca87b4d167ac8be6d", "is_disabled": 0, "type": "electric_bike", "is_reserved": 0, "fusion_lon": 0.0, "lat": 38.835819, "rental_uris": {"ios": "https://dc.lft.to/lastmile_qr_scan", "android": "https://dc.lft.to/lastmile_qr_scan"}, "bike_id": "5b93b72a4417fcdca87b4d167ac8be6d", "fusion_lat": 0.0}, {"lon": -77.06621583333333, "name": "aabc3caaab93789fbad358e772686f41", "is_disabled": 0, "type": "electric_scooter", "is_reserved": 0, "fusion_lon": 0.0, "lat": 38.93679233333334, "rental_uris": {"ios": "https://dc.lft.to/lastmile_qr_scan", "android": "https://dc.lft.to/lastmile_qr_scan"}, "bike_id": "aabc3caaab93789fbad358e772686f41", "fusion_lat": 0.0}, {"lon": -77.00045833333333, "name": "cc67b8d87a6a4b6648a05a71505cf4ca", "is_disabled": 0, "type": "electric_scooter", "is_reserved": 0, "fusion_lon": 0.0, "lat": 38.887682833333336, "rental_uris": {"ios": "https://dc.lft.to/lastmile_qr_scan", "android": "https://dc.lft.to/lastmile_qr_scan"}, "bike_id": "cc67b8d87a6a4b6648a05a71505cf4ca", "fusion_lat": 0.0}, {"lon": -77.04195633333333, "name": "17d6c5e23c9ebfe6200f8bf9d9f88ce9", "is_disabled": 0, "type": "electric_scooter", "is_reserved": 0, "fusion_lon": 0.0, "lat": 38.9262835, "rental_uris": {"ios": "https://dc.lft.to/lastmile_qr_scan", "android": "https://dc.lft.to/lastmile_qr_scan"}, "bike_id": "17d6c5e23c9ebfe6200f8bf9d9f88ce9", "fusion_lat": 0.0}, {"lon": -77.028178, "name": "9357ca1476ceddbe473d547a71ef4c31", "is_disabled": 0, "type": "electric_scooter", "is_reserved": 0, "fusion_lon": 0.0, "lat": 38.886578666666665, "rental_uris": {"ios": "https://dc.lft.to/lastmile_qr_scan", "android": "https://dc.lft.to/lastmile_qr_scan"}, "bike_id": "9357ca1476ceddbe473d547a71ef4c31", "fusion_lat": 0.0}, {"lon": -77.08914566666667, "name": "f7fe53e7ac02037d315657f80a121f88", "is_disabled": 0, "type": "electric_bike", "is_reserved": 0, "fusion_lon": 0.0, "lat": 38.96736833333333, "rental_uris": {"ios": "https://dc.lft.to/lastmile_qr_scan", "android": "https://dc.lft.to/lastmile_qr_scan"}, "bike_id": "f7fe53e7ac02037d315657f80a121f88", "fusion_lat": 0.0}, {"lon": -76.99855933333333, "name": "bff3e5dee1e7cb3cb7ba0005c9d21d02", "is_disabled": 0, "type": "electric_scooter", "is_reserved": 0, "fusion_lon": 0.0, "lat": 38.90060033333334, "rental_uris": {"ios": "https://dc.lft.to/lastmile_qr_scan", "android": "https://dc.lft.to/lastmile_qr_scan"}, "bike_id": "bff3e5dee1e7cb3cb7ba0005c9d21d02", "fusion_lat": 0.0}, {"lon": -77.01581933333334, "name": "c55ce00294f2526a2e37addac5a4648a", "is_disabled": 0, "type": "electric_scooter", "is_reserved": 0, "fusion_lon": 0.0, "lat": 38.916857, "rental_uris": {"ios": "https://dc.lft.to/lastmile_qr_scan", "android": "https://dc.lft.to/lastmile_qr_scan"}, "bike_id": "c55ce00294f2526a2e37addac5a4648a", "fusion_lat": 0.0}, {"lon": -76.96441633333333, "name": "94fd5588321139b6dd5100804b04fe07", "is_disabled": 0, "type": "electric_bike", "is_reserved": 0, "fusion_lon": 0.0, "lat": 38.91875483333333, "rental_uris": {"ios": "https://dc.lft.to/lastmile_qr_scan", "android": "https://dc.lft.to/lastmile_qr_scan"}, "bike_id": "94fd5588321139b6dd5100804b04fe07", "fusion_lat": 0.0}, {"lon": -77.0202565, "name": "6fd1b3a65ff0edf8e9000d4103d0d32e", "is_disabled": 0, "type": "electric_scooter", "is_reserved": 0, "fusion_lon": 0.0, "lat": 38.9241735, "rental_uris": {"ios": "https://dc.lft.to/lastmile_qr_scan", "android": "https://dc.lft.to/lastmile_qr_scan"}, "bike_id": "6fd1b3a65ff0edf8e9000d4103d0d32e", "fusion_lat": 0.0}, {"lon": -77.06941966666666, "name": "7f0ec77724281713f67a1fa475ddae78", "is_disabled": 0, "type": "electric_bike", "is_reserved": 0, "fusion_lon": 0.0, "lat": 38.84765566666667, "rental_uris": {"ios": "https://dc.lft.to/lastmile_qr_scan", "android": "https://dc.lft.to/lastmile_qr_scan"}, "bike_id": "7f0ec77724281713f67a1fa475ddae78", "fusion_lat": 0.0}, {"lon": -76.98791333333334, "name": "202c9693d81067c840883980c3861eb6", "is_disabled": 0, "type": "electric_scooter", "is_reserved": 0, "fusion_lon": 0.0, "lat": 38.87846366666667, "rental_uris": {"ios": "https://dc.lft.to/lastmile_qr_scan", "android": "https://dc.lft.to/lastmile_qr_scan"}, "bike_id": "202c9693d81067c840883980c3861eb6", "fusion_lat": 0.0}, {"lon": -77.03524616666667, "name": "f80c9d62f6c9dfc493a4f3211501b47e", "is_disabled": 0, "type": "electric_scooter", "is_reserved": 0, "fusion_lon": 0.0, "lat": 38.9223345, "rental_uris": {"ios": "https://dc.lft.to/lastmile_qr_scan", "android": "https://dc.lft.to/lastmile_qr_scan"}, "bike_id": "f80c9d62f6c9dfc493a4f3211501b47e", "fusion_lat": 0.0}, {"lon": -77.02511783333334, "name": "32fe61ca2e20cb73c4ef855a7858c77b", "is_disabled": 0, "type": "electric_scooter", "is_reserved": 0, "fusion_lon": 0.0, "lat": 38.920762833333335, "rental_uris": {"ios": "https://dc.lft.to/lastmile_qr_scan", "android": "https://dc.lft.to/lastmile_qr_scan"}, "bike_id": "32fe61ca2e20cb73c4ef855a7858c77b", "fusion_lat": 0.0}, {"lon": -77.02741483333334, "name": "e072448b74aad1815756d1408f44fb2e", "is_disabled": 0, "type": "electric_scooter", "is_reserved": 0, "fusion_lon": 0.0, "lat": 38.924148333333335, "rental_uris": {"ios": "https://dc.lft.to/lastmile_qr_scan", "android": "https://dc.lft.to/lastmile_qr_scan"}, "bike_id": "e072448b74aad1815756d1408f44fb2e", "fusion_lat": 0.0}, {"lon": -76.9736025, "name": "0db49db8d2760bc70c2d834af8c0037a", "is_disabled": 0, "type": "electric_bike", "is_reserved": 0, "fusion_lon": 0.0, "lat": 38.86551333333333, "rental_uris": {"ios": "https://dc.lft.to/lastmile_qr_scan", "android": "https://dc.lft.to/lastmile_qr_scan"}, "bike_id": "0db49db8d2760bc70c2d834af8c0037a", "fusion_lat": 0.0}, {"lon": -77.010274, "name": "736bc3567b91f67c1f1971f68999d298", "is_disabled": 0, "type": "electric_scooter", "is_reserved": 0, "fusion_lon": 0.0, "lat": 38.917078333333336, "rental_uris": {"ios": "https://dc.lft.to/lastmile_qr_scan", "android": "https://dc.lft.to/lastmile_qr_scan"}, "bike_id": "736bc3567b91f67c1f1971f68999d298", "fusion_lat": 0.0}, {"lon": -77.03195533333333, "name": "5baf124b6c2c94070858ffed0f911e96", "is_disabled": 0, "type": "electric_scooter", "is_reserved": 0, "fusion_lon": 0.0, "lat": 38.91630983333334, "rental_uris": {"ios": "https://dc.lft.to/lastmile_qr_scan", "android": "https://dc.lft.to/lastmile_qr_scan"}, "bike_id": "5baf124b6c2c94070858ffed0f911e96", "fusion_lat": 0.0}, {"lon": -77.06214216666666, "name": "5f972c36a8bfab7e49716a776192c0c7", "is_disabled": 0, "type": "electric_scooter", "is_reserved": 0, "fusion_lon": 0.0, "lat": 38.942277, "rental_uris": {"ios": "https://dc.lft.to/lastmile_qr_scan", "android": "https://dc.lft.to/lastmile_qr_scan"}, "bike_id": "5f972c36a8bfab7e49716a776192c0c7", "fusion_lat": 0.0}, {"lon": -77.04507733333334, "name": "53bddbccb4f3cddd987ff4013b8ff967", "is_disabled": 0, "type": "electric_scooter", "is_reserved": 0, "fusion_lon": 0.0, "lat": 38.903749833333336, "rental_uris": {"ios": "https://dc.lft.to/lastmile_qr_scan", "android": "https://dc.lft.to/lastmile_qr_scan"}, "bike_id": "53bddbccb4f3cddd987ff4013b8ff967", "fusion_lat": 0.0}, {"lon": -77.05445683333333, "name": "db86cd271b893ef1d1583a1c1b1ef11e", "is_disabled": 0, "type": "electric_scooter", "is_reserved": 0, "fusion_lon": 0.0, "lat": 38.9148245, "rental_uris": {"ios": "https://dc.lft.to/lastmile_qr_scan", "android": "https://dc.lft.to/lastmile_qr_scan"}, "bike_id": "db86cd271b893ef1d1583a1c1b1ef11e", "fusion_lat": 0.0}, {"lon": -77.0028735, "name": "af93b8fc1250e059be3c1f898ddd6d62", "is_disabled": 0, "type": "electric_scooter", "is_reserved": 0, "fusion_lon": 0.0, "lat": 38.89354866666667, "rental_uris": {"ios": "https://dc.lft.to/lastmile_qr_scan", "android": "https://dc.lft.to/lastmile_qr_scan"}, "bike_id": "af93b8fc1250e059be3c1f898ddd6d62", "fusion_lat": 0.0}, {"lon": -77.03557266666667, "name": "bd504fb2f4d1ea1f92795164d25f3485", "is_disabled": 0, "type": "electric_scooter", "is_reserved": 0, "fusion_lon": 0.0, "lat": 38.9047345, "rental_uris": {"ios": "https://dc.lft.to/lastmile_qr_scan", "android": "https://dc.lft.to/lastmile_qr_scan"}, "bike_id": "bd504fb2f4d1ea1f92795164d25f3485", "fusion_lat": 0.0}, {"lon": -76.99163433333334, "name": "8c4f78fd8c2a6b8814ef690dbc2e9e9f", "is_disabled": 0, "type": "electric_scooter", "is_reserved": 0, "fusion_lon": 0.0, "lat": 38.901299333333334, "rental_uris": {"ios": "https://dc.lft.to/lastmile_qr_scan", "android": "https://dc.lft.to/lastmile_qr_scan"}, "bike_id": "8c4f78fd8c2a6b8814ef690dbc2e9e9f", "fusion_lat": 0.0}, {"lon": -77.03884866666667, "name": "caee0f36ffd66d1d24bf76df8c1ccdc7", "is_disabled": 0, "type": "electric_scooter", "is_reserved": 0, "fusion_lon": 0.0, "lat": 38.918451166666664, "rental_uris": {"ios": "https://dc.lft.to/lastmile_qr_scan", "android": "https://dc.lft.to/lastmile_qr_scan"}, "bike_id": "caee0f36ffd66d1d24bf76df8c1ccdc7", "fusion_lat": 0.0}, {"lon": -77.04389516666667, "name": "79494064d32cbbebd6ebfce52a54271c", "is_disabled": 0, "type": "electric_scooter", "is_reserved": 0, "fusion_lon": 0.0, "lat": 38.92239633333333, "rental_uris": {"ios": "https://dc.lft.to/lastmile_qr_scan", "android": "https://dc.lft.to/lastmile_qr_scan"}, "bike_id": "79494064d32cbbebd6ebfce52a54271c", "fusion_lat": 0.0}, {"lon": -77.02934166666667, "name": "4c5facf4883e54fa405243293f729408", "is_disabled": 0, "type": "electric_scooter", "is_reserved": 0, "fusion_lon": 0.0, "lat": 38.90008366666667, "rental_uris": {"ios": "https://dc.lft.to/lastmile_qr_scan", "android": "https://dc.lft.to/lastmile_qr_scan"}, "bike_id": "4c5facf4883e54fa405243293f729408", "fusion_lat": 0.0}, {"lon": -76.99955333333334, "name": "a7e304126036099fe3c2e1a61e7e0a9e", "is_disabled": 0, "type": "electric_scooter", "is_reserved": 0, "fusion_lon": 0.0, "lat": 38.90380866666667, "rental_uris": {"ios": "https://dc.lft.to/lastmile_qr_scan", "android": "https://dc.lft.to/lastmile_qr_scan"}, "bike_id": "a7e304126036099fe3c2e1a61e7e0a9e", "fusion_lat": 0.0}, {"lon": -77.04457966666666, "name": "427ecef69821390158dead8769ef1278", "is_disabled": 0, "type": "electric_scooter", "is_reserved": 0, "fusion_lon": 0.0, "lat": 38.91923116666667, "rental_uris": {"ios": "https://dc.lft.to/lastmile_qr_scan", "android": "https://dc.lft.to/lastmile_qr_scan"}, "bike_id": "427ecef69821390158dead8769ef1278", "fusion_lat": 0.0}, {"lon": -76.99593133333333, "name": "5930597edb7e7775ffca5420349180dd", "is_disabled": 0, "type": "electric_scooter", "is_reserved": 0, "fusion_lon": 0.0, "lat": 38.884314, "rental_uris": {"ios": "https://dc.lft.to/lastmile_qr_scan", "android": "https://dc.lft.to/lastmile_qr_scan"}, "bike_id": "5930597edb7e7775ffca5420349180dd", "fusion_lat": 0.0}, {"lon": -77.03253533333333, "name": "a7dc0f3baa4b4fd40b35d5e1a6c3c5b9", "is_disabled": 0, "type": "electric_scooter", "is_reserved": 0, "fusion_lon": 0.0, "lat": 38.93972766666667, "rental_uris": {"ios": "https://dc.lft.to/lastmile_qr_scan", "android": "https://dc.lft.to/lastmile_qr_scan"}, "bike_id": "a7dc0f3baa4b4fd40b35d5e1a6c3c5b9", "fusion_lat": 0.0}, {"lon": -77.025205, "name": "0728053923f56d24aaa14d87a16c795e", "is_disabled": 0, "type": "electric_scooter", "is_reserved": 0, "fusion_lon": 0.0, "lat": 38.922331166666666, "rental_uris": {"ios": "https://dc.lft.to/lastmile_qr_scan", "android": "https://dc.lft.to/lastmile_qr_scan"}, "bike_id": "0728053923f56d24aaa14d87a16c795e", "fusion_lat": 0.0}, {"lon": -77.038338, "name": "4eecfd9c0ce23b4e25a4d1cdd10c4f28", "is_disabled": 0, "type": "electric_scooter", "is_reserved": 0, "fusion_lon": 0.0, "lat": 38.917108, "rental_uris": {"ios": "https://dc.lft.to/lastmile_qr_scan", "android": "https://dc.lft.to/lastmile_qr_scan"}, "bike_id": "4eecfd9c0ce23b4e25a4d1cdd10c4f28", "fusion_lat": 0.0}, {"lon": -77.045029, "name": "0f3a2eecdc1f8ad45fd69679e0d75782", "is_disabled": 0, "type": "electric_scooter", "is_reserved": 0, "fusion_lon": 0.0, "lat": 38.91272633333333, "rental_uris": {"ios": "https://dc.lft.to/lastmile_qr_scan", "android": "https://dc.lft.to/lastmile_qr_scan"}, "bike_id": "0f3a2eecdc1f8ad45fd69679e0d75782", "fusion_lat": 0.0}, {"lon": -77.09523916666667, "name": "2e27bdba662b9e0171556ea41886ed7d", "is_disabled": 0, "type": "electric_bike", "is_reserved": 0, "fusion_lon": 0.0, "lat": 38.83810833333333, "rental_uris": {"ios": "https://dc.lft.to/lastmile_qr_scan", "android": "https://dc.lft.to/lastmile_qr_scan"}, "bike_id": "2e27bdba662b9e0171556ea41886ed7d", "fusion_lat": 0.0}, {"lon": -76.93633783333334, "name": "7154f236c29d300db7a2107b2f7b6b42", "is_disabled": 0, "type": "electric_scooter", "is_reserved": 0, "fusion_lon": 0.0, "lat": 38.88350283333333, "rental_uris": {"ios": "https://dc.lft.to/lastmile_qr_scan", "android": "https://dc.lft.to/lastmile_qr_scan"}, "bike_id": "7154f236c29d300db7a2107b2f7b6b42", "fusion_lat": 0.0}, {"lon": -76.989083, "name": "e310fa777be23664e5b964a51c5cb9b4", "is_disabled": 0, "type": "electric_bike", "is_reserved": 0, "fusion_lon": 0.0, "lat": 38.86631, "rental_uris": {"ios": "https://dc.lft.to/lastmile_qr_scan", "android": "https://dc.lft.to/lastmile_qr_scan"}, "bike_id": "e310fa777be23664e5b964a51c5cb9b4", "fusion_lat": 0.0}, {"lon": -76.993775, "name": "114b5e37187c18e6ed9ca53e613890a0", "is_disabled": 0, "type": "electric_bike", "is_reserved": 0, "fusion_lon": 0.0, "lat": 38.99094216666667, "rental_uris": {"ios": "https://dc.lft.to/lastmile_qr_scan", "android": "https://dc.lft.to/lastmile_qr_scan"}, "bike_id": "114b5e37187c18e6ed9ca53e613890a0", "fusion_lat": 0.0}, {"lon": -76.94293083333334, "name": "ad6d1a8099ad82eebbdc94bf474d9b23", "is_disabled": 0, "type": "electric_scooter", "is_reserved": 0, "fusion_lon": 0.0, "lat": 38.8984295, "rental_uris": {"ios": "https://dc.lft.to/lastmile_qr_scan", "android": "https://dc.lft.to/lastmile_qr_scan"}, "bike_id": "ad6d1a8099ad82eebbdc94bf474d9b23", "fusion_lat": 0.0}, {"lon": -77.03900483333334, "name": "10bbd0ffcaad5c02b74b4006659ae4c1", "is_disabled": 0, "type": "electric_scooter", "is_reserved": 0, "fusion_lon": 0.0, "lat": 38.918442166666665, "rental_uris": {"ios": "https://dc.lft.to/lastmile_qr_scan", "android": "https://dc.lft.to/lastmile_qr_scan"}, "bike_id": "10bbd0ffcaad5c02b74b4006659ae4c1", "fusion_lat": 0.0}, {"lon": -76.98319766666667, "name": "db0c33945aac7468456463f96a0454fc", "is_disabled": 0, "type": "electric_scooter", "is_reserved": 0, "fusion_lon": 0.0, "lat": 38.922528166666666, "rental_uris": {"ios": "https://dc.lft.to/lastmile_qr_scan", "android": "https://dc.lft.to/lastmile_qr_scan"}, "bike_id": "db0c33945aac7468456463f96a0454fc", "fusion_lat": 0.0}, {"lon": -77.0512975, "name": "96d3cb7fecb77787c86f84ce23deb642", "is_disabled": 0, "type": "electric_scooter", "is_reserved": 0, "fusion_lon": 0.0, "lat": 38.896581833333336, "rental_uris": {"ios": "https://dc.lft.to/lastmile_qr_scan", "android": "https://dc.lft.to/lastmile_qr_scan"}, "bike_id": "96d3cb7fecb77787c86f84ce23deb642", "fusion_lat": 0.0}, {"lon": -77.02824916666667, "name": "9a1752e1aaeb060d6a3e989ae906dae6", "is_disabled": 0, "type": "electric_scooter", "is_reserved": 0, "fusion_lon": 0.0, "lat": 38.922287, "rental_uris": {"ios": "https://dc.lft.to/lastmile_qr_scan", "android": "https://dc.lft.to/lastmile_qr_scan"}, "bike_id": "9a1752e1aaeb060d6a3e989ae906dae6", "fusion_lat": 0.0}, {"lon": -77.03285416666667, "name": "fef25aa816c2a4998ebf93559c7ea39d", "is_disabled": 0, "type": "electric_scooter", "is_reserved": 0, "fusion_lon": 0.0, "lat": 38.935450833333334, "rental_uris": {"ios": "https://dc.lft.to/lastmile_qr_scan", "android": "https://dc.lft.to/lastmile_qr_scan"}, "bike_id": "fef25aa816c2a4998ebf93559c7ea39d", "fusion_lat": 0.0}, {"lon": -77.03086216666667, "name": "555e1bf2992d5bb3ba30e6f4c1c65e48", "is_disabled": 0, "type": "electric_scooter", "is_reserved": 0, "fusion_lon": 0.0, "lat": 38.932672333333336, "rental_uris": {"ios": "https://dc.lft.to/lastmile_qr_scan", "android": "https://dc.lft.to/lastmile_qr_scan"}, "bike_id": "555e1bf2992d5bb3ba30e6f4c1c65e48", "fusion_lat": 0.0}, {"lon": -77.02028366666667, "name": "ab1aea9be8db3b8ac3ad18df56a833be", "is_disabled": 0, "type": "electric_scooter", "is_reserved": 0, "fusion_lon": 0.0, "lat": 38.921186, "rental_uris": {"ios": "https://dc.lft.to/lastmile_qr_scan", "android": "https://dc.lft.to/lastmile_qr_scan"}, "bike_id": "ab1aea9be8db3b8ac3ad18df56a833be", "fusion_lat": 0.0}, {"lon": -77.03189633333334, "name": "ba8bb5f42c1844affbb173eec8fd77e1", "is_disabled": 0, "type": "electric_scooter", "is_reserved": 0, "fusion_lon": 0.0, "lat": 38.91229466666667, "rental_uris": {"ios": "https://dc.lft.to/lastmile_qr_scan", "android": "https://dc.lft.to/lastmile_qr_scan"}, "bike_id": "ba8bb5f42c1844affbb173eec8fd77e1", "fusion_lat": 0.0}, {"lon": -77.02164416666666, "name": "cc5aa44120346312047032d09d21c398", "is_disabled": 0, "type": "electric_bike", "is_reserved": 0, "fusion_lon": 0.0, "lat": 38.95740983333334, "rental_uris": {"ios": "https://dc.lft.to/lastmile_qr_scan", "android": "https://dc.lft.to/lastmile_qr_scan"}, "bike_id": "cc5aa44120346312047032d09d21c398", "fusion_lat": 0.0}, {"lon": -77.02116533333333, "name": "aa22aa75b440194558535bdafc0acbaf", "is_disabled": 0, "type": "electric_scooter", "is_reserved": 0, "fusion_lon": 0.0, "lat": 38.91737083333334, "rental_uris": {"ios": "https://dc.lft.to/lastmile_qr_scan", "android": "https://dc.lft.to/lastmile_qr_scan"}, "bike_id": "aa22aa75b440194558535bdafc0acbaf", "fusion_lat": 0.0}, {"lon": -76.994252, "name": "0873c491758503ea6affc0cdf029ceab", "is_disabled": 0, "type": "electric_scooter", "is_reserved": 0, "fusion_lon": 0.0, "lat": 38.8776195, "rental_uris": {"ios": "https://dc.lft.to/lastmile_qr_scan", "android": "https://dc.lft.to/lastmile_qr_scan"}, "bike_id": "0873c491758503ea6affc0cdf029ceab", "fusion_lat": 0.0}, {"lon": -77.01230983333333, "name": "b0082c40542aa63a197da6a7a2b9e3fd", "is_disabled": 0, "type": "electric_scooter", "is_reserved": 0, "fusion_lon": 0.0, "lat": 38.900205666666665, "rental_uris": {"ios": "https://dc.lft.to/lastmile_qr_scan", "android": "https://dc.lft.to/lastmile_qr_scan"}, "bike_id": "b0082c40542aa63a197da6a7a2b9e3fd", "fusion_lat": 0.0}, {"lon": -77.01544483333333, "name": "a30e9236d8e3d2da171b2e29a06681de", "is_disabled": 0, "type": "electric_scooter", "is_reserved": 0, "fusion_lon": 0.0, "lat": 38.90275416666667, "rental_uris": {"ios": "https://dc.lft.to/lastmile_qr_scan", "android": "https://dc.lft.to/lastmile_qr_scan"}, "bike_id": "a30e9236d8e3d2da171b2e29a06681de", "fusion_lat": 0.0}, {"lon": -77.0069315, "name": "e675db8dda6c8cd49ec45f0334fd25a6", "is_disabled": 0, "type": "electric_scooter", "is_reserved": 0, "fusion_lon": 0.0, "lat": 38.90021, "rental_uris": {"ios": "https://dc.lft.to/lastmile_qr_scan", "android": "https://dc.lft.to/lastmile_qr_scan"}, "bike_id": "e675db8dda6c8cd49ec45f0334fd25a6", "fusion_lat": 0.0}, {"lon": -77.00350766666666, "name": "82c63ae6c25ae10fab76f2e8e97cd2f0", "is_disabled": 0, "type": "electric_scooter", "is_reserved": 0, "fusion_lon": 0.0, "lat": 38.897514666666666, "rental_uris": {"ios": "https://dc.lft.to/lastmile_qr_scan", "android": "https://dc.lft.to/lastmile_qr_scan"}, "bike_id": "82c63ae6c25ae10fab76f2e8e97cd2f0", "fusion_lat": 0.0}, {"lon": -77.046341, "name": "0bcfd6cb9b9df72d44feed72e942acb5", "is_disabled": 0, "type": "electric_scooter", "is_reserved": 0, "fusion_lon": 0.0, "lat": 38.909575333333336, "rental_uris": {"ios": "https://dc.lft.to/lastmile_qr_scan", "android": "https://dc.lft.to/lastmile_qr_scan"}, "bike_id": "0bcfd6cb9b9df72d44feed72e942acb5", "fusion_lat": 0.0}, {"lon": -77.0079735, "name": "1e24e5814e341a478b802984f78c648f", "is_disabled": 0, "type": "electric_scooter", "is_reserved": 0, "fusion_lon": 0.0, "lat": 38.897158833333336, "rental_uris": {"ios": "https://dc.lft.to/lastmile_qr_scan", "android": "https://dc.lft.to/lastmile_qr_scan"}, "bike_id": "1e24e5814e341a478b802984f78c648f", "fusion_lat": 0.0}, {"lon": -77.05031666666666, "name": "84e2b75d3cd24cee732906e575e3e317", "is_disabled": 0, "type": "electric_scooter", "is_reserved": 0, "fusion_lon": 0.0, "lat": 38.902090666666666, "rental_uris": {"ios": "https://dc.lft.to/lastmile_qr_scan", "android": "https://dc.lft.to/lastmile_qr_scan"}, "bike_id": "84e2b75d3cd24cee732906e575e3e317", "fusion_lat": 0.0}, {"lon": -76.98272883333334, "name": "047dc2fc5d6387667d74901a21342f07", "is_disabled": 0, "type": "electric_scooter", "is_reserved": 0, "fusion_lon": 0.0, "lat": 38.90343133333333, "rental_uris": {"ios": "https://dc.lft.to/lastmile_qr_scan", "android": "https://dc.lft.to/lastmile_qr_scan"}, "bike_id": "047dc2fc5d6387667d74901a21342f07", "fusion_lat": 0.0}, {"lon": -76.93065516666667, "name": "94cc1c76cad1d75205eee1c1d1c14d83", "is_disabled": 0, "type": "electric_scooter", "is_reserved": 0, "fusion_lon": 0.0, "lat": 38.89562983333333, "rental_uris": {"ios": "https://dc.lft.to/lastmile_qr_scan", "android": "https://dc.lft.to/lastmile_qr_scan"}, "bike_id": "94cc1c76cad1d75205eee1c1d1c14d83", "fusion_lat": 0.0}, {"lon": -77.02369983333334, "name": "c80de9f4e61117ed9b60b55bcb43a923", "is_disabled": 0, "type": "electric_scooter", "is_reserved": 0, "fusion_lon": 0.0, "lat": 38.908432833333336, "rental_uris": {"ios": "https://dc.lft.to/lastmile_qr_scan", "android": "https://dc.lft.to/lastmile_qr_scan"}, "bike_id": "c80de9f4e61117ed9b60b55bcb43a923", "fusion_lat": 0.0}, {"lon": -77.00202666666667, "name": "e5850cbd9a6ed10727bdcfb71d4781e1", "is_disabled": 0, "type": "electric_scooter", "is_reserved": 0, "fusion_lon": 0.0, "lat": 38.907921, "rental_uris": {"ios": "https://dc.lft.to/lastmile_qr_scan", "android": "https://dc.lft.to/lastmile_qr_scan"}, "bike_id": "e5850cbd9a6ed10727bdcfb71d4781e1", "fusion_lat": 0.0}, {"lon": -76.93928183333334, "name": "48a5c1e29572da33c6eab5961be49f96", "is_disabled": 0, "type": "electric_scooter", "is_reserved": 0, "fusion_lon": 0.0, "lat": 38.893322, "rental_uris": {"ios": "https://dc.lft.to/lastmile_qr_scan", "android": "https://dc.lft.to/lastmile_qr_scan"}, "bike_id": "48a5c1e29572da33c6eab5961be49f96", "fusion_lat": 0.0}, {"lon": -77.04307716666666, "name": "c5665f259f8199c1abb89a1c2727dd51", "is_disabled": 0, "type": "electric_scooter", "is_reserved": 0, "fusion_lon": 0.0, "lat": 38.923968333333335, "rental_uris": {"ios": "https://dc.lft.to/lastmile_qr_scan", "android": "https://dc.lft.to/lastmile_qr_scan"}, "bike_id": "c5665f259f8199c1abb89a1c2727dd51", "fusion_lat": 0.0}, {"lon": -77.23409083333334, "name": "9e753c585d94ef15bf6eba8ad93cd49f", "is_disabled": 0, "type": "electric_bike", "is_reserved": 0, "fusion_lon": 0.0, "lat": 38.875773333333335, "rental_uris": {"ios": "https://dc.lft.to/lastmile_qr_scan", "android": "https://dc.lft.to/lastmile_qr_scan"}, "bike_id": "9e753c585d94ef15bf6eba8ad93cd49f", "fusion_lat": 0.0}, {"lon": -77.00571983333333, "name": "ba9e0bab05ab151bc7cd35aa7f4551b0", "is_disabled": 0, "type": "electric_scooter", "is_reserved": 0, "fusion_lon": 0.0, "lat": 38.88502966666667, "rental_uris": {"ios": "https://dc.lft.to/lastmile_qr_scan", "android": "https://dc.lft.to/lastmile_qr_scan"}, "bike_id": "ba9e0bab05ab151bc7cd35aa7f4551b0", "fusion_lat": 0.0}, {"lon": -77.0196935, "name": "89c49f4eeef36eaae76b9f9c2ab1a3a4", "is_disabled": 0, "type": "electric_scooter", "is_reserved": 0, "fusion_lon": 0.0, "lat": 38.8784125, "rental_uris": {"ios": "https://dc.lft.to/lastmile_qr_scan", "android": "https://dc.lft.to/lastmile_qr_scan"}, "bike_id": "89c49f4eeef36eaae76b9f9c2ab1a3a4", "fusion_lat": 0.0}, {"lon": -76.979068, "name": "03a11e29a9c530bbbbb8e171c804cca7", "is_disabled": 0, "type": "electric_scooter", "is_reserved": 0, "fusion_lon": 0.0, "lat": 38.88858033333333, "rental_uris": {"ios": "https://dc.lft.to/lastmile_qr_scan", "android": "https://dc.lft.to/lastmile_qr_scan"}, "bike_id": "03a11e29a9c530bbbbb8e171c804cca7", "fusion_lat": 0.0}, {"lon": -77.0219195, "name": "e3d0b894378997276370a335fed98978", "is_disabled": 0, "type": "electric_scooter", "is_reserved": 0, "fusion_lon": 0.0, "lat": 38.915432833333334, "rental_uris": {"ios": "https://dc.lft.to/lastmile_qr_scan", "android": "https://dc.lft.to/lastmile_qr_scan"}, "bike_id": "e3d0b894378997276370a335fed98978", "fusion_lat": 0.0}, {"lon": -77.00335516666667, "name": "d2fc8c3cb984392429bc332c9e7ca459", "is_disabled": 0, "type": "electric_scooter", "is_reserved": 0, "fusion_lon": 0.0, "lat": 38.893566, "rental_uris": {"ios": "https://dc.lft.to/lastmile_qr_scan", "android": "https://dc.lft.to/lastmile_qr_scan"}, "bike_id": "d2fc8c3cb984392429bc332c9e7ca459", "fusion_lat": 0.0}, {"lon": -77.07700466666667, "name": "9b319896185b12a1c10e0e62224019be", "is_disabled": 0, "type": "electric_scooter", "is_reserved": 0, "fusion_lon": 0.0, "lat": 38.92252533333333, "rental_uris": {"ios": "https://dc.lft.to/lastmile_qr_scan", "android": "https://dc.lft.to/lastmile_qr_scan"}, "bike_id": "9b319896185b12a1c10e0e62224019be", "fusion_lat": 0.0}, {"lon": -77.02747666666667, "name": "deba1d169a257ae016ea0ac393446619", "is_disabled": 0, "type": "electric_scooter", "is_reserved": 0, "fusion_lon": 0.0, "lat": 38.9664755, "rental_uris": {"ios": "https://dc.lft.to/lastmile_qr_scan", "android": "https://dc.lft.to/lastmile_qr_scan"}, "bike_id": "deba1d169a257ae016ea0ac393446619", "fusion_lat": 0.0}, {"lon": -77.02364866666667, "name": "efcf6ae4589283563cc6e7799315858b", "is_disabled": 0, "type": "electric_scooter", "is_reserved": 0, "fusion_lon": 0.0, "lat": 38.908737333333335, "rental_uris": {"ios": "https://dc.lft.to/lastmile_qr_scan", "android": "https://dc.lft.to/lastmile_qr_scan"}, "bike_id": "efcf6ae4589283563cc6e7799315858b", "fusion_lat": 0.0}, {"lon": -77.008921, "name": "5b91d6a21d02415b192b64d2ced3ca52", "is_disabled": 0, "type": "electric_scooter", "is_reserved": 0, "fusion_lon": 0.0, "lat": 38.9095095, "rental_uris": {"ios": "https://dc.lft.to/lastmile_qr_scan", "android": "https://dc.lft.to/lastmile_qr_scan"}, "bike_id": "5b91d6a21d02415b192b64d2ced3ca52", "fusion_lat": 0.0}, {"lon": -77.01379, "name": "94df8593736d8147861fa7115e1bfc41", "is_disabled": 0, "type": "electric_scooter", "is_reserved": 0, "fusion_lon": 0.0, "lat": 38.91042133333333, "rental_uris": {"ios": "https://dc.lft.to/lastmile_qr_scan", "android": "https://dc.lft.to/lastmile_qr_scan"}, "bike_id": "94df8593736d8147861fa7115e1bfc41", "fusion_lat": 0.0}, {"lon": -76.99010133333333, "name": "2502576db8a4a55b04887226fe7747ae", "is_disabled": 0, "type": "electric_scooter", "is_reserved": 0, "fusion_lon": 0.0, "lat": 38.9039445, "rental_uris": {"ios": "https://dc.lft.to/lastmile_qr_scan", "android": "https://dc.lft.to/lastmile_qr_scan"}, "bike_id": "2502576db8a4a55b04887226fe7747ae", "fusion_lat": 0.0}, {"lon": -77.04034183333333, "name": "9ed4d54fc30a73114df525a87bf824b4", "is_disabled": 0, "type": "electric_scooter", "is_reserved": 0, "fusion_lon": 0.0, "lat": 38.903676, "rental_uris": {"ios": "https://dc.lft.to/lastmile_qr_scan", "android": "https://dc.lft.to/lastmile_qr_scan"}, "bike_id": "9ed4d54fc30a73114df525a87bf824b4", "fusion_lat": 0.0}, {"lon": -77.003789, "name": "e55c43ecc1fcde057071ad9c221c9a6e", "is_disabled": 0, "type": "electric_bike", "is_reserved": 0, "fusion_lon": 0.0, "lat": 38.83607966666667, "rental_uris": {"ios": "https://dc.lft.to/lastmile_qr_scan", "android": "https://dc.lft.to/lastmile_qr_scan"}, "bike_id": "e55c43ecc1fcde057071ad9c221c9a6e", "fusion_lat": 0.0}, {"lon": -77.0279835, "name": "d91791982addbe74e0b136a5d026f0b6", "is_disabled": 0, "type": "electric_scooter", "is_reserved": 0, "fusion_lon": 0.0, "lat": 38.9308225, "rental_uris": {"ios": "https://dc.lft.to/lastmile_qr_scan", "android": "https://dc.lft.to/lastmile_qr_scan"}, "bike_id": "d91791982addbe74e0b136a5d026f0b6", "fusion_lat": 0.0}, {"lon": -77.04720933333333, "name": "c022cba4b92e845fd7efb76d7d2663c6", "is_disabled": 0, "type": "electric_scooter", "is_reserved": 0, "fusion_lon": 0.0, "lat": 38.899614, "rental_uris": {"ios": "https://dc.lft.to/lastmile_qr_scan", "android": "https://dc.lft.to/lastmile_qr_scan"}, "bike_id": "c022cba4b92e845fd7efb76d7d2663c6", "fusion_lat": 0.0}, {"lon": -77.04022866666666, "name": "a02a54a438618fa6bca681963abbc3ed", "is_disabled": 0, "type": "electric_scooter", "is_reserved": 0, "fusion_lon": 0.0, "lat": 38.92174216666667, "rental_uris": {"ios": "https://dc.lft.to/lastmile_qr_scan", "android": "https://dc.lft.to/lastmile_qr_scan"}, "bike_id": "a02a54a438618fa6bca681963abbc3ed", "fusion_lat": 0.0}, {"lon": -77.032901, "name": "f1cf09df0deff5155175121b9d2002fd", "is_disabled": 0, "type": "electric_scooter", "is_reserved": 0, "fusion_lon": 0.0, "lat": 38.9206655, "rental_uris": {"ios": "https://dc.lft.to/lastmile_qr_scan", "android": "https://dc.lft.to/lastmile_qr_scan"}, "bike_id": "f1cf09df0deff5155175121b9d2002fd", "fusion_lat": 0.0}, {"lon": -76.9901795, "name": "15e8fb0ed2bae4eb3a6b7a9c68a551bc", "is_disabled": 0, "type": "electric_scooter", "is_reserved": 0, "fusion_lon": 0.0, "lat": 38.865172666666666, "rental_uris": {"ios": "https://dc.lft.to/lastmile_qr_scan", "android": "https://dc.lft.to/lastmile_qr_scan"}, "bike_id": "15e8fb0ed2bae4eb3a6b7a9c68a551bc", "fusion_lat": 0.0}, {"lon": -77.04048866666666, "name": "0c1403dbe4bef085aedaffa84ead0aad", "is_disabled": 0, "type": "electric_scooter", "is_reserved": 0, "fusion_lon": 0.0, "lat": 38.920413, "rental_uris": {"ios": "https://dc.lft.to/lastmile_qr_scan", "android": "https://dc.lft.to/lastmile_qr_scan"}, "bike_id": "0c1403dbe4bef085aedaffa84ead0aad", "fusion_lat": 0.0}, {"lon": -77.04404266666667, "name": "a84fac42f29a7063720baa80c5392626", "is_disabled": 0, "type": "electric_scooter", "is_reserved": 0, "fusion_lon": 0.0, "lat": 38.929527666666665, "rental_uris": {"ios": "https://dc.lft.to/lastmile_qr_scan", "android": "https://dc.lft.to/lastmile_qr_scan"}, "bike_id": "a84fac42f29a7063720baa80c5392626", "fusion_lat": 0.0}, {"lon": -77.03197566666667, "name": "04e1c472815bf331fde9bfa79bbead69", "is_disabled": 0, "type": "electric_scooter", "is_reserved": 0, "fusion_lon": 0.0, "lat": 38.91614516666667, "rental_uris": {"ios": "https://dc.lft.to/lastmile_qr_scan", "android": "https://dc.lft.to/lastmile_qr_scan"}, "bike_id": "04e1c472815bf331fde9bfa79bbead69", "fusion_lat": 0.0}, {"lon": -77.002143, "name": "c0a85cccd901ae6d342f014df4c6bf31", "is_disabled": 0, "type": "electric_scooter", "is_reserved": 0, "fusion_lon": 0.0, "lat": 38.901315, "rental_uris": {"ios": "https://dc.lft.to/lastmile_qr_scan", "android": "https://dc.lft.to/lastmile_qr_scan"}, "bike_id": "c0a85cccd901ae6d342f014df4c6bf31", "fusion_lat": 0.0}, {"lon": -77.03284933333333, "name": "a1434cf79d00648ef97540118a7dae18", "is_disabled": 0, "type": "electric_scooter", "is_reserved": 0, "fusion_lon": 0.0, "lat": 38.93574683333333, "rental_uris": {"ios": "https://dc.lft.to/lastmile_qr_scan", "android": "https://dc.lft.to/lastmile_qr_scan"}, "bike_id": "a1434cf79d00648ef97540118a7dae18", "fusion_lat": 0.0}, {"lon": -77.01221483333333, "name": "fc68edef7117323592a5df4343adde59", "is_disabled": 0, "type": "electric_scooter", "is_reserved": 0, "fusion_lon": 0.0, "lat": 38.925114, "rental_uris": {"ios": "https://dc.lft.to/lastmile_qr_scan", "android": "https://dc.lft.to/lastmile_qr_scan"}, "bike_id": "fc68edef7117323592a5df4343adde59", "fusion_lat": 0.0}, {"lon": -77.02816083333333, "name": "3337dda0f0804d67025d64459b6859d5", "is_disabled": 0, "type": "electric_scooter", "is_reserved": 0, "fusion_lon": 0.0, "lat": 38.9223935, "rental_uris": {"ios": "https://dc.lft.to/lastmile_qr_scan", "android": "https://dc.lft.to/lastmile_qr_scan"}, "bike_id": "3337dda0f0804d67025d64459b6859d5", "fusion_lat": 0.0}, {"lon": -77.0272945, "name": "1766df1f816d61c94781b0e8aba52808", "is_disabled": 0, "type": "electric_scooter", "is_reserved": 0, "fusion_lon": 0.0, "lat": 38.9282585, "rental_uris": {"ios": "https://dc.lft.to/lastmile_qr_scan", "android": "https://dc.lft.to/lastmile_qr_scan"}, "bike_id": "1766df1f816d61c94781b0e8aba52808", "fusion_lat": 0.0}, {"lon": -76.96542916666667, "name": "510faf3e67869ab15ce49948f40779d3", "is_disabled": 0, "type": "electric_scooter", "is_reserved": 0, "fusion_lon": 0.0, "lat": 38.87886783333333, "rental_uris": {"ios": "https://dc.lft.to/lastmile_qr_scan", "android": "https://dc.lft.to/lastmile_qr_scan"}, "bike_id": "510faf3e67869ab15ce49948f40779d3", "fusion_lat": 0.0}, {"lon": -77.0053925, "name": "64b9754a2c96e8a9ac3da7f35015598a", "is_disabled": 0, "type": "electric_scooter", "is_reserved": 0, "fusion_lon": 0.0, "lat": 38.875459, "rental_uris": {"ios": "https://dc.lft.to/lastmile_qr_scan", "android": "https://dc.lft.to/lastmile_qr_scan"}, "bike_id": "64b9754a2c96e8a9ac3da7f35015598a", "fusion_lat": 0.0}, {"lon": -77.0418995, "name": "e04d7eba236449a830b1c7756e935486", "is_disabled": 0, "type": "electric_scooter", "is_reserved": 0, "fusion_lon": 0.0, "lat": 38.906229, "rental_uris": {"ios": "https://dc.lft.to/lastmile_qr_scan", "android": "https://dc.lft.to/lastmile_qr_scan"}, "bike_id": "e04d7eba236449a830b1c7756e935486", "fusion_lat": 0.0}, {"lon": -76.99342266666666, "name": "f1f7dbd8f53365bb9ad21497af12ae1a", "is_disabled": 0, "type": "electric_scooter", "is_reserved": 0, "fusion_lon": 0.0, "lat": 38.90052583333333, "rental_uris": {"ios": "https://dc.lft.to/lastmile_qr_scan", "android": "https://dc.lft.to/lastmile_qr_scan"}, "bike_id": "f1f7dbd8f53365bb9ad21497af12ae1a", "fusion_lat": 0.0}, {"lon": -77.05475416666667, "name": "0cf0f4352383202abd60160cf82b3c9f", "is_disabled": 0, "type": "electric_scooter", "is_reserved": 0, "fusion_lon": 0.0, "lat": 38.89392016666667, "rental_uris": {"ios": "https://dc.lft.to/lastmile_qr_scan", "android": "https://dc.lft.to/lastmile_qr_scan"}, "bike_id": "0cf0f4352383202abd60160cf82b3c9f", "fusion_lat": 0.0}, {"lon": -77.01557366666667, "name": "8e5d7b2fcfd37a8d61a3d4cde4725764", "is_disabled": 0, "type": "electric_scooter", "is_reserved": 0, "fusion_lon": 0.0, "lat": 38.89223116666667, "rental_uris": {"ios": "https://dc.lft.to/lastmile_qr_scan", "android": "https://dc.lft.to/lastmile_qr_scan"}, "bike_id": "8e5d7b2fcfd37a8d61a3d4cde4725764", "fusion_lat": 0.0}, {"lon": -77.05701783333333, "name": "8cbc80ce2f8a13b2b052ad41776f87e9", "is_disabled": 0, "type": "electric_scooter", "is_reserved": 0, "fusion_lon": 0.0, "lat": 38.91664816666667, "rental_uris": {"ios": "https://dc.lft.to/lastmile_qr_scan", "android": "https://dc.lft.to/lastmile_qr_scan"}, "bike_id": "8cbc80ce2f8a13b2b052ad41776f87e9", "fusion_lat": 0.0}, {"lon": -77.02797566666666, "name": "5d8a4e55169bab726335255992ab4297", "is_disabled": 0, "type": "electric_scooter", "is_reserved": 0, "fusion_lon": 0.0, "lat": 38.9615395, "rental_uris": {"ios": "https://dc.lft.to/lastmile_qr_scan", "android": "https://dc.lft.to/lastmile_qr_scan"}, "bike_id": "5d8a4e55169bab726335255992ab4297", "fusion_lat": 0.0}, {"lon": -76.97744266666666, "name": "095d5f4d30babd120077571383e0665b", "is_disabled": 0, "type": "electric_scooter", "is_reserved": 0, "fusion_lon": 0.0, "lat": 38.90011333333333, "rental_uris": {"ios": "https://dc.lft.to/lastmile_qr_scan", "android": "https://dc.lft.to/lastmile_qr_scan"}, "bike_id": "095d5f4d30babd120077571383e0665b", "fusion_lat": 0.0}, {"lon": -76.925089, "name": "e7dbadd558e121e274743d6ea6d69fde", "is_disabled": 0, "type": "electric_scooter", "is_reserved": 0, "fusion_lon": 0.0, "lat": 38.88599416666667, "rental_uris": {"ios": "https://dc.lft.to/lastmile_qr_scan", "android": "https://dc.lft.to/lastmile_qr_scan"}, "bike_id": "e7dbadd558e121e274743d6ea6d69fde", "fusion_lat": 0.0}, {"lon": -76.99821533333333, "name": "50997f847542ef20f60722cbf966134b", "is_disabled": 0, "type": "electric_scooter", "is_reserved": 0, "fusion_lon": 0.0, "lat": 38.907203, "rental_uris": {"ios": "https://dc.lft.to/lastmile_qr_scan", "android": "https://dc.lft.to/lastmile_qr_scan"}, "bike_id": "50997f847542ef20f60722cbf966134b", "fusion_lat": 0.0}, {"lon": -77.03208333333333, "name": "20b9e7453e70d1d5f7d33e904d07db03", "is_disabled": 0, "type": "electric_scooter", "is_reserved": 0, "fusion_lon": 0.0, "lat": 38.91733166666667, "rental_uris": {"ios": "https://dc.lft.to/lastmile_qr_scan", "android": "https://dc.lft.to/lastmile_qr_scan"}, "bike_id": "20b9e7453e70d1d5f7d33e904d07db03", "fusion_lat": 0.0}, {"lon": -77.03199633333334, "name": "8349367a668bdebf2748171167a4787e", "is_disabled": 0, "type": "electric_scooter", "is_reserved": 0, "fusion_lon": 0.0, "lat": 38.918185333333334, "rental_uris": {"ios": "https://dc.lft.to/lastmile_qr_scan", "android": "https://dc.lft.to/lastmile_qr_scan"}, "bike_id": "8349367a668bdebf2748171167a4787e", "fusion_lat": 0.0}, {"lon": -77.03518683333333, "name": "ae638f231357b6fab9c507f9cd4cca07", "is_disabled": 0, "type": "electric_scooter", "is_reserved": 0, "fusion_lon": 0.0, "lat": 38.901645, "rental_uris": {"ios": "https://dc.lft.to/lastmile_qr_scan", "android": "https://dc.lft.to/lastmile_qr_scan"}, "bike_id": "ae638f231357b6fab9c507f9cd4cca07", "fusion_lat": 0.0}, {"lon": -77.04124166666666, "name": "da125bb69467dd2c8b6aaf25a97e9159", "is_disabled": 0, "type": "electric_scooter", "is_reserved": 0, "fusion_lon": 0.0, "lat": 38.932219333333336, "rental_uris": {"ios": "https://dc.lft.to/lastmile_qr_scan", "android": "https://dc.lft.to/lastmile_qr_scan"}, "bike_id": "da125bb69467dd2c8b6aaf25a97e9159", "fusion_lat": 0.0}, {"lon": -77.032072, "name": "3db893e897dcc7cadd3a217fa4b8501c", "is_disabled": 0, "type": "electric_scooter", "is_reserved": 0, "fusion_lon": 0.0, "lat": 38.90804166666667, "rental_uris": {"ios": "https://dc.lft.to/lastmile_qr_scan", "android": "https://dc.lft.to/lastmile_qr_scan"}, "bike_id": "3db893e897dcc7cadd3a217fa4b8501c", "fusion_lat": 0.0}, {"lon": -77.01215616666667, "name": "03dedfd0c7f3c248fe81a2dcea8f62a7", "is_disabled": 0, "type": "electric_scooter", "is_reserved": 0, "fusion_lon": 0.0, "lat": 38.918215833333335, "rental_uris": {"ios": "https://dc.lft.to/lastmile_qr_scan", "android": "https://dc.lft.to/lastmile_qr_scan"}, "bike_id": "03dedfd0c7f3c248fe81a2dcea8f62a7", "fusion_lat": 0.0}, {"lon": -77.07434283333333, "name": "fe46b06a8cb7b425bd01e6e617ac40af", "is_disabled": 0, "type": "electric_scooter", "is_reserved": 0, "fusion_lon": 0.0, "lat": 38.935854, "rental_uris": {"ios": "https://dc.lft.to/lastmile_qr_scan", "android": "https://dc.lft.to/lastmile_qr_scan"}, "bike_id": "fe46b06a8cb7b425bd01e6e617ac40af", "fusion_lat": 0.0}, {"lon": -77.054272, "name": "efb09195e75b418a070f037b618c3f84", "is_disabled": 0, "type": "electric_scooter", "is_reserved": 0, "fusion_lon": 0.0, "lat": 38.985221833333334, "rental_uris": {"ios": "https://dc.lft.to/lastmile_qr_scan", "android": "https://dc.lft.to/lastmile_qr_scan"}, "bike_id": "efb09195e75b418a070f037b618c3f84", "fusion_lat": 0.0}, {"lon": -77.03470316666667, "name": "17dcb807899adf6f2f7bf62354598b1c", "is_disabled": 0, "type": "electric_scooter", "is_reserved": 0, "fusion_lon": 0.0, "lat": 38.90674683333334, "rental_uris": {"ios": "https://dc.lft.to/lastmile_qr_scan", "android": "https://dc.lft.to/lastmile_qr_scan"}, "bike_id": "17dcb807899adf6f2f7bf62354598b1c", "fusion_lat": 0.0}, {"lon": -77.05931733333334, "name": "1d0896c8c77e3a67b3555bef01b9e949", "is_disabled": 0, "type": "electric_scooter", "is_reserved": 0, "fusion_lon": 0.0, "lat": 38.94298716666667, "rental_uris": {"ios": "https://dc.lft.to/lastmile_qr_scan", "android": "https://dc.lft.to/lastmile_qr_scan"}, "bike_id": "1d0896c8c77e3a67b3555bef01b9e949", "fusion_lat": 0.0}, {"lon": -76.98624983333333, "name": "1f9759c89617f00f2cddee14565bc1ea", "is_disabled": 0, "type": "electric_scooter", "is_reserved": 0, "fusion_lon": 0.0, "lat": 38.90586233333333, "rental_uris": {"ios": "https://dc.lft.to/lastmile_qr_scan", "android": "https://dc.lft.to/lastmile_qr_scan"}, "bike_id": "1f9759c89617f00f2cddee14565bc1ea", "fusion_lat": 0.0}, {"lon": -76.9321065, "name": "582dd24673c0ca783ea6d5625c81ed3a", "is_disabled": 0, "type": "electric_scooter", "is_reserved": 0, "fusion_lon": 0.0, "lat": 38.898515333333336, "rental_uris": {"ios": "https://dc.lft.to/lastmile_qr_scan", "android": "https://dc.lft.to/lastmile_qr_scan"}, "bike_id": "582dd24673c0ca783ea6d5625c81ed3a", "fusion_lat": 0.0}, {"lon": -76.95365033333333, "name": "c07848e5c2d2f1669bced6b85c46d6ea", "is_disabled": 0, "type": "electric_scooter", "is_reserved": 0, "fusion_lon": 0.0, "lat": 38.8895385, "rental_uris": {"ios": "https://dc.lft.to/lastmile_qr_scan", "android": "https://dc.lft.to/lastmile_qr_scan"}, "bike_id": "c07848e5c2d2f1669bced6b85c46d6ea", "fusion_lat": 0.0}, {"lon": -76.990236, "name": "b7f9bbc60392a3e16e08ef6149951e37", "is_disabled": 0, "type": "electric_scooter", "is_reserved": 0, "fusion_lon": 0.0, "lat": 38.86529933333333, "rental_uris": {"ios": "https://dc.lft.to/lastmile_qr_scan", "android": "https://dc.lft.to/lastmile_qr_scan"}, "bike_id": "b7f9bbc60392a3e16e08ef6149951e37", "fusion_lat": 0.0}, {"lon": -76.93137033333333, "name": "f5481be7aa6d5ec5f32dc1ad18bf71bc", "is_disabled": 0, "type": "electric_scooter", "is_reserved": 0, "fusion_lon": 0.0, "lat": 38.88336616666667, "rental_uris": {"ios": "https://dc.lft.to/lastmile_qr_scan", "android": "https://dc.lft.to/lastmile_qr_scan"}, "bike_id": "f5481be7aa6d5ec5f32dc1ad18bf71bc", "fusion_lat": 0.0}, {"lon": -77.02501916666667, "name": "a8d33a77d578988425dfc7fc7033426a", "is_disabled": 0, "type": "electric_scooter", "is_reserved": 0, "fusion_lon": 0.0, "lat": 38.95412616666667, "rental_uris": {"ios": "https://dc.lft.to/lastmile_qr_scan", "android": "https://dc.lft.to/lastmile_qr_scan"}, "bike_id": "a8d33a77d578988425dfc7fc7033426a", "fusion_lat": 0.0}, {"lon": -77.02382866666666, "name": "cf352a989224c3115e4497efe809d883", "is_disabled": 0, "type": "electric_scooter", "is_reserved": 0, "fusion_lon": 0.0, "lat": 38.952701166666664, "rental_uris": {"ios": "https://dc.lft.to/lastmile_qr_scan", "android": "https://dc.lft.to/lastmile_qr_scan"}, "bike_id": "cf352a989224c3115e4497efe809d883", "fusion_lat": 0.0}, {"lon": -76.98561583333333, "name": "11f29819a027a251375d3e2d301a722a", "is_disabled": 0, "type": "electric_scooter", "is_reserved": 0, "fusion_lon": 0.0, "lat": 38.907079333333336, "rental_uris": {"ios": "https://dc.lft.to/lastmile_qr_scan", "android": "https://dc.lft.to/lastmile_qr_scan"}, "bike_id": "11f29819a027a251375d3e2d301a722a", "fusion_lat": 0.0}, {"lon": -77.0007455, "name": "aeb6893b85666ddee63aec4f84e829fd", "is_disabled": 0, "type": "electric_scooter", "is_reserved": 0, "fusion_lon": 0.0, "lat": 38.8753905, "rental_uris": {"ios": "https://dc.lft.to/lastmile_qr_scan", "android": "https://dc.lft.to/lastmile_qr_scan"}, "bike_id": "aeb6893b85666ddee63aec4f84e829fd", "fusion_lat": 0.0}, {"lon": -77.033868, "name": "69cb460ccff909692d15051e80eb998e", "is_disabled": 0, "type": "electric_scooter", "is_reserved": 0, "fusion_lon": 0.0, "lat": 38.921623333333336, "rental_uris": {"ios": "https://dc.lft.to/lastmile_qr_scan", "android": "https://dc.lft.to/lastmile_qr_scan"}, "bike_id": "69cb460ccff909692d15051e80eb998e", "fusion_lat": 0.0}, {"lon": -77.02215733333334, "name": "9036a9a7b71c84db60b11f43ce855c52", "is_disabled": 0, "type": "electric_scooter", "is_reserved": 0, "fusion_lon": 0.0, "lat": 38.912727833333335, "rental_uris": {"ios": "https://dc.lft.to/lastmile_qr_scan", "android": "https://dc.lft.to/lastmile_qr_scan"}, "bike_id": "9036a9a7b71c84db60b11f43ce855c52", "fusion_lat": 0.0}, {"lon": -77.007521, "name": "7a2815aeb2e9adf69739da32f49666d4", "is_disabled": 0, "type": "electric_scooter", "is_reserved": 0, "fusion_lon": 0.0, "lat": 38.903659833333336, "rental_uris": {"ios": "https://dc.lft.to/lastmile_qr_scan", "android": "https://dc.lft.to/lastmile_qr_scan"}, "bike_id": "7a2815aeb2e9adf69739da32f49666d4", "fusion_lat": 0.0}, {"lon": -77.02042366666667, "name": "71efe975a4be50a5bdfd2da4e1a6900c", "is_disabled": 0, "type": "electric_scooter", "is_reserved": 0, "fusion_lon": 0.0, "lat": 38.924118, "rental_uris": {"ios": "https://dc.lft.to/lastmile_qr_scan", "android": "https://dc.lft.to/lastmile_qr_scan"}, "bike_id": "71efe975a4be50a5bdfd2da4e1a6900c", "fusion_lat": 0.0}, {"lon": -77.040163, "name": "9cbcd4865b804dc83c8556e9f547b0c9", "is_disabled": 0, "type": "electric_scooter", "is_reserved": 0, "fusion_lon": 0.0, "lat": 38.921908, "rental_uris": {"ios": "https://dc.lft.to/lastmile_qr_scan", "android": "https://dc.lft.to/lastmile_qr_scan"}, "bike_id": "9cbcd4865b804dc83c8556e9f547b0c9", "fusion_lat": 0.0}, {"lon": -76.98376116666667, "name": "a392a0ff03181ab22fa122a9a298cb9b", "is_disabled": 0, "type": "electric_scooter", "is_reserved": 0, "fusion_lon": 0.0, "lat": 38.860332666666665, "rental_uris": {"ios": "https://dc.lft.to/lastmile_qr_scan", "android": "https://dc.lft.to/lastmile_qr_scan"}, "bike_id": "a392a0ff03181ab22fa122a9a298cb9b", "fusion_lat": 0.0}, {"lon": -77.02155983333333, "name": "847bc530fe2190625ec4502d198456d9", "is_disabled": 0, "type": "electric_scooter", "is_reserved": 0, "fusion_lon": 0.0, "lat": 38.926007166666665, "rental_uris": {"ios": "https://dc.lft.to/lastmile_qr_scan", "android": "https://dc.lft.to/lastmile_qr_scan"}, "bike_id": "847bc530fe2190625ec4502d198456d9", "fusion_lat": 0.0}, {"lon": -77.0053465, "name": "d025314d90e4ab9b74773a40d19ebc24", "is_disabled": 0, "type": "electric_scooter", "is_reserved": 0, "fusion_lon": 0.0, "lat": 38.875469833333334, "rental_uris": {"ios": "https://dc.lft.to/lastmile_qr_scan", "android": "https://dc.lft.to/lastmile_qr_scan"}, "bike_id": "d025314d90e4ab9b74773a40d19ebc24", "fusion_lat": 0.0}, {"lon": -76.98236816666666, "name": "e4846cc927ec580449245401b490ee4f", "is_disabled": 0, "type": "electric_scooter", "is_reserved": 0, "fusion_lon": 0.0, "lat": 38.904756166666665, "rental_uris": {"ios": "https://dc.lft.to/lastmile_qr_scan", "android": "https://dc.lft.to/lastmile_qr_scan"}, "bike_id": "e4846cc927ec580449245401b490ee4f", "fusion_lat": 0.0}, {"lon": -77.01991866666667, "name": "377cae83bc4873adb69fbbd12ae0d531", "is_disabled": 0, "type": "electric_scooter", "is_reserved": 0, "fusion_lon": 0.0, "lat": 38.93781, "rental_uris": {"ios": "https://dc.lft.to/lastmile_qr_scan", "android": "https://dc.lft.to/lastmile_qr_scan"}, "bike_id": "377cae83bc4873adb69fbbd12ae0d531", "fusion_lat": 0.0}, {"lon": -77.02317016666667, "name": "f53b4e050642da5947e5db8339aceef0", "is_disabled": 0, "type": "electric_scooter", "is_reserved": 0, "fusion_lon": 0.0, "lat": 38.920738166666666, "rental_uris": {"ios": "https://dc.lft.to/lastmile_qr_scan", "android": "https://dc.lft.to/lastmile_qr_scan"}, "bike_id": "f53b4e050642da5947e5db8339aceef0", "fusion_lat": 0.0}, {"lon": -77.072296, "name": "674eb9cd22b7912489b459be8327c2d4", "is_disabled": 0, "type": "electric_scooter", "is_reserved": 0, "fusion_lon": 0.0, "lat": 38.9410895, "rental_uris": {"ios": "https://dc.lft.to/lastmile_qr_scan", "android": "https://dc.lft.to/lastmile_qr_scan"}, "bike_id": "674eb9cd22b7912489b459be8327c2d4", "fusion_lat": 0.0}, {"lon": -77.02156866666667, "name": "67856b257aeda9761297df54994554d9", "is_disabled": 0, "type": "electric_scooter", "is_reserved": 0, "fusion_lon": 0.0, "lat": 38.9020065, "rental_uris": {"ios": "https://dc.lft.to/lastmile_qr_scan", "android": "https://dc.lft.to/lastmile_qr_scan"}, "bike_id": "67856b257aeda9761297df54994554d9", "fusion_lat": 0.0}, {"lon": -76.9733135, "name": "c247673371e5ad4a9d69a6a7b89d8cd5", "is_disabled": 0, "type": "electric_scooter", "is_reserved": 0, "fusion_lon": 0.0, "lat": 38.90412583333333, "rental_uris": {"ios": "https://dc.lft.to/lastmile_qr_scan", "android": "https://dc.lft.to/lastmile_qr_scan"}, "bike_id": "c247673371e5ad4a9d69a6a7b89d8cd5", "fusion_lat": 0.0}, {"lon": -77.02161183333334, "name": "812911f1b7dcae7bf64470da50cae878", "is_disabled": 0, "type": "electric_scooter", "is_reserved": 0, "fusion_lon": 0.0, "lat": 38.92615416666666, "rental_uris": {"ios": "https://dc.lft.to/lastmile_qr_scan", "android": "https://dc.lft.to/lastmile_qr_scan"}, "bike_id": "812911f1b7dcae7bf64470da50cae878", "fusion_lat": 0.0}, {"lon": -77.0212025, "name": "9569fef285c62b04c2dd9801486fe5e7", "is_disabled": 0, "type": "electric_scooter", "is_reserved": 0, "fusion_lon": 0.0, "lat": 38.923949666666665, "rental_uris": {"ios": "https://dc.lft.to/lastmile_qr_scan", "android": "https://dc.lft.to/lastmile_qr_scan"}, "bike_id": "9569fef285c62b04c2dd9801486fe5e7", "fusion_lat": 0.0}, {"lon": -76.98419083333333, "name": "62878e807c3ade3c923367e5faf4d493", "is_disabled": 0, "type": "electric_bike", "is_reserved": 0, "fusion_lon": 0.0, "lat": 38.91000716666667, "rental_uris": {"ios": "https://dc.lft.to/lastmile_qr_scan", "android": "https://dc.lft.to/lastmile_qr_scan"}, "bike_id": "62878e807c3ade3c923367e5faf4d493", "fusion_lat": 0.0}, {"lon": -77.0202985, "name": "8d167970b49d110200796267e028f98d", "is_disabled": 0, "type": "electric_scooter", "is_reserved": 0, "fusion_lon": 0.0, "lat": 38.9243735, "rental_uris": {"ios": "https://dc.lft.to/lastmile_qr_scan", "android": "https://dc.lft.to/lastmile_qr_scan"}, "bike_id": "8d167970b49d110200796267e028f98d", "fusion_lat": 0.0}, {"lon": -77.02158916666667, "name": "96df4a26b1458736f75badfc6c62cd62", "is_disabled": 0, "type": "electric_scooter", "is_reserved": 0, "fusion_lon": 0.0, "lat": 38.925999833333336, "rental_uris": {"ios": "https://dc.lft.to/lastmile_qr_scan", "android": "https://dc.lft.to/lastmile_qr_scan"}, "bike_id": "96df4a26b1458736f75badfc6c62cd62", "fusion_lat": 0.0}, {"lon": -76.981989, "name": "f9acc6e25221663bb3b4390450771d69", "is_disabled": 0, "type": "electric_bike", "is_reserved": 0, "fusion_lon": 0.0, "lat": 38.985062666666664, "rental_uris": {"ios": "https://dc.lft.to/lastmile_qr_scan", "android": "https://dc.lft.to/lastmile_qr_scan"}, "bike_id": "f9acc6e25221663bb3b4390450771d69", "fusion_lat": 0.0}, {"lon": -77.03525283333333, "name": "54096ef09137153da748b8a7d094dec4", "is_disabled": 0, "type": "electric_scooter", "is_reserved": 0, "fusion_lon": 0.0, "lat": 38.922337666666664, "rental_uris": {"ios": "https://dc.lft.to/lastmile_qr_scan", "android": "https://dc.lft.to/lastmile_qr_scan"}, "bike_id": "54096ef09137153da748b8a7d094dec4", "fusion_lat": 0.0}, {"lon": -77.02202216666667, "name": "dbf4dff98ef11cc4af36ee11a486ad3a", "is_disabled": 0, "type": "electric_scooter", "is_reserved": 0, "fusion_lon": 0.0, "lat": 38.911246, "rental_uris": {"ios": "https://dc.lft.to/lastmile_qr_scan", "android": "https://dc.lft.to/lastmile_qr_scan"}, "bike_id": "dbf4dff98ef11cc4af36ee11a486ad3a", "fusion_lat": 0.0}, {"lon": -77.01232916666666, "name": "898a3f1c56ff0af99a4edb46c734dcfa", "is_disabled": 0, "type": "electric_scooter", "is_reserved": 0, "fusion_lon": 0.0, "lat": 38.900102833333335, "rental_uris": {"ios": "https://dc.lft.to/lastmile_qr_scan", "android": "https://dc.lft.to/lastmile_qr_scan"}, "bike_id": "898a3f1c56ff0af99a4edb46c734dcfa", "fusion_lat": 0.0}, {"lon": -77.02282033333333, "name": "70751a103beb1f3e4a3ce56a45335080", "is_disabled": 0, "type": "electric_scooter", "is_reserved": 0, "fusion_lon": 0.0, "lat": 38.916421166666666, "rental_uris": {"ios": "https://dc.lft.to/lastmile_qr_scan", "android": "https://dc.lft.to/lastmile_qr_scan"}, "bike_id": "70751a103beb1f3e4a3ce56a45335080", "fusion_lat": 0.0}, {"lon": -77.00168666666667, "name": "a0caab7d0ff6df212acee1449fa5c4b1", "is_disabled": 0, "type": "electric_scooter", "is_reserved": 0, "fusion_lon": 0.0, "lat": 38.94074083333334, "rental_uris": {"ios": "https://dc.lft.to/lastmile_qr_scan", "android": "https://dc.lft.to/lastmile_qr_scan"}, "bike_id": "a0caab7d0ff6df212acee1449fa5c4b1", "fusion_lat": 0.0}, {"lon": -77.00067183333333, "name": "822d91c117682572cb39f33b47353b1c", "is_disabled": 0, "type": "electric_scooter", "is_reserved": 0, "fusion_lon": 0.0, "lat": 38.887755, "rental_uris": {"ios": "https://dc.lft.to/lastmile_qr_scan", "android": "https://dc.lft.to/lastmile_qr_scan"}, "bike_id": "822d91c117682572cb39f33b47353b1c", "fusion_lat": 0.0}, {"lon": -77.04499633333333, "name": "97d10be9d3ebdf17771e4b3d58396f88", "is_disabled": 0, "type": "electric_scooter", "is_reserved": 0, "fusion_lon": 0.0, "lat": 38.91962866666667, "rental_uris": {"ios": "https://dc.lft.to/lastmile_qr_scan", "android": "https://dc.lft.to/lastmile_qr_scan"}, "bike_id": "97d10be9d3ebdf17771e4b3d58396f88", "fusion_lat": 0.0}, {"lon": -77.04897783333334, "name": "0f8ed5e6b127d24c6f570db33c2b4d42", "is_disabled": 0, "type": "electric_scooter", "is_reserved": 0, "fusion_lon": 0.0, "lat": 38.90064366666667, "rental_uris": {"ios": "https://dc.lft.to/lastmile_qr_scan", "android": "https://dc.lft.to/lastmile_qr_scan"}, "bike_id": "0f8ed5e6b127d24c6f570db33c2b4d42", "fusion_lat": 0.0}, {"lon": -77.027002, "name": "36421adc0df18dbead0fddffc9955891", "is_disabled": 0, "type": "electric_scooter", "is_reserved": 0, "fusion_lon": 0.0, "lat": 38.918919, "rental_uris": {"ios": "https://dc.lft.to/lastmile_qr_scan", "android": "https://dc.lft.to/lastmile_qr_scan"}, "bike_id": "36421adc0df18dbead0fddffc9955891", "fusion_lat": 0.0}, {"lon": -77.0145335, "name": "1e25b8e73215379cbb7a423845210814", "is_disabled": 0, "type": "electric_scooter", "is_reserved": 0, "fusion_lon": 0.0, "lat": 38.95813783333333, "rental_uris": {"ios": "https://dc.lft.to/lastmile_qr_scan", "android": "https://dc.lft.to/lastmile_qr_scan"}, "bike_id": "1e25b8e73215379cbb7a423845210814", "fusion_lat": 0.0}, {"lon": -77.0114935, "name": "efa69e46873157961c9fc6d42e3768c6", "is_disabled": 0, "type": "electric_scooter", "is_reserved": 0, "fusion_lon": 0.0, "lat": 38.929617, "rental_uris": {"ios": "https://dc.lft.to/lastmile_qr_scan", "android": "https://dc.lft.to/lastmile_qr_scan"}, "bike_id": "efa69e46873157961c9fc6d42e3768c6", "fusion_lat": 0.0}, {"lon": -77.027607, "name": "41d32b4b2430cc743779d4709e4852bd", "is_disabled": 0, "type": "electric_scooter", "is_reserved": 0, "fusion_lon": 0.0, "lat": 38.92767816666667, "rental_uris": {"ios": "https://dc.lft.to/lastmile_qr_scan", "android": "https://dc.lft.to/lastmile_qr_scan"}, "bike_id": "41d32b4b2430cc743779d4709e4852bd", "fusion_lat": 0.0}, {"lon": -77.02138916666667, "name": "626799761615370fd05d97c78208ffc5", "is_disabled": 0, "type": "electric_scooter", "is_reserved": 0, "fusion_lon": 0.0, "lat": 38.93305016666667, "rental_uris": {"ios": "https://dc.lft.to/lastmile_qr_scan", "android": "https://dc.lft.to/lastmile_qr_scan"}, "bike_id": "626799761615370fd05d97c78208ffc5", "fusion_lat": 0.0}, {"lon": -77.01509133333333, "name": "ebde4c83e3316c6f9cb416926f4afad7", "is_disabled": 0, "type": "electric_scooter", "is_reserved": 0, "fusion_lon": 0.0, "lat": 38.90999983333333, "rental_uris": {"ios": "https://dc.lft.to/lastmile_qr_scan", "android": "https://dc.lft.to/lastmile_qr_scan"}, "bike_id": "ebde4c83e3316c6f9cb416926f4afad7", "fusion_lat": 0.0}, {"lon": -77.231775, "name": "d4c4f0ddbdf51f8c3c4ab11b0bf40c93", "is_disabled": 0, "type": "electric_bike", "is_reserved": 0, "fusion_lon": 0.0, "lat": 38.92894966666667, "rental_uris": {"ios": "https://dc.lft.to/lastmile_qr_scan", "android": "https://dc.lft.to/lastmile_qr_scan"}, "bike_id": "d4c4f0ddbdf51f8c3c4ab11b0bf40c93", "fusion_lat": 0.0}, {"lon": -77.0316845, "name": "d678d8fcb28b74b79c6bd2adaa84fd23", "is_disabled": 0, "type": "electric_scooter", "is_reserved": 0, "fusion_lon": 0.0, "lat": 38.892309833333336, "rental_uris": {"ios": "https://dc.lft.to/lastmile_qr_scan", "android": "https://dc.lft.to/lastmile_qr_scan"}, "bike_id": "d678d8fcb28b74b79c6bd2adaa84fd23", "fusion_lat": 0.0}, {"lon": -77.0200695, "name": "642eae734db6067392b52ad2da3cea07", "is_disabled": 0, "type": "electric_scooter", "is_reserved": 0, "fusion_lon": 0.0, "lat": 38.901544, "rental_uris": {"ios": "https://dc.lft.to/lastmile_qr_scan", "android": "https://dc.lft.to/lastmile_qr_scan"}, "bike_id": "642eae734db6067392b52ad2da3cea07", "fusion_lat": 0.0}, {"lon": -77.02383216666666, "name": "47153782dbf457b03667b4665e47e61a", "is_disabled": 0, "type": "electric_scooter", "is_reserved": 0, "fusion_lon": 0.0, "lat": 38.916403, "rental_uris": {"ios": "https://dc.lft.to/lastmile_qr_scan", "android": "https://dc.lft.to/lastmile_qr_scan"}, "bike_id": "47153782dbf457b03667b4665e47e61a", "fusion_lat": 0.0}, {"lon": -77.02602933333333, "name": "df94689f7ced9d58b576078a6bd8dda7", "is_disabled": 0, "type": "electric_scooter", "is_reserved": 0, "fusion_lon": 0.0, "lat": 38.90714783333333, "rental_uris": {"ios": "https://dc.lft.to/lastmile_qr_scan", "android": "https://dc.lft.to/lastmile_qr_scan"}, "bike_id": "df94689f7ced9d58b576078a6bd8dda7", "fusion_lat": 0.0}, {"lon": -77.04619733333334, "name": "45ebeb6ebb3422a9d75b0becb8e09b13", "is_disabled": 0, "type": "electric_scooter", "is_reserved": 0, "fusion_lon": 0.0, "lat": 38.92333933333333, "rental_uris": {"ios": "https://dc.lft.to/lastmile_qr_scan", "android": "https://dc.lft.to/lastmile_qr_scan"}, "bike_id": "45ebeb6ebb3422a9d75b0becb8e09b13", "fusion_lat": 0.0}, {"lon": -77.02101783333333, "name": "a65c87f87574c57bed4af23f1ea8e408", "is_disabled": 0, "type": "electric_scooter", "is_reserved": 0, "fusion_lon": 0.0, "lat": 38.92716133333333, "rental_uris": {"ios": "https://dc.lft.to/lastmile_qr_scan", "android": "https://dc.lft.to/lastmile_qr_scan"}, "bike_id": "a65c87f87574c57bed4af23f1ea8e408", "fusion_lat": 0.0}, {"lon": -77.03189233333333, "name": "9e833d1e2631960f8ffdf7008090ce81", "is_disabled": 0, "type": "electric_scooter", "is_reserved": 0, "fusion_lon": 0.0, "lat": 38.91065116666667, "rental_uris": {"ios": "https://dc.lft.to/lastmile_qr_scan", "android": "https://dc.lft.to/lastmile_qr_scan"}, "bike_id": "9e833d1e2631960f8ffdf7008090ce81", "fusion_lat": 0.0}, {"lon": -77.04387416666667, "name": "f802b473c0557609cc2817ae942e0689", "is_disabled": 0, "type": "electric_scooter", "is_reserved": 0, "fusion_lon": 0.0, "lat": 38.92363316666667, "rental_uris": {"ios": "https://dc.lft.to/lastmile_qr_scan", "android": "https://dc.lft.to/lastmile_qr_scan"}, "bike_id": "f802b473c0557609cc2817ae942e0689", "fusion_lat": 0.0}, {"lon": -77.02376533333333, "name": "a9bf2e3a33aaecbd075528a1d9c90053", "is_disabled": 0, "type": "electric_scooter", "is_reserved": 0, "fusion_lon": 0.0, "lat": 38.9020645, "rental_uris": {"ios": "https://dc.lft.to/lastmile_qr_scan", "android": "https://dc.lft.to/lastmile_qr_scan"}, "bike_id": "a9bf2e3a33aaecbd075528a1d9c90053", "fusion_lat": 0.0}, {"lon": -77.0207615, "name": "60698dbce7e39e37f655d12a666e4b37", "is_disabled": 0, "type": "electric_scooter", "is_reserved": 0, "fusion_lon": 0.0, "lat": 38.952602666666664, "rental_uris": {"ios": "https://dc.lft.to/lastmile_qr_scan", "android": "https://dc.lft.to/lastmile_qr_scan"}, "bike_id": "60698dbce7e39e37f655d12a666e4b37", "fusion_lat": 0.0}, {"lon": -77.041742, "name": "85838050d340c1575cb12bb50d5f551f", "is_disabled": 0, "type": "electric_scooter", "is_reserved": 0, "fusion_lon": 0.0, "lat": 38.91703316666667, "rental_uris": {"ios": "https://dc.lft.to/lastmile_qr_scan", "android": "https://dc.lft.to/lastmile_qr_scan"}, "bike_id": "85838050d340c1575cb12bb50d5f551f", "fusion_lat": 0.0}, {"lon": -77.01436783333334, "name": "96771eeec346fc84fa1e92e026585e50", "is_disabled": 0, "type": "electric_scooter", "is_reserved": 0, "fusion_lon": 0.0, "lat": 38.91313516666666, "rental_uris": {"ios": "https://dc.lft.to/lastmile_qr_scan", "android": "https://dc.lft.to/lastmile_qr_scan"}, "bike_id": "96771eeec346fc84fa1e92e026585e50", "fusion_lat": 0.0}, {"lon": -77.0319755, "name": "13edf927ef2cfd7981153f274a26fb3a", "is_disabled": 0, "type": "electric_scooter", "is_reserved": 0, "fusion_lon": 0.0, "lat": 38.91626333333333, "rental_uris": {"ios": "https://dc.lft.to/lastmile_qr_scan", "android": "https://dc.lft.to/lastmile_qr_scan"}, "bike_id": "13edf927ef2cfd7981153f274a26fb3a", "fusion_lat": 0.0}, {"lon": -77.048752, "name": "31caa5ff8f4e0df39995dc5225fca645", "is_disabled": 0, "type": "electric_scooter", "is_reserved": 0, "fusion_lon": 0.0, "lat": 38.9010525, "rental_uris": {"ios": "https://dc.lft.to/lastmile_qr_scan", "android": "https://dc.lft.to/lastmile_qr_scan"}, "bike_id": "31caa5ff8f4e0df39995dc5225fca645", "fusion_lat": 0.0}, {"lon": -77.02320566666667, "name": "d0a70c07fd029131723536fb2227191f", "is_disabled": 0, "type": "electric_scooter", "is_reserved": 0, "fusion_lon": 0.0, "lat": 38.92074316666667, "rental_uris": {"ios": "https://dc.lft.to/lastmile_qr_scan", "android": "https://dc.lft.to/lastmile_qr_scan"}, "bike_id": "d0a70c07fd029131723536fb2227191f", "fusion_lat": 0.0}, {"lon": -76.98951083333333, "name": "60fcc7ad162740a242442422a79b5d78", "is_disabled": 0, "type": "electric_scooter", "is_reserved": 0, "fusion_lon": 0.0, "lat": 38.90138366666667, "rental_uris": {"ios": "https://dc.lft.to/lastmile_qr_scan", "android": "https://dc.lft.to/lastmile_qr_scan"}, "bike_id": "60fcc7ad162740a242442422a79b5d78", "fusion_lat": 0.0}, {"lon": -77.02582783333334, "name": "0706b6e3b0f2a1471b7674c06a1750ed", "is_disabled": 0, "type": "electric_scooter", "is_reserved": 0, "fusion_lon": 0.0, "lat": 38.909636, "rental_uris": {"ios": "https://dc.lft.to/lastmile_qr_scan", "android": "https://dc.lft.to/lastmile_qr_scan"}, "bike_id": "0706b6e3b0f2a1471b7674c06a1750ed", "fusion_lat": 0.0}, {"lon": -77.0358675, "name": "0666bf1b9becfb0709ae17230861ef92", "is_disabled": 0, "type": "electric_scooter", "is_reserved": 0, "fusion_lon": 0.0, "lat": 38.927735166666665, "rental_uris": {"ios": "https://dc.lft.to/lastmile_qr_scan", "android": "https://dc.lft.to/lastmile_qr_scan"}, "bike_id": "0666bf1b9becfb0709ae17230861ef92", "fusion_lat": 0.0}, {"lon": -77.02597466666667, "name": "f318dc36db3ec69820e3ad6900edc4b3", "is_disabled": 0, "type": "electric_scooter", "is_reserved": 0, "fusion_lon": 0.0, "lat": 38.920927666666664, "rental_uris": {"ios": "https://dc.lft.to/lastmile_qr_scan", "android": "https://dc.lft.to/lastmile_qr_scan"}, "bike_id": "f318dc36db3ec69820e3ad6900edc4b3", "fusion_lat": 0.0}, {"lon": -77.0646175, "name": "fd4d680ac530446d4ce06ce4b5526d78", "is_disabled": 0, "type": "electric_scooter", "is_reserved": 0, "fusion_lon": 0.0, "lat": 38.9104695, "rental_uris": {"ios": "https://dc.lft.to/lastmile_qr_scan", "android": "https://dc.lft.to/lastmile_qr_scan"}, "bike_id": "fd4d680ac530446d4ce06ce4b5526d78", "fusion_lat": 0.0}, {"lon": -76.9519925, "name": "26e96b27e66caa0c227da20830c03d7a", "is_disabled": 0, "type": "electric_bike", "is_reserved": 0, "fusion_lon": 0.0, "lat": 38.891153333333335, "rental_uris": {"ios": "https://dc.lft.to/lastmile_qr_scan", "android": "https://dc.lft.to/lastmile_qr_scan"}, "bike_id": "26e96b27e66caa0c227da20830c03d7a", "fusion_lat": 0.0}, {"lon": -76.9986275, "name": "dafa60e0c7be78f18533385dea052bad", "is_disabled": 0, "type": "electric_scooter", "is_reserved": 0, "fusion_lon": 0.0, "lat": 38.902585, "rental_uris": {"ios": "https://dc.lft.to/lastmile_qr_scan", "android": "https://dc.lft.to/lastmile_qr_scan"}, "bike_id": "dafa60e0c7be78f18533385dea052bad", "fusion_lat": 0.0}, {"lon": -77.020046, "name": "192261321513fdcea517871e5ed8048a", "is_disabled": 0, "type": "electric_scooter", "is_reserved": 0, "fusion_lon": 0.0, "lat": 38.9110355, "rental_uris": {"ios": "https://dc.lft.to/lastmile_qr_scan", "android": "https://dc.lft.to/lastmile_qr_scan"}, "bike_id": "192261321513fdcea517871e5ed8048a", "fusion_lat": 0.0}, {"lon": -77.0224325, "name": "d5d3efdc41e4a3cbc94cfa90912cd005", "is_disabled": 0, "type": "electric_scooter", "is_reserved": 0, "fusion_lon": 0.0, "lat": 38.92429966666667, "rental_uris": {"ios": "https://dc.lft.to/lastmile_qr_scan", "android": "https://dc.lft.to/lastmile_qr_scan"}, "bike_id": "d5d3efdc41e4a3cbc94cfa90912cd005", "fusion_lat": 0.0}, {"lon": -77.023918, "name": "f60a9174b15c4b645e6ec684ba46e59d", "is_disabled": 0, "type": "electric_scooter", "is_reserved": 0, "fusion_lon": 0.0, "lat": 38.91601516666667, "rental_uris": {"ios": "https://dc.lft.to/lastmile_qr_scan", "android": "https://dc.lft.to/lastmile_qr_scan"}, "bike_id": "f60a9174b15c4b645e6ec684ba46e59d", "fusion_lat": 0.0}, {"lon": -76.99695333333334, "name": "0e326c9a7b590889b950df231e08fda9", "is_disabled": 0, "type": "electric_bike", "is_reserved": 0, "fusion_lon": 0.0, "lat": 38.838656, "rental_uris": {"ios": "https://dc.lft.to/lastmile_qr_scan", "android": "https://dc.lft.to/lastmile_qr_scan"}, "bike_id": "0e326c9a7b590889b950df231e08fda9", "fusion_lat": 0.0}, {"lon": -77.02201133333334, "name": "8aabecf9da3f861992126ef9f03fd43c", "is_disabled": 0, "type": "electric_scooter", "is_reserved": 0, "fusion_lon": 0.0, "lat": 38.92472516666667, "rental_uris": {"ios": "https://dc.lft.to/lastmile_qr_scan", "android": "https://dc.lft.to/lastmile_qr_scan"}, "bike_id": "8aabecf9da3f861992126ef9f03fd43c", "fusion_lat": 0.0}, {"lon": -76.951263, "name": "ff7a0e3359329b46376df6d890b453a0", "is_disabled": 0, "type": "electric_bike", "is_reserved": 0, "fusion_lon": 0.0, "lat": 38.951895666666665, "rental_uris": {"ios": "https://dc.lft.to/lastmile_qr_scan", "android": "https://dc.lft.to/lastmile_qr_scan"}, "bike_id": "ff7a0e3359329b46376df6d890b453a0", "fusion_lat": 0.0}, {"lon": -77.02415883333333, "name": "28968a642b09207291dbb46c6034ea3f", "is_disabled": 0, "type": "electric_scooter", "is_reserved": 0, "fusion_lon": 0.0, "lat": 38.909597, "rental_uris": {"ios": "https://dc.lft.to/lastmile_qr_scan", "android": "https://dc.lft.to/lastmile_qr_scan"}, "bike_id": "28968a642b09207291dbb46c6034ea3f", "fusion_lat": 0.0}, {"lon": -76.948488, "name": "a8178e1dcd9a32c95852a4f501477a0c", "is_disabled": 0, "type": "electric_scooter", "is_reserved": 0, "fusion_lon": 0.0, "lat": 38.896089333333336, "rental_uris": {"ios": "https://dc.lft.to/lastmile_qr_scan", "android": "https://dc.lft.to/lastmile_qr_scan"}, "bike_id": "a8178e1dcd9a32c95852a4f501477a0c", "fusion_lat": 0.0}, {"lon": -77.02839933333334, "name": "c07f733ff0ae298b032531aaf63cb627", "is_disabled": 0, "type": "electric_bike", "is_reserved": 0, "fusion_lon": 0.0, "lat": 38.94261983333333, "rental_uris": {"ios": "https://dc.lft.to/lastmile_qr_scan", "android": "https://dc.lft.to/lastmile_qr_scan"}, "bike_id": "c07f733ff0ae298b032531aaf63cb627", "fusion_lat": 0.0},