{"data": {"bikes": [{"name": "272b08c605023a5effa745e78ed2c1fd", "fusion_lat": 0.0, "type": "electric_scooter", "lat": 38.9053515, "is_reserved": 0, "is_disabled": 0, "fusion_lon": 0.0, "bike_id": "272b08c605023a5effa745e78ed2c1fd", "lon": -77.0627445, "rental_uris": {"ios": "https://dc.lft.to/lastmile_qr_scan", "android": "https://dc.lft.to/lastmile_qr_scan"}}, {"name": "473017f67af32a3152fcdc91031a8767", "fusion_lat": 0.0, "type": "electric_scooter", "lat": 38.950855833333335, "is_reserved": 0, "is_disabled": 0, "fusion_lon": 0.0, "bike_id": "473017f67af32a3152fcdc91031a8767", "lon": -77.02838866666667, "rental_uris": {"ios": "https://dc.lft.to/lastmile_qr_scan", "android": "https://dc.lft.to/lastmile_qr_scan"}}, {"name": "eb46db884a7d33a2218a2c23c808dd0c", "fusion_lat": 0.0, "type": "electric_scooter", "lat": 38.905047833333334, "is_reserved": 0, "is_disabled": 0, "fusion_lon": 0.0, "bike_id": "eb46db884a7d33a2218a2c23c808dd0c", "lon": -77.0693695, "rental_uris": {"ios": "https://dc.lft.to/lastmile_qr_scan", "android": "https://dc.lft.to/lastmile_qr_scan"}}, {"name": "6b1dfd8205b04b8e2470a06e2c495210", "fusion_lat": 0.0, "type": "electric_scooter", "lat": 38.892402833333335, "is_reserved": 0, "is_disabled": 0, "fusion_lon": 0.0, "bike_id": "6b1dfd8205b04b8e2470a06e2c495210", "lon": -77.03180783333333, "rental_uris": {"ios": "https://dc.lft.to/lastmile_qr_scan", "android": "https://dc.lft.to/lastmile_qr_scan"}}, {"name": "e326aaad4f57886cee3bba3d3c45be33", "fusion_lat": 0.0, "type": "electric_scooter", "lat": 38.902632, "is_reserved": 0, "is_disabled": 0, "fusion_lon": 0.0, "bike_id": "e326aaad4f57886cee3bba3d3c45be33", "lon": -77.01540566666667, "rental_uris": {"ios": "https://dc.lft.to/lastmile_qr_scan", "android": "https://dc.lft.to/lastmile_qr_scan"}}, {"name": "6572ec748afcc9ee5e09759eb572080b", "fusion_lat": 0.0, "type": "electric_scooter", "lat": 38.938667333333335, "is_reserved": 0, "is_disabled": 0, "fusion_lon": 0.0, "bike_id": "6572ec748afcc9ee5e09759eb572080b", "lon": -77.03212866666667, "rental_uris": {"ios": "https://dc.lft.to/lastmile_qr_scan", "android": "https://dc.lft.to/lastmile_qr_scan"}}, {"name": "4ccf134b06cab993a0c5621e77702303", "fusion_lat": 0.0, "type": "electric_scooter", "lat": 38.905504666666666, "is_reserved": 0, "is_disabled": 0, "fusion_lon": 0.0, "bike_id": "4ccf134b06cab993a0c5621e77702303", "lon": -77.03804266666667, "rental_uris": {"ios": "https://dc.lft.to/lastmile_qr_scan", "android": "https://dc.lft.to/lastmile_qr_scan"}}, {"name": "4990a3de78c70f20189651cbf490aa3e", "fusion_lat": 0.0, "type": "electric_scooter", "lat": 38.91104416666667, "is_reserved": 0, "is_disabled": 0, "fusion_lon": 0.0, "bike_id": "4990a3de78c70f20189651cbf490aa3e", "lon": -77.0105975, "rental_uris": {"ios": "https://dc.lft.to/lastmile_qr_scan", "android": "https://dc.lft.to/lastmile_qr_scan"}}, {"name": "570c4e52c042448035c5123b28fc840a", "fusion_lat": 0.0, "type": "electric_scooter", "lat": 38.9059785, "is_reserved": 0, "is_disabled": 0, "fusion_lon": 0.0, "bike_id": "570c4e52c042448035c5123b28fc840a", "lon": -77.00346083333334, "rental_uris": {"ios": "https://dc.lft.to/lastmile_qr_scan", "android": "https://dc.lft.to/lastmile_qr_scan"}}, {"name": "a06aed120406ddbecf3cfee3605810d6", "fusion_lat": 0.0, "type": "electric_scooter", "lat": 38.89983083333333, "is_reserved": 0, "is_disabled": 0, "fusion_lon": 0.0, "bike_id": "a06aed120406ddbecf3cfee3605810d6", "lon": -77.02707433333333, "rental_uris": {"ios": "https://dc.lft.to/lastmile_qr_scan", "android": "https://dc.lft.to/lastmile_qr_scan"}}, {"name": "1ae8b9e3dbce00d8897c98640f93fa7f", "fusion_lat": 0.0, "type": "electric_scooter", "lat": 38.907368166666664, "is_reserved": 0, "is_disabled": 0, "fusion_lon": 0.0, "bike_id": "1ae8b9e3dbce00d8897c98640f93fa7f", "lon": -77.04657616666667, "rental_uris": {"ios": "https://dc.lft.to/lastmile_qr_scan", "android": "https://dc.lft.to/lastmile_qr_scan"}}, {"name": "7584377bb47d6c772e4695a5127f4896", "fusion_lat": 0.0, "type": "electric_scooter", "lat": 38.895643666666665, "is_reserved": 0, "is_disabled": 0, "fusion_lon": 0.0, "bike_id": "7584377bb47d6c772e4695a5127f4896", "lon": -77.011144, "rental_uris": {"ios": "https://dc.lft.to/lastmile_qr_scan", "android": "https://dc.lft.to/lastmile_qr_scan"}}, {"name": "d0bd5aa946cf460daf03a74543a9a840", "fusion_lat": 0.0, "type": "electric_scooter", "lat": 38.905259, "is_reserved": 0, "is_disabled": 0, "fusion_lon": 0.0, "bike_id": "d0bd5aa946cf460daf03a74543a9a840", "lon": -77.04977733333334, "rental_uris": {"ios": "https://dc.lft.to/lastmile_qr_scan", "android": "https://dc.lft.to/lastmile_qr_scan"}}, {"name": "62637326aaf378059c71a3151e9929e1", "fusion_lat": 0.0, "type": "electric_scooter", "lat": 38.923144666666666, "is_reserved": 0, "is_disabled": 0, "fusion_lon": 0.0, "bike_id": "62637326aaf378059c71a3151e9929e1", "lon": -77.039563, "rental_uris": {"ios": "https://dc.lft.to/lastmile_qr_scan", "android": "https://dc.lft.to/lastmile_qr_scan"}}, {"name": "acd8efdc2d32db2dd1353ae2559a42ad", "fusion_lat": 0.0, "type": "electric_scooter", "lat": 38.935515333333335, "is_reserved": 0, "is_disabled": 0, "fusion_lon": 0.0, "bike_id": "acd8efdc2d32db2dd1353ae2559a42ad", "lon": -77.0236515, "rental_uris": {"ios": "https://dc.lft.to/lastmile_qr_scan", "android": "https://dc.lft.to/lastmile_qr_scan"}}, {"name": "45571b1e4777f8b07f654baa2f3c11b2", "fusion_lat": 0.0, "type": "electric_scooter", "lat": 38.924520333333334, "is_reserved": 0, "is_disabled": 0, "fusion_lon": 0.0, "bike_id": "45571b1e4777f8b07f654baa2f3c11b2", "lon": -77.03279083333334, "rental_uris": {"ios": "https://dc.lft.to/lastmile_qr_scan", "android": "https://dc.lft.to/lastmile_qr_scan"}}, {"name": "7e4eb4c180564b78f4feaf8a777538de", "fusion_lat": 0.0, "type": "electric_scooter", "lat": 38.91344316666667, "is_reserved": 0, "is_disabled": 0, "fusion_lon": 0.0, "bike_id": "7e4eb4c180564b78f4feaf8a777538de", "lon": -77.0034045, "rental_uris": {"ios": "https://dc.lft.to/lastmile_qr_scan", "android": "https://dc.lft.to/lastmile_qr_scan"}}, {"name": "94edc1eceee87950e6188c69332e7d75", "fusion_lat": 0.0, "type": "electric_scooter", "lat": 38.893533166666664, "is_reserved": 0, "is_disabled": 0, "fusion_lon": 0.0, "bike_id": "94edc1eceee87950e6188c69332e7d75", "lon": -77.00331616666666, "rental_uris": {"ios": "https://dc.lft.to/lastmile_qr_scan", "android": "https://dc.lft.to/lastmile_qr_scan"}}, {"name": "1b5f3055dbcea4cd5b8f7fd0e025cf4f", "fusion_lat": 0.0, "type": "electric_scooter", "lat": 38.908662166666666, "is_reserved": 0, "is_disabled": 0, "fusion_lon": 0.0, "bike_id": "1b5f3055dbcea4cd5b8f7fd0e025cf4f", "lon": -77.08592766666666, "rental_uris": {"ios": "https://dc.lft.to/lastmile_qr_scan", "android": "https://dc.lft.to/lastmile_qr_scan"}}, {"name": "683d714e3b27e28172bf3bcb73640f43", "fusion_lat": 0.0, "type": "electric_scooter", "lat": 38.938869333333336, "is_reserved": 0, "is_disabled": 0, "fusion_lon": 0.0, "bike_id": "683d714e3b27e28172bf3bcb73640f43", "lon": -77.02463866666666, "rental_uris": {"ios": "https://dc.lft.to/lastmile_qr_scan", "android": "https://dc.lft.to/lastmile_qr_scan"}}, {"name": "1ab5f2d2d69191ffe718eea600f511a2", "fusion_lat": 0.0, "type": "electric_scooter", "lat": 38.936068166666665, "is_reserved": 0, "is_disabled": 0, "fusion_lon": 0.0, "bike_id": "1ab5f2d2d69191ffe718eea600f511a2", "lon": -77.05592383333334, "rental_uris": {"ios": "https://dc.lft.to/lastmile_qr_scan", "android": "https://dc.lft.to/lastmile_qr_scan"}}, {"name": "5454c9db51b3b4b97dfddb343abae37f", "fusion_lat": 0.0, "type": "electric_scooter", "lat": 38.90031416666667, "is_reserved": 0, "is_disabled": 0, "fusion_lon": 0.0, "bike_id": "5454c9db51b3b4b97dfddb343abae37f", "lon": -76.9986455, "rental_uris": {"ios": "https://dc.lft.to/lastmile_qr_scan", "android": "https://dc.lft.to/lastmile_qr_scan"}}, {"name": "1bd9f45bf1e9fab585de9090ba60ab5b", "fusion_lat": 0.0, "type": "electric_scooter", "lat": 38.903412, "is_reserved": 0, "is_disabled": 0, "fusion_lon": 0.0, "bike_id": "1bd9f45bf1e9fab585de9090ba60ab5b", "lon": -77.05310916666667, "rental_uris": {"ios": "https://dc.lft.to/lastmile_qr_scan", "android": "https://dc.lft.to/lastmile_qr_scan"}}, {"name": "cd85b8e569dba52dddd538fda9479a45", "fusion_lat": 0.0, "type": "electric_bike", "lat": 38.94584733333333, "is_reserved": 0, "is_disabled": 0, "fusion_lon": 0.0, "bike_id": "cd85b8e569dba52dddd538fda9479a45", "lon": -77.00271533333333, "rental_uris": {"ios": "https://dc.lft.to/lastmile_qr_scan", "android": "https://dc.lft.to/lastmile_qr_scan"}}, {"name": "1da3fe441a28cf0f3732af674209ee6b", "fusion_lat": 0.0, "type": "electric_scooter", "lat": 38.94307633333333, "is_reserved": 0, "is_disabled": 0, "fusion_lon": 0.0, "bike_id": "1da3fe441a28cf0f3732af674209ee6b", "lon": -77.059258, "rental_uris": {"ios": "https://dc.lft.to/lastmile_qr_scan", "android": "https://dc.lft.to/lastmile_qr_scan"}}, {"name": "27d4bdfe213c31b87b776afb151a4c22", "fusion_lat": 0.0, "type": "electric_scooter", "lat": 38.900631833333335, "is_reserved": 0, "is_disabled": 0, "fusion_lon": 0.0, "bike_id": "27d4bdfe213c31b87b776afb151a4c22", "lon": -77.04506983333333, "rental_uris": {"ios": "https://dc.lft.to/lastmile_qr_scan", "android": "https://dc.lft.to/lastmile_qr_scan"}}, {"name": "3662ca92769d026684df1d506e8fc390", "fusion_lat": 0.0, "type": "electric_scooter", "lat": 38.90471633333333, "is_reserved": 0, "is_disabled": 0, "fusion_lon": 0.0, "bike_id": "3662ca92769d026684df1d506e8fc390", "lon": -77.04837983333333, "rental_uris": {"ios": "https://dc.lft.to/lastmile_qr_scan", "android": "https://dc.lft.to/lastmile_qr_scan"}}, {"name": "b046b862ec75f72452879125916061da", "fusion_lat": 0.0, "type": "electric_scooter", "lat": 38.885001833333334, "is_reserved": 0, "is_disabled": 0, "fusion_lon": 0.0, "bike_id": "b046b862ec75f72452879125916061da", "lon": -77.03063066666667, "rental_uris": {"ios": "https://dc.lft.to/lastmile_qr_scan", "android": "https://dc.lft.to/lastmile_qr_scan"}}, {"name": "56b9992a39fb13837ac1889427d06a7a", "fusion_lat": 0.0, "type": "electric_scooter", "lat": 38.91417033333333, "is_reserved": 0, "is_disabled": 0, "fusion_lon": 0.0, "bike_id": "56b9992a39fb13837ac1889427d06a7a", "lon": -77.0264285, "rental_uris": {"ios": "https://dc.lft.to/lastmile_qr_scan", "android": "https://dc.lft.to/lastmile_qr_scan"}}, {"name": "e80e04e0a4fef62064206633ce42860b", "fusion_lat": 0.0, "type": "electric_scooter", "lat": 38.924067666666666, "is_reserved": 0, "is_disabled": 0, "fusion_lon": 0.0, "bike_id": "e80e04e0a4fef62064206633ce42860b", "lon": -77.04039183333333, "rental_uris": {"ios": "https://dc.lft.to/lastmile_qr_scan", "android": "https://dc.lft.to/lastmile_qr_scan"}}, {"name": "18eae8fc33c2c317880fdf52aa732c2d", "fusion_lat": 0.0, "type": "electric_scooter", "lat": 38.905101333333334, "is_reserved": 0, "is_disabled": 0, "fusion_lon": 0.0, "bike_id": "18eae8fc33c2c317880fdf52aa732c2d", "lon": -77.052314, "rental_uris": {"ios": "https://dc.lft.to/lastmile_qr_scan", "android": "https://dc.lft.to/lastmile_qr_scan"}}, {"name": "d75389dd4ae6aa4efb58b331006bac5d", "fusion_lat": 0.0, "type": "electric_bike", "lat": 39.0388005, "is_reserved": 0, "is_disabled": 0, "fusion_lon": 0.0, "bike_id": "d75389dd4ae6aa4efb58b331006bac5d", "lon": -76.99044483333333, "rental_uris": {"ios": "https://dc.lft.to/lastmile_qr_scan", "android": "https://dc.lft.to/lastmile_qr_scan"}}, {"name": "20deb2c47d85bdbe48589cffa1041f88", "fusion_lat": 0.0, "type": "electric_scooter", "lat": 38.908221833333336, "is_reserved": 0, "is_disabled": 0, "fusion_lon": 0.0, "bike_id": "20deb2c47d85bdbe48589cffa1041f88", "lon": -77.03940816666666, "rental_uris": {"ios": "https://dc.lft.to/lastmile_qr_scan", "android": "https://dc.lft.to/lastmile_qr_scan"}}, {"name": "1b8e44e97517b4820023b6b65c4fa3f4", "fusion_lat": 0.0, "type": "electric_scooter", "lat": 38.90381166666667, "is_reserved": 0, "is_disabled": 0, "fusion_lon": 0.0, "bike_id": "1b8e44e97517b4820023b6b65c4fa3f4", "lon": -77.0288225, "rental_uris": {"ios": "https://dc.lft.to/lastmile_qr_scan", "android": "https://dc.lft.to/lastmile_qr_scan"}}, {"name": "63c05bb1c0b69cde60f39b4e332b8acc", "fusion_lat": 0.0, "type": "electric_scooter", "lat": 38.961095, "is_reserved": 0, "is_disabled": 0, "fusion_lon": 0.0, "bike_id": "63c05bb1c0b69cde60f39b4e332b8acc", "lon": -77.02816366666667, "rental_uris": {"ios": "https://dc.lft.to/lastmile_qr_scan", "android": "https://dc.lft.to/lastmile_qr_scan"}}, {"name": "2092f386e493f6a3c346ad7df05d0df6", "fusion_lat": 0.0, "type": "electric_scooter", "lat": 38.9119045, "is_reserved": 0, "is_disabled": 0, "fusion_lon": 0.0, "bike_id": "2092f386e493f6a3c346ad7df05d0df6", "lon": -76.996212, "rental_uris": {"ios": "https://dc.lft.to/lastmile_qr_scan", "android": "https://dc.lft.to/lastmile_qr_scan"}}, {"name": "d5948f5aa52daf0d0fce614dd4986af5", "fusion_lat": 0.0, "type": "electric_scooter", "lat": 38.89833183333333, "is_reserved": 0, "is_disabled": 0, "fusion_lon": 0.0, "bike_id": "d5948f5aa52daf0d0fce614dd4986af5", "lon": -76.9464195, "rental_uris": {"ios": "https://dc.lft.to/lastmile_qr_scan", "android": "https://dc.lft.to/lastmile_qr_scan"}}, {"name": "6c1f06c201762490c016a5562c0d6773", "fusion_lat": 0.0, "type": "electric_scooter", "lat": 38.884886333333334, "is_reserved": 0, "is_disabled": 0, "fusion_lon": 0.0, "bike_id": "6c1f06c201762490c016a5562c0d6773", "lon": -77.0072695, "rental_uris": {"ios": "https://dc.lft.to/lastmile_qr_scan", "android": "https://dc.lft.to/lastmile_qr_scan"}}, {"name": "ec264b47a0c6c7ed2bebca2dd3668fef", "fusion_lat": 0.0, "type": "electric_scooter", "lat": 38.91599033333333, "is_reserved": 0, "is_disabled": 0, "fusion_lon": 0.0, "bike_id": "ec264b47a0c6c7ed2bebca2dd3668fef", "lon": -77.02307033333334, "rental_uris": {"ios": "https://dc.lft.to/lastmile_qr_scan", "android": "https://dc.lft.to/lastmile_qr_scan"}}, {"name": "e06c9ecab4a02f66b40fb8e80c8ab0eb", "fusion_lat": 0.0, "type": "electric_scooter", "lat": 38.887404, "is_reserved": 0, "is_disabled": 0, "fusion_lon": 0.0, "bike_id": "e06c9ecab4a02f66b40fb8e80c8ab0eb", "lon": -77.02570283333333, "rental_uris": {"ios": "https://dc.lft.to/lastmile_qr_scan", "android": "https://dc.lft.to/lastmile_qr_scan"}}, {"name": "38c7eeb2aecbfeea90ed25b4ddbfeca9", "fusion_lat": 0.0, "type": "electric_scooter", "lat": 38.91784783333333, "is_reserved": 0, "is_disabled": 0, "fusion_lon": 0.0, "bike_id": "38c7eeb2aecbfeea90ed25b4ddbfeca9", "lon": -77.02360916666666, "rental_uris": {"ios": "https://dc.lft.to/lastmile_qr_scan", "android": "https://dc.lft.to/lastmile_qr_scan"}}, {"name": "c362d6d0f50fdc13ea6689ffd92d3815", "fusion_lat": 0.0, "type": "electric_scooter", "lat": 38.92319333333333, "is_reserved": 0, "is_disabled": 0, "fusion_lon": 0.0, "bike_id": "c362d6d0f50fdc13ea6689ffd92d3815", "lon": -77.04518083333333, "rental_uris": {"ios": "https://dc.lft.to/lastmile_qr_scan", "android": "https://dc.lft.to/lastmile_qr_scan"}}, {"name": "2056602cdf61767896072af704287f33", "fusion_lat": 0.0, "type": "electric_scooter", "lat": 38.90681516666667, "is_reserved": 0, "is_disabled": 0, "fusion_lon": 0.0, "bike_id": "2056602cdf61767896072af704287f33", "lon": -77.0366755, "rental_uris": {"ios": "https://dc.lft.to/lastmile_qr_scan", "android": "https://dc.lft.to/lastmile_qr_scan"}}, {"name": "6206df54dd657492b29135a336141bc9", "fusion_lat": 0.0, "type": "electric_scooter", "lat": 38.91714366666667, "is_reserved": 0, "is_disabled": 0, "fusion_lon": 0.0, "bike_id": "6206df54dd657492b29135a336141bc9", "lon": -77.04390683333334, "rental_uris": {"ios": "https://dc.lft.to/lastmile_qr_scan", "android": "https://dc.lft.to/lastmile_qr_scan"}}, {"name": "4e1d231ddb928d8d5f911686a1d1b88e", "fusion_lat": 0.0, "type": "electric_scooter", "lat": 38.918020166666665, "is_reserved": 0, "is_disabled": 0, "fusion_lon": 0.0, "bike_id": "4e1d231ddb928d8d5f911686a1d1b88e", "lon": -77.03210533333333, "rental_uris": {"ios": "https://dc.lft.to/lastmile_qr_scan", "android": "https://dc.lft.to/lastmile_qr_scan"}}, {"name": "a2a45db1b32861a25a26ac333b31c175", "fusion_lat": 0.0, "type": "electric_scooter", "lat": 38.93555666666666, "is_reserved": 0, "is_disabled": 0, "fusion_lon": 0.0, "bike_id": "a2a45db1b32861a25a26ac333b31c175", "lon": -77.08188316666667, "rental_uris": {"ios": "https://dc.lft.to/lastmile_qr_scan", "android": "https://dc.lft.to/lastmile_qr_scan"}}, {"name": "f45002cfd31044f3eed61bb8b08941aa", "fusion_lat": 0.0, "type": "electric_bike", "lat": 38.965331166666665, "is_reserved": 0, "is_disabled": 0, "fusion_lon": 0.0, "bike_id": "f45002cfd31044f3eed61bb8b08941aa", "lon": -77.03513933333333, "rental_uris": {"ios": "https://dc.lft.to/lastmile_qr_scan", "android": "https://dc.lft.to/lastmile_qr_scan"}}, {"name": "c5cb8fa9ce120c554bbbb840b5e1d0a9", "fusion_lat": 0.0, "type": "electric_scooter", "lat": 38.909629, "is_reserved": 0, "is_disabled": 0, "fusion_lon": 0.0, "bike_id": "c5cb8fa9ce120c554bbbb840b5e1d0a9", "lon": -77.04063566666666, "rental_uris": {"ios": "https://dc.lft.to/lastmile_qr_scan", "android": "https://dc.lft.to/lastmile_qr_scan"}}, {"name": "8a31dfae832b7f227e4fe64ead5f7f36", "fusion_lat": 0.0, "type": "electric_scooter", "lat": 38.903525, "is_reserved": 0, "is_disabled": 0, "fusion_lon": 0.0, "bike_id": "8a31dfae832b7f227e4fe64ead5f7f36", "lon": -77.02054166666667, "rental_uris": {"ios": "https://dc.lft.to/lastmile_qr_scan", "android": "https://dc.lft.to/lastmile_qr_scan"}}, {"name": "82ed7a1fb05edd5d56bc382ae57b14a3", "fusion_lat": 0.0, "type": "electric_scooter", "lat": 38.884106, "is_reserved": 0, "is_disabled": 0, "fusion_lon": 0.0, "bike_id": "82ed7a1fb05edd5d56bc382ae57b14a3", "lon": -76.97602333333333, "rental_uris": {"ios": "https://dc.lft.to/lastmile_qr_scan", "android": "https://dc.lft.to/lastmile_qr_scan"}}, {"name": "12f43976b01cba8f9e29ae91895cfc09", "fusion_lat": 0.0, "type": "electric_scooter", "lat": 38.942018833333336, "is_reserved": 0, "is_disabled": 0, "fusion_lon": 0.0, "bike_id": "12f43976b01cba8f9e29ae91895cfc09", "lon": -77.0251575, "rental_uris": {"ios": "https://dc.lft.to/lastmile_qr_scan", "android": "https://dc.lft.to/lastmile_qr_scan"}}, {"name": "1a74852075264e206247ec1c631ce20b", "fusion_lat": 0.0, "type": "electric_bike", "lat": 38.917146833333334, "is_reserved": 0, "is_disabled": 0, "fusion_lon": 0.0, "bike_id": "1a74852075264e206247ec1c631ce20b", "lon": -76.98865333333333, "rental_uris": {"ios": "https://dc.lft.to/lastmile_qr_scan", "android": "https://dc.lft.to/lastmile_qr_scan"}}, {"name": "cb89191bc3184e356c4afefb673443ce", "fusion_lat": 0.0, "type": "electric_scooter", "lat": 38.896752, "is_reserved": 0, "is_disabled": 0, "fusion_lon": 0.0, "bike_id": "cb89191bc3184e356c4afefb673443ce", "lon": -77.01197966666666, "rental_uris": {"ios": "https://dc.lft.to/lastmile_qr_scan", "android": "https://dc.lft.to/lastmile_qr_scan"}}, {"name": "14b86cb9dfde13c7d0f03838ca21cff4", "fusion_lat": 0.0, "type": "electric_scooter", "lat": 38.903126666666665, "is_reserved": 0, "is_disabled": 0, "fusion_lon": 0.0, "bike_id": "14b86cb9dfde13c7d0f03838ca21cff4", "lon": -77.053166, "rental_uris": {"ios": "https://dc.lft.to/lastmile_qr_scan", "android": "https://dc.lft.to/lastmile_qr_scan"}}, {"name": "b44f8d0bfb48506006a22e0429c0e83d", "fusion_lat": 0.0, "type": "electric_scooter", "lat": 38.8768565, "is_reserved": 0, "is_disabled": 0, "fusion_lon": 0.0, "bike_id": "b44f8d0bfb48506006a22e0429c0e83d", "lon": -77.000623, "rental_uris": {"ios": "https://dc.lft.to/lastmile_qr_scan", "android": "https://dc.lft.to/lastmile_qr_scan"}}, {"name": "2240dd45eddb55211ac8f820167c5cb9", "fusion_lat": 0.0, "type": "electric_scooter", "lat": 38.903243, "is_reserved": 0, "is_disabled": 0, "fusion_lon": 0.0, "bike_id": "2240dd45eddb55211ac8f820167c5cb9", "lon": -77.03843916666666, "rental_uris": {"ios": "https://dc.lft.to/lastmile_qr_scan", "android": "https://dc.lft.to/lastmile_qr_scan"}}, {"name": "4bba01e08c22263b1be7ee353a1d087d", "fusion_lat": 0.0, "type": "electric_scooter", "lat": 38.92018083333333, "is_reserved": 0, "is_disabled": 0, "fusion_lon": 0.0, "bike_id": "4bba01e08c22263b1be7ee353a1d087d", "lon": -77.02594516666667, "rental_uris": {"ios": "https://dc.lft.to/lastmile_qr_scan", "android": "https://dc.lft.to/lastmile_qr_scan"}}, {"name": "b5de92e864f99b09c5a7f916c6d8f2c5", "fusion_lat": 0.0, "type": "electric_scooter", "lat": 38.89467783333333, "is_reserved": 0, "is_disabled": 0, "fusion_lon": 0.0, "bike_id": "b5de92e864f99b09c5a7f916c6d8f2c5", "lon": -77.02026633333334, "rental_uris": {"ios": "https://dc.lft.to/lastmile_qr_scan", "android": "https://dc.lft.to/lastmile_qr_scan"}}, {"name": "4a41830daafe5bfa152e4cb7a993258d", "fusion_lat": 0.0, "type": "electric_scooter", "lat": 38.943109166666666, "is_reserved": 0, "is_disabled": 0, "fusion_lon": 0.0, "bike_id": "4a41830daafe5bfa152e4cb7a993258d", "lon": -77.02481483333334, "rental_uris": {"ios": "https://dc.lft.to/lastmile_qr_scan", "android": "https://dc.lft.to/lastmile_qr_scan"}}, {"name": "9b30fc1eb8599c9ef1b48aea6a66b7e8", "fusion_lat": 0.0, "type": "electric_scooter", "lat": 38.89222783333334, "is_reserved": 0, "is_disabled": 0, "fusion_lon": 0.0, "bike_id": "9b30fc1eb8599c9ef1b48aea6a66b7e8", "lon": -77.03112833333333, "rental_uris": {"ios": "https://dc.lft.to/lastmile_qr_scan", "android": "https://dc.lft.to/lastmile_qr_scan"}}, {"name": "0404ff6e8ecf92a789d2a5ccd2b942d1", "fusion_lat": 0.0, "type": "electric_scooter", "lat": 38.892170666666665, "is_reserved": 0, "is_disabled": 0, "fusion_lon": 0.0, "bike_id": "0404ff6e8ecf92a789d2a5ccd2b942d1", "lon": -77.02227483333333, "rental_uris": {"ios": "https://dc.lft.to/lastmile_qr_scan", "android": "https://dc.lft.to/lastmile_qr_scan"}}, {"name": "69342a4734bde47291f951ea39131466", "fusion_lat": 0.0, "type": "electric_bike", "lat": 38.83982566666667, "is_reserved": 0, "is_disabled": 0, "fusion_lon": 0.0, "bike_id": "69342a4734bde47291f951ea39131466", "lon": -77.00564583333333, "rental_uris": {"ios": "https://dc.lft.to/lastmile_qr_scan", "android": "https://dc.lft.to/lastmile_qr_scan"}}, {"name": "7f58ce7ca33de300b6ec735547d5a700", "fusion_lat": 0.0, "type": "electric_scooter", "lat": 38.9123955, "is_reserved": 0, "is_disabled": 0, "fusion_lon": 0.0, "bike_id": "7f58ce7ca33de300b6ec735547d5a700", "lon": -77.03837, "rental_uris": {"ios": "https://dc.lft.to/lastmile_qr_scan", "android": "https://dc.lft.to/lastmile_qr_scan"}}, {"name": "bb2ddb4b5018fa839561e6d729d524b9", "fusion_lat": 0.0, "type": "electric_scooter", "lat": 38.89613933333333, "is_reserved": 0, "is_disabled": 0, "fusion_lon": 0.0, "bike_id": "bb2ddb4b5018fa839561e6d729d524b9", "lon": -77.02372766666667, "rental_uris": {"ios": "https://dc.lft.to/lastmile_qr_scan", "android": "https://dc.lft.to/lastmile_qr_scan"}}, {"name": "68fd3767587acb978a5ef4940bfe6346", "fusion_lat": 0.0, "type": "electric_bike", "lat": 38.8627375, "is_reserved": 0, "is_disabled": 0, "fusion_lon": 0.0, "bike_id": "68fd3767587acb978a5ef4940bfe6346", "lon": -77.05971566666666, "rental_uris": {"ios": "https://dc.lft.to/lastmile_qr_scan", "android": "https://dc.lft.to/lastmile_qr_scan"}}, {"name": "231604e05c46ec6efe90797c40cc90fe", "fusion_lat": 0.0, "type": "electric_scooter", "lat": 38.901009, "is_reserved": 0, "is_disabled": 0, "fusion_lon": 0.0, "bike_id": "231604e05c46ec6efe90797c40cc90fe", "lon": -77.05046583333333, "rental_uris": {"ios": "https://dc.lft.to/lastmile_qr_scan", "android": "https://dc.lft.to/lastmile_qr_scan"}}, {"name": "f34da93c6f29a17ca3dec060dcb0d2e5", "fusion_lat": 0.0, "type": "electric_scooter", "lat": 38.89588033333333, "is_reserved": 0, "is_disabled": 0, "fusion_lon": 0.0, "bike_id": "f34da93c6f29a17ca3dec060dcb0d2e5", "lon": -76.99358683333334, "rental_uris": {"ios": "https://dc.lft.to/lastmile_qr_scan", "android": "https://dc.lft.to/lastmile_qr_scan"}}, {"name": "7e7e4b65d2a2d528dd02e19ab26dac7e", "fusion_lat": 0.0, "type": "electric_scooter", "lat": 38.92978316666667, "is_reserved": 0, "is_disabled": 0, "fusion_lon": 0.0, "bike_id": "7e7e4b65d2a2d528dd02e19ab26dac7e", "lon": -77.014485, "rental_uris": {"ios": "https://dc.lft.to/lastmile_qr_scan", "android": "https://dc.lft.to/lastmile_qr_scan"}}, {"name": "9daa9de2bbddea5dd67c9caf67623559", "fusion_lat": 0.0, "type": "electric_scooter", "lat": 38.912666333333334, "is_reserved": 0, "is_disabled": 0, "fusion_lon": 0.0, "bike_id": "9daa9de2bbddea5dd67c9caf67623559", "lon": -77.038261, "rental_uris": {"ios": "https://dc.lft.to/lastmile_qr_scan", "android": "https://dc.lft.to/lastmile_qr_scan"}}, {"name": "4bb48082468a5994eddc126ad399fb2d", "fusion_lat": 0.0, "type": "electric_scooter", "lat": 38.91557933333333, "is_reserved": 0, "is_disabled": 0, "fusion_lon": 0.0, "bike_id": "4bb48082468a5994eddc126ad399fb2d", "lon": -77.03836083333333, "rental_uris": {"ios": "https://dc.lft.to/lastmile_qr_scan", "android": "https://dc.lft.to/lastmile_qr_scan"}}, {"name": "d7a5195056495b76451838970aefc933", "fusion_lat": 0.0, "type": "electric_scooter", "lat": 38.8665475, "is_reserved": 0, "is_disabled": 0, "fusion_lon": 0.0, "bike_id": "d7a5195056495b76451838970aefc933", "lon": -76.99012966666666, "rental_uris": {"ios": "https://dc.lft.to/lastmile_qr_scan", "android": "https://dc.lft.to/lastmile_qr_scan"}}, {"name": "8ccde9eb2f6cfca58ffaef39f24b0f4c", "fusion_lat": 0.0, "type": "electric_bike", "lat": 38.88676233333333, "is_reserved": 0, "is_disabled": 0, "fusion_lon": 0.0, "bike_id": "8ccde9eb2f6cfca58ffaef39f24b0f4c", "lon": -77.1625025, "rental_uris": {"ios": "https://dc.lft.to/lastmile_qr_scan", "android": "https://dc.lft.to/lastmile_qr_scan"}}, {"name": "2e5778426b7cc0b90f37cfb38015641f", "fusion_lat": 0.0, "type": "electric_scooter", "lat": 38.89599783333333, "is_reserved": 0, "is_disabled": 0, "fusion_lon": 0.0, "bike_id": "2e5778426b7cc0b90f37cfb38015641f", "lon": -77.041049, "rental_uris": {"ios": "https://dc.lft.to/lastmile_qr_scan", "android": "https://dc.lft.to/lastmile_qr_scan"}}, {"name": "11a35c3d1c62c317f86cbfd991932976", "fusion_lat": 0.0, "type": "electric_scooter", "lat": 38.9119575, "is_reserved": 0, "is_disabled": 0, "fusion_lon": 0.0, "bike_id": "11a35c3d1c62c317f86cbfd991932976", "lon": -77.0450245, "rental_uris": {"ios": "https://dc.lft.to/lastmile_qr_scan", "android": "https://dc.lft.to/lastmile_qr_scan"}}, {"name": "702bb61930c2ccbc8a19b0b5fd5d08c6", "fusion_lat": 0.0, "type": "electric_bike", "lat": 38.9554315, "is_reserved": 0, "is_disabled": 0, "fusion_lon": 0.0, "bike_id": "702bb61930c2ccbc8a19b0b5fd5d08c6", "lon": -77.016179, "rental_uris": {"ios": "https://dc.lft.to/lastmile_qr_scan", "android": "https://dc.lft.to/lastmile_qr_scan"}}, {"name": "28e8c284312aa8aa212340dd6ab6d1f4", "fusion_lat": 0.0, "type": "electric_scooter", "lat": 38.9024385, "is_reserved": 0, "is_disabled": 0, "fusion_lon": 0.0, "bike_id": "28e8c284312aa8aa212340dd6ab6d1f4", "lon": -77.02683916666666, "rental_uris": {"ios": "https://dc.lft.to/lastmile_qr_scan", "android": "https://dc.lft.to/lastmile_qr_scan"}}, {"name": "9803d6bd610190a953d345790b12c4d4", "fusion_lat": 0.0, "type": "electric_scooter", "lat": 38.90265, "is_reserved": 0, "is_disabled": 0, "fusion_lon": 0.0, "bike_id": "9803d6bd610190a953d345790b12c4d4", "lon": -77.05316433333333, "rental_uris": {"ios": "https://dc.lft.to/lastmile_qr_scan", "android": "https://dc.lft.to/lastmile_qr_scan"}}, {"name": "631a854de17894040f21e30654c55d05", "fusion_lat": 0.0, "type": "electric_scooter", "lat": 38.900837833333334, "is_reserved": 0, "is_disabled": 0, "fusion_lon": 0.0, "bike_id": "631a854de17894040f21e30654c55d05", "lon": -77.03232216666666, "rental_uris": {"ios": "https://dc.lft.to/lastmile_qr_scan", "android": "https://dc.lft.to/lastmile_qr_scan"}}, {"name": "1510623fb414747218964e6d707ce09e", "fusion_lat": 0.0, "type": "electric_bike", "lat": 39.1056425, "is_reserved": 0, "is_disabled": 0, "fusion_lon": 0.0, "bike_id": "1510623fb414747218964e6d707ce09e", "lon": -77.15266583333333, "rental_uris": {"ios": "https://dc.lft.to/lastmile_qr_scan", "android": "https://dc.lft.to/lastmile_qr_scan"}}, {"name": "e319c58ea5a092a508074f2238bb8229", "fusion_lat": 0.0, "type": "electric_scooter", "lat": 38.94496016666667, "is_reserved": 0, "is_disabled": 0, "fusion_lon": 0.0, "bike_id": "e319c58ea5a092a508074f2238bb8229", "lon": -77.03148316666666, "rental_uris": {"ios": "https://dc.lft.to/lastmile_qr_scan", "android": "https://dc.lft.to/lastmile_qr_scan"}}, {"name": "bdb2498d4cf2394110b02371f6b8132d", "fusion_lat": 0.0, "type": "electric_scooter", "lat": 38.905708833333335, "is_reserved": 0, "is_disabled": 0, "fusion_lon": 0.0, "bike_id": "bdb2498d4cf2394110b02371f6b8132d", "lon": -77.02762433333334, "rental_uris": {"ios": "https://dc.lft.to/lastmile_qr_scan", "android": "https://dc.lft.to/lastmile_qr_scan"}}, {"name": "d2e59d4450362145b1f889a8f4127d42", "fusion_lat": 0.0, "type": "electric_scooter", "lat": 38.89648533333333, "is_reserved": 0, "is_disabled": 0, "fusion_lon": 0.0, "bike_id": "d2e59d4450362145b1f889a8f4127d42", "lon": -77.0465895, "rental_uris": {"ios": "https://dc.lft.to/lastmile_qr_scan", "android": "https://dc.lft.to/lastmile_qr_scan"}}, {"name": "c8ffc09e98dbb928e0459fcc0b95db39", "fusion_lat": 0.0, "type": "electric_scooter", "lat": 38.87648183333334, "is_reserved": 0, "is_disabled": 0, "fusion_lon": 0.0, "bike_id": "c8ffc09e98dbb928e0459fcc0b95db39", "lon": -76.96505333333333, "rental_uris": {"ios": "https://dc.lft.to/lastmile_qr_scan", "android": "https://dc.lft.to/lastmile_qr_scan"}}, {"name": "f8160427d5533f4b474c6f1ea6855075", "fusion_lat": 0.0, "type": "electric_scooter", "lat": 38.90963933333333, "is_reserved": 0, "is_disabled": 0, "fusion_lon": 0.0, "bike_id": "f8160427d5533f4b474c6f1ea6855075", "lon": -77.036668, "rental_uris": {"ios": "https://dc.lft.to/lastmile_qr_scan", "android": "https://dc.lft.to/lastmile_qr_scan"}}, {"name": "27bed9c5e9dd8c02cd884795fa29df0c", "fusion_lat": 0.0, "type": "electric_scooter", "lat": 38.92363483333333, "is_reserved": 0, "is_disabled": 0, "fusion_lon": 0.0, "bike_id": "27bed9c5e9dd8c02cd884795fa29df0c", "lon": -77.05026666666667, "rental_uris": {"ios": "https://dc.lft.to/lastmile_qr_scan", "android": "https://dc.lft.to/lastmile_qr_scan"}}, {"name": "02d379d08f7da0c9700198e0569b0536", "fusion_lat": 0.0, "type": "electric_scooter", "lat": 38.9348595, "is_reserved": 0, "is_disabled": 0, "fusion_lon": 0.0, "bike_id": "02d379d08f7da0c9700198e0569b0536", "lon": -77.03279416666666, "rental_uris": {"ios": "https://dc.lft.to/lastmile_qr_scan", "android": "https://dc.lft.to/lastmile_qr_scan"}}, {"name": "f7dc158bf4b99095897571d8737ebf40", "fusion_lat": 0.0, "type": "electric_scooter", "lat": 38.89860866666667, "is_reserved": 0, "is_disabled": 0, "fusion_lon": 0.0, "bike_id": "f7dc158bf4b99095897571d8737ebf40", "lon": -77.0317655, "rental_uris": {"ios": "https://dc.lft.to/lastmile_qr_scan", "android": "https://dc.lft.to/lastmile_qr_scan"}}, {"name": "881af922344648c3094530e39ff900bf", "fusion_lat": 0.0, "type": "electric_scooter", "lat": 38.918204333333335, "is_reserved": 0, "is_disabled": 0, "fusion_lon": 0.0, "bike_id": "881af922344648c3094530e39ff900bf", "lon": -77.0120795, "rental_uris": {"ios": "https://dc.lft.to/lastmile_qr_scan", "android": "https://dc.lft.to/lastmile_qr_scan"}}, {"name": "08a7d537f59a48b7d47e646dc41b777b", "fusion_lat": 0.0, "type": "electric_scooter", "lat": 38.904444166666664, "is_reserved": 0, "is_disabled": 0, "fusion_lon": 0.0, "bike_id": "08a7d537f59a48b7d47e646dc41b777b", "lon": -76.99618333333333, "rental_uris": {"ios": "https://dc.lft.to/lastmile_qr_scan", "android": "https://dc.lft.to/lastmile_qr_scan"}}, {"name": "5f3d810a1cda2b216d81decfeeaaacd4", "fusion_lat": 0.0, "type": "electric_scooter", "lat": 38.88065666666667, "is_reserved": 0, "is_disabled": 0, "fusion_lon": 0.0, "bike_id": "5f3d810a1cda2b216d81decfeeaaacd4", "lon": -76.93531983333334, "rental_uris": {"ios": "https://dc.lft.to/lastmile_qr_scan", "android": "https://dc.lft.to/lastmile_qr_scan"}}, {"name": "0abb884a9f5207b99feb3204cbd09dd3", "fusion_lat": 0.0, "type": "electric_scooter", "lat": 38.895852, "is_reserved": 0, "is_disabled": 0, "fusion_lon": 0.0, "bike_id": "0abb884a9f5207b99feb3204cbd09dd3", "lon": -76.93717433333333, "rental_uris": {"ios": "https://dc.lft.to/lastmile_qr_scan", "android": "https://dc.lft.to/lastmile_qr_scan"}}, {"name": "93a89d3d52bcb421014a5fd04a46efbd", "fusion_lat": 0.0, "type": "electric_scooter", "lat": 38.877571, "is_reserved": 0, "is_disabled": 0, "fusion_lon": 0.0, "bike_id": "93a89d3d52bcb421014a5fd04a46efbd", "lon": -76.99421066666666, "rental_uris": {"ios": "https://dc.lft.to/lastmile_qr_scan", "android": "https://dc.lft.to/lastmile_qr_scan"}}, {"name": "19b0e7b4ecfbbf9628c38b9eaee37905", "fusion_lat": 0.0, "type": "electric_scooter", "lat": 38.90967333333333, "is_reserved": 0, "is_disabled": 0, "fusion_lon": 0.0, "bike_id": "19b0e7b4ecfbbf9628c38b9eaee37905", "lon": -77.0455255, "rental_uris": {"ios": "https://dc.lft.to/lastmile_qr_scan", "android": "https://dc.lft.to/lastmile_qr_scan"}}, {"name": "7c455d6cfbee2e75d2120a504c90f9ff", "fusion_lat": 0.0, "type": "electric_scooter", "lat": 38.90320166666667, "is_reserved": 0, "is_disabled": 0, "fusion_lon": 0.0, "bike_id": "7c455d6cfbee2e75d2120a504c90f9ff", "lon": -77.03469966666667, "rental_uris": {"ios": "https://dc.lft.to/lastmile_qr_scan", "android": "https://dc.lft.to/lastmile_qr_scan"}}, {"name": "c059ceccc7cc98c9a4fc2902be041b1e", "fusion_lat": 0.0, "type": "electric_scooter", "lat": 38.856132, "is_reserved": 0, "is_disabled": 0, "fusion_lon": 0.0, "bike_id": "c059ceccc7cc98c9a4fc2902be041b1e", "lon": -76.98017833333333, "rental_uris": {"ios": "https://dc.lft.to/lastmile_qr_scan", "android": "https://dc.lft.to/lastmile_qr_scan"}}, {"name": "436018eaa58c64fd259462b003153a4c", "fusion_lat": 0.0, "type": "electric_scooter", "lat": 38.90998066666667, "is_reserved": 0, "is_disabled": 0, "fusion_lon": 0.0, "bike_id": "436018eaa58c64fd259462b003153a4c", "lon": -76.99406316666666, "rental_uris": {"ios": "https://dc.lft.to/lastmile_qr_scan", "android": "https://dc.lft.to/lastmile_qr_scan"}}, {"name": "f5ac0abf8286d010a8f1ea657b979f95", "fusion_lat": 0.0, "type": "electric_scooter", "lat": 38.842947, "is_reserved": 0, "is_disabled": 0, "fusion_lon": 0.0, "bike_id": "f5ac0abf8286d010a8f1ea657b979f95", "lon": -76.99945333333334, "rental_uris": {"ios": "https://dc.lft.to/lastmile_qr_scan", "android": "https://dc.lft.to/lastmile_qr_scan"}}, {"name": "55aad6f94f5feeef320223ca6ceef8f4", "fusion_lat": 0.0, "type": "electric_scooter", "lat": 38.90656366666666, "is_reserved": 0, "is_disabled": 0, "fusion_lon": 0.0, "bike_id": "55aad6f94f5feeef320223ca6ceef8f4", "lon": -77.0059975, "rental_uris": {"ios": "https://dc.lft.to/lastmile_qr_scan", "android": "https://dc.lft.to/lastmile_qr_scan"}}, {"name": "fd4fa490e1ac0b26d984d0773963191d", "fusion_lat": 0.0, "type": "electric_scooter", "lat": 38.91268383333333, "is_reserved": 0, "is_disabled": 0, "fusion_lon": 0.0, "bike_id": "fd4fa490e1ac0b26d984d0773963191d", "lon": -77.0608925, "rental_uris": {"ios": "https://dc.lft.to/lastmile_qr_scan", "android": "https://dc.lft.to/lastmile_qr_scan"}}, {"name": "9965a92c1a7e60d851cec29e2f177027", "fusion_lat": 0.0, "type": "electric_scooter", "lat": 38.91215533333333, "is_reserved": 0, "is_disabled": 0, "fusion_lon": 0.0, "bike_id": "9965a92c1a7e60d851cec29e2f177027", "lon": -77.076005, "rental_uris": {"ios": "https://dc.lft.to/lastmile_qr_scan", "android": "https://dc.lft.to/lastmile_qr_scan"}}, {"name": "232bfdbd0dde4c5f6fa80c87db8d60f9", "fusion_lat": 0.0, "type": "electric_scooter", "lat": 38.85785416666667, "is_reserved": 0, "is_disabled": 0, "fusion_lon": 0.0, "bike_id": "232bfdbd0dde4c5f6fa80c87db8d60f9", "lon": -76.99087933333334, "rental_uris": {"ios": "https://dc.lft.to/lastmile_qr_scan", "android": "https://dc.lft.to/lastmile_qr_scan"}}, {"name": "025e9ebbab935bd11b53c3a46c580fe5", "fusion_lat": 0.0, "type": "electric_scooter", "lat": 38.95648933333333, "is_reserved": 0, "is_disabled": 0, "fusion_lon": 0.0, "bike_id": "025e9ebbab935bd11b53c3a46c580fe5", "lon": -77.03284916666667, "rental_uris": {"ios": "https://dc.lft.to/lastmile_qr_scan", "android": "https://dc.lft.to/lastmile_qr_scan"}}, {"name": "c66c0d6a6e189e925bcf7d1889965b45", "fusion_lat": 0.0, "type": "electric_bike", "lat": 39.003783166666665, "is_reserved": 0, "is_disabled": 0, "fusion_lon": 0.0, "bike_id": "c66c0d6a6e189e925bcf7d1889965b45", "lon": -77.01287683333334, "rental_uris": {"ios": "https://dc.lft.to/lastmile_qr_scan", "android": "https://dc.lft.to/lastmile_qr_scan"}}, {"name": "40f89ec35edac8f0959a87aafce2dc21", "fusion_lat": 0.0, "type": "electric_scooter", "lat": 38.915739, "is_reserved": 0, "is_disabled": 0, "fusion_lon": 0.0, "bike_id": "40f89ec35edac8f0959a87aafce2dc21", "lon": -77.03191733333334, "rental_uris": {"ios": "https://dc.lft.to/lastmile_qr_scan", "android": "https://dc.lft.to/lastmile_qr_scan"}}, {"name": "31dfe773a28b8d54e1f9786c91d9c2e1", "fusion_lat": 0.0, "type": "electric_scooter", "lat": 38.9029935, "is_reserved": 0, "is_disabled": 0, "fusion_lon": 0.0, "bike_id": "31dfe773a28b8d54e1f9786c91d9c2e1", "lon": -77.02369266666666, "rental_uris": {"ios": "https://dc.lft.to/lastmile_qr_scan", "android": "https://dc.lft.to/lastmile_qr_scan"}}, {"name": "f2c9c31aaf3617f95dcc6d80d61f93f1", "fusion_lat": 0.0, "type": "electric_scooter", "lat": 38.8942605, "is_reserved": 0, "is_disabled": 0, "fusion_lon": 0.0, "bike_id": "f2c9c31aaf3617f95dcc6d80d61f93f1", "lon": -76.93259066666667, "rental_uris": {"ios": "https://dc.lft.to/lastmile_qr_scan", "android": "https://dc.lft.to/lastmile_qr_scan"}}, {"name": "0ba2da143316c2230d96dbb29cc4fc9c", "fusion_lat": 0.0, "type": "electric_scooter", "lat": 38.9248495, "is_reserved": 0, "is_disabled": 0, "fusion_lon": 0.0, "bike_id": "0ba2da143316c2230d96dbb29cc4fc9c", "lon": -77.05210666666666, "rental_uris": {"ios": "https://dc.lft.to/lastmile_qr_scan", "android": "https://dc.lft.to/lastmile_qr_scan"}}, {"name": "0ad32128441aaf54dc83100d0e202fbd", "fusion_lat": 0.0, "type": "electric_scooter", "lat": 38.902900833333334, "is_reserved": 0, "is_disabled": 0, "fusion_lon": 0.0, "bike_id": "0ad32128441aaf54dc83100d0e202fbd", "lon": -77.0382635, "rental_uris": {"ios": "https://dc.lft.to/lastmile_qr_scan", "android": "https://dc.lft.to/lastmile_qr_scan"}}, {"name": "a0d9d30fe22a55f581e2a9bbb63e7bd7", "fusion_lat": 0.0, "type": "electric_scooter", "lat": 38.95902666666667, "is_reserved": 0, "is_disabled": 0, "fusion_lon": 0.0, "bike_id": "a0d9d30fe22a55f581e2a9bbb63e7bd7", "lon": -77.08076416666667, "rental_uris": {"ios": "https://dc.lft.to/lastmile_qr_scan", "android": "https://dc.lft.to/lastmile_qr_scan"}}, {"name": "af95062727c3d60d7738a6597ce9b661", "fusion_lat": 0.0, "type": "electric_scooter", "lat": 38.895279333333335, "is_reserved": 0, "is_disabled": 0, "fusion_lon": 0.0, "bike_id": "af95062727c3d60d7738a6597ce9b661", "lon": -77.03205133333333, "rental_uris": {"ios": "https://dc.lft.to/lastmile_qr_scan", "android": "https://dc.lft.to/lastmile_qr_scan"}}, {"name": "782cd4aa22319511f8636522a574b510", "fusion_lat": 0.0, "type": "electric_scooter", "lat": 38.90283383333333, "is_reserved": 0, "is_disabled": 0, "fusion_lon": 0.0, "bike_id": "782cd4aa22319511f8636522a574b510", "lon": -77.03642616666667, "rental_uris": {"ios": "https://dc.lft.to/lastmile_qr_scan", "android": "https://dc.lft.to/lastmile_qr_scan"}}, {"name": "cec95e86964c46f8c15d943287c957cf", "fusion_lat": 0.0, "type": "electric_scooter", "lat": 38.8988235, "is_reserved": 0, "is_disabled": 0, "fusion_lon": 0.0, "bike_id": "cec95e86964c46f8c15d943287c957cf", "lon": -77.00905183333333, "rental_uris": {"ios": "https://dc.lft.to/lastmile_qr_scan", "android": "https://dc.lft.to/lastmile_qr_scan"}}, {"name": "917662d22efd03a3701bec0b312d7833", "fusion_lat": 0.0, "type": "electric_scooter", "lat": 38.895399166666664, "is_reserved": 0, "is_disabled": 0, "fusion_lon": 0.0, "bike_id": "917662d22efd03a3701bec0b312d7833", "lon": -77.029309, "rental_uris": {"ios": "https://dc.lft.to/lastmile_qr_scan", "android": "https://dc.lft.to/lastmile_qr_scan"}}, {"name": "d0f0025d67a6182e00c21cd3fa82c845", "fusion_lat": 0.0, "type": "electric_scooter", "lat": 38.911211333333334, "is_reserved": 0, "is_disabled": 0, "fusion_lon": 0.0, "bike_id": "d0f0025d67a6182e00c21cd3fa82c845", "lon": -77.0317975, "rental_uris": {"ios": "https://dc.lft.to/lastmile_qr_scan", "android": "https://dc.lft.to/lastmile_qr_scan"}}, {"name": "b8e7f3c7b0b3e645cab3559e3c8ff416", "fusion_lat": 0.0, "type": "electric_scooter", "lat": 38.90519783333333, "is_reserved": 0, "is_disabled": 0, "fusion_lon": 0.0, "bike_id": "b8e7f3c7b0b3e645cab3559e3c8ff416", "lon": -77.05007516666667, "rental_uris": {"ios": "https://dc.lft.to/lastmile_qr_scan", "android": "https://dc.lft.to/lastmile_qr_scan"}}, {"name": "a07724686f1de6e53b12127d4539eeed", "fusion_lat": 0.0, "type": "electric_scooter", "lat": 38.90338716666667, "is_reserved": 0, "is_disabled": 0, "fusion_lon": 0.0, "bike_id": "a07724686f1de6e53b12127d4539eeed", "lon": -76.9896015, "rental_uris": {"ios": "https://dc.lft.to/lastmile_qr_scan", "android": "https://dc.lft.to/lastmile_qr_scan"}}, {"name": "3bcaddc231d7cb4eadffd4fd9e5fc929", "fusion_lat": 0.0, "type": "electric_scooter", "lat": 38.914176499999996, "is_reserved": 0, "is_disabled": 0, "fusion_lon": 0.0, "bike_id": "3bcaddc231d7cb4eadffd4fd9e5fc929", "lon": -77.02799516666667, "rental_uris": {"ios": "https://dc.lft.to/lastmile_qr_scan", "android": "https://dc.lft.to/lastmile_qr_scan"}}, {"name": "edda98b903289ba47388b7836023ed2b", "fusion_lat": 0.0, "type": "electric_scooter", "lat": 38.926021666666664, "is_reserved": 0, "is_disabled": 0, "fusion_lon": 0.0, "bike_id": "edda98b903289ba47388b7836023ed2b", "lon": -77.0215305, "rental_uris": {"ios": "https://dc.lft.to/lastmile_qr_scan", "android": "https://dc.lft.to/lastmile_qr_scan"}}, {"name": "0692e96c304d8ebf2cd2a804d14a927c", "fusion_lat": 0.0, "type": "electric_scooter", "lat": 38.903635666666666, "is_reserved": 0, "is_disabled": 0, "fusion_lon": 0.0, "bike_id": "0692e96c304d8ebf2cd2a804d14a927c", "lon": -77.044996, "rental_uris": {"ios": "https://dc.lft.to/lastmile_qr_scan", "android": "https://dc.lft.to/lastmile_qr_scan"}}, {"name": "7993927e61f542d2602c75c63c560744", "fusion_lat": 0.0, "type": "electric_scooter", "lat": 38.929288666666665, "is_reserved": 0, "is_disabled": 0, "fusion_lon": 0.0, "bike_id": "7993927e61f542d2602c75c63c560744", "lon": -77.02332783333334, "rental_uris": {"ios": "https://dc.lft.to/lastmile_qr_scan", "android": "https://dc.lft.to/lastmile_qr_scan"}}, {"name": "03d34917829eadbf3a1c7871b9057d81", "fusion_lat": 0.0, "type": "electric_scooter", "lat": 38.9246855, "is_reserved": 0, "is_disabled": 0, "fusion_lon": 0.0, "bike_id": "03d34917829eadbf3a1c7871b9057d81", "lon": -77.03053366666667, "rental_uris": {"ios": "https://dc.lft.to/lastmile_qr_scan", "android": "https://dc.lft.to/lastmile_qr_scan"}}, {"name": "44b1967371048034cc1c80fb5697e717", "fusion_lat": 0.0, "type": "electric_scooter", "lat": 38.94748966666667, "is_reserved": 0, "is_disabled": 0, "fusion_lon": 0.0, "bike_id": "44b1967371048034cc1c80fb5697e717", "lon": -77.00008433333333, "rental_uris": {"ios": "https://dc.lft.to/lastmile_qr_scan", "android": "https://dc.lft.to/lastmile_qr_scan"}}, {"name": "1b15d049b4f0856ab3fe5210b0bcda6c", "fusion_lat": 0.0, "type": "electric_scooter", "lat": 38.916235666666665, "is_reserved": 0, "is_disabled": 0, "fusion_lon": 0.0, "bike_id": "1b15d049b4f0856ab3fe5210b0bcda6c", "lon": -77.03589466666666, "rental_uris": {"ios": "https://dc.lft.to/lastmile_qr_scan", "android": "https://dc.lft.to/lastmile_qr_scan"}}, {"name": "2f994ed806842f50040ef3735e7ac927", "fusion_lat": 0.0, "type": "electric_scooter", "lat": 38.90883383333333, "is_reserved": 0, "is_disabled": 0, "fusion_lon": 0.0, "bike_id": "2f994ed806842f50040ef3735e7ac927", "lon": -77.02301316666667, "rental_uris": {"ios": "https://dc.lft.to/lastmile_qr_scan", "android": "https://dc.lft.to/lastmile_qr_scan"}}, {"name": "b0a51af079f08c6db484cb281c43e6ef", "fusion_lat": 0.0, "type": "electric_scooter", "lat": 38.88214966666666, "is_reserved": 0, "is_disabled": 0, "fusion_lon": 0.0, "bike_id": "b0a51af079f08c6db484cb281c43e6ef", "lon": -76.94175733333333, "rental_uris": {"ios": "https://dc.lft.to/lastmile_qr_scan", "android": "https://dc.lft.to/lastmile_qr_scan"}}, {"name": "0dde4d0e7be9b8d474c69acfbbca4a39", "fusion_lat": 0.0, "type": "electric_scooter", "lat": 38.8960285, "is_reserved": 0, "is_disabled": 0, "fusion_lon": 0.0, "bike_id": "0dde4d0e7be9b8d474c69acfbbca4a39", "lon": -77.01811333333333, "rental_uris": {"ios": "https://dc.lft.to/lastmile_qr_scan", "android": "https://dc.lft.to/lastmile_qr_scan"}}, {"name": "a0f52e707981a6c33d2c240c4c81c43d", "fusion_lat": 0.0, "type": "electric_scooter", "lat": 38.94183566666667, "is_reserved": 0, "is_disabled": 0, "fusion_lon": 0.0, "bike_id": "a0f52e707981a6c33d2c240c4c81c43d", "lon": -77.02488166666667, "rental_uris": {"ios": "https://dc.lft.to/lastmile_qr_scan", "android": "https://dc.lft.to/lastmile_qr_scan"}}, {"name": "abfa72b153d3a6dc27630d80b3051787", "fusion_lat": 0.0, "type": "electric_scooter", "lat": 38.94837033333334, "is_reserved": 0, "is_disabled": 0, "fusion_lon": 0.0, "bike_id": "abfa72b153d3a6dc27630d80b3051787", "lon": -77.02552966666667, "rental_uris": {"ios": "https://dc.lft.to/lastmile_qr_scan", "android": "https://dc.lft.to/lastmile_qr_scan"}}, {"name": "8349c58b22b6487b88f73bef6e6fa780", "fusion_lat": 0.0, "type": "electric_scooter", "lat": 38.912511333333335, "is_reserved": 0, "is_disabled": 0, "fusion_lon": 0.0, "bike_id": "8349c58b22b6487b88f73bef6e6fa780", "lon": -77.0364355, "rental_uris": {"ios": "https://dc.lft.to/lastmile_qr_scan", "android": "https://dc.lft.to/lastmile_qr_scan"}}, {"name": "41525cc1f278d6d6dab045d7c9ad5dbf", "fusion_lat": 0.0, "type": "electric_scooter", "lat": 38.92367766666667, "is_reserved": 0, "is_disabled": 0, "fusion_lon": 0.0, "bike_id": "41525cc1f278d6d6dab045d7c9ad5dbf", "lon": -77.019135, "rental_uris": {"ios": "https://dc.lft.to/lastmile_qr_scan", "android": "https://dc.lft.to/lastmile_qr_scan"}}, {"name": "7489580965ed21ff33e2381b7944ad67", "fusion_lat": 0.0, "type": "electric_scooter", "lat": 38.90133333333333, "is_reserved": 0, "is_disabled": 0, "fusion_lon": 0.0, "bike_id": "7489580965ed21ff33e2381b7944ad67", "lon": -77.04772733333333, "rental_uris": {"ios": "https://dc.lft.to/lastmile_qr_scan", "android": "https://dc.lft.to/lastmile_qr_scan"}}, {"name": "45d435b72731a29e464640554a4568a4", "fusion_lat": 0.0, "type": "electric_scooter", "lat": 38.86209266666667, "is_reserved": 0, "is_disabled": 0, "fusion_lon": 0.0, "bike_id": "45d435b72731a29e464640554a4568a4", "lon": -76.99467383333334, "rental_uris": {"ios": "https://dc.lft.to/lastmile_qr_scan", "android": "https://dc.lft.to/lastmile_qr_scan"}}, {"name": "5146c4faa2db661e53c052dd01857d10", "fusion_lat": 0.0, "type": "electric_scooter", "lat": 38.8775215, "is_reserved": 0, "is_disabled": 0, "fusion_lon": 0.0, "bike_id": "5146c4faa2db661e53c052dd01857d10", "lon": -76.97244216666667, "rental_uris": {"ios": "https://dc.lft.to/lastmile_qr_scan", "android": "https://dc.lft.to/lastmile_qr_scan"}}, {"name": "a54c36c168fec4c4a0ff27ef7c739eae", "fusion_lat": 0.0, "type": "electric_scooter", "lat": 38.9289395, "is_reserved": 0, "is_disabled": 0, "fusion_lon": 0.0, "bike_id": "a54c36c168fec4c4a0ff27ef7c739eae", "lon": -77.02498833333334, "rental_uris": {"ios": "https://dc.lft.to/lastmile_qr_scan", "android": "https://dc.lft.to/lastmile_qr_scan"}}, {"name": "60cce25843ef52957e075623bbfa6b46", "fusion_lat": 0.0, "type": "electric_scooter", "lat": 38.92610333333333, "is_reserved": 0, "is_disabled": 0, "fusion_lon": 0.0, "bike_id": "60cce25843ef52957e075623bbfa6b46", "lon": -77.021583, "rental_uris": {"ios": "https://dc.lft.to/lastmile_qr_scan", "android": "https://dc.lft.to/lastmile_qr_scan"}}, {"name": "58dac9bf65412faf491950007682ec3e", "fusion_lat": 0.0, "type": "electric_scooter", "lat": 38.944415, "is_reserved": 0, "is_disabled": 0, "fusion_lon": 0.0, "bike_id": "58dac9bf65412faf491950007682ec3e", "lon": -77.0635235, "rental_uris": {"ios": "https://dc.lft.to/lastmile_qr_scan", "android": "https://dc.lft.to/lastmile_qr_scan"}}, {"name": "0bb235b91c552ec832c276a44b22efd7", "fusion_lat": 0.0, "type": "electric_scooter", "lat": 38.9396065, "is_reserved": 0, "is_disabled": 0, "fusion_lon": 0.0, "bike_id": "0bb235b91c552ec832c276a44b22efd7", "lon": -77.02748216666667, "rental_uris": {"ios": "https://dc.lft.to/lastmile_qr_scan", "android": "https://dc.lft.to/lastmile_qr_scan"}}, {"name": "6be31528511ff1109fc4f542748b2ebf", "fusion_lat": 0.0, "type": "electric_scooter", "lat": 38.89714083333333, "is_reserved": 0, "is_disabled": 0, "fusion_lon": 0.0, "bike_id": "6be31528511ff1109fc4f542748b2ebf", "lon": -77.007916, "rental_uris": {"ios": "https://dc.lft.to/lastmile_qr_scan", "android": "https://dc.lft.to/lastmile_qr_scan"}}, {"name": "1b3eecf20846a33f9396b699f15376ba", "fusion_lat": 0.0, "type": "electric_scooter", "lat": 38.90979683333333, "is_reserved": 0, "is_disabled": 0, "fusion_lon": 0.0, "bike_id": "1b3eecf20846a33f9396b699f15376ba", "lon": -77.048748, "rental_uris": {"ios": "https://dc.lft.to/lastmile_qr_scan", "android": "https://dc.lft.to/lastmile_qr_scan"}}, {"name": "bacc7cd020f253db53ca2cc6fa2bdd5e", "fusion_lat": 0.0, "type": "electric_bike", "lat": 38.8323475, "is_reserved": 0, "is_disabled": 0, "fusion_lon": 0.0, "bike_id": "bacc7cd020f253db53ca2cc6fa2bdd5e", "lon": -76.94620516666667, "rental_uris": {"ios": "https://dc.lft.to/lastmile_qr_scan", "android": "https://dc.lft.to/lastmile_qr_scan"}}, {"name": "496131383c84ac1b3b1d2ce255cb3a18", "fusion_lat": 0.0, "type": "electric_scooter", "lat": 38.89295533333333, "is_reserved": 0, "is_disabled": 0, "fusion_lon": 0.0, "bike_id": "496131383c84ac1b3b1d2ce255cb3a18", "lon": -76.93925733333333, "rental_uris": {"ios": "https://dc.lft.to/lastmile_qr_scan", "android": "https://dc.lft.to/lastmile_qr_scan"}}, {"name": "00d5808a4dbf2e0baa547e9b0cc4ac86", "fusion_lat": 0.0, "type": "electric_scooter", "lat": 38.90722916666667, "is_reserved": 0, "is_disabled": 0, "fusion_lon": 0.0, "bike_id": "00d5808a4dbf2e0baa547e9b0cc4ac86", "lon": -77.02317566666666, "rental_uris": {"ios": "https://dc.lft.to/lastmile_qr_scan", "android": "https://dc.lft.to/lastmile_qr_scan"}}, {"name": "d8a2a07f496ef8b56f080f67ba201196", "fusion_lat": 0.0, "type": "electric_scooter", "lat": 38.876592, "is_reserved": 0, "is_disabled": 0, "fusion_lon": 0.0, "bike_id": "d8a2a07f496ef8b56f080f67ba201196", "lon": -77.0045545, "rental_uris": {"ios": "https://dc.lft.to/lastmile_qr_scan", "android": "https://dc.lft.to/lastmile_qr_scan"}}, {"name": "e605627f0f71a5ffa14a3a664e70ac16", "fusion_lat": 0.0, "type": "electric_scooter", "lat": 38.894164833333335, "is_reserved": 0, "is_disabled": 0, "fusion_lon": 0.0, "bike_id": "e605627f0f71a5ffa14a3a664e70ac16", "lon": -76.93954616666667, "rental_uris": {"ios": "https://dc.lft.to/lastmile_qr_scan", "android": "https://dc.lft.to/lastmile_qr_scan"}}, {"name": "8fdbe328bd7961962494c92e5cd07e69", "fusion_lat": 0.0, "type": "electric_scooter", "lat": 38.92020383333333, "is_reserved": 0, "is_disabled": 0, "fusion_lon": 0.0, "bike_id": "8fdbe328bd7961962494c92e5cd07e69", "lon": -77.03122166666667, "rental_uris": {"ios": "https://dc.lft.to/lastmile_qr_scan", "android": "https://dc.lft.to/lastmile_qr_scan"}}, {"name": "1e726064b7c9481860593384471749b4", "fusion_lat": 0.0, "type": "electric_scooter", "lat": 38.92589483333333, "is_reserved": 0, "is_disabled": 0, "fusion_lon": 0.0, "bike_id": "1e726064b7c9481860593384471749b4", "lon": -77.02961133333334, "rental_uris": {"ios": "https://dc.lft.to/lastmile_qr_scan", "android": "https://dc.lft.to/lastmile_qr_scan"}}, {"name": "ef8d9edd4046f8a03c3b4fbcb92df899", "fusion_lat": 0.0, "type": "electric_scooter", "lat": 38.91700983333333, "is_reserved": 0, "is_disabled": 0, "fusion_lon": 0.0, "bike_id": "ef8d9edd4046f8a03c3b4fbcb92df899", "lon": -77.046756, "rental_uris": {"ios": "https://dc.lft.to/lastmile_qr_scan", "android": "https://dc.lft.to/lastmile_qr_scan"}}, {"name": "6d94eed81d3bd8a60b6978d9d2801ae2", "fusion_lat": 0.0, "type": "electric_scooter", "lat": 38.88347383333333, "is_reserved": 0, "is_disabled": 0, "fusion_lon": 0.0, "bike_id": "6d94eed81d3bd8a60b6978d9d2801ae2", "lon": -76.98547016666667, "rental_uris": {"ios": "https://dc.lft.to/lastmile_qr_scan", "android": "https://dc.lft.to/lastmile_qr_scan"}}, {"name": "b66638bc71ac0baf991360d427941d31", "fusion_lat": 0.0, "type": "electric_scooter", "lat": 38.903704833333336, "is_reserved": 0, "is_disabled": 0, "fusion_lon": 0.0, "bike_id": "b66638bc71ac0baf991360d427941d31", "lon": -77.04519916666666, "rental_uris": {"ios": "https://dc.lft.to/lastmile_qr_scan", "android": "https://dc.lft.to/lastmile_qr_scan"}}, {"name": "3c39b3fde27cc61ed692a135cc7f73d7", "fusion_lat": 0.0, "type": "electric_bike", "lat": 38.93670133333333, "is_reserved": 0, "is_disabled": 0, "fusion_lon": 0.0, "bike_id": "3c39b3fde27cc61ed692a135cc7f73d7", "lon": -76.95206466666667, "rental_uris": {"ios": "https://dc.lft.to/lastmile_qr_scan", "android": "https://dc.lft.to/lastmile_qr_scan"}}, {"name": "fe1be5ed87dc36019aa8cb4c373270f2", "fusion_lat": 0.0, "type": "electric_scooter", "lat": 38.901229666666666, "is_reserved": 0, "is_disabled": 0, "fusion_lon": 0.0, "bike_id": "fe1be5ed87dc36019aa8cb4c373270f2", "lon": -77.03048883333334, "rental_uris": {"ios": "https://dc.lft.to/lastmile_qr_scan", "android": "https://dc.lft.to/lastmile_qr_scan"}}, {"name": "82ac30318ef6454aadc9aa2043a9faaf", "fusion_lat": 0.0, "type": "electric_scooter", "lat": 38.8974165, "is_reserved": 0, "is_disabled": 0, "fusion_lon": 0.0, "bike_id": "82ac30318ef6454aadc9aa2043a9faaf", "lon": -76.93844066666666, "rental_uris": {"ios": "https://dc.lft.to/lastmile_qr_scan", "android": "https://dc.lft.to/lastmile_qr_scan"}}, {"name": "580be77823ad6243d0b56d5f8b6f82e2", "fusion_lat": 0.0, "type": "electric_scooter", "lat": 38.894807666666665, "is_reserved": 0, "is_disabled": 0, "fusion_lon": 0.0, "bike_id": "580be77823ad6243d0b56d5f8b6f82e2", "lon": -76.9951615, "rental_uris": {"ios": "https://dc.lft.to/lastmile_qr_scan", "android": "https://dc.lft.to/lastmile_qr_scan"}}, {"name": "1fee37e419ee00e1f6ecf06c85849bb2", "fusion_lat": 0.0, "type": "electric_scooter", "lat": 38.92162916666667, "is_reserved": 0, "is_disabled": 0, "fusion_lon": 0.0, "bike_id": "1fee37e419ee00e1f6ecf06c85849bb2", "lon": -77.0421405, "rental_uris": {"ios": "https://dc.lft.to/lastmile_qr_scan", "android": "https://dc.lft.to/lastmile_qr_scan"}}, {"name": "9d7582fc92a871a1afed9cf2ae805211", "fusion_lat": 0.0, "type": "electric_scooter", "lat": 38.900237833333335, "is_reserved": 0, "is_disabled": 0, "fusion_lon": 0.0, "bike_id": "9d7582fc92a871a1afed9cf2ae805211", "lon": -77.00204866666667, "rental_uris": {"ios": "https://dc.lft.to/lastmile_qr_scan", "android": "https://dc.lft.to/lastmile_qr_scan"}}, {"name": "851abb347450dcd2c7cbe19998f2fcee", "fusion_lat": 0.0, "type": "electric_scooter", "lat": 38.858455166666666, "is_reserved": 0, "is_disabled": 0, "fusion_lon": 0.0, "bike_id": "851abb347450dcd2c7cbe19998f2fcee", "lon": -76.95878866666666, "rental_uris": {"ios": "https://dc.lft.to/lastmile_qr_scan", "android": "https://dc.lft.to/lastmile_qr_scan"}}, {"name": "69dea6928b26860ef4880285d0423273", "fusion_lat": 0.0, "type": "electric_scooter", "lat": 38.91107366666667, "is_reserved": 0, "is_disabled": 0, "fusion_lon": 0.0, "bike_id": "69dea6928b26860ef4880285d0423273", "lon": -77.0314655, "rental_uris": {"ios": "https://dc.lft.to/lastmile_qr_scan", "android": "https://dc.lft.to/lastmile_qr_scan"}}, {"name": "3186bd4d62bac66a090ac4a864e21bd0", "fusion_lat": 0.0, "type": "electric_scooter", "lat": 38.932886, "is_reserved": 0, "is_disabled": 0, "fusion_lon": 0.0, "bike_id": "3186bd4d62bac66a090ac4a864e21bd0", "lon": -77.03981083333333, "rental_uris": {"ios": "https://dc.lft.to/lastmile_qr_scan", "android": "https://dc.lft.to/lastmile_qr_scan"}}, {"name": "5f8fb6afed3f402057750fc8dad9f588", "fusion_lat": 0.0, "type": "electric_scooter", "lat": 38.886837, "is_reserved": 0, "is_disabled": 0, "fusion_lon": 0.0, "bike_id": "5f8fb6afed3f402057750fc8dad9f588", "lon": -76.95756833333333, "rental_uris": {"ios": "https://dc.lft.to/lastmile_qr_scan", "android": "https://dc.lft.to/lastmile_qr_scan"}}, {"name": "6d067c768eec583ba35404c78e1b3963", "fusion_lat": 0.0, "type": "electric_bike", "lat": 38.942267, "is_reserved": 0, "is_disabled": 0, "fusion_lon": 0.0, "bike_id": "6d067c768eec583ba35404c78e1b3963", "lon": -77.01386866666667, "rental_uris": {"ios": "https://dc.lft.to/lastmile_qr_scan", "android": "https://dc.lft.to/lastmile_qr_scan"}}, {"name": "7eb29e7038ac77d13d54fe9344397433", "fusion_lat": 0.0, "type": "electric_scooter", "lat": 38.917736833333336, "is_reserved": 0, "is_disabled": 0, "fusion_lon": 0.0, "bike_id": "7eb29e7038ac77d13d54fe9344397433", "lon": -77.023654, "rental_uris": {"ios": "https://dc.lft.to/lastmile_qr_scan", "android": "https://dc.lft.to/lastmile_qr_scan"}}, {"name": "f7eff324f46164e6a6d267b79c730e66", "fusion_lat": 0.0, "type": "electric_scooter", "lat": 38.8945175, "is_reserved": 0, "is_disabled": 0, "fusion_lon": 0.0, "bike_id": "f7eff324f46164e6a6d267b79c730e66", "lon": -77.01921916666667, "rental_uris": {"ios": "https://dc.lft.to/lastmile_qr_scan", "android": "https://dc.lft.to/lastmile_qr_scan"}}, {"name": "332a32583d3e894c34779f647c79697e", "fusion_lat": 0.0, "type": "electric_scooter", "lat": 38.907737833333336, "is_reserved": 0, "is_disabled": 0, "fusion_lon": 0.0, "bike_id": "332a32583d3e894c34779f647c79697e", "lon": -77.07165183333333, "rental_uris": {"ios": "https://dc.lft.to/lastmile_qr_scan", "android": "https://dc.lft.to/lastmile_qr_scan"}}, {"name": "de774f533767b0d9f045012e2e98f91d", "fusion_lat": 0.0, "type": "electric_bike", "lat": 38.83823833333334, "is_reserved": 0, "is_disabled": 0, "fusion_lon": 0.0, "bike_id": "de774f533767b0d9f045012e2e98f91d", "lon": -76.9968285, "rental_uris": {"ios": "https://dc.lft.to/lastmile_qr_scan", "android": "https://dc.lft.to/lastmile_qr_scan"}}, {"name": "15ae8ed6330184467813d45ca8f39c69", "fusion_lat": 0.0, "type": "electric_scooter", "lat": 38.937827, "is_reserved": 0, "is_disabled": 0, "fusion_lon": 0.0, "bike_id": "15ae8ed6330184467813d45ca8f39c69", "lon": -77.05987916666666, "rental_uris": {"ios": "https://dc.lft.to/lastmile_qr_scan", "android": "https://dc.lft.to/lastmile_qr_scan"}}, {"name": "cbd352dbc8b0d06a607ee6ad4f1673b2", "fusion_lat": 0.0, "type": "electric_scooter", "lat": 38.90652383333333, "is_reserved": 0, "is_disabled": 0, "fusion_lon": 0.0, "bike_id": "cbd352dbc8b0d06a607ee6ad4f1673b2", "lon": -77.038649, "rental_uris": {"ios": "https://dc.lft.to/lastmile_qr_scan", "android": "https://dc.lft.to/lastmile_qr_scan"}}, {"name": "67329e08c2f0b758c2f2eb9cc0d63d01", "fusion_lat": 0.0, "type": "electric_scooter", "lat": 38.88737, "is_reserved": 0, "is_disabled": 0, "fusion_lon": 0.0, "bike_id": "67329e08c2f0b758c2f2eb9cc0d63d01", "lon": -77.03205966666667, "rental_uris": {"ios": "https://dc.lft.to/lastmile_qr_scan", "android": "https://dc.lft.to/lastmile_qr_scan"}}, {"name": "5b843c83012b5f792552b2c02ae4491c", "fusion_lat": 0.0, "type": "electric_scooter", "lat": 38.929286833333336, "is_reserved": 0, "is_disabled": 0, "fusion_lon": 0.0, "bike_id": "5b843c83012b5f792552b2c02ae4491c", "lon": -77.036485, "rental_uris": {"ios": "https://dc.lft.to/lastmile_qr_scan", "android": "https://dc.lft.to/lastmile_qr_scan"}}, {"name": "5072d6edf63d802708c8eb0f08435b90", "fusion_lat": 0.0, "type": "electric_scooter", "lat": 38.901075666666664, "is_reserved": 0, "is_disabled": 0, "fusion_lon": 0.0, "bike_id": "5072d6edf63d802708c8eb0f08435b90", "lon": -77.04225366666667, "rental_uris": {"ios": "https://dc.lft.to/lastmile_qr_scan", "android": "https://dc.lft.to/lastmile_qr_scan"}}, {"name": "8c88347b5e2a2de9adbb69bf40888b78", "fusion_lat": 0.0, "type": "electric_scooter", "lat": 38.92038466666666, "is_reserved": 0, "is_disabled": 0, "fusion_lon": 0.0, "bike_id": "8c88347b5e2a2de9adbb69bf40888b78", "lon": -77.071482, "rental_uris": {"ios": "https://dc.lft.to/lastmile_qr_scan", "android": "https://dc.lft.to/lastmile_qr_scan"}}, {"name": "1fd66da2fdfe22132d08b688dee94d9c", "fusion_lat": 0.0, "type": "electric_scooter", "lat": 38.90055816666667, "is_reserved": 0, "is_disabled": 0, "fusion_lon": 0.0, "bike_id": "1fd66da2fdfe22132d08b688dee94d9c", "lon": -77.00736766666667, "rental_uris": {"ios": "https://dc.lft.to/lastmile_qr_scan", "android": "https://dc.lft.to/lastmile_qr_scan"}}, {"name": "e736b5e72a25a23c5a38f57d0fd5bcd2", "fusion_lat": 0.0, "type": "electric_scooter", "lat": 38.91719666666667, "is_reserved": 0, "is_disabled": 0, "fusion_lon": 0.0, "bike_id": "e736b5e72a25a23c5a38f57d0fd5bcd2", "lon": -77.04170383333333, "rental_uris": {"ios": "https://dc.lft.to/lastmile_qr_scan", "android": "https://dc.lft.to/lastmile_qr_scan"}}, {"name": "567c60285c6ff97ad43fe9987e04d619", "fusion_lat": 0.0, "type": "electric_scooter", "lat": 38.925728, "is_reserved": 0, "is_disabled": 0, "fusion_lon": 0.0, "bike_id": "567c60285c6ff97ad43fe9987e04d619", "lon": -77.04379733333333, "rental_uris": {"ios": "https://dc.lft.to/lastmile_qr_scan", "android": "https://dc.lft.to/lastmile_qr_scan"}}, {"name": "faac8d3dfe5616404d6009dd0675e99d", "fusion_lat": 0.0, "type": "electric_scooter", "lat": 38.945987, "is_reserved": 0, "is_disabled": 0, "fusion_lon": 0.0, "bike_id": "faac8d3dfe5616404d6009dd0675e99d", "lon": -77.02978666666667, "rental_uris": {"ios": "https://dc.lft.to/lastmile_qr_scan", "android": "https://dc.lft.to/lastmile_qr_scan"}}, {"name": "229ebdb4728aa5c575040998eecfa9a7", "fusion_lat": 0.0, "type": "electric_scooter", "lat": 38.9004575, "is_reserved": 0, "is_disabled": 0, "fusion_lon": 0.0, "bike_id": "229ebdb4728aa5c575040998eecfa9a7", "lon": -77.00067533333333, "rental_uris": {"ios": "https://dc.lft.to/lastmile_qr_scan", "android": "https://dc.lft.to/lastmile_qr_scan"}}, {"name": "a3efb4244a0741ff19752864d4cca485", "fusion_lat": 0.0, "type": "electric_scooter", "lat": 38.903812333333335, "is_reserved": 0, "is_disabled": 0, "fusion_lon": 0.0, "bike_id": "a3efb4244a0741ff19752864d4cca485", "lon": -77.03846783333333, "rental_uris": {"ios": "https://dc.lft.to/lastmile_qr_scan", "android": "https://dc.lft.to/lastmile_qr_scan"}}, {"name": "8b5ad608c1c8842ea4c93d84573f879d", "fusion_lat": 0.0, "type": "electric_scooter", "lat": 38.916042, "is_reserved": 0, "is_disabled": 0, "fusion_lon": 0.0, "bike_id": "8b5ad608c1c8842ea4c93d84573f879d", "lon": -77.04150033333333, "rental_uris": {"ios": "https://dc.lft.to/lastmile_qr_scan", "android": "https://dc.lft.to/lastmile_qr_scan"}}, {"name": "afc4bf67d113063c28c3d3a52b30e97c", "fusion_lat": 0.0, "type": "electric_scooter", "lat": 38.923529, "is_reserved": 0, "is_disabled": 0, "fusion_lon": 0.0, "bike_id": "afc4bf67d113063c28c3d3a52b30e97c", "lon": -77.05081516666667, "rental_uris": {"ios": "https://dc.lft.to/lastmile_qr_scan", "android": "https://dc.lft.to/lastmile_qr_scan"}}, {"name": "a9bc383b1c9a7b43a47a55bdfac564f2", "fusion_lat": 0.0, "type": "electric_scooter", "lat": 38.8835635, "is_reserved": 0, "is_disabled": 0, "fusion_lon": 0.0, "bike_id": "a9bc383b1c9a7b43a47a55bdfac564f2", "lon": -76.99612133333333, "rental_uris": {"ios": "https://dc.lft.to/lastmile_qr_scan", "android": "https://dc.lft.to/lastmile_qr_scan"}}, {"name": "a51cdd5f749259749e773650fa9effe7", "fusion_lat": 0.0, "type": "electric_scooter", "lat": 38.903429, "is_reserved": 0, "is_disabled": 0, "fusion_lon": 0.0, "bike_id": "a51cdd5f749259749e773650fa9effe7", "lon": -77.0531075, "rental_uris": {"ios": "https://dc.lft.to/lastmile_qr_scan", "android": "https://dc.lft.to/lastmile_qr_scan"}}, {"name": "421e79f1f34cbe241584594aadfd30ca", "fusion_lat": 0.0, "type": "electric_scooter", "lat": 38.936000166666666, "is_reserved": 0, "is_disabled": 0, "fusion_lon": 0.0, "bike_id": "421e79f1f34cbe241584594aadfd30ca", "lon": -77.0586015, "rental_uris": {"ios": "https://dc.lft.to/lastmile_qr_scan", "android": "https://dc.lft.to/lastmile_qr_scan"}}, {"name": "9490698f79019cc49288bc696fed3371", "fusion_lat": 0.0, "type": "electric_scooter", "lat": 38.92337666666667, "is_reserved": 0, "is_disabled": 0, "fusion_lon": 0.0, "bike_id": "9490698f79019cc49288bc696fed3371", "lon": -77.04185466666667, "rental_uris": {"ios": "https://dc.lft.to/lastmile_qr_scan", "android": "https://dc.lft.to/lastmile_qr_scan"}}, {"name": "ab67902ec8ffec41d395b030f469c1a2", "fusion_lat": 0.0, "type": "electric_scooter", "lat": 38.901074, "is_reserved": 0, "is_disabled": 0, "fusion_lon": 0.0, "bike_id": "ab67902ec8ffec41d395b030f469c1a2", "lon": -77.0318105, "rental_uris": {"ios": "https://dc.lft.to/lastmile_qr_scan", "android": "https://dc.lft.to/lastmile_qr_scan"}}, {"name": "782cae0e5557b806d074cb55bafdf3f4", "fusion_lat": 0.0, "type": "electric_scooter", "lat": 38.890171, "is_reserved": 0, "is_disabled": 0, "fusion_lon": 0.0, "bike_id": "782cae0e5557b806d074cb55bafdf3f4", "lon": -76.93719533333334, "rental_uris": {"ios": "https://dc.lft.to/lastmile_qr_scan", "android": "https://dc.lft.to/lastmile_qr_scan"}}, {"name": "cb6aced2858a0927c931039f21e71c8b", "fusion_lat": 0.0, "type": "electric_scooter", "lat": 38.900376666666666, "is_reserved": 0, "is_disabled": 0, "fusion_lon": 0.0, "bike_id": "cb6aced2858a0927c931039f21e71c8b", "lon": -77.0088875, "rental_uris": {"ios": "https://dc.lft.to/lastmile_qr_scan", "android": "https://dc.lft.to/lastmile_qr_scan"}}, {"name": "b324ab4aa0c1f4237eec2b1d799a4063", "fusion_lat": 0.0, "type": "electric_scooter", "lat": 38.899973833333334, "is_reserved": 0, "is_disabled": 0, "fusion_lon": 0.0, "bike_id": "b324ab4aa0c1f4237eec2b1d799a4063", "lon": -77.04039816666666, "rental_uris": {"ios": "https://dc.lft.to/lastmile_qr_scan", "android": "https://dc.lft.to/lastmile_qr_scan"}}, {"name": "28ab9a9443dcb2192f706d20191456bb", "fusion_lat": 0.0, "type": "electric_scooter", "lat": 38.902682166666665, "is_reserved": 0, "is_disabled": 0, "fusion_lon": 0.0, "bike_id": "28ab9a9443dcb2192f706d20191456bb", "lon": -77.04534233333334, "rental_uris": {"ios": "https://dc.lft.to/lastmile_qr_scan", "android": "https://dc.lft.to/lastmile_qr_scan"}}, {"name": "b3a894ead090df828c607fd1901a488b", "fusion_lat": 0.0, "type": "electric_scooter", "lat": 38.903159333333335, "is_reserved": 0, "is_disabled": 0, "fusion_lon": 0.0, "bike_id": "b3a894ead090df828c607fd1901a488b", "lon": -77.03444683333333, "rental_uris": {"ios": "https://dc.lft.to/lastmile_qr_scan", "android": "https://dc.lft.to/lastmile_qr_scan"}}, {"name": "7c40afa3660b2da7ec2d886793ba5e48", "fusion_lat": 0.0, "type": "electric_scooter", "lat": 38.930834, "is_reserved": 0, "is_disabled": 0, "fusion_lon": 0.0, "bike_id": "7c40afa3660b2da7ec2d886793ba5e48", "lon": -77.02482816666667, "rental_uris": {"ios": "https://dc.lft.to/lastmile_qr_scan", "android": "https://dc.lft.to/lastmile_qr_scan"}}, {"name": "d3eb214ddf4a1eb2ed9742c3102a4039", "fusion_lat": 0.0, "type": "electric_scooter", "lat": 38.911560333333334, "is_reserved": 0, "is_disabled": 0, "fusion_lon": 0.0, "bike_id": "d3eb214ddf4a1eb2ed9742c3102a4039", "lon": -77.0385375, "rental_uris": {"ios": "https://dc.lft.to/lastmile_qr_scan", "android": "https://dc.lft.to/lastmile_qr_scan"}}, {"name": "2746b52e3c1962650aece26f36bc382d", "fusion_lat": 0.0, "type": "electric_bike", "lat": 38.92842433333333, "is_reserved": 0, "is_disabled": 0, "fusion_lon": 0.0, "bike_id": "2746b52e3c1962650aece26f36bc382d", "lon": -77.020542, "rental_uris": {"ios": "https://dc.lft.to/lastmile_qr_scan", "android": "https://dc.lft.to/lastmile_qr_scan"}}, {"name": "7e37330b0903af1055641f3b6c7218ea", "fusion_lat": 0.0, "type": "electric_scooter", "lat": 38.90165233333333, "is_reserved": 0, "is_disabled": 0, "fusion_lon": 0.0, "bike_id": "7e37330b0903af1055641f3b6c7218ea", "lon": -76.98072333333333, "rental_uris": {"ios": "https://dc.lft.to/lastmile_qr_scan", "android": "https://dc.lft.to/lastmile_qr_scan"}}, {"name": "ae05e9b187e3449ed830c02fda4916b6", "fusion_lat": 0.0, "type": "electric_scooter", "lat": 38.91745016666667, "is_reserved": 0, "is_disabled": 0, "fusion_lon": 0.0, "bike_id": "ae05e9b187e3449ed830c02fda4916b6", "lon": -77.04149433333333, "rental_uris": {"ios": "https://dc.lft.to/lastmile_qr_scan", "android": "https://dc.lft.to/lastmile_qr_scan"}}, {"name": "d729a4ebe2ca9f00211a814d640b5928", "fusion_lat": 0.0, "type": "electric_scooter", "lat": 38.915638, "is_reserved": 0, "is_disabled": 0, "fusion_lon": 0.0, "bike_id": "d729a4ebe2ca9f00211a814d640b5928", "lon": -77.03833833333333, "rental_uris": {"ios": "https://dc.lft.to/lastmile_qr_scan", "android": "https://dc.lft.to/lastmile_qr_scan"}}, {"name": "d6b8d945948fa9ea1b9f13732b16a642", "fusion_lat": 0.0, "type": "electric_scooter", "lat": 38.89979683333333, "is_reserved": 0, "is_disabled": 0, "fusion_lon": 0.0, "bike_id": "d6b8d945948fa9ea1b9f13732b16a642", "lon": -77.0312345, "rental_uris": {"ios": "https://dc.lft.to/lastmile_qr_scan", "android": "https://dc.lft.to/lastmile_qr_scan"}}, {"name": "0917409b6c67d15abbdbd004c69bd087", "fusion_lat": 0.0, "type": "electric_bike", "lat": 38.959085, "is_reserved": 0, "is_disabled": 0, "fusion_lon": 0.0, "bike_id": "0917409b6c67d15abbdbd004c69bd087", "lon": -77.00153666666667, "rental_uris": {"ios": "https://dc.lft.to/lastmile_qr_scan", "android": "https://dc.lft.to/lastmile_qr_scan"}}, {"name": "a2b59c088058bde3a420d6c0e4675643", "fusion_lat": 0.0, "type": "electric_scooter", "lat": 38.90244633333333, "is_reserved": 0, "is_disabled": 0, "fusion_lon": 0.0, "bike_id": "a2b59c088058bde3a420d6c0e4675643", "lon": -77.0314385, "rental_uris": {"ios": "https://dc.lft.to/lastmile_qr_scan", "android": "https://dc.lft.to/lastmile_qr_scan"}}, {"name": "a9c06c35bb40f16102134cdaecb77950", "fusion_lat": 0.0, "type": "electric_scooter", "lat": 38.89710866666667, "is_reserved": 0, "is_disabled": 0, "fusion_lon": 0.0, "bike_id": "a9c06c35bb40f16102134cdaecb77950", "lon": -77.03273883333334, "rental_uris": {"ios": "https://dc.lft.to/lastmile_qr_scan", "android": "https://dc.lft.to/lastmile_qr_scan"}}, {"name": "dd89d873554ed3a5d0241b7459ba355c", "fusion_lat": 0.0, "type": "electric_scooter", "lat": 38.9275065, "is_reserved": 0, "is_disabled": 0, "fusion_lon": 0.0, "bike_id": "dd89d873554ed3a5d0241b7459ba355c", "lon": -77.03265833333333, "rental_uris": {"ios": "https://dc.lft.to/lastmile_qr_scan", "android": "https://dc.lft.to/lastmile_qr_scan"}}, {"name": "de6d868cd155e56f95ce607d42a52614", "fusion_lat": 0.0, "type": "electric_scooter", "lat": 38.900269333333334, "is_reserved": 0, "is_disabled": 0, "fusion_lon": 0.0, "bike_id": "de6d868cd155e56f95ce607d42a52614", "lon": -77.01185033333333, "rental_uris": {"ios": "https://dc.lft.to/lastmile_qr_scan", "android": "https://dc.lft.to/lastmile_qr_scan"}}, {"name": "5c7ac55e4e00f8cee3e60dfc19a76a4b", "fusion_lat": 0.0, "type": "electric_scooter", "lat": 38.937106166666666, "is_reserved": 0, "is_disabled": 0, "fusion_lon": 0.0, "bike_id": "5c7ac55e4e00f8cee3e60dfc19a76a4b", "lon": -77.03651466666666, "rental_uris": {"ios": "https://dc.lft.to/lastmile_qr_scan", "android": "https://dc.lft.to/lastmile_qr_scan"}}, {"name": "e616a85d4f97907031382d84d8d8e3c9", "fusion_lat": 0.0, "type": "electric_scooter", "lat": 38.9012295, "is_reserved": 0, "is_disabled": 0, "fusion_lon": 0.0, "bike_id": "e616a85d4f97907031382d84d8d8e3c9", "lon": -77.04027266666667, "rental_uris": {"ios": "https://dc.lft.to/lastmile_qr_scan", "android": "https://dc.lft.to/lastmile_qr_scan"}}, {"name": "afbdf40608655e208899a3bf1757dbae", "fusion_lat": 0.0, "type": "electric_scooter", "lat": 38.918011166666666, "is_reserved": 0, "is_disabled": 0, "fusion_lon": 0.0, "bike_id": "afbdf40608655e208899a3bf1757dbae", "lon": -77.032102, "rental_uris": {"ios": "https://dc.lft.to/lastmile_qr_scan", "android": "https://dc.lft.to/lastmile_qr_scan"}}, {"name": "731827f96f0780d9f4f1a98d78b7e1d6", "fusion_lat": 0.0, "type": "electric_scooter", "lat": 38.914894, "is_reserved": 0, "is_disabled": 0, "fusion_lon": 0.0, "bike_id": "731827f96f0780d9f4f1a98d78b7e1d6", "lon": -77.03237283333333, "rental_uris": {"ios": "https://dc.lft.to/lastmile_qr_scan", "android": "https://dc.lft.to/lastmile_qr_scan"}}, {"name": "a0deb61b57f7b71b1c3eef166665dffb", "fusion_lat": 0.0, "type": "electric_scooter", "lat": 38.895779166666664, "is_reserved": 0, "is_disabled": 0, "fusion_lon": 0.0, "bike_id": "a0deb61b57f7b71b1c3eef166665dffb", "lon": -76.94888466666667, "rental_uris": {"ios": "https://dc.lft.to/lastmile_qr_scan", "android": "https://dc.lft.to/lastmile_qr_scan"}}, {"name": "077e75b928b2960e06ff435acaa6af9f", "fusion_lat": 0.0, "type": "electric_scooter", "lat": 38.90070816666667, "is_reserved": 0, "is_disabled": 0, "fusion_lon": 0.0, "bike_id": "077e75b928b2960e06ff435acaa6af9f", "lon": -77.04989933333333, "rental_uris": {"ios": "https://dc.lft.to/lastmile_qr_scan", "android": "https://dc.lft.to/lastmile_qr_scan"}}, {"name": "e30728b197cd18e162b1aca0083ddce6", "fusion_lat": 0.0, "type": "electric_bike", "lat": 38.968643666666665, "is_reserved": 0, "is_disabled": 0, "fusion_lon": 0.0, "bike_id": "e30728b197cd18e162b1aca0083ddce6", "lon": -77.03335316666667, "rental_uris": {"ios": "https://dc.lft.to/lastmile_qr_scan", "android": "https://dc.lft.to/lastmile_qr_scan"}}, {"name": "34c2d2e069b47d123a66bd8cacd5dca9", "fusion_lat": 0.0, "type": "electric_bike", "lat": 38.924295, "is_reserved": 0, "is_disabled": 0, "fusion_lon": 0.0, "bike_id": "34c2d2e069b47d123a66bd8cacd5dca9", "lon": -76.99130383333333, "rental_uris": {"ios": "https://dc.lft.to/lastmile_qr_scan", "android": "https://dc.lft.to/lastmile_qr_scan"}}, {"name": "3812a19edca7caebc0590087b98576c7", "fusion_lat": 0.0, "type": "electric_scooter", "lat": 38.917776, "is_reserved": 0, "is_disabled": 0, "fusion_lon": 0.0, "bike_id": "3812a19edca7caebc0590087b98576c7", "lon": -77.043001, "rental_uris": {"ios": "https://dc.lft.to/lastmile_qr_scan", "android": "https://dc.lft.to/lastmile_qr_scan"}}, {"name": "65756eaa352086b95a821cfd7f4a4c86", "fusion_lat": 0.0, "type": "electric_scooter", "lat": 38.9282575, "is_reserved": 0, "is_disabled": 0, "fusion_lon": 0.0, "bike_id": "65756eaa352086b95a821cfd7f4a4c86", "lon": -77.02258133333333, "rental_uris": {"ios": "https://dc.lft.to/lastmile_qr_scan", "android": "https://dc.lft.to/lastmile_qr_scan"}}, {"name": "bc4d1c6df8945de815168ee00ae73988", "fusion_lat": 0.0, "type": "electric_scooter", "lat": 38.90308433333333, "is_reserved": 0, "is_disabled": 0, "fusion_lon": 0.0, "bike_id": "bc4d1c6df8945de815168ee00ae73988", "lon": -77.036474, "rental_uris": {"ios": "https://dc.lft.to/lastmile_qr_scan", "android": "https://dc.lft.to/lastmile_qr_scan"}}, {"name": "edcea98038383b7fc22940b2e4ebab9d", "fusion_lat": 0.0, "type": "electric_scooter", "lat": 38.90136733333333, "is_reserved": 0, "is_disabled": 0, "fusion_lon": 0.0, "bike_id": "edcea98038383b7fc22940b2e4ebab9d", "lon": -77.04705333333334, "rental_uris": {"ios": "https://dc.lft.to/lastmile_qr_scan", "android": "https://dc.lft.to/lastmile_qr_scan"}}, {"name": "a2dd68d6e51581f26fee9655fa463612", "fusion_lat": 0.0, "type": "electric_scooter", "lat": 38.941996333333336, "is_reserved": 0, "is_disabled": 0, "fusion_lon": 0.0, "bike_id": "a2dd68d6e51581f26fee9655fa463612", "lon": -77.02513116666667, "rental_uris": {"ios": "https://dc.lft.to/lastmile_qr_scan", "android": "https://dc.lft.to/lastmile_qr_scan"}}, {"name": "af461d2270109d4c3d4d6fa0bfa360e2", "fusion_lat": 0.0, "type": "electric_bike", "lat": 38.88120116666666, "is_reserved": 0, "is_disabled": 0, "fusion_lon": 0.0, "bike_id": "af461d2270109d4c3d4d6fa0bfa360e2", "lon": -77.013486, "rental_uris": {"ios": "https://dc.lft.to/lastmile_qr_scan", "android": "https://dc.lft.to/lastmile_qr_scan"}}, {"name": "12218a0c84717fa94209123dd925702a", "fusion_lat": 0.0, "type": "electric_scooter", "lat": 38.905121666666666, "is_reserved": 0, "is_disabled": 0, "fusion_lon": 0.0, "bike_id": "12218a0c84717fa94209123dd925702a", "lon": -77.034459, "rental_uris": {"ios": "https://dc.lft.to/lastmile_qr_scan", "android": "https://dc.lft.to/lastmile_qr_scan"}}, {"name": "4339abde278eb20c585d55f4cfff86a5", "fusion_lat": 0.0, "type": "electric_scooter", "lat": 38.903424666666666, "is_reserved": 0, "is_disabled": 0, "fusion_lon": 0.0, "bike_id": "4339abde278eb20c585d55f4cfff86a5", "lon": -77.053101, "rental_uris": {"ios": "https://dc.lft.to/lastmile_qr_scan", "android": "https://dc.lft.to/lastmile_qr_scan"}}, {"name": "e983ea5ee623d9838d330678162fd208", "fusion_lat": 0.0, "type": "electric_bike", "lat": 38.8314735, "is_reserved": 0, "is_disabled": 0, "fusion_lon": 0.0, "bike_id": "e983ea5ee623d9838d330678162fd208", "lon": -77.11322116666666, "rental_uris": {"ios": "https://dc.lft.to/lastmile_qr_scan", "android": "https://dc.lft.to/lastmile_qr_scan"}}, {"name": "88aaece192b65a0085e4e8c9e47f59eb", "fusion_lat": 0.0, "type": "electric_scooter", "lat": 38.892208, "is_reserved": 0, "is_disabled": 0, "fusion_lon": 0.0, "bike_id": "88aaece192b65a0085e4e8c9e47f59eb", "lon": -77.03091, "rental_uris": {"ios": "https://dc.lft.to/lastmile_qr_scan", "android": "https://dc.lft.to/lastmile_qr_scan"}}, {"name": "fac5f09f9c57ad8c498f6e3020aaf430", "fusion_lat": 0.0, "type": "electric_scooter", "lat": 38.900549166666664, "is_reserved": 0, "is_disabled": 0, "fusion_lon": 0.0, "bike_id": "fac5f09f9c57ad8c498f6e3020aaf430", "lon": -77.00218883333334, "rental_uris": {"ios": "https://dc.lft.to/lastmile_qr_scan", "android": "https://dc.lft.to/lastmile_qr_scan"}}, {"name": "d95e36bb9953cfe9bbf39756e8af6d91", "fusion_lat": 0.0, "type": "electric_scooter", "lat": 38.92689333333333, "is_reserved": 0, "is_disabled": 0, "fusion_lon": 0.0, "bike_id": "d95e36bb9953cfe9bbf39756e8af6d91", "lon": -77.03774816666666, "rental_uris": {"ios": "https://dc.lft.to/lastmile_qr_scan", "android": "https://dc.lft.to/lastmile_qr_scan"}}, {"name": "69127421ef1f4460132e99a6ced2123c", "fusion_lat": 0.0, "type": "electric_scooter", "lat": 38.906939, "is_reserved": 0, "is_disabled": 0, "fusion_lon": 0.0, "bike_id": "69127421ef1f4460132e99a6ced2123c", "lon": -76.98854166666666, "rental_uris": {"ios": "https://dc.lft.to/lastmile_qr_scan", "android": "https://dc.lft.to/lastmile_qr_scan"}}, {"name": "1b0ceb4978f48a340e04a7e8630ada0c", "fusion_lat": 0.0, "type": "electric_scooter", "lat": 38.905033333333336, "is_reserved": 0, "is_disabled": 0, "fusion_lon": 0.0, "bike_id": "1b0ceb4978f48a340e04a7e8630ada0c", "lon": -77.044839, "rental_uris": {"ios": "https://dc.lft.to/lastmile_qr_scan", "android": "https://dc.lft.to/lastmile_qr_scan"}}, {"name": "9ba27432233c934780c059fd215c44d9", "fusion_lat": 0.0, "type": "electric_scooter", "lat": 38.9325185, "is_reserved": 0, "is_disabled": 0, "fusion_lon": 0.0, "bike_id": "9ba27432233c934780c059fd215c44d9", "lon": -77.040005, "rental_uris": {"ios": "https://dc.lft.to/lastmile_qr_scan", "android": "https://dc.lft.to/lastmile_qr_scan"}}, {"name": "9fb0ecbf72d6ca28ed8d2f16d987aafe", "fusion_lat": 0.0, "type": "electric_scooter", "lat": 38.89088116666667, "is_reserved": 0, "is_disabled": 0, "fusion_lon": 0.0, "bike_id": "9fb0ecbf72d6ca28ed8d2f16d987aafe", "lon": -76.98729, "rental_uris": {"ios": "https://dc.lft.to/lastmile_qr_scan", "android": "https://dc.lft.to/lastmile_qr_scan"}}, {"name": "de01f20fc0ebf6988df3dd71db64773d", "fusion_lat": 0.0, "type": "electric_scooter", "lat": 38.90467133333333, "is_reserved": 0, "is_disabled": 0, "fusion_lon": 0.0, "bike_id": "de01f20fc0ebf6988df3dd71db64773d", "lon": -77.0355745, "rental_uris": {"ios": "https://dc.lft.to/lastmile_qr_scan", "android": "https://dc.lft.to/lastmile_qr_scan"}}, {"name": "bcde4ba60c1f8f15c98b9fa28e358a3b", "fusion_lat": 0.0, "type": "electric_scooter", "lat": 38.91685916666667, "is_reserved": 0, "is_disabled": 0, "fusion_lon": 0.0, "bike_id": "bcde4ba60c1f8f15c98b9fa28e358a3b", "lon": -77.0246055, "rental_uris": {"ios": "https://dc.lft.to/lastmile_qr_scan", "android": "https://dc.lft.to/lastmile_qr_scan"}}, {"name": "e8e9cbe3cb1abf2d448f5416b958fd12", "fusion_lat": 0.0, "type": "electric_scooter", "lat": 38.86371066666667, "is_reserved": 0, "is_disabled": 0, "fusion_lon": 0.0, "bike_id": "e8e9cbe3cb1abf2d448f5416b958fd12", "lon": -76.99057216666667, "rental_uris": {"ios": "https://dc.lft.to/lastmile_qr_scan", "android": "https://dc.lft.to/lastmile_qr_scan"}}, {"name": "24719a18f753891f9c3af62cacebf30d", "fusion_lat": 0.0, "type": "electric_scooter", "lat": 38.9028125, "is_reserved": 0, "is_disabled": 0, "fusion_lon": 0.0, "bike_id": "24719a18f753891f9c3af62cacebf30d", "lon": -77.0364085, "rental_uris": {"ios": "https://dc.lft.to/lastmile_qr_scan", "android": "https://dc.lft.to/lastmile_qr_scan"}}, {"name": "1abc7353d86816a8db875b16c9dc86fc", "fusion_lat": 0.0, "type": "electric_bike", "lat": 38.87084083333333, "is_reserved": 0, "is_disabled": 0, "fusion_lon": 0.0, "bike_id": "1abc7353d86816a8db875b16c9dc86fc", "lon": -77.0120805, "rental_uris": {"ios": "https://dc.lft.to/lastmile_qr_scan", "android": "https://dc.lft.to/lastmile_qr_scan"}}, {"name": "0adb47a834f486154131a7a4ae898c26", "fusion_lat": 0.0, "type": "electric_scooter", "lat": 38.905357333333335, "is_reserved": 0, "is_disabled": 0, "fusion_lon": 0.0, "bike_id": "0adb47a834f486154131a7a4ae898c26", "lon": -77.04450616666666, "rental_uris": {"ios": "https://dc.lft.to/lastmile_qr_scan", "android": "https://dc.lft.to/lastmile_qr_scan"}}, {"name": "9fbe42e9ec965b0963ba2cbe8cc7e767", "fusion_lat": 0.0, "type": "electric_scooter", "lat": 38.863676, "is_reserved": 0, "is_disabled": 0, "fusion_lon": 0.0, "bike_id": "9fbe42e9ec965b0963ba2cbe8cc7e767", "lon": -77.01366266666666, "rental_uris": {"ios": "https://dc.lft.to/lastmile_qr_scan", "android": "https://dc.lft.to/lastmile_qr_scan"}}, {"name": "f4a09211d33af0b7af8991eebe640e23", "fusion_lat": 0.0, "type": "electric_scooter", "lat": 38.902914333333335, "is_reserved": 0, "is_disabled": 0, "fusion_lon": 0.0, "bike_id": "f4a09211d33af0b7af8991eebe640e23", "lon": -77.0426555, "rental_uris": {"ios": "https://dc.lft.to/lastmile_qr_scan", "android": "https://dc.lft.to/lastmile_qr_scan"}}, {"name": "cd2f5670c5b209302e91da09c25d92b1", "fusion_lat": 0.0, "type": "electric_scooter", "lat": 38.93154216666667, "is_reserved": 0, "is_disabled": 0, "fusion_lon": 0.0, "bike_id": "cd2f5670c5b209302e91da09c25d92b1", "lon": -77.03885383333333, "rental_uris": {"ios": "https://dc.lft.to/lastmile_qr_scan", "android": "https://dc.lft.to/lastmile_qr_scan"}}, {"name": "14043d0b3fec0bbb272d04f87c70db55", "fusion_lat": 0.0, "type": "electric_scooter", "lat": 38.925564333333334, "is_reserved": 0, "is_disabled": 0, "fusion_lon": 0.0, "bike_id": "14043d0b3fec0bbb272d04f87c70db55", "lon": -77.06282183333333, "rental_uris": {"ios": "https://dc.lft.to/lastmile_qr_scan", "android": "https://dc.lft.to/lastmile_qr_scan"}}, {"name": "517e1d6001d15c20b0780bb28da833a6", "fusion_lat": 0.0, "type": "electric_scooter", "lat": 38.89492383333334, "is_reserved": 0, "is_disabled": 0, "fusion_lon": 0.0, "bike_id": "517e1d6001d15c20b0780bb28da833a6", "lon": -77.01076816666667, "rental_uris": {"ios": "https://dc.lft.to/lastmile_qr_scan", "android": "https://dc.lft.to/lastmile_qr_scan"}}, {"name": "73dad40e8936e82e7c45b4c7271bc4c7", "fusion_lat": 0.0, "type": "electric_scooter", "lat": 38.89727466666667, "is_reserved": 0, "is_disabled": 0, "fusion_lon": 0.0, "bike_id": "73dad40e8936e82e7c45b4c7271bc4c7", "lon": -77.04332933333333, "rental_uris": {"ios": "https://dc.lft.to/lastmile_qr_scan", "android": "https://dc.lft.to/lastmile_qr_scan"}}, {"name": "2f8a3f2b8afc0012eb2f38c2e2a9ca98", "fusion_lat": 0.0, "type": "electric_scooter", "lat": 38.901220333333335, "is_reserved": 0, "is_disabled": 0, "fusion_lon": 0.0, "bike_id": "2f8a3f2b8afc0012eb2f38c2e2a9ca98", "lon": -77.044839, "rental_uris": {"ios": "https://dc.lft.to/lastmile_qr_scan", "android": "https://dc.lft.to/lastmile_qr_scan"}}, {"name": "1c46f97567bbdd73c6cb6f5438c9537f", "fusion_lat": 0.0, "type": "electric_scooter", "lat": 38.883468, "is_reserved": 0, "is_disabled": 0, "fusion_lon": 0.0, "bike_id": "1c46f97567bbdd73c6cb6f5438c9537f", "lon": -76.94934983333333, "rental_uris": {"ios": "https://dc.lft.to/lastmile_qr_scan", "android": "https://dc.lft.to/lastmile_qr_scan"}}, {"name": "fdf49af7cb628d87001af202518fbaba", "fusion_lat": 0.0, "type": "electric_bike", "lat": 38.92849833333333, "is_reserved": 0, "is_disabled": 0, "fusion_lon": 0.0, "bike_id": "fdf49af7cb628d87001af202518fbaba", "lon": -77.10678333333334, "rental_uris": {"ios": "https://dc.lft.to/lastmile_qr_scan", "android": "https://dc.lft.to/lastmile_qr_scan"}}, {"name": "d0ac9470e611316ed7eec6746799a0cb", "fusion_lat": 0.0, "type": "electric_scooter", "lat": 38.92443183333334, "is_reserved": 0, "is_disabled": 0, "fusion_lon": 0.0, "bike_id": "d0ac9470e611316ed7eec6746799a0cb", "lon": -77.02969316666666, "rental_uris": {"ios": "https://dc.lft.to/lastmile_qr_scan", "android": "https://dc.lft.to/lastmile_qr_scan"}}, {"name": "382e86c67be16cd0a6597a60974eab06", "fusion_lat": 0.0, "type": "electric_scooter", "lat": 38.930598333333336, "is_reserved": 0, "is_disabled": 0, "fusion_lon": 0.0, "bike_id": "382e86c67be16cd0a6597a60974eab06", "lon": -77.023223, "rental_uris": {"ios": "https://dc.lft.to/lastmile_qr_scan", "android": "https://dc.lft.to/lastmile_qr_scan"}}, {"name": "dbcca4703c5d739f1bbe53330168510b", "fusion_lat": 0.0, "type": "electric_scooter", "lat": 38.9125065, "is_reserved": 0, "is_disabled": 0, "fusion_lon": 0.0, "bike_id": "dbcca4703c5d739f1bbe53330168510b", "lon": -77.00761733333333, "rental_uris": {"ios": "https://dc.lft.to/lastmile_qr_scan", "android": "https://dc.lft.to/lastmile_qr_scan"}}, {"name": "4ff6ae977b5ff425ae95af30e3324676", "fusion_lat": 0.0, "type": "electric_scooter", "lat": 38.903362666666666, "is_reserved": 0, "is_disabled": 0, "fusion_lon": 0.0, "bike_id": "4ff6ae977b5ff425ae95af30e3324676", "lon": -77.0529255, "rental_uris": {"ios": "https://dc.lft.to/lastmile_qr_scan", "android": "https://dc.lft.to/lastmile_qr_scan"}}, {"name": "983d232a11ef67d85cf91c10f90b473b", "fusion_lat": 0.0, "type": "electric_scooter", "lat": 38.8972755, "is_reserved": 0, "is_disabled": 0, "fusion_lon": 0.0, "bike_id": "983d232a11ef67d85cf91c10f90b473b", "lon": -77.00929516666666, "rental_uris": {"ios": "https://dc.lft.to/lastmile_qr_scan", "android": "https://dc.lft.to/lastmile_qr_scan"}}, {"name": "ec0bb0978a9755732e7e38bdaa3bb4e8", "fusion_lat": 0.0, "type": "electric_scooter", "lat": 38.913263666666666, "is_reserved": 0, "is_disabled": 0, "fusion_lon": 0.0, "bike_id": "ec0bb0978a9755732e7e38bdaa3bb4e8", "lon": -77.04572716666667, "rental_uris": {"ios": "https://dc.lft.to/lastmile_qr_scan", "android": "https://dc.lft.to/lastmile_qr_scan"}}, {"name": "87ba54f64606061ab5b8b4a79ce6213c", "fusion_lat": 0.0, "type": "electric_scooter", "lat": 38.919626666666666, "is_reserved": 0, "is_disabled": 0, "fusion_lon": 0.0, "bike_id": "87ba54f64606061ab5b8b4a79ce6213c", "lon": -77.03853233333334, "rental_uris": {"ios": "https://dc.lft.to/lastmile_qr_scan", "android": "https://dc.lft.to/lastmile_qr_scan"}}, {"name": "c30aca2553984f81baa1f8b4f7db3b34", "fusion_lat": 0.0, "type": "electric_scooter", "lat": 38.89894533333333, "is_reserved": 0, "is_disabled": 0, "fusion_lon": 0.0, "bike_id": "c30aca2553984f81baa1f8b4f7db3b34", "lon": -77.03280766666667, "rental_uris": {"ios": "https://dc.lft.to/lastmile_qr_scan", "android": "https://dc.lft.to/lastmile_qr_scan"}}, {"name": "ffe33650c5f7ffbfd97bb3b8995f19be", "fusion_lat": 0.0, "type": "electric_bike", "lat": 39.05812366666667, "is_reserved": 0, "is_disabled": 0, "fusion_lon": 0.0, "bike_id": "ffe33650c5f7ffbfd97bb3b8995f19be", "lon": -77.12625266666667, "rental_uris": {"ios": "https://dc.lft.to/lastmile_qr_scan", "android": "https://dc.lft.to/lastmile_qr_scan"}}, {"name": "7c13e979bf7ac6b5fe6eac008573c5ef", "fusion_lat": 0.0, "type": "electric_scooter", "lat": 38.91563566666667, "is_reserved": 0, "is_disabled": 0, "fusion_lon": 0.0, "bike_id": "7c13e979bf7ac6b5fe6eac008573c5ef", "lon": -77.02942716666666, "rental_uris": {"ios": "https://dc.lft.to/lastmile_qr_scan", "android": "https://dc.lft.to/lastmile_qr_scan"}}, {"name": "b80ee1b7ecdc0901dfd67b2713a8d223", "fusion_lat": 0.0, "type": "electric_bike", "lat": 38.846117666666665, "is_reserved": 0, "is_disabled": 0, "fusion_lon": 0.0, "bike_id": "b80ee1b7ecdc0901dfd67b2713a8d223", "lon": -76.9782825, "rental_uris": {"ios": "https://dc.lft.to/lastmile_qr_scan", "android": "https://dc.lft.to/lastmile_qr_scan"}}, {"name": "2a6e3aff6bbc18098b3d6bc14c8ed2b2", "fusion_lat": 0.0, "type": "electric_scooter", "lat": 38.908242666666666, "is_reserved": 0, "is_disabled": 0, "fusion_lon": 0.0, "bike_id": "2a6e3aff6bbc18098b3d6bc14c8ed2b2", "lon": -77.00103483333334, "rental_uris": {"ios": "https://dc.lft.to/lastmile_qr_scan", "android": "https://dc.lft.to/lastmile_qr_scan"}}, {"name": "1d4061dd161de88db00c13f69ed9c9d9", "fusion_lat": 0.0, "type": "electric_scooter", "lat": 38.909045666666664, "is_reserved": 0, "is_disabled": 0, "fusion_lon": 0.0, "bike_id": "1d4061dd161de88db00c13f69ed9c9d9", "lon": -77.03669116666667, "rental_uris": {"ios": "https://dc.lft.to/lastmile_qr_scan", "android": "https://dc.lft.to/lastmile_qr_scan"}}, {"name": "86dc72aca417ec9c97ed4a8eb2c06dcc", "fusion_lat": 0.0, "type": "electric_scooter", "lat": 38.9066835, "is_reserved": 0, "is_disabled": 0, "fusion_lon": 0.0, "bike_id": "86dc72aca417ec9c97ed4a8eb2c06dcc", "lon": -77.02712283333334, "rental_uris": {"ios": "https://dc.lft.to/lastmile_qr_scan", "android": "https://dc.lft.to/lastmile_qr_scan"}}, {"name": "04e43d8cc17cb9323685183d498bb33e", "fusion_lat": 0.0, "type": "electric_scooter", "lat": 38.9089475, "is_reserved": 0, "is_disabled": 0, "fusion_lon": 0.0, "bike_id": "04e43d8cc17cb9323685183d498bb33e", "lon": -77.02810666666667, "rental_uris": {"ios": "https://dc.lft.to/lastmile_qr_scan", "android": "https://dc.lft.to/lastmile_qr_scan"}}, {"name": "fab089b5b0a204be233d3ada3f78df42", "fusion_lat": 0.0, "type": "electric_scooter", "lat": 38.904383, "is_reserved": 0, "is_disabled": 0, "fusion_lon": 0.0, "bike_id": "fab089b5b0a204be233d3ada3f78df42", "lon": -77.03440216666667, "rental_uris": {"ios": "https://dc.lft.to/lastmile_qr_scan", "android": "https://dc.lft.to/lastmile_qr_scan"}}, {"name": "357b860c7315c401f2c55230e6954ebe", "fusion_lat": 0.0, "type": "electric_scooter", "lat": 38.9239425, "is_reserved": 0, "is_disabled": 0, "fusion_lon": 0.0, "bike_id": "357b860c7315c401f2c55230e6954ebe", "lon": -77.0354195, "rental_uris": {"ios": "https://dc.lft.to/lastmile_qr_scan", "android": "https://dc.lft.to/lastmile_qr_scan"}}, {"name": "fe6d4104c8abe374520ca0c57c2f5443", "fusion_lat": 0.0, "type": "electric_scooter", "lat": 38.90538333333333, "is_reserved": 0, "is_disabled": 0, "fusion_lon": 0.0, "bike_id": "fe6d4104c8abe374520ca0c57c2f5443", "lon": -77.02205283333333, "rental_uris": {"ios": "https://dc.lft.to/lastmile_qr_scan", "android": "https://dc.lft.to/lastmile_qr_scan"}}, {"name": "9201064c0757f6ac824039e932f7de26", "fusion_lat": 0.0, "type": "electric_scooter", "lat": 38.91246316666667, "is_reserved": 0, "is_disabled": 0, "fusion_lon": 0.0, "bike_id": "9201064c0757f6ac824039e932f7de26", "lon": -77.03649483333334, "rental_uris": {"ios": "https://dc.lft.to/lastmile_qr_scan", "android": "https://dc.lft.to/lastmile_qr_scan"}}, {"name": "734aca0fe09b042a21e390caccfb4d2a", "fusion_lat": 0.0, "type": "electric_scooter", "lat": 38.92251816666667, "is_reserved": 0, "is_disabled": 0, "fusion_lon": 0.0, "bike_id": "734aca0fe09b042a21e390caccfb4d2a", "lon": -77.03518733333334, "rental_uris": {"ios": "https://dc.lft.to/lastmile_qr_scan", "android": "https://dc.lft.to/lastmile_qr_scan"}}, {"name": "b750b38898b1dd67ab5a188ef2bd0399", "fusion_lat": 0.0, "type": "electric_scooter", "lat": 38.87861916666667, "is_reserved": 0, "is_disabled": 0, "fusion_lon": 0.0, "bike_id": "b750b38898b1dd67ab5a188ef2bd0399", "lon": -76.96520483333333, "rental_uris": {"ios": "https://dc.lft.to/lastmile_qr_scan", "android": "https://dc.lft.to/lastmile_qr_scan"}}, {"name": "517a451329d1c670fd56d73329c9536f", "fusion_lat": 0.0, "type": "electric_scooter", "lat": 38.906862, "is_reserved": 0, "is_disabled": 0, "fusion_lon": 0.0, "bike_id": "517a451329d1c670fd56d73329c9536f", "lon": -77.06175166666667, "rental_uris": {"ios": "https://dc.lft.to/lastmile_qr_scan", "android": "https://dc.lft.to/lastmile_qr_scan"}}, {"name": "a27b9d519c62299c435b889f8c679f4b", "fusion_lat": 0.0, "type": "electric_scooter", "lat": 38.9006975, "is_reserved": 0, "is_disabled": 0, "fusion_lon": 0.0, "bike_id": "a27b9d519c62299c435b889f8c679f4b", "lon": -77.04986566666666, "rental_uris": {"ios": "https://dc.lft.to/lastmile_qr_scan", "android": "https://dc.lft.to/lastmile_qr_scan"}}, {"name": "625e26820285a1b8a694c908316855bc", "fusion_lat": 0.0, "type": "electric_scooter", "lat": 38.91214033333333, "is_reserved": 0, "is_disabled": 0, "fusion_lon": 0.0, "bike_id": "625e26820285a1b8a694c908316855bc", "lon": -77.0364595, "rental_uris": {"ios": "https://dc.lft.to/lastmile_qr_scan", "android": "https://dc.lft.to/lastmile_qr_scan"}}, {"name": "9b0da42c07b90ae980e404d4cd8ab24d", "fusion_lat": 0.0, "type": "electric_scooter", "lat": 38.9024435, "is_reserved": 0, "is_disabled": 0, "fusion_lon": 0.0, "bike_id": "9b0da42c07b90ae980e404d4cd8ab24d", "lon": -77.026775, "rental_uris": {"ios": "https://dc.lft.to/lastmile_qr_scan", "android": "https://dc.lft.to/lastmile_qr_scan"}}, {"name": "48b3d3caad2e602d5ce2e661303c0404", "fusion_lat": 0.0, "type": "electric_scooter", "lat": 38.905251, "is_reserved": 0, "is_disabled": 0, "fusion_lon": 0.0, "bike_id": "48b3d3caad2e602d5ce2e661303c0404", "lon": -77.04986116666667, "rental_uris": {"ios": "https://dc.lft.to/lastmile_qr_scan", "android": "https://dc.lft.to/lastmile_qr_scan"}}, {"name": "3e73dd38806f0aff6212db7bd82c26a1", "fusion_lat": 0.0, "type": "electric_scooter", "lat": 38.89522683333333, "is_reserved": 0, "is_disabled": 0, "fusion_lon": 0.0, "bike_id": "3e73dd38806f0aff6212db7bd82c26a1", "lon": -76.99213933333333, "rental_uris": {"ios": "https://dc.lft.to/lastmile_qr_scan", "android": "https://dc.lft.to/lastmile_qr_scan"}}, {"name": "abe87b8cbf384ea71ce400d4ca54d125", "fusion_lat": 0.0, "type": "electric_scooter", "lat": 38.90363516666667, "is_reserved": 0, "is_disabled": 0, "fusion_lon": 0.0, "bike_id": "abe87b8cbf384ea71ce400d4ca54d125", "lon": -77.03836166666666, "rental_uris": {"ios": "https://dc.lft.to/lastmile_qr_scan", "android": "https://dc.lft.to/lastmile_qr_scan"}}, {"name": "15a0e633b93fb46a61bde123f3f1949f", "fusion_lat": 0.0, "type": "electric_bike", "lat": 38.85157066666667, "is_reserved": 0, "is_disabled": 0, "fusion_lon": 0.0, "bike_id": "15a0e633b93fb46a61bde123f3f1949f", "lon": -77.12876216666666, "rental_uris": {"ios": "https://dc.lft.to/lastmile_qr_scan", "android": "https://dc.lft.to/lastmile_qr_scan"}}, {"name": "9a237d7ddc0c493a2a455a8990afaca5", "fusion_lat": 0.0, "type": "electric_scooter", "lat": 38.886037, "is_reserved": 0, "is_disabled": 0, "fusion_lon": 0.0, "bike_id": "9a237d7ddc0c493a2a455a8990afaca5", "lon": -77.00738566666666, "rental_uris": {"ios": "https://dc.lft.to/lastmile_qr_scan", "android": "https://dc.lft.to/lastmile_qr_scan"}}, {"name": "5a6e226276b598802cef99176cd4beb6", "fusion_lat": 0.0, "type": "electric_scooter", "lat": 38.8834155, "is_reserved": 0, "is_disabled": 0, "fusion_lon": 0.0, "bike_id": "5a6e226276b598802cef99176cd4beb6", "lon": -77.03163516666666, "rental_uris": {"ios": "https://dc.lft.to/lastmile_qr_scan", "android": "https://dc.lft.to/lastmile_qr_scan"}}, {"name": "c87814c6928b5fdde41799334ba75071", "fusion_lat": 0.0, "type": "electric_scooter", "lat": 38.9306645, "is_reserved": 0, "is_disabled": 0, "fusion_lon": 0.0, "bike_id": "c87814c6928b5fdde41799334ba75071", "lon": -77.033987, "rental_uris": {"ios": "https://dc.lft.to/lastmile_qr_scan", "android": "https://dc.lft.to/lastmile_qr_scan"}}, {"name": "3992944fc08be98ff5b913ae6e48ea1e", "fusion_lat": 0.0, "type": "electric_bike", "lat": 38.8720025, "is_reserved": 0, "is_disabled": 0, "fusion_lon": 0.0, "bike_id": "3992944fc08be98ff5b913ae6e48ea1e", "lon": -77.016384, "rental_uris": {"ios": "https://dc.lft.to/lastmile_qr_scan", "android": "https://dc.lft.to/lastmile_qr_scan"}}, {"name": "0bd1718091db1d053677acb7d47ea815", "fusion_lat": 0.0, "type": "electric_scooter", "lat": 38.86510833333333, "is_reserved": 0, "is_disabled": 0, "fusion_lon": 0.0, "bike_id": "0bd1718091db1d053677acb7d47ea815", "lon": -76.97339633333333, "rental_uris": {"ios": "https://dc.lft.to/lastmile_qr_scan", "android": "https://dc.lft.to/lastmile_qr_scan"}}, {"name": "cdbeeb7a3c5d73c7be270bed7cd32b84", "fusion_lat": 0.0, "type": "electric_scooter", "lat": 38.9072995, "is_reserved": 0, "is_disabled": 0, "fusion_lon": 0.0, "bike_id": "cdbeeb7a3c5d73c7be270bed7cd32b84", "lon": -77.03990916666666, "rental_uris": {"ios": "https://dc.lft.to/lastmile_qr_scan", "android": "https://dc.lft.to/lastmile_qr_scan"}}, {"name": "9f10f24b518cfc4e41851cc78b5be8b0", "fusion_lat": 0.0, "type": "electric_scooter", "lat": 38.86569516666667, "is_reserved": 0, "is_disabled": 0, "fusion_lon": 0.0, "bike_id": "9f10f24b518cfc4e41851cc78b5be8b0", "lon": -76.98946033333333, "rental_uris": {"ios": "https://dc.lft.to/lastmile_qr_scan", "android": "https://dc.lft.to/lastmile_qr_scan"}}, {"name": "b724fc81588539920319c52ce4effc6b", "fusion_lat": 0.0, "type": "electric_scooter", "lat": 38.90139966666667, "is_reserved": 0, "is_disabled": 0, "fusion_lon": 0.0, "bike_id": "b724fc81588539920319c52ce4effc6b", "lon": -77.04493566666666, "rental_uris": {"ios": "https://dc.lft.to/lastmile_qr_scan", "android": "https://dc.lft.to/lastmile_qr_scan"}}, {"name": "0b710bc464e46e0d0b9408d0afa14a51", "fusion_lat": 0.0, "type": "electric_scooter", "lat": 38.894738333333336, "is_reserved": 0, "is_disabled": 0, "fusion_lon": 0.0, "bike_id": "0b710bc464e46e0d0b9408d0afa14a51", "lon": -76.984011, "rental_uris": {"ios": "https://dc.lft.to/lastmile_qr_scan", "android": "https://dc.lft.to/lastmile_qr_scan"}}, {"name": "86626c1a69f62294d0cf9fbc635ab49b", "fusion_lat": 0.0, "type": "electric_scooter", "lat": 38.902044, "is_reserved": 0, "is_disabled": 0, "fusion_lon": 0.0, "bike_id": "86626c1a69f62294d0cf9fbc635ab49b", "lon": -76.98200483333333, "rental_uris": {"ios": "https://dc.lft.to/lastmile_qr_scan", "android": "https://dc.lft.to/lastmile_qr_scan"}}, {"name": "e0e3fe68d12fca0382a4379f1a1bd9c4", "fusion_lat": 0.0, "type": "electric_scooter", "lat": 38.9611105, "is_reserved": 0, "is_disabled": 0, "fusion_lon": 0.0, "bike_id": "e0e3fe68d12fca0382a4379f1a1bd9c4", "lon": -77.028142, "rental_uris": {"ios": "https://dc.lft.to/lastmile_qr_scan", "android": "https://dc.lft.to/lastmile_qr_scan"}}, {"name": "b78840ed16eab75c0e52d37f15a34e5a", "fusion_lat": 0.0, "type": "electric_scooter", "lat": 38.8991855, "is_reserved": 0, "is_disabled": 0, "fusion_lon": 0.0, "bike_id": "b78840ed16eab75c0e52d37f15a34e5a", "lon": -76.93383433333334, "rental_uris": {"ios": "https://dc.lft.to/lastmile_qr_scan", "android": "https://dc.lft.to/lastmile_qr_scan"}}, {"name": "e6cb6a6d359c76c5a2ee0f10a025eae1", "fusion_lat": 0.0, "type": "electric_scooter", "lat": 38.92575733333334, "is_reserved": 0, "is_disabled": 0, "fusion_lon": 0.0, "bike_id": "e6cb6a6d359c76c5a2ee0f10a025eae1", "lon": -77.0283795, "rental_uris": {"ios": "https://dc.lft.to/lastmile_qr_scan", "android": "https://dc.lft.to/lastmile_qr_scan"}}, {"name": "98b4b312e580f69ff7b12a6fb48a0284", "fusion_lat": 0.0, "type": "electric_scooter", "lat": 38.94311483333333, "is_reserved": 0, "is_disabled": 0, "fusion_lon": 0.0, "bike_id": "98b4b312e580f69ff7b12a6fb48a0284", "lon": -77.05914633333333, "rental_uris": {"ios": "https://dc.lft.to/lastmile_qr_scan", "android": "https://dc.lft.to/lastmile_qr_scan"}},