{"data": {"bikes": [{"rental_uris": {"ios": "https://dc.lft.to/lastmile_qr_scan", "android": "https://dc.lft.to/lastmile_qr_scan"}, "type": "electric_bike", "name": "cc8eabe79624bfd452ad1048030baccf", "is_reserved": 0, "lon": -76.973248, "is_disabled": 0, "fusion_lat": 0.0, "lat": 38.857827, "bike_id": "cc8eabe79624bfd452ad1048030baccf", "fusion_lon": 0.0}, {"rental_uris": {"ios": "https://dc.lft.to/lastmile_qr_scan", "android": "https://dc.lft.to/lastmile_qr_scan"}, "type": "electric_scooter", "name": "267fa0a83e596e06ff720690721c47d5", "is_reserved": 0, "lon": -77.01701233333333, "is_disabled": 0, "fusion_lat": 0.0, "lat": 38.9047205, "bike_id": "267fa0a83e596e06ff720690721c47d5", "fusion_lon": 0.0}, {"rental_uris": {"ios": "https://dc.lft.to/lastmile_qr_scan", "android": "https://dc.lft.to/lastmile_qr_scan"}, "type": "electric_scooter", "name": "5986141c3e79e987e483a3b8d4403836", "is_reserved": 0, "lon": -77.05150383333333, "is_disabled": 0, "fusion_lat": 0.0, "lat": 38.90539966666667, "bike_id": "5986141c3e79e987e483a3b8d4403836", "fusion_lon": 0.0}, {"rental_uris": {"ios": "https://dc.lft.to/lastmile_qr_scan", "android": "https://dc.lft.to/lastmile_qr_scan"}, "type": "electric_scooter", "name": "55dda7a95582e9cd4e5713215ee302ab", "is_reserved": 0, "lon": -77.053144, "is_disabled": 0, "fusion_lat": 0.0, "lat": 38.92352566666667, "bike_id": "55dda7a95582e9cd4e5713215ee302ab", "fusion_lon": 0.0}, {"rental_uris": {"ios": "https://dc.lft.to/lastmile_qr_scan", "android": "https://dc.lft.to/lastmile_qr_scan"}, "type": "electric_scooter", "name": "33bf0ff8fe57029865edd562448c1e34", "is_reserved": 0, "lon": -77.03519616666667, "is_disabled": 0, "fusion_lat": 0.0, "lat": 38.934007333333334, "bike_id": "33bf0ff8fe57029865edd562448c1e34", "fusion_lon": 0.0}, {"rental_uris": {"ios": "https://dc.lft.to/lastmile_qr_scan", "android": "https://dc.lft.to/lastmile_qr_scan"}, "type": "electric_scooter", "name": "93b5819414860c613f672d548d04fbb9", "is_reserved": 0, "lon": -77.02446466666666, "is_disabled": 0, "fusion_lat": 0.0, "lat": 38.949769, "bike_id": "93b5819414860c613f672d548d04fbb9", "fusion_lon": 0.0}, {"rental_uris": {"ios": "https://dc.lft.to/lastmile_qr_scan", "android": "https://dc.lft.to/lastmile_qr_scan"}, "type": "electric_scooter", "name": "27f09c756ba9747fe2697bb59e677c1e", "is_reserved": 0, "lon": -77.02546416666667, "is_disabled": 0, "fusion_lat": 0.0, "lat": 38.907248, "bike_id": "27f09c756ba9747fe2697bb59e677c1e", "fusion_lon": 0.0}, {"rental_uris": {"ios": "https://dc.lft.to/lastmile_qr_scan", "android": "https://dc.lft.to/lastmile_qr_scan"}, "type": "electric_scooter", "name": "4ad70b4cb430fb70a547d90f5c294769", "is_reserved": 0, "lon": -77.01098116666667, "is_disabled": 0, "fusion_lat": 0.0, "lat": 38.906868333333335, "bike_id": "4ad70b4cb430fb70a547d90f5c294769", "fusion_lon": 0.0}, {"rental_uris": {"ios": "https://dc.lft.to/lastmile_qr_scan", "android": "https://dc.lft.to/lastmile_qr_scan"}, "type": "electric_scooter", "name": "176c7ef72b47d5af9acd9aba16cc3be5", "is_reserved": 0, "lon": -77.02215266666667, "is_disabled": 0, "fusion_lat": 0.0, "lat": 38.92486516666666, "bike_id": "176c7ef72b47d5af9acd9aba16cc3be5", "fusion_lon": 0.0}, {"rental_uris": {"ios": "https://dc.lft.to/lastmile_qr_scan", "android": "https://dc.lft.to/lastmile_qr_scan"}, "type": "electric_scooter", "name": "7c558e94ef99d556721e24dc9568d3a3", "is_reserved": 0, "lon": -77.044683, "is_disabled": 0, "fusion_lat": 0.0, "lat": 38.915367, "bike_id": "7c558e94ef99d556721e24dc9568d3a3", "fusion_lon": 0.0}, {"rental_uris": {"ios": "https://dc.lft.to/lastmile_qr_scan", "android": "https://dc.lft.to/lastmile_qr_scan"}, "type": "electric_scooter", "name": "85aec44884cb4e390e71783fadedf36c", "is_reserved": 0, "lon": -77.03856416666666, "is_disabled": 0, "fusion_lat": 0.0, "lat": 38.910977333333335, "bike_id": "85aec44884cb4e390e71783fadedf36c", "fusion_lon": 0.0}, {"rental_uris": {"ios": "https://dc.lft.to/lastmile_qr_scan", "android": "https://dc.lft.to/lastmile_qr_scan"}, "type": "electric_bike", "name": "33c7aead44c9aed54a6694759b52f269", "is_reserved": 0, "lon": -77.07012116666667, "is_disabled": 0, "fusion_lat": 0.0, "lat": 38.841091166666665, "bike_id": "33c7aead44c9aed54a6694759b52f269", "fusion_lon": 0.0}, {"rental_uris": {"ios": "https://dc.lft.to/lastmile_qr_scan", "android": "https://dc.lft.to/lastmile_qr_scan"}, "type": "electric_scooter", "name": "df6b6e6d92d1b4f9d0d881952008185a", "is_reserved": 0, "lon": -77.03659066666667, "is_disabled": 0, "fusion_lat": 0.0, "lat": 38.9228995, "bike_id": "df6b6e6d92d1b4f9d0d881952008185a", "fusion_lon": 0.0}, {"rental_uris": {"ios": "https://dc.lft.to/lastmile_qr_scan", "android": "https://dc.lft.to/lastmile_qr_scan"}, "type": "electric_scooter", "name": "7edef85598915f26fc7ba4db042a7727", "is_reserved": 0, "lon": -77.06516616666667, "is_disabled": 0, "fusion_lat": 0.0, "lat": 38.90522566666667, "bike_id": "7edef85598915f26fc7ba4db042a7727", "fusion_lon": 0.0}, {"rental_uris": {"ios": "https://dc.lft.to/lastmile_qr_scan", "android": "https://dc.lft.to/lastmile_qr_scan"}, "type": "electric_scooter", "name": "16c025d90f1a028171c7d21b74c64253", "is_reserved": 0, "lon": -76.95260883333333, "is_disabled": 0, "fusion_lat": 0.0, "lat": 38.892763333333335, "bike_id": "16c025d90f1a028171c7d21b74c64253", "fusion_lon": 0.0}, {"rental_uris": {"ios": "https://dc.lft.to/lastmile_qr_scan", "android": "https://dc.lft.to/lastmile_qr_scan"}, "type": "electric_scooter", "name": "80e72ea4e60f83ecce4eeab5a3bb6498", "is_reserved": 0, "lon": -77.02835783333333, "is_disabled": 0, "fusion_lat": 0.0, "lat": 38.893747, "bike_id": "80e72ea4e60f83ecce4eeab5a3bb6498", "fusion_lon": 0.0}, {"rental_uris": {"ios": "https://dc.lft.to/lastmile_qr_scan", "android": "https://dc.lft.to/lastmile_qr_scan"}, "type": "electric_scooter", "name": "bdddb4759691de80a72a25bbaa29cae2", "is_reserved": 0, "lon": -77.036139, "is_disabled": 0, "fusion_lat": 0.0, "lat": 38.9233655, "bike_id": "bdddb4759691de80a72a25bbaa29cae2", "fusion_lon": 0.0}, {"rental_uris": {"ios": "https://dc.lft.to/lastmile_qr_scan", "android": "https://dc.lft.to/lastmile_qr_scan"}, "type": "electric_scooter", "name": "ffee6b1ea461f267b50c86744083925e", "is_reserved": 0, "lon": -76.94383083333334, "is_disabled": 0, "fusion_lat": 0.0, "lat": 38.89121866666667, "bike_id": "ffee6b1ea461f267b50c86744083925e", "fusion_lon": 0.0}, {"rental_uris": {"ios": "https://dc.lft.to/lastmile_qr_scan", "android": "https://dc.lft.to/lastmile_qr_scan"}, "type": "electric_scooter", "name": "735da9662862ba56f34d0706acfbae3b", "is_reserved": 0, "lon": -77.0271655, "is_disabled": 0, "fusion_lat": 0.0, "lat": 38.91016583333333, "bike_id": "735da9662862ba56f34d0706acfbae3b", "fusion_lon": 0.0}, {"rental_uris": {"ios": "https://dc.lft.to/lastmile_qr_scan", "android": "https://dc.lft.to/lastmile_qr_scan"}, "type": "electric_scooter", "name": "bd3d96430941fda11640f2b5bb5f8bf6", "is_reserved": 0, "lon": -76.9853805, "is_disabled": 0, "fusion_lat": 0.0, "lat": 38.87998783333333, "bike_id": "bd3d96430941fda11640f2b5bb5f8bf6", "fusion_lon": 0.0}, {"rental_uris": {"ios": "https://dc.lft.to/lastmile_qr_scan", "android": "https://dc.lft.to/lastmile_qr_scan"}, "type": "electric_scooter", "name": "21c1f053c0525789049c8720eb53bf16", "is_reserved": 0, "lon": -77.08185966666667, "is_disabled": 0, "fusion_lat": 0.0, "lat": 38.93339066666667, "bike_id": "21c1f053c0525789049c8720eb53bf16", "fusion_lon": 0.0}, {"rental_uris": {"ios": "https://dc.lft.to/lastmile_qr_scan", "android": "https://dc.lft.to/lastmile_qr_scan"}, "type": "electric_scooter", "name": "6890005bcf1ef252bc791c89fd16790d", "is_reserved": 0, "lon": -76.98703233333333, "is_disabled": 0, "fusion_lat": 0.0, "lat": 38.859648666666665, "bike_id": "6890005bcf1ef252bc791c89fd16790d", "fusion_lon": 0.0}, {"rental_uris": {"ios": "https://dc.lft.to/lastmile_qr_scan", "android": "https://dc.lft.to/lastmile_qr_scan"}, "type": "electric_scooter", "name": "6131a2746f3a38b0ac5b615951d9c650", "is_reserved": 0, "lon": -77.02477283333333, "is_disabled": 0, "fusion_lat": 0.0, "lat": 38.9362055, "bike_id": "6131a2746f3a38b0ac5b615951d9c650", "fusion_lon": 0.0}, {"rental_uris": {"ios": "https://dc.lft.to/lastmile_qr_scan", "android": "https://dc.lft.to/lastmile_qr_scan"}, "type": "electric_scooter", "name": "a66408dbcc36cc8f01fc54832ee6975e", "is_reserved": 0, "lon": -76.9951545, "is_disabled": 0, "fusion_lat": 0.0, "lat": 38.889903833333335, "bike_id": "a66408dbcc36cc8f01fc54832ee6975e", "fusion_lon": 0.0}, {"rental_uris": {"ios": "https://dc.lft.to/lastmile_qr_scan", "android": "https://dc.lft.to/lastmile_qr_scan"}, "type": "electric_scooter", "name": "6893d45fecad87bc3129db327ecc185b", "is_reserved": 0, "lon": -77.00124983333333, "is_disabled": 0, "fusion_lat": 0.0, "lat": 38.87798516666667, "bike_id": "6893d45fecad87bc3129db327ecc185b", "fusion_lon": 0.0}, {"rental_uris": {"ios": "https://dc.lft.to/lastmile_qr_scan", "android": "https://dc.lft.to/lastmile_qr_scan"}, "type": "electric_scooter", "name": "58f2953db688927f5ddfc91e773342c1", "is_reserved": 0, "lon": -77.03185566666667, "is_disabled": 0, "fusion_lat": 0.0, "lat": 38.91936583333333, "bike_id": "58f2953db688927f5ddfc91e773342c1", "fusion_lon": 0.0}, {"rental_uris": {"ios": "https://dc.lft.to/lastmile_qr_scan", "android": "https://dc.lft.to/lastmile_qr_scan"}, "type": "electric_scooter", "name": "ef0ba736ee2ca737025c8499fdfacb19", "is_reserved": 0, "lon": -77.01209233333333, "is_disabled": 0, "fusion_lat": 0.0, "lat": 38.901665666666666, "bike_id": "ef0ba736ee2ca737025c8499fdfacb19", "fusion_lon": 0.0}, {"rental_uris": {"ios": "https://dc.lft.to/lastmile_qr_scan", "android": "https://dc.lft.to/lastmile_qr_scan"}, "type": "electric_scooter", "name": "48c8471a60cd9bbcb0dd6d70b3f4b5c5", "is_reserved": 0, "lon": -77.01427533333333, "is_disabled": 0, "fusion_lat": 0.0, "lat": 38.92029016666667, "bike_id": "48c8471a60cd9bbcb0dd6d70b3f4b5c5", "fusion_lon": 0.0}, {"rental_uris": {"ios": "https://dc.lft.to/lastmile_qr_scan", "android": "https://dc.lft.to/lastmile_qr_scan"}, "type": "electric_scooter", "name": "35d9adb4d38b93a74abc7442fd62cac1", "is_reserved": 0, "lon": -77.04352083333333, "is_disabled": 0, "fusion_lat": 0.0, "lat": 38.908336166666665, "bike_id": "35d9adb4d38b93a74abc7442fd62cac1", "fusion_lon": 0.0}, {"rental_uris": {"ios": "https://dc.lft.to/lastmile_qr_scan", "android": "https://dc.lft.to/lastmile_qr_scan"}, "type": "electric_scooter", "name": "10f680bf201797f2099962e4134250ba", "is_reserved": 0, "lon": -77.04018333333333, "is_disabled": 0, "fusion_lat": 0.0, "lat": 38.917962333333335, "bike_id": "10f680bf201797f2099962e4134250ba", "fusion_lon": 0.0}, {"rental_uris": {"ios": "https://dc.lft.to/lastmile_qr_scan", "android": "https://dc.lft.to/lastmile_qr_scan"}, "type": "electric_scooter", "name": "3ee556471fbfbedcc0ac0a5f1aa5454e", "is_reserved": 0, "lon": -77.04478583333334, "is_disabled": 0, "fusion_lat": 0.0, "lat": 38.903747, "bike_id": "3ee556471fbfbedcc0ac0a5f1aa5454e", "fusion_lon": 0.0}, {"rental_uris": {"ios": "https://dc.lft.to/lastmile_qr_scan", "android": "https://dc.lft.to/lastmile_qr_scan"}, "type": "electric_scooter", "name": "47978928282a2647b6d5ab8ed5fe3627", "is_reserved": 0, "lon": -77.04761883333333, "is_disabled": 0, "fusion_lat": 0.0, "lat": 38.91255783333333, "bike_id": "47978928282a2647b6d5ab8ed5fe3627", "fusion_lon": 0.0}, {"rental_uris": {"ios": "https://dc.lft.to/lastmile_qr_scan", "android": "https://dc.lft.to/lastmile_qr_scan"}, "type": "electric_scooter", "name": "211de3ec90734dba23aa36190eec695e", "is_reserved": 0, "lon": -77.03463016666667, "is_disabled": 0, "fusion_lat": 0.0, "lat": 38.90837333333333, "bike_id": "211de3ec90734dba23aa36190eec695e", "fusion_lon": 0.0}, {"rental_uris": {"ios": "https://dc.lft.to/lastmile_qr_scan", "android": "https://dc.lft.to/lastmile_qr_scan"}, "type": "electric_bike", "name": "d7d00c0bde2b431128fecdc101c61aad", "is_reserved": 0, "lon": -76.99072133333334, "is_disabled": 0, "fusion_lat": 0.0, "lat": 38.930535, "bike_id": "d7d00c0bde2b431128fecdc101c61aad", "fusion_lon": 0.0}, {"rental_uris": {"ios": "https://dc.lft.to/lastmile_qr_scan", "android": "https://dc.lft.to/lastmile_qr_scan"}, "type": "electric_scooter", "name": "74e1e2b6de42e27599ca0af6302c04d5", "is_reserved": 0, "lon": -77.03480133333333, "is_disabled": 0, "fusion_lat": 0.0, "lat": 38.9248035, "bike_id": "74e1e2b6de42e27599ca0af6302c04d5", "fusion_lon": 0.0}, {"rental_uris": {"ios": "https://dc.lft.to/lastmile_qr_scan", "android": "https://dc.lft.to/lastmile_qr_scan"}, "type": "electric_scooter", "name": "51b070edcd612f603ae2739aa249745c", "is_reserved": 0, "lon": -77.028179, "is_disabled": 0, "fusion_lat": 0.0, "lat": 38.892356166666666, "bike_id": "51b070edcd612f603ae2739aa249745c", "fusion_lon": 0.0}, {"rental_uris": {"ios": "https://dc.lft.to/lastmile_qr_scan", "android": "https://dc.lft.to/lastmile_qr_scan"}, "type": "electric_scooter", "name": "6d6966141de4f9866e69fae01bfca66a", "is_reserved": 0, "lon": -77.03235216666667, "is_disabled": 0, "fusion_lat": 0.0, "lat": 38.9104965, "bike_id": "6d6966141de4f9866e69fae01bfca66a", "fusion_lon": 0.0}, {"rental_uris": {"ios": "https://dc.lft.to/lastmile_qr_scan", "android": "https://dc.lft.to/lastmile_qr_scan"}, "type": "electric_scooter", "name": "ab9db9686fce0f5562c4cff240f45e4d", "is_reserved": 0, "lon": -77.00456033333333, "is_disabled": 0, "fusion_lat": 0.0, "lat": 38.92083233333334, "bike_id": "ab9db9686fce0f5562c4cff240f45e4d", "fusion_lon": 0.0}, {"rental_uris": {"ios": "https://dc.lft.to/lastmile_qr_scan", "android": "https://dc.lft.to/lastmile_qr_scan"}, "type": "electric_scooter", "name": "fb044c13bd5a566b5b2b2141a93369e3", "is_reserved": 0, "lon": -77.053836, "is_disabled": 0, "fusion_lat": 0.0, "lat": 38.89843283333333, "bike_id": "fb044c13bd5a566b5b2b2141a93369e3", "fusion_lon": 0.0}, {"rental_uris": {"ios": "https://dc.lft.to/lastmile_qr_scan", "android": "https://dc.lft.to/lastmile_qr_scan"}, "type": "electric_scooter", "name": "a805bc6a9877eef39c2761dce8d5f46c", "is_reserved": 0, "lon": -77.01339983333334, "is_disabled": 0, "fusion_lat": 0.0, "lat": 38.91914533333333, "bike_id": "a805bc6a9877eef39c2761dce8d5f46c", "fusion_lon": 0.0}, {"rental_uris": {"ios": "https://dc.lft.to/lastmile_qr_scan", "android": "https://dc.lft.to/lastmile_qr_scan"}, "type": "electric_bike", "name": "10ea5fa7447585668aac7c9d9b87a3a8", "is_reserved": 0, "lon": -76.97548, "is_disabled": 0, "fusion_lat": 0.0, "lat": 38.904307333333335, "bike_id": "10ea5fa7447585668aac7c9d9b87a3a8", "fusion_lon": 0.0}, {"rental_uris": {"ios": "https://dc.lft.to/lastmile_qr_scan", "android": "https://dc.lft.to/lastmile_qr_scan"}, "type": "electric_scooter", "name": "c32110f14494c4015756e36e5ce4e2c7", "is_reserved": 0, "lon": -77.046912, "is_disabled": 0, "fusion_lat": 0.0, "lat": 38.92063133333333, "bike_id": "c32110f14494c4015756e36e5ce4e2c7", "fusion_lon": 0.0}, {"rental_uris": {"ios": "https://dc.lft.to/lastmile_qr_scan", "android": "https://dc.lft.to/lastmile_qr_scan"}, "type": "electric_bike", "name": "8e44f3ddae22556ee061477d02ef5f23", "is_reserved": 0, "lon": -77.0185145, "is_disabled": 0, "fusion_lat": 0.0, "lat": 38.931113333333336, "bike_id": "8e44f3ddae22556ee061477d02ef5f23", "fusion_lon": 0.0}, {"rental_uris": {"ios": "https://dc.lft.to/lastmile_qr_scan", "android": "https://dc.lft.to/lastmile_qr_scan"}, "type": "electric_scooter", "name": "1e892eff9e7a410a6cf65a0e34d06231", "is_reserved": 0, "lon": -77.02385766666667, "is_disabled": 0, "fusion_lat": 0.0, "lat": 38.909818, "bike_id": "1e892eff9e7a410a6cf65a0e34d06231", "fusion_lon": 0.0}, {"rental_uris": {"ios": "https://dc.lft.to/lastmile_qr_scan", "android": "https://dc.lft.to/lastmile_qr_scan"}, "type": "electric_scooter", "name": "34e354b40731ebdc9c0298bea5085432", "is_reserved": 0, "lon": -77.02229883333334, "is_disabled": 0, "fusion_lat": 0.0, "lat": 38.89195183333333, "bike_id": "34e354b40731ebdc9c0298bea5085432", "fusion_lon": 0.0}, {"rental_uris": {"ios": "https://dc.lft.to/lastmile_qr_scan", "android": "https://dc.lft.to/lastmile_qr_scan"}, "type": "electric_scooter", "name": "8e9831c835d7fd9b8c9c37b7b736d60c", "is_reserved": 0, "lon": -77.03483466666667, "is_disabled": 0, "fusion_lat": 0.0, "lat": 38.935314166666664, "bike_id": "8e9831c835d7fd9b8c9c37b7b736d60c", "fusion_lon": 0.0}, {"rental_uris": {"ios": "https://dc.lft.to/lastmile_qr_scan", "android": "https://dc.lft.to/lastmile_qr_scan"}, "type": "electric_scooter", "name": "0c4ffe5487712a0baa9789ced1dc576f", "is_reserved": 0, "lon": -77.0118055, "is_disabled": 0, "fusion_lat": 0.0, "lat": 38.9515815, "bike_id": "0c4ffe5487712a0baa9789ced1dc576f", "fusion_lon": 0.0}, {"rental_uris": {"ios": "https://dc.lft.to/lastmile_qr_scan", "android": "https://dc.lft.to/lastmile_qr_scan"}, "type": "electric_scooter", "name": "77513665920c563bd8869a72635be9b3", "is_reserved": 0, "lon": -77.03250733333333, "is_disabled": 0, "fusion_lat": 0.0, "lat": 38.928918, "bike_id": "77513665920c563bd8869a72635be9b3", "fusion_lon": 0.0}, {"rental_uris": {"ios": "https://dc.lft.to/lastmile_qr_scan", "android": "https://dc.lft.to/lastmile_qr_scan"}, "type": "electric_scooter", "name": "103dd089a203714ce246355653564f41", "is_reserved": 0, "lon": -77.03286683333333, "is_disabled": 0, "fusion_lat": 0.0, "lat": 38.932518333333334, "bike_id": "103dd089a203714ce246355653564f41", "fusion_lon": 0.0}, {"rental_uris": {"ios": "https://dc.lft.to/lastmile_qr_scan", "android": "https://dc.lft.to/lastmile_qr_scan"}, "type": "electric_scooter", "name": "993ca4cd5f6eff02cd0f838add316b47", "is_reserved": 0, "lon": -77.02055633333333, "is_disabled": 0, "fusion_lat": 0.0, "lat": 38.894507, "bike_id": "993ca4cd5f6eff02cd0f838add316b47", "fusion_lon": 0.0}, {"rental_uris": {"ios": "https://dc.lft.to/lastmile_qr_scan", "android": "https://dc.lft.to/lastmile_qr_scan"}, "type": "electric_bike", "name": "1e74cae47e31953866f6712d8d5c5835", "is_reserved": 0, "lon": -76.95158733333334, "is_disabled": 0, "fusion_lat": 0.0, "lat": 39.0843815, "bike_id": "1e74cae47e31953866f6712d8d5c5835", "fusion_lon": 0.0}, {"rental_uris": {"ios": "https://dc.lft.to/lastmile_qr_scan", "android": "https://dc.lft.to/lastmile_qr_scan"}, "type": "electric_scooter", "name": "504e581d16fcd4c27aabb4c401daf003", "is_reserved": 0, "lon": -77.00159983333333, "is_disabled": 0, "fusion_lat": 0.0, "lat": 38.82133783333333, "bike_id": "504e581d16fcd4c27aabb4c401daf003", "fusion_lon": 0.0}, {"rental_uris": {"ios": "https://dc.lft.to/lastmile_qr_scan", "android": "https://dc.lft.to/lastmile_qr_scan"}, "type": "electric_scooter", "name": "d7c8ff5a2aa5bffb62e3b796e66814a3", "is_reserved": 0, "lon": -77.07559983333333, "is_disabled": 0, "fusion_lat": 0.0, "lat": 38.90646683333333, "bike_id": "d7c8ff5a2aa5bffb62e3b796e66814a3", "fusion_lon": 0.0}, {"rental_uris": {"ios": "https://dc.lft.to/lastmile_qr_scan", "android": "https://dc.lft.to/lastmile_qr_scan"}, "type": "electric_scooter", "name": "831ad1471d52b0af26633e7daa59a869", "is_reserved": 0, "lon": -77.07253, "is_disabled": 0, "fusion_lat": 0.0, "lat": 38.934349833333336, "bike_id": "831ad1471d52b0af26633e7daa59a869", "fusion_lon": 0.0}, {"rental_uris": {"ios": "https://dc.lft.to/lastmile_qr_scan", "android": "https://dc.lft.to/lastmile_qr_scan"}, "type": "electric_scooter", "name": "5ee165c11b57292e87d38a29c67588d1", "is_reserved": 0, "lon": -77.01949783333333, "is_disabled": 0, "fusion_lat": 0.0, "lat": 38.950457666666665, "bike_id": "5ee165c11b57292e87d38a29c67588d1", "fusion_lon": 0.0}, {"rental_uris": {"ios": "https://dc.lft.to/lastmile_qr_scan", "android": "https://dc.lft.to/lastmile_qr_scan"}, "type": "electric_scooter", "name": "a375d0b482dd2a38acaab5111a69344d", "is_reserved": 0, "lon": -77.010636, "is_disabled": 0, "fusion_lat": 0.0, "lat": 38.91197, "bike_id": "a375d0b482dd2a38acaab5111a69344d", "fusion_lon": 0.0}, {"rental_uris": {"ios": "https://dc.lft.to/lastmile_qr_scan", "android": "https://dc.lft.to/lastmile_qr_scan"}, "type": "electric_scooter", "name": "55e05afc235b5777964a7abe791279ef", "is_reserved": 0, "lon": -77.03643166666667, "is_disabled": 0, "fusion_lat": 0.0, "lat": 38.92488, "bike_id": "55e05afc235b5777964a7abe791279ef", "fusion_lon": 0.0}, {"rental_uris": {"ios": "https://dc.lft.to/lastmile_qr_scan", "android": "https://dc.lft.to/lastmile_qr_scan"}, "type": "electric_scooter", "name": "3f8d2028e0007521e85dd07e9db04a11", "is_reserved": 0, "lon": -77.020206, "is_disabled": 0, "fusion_lat": 0.0, "lat": 38.923276666666666, "bike_id": "3f8d2028e0007521e85dd07e9db04a11", "fusion_lon": 0.0}, {"rental_uris": {"ios": "https://dc.lft.to/lastmile_qr_scan", "android": "https://dc.lft.to/lastmile_qr_scan"}, "type": "electric_scooter", "name": "cb5a9ba62654fed24105e3692dd5a91f", "is_reserved": 0, "lon": -77.00296433333334, "is_disabled": 0, "fusion_lat": 0.0, "lat": 38.90912133333333, "bike_id": "cb5a9ba62654fed24105e3692dd5a91f", "fusion_lon": 0.0}, {"rental_uris": {"ios": "https://dc.lft.to/lastmile_qr_scan", "android": "https://dc.lft.to/lastmile_qr_scan"}, "type": "electric_scooter", "name": "f4d2728a04f8560eb0456609ad5e467d", "is_reserved": 0, "lon": -77.00556833333333, "is_disabled": 0, "fusion_lat": 0.0, "lat": 38.91181816666667, "bike_id": "f4d2728a04f8560eb0456609ad5e467d", "fusion_lon": 0.0}, {"rental_uris": {"ios": "https://dc.lft.to/lastmile_qr_scan", "android": "https://dc.lft.to/lastmile_qr_scan"}, "type": "electric_scooter", "name": "fb9aec14f35e5fc2f66346e51a45235a", "is_reserved": 0, "lon": -77.03348416666667, "is_disabled": 0, "fusion_lat": 0.0, "lat": 38.92881916666666, "bike_id": "fb9aec14f35e5fc2f66346e51a45235a", "fusion_lon": 0.0}, {"rental_uris": {"ios": "https://dc.lft.to/lastmile_qr_scan", "android": "https://dc.lft.to/lastmile_qr_scan"}, "type": "electric_scooter", "name": "1bb223d98abe42ff0cff972aca67fb8a", "is_reserved": 0, "lon": -77.03427, "is_disabled": 0, "fusion_lat": 0.0, "lat": 38.92745133333333, "bike_id": "1bb223d98abe42ff0cff972aca67fb8a", "fusion_lon": 0.0}, {"rental_uris": {"ios": "https://dc.lft.to/lastmile_qr_scan", "android": "https://dc.lft.to/lastmile_qr_scan"}, "type": "electric_scooter", "name": "12bf773d5ccecd3ac317be08f4a003db", "is_reserved": 0, "lon": -77.04348483333334, "is_disabled": 0, "fusion_lat": 0.0, "lat": 38.907354, "bike_id": "12bf773d5ccecd3ac317be08f4a003db", "fusion_lon": 0.0}, {"rental_uris": {"ios": "https://dc.lft.to/lastmile_qr_scan", "android": "https://dc.lft.to/lastmile_qr_scan"}, "type": "electric_scooter", "name": "23a1966bb540841a04fc0718be14284f", "is_reserved": 0, "lon": -77.04286583333334, "is_disabled": 0, "fusion_lat": 0.0, "lat": 38.90651, "bike_id": "23a1966bb540841a04fc0718be14284f", "fusion_lon": 0.0}, {"rental_uris": {"ios": "https://dc.lft.to/lastmile_qr_scan", "android": "https://dc.lft.to/lastmile_qr_scan"}, "type": "electric_scooter", "name": "d20ece9dd5e572f5d6688b3cd4f22901", "is_reserved": 0, "lon": -77.06520316666666, "is_disabled": 0, "fusion_lat": 0.0, "lat": 38.911131833333336, "bike_id": "d20ece9dd5e572f5d6688b3cd4f22901", "fusion_lon": 0.0}, {"rental_uris": {"ios": "https://dc.lft.to/lastmile_qr_scan", "android": "https://dc.lft.to/lastmile_qr_scan"}, "type": "electric_bike", "name": "dde951549b71b5c49a346f87cbd56b73", "is_reserved": 0, "lon": -76.96153633333333, "is_disabled": 0, "fusion_lat": 0.0, "lat": 38.85620933333333, "bike_id": "dde951549b71b5c49a346f87cbd56b73", "fusion_lon": 0.0}, {"rental_uris": {"ios": "https://dc.lft.to/lastmile_qr_scan", "android": "https://dc.lft.to/lastmile_qr_scan"}, "type": "electric_scooter", "name": "532ada592936df042ead625fd86644a2", "is_reserved": 0, "lon": -77.03856666666667, "is_disabled": 0, "fusion_lat": 0.0, "lat": 38.91545333333333, "bike_id": "532ada592936df042ead625fd86644a2", "fusion_lon": 0.0}, {"rental_uris": {"ios": "https://dc.lft.to/lastmile_qr_scan", "android": "https://dc.lft.to/lastmile_qr_scan"}, "type": "electric_scooter", "name": "bf21e0217375ea49dcad6318622b2d45", "is_reserved": 0, "lon": -77.04098733333333, "is_disabled": 0, "fusion_lat": 0.0, "lat": 38.9253225, "bike_id": "bf21e0217375ea49dcad6318622b2d45", "fusion_lon": 0.0}, {"rental_uris": {"ios": "https://dc.lft.to/lastmile_qr_scan", "android": "https://dc.lft.to/lastmile_qr_scan"}, "type": "electric_scooter", "name": "6d2a6ee2e608fc0597e192de400d2999", "is_reserved": 0, "lon": -77.03469016666666, "is_disabled": 0, "fusion_lat": 0.0, "lat": 38.902932, "bike_id": "6d2a6ee2e608fc0597e192de400d2999", "fusion_lon": 0.0}, {"rental_uris": {"ios": "https://dc.lft.to/lastmile_qr_scan", "android": "https://dc.lft.to/lastmile_qr_scan"}, "type": "electric_bike", "name": "e763952c78251ca919015ed4c124ccaf", "is_reserved": 0, "lon": -76.96264316666667, "is_disabled": 0, "fusion_lat": 0.0, "lat": 38.882473833333336, "bike_id": "e763952c78251ca919015ed4c124ccaf", "fusion_lon": 0.0}, {"rental_uris": {"ios": "https://dc.lft.to/lastmile_qr_scan", "android": "https://dc.lft.to/lastmile_qr_scan"}, "type": "electric_scooter", "name": "6b4941e09ae4dbdbcf125683fda3fdeb", "is_reserved": 0, "lon": -76.94866533333334, "is_disabled": 0, "fusion_lat": 0.0, "lat": 38.89577116666667, "bike_id": "6b4941e09ae4dbdbcf125683fda3fdeb", "fusion_lon": 0.0}, {"rental_uris": {"ios": "https://dc.lft.to/lastmile_qr_scan", "android": "https://dc.lft.to/lastmile_qr_scan"}, "type": "electric_scooter", "name": "1409af2480af60b246e6fac8c13a9f74", "is_reserved": 0, "lon": -77.04336983333333, "is_disabled": 0, "fusion_lat": 0.0, "lat": 38.922288333333334, "bike_id": "1409af2480af60b246e6fac8c13a9f74", "fusion_lon": 0.0}, {"rental_uris": {"ios": "https://dc.lft.to/lastmile_qr_scan", "android": "https://dc.lft.to/lastmile_qr_scan"}, "type": "electric_scooter", "name": "c5835a8f3e1d6a8b4523510335899456", "is_reserved": 0, "lon": -77.06186083333333, "is_disabled": 0, "fusion_lat": 0.0, "lat": 38.90277, "bike_id": "c5835a8f3e1d6a8b4523510335899456", "fusion_lon": 0.0}, {"rental_uris": {"ios": "https://dc.lft.to/lastmile_qr_scan", "android": "https://dc.lft.to/lastmile_qr_scan"}, "type": "electric_scooter", "name": "075704dd797a0ed5a656fe5390ea6e2c", "is_reserved": 0, "lon": -77.02287766666667, "is_disabled": 0, "fusion_lat": 0.0, "lat": 38.9183225, "bike_id": "075704dd797a0ed5a656fe5390ea6e2c", "fusion_lon": 0.0}, {"rental_uris": {"ios": "https://dc.lft.to/lastmile_qr_scan", "android": "https://dc.lft.to/lastmile_qr_scan"}, "type": "electric_scooter", "name": "bf4e6f580a74db7ac6e5623562568051", "is_reserved": 0, "lon": -76.9975915, "is_disabled": 0, "fusion_lat": 0.0, "lat": 38.885108833333334, "bike_id": "bf4e6f580a74db7ac6e5623562568051", "fusion_lon": 0.0}, {"rental_uris": {"ios": "https://dc.lft.to/lastmile_qr_scan", "android": "https://dc.lft.to/lastmile_qr_scan"}, "type": "electric_scooter", "name": "7435aa7cd2b4c6c8c9e384981fb33336", "is_reserved": 0, "lon": -77.02813233333333, "is_disabled": 0, "fusion_lat": 0.0, "lat": 38.909191, "bike_id": "7435aa7cd2b4c6c8c9e384981fb33336", "fusion_lon": 0.0}, {"rental_uris": {"ios": "https://dc.lft.to/lastmile_qr_scan", "android": "https://dc.lft.to/lastmile_qr_scan"}, "type": "electric_scooter", "name": "e24e84897fe60ca56f010710ebcd4ec0", "is_reserved": 0, "lon": -76.988855, "is_disabled": 0, "fusion_lat": 0.0, "lat": 38.899575166666665, "bike_id": "e24e84897fe60ca56f010710ebcd4ec0", "fusion_lon": 0.0}, {"rental_uris": {"ios": "https://dc.lft.to/lastmile_qr_scan", "android": "https://dc.lft.to/lastmile_qr_scan"}, "type": "electric_scooter", "name": "6926e1054a972807b891aeae394fe235", "is_reserved": 0, "lon": -77.04158433333333, "is_disabled": 0, "fusion_lat": 0.0, "lat": 38.90148166666667, "bike_id": "6926e1054a972807b891aeae394fe235", "fusion_lon": 0.0}, {"rental_uris": {"ios": "https://dc.lft.to/lastmile_qr_scan", "android": "https://dc.lft.to/lastmile_qr_scan"}, "type": "electric_scooter", "name": "562751b46521dce96e143ec7ededa2bb", "is_reserved": 0, "lon": -77.02212483333334, "is_disabled": 0, "fusion_lat": 0.0, "lat": 38.9141705, "bike_id": "562751b46521dce96e143ec7ededa2bb", "fusion_lon": 0.0}, {"rental_uris": {"ios": "https://dc.lft.to/lastmile_qr_scan", "android": "https://dc.lft.to/lastmile_qr_scan"}, "type": "electric_scooter", "name": "e97c43fd4cc6b3b4816fa67ff19d1bb1", "is_reserved": 0, "lon": -77.02296383333334, "is_disabled": 0, "fusion_lat": 0.0, "lat": 38.91840933333334, "bike_id": "e97c43fd4cc6b3b4816fa67ff19d1bb1", "fusion_lon": 0.0}, {"rental_uris": {"ios": "https://dc.lft.to/lastmile_qr_scan", "android": "https://dc.lft.to/lastmile_qr_scan"}, "type": "electric_scooter", "name": "68b7b355a339f2f4a1ee016f2b4060f3", "is_reserved": 0, "lon": -77.01326166666666, "is_disabled": 0, "fusion_lat": 0.0, "lat": 38.920323, "bike_id": "68b7b355a339f2f4a1ee016f2b4060f3", "fusion_lon": 0.0}, {"rental_uris": {"ios": "https://dc.lft.to/lastmile_qr_scan", "android": "https://dc.lft.to/lastmile_qr_scan"}, "type": "electric_scooter", "name": "2f9100dd2ff5a60ae11c5d9e391824a5", "is_reserved": 0, "lon": -77.04342633333333, "is_disabled": 0, "fusion_lat": 0.0, "lat": 38.921705833333334, "bike_id": "2f9100dd2ff5a60ae11c5d9e391824a5", "fusion_lon": 0.0}, {"rental_uris": {"ios": "https://dc.lft.to/lastmile_qr_scan", "android": "https://dc.lft.to/lastmile_qr_scan"}, "type": "electric_scooter", "name": "29c420cc5861b64fcaf6b99319b9a0d5", "is_reserved": 0, "lon": -76.99098066666667, "is_disabled": 0, "fusion_lat": 0.0, "lat": 38.8573345, "bike_id": "29c420cc5861b64fcaf6b99319b9a0d5", "fusion_lon": 0.0}, {"rental_uris": {"ios": "https://dc.lft.to/lastmile_qr_scan", "android": "https://dc.lft.to/lastmile_qr_scan"}, "type": "electric_scooter", "name": "19c88858b7d2e61a172cb095a167e6a4", "is_reserved": 0, "lon": -77.04331233333333, "is_disabled": 0, "fusion_lat": 0.0, "lat": 38.90316216666667, "bike_id": "19c88858b7d2e61a172cb095a167e6a4", "fusion_lon": 0.0}, {"rental_uris": {"ios": "https://dc.lft.to/lastmile_qr_scan", "android": "https://dc.lft.to/lastmile_qr_scan"}, "type": "electric_scooter", "name": "1c437eb1e0012023dc7b941d7d0dc2dc", "is_reserved": 0, "lon": -77.01566016666666, "is_disabled": 0, "fusion_lat": 0.0, "lat": 38.902659666666665, "bike_id": "1c437eb1e0012023dc7b941d7d0dc2dc", "fusion_lon": 0.0}, {"rental_uris": {"ios": "https://dc.lft.to/lastmile_qr_scan", "android": "https://dc.lft.to/lastmile_qr_scan"}, "type": "electric_scooter", "name": "bb1bb51352bab1049caa508c7bb647ee", "is_reserved": 0, "lon": -77.07119983333334, "is_disabled": 0, "fusion_lat": 0.0, "lat": 38.90589583333333, "bike_id": "bb1bb51352bab1049caa508c7bb647ee", "fusion_lon": 0.0}, {"rental_uris": {"ios": "https://dc.lft.to/lastmile_qr_scan", "android": "https://dc.lft.to/lastmile_qr_scan"}, "type": "electric_scooter", "name": "a704ef3b75b1954b828f19a36f2f00f5", "is_reserved": 0, "lon": -76.94285666666667, "is_disabled": 0, "fusion_lat": 0.0, "lat": 38.9016645, "bike_id": "a704ef3b75b1954b828f19a36f2f00f5", "fusion_lon": 0.0}, {"rental_uris": {"ios": "https://dc.lft.to/lastmile_qr_scan", "android": "https://dc.lft.to/lastmile_qr_scan"}, "type": "electric_bike", "name": "26ecb4b216a3d40f647367c51ea830e0", "is_reserved": 0, "lon": -77.2317815, "is_disabled": 0, "fusion_lat": 0.0, "lat": 38.92896233333333, "bike_id": "26ecb4b216a3d40f647367c51ea830e0", "fusion_lon": 0.0}, {"rental_uris": {"ios": "https://dc.lft.to/lastmile_qr_scan", "android": "https://dc.lft.to/lastmile_qr_scan"}, "type": "electric_scooter", "name": "bd400bdedc0c75bd3430623caffe6b91", "is_reserved": 0, "lon": -77.016499, "is_disabled": 0, "fusion_lat": 0.0, "lat": 38.904011833333335, "bike_id": "bd400bdedc0c75bd3430623caffe6b91", "fusion_lon": 0.0}, {"rental_uris": {"ios": "https://dc.lft.to/lastmile_qr_scan", "android": "https://dc.lft.to/lastmile_qr_scan"}, "type": "electric_bike", "name": "8832f662d1b07524ead86a187e517382", "is_reserved": 0, "lon": -76.9793195, "is_disabled": 0, "fusion_lat": 0.0, "lat": 38.919995666666665, "bike_id": "8832f662d1b07524ead86a187e517382", "fusion_lon": 0.0}, {"rental_uris": {"ios": "https://dc.lft.to/lastmile_qr_scan", "android": "https://dc.lft.to/lastmile_qr_scan"}, "type": "electric_scooter", "name": "2fec7d448f38a0444e8c48ff6c0eeaf2", "is_reserved": 0, "lon": -77.02645166666667, "is_disabled": 0, "fusion_lat": 0.0, "lat": 38.9309095, "bike_id": "2fec7d448f38a0444e8c48ff6c0eeaf2", "fusion_lon": 0.0}, {"rental_uris": {"ios": "https://dc.lft.to/lastmile_qr_scan", "android": "https://dc.lft.to/lastmile_qr_scan"}, "type": "electric_scooter", "name": "b97699e317fc7c33d4cad164a8498798", "is_reserved": 0, "lon": -77.03207016666667, "is_disabled": 0, "fusion_lat": 0.0, "lat": 38.921886, "bike_id": "b97699e317fc7c33d4cad164a8498798", "fusion_lon": 0.0}, {"rental_uris": {"ios": "https://dc.lft.to/lastmile_qr_scan", "android": "https://dc.lft.to/lastmile_qr_scan"}, "type": "electric_bike", "name": "26839c180d5046870c08f32b05324eb7", "is_reserved": 0, "lon": -77.02460633333334, "is_disabled": 0, "fusion_lat": 0.0, "lat": 38.93298766666667, "bike_id": "26839c180d5046870c08f32b05324eb7", "fusion_lon": 0.0}, {"rental_uris": {"ios": "https://dc.lft.to/lastmile_qr_scan", "android": "https://dc.lft.to/lastmile_qr_scan"}, "type": "electric_bike", "name": "53e8979d64c5f8f20fa2bbb093616274", "is_reserved": 0, "lon": -77.10288983333334, "is_disabled": 0, "fusion_lat": 0.0, "lat": 38.852540166666664, "bike_id": "53e8979d64c5f8f20fa2bbb093616274", "fusion_lon": 0.0}, {"rental_uris": {"ios": "https://dc.lft.to/lastmile_qr_scan", "android": "https://dc.lft.to/lastmile_qr_scan"}, "type": "electric_scooter", "name": "38d851238367601325510f11a14c7f3c", "is_reserved": 0, "lon": -77.02006083333333, "is_disabled": 0, "fusion_lat": 0.0, "lat": 38.92807616666666, "bike_id": "38d851238367601325510f11a14c7f3c", "fusion_lon": 0.0}, {"rental_uris": {"ios": "https://dc.lft.to/lastmile_qr_scan", "android": "https://dc.lft.to/lastmile_qr_scan"}, "type": "electric_scooter", "name": "93a72d474628d4bd6dc519b5517f5a3b", "is_reserved": 0, "lon": -77.01498133333334, "is_disabled": 0, "fusion_lat": 0.0, "lat": 38.9065665, "bike_id": "93a72d474628d4bd6dc519b5517f5a3b", "fusion_lon": 0.0}, {"rental_uris": {"ios": "https://dc.lft.to/lastmile_qr_scan", "android": "https://dc.lft.to/lastmile_qr_scan"}, "type": "electric_scooter", "name": "748db9eb153487fccf53684940150763", "is_reserved": 0, "lon": -77.03417966666666, "is_disabled": 0, "fusion_lat": 0.0, "lat": 38.901331666666664, "bike_id": "748db9eb153487fccf53684940150763", "fusion_lon": 0.0}, {"rental_uris": {"ios": "https://dc.lft.to/lastmile_qr_scan", "android": "https://dc.lft.to/lastmile_qr_scan"}, "type": "electric_scooter", "name": "14d6a1d5248111fba3c1f7a258cff404", "is_reserved": 0, "lon": -77.005649, "is_disabled": 0, "fusion_lat": 0.0, "lat": 38.876592, "bike_id": "14d6a1d5248111fba3c1f7a258cff404", "fusion_lon": 0.0}, {"rental_uris": {"ios": "https://dc.lft.to/lastmile_qr_scan", "android": "https://dc.lft.to/lastmile_qr_scan"}, "type": "electric_scooter", "name": "a7e6e247e72eae39b12579c9d61ec7fc", "is_reserved": 0, "lon": -76.92306916666666, "is_disabled": 0, "fusion_lat": 0.0, "lat": 38.89388316666667, "bike_id": "a7e6e247e72eae39b12579c9d61ec7fc", "fusion_lon": 0.0}, {"rental_uris": {"ios": "https://dc.lft.to/lastmile_qr_scan", "android": "https://dc.lft.to/lastmile_qr_scan"}, "type": "electric_scooter", "name": "27dcd4bed62be1a5245047d9d684f182", "is_reserved": 0, "lon": -77.01997416666667, "is_disabled": 0, "fusion_lat": 0.0, "lat": 38.93050133333333, "bike_id": "27dcd4bed62be1a5245047d9d684f182", "fusion_lon": 0.0}, {"rental_uris": {"ios": "https://dc.lft.to/lastmile_qr_scan", "android": "https://dc.lft.to/lastmile_qr_scan"}, "type": "electric_scooter", "name": "c3ffa0bc40d574f746968fb65e2efda9", "is_reserved": 0, "lon": -77.0258965, "is_disabled": 0, "fusion_lat": 0.0, "lat": 38.906975, "bike_id": "c3ffa0bc40d574f746968fb65e2efda9", "fusion_lon": 0.0}, {"rental_uris": {"ios": "https://dc.lft.to/lastmile_qr_scan", "android": "https://dc.lft.to/lastmile_qr_scan"}, "type": "electric_scooter", "name": "ff85e3a337b9e49036c41f746dc1b2f8", "is_reserved": 0, "lon": -77.02568566666666, "is_disabled": 0, "fusion_lat": 0.0, "lat": 38.94849283333333, "bike_id": "ff85e3a337b9e49036c41f746dc1b2f8", "fusion_lon": 0.0}, {"rental_uris": {"ios": "https://dc.lft.to/lastmile_qr_scan", "android": "https://dc.lft.to/lastmile_qr_scan"}, "type": "electric_scooter", "name": "95f1a74dacfc7a61b3abcd30a30cc34b", "is_reserved": 0, "lon": -76.98652833333334, "is_disabled": 0, "fusion_lat": 0.0, "lat": 38.90540516666667, "bike_id": "95f1a74dacfc7a61b3abcd30a30cc34b", "fusion_lon": 0.0}, {"rental_uris": {"ios": "https://dc.lft.to/lastmile_qr_scan", "android": "https://dc.lft.to/lastmile_qr_scan"}, "type": "electric_scooter", "name": "fe1ea220ca38952cbd0a42d289f15856", "is_reserved": 0, "lon": -77.08783433333333, "is_disabled": 0, "fusion_lat": 0.0, "lat": 38.93563833333333, "bike_id": "fe1ea220ca38952cbd0a42d289f15856", "fusion_lon": 0.0}, {"rental_uris": {"ios": "https://dc.lft.to/lastmile_qr_scan", "android": "https://dc.lft.to/lastmile_qr_scan"}, "type": "electric_bike", "name": "0615efd6c5bd7ce2a95696b9ee16e0d5", "is_reserved": 0, "lon": -77.1128265, "is_disabled": 0, "fusion_lat": 0.0, "lat": 38.83105166666667, "bike_id": "0615efd6c5bd7ce2a95696b9ee16e0d5", "fusion_lon": 0.0}, {"rental_uris": {"ios": "https://dc.lft.to/lastmile_qr_scan", "android": "https://dc.lft.to/lastmile_qr_scan"}, "type": "electric_scooter", "name": "4ec48fb4c875a0fabf80bb65e98393bd", "is_reserved": 0, "lon": -77.0632165, "is_disabled": 0, "fusion_lat": 0.0, "lat": 38.91340433333333, "bike_id": "4ec48fb4c875a0fabf80bb65e98393bd", "fusion_lon": 0.0}, {"rental_uris": {"ios": "https://dc.lft.to/lastmile_qr_scan", "android": "https://dc.lft.to/lastmile_qr_scan"}, "type": "electric_scooter", "name": "74ab71ede19792a07e010a0a4ac7c359", "is_reserved": 0, "lon": -76.98694533333334, "is_disabled": 0, "fusion_lat": 0.0, "lat": 38.907052, "bike_id": "74ab71ede19792a07e010a0a4ac7c359", "fusion_lon": 0.0}, {"rental_uris": {"ios": "https://dc.lft.to/lastmile_qr_scan", "android": "https://dc.lft.to/lastmile_qr_scan"}, "type": "electric_scooter", "name": "24345e60edc18b300bfef17930a40d47", "is_reserved": 0, "lon": -77.008197, "is_disabled": 0, "fusion_lat": 0.0, "lat": 38.91565283333333, "bike_id": "24345e60edc18b300bfef17930a40d47", "fusion_lon": 0.0}, {"rental_uris": {"ios": "https://dc.lft.to/lastmile_qr_scan", "android": "https://dc.lft.to/lastmile_qr_scan"}, "type": "electric_scooter", "name": "81ac81b12737977aac96ad8132b43d4c", "is_reserved": 0, "lon": -77.040043, "is_disabled": 0, "fusion_lat": 0.0, "lat": 38.92175433333333, "bike_id": "81ac81b12737977aac96ad8132b43d4c", "fusion_lon": 0.0}, {"rental_uris": {"ios": "https://dc.lft.to/lastmile_qr_scan", "android": "https://dc.lft.to/lastmile_qr_scan"}, "type": "electric_scooter", "name": "8e53ceccf3e669e74f2388a22972fe1f", "is_reserved": 0, "lon": -77.0218865, "is_disabled": 0, "fusion_lat": 0.0, "lat": 38.929185, "bike_id": "8e53ceccf3e669e74f2388a22972fe1f", "fusion_lon": 0.0}, {"rental_uris": {"ios": "https://dc.lft.to/lastmile_qr_scan", "android": "https://dc.lft.to/lastmile_qr_scan"}, "type": "electric_scooter", "name": "129cd0d9e778750e52ebc77ef7e35488", "is_reserved": 0, "lon": -77.03075866666667, "is_disabled": 0, "fusion_lat": 0.0, "lat": 38.92379183333333, "bike_id": "129cd0d9e778750e52ebc77ef7e35488", "fusion_lon": 0.0}, {"rental_uris": {"ios": "https://dc.lft.to/lastmile_qr_scan", "android": "https://dc.lft.to/lastmile_qr_scan"}, "type": "electric_scooter", "name": "814eb87878ebc81fc60ac686a78afc83", "is_reserved": 0, "lon": -77.00232883333334, "is_disabled": 0, "fusion_lat": 0.0, "lat": 38.900505333333335, "bike_id": "814eb87878ebc81fc60ac686a78afc83", "fusion_lon": 0.0}, {"rental_uris": {"ios": "https://dc.lft.to/lastmile_qr_scan", "android": "https://dc.lft.to/lastmile_qr_scan"}, "type": "electric_scooter", "name": "ff9d64dce6c57da1cced62310c03ea93", "is_reserved": 0, "lon": -77.02943633333334, "is_disabled": 0, "fusion_lat": 0.0, "lat": 38.905069, "bike_id": "ff9d64dce6c57da1cced62310c03ea93", "fusion_lon": 0.0}, {"rental_uris": {"ios": "https://dc.lft.to/lastmile_qr_scan", "android": "https://dc.lft.to/lastmile_qr_scan"}, "type": "electric_bike", "name": "6641dac1711a9453bba07a1902850466", "is_reserved": 0, "lon": -76.95739666666667, "is_disabled": 0, "fusion_lat": 0.0, "lat": 38.88860483333333, "bike_id": "6641dac1711a9453bba07a1902850466", "fusion_lon": 0.0}, {"rental_uris": {"ios": "https://dc.lft.to/lastmile_qr_scan", "android": "https://dc.lft.to/lastmile_qr_scan"}, "type": "electric_scooter", "name": "9d25728220513563c76ab885e7d17042", "is_reserved": 0, "lon": -76.94718833333333, "is_disabled": 0, "fusion_lat": 0.0, "lat": 38.890851166666664, "bike_id": "9d25728220513563c76ab885e7d17042", "fusion_lon": 0.0}, {"rental_uris": {"ios": "https://dc.lft.to/lastmile_qr_scan", "android": "https://dc.lft.to/lastmile_qr_scan"}, "type": "electric_scooter", "name": "44bb66ec54d66023c58e525c0151742d", "is_reserved": 0, "lon": -77.01642166666667, "is_disabled": 0, "fusion_lat": 0.0, "lat": 38.903882333333335, "bike_id": "44bb66ec54d66023c58e525c0151742d", "fusion_lon": 0.0}, {"rental_uris": {"ios": "https://dc.lft.to/lastmile_qr_scan", "android": "https://dc.lft.to/lastmile_qr_scan"}, "type": "electric_scooter", "name": "4a4820b8d1edc7580f1c437611949bde", "is_reserved": 0, "lon": -77.04349633333334, "is_disabled": 0, "fusion_lat": 0.0, "lat": 38.911221, "bike_id": "4a4820b8d1edc7580f1c437611949bde", "fusion_lon": 0.0}, {"rental_uris": {"ios": "https://dc.lft.to/lastmile_qr_scan", "android": "https://dc.lft.to/lastmile_qr_scan"}, "type": "electric_scooter", "name": "468a91345785263014951a12f9ffab2e", "is_reserved": 0, "lon": -77.0019155, "is_disabled": 0, "fusion_lat": 0.0, "lat": 38.90800766666667, "bike_id": "468a91345785263014951a12f9ffab2e", "fusion_lon": 0.0}, {"rental_uris": {"ios": "https://dc.lft.to/lastmile_qr_scan", "android": "https://dc.lft.to/lastmile_qr_scan"}, "type": "electric_scooter", "name": "93b4aefca08d3d7d0897f219493b4abd", "is_reserved": 0, "lon": -77.00198266666666, "is_disabled": 0, "fusion_lat": 0.0, "lat": 38.9005285, "bike_id": "93b4aefca08d3d7d0897f219493b4abd", "fusion_lon": 0.0}, {"rental_uris": {"ios": "https://dc.lft.to/lastmile_qr_scan", "android": "https://dc.lft.to/lastmile_qr_scan"}, "type": "electric_scooter", "name": "2b4cf2459b1dc73b56fa055ef843ffc6", "is_reserved": 0, "lon": -76.99360833333333, "is_disabled": 0, "fusion_lat": 0.0, "lat": 38.882722, "bike_id": "2b4cf2459b1dc73b56fa055ef843ffc6", "fusion_lon": 0.0}, {"rental_uris": {"ios": "https://dc.lft.to/lastmile_qr_scan", "android": "https://dc.lft.to/lastmile_qr_scan"}, "type": "electric_scooter", "name": "52934ca2600c737b2efd0a0f06d413d8", "is_reserved": 0, "lon": -77.03142833333334, "is_disabled": 0, "fusion_lat": 0.0, "lat": 38.90633666666667, "bike_id": "52934ca2600c737b2efd0a0f06d413d8", "fusion_lon": 0.0}, {"rental_uris": {"ios": "https://dc.lft.to/lastmile_qr_scan", "android": "https://dc.lft.to/lastmile_qr_scan"}, "type": "electric_bike", "name": "85018ada3e396f71d2dcb6d65819db65", "is_reserved": 0, "lon": -77.051179, "is_disabled": 0, "fusion_lat": 0.0, "lat": 38.859326333333335, "bike_id": "85018ada3e396f71d2dcb6d65819db65", "fusion_lon": 0.0}, {"rental_uris": {"ios": "https://dc.lft.to/lastmile_qr_scan", "android": "https://dc.lft.to/lastmile_qr_scan"}, "type": "electric_scooter", "name": "b9be186dde06110243672c2cc3cf034f", "is_reserved": 0, "lon": -77.03156616666666, "is_disabled": 0, "fusion_lat": 0.0, "lat": 38.9026065, "bike_id": "b9be186dde06110243672c2cc3cf034f", "fusion_lon": 0.0}, {"rental_uris": {"ios": "https://dc.lft.to/lastmile_qr_scan", "android": "https://dc.lft.to/lastmile_qr_scan"}, "type": "electric_bike", "name": "04d0de25abc381cb5186b9c1a89953ed", "is_reserved": 0, "lon": -77.07661616666667, "is_disabled": 0, "fusion_lat": 0.0, "lat": 38.809805, "bike_id": "04d0de25abc381cb5186b9c1a89953ed", "fusion_lon": 0.0}, {"rental_uris": {"ios": "https://dc.lft.to/lastmile_qr_scan", "android": "https://dc.lft.to/lastmile_qr_scan"}, "type": "electric_scooter", "name": "d9e33379dd0905d2bbb310b15cc02aed", "is_reserved": 0, "lon": -76.99034016666667, "is_disabled": 0, "fusion_lat": 0.0, "lat": 38.88884866666667, "bike_id": "d9e33379dd0905d2bbb310b15cc02aed", "fusion_lon": 0.0}, {"rental_uris": {"ios": "https://dc.lft.to/lastmile_qr_scan", "android": "https://dc.lft.to/lastmile_qr_scan"}, "type": "electric_bike", "name": "fabb144658d6927f7a6fd8721f2f4467", "is_reserved": 0, "lon": -77.02071616666667, "is_disabled": 0, "fusion_lat": 0.0, "lat": 38.9644235, "bike_id": "fabb144658d6927f7a6fd8721f2f4467", "fusion_lon": 0.0}, {"rental_uris": {"ios": "https://dc.lft.to/lastmile_qr_scan", "android": "https://dc.lft.to/lastmile_qr_scan"}, "type": "electric_scooter", "name": "dfb5c797181a778cdd7dc52d42f21458", "is_reserved": 0, "lon": -76.99969383333334, "is_disabled": 0, "fusion_lat": 0.0, "lat": 38.9085535, "bike_id": "dfb5c797181a778cdd7dc52d42f21458", "fusion_lon": 0.0}, {"rental_uris": {"ios": "https://dc.lft.to/lastmile_qr_scan", "android": "https://dc.lft.to/lastmile_qr_scan"}, "type": "electric_scooter", "name": "cacedc7d40797a5c2546ed9421310a66", "is_reserved": 0, "lon": -77.0466465, "is_disabled": 0, "fusion_lat": 0.0, "lat": 38.91249333333333, "bike_id": "cacedc7d40797a5c2546ed9421310a66", "fusion_lon": 0.0}, {"rental_uris": {"ios": "https://dc.lft.to/lastmile_qr_scan", "android": "https://dc.lft.to/lastmile_qr_scan"}, "type": "electric_scooter", "name": "f0ad9de9b4e2060c31ea885361c0e8c3", "is_reserved": 0, "lon": -77.00197533333333, "is_disabled": 0, "fusion_lat": 0.0, "lat": 38.889259, "bike_id": "f0ad9de9b4e2060c31ea885361c0e8c3", "fusion_lon": 0.0}, {"rental_uris": {"ios": "https://dc.lft.to/lastmile_qr_scan", "android": "https://dc.lft.to/lastmile_qr_scan"}, "type": "electric_scooter", "name": "60596da11458993d9451d4b7dd7b9553", "is_reserved": 0, "lon": -77.03264166666666, "is_disabled": 0, "fusion_lat": 0.0, "lat": 38.9254975, "bike_id": "60596da11458993d9451d4b7dd7b9553", "fusion_lon": 0.0}, {"rental_uris": {"ios": "https://dc.lft.to/lastmile_qr_scan", "android": "https://dc.lft.to/lastmile_qr_scan"}, "type": "electric_scooter", "name": "5928bfc4f98c8d7620e750ecf5cf3393", "is_reserved": 0, "lon": -77.06028883333333, "is_disabled": 0, "fusion_lat": 0.0, "lat": 38.93883183333333, "bike_id": "5928bfc4f98c8d7620e750ecf5cf3393", "fusion_lon": 0.0}, {"rental_uris": {"ios": "https://dc.lft.to/lastmile_qr_scan", "android": "https://dc.lft.to/lastmile_qr_scan"}, "type": "electric_scooter", "name": "12731878cd7038c2bbb36b35a53bc989", "is_reserved": 0, "lon": -76.97715366666667, "is_disabled": 0, "fusion_lat": 0.0, "lat": 38.90054333333333, "bike_id": "12731878cd7038c2bbb36b35a53bc989", "fusion_lon": 0.0}, {"rental_uris": {"ios": "https://dc.lft.to/lastmile_qr_scan", "android": "https://dc.lft.to/lastmile_qr_scan"}, "type": "electric_scooter", "name": "e10d24539d3504f97647db1463f052ab", "is_reserved": 0, "lon": -76.98530483333333, "is_disabled": 0, "fusion_lat": 0.0, "lat": 38.91447566666667, "bike_id": "e10d24539d3504f97647db1463f052ab", "fusion_lon": 0.0}, {"rental_uris": {"ios": "https://dc.lft.to/lastmile_qr_scan", "android": "https://dc.lft.to/lastmile_qr_scan"}, "type": "electric_bike", "name": "900fc901f069849e8e83fcf1e01a3f71", "is_reserved": 0, "lon": -77.019056, "is_disabled": 0, "fusion_lat": 0.0, "lat": 38.9766785, "bike_id": "900fc901f069849e8e83fcf1e01a3f71", "fusion_lon": 0.0}, {"rental_uris": {"ios": "https://dc.lft.to/lastmile_qr_scan", "android": "https://dc.lft.to/lastmile_qr_scan"}, "type": "electric_scooter", "name": "3e21516a84c68cbd8e5bd032eabe75ef", "is_reserved": 0, "lon": -77.00610483333334, "is_disabled": 0, "fusion_lat": 0.0, "lat": 38.905910166666665, "bike_id": "3e21516a84c68cbd8e5bd032eabe75ef", "fusion_lon": 0.0}, {"rental_uris": {"ios": "https://dc.lft.to/lastmile_qr_scan", "android": "https://dc.lft.to/lastmile_qr_scan"}, "type": "electric_scooter", "name": "2153392958332711130019db74215745", "is_reserved": 0, "lon": -77.06091266666667, "is_disabled": 0, "fusion_lat": 0.0, "lat": 38.939932, "bike_id": "2153392958332711130019db74215745", "fusion_lon": 0.0}, {"rental_uris": {"ios": "https://dc.lft.to/lastmile_qr_scan", "android": "https://dc.lft.to/lastmile_qr_scan"}, "type": "electric_scooter", "name": "f00eb2d343a4bb410d2c80fc46ed174b", "is_reserved": 0, "lon": -77.02105566666667, "is_disabled": 0, "fusion_lat": 0.0, "lat": 38.966760666666666, "bike_id": "f00eb2d343a4bb410d2c80fc46ed174b", "fusion_lon": 0.0}, {"rental_uris": {"ios": "https://dc.lft.to/lastmile_qr_scan", "android": "https://dc.lft.to/lastmile_qr_scan"}, "type": "electric_bike", "name": "406111b619e205f77287a0e37006073e", "is_reserved": 0, "lon": -77.03883233333333, "is_disabled": 0, "fusion_lat": 0.0, "lat": 39.02636966666667, "bike_id": "406111b619e205f77287a0e37006073e", "fusion_lon": 0.0}, {"rental_uris": {"ios": "https://dc.lft.to/lastmile_qr_scan", "android": "https://dc.lft.to/lastmile_qr_scan"}, "type": "electric_scooter", "name": "5508e6a50825cc8e8a9112e6561f2ff5", "is_reserved": 0, "lon": -77.02938083333333, "is_disabled": 0, "fusion_lat": 0.0, "lat": 38.917071, "bike_id": "5508e6a50825cc8e8a9112e6561f2ff5", "fusion_lon": 0.0}, {"rental_uris": {"ios": "https://dc.lft.to/lastmile_qr_scan", "android": "https://dc.lft.to/lastmile_qr_scan"}, "type": "electric_scooter", "name": "b2f38e5ba6fd8e1d15653e9be5e7f506", "is_reserved": 0, "lon": -77.02073283333333, "is_disabled": 0, "fusion_lat": 0.0, "lat": 38.92720283333333, "bike_id": "b2f38e5ba6fd8e1d15653e9be5e7f506", "fusion_lon": 0.0}, {"rental_uris": {"ios": "https://dc.lft.to/lastmile_qr_scan", "android": "https://dc.lft.to/lastmile_qr_scan"}, "type": "electric_bike", "name": "46b8aeb20e88d36997ed8bc43fb72b3a", "is_reserved": 0, "lon": -77.09624466666666, "is_disabled": 0, "fusion_lat": 0.0, "lat": 38.952515166666664, "bike_id": "46b8aeb20e88d36997ed8bc43fb72b3a", "fusion_lon": 0.0}, {"rental_uris": {"ios": "https://dc.lft.to/lastmile_qr_scan", "android": "https://dc.lft.to/lastmile_qr_scan"}, "type": "electric_bike", "name": "5480eba5d3e4f8f5f82652d49b82d47b", "is_reserved": 0, "lon": -77.12737633333333, "is_disabled": 0, "fusion_lat": 0.0, "lat": 38.895674166666666, "bike_id": "5480eba5d3e4f8f5f82652d49b82d47b", "fusion_lon": 0.0}, {"rental_uris": {"ios": "https://dc.lft.to/lastmile_qr_scan", "android": "https://dc.lft.to/lastmile_qr_scan"}, "type": "electric_scooter", "name": "bb875d40029b713d4514de51cfd2d260", "is_reserved": 0, "lon": -77.06060383333333, "is_disabled": 0, "fusion_lat": 0.0, "lat": 38.886154, "bike_id": "bb875d40029b713d4514de51cfd2d260", "fusion_lon": 0.0}, {"rental_uris": {"ios": "https://dc.lft.to/lastmile_qr_scan", "android": "https://dc.lft.to/lastmile_qr_scan"}, "type": "electric_scooter", "name": "37e4e75cb6954e54f52077507222a521", "is_reserved": 0, "lon": -76.99130516666666, "is_disabled": 0, "fusion_lat": 0.0, "lat": 38.900138166666665, "bike_id": "37e4e75cb6954e54f52077507222a521", "fusion_lon": 0.0}, {"rental_uris": {"ios": "https://dc.lft.to/lastmile_qr_scan", "android": "https://dc.lft.to/lastmile_qr_scan"}, "type": "electric_scooter", "name": "640176a4f68430db59b876fc59abed34", "is_reserved": 0, "lon": -77.0212325, "is_disabled": 0, "fusion_lat": 0.0, "lat": 38.913229, "bike_id": "640176a4f68430db59b876fc59abed34", "fusion_lon": 0.0}, {"rental_uris": {"ios": "https://dc.lft.to/lastmile_qr_scan", "android": "https://dc.lft.to/lastmile_qr_scan"}, "type": "electric_scooter", "name": "e492865ebe57f54556456d269a841e1c", "is_reserved": 0, "lon": -76.96556166666667, "is_disabled": 0, "fusion_lat": 0.0, "lat": 38.91840283333333, "bike_id": "e492865ebe57f54556456d269a841e1c", "fusion_lon": 0.0}, {"rental_uris": {"ios": "https://dc.lft.to/lastmile_qr_scan", "android": "https://dc.lft.to/lastmile_qr_scan"}, "type": "electric_scooter", "name": "b123473bdd4fc7a8de1676b5f136ba7b", "is_reserved": 0, "lon": -77.02298783333333, "is_disabled": 0, "fusion_lat": 0.0, "lat": 38.89857266666667, "bike_id": "b123473bdd4fc7a8de1676b5f136ba7b", "fusion_lon": 0.0}, {"rental_uris": {"ios": "https://dc.lft.to/lastmile_qr_scan", "android": "https://dc.lft.to/lastmile_qr_scan"}, "type": "electric_scooter", "name": "018a39703b0b6462efec54f26ef45902", "is_reserved": 0, "lon": -77.03792866666667, "is_disabled": 0, "fusion_lat": 0.0, "lat": 38.92505, "bike_id": "018a39703b0b6462efec54f26ef45902", "fusion_lon": 0.0}, {"rental_uris": {"ios": "https://dc.lft.to/lastmile_qr_scan", "android": "https://dc.lft.to/lastmile_qr_scan"}, "type": "electric_scooter", "name": "27a2690e45f1ee244948945656dfcec6", "is_reserved": 0, "lon": -77.0354745, "is_disabled": 0, "fusion_lat": 0.0, "lat": 38.91714616666667, "bike_id": "27a2690e45f1ee244948945656dfcec6", "fusion_lon": 0.0}, {"rental_uris": {"ios": "https://dc.lft.to/lastmile_qr_scan", "android": "https://dc.lft.to/lastmile_qr_scan"}, "type": "electric_scooter", "name": "a4e019f83ab05dc2361f199a0e06b04d", "is_reserved": 0, "lon": -77.0559965, "is_disabled": 0, "fusion_lat": 0.0, "lat": 38.8942595, "bike_id": "a4e019f83ab05dc2361f199a0e06b04d", "fusion_lon": 0.0}, {"rental_uris": {"ios": "https://dc.lft.to/lastmile_qr_scan", "android": "https://dc.lft.to/lastmile_qr_scan"}, "type": "electric_scooter", "name": "6c17121bca0484d2ef23fe7eb6e2720e", "is_reserved": 0, "lon": -77.03707466666667, "is_disabled": 0, "fusion_lat": 0.0, "lat": 38.9283255, "bike_id": "6c17121bca0484d2ef23fe7eb6e2720e", "fusion_lon": 0.0}, {"rental_uris": {"ios": "https://dc.lft.to/lastmile_qr_scan", "android": "https://dc.lft.to/lastmile_qr_scan"}, "type": "electric_scooter", "name": "7ba78eaf80eb9e461f39db53f19d65b0", "is_reserved": 0, "lon": -77.0298535, "is_disabled": 0, "fusion_lat": 0.0, "lat": 38.92448666666667, "bike_id": "7ba78eaf80eb9e461f39db53f19d65b0", "fusion_lon": 0.0}, {"rental_uris": {"ios": "https://dc.lft.to/lastmile_qr_scan", "android": "https://dc.lft.to/lastmile_qr_scan"}, "type": "electric_scooter", "name": "921945bcf09da75a6c17a135f48ba9d1", "is_reserved": 0, "lon": -77.035627, "is_disabled": 0, "fusion_lat": 0.0, "lat": 38.923890666666665, "bike_id": "921945bcf09da75a6c17a135f48ba9d1", "fusion_lon": 0.0}, {"rental_uris": {"ios": "https://dc.lft.to/lastmile_qr_scan", "android": "https://dc.lft.to/lastmile_qr_scan"}, "type": "electric_scooter", "name": "bab49332f8b7ce8568ceae7562dcf39a", "is_reserved": 0, "lon": -77.0328755, "is_disabled": 0, "fusion_lat": 0.0, "lat": 38.9246015, "bike_id": "bab49332f8b7ce8568ceae7562dcf39a", "fusion_lon": 0.0}, {"rental_uris": {"ios": "https://dc.lft.to/lastmile_qr_scan", "android": "https://dc.lft.to/lastmile_qr_scan"}, "type": "electric_scooter", "name": "5cf6d0aa04cd8e8e618df6d1fd7dab45", "is_reserved": 0, "lon": -77.0269335, "is_disabled": 0, "fusion_lat": 0.0, "lat": 38.9115265, "bike_id": "5cf6d0aa04cd8e8e618df6d1fd7dab45", "fusion_lon": 0.0}, {"rental_uris": {"ios": "https://dc.lft.to/lastmile_qr_scan", "android": "https://dc.lft.to/lastmile_qr_scan"}, "type": "electric_scooter", "name": "c98190b27758349590b03a857e77bd7b", "is_reserved": 0, "lon": -77.04323433333333, "is_disabled": 0, "fusion_lat": 0.0, "lat": 38.90643433333334, "bike_id": "c98190b27758349590b03a857e77bd7b", "fusion_lon": 0.0}, {"rental_uris": {"ios": "https://dc.lft.to/lastmile_qr_scan", "android": "https://dc.lft.to/lastmile_qr_scan"}, "type": "electric_scooter", "name": "02ab057fc90b1122f77d870885199130", "is_reserved": 0, "lon": -77.048919, "is_disabled": 0, "fusion_lat": 0.0, "lat": 38.919367666666666, "bike_id": "02ab057fc90b1122f77d870885199130", "fusion_lon": 0.0}, {"rental_uris": {"ios": "https://dc.lft.to/lastmile_qr_scan", "android": "https://dc.lft.to/lastmile_qr_scan"}, "type": "electric_scooter", "name": "c7eb470c4c1e84b01c5694079db84592", "is_reserved": 0, "lon": -77.02978433333334, "is_disabled": 0, "fusion_lat": 0.0, "lat": 38.922007, "bike_id": "c7eb470c4c1e84b01c5694079db84592", "fusion_lon": 0.0}, {"rental_uris": {"ios": "https://dc.lft.to/lastmile_qr_scan", "android": "https://dc.lft.to/lastmile_qr_scan"}, "type": "electric_scooter", "name": "7d486cd2115c5e75366e1c402ddd2a16", "is_reserved": 0, "lon": -77.0280505, "is_disabled": 0, "fusion_lat": 0.0, "lat": 38.906706666666665, "bike_id": "7d486cd2115c5e75366e1c402ddd2a16", "fusion_lon": 0.0}, {"rental_uris": {"ios": "https://dc.lft.to/lastmile_qr_scan", "android": "https://dc.lft.to/lastmile_qr_scan"}, "type": "electric_scooter", "name": "5ac02140fef7c6d16709339a21b14d26", "is_reserved": 0, "lon": -77.02694616666666, "is_disabled": 0, "fusion_lat": 0.0, "lat": 38.92600083333333, "bike_id": "5ac02140fef7c6d16709339a21b14d26", "fusion_lon": 0.0}, {"rental_uris": {"ios": "https://dc.lft.to/lastmile_qr_scan", "android": "https://dc.lft.to/lastmile_qr_scan"}, "type": "electric_scooter", "name": "5ad38e7b9e44aa04fad977001ecb3af5", "is_reserved": 0, "lon": -77.03232633333333, "is_disabled": 0, "fusion_lat": 0.0, "lat": 38.928837333333334, "bike_id": "5ad38e7b9e44aa04fad977001ecb3af5", "fusion_lon": 0.0}, {"rental_uris": {"ios": "https://dc.lft.to/lastmile_qr_scan", "android": "https://dc.lft.to/lastmile_qr_scan"}, "type": "electric_scooter", "name": "db6bdc23500e98f05d42ce5bf50682fe", "is_reserved": 0, "lon": -77.04052166666666, "is_disabled": 0, "fusion_lat": 0.0, "lat": 38.93009, "bike_id": "db6bdc23500e98f05d42ce5bf50682fe", "fusion_lon": 0.0}, {"rental_uris": {"ios": "https://dc.lft.to/lastmile_qr_scan", "android": "https://dc.lft.to/lastmile_qr_scan"}, "type": "electric_scooter", "name": "995011de5c3a487ab43206e5aba10503", "is_reserved": 0, "lon": -77.05422383333334, "is_disabled": 0, "fusion_lat": 0.0, "lat": 38.92848333333333, "bike_id": "995011de5c3a487ab43206e5aba10503", "fusion_lon": 0.0}, {"rental_uris": {"ios": "https://dc.lft.to/lastmile_qr_scan", "android": "https://dc.lft.to/lastmile_qr_scan"}, "type": "electric_scooter", "name": "e297dc843b23cd4bd5c2feefd52d7626", "is_reserved": 0, "lon": -77.04331833333333, "is_disabled": 0, "fusion_lat": 0.0, "lat": 38.9084275, "bike_id": "e297dc843b23cd4bd5c2feefd52d7626", "fusion_lon": 0.0}, {"rental_uris": {"ios": "https://dc.lft.to/lastmile_qr_scan", "android": "https://dc.lft.to/lastmile_qr_scan"}, "type": "electric_scooter", "name": "25588cb8d5dd5a03ca80744cf41b0fc0", "is_reserved": 0, "lon": -77.071669, "is_disabled": 0, "fusion_lat": 0.0, "lat": 38.90773866666667, "bike_id": "25588cb8d5dd5a03ca80744cf41b0fc0", "fusion_lon": 0.0}, {"rental_uris": {"ios": "https://dc.lft.to/lastmile_qr_scan", "android": "https://dc.lft.to/lastmile_qr_scan"}, "type": "electric_scooter", "name": "03422a7f1c61e8c5ed440ea4da4eaac4", "is_reserved": 0, "lon": -77.02660166666666, "is_disabled": 0, "fusion_lat": 0.0, "lat": 38.92484316666667, "bike_id": "03422a7f1c61e8c5ed440ea4da4eaac4", "fusion_lon": 0.0}, {"rental_uris": {"ios": "https://dc.lft.to/lastmile_qr_scan", "android": "https://dc.lft.to/lastmile_qr_scan"}, "type": "electric_scooter", "name": "f459743fd95b42d0f8912402cf108c6e", "is_reserved": 0, "lon": -77.02679233333333, "is_disabled": 0, "fusion_lat": 0.0, "lat": 38.9247955, "bike_id": "f459743fd95b42d0f8912402cf108c6e", "fusion_lon": 0.0}, {"rental_uris": {"ios": "https://dc.lft.to/lastmile_qr_scan", "android": "https://dc.lft.to/lastmile_qr_scan"}, "type": "electric_scooter", "name": "e5f17266ea03a30a92cd9f9be6ee8c09", "is_reserved": 0, "lon": -77.01767033333333, "is_disabled": 0, "fusion_lat": 0.0, "lat": 38.920462666666666, "bike_id": "e5f17266ea03a30a92cd9f9be6ee8c09", "fusion_lon": 0.0}, {"rental_uris": {"ios": "https://dc.lft.to/lastmile_qr_scan", "android": "https://dc.lft.to/lastmile_qr_scan"}, "type": "electric_scooter", "name": "12dba3026fabbd6767304fc971a05048", "is_reserved": 0, "lon": -77.041385, "is_disabled": 0, "fusion_lat": 0.0, "lat": 38.905645666666665, "bike_id": "12dba3026fabbd6767304fc971a05048", "fusion_lon": 0.0}, {"rental_uris": {"ios": "https://dc.lft.to/lastmile_qr_scan", "android": "https://dc.lft.to/lastmile_qr_scan"}, "type": "electric_scooter", "name": "8bfd77ddb4f99e4a6889e1503ce73d9b", "is_reserved": 0, "lon": -76.9837525, "is_disabled": 0, "fusion_lat": 0.0, "lat": 38.891404333333334, "bike_id": "8bfd77ddb4f99e4a6889e1503ce73d9b", "fusion_lon": 0.0}, {"rental_uris": {"ios": "https://dc.lft.to/lastmile_qr_scan", "android": "https://dc.lft.to/lastmile_qr_scan"}, "type": "electric_scooter", "name": "1a2ce0f4642670c14346f7ab832e9522", "is_reserved": 0, "lon": -77.047523, "is_disabled": 0, "fusion_lat": 0.0, "lat": 38.900822, "bike_id": "1a2ce0f4642670c14346f7ab832e9522", "fusion_lon": 0.0}, {"rental_uris": {"ios": "https://dc.lft.to/lastmile_qr_scan", "android": "https://dc.lft.to/lastmile_qr_scan"}, "type": "electric_scooter", "name": "e6eb265efa2a9ff84219b487b55756f1", "is_reserved": 0, "lon": -77.0405715, "is_disabled": 0, "fusion_lat": 0.0, "lat": 38.9254865, "bike_id": "e6eb265efa2a9ff84219b487b55756f1", "fusion_lon": 0.0}, {"rental_uris": {"ios": "https://dc.lft.to/lastmile_qr_scan", "android": "https://dc.lft.to/lastmile_qr_scan"}, "type": "electric_bike", "name": "44c8d19c8b14800e06189e6cd3480469", "is_reserved": 0, "lon": -76.98922666666667, "is_disabled": 0, "fusion_lat": 0.0, "lat": 38.882109166666666, "bike_id": "44c8d19c8b14800e06189e6cd3480469", "fusion_lon": 0.0}, {"rental_uris": {"ios": "https://dc.lft.to/lastmile_qr_scan", "android": "https://dc.lft.to/lastmile_qr_scan"}, "type": "electric_scooter", "name": "7ee7f7505f7b6f1f5d8778be8f529813", "is_reserved": 0, "lon": -77.068394, "is_disabled": 0, "fusion_lat": 0.0, "lat": 38.917254166666666, "bike_id": "7ee7f7505f7b6f1f5d8778be8f529813", "fusion_lon": 0.0}, {"rental_uris": {"ios": "https://dc.lft.to/lastmile_qr_scan", "android": "https://dc.lft.to/lastmile_qr_scan"}, "type": "electric_scooter", "name": "7cf54e4e39a8ddf5a326f11d9ae2ac20", "is_reserved": 0, "lon": -76.98449916666667, "is_disabled": 0, "fusion_lat": 0.0, "lat": 38.91457166666667, "bike_id": "7cf54e4e39a8ddf5a326f11d9ae2ac20", "fusion_lon": 0.0}, {"rental_uris": {"ios": "https://dc.lft.to/lastmile_qr_scan", "android": "https://dc.lft.to/lastmile_qr_scan"}, "type": "electric_scooter", "name": "56ce50e51638e67d782955d80972bb1c", "is_reserved": 0, "lon": -77.04235116666666, "is_disabled": 0, "fusion_lat": 0.0, "lat": 38.91111566666667, "bike_id": "56ce50e51638e67d782955d80972bb1c", "fusion_lon": 0.0}, {"rental_uris": {"ios": "https://dc.lft.to/lastmile_qr_scan", "android": "https://dc.lft.to/lastmile_qr_scan"}, "type": "electric_scooter", "name": "cd2394cabb74bb9a35af20c7b6dfda03", "is_reserved": 0, "lon": -77.0470955, "is_disabled": 0, "fusion_lat": 0.0, "lat": 38.91268, "bike_id": "cd2394cabb74bb9a35af20c7b6dfda03", "fusion_lon": 0.0}, {"rental_uris": {"ios": "https://dc.lft.to/lastmile_qr_scan", "android": "https://dc.lft.to/lastmile_qr_scan"}, "type": "electric_scooter", "name": "f38cd29f65835373ac7b23eed226b22e", "is_reserved": 0, "lon": -77.04324216666667, "is_disabled": 0, "fusion_lat": 0.0, "lat": 38.934146166666665, "bike_id": "f38cd29f65835373ac7b23eed226b22e", "fusion_lon": 0.0}, {"rental_uris": {"ios": "https://dc.lft.to/lastmile_qr_scan", "android": "https://dc.lft.to/lastmile_qr_scan"}, "type": "electric_bike", "name": "b533b15dd323f546f9199ecc256857f6", "is_reserved": 0, "lon": -77.11415933333333, "is_disabled": 0, "fusion_lat": 0.0, "lat": 38.87321716666667, "bike_id": "b533b15dd323f546f9199ecc256857f6", "fusion_lon": 0.0}, {"rental_uris": {"ios": "https://dc.lft.to/lastmile_qr_scan", "android": "https://dc.lft.to/lastmile_qr_scan"}, "type": "electric_scooter", "name": "2969e8acf6d5abdcc473960b120aa8d7", "is_reserved": 0, "lon": -77.0486425, "is_disabled": 0, "fusion_lat": 0.0, "lat": 38.91271316666667, "bike_id": "2969e8acf6d5abdcc473960b120aa8d7", "fusion_lon": 0.0}, {"rental_uris": {"ios": "https://dc.lft.to/lastmile_qr_scan", "android": "https://dc.lft.to/lastmile_qr_scan"}, "type": "electric_scooter", "name": "d36955847bc852a5f2b2f0197f4e3869", "is_reserved": 0, "lon": -77.03265066666667, "is_disabled": 0, "fusion_lat": 0.0, "lat": 38.903983833333335, "bike_id": "d36955847bc852a5f2b2f0197f4e3869", "fusion_lon": 0.0}, {"rental_uris": {"ios": "https://dc.lft.to/lastmile_qr_scan", "android": "https://dc.lft.to/lastmile_qr_scan"}, "type": "electric_scooter", "name": "73bc2b41977e1ae931cb22652924a836", "is_reserved": 0, "lon": -77.02406683333334, "is_disabled": 0, "fusion_lat": 0.0, "lat": 38.896778166666664, "bike_id": "73bc2b41977e1ae931cb22652924a836", "fusion_lon": 0.0}, {"rental_uris": {"ios": "https://dc.lft.to/lastmile_qr_scan", "android": "https://dc.lft.to/lastmile_qr_scan"}, "type": "electric_scooter", "name": "c7512a0a66dfe20788257e8b6634e577", "is_reserved": 0, "lon": -77.01626633333333, "is_disabled": 0, "fusion_lat": 0.0, "lat": 38.89804683333333, "bike_id": "c7512a0a66dfe20788257e8b6634e577", "fusion_lon": 0.0}, {"rental_uris": {"ios": "https://dc.lft.to/lastmile_qr_scan", "android": "https://dc.lft.to/lastmile_qr_scan"}, "type": "electric_scooter", "name": "cf1f7eebf1adffa6f5c5067f5e782d25", "is_reserved": 0, "lon": -77.02834883333334, "is_disabled": 0, "fusion_lat": 0.0, "lat": 38.957239, "bike_id": "cf1f7eebf1adffa6f5c5067f5e782d25", "fusion_lon": 0.0}, {"rental_uris": {"ios": "https://dc.lft.to/lastmile_qr_scan", "android": "https://dc.lft.to/lastmile_qr_scan"}, "type": "electric_scooter", "name": "c1a5a91edebd77f765bdd40670695ca8", "is_reserved": 0, "lon": -76.99232833333333, "is_disabled": 0, "fusion_lat": 0.0, "lat": 38.887541166666665, "bike_id": "c1a5a91edebd77f765bdd40670695ca8", "fusion_lon": 0.0}, {"rental_uris": {"ios": "https://dc.lft.to/lastmile_qr_scan", "android": "https://dc.lft.to/lastmile_qr_scan"}, "type": "electric_scooter", "name": "6c5f4f6fb44624a0baa94fa28ef74dad", "is_reserved": 0, "lon": -77.04760033333334, "is_disabled": 0, "fusion_lat": 0.0, "lat": 38.94095933333333, "bike_id": "6c5f4f6fb44624a0baa94fa28ef74dad", "fusion_lon": 0.0}, {"rental_uris": {"ios": "https://dc.lft.to/lastmile_qr_scan", "android": "https://dc.lft.to/lastmile_qr_scan"}, "type": "electric_scooter", "name": "f2056849cc63f5ad478e14a18e484b5a", "is_reserved": 0, "lon": -77.032139, "is_disabled": 0, "fusion_lat": 0.0, "lat": 38.884767333333336, "bike_id": "f2056849cc63f5ad478e14a18e484b5a", "fusion_lon": 0.0}, {"rental_uris": {"ios": "https://dc.lft.to/lastmile_qr_scan", "android": "https://dc.lft.to/lastmile_qr_scan"}, "type": "electric_scooter", "name": "68c2db802f10cf0f09790a9db064e4dd", "is_reserved": 0, "lon": -77.0326905, "is_disabled": 0, "fusion_lat": 0.0, "lat": 38.93384133333333, "bike_id": "68c2db802f10cf0f09790a9db064e4dd", "fusion_lon": 0.0}, {"rental_uris": {"ios": "https://dc.lft.to/lastmile_qr_scan", "android": "https://dc.lft.to/lastmile_qr_scan"}, "type": "electric_scooter", "name": "b301455ed6e343a77914912c66ca3057", "is_reserved": 0, "lon": -77.036636, "is_disabled": 0, "fusion_lat": 0.0, "lat": 38.9235545, "bike_id": "b301455ed6e343a77914912c66ca3057", "fusion_lon": 0.0}, {"rental_uris": {"ios": "https://dc.lft.to/lastmile_qr_scan", "android": "https://dc.lft.to/lastmile_qr_scan"}, "type": "electric_scooter", "name": "7891054d3fd39984be448c111050c56e", "is_reserved": 0, "lon": -76.99911733333333, "is_disabled": 0, "fusion_lat": 0.0, "lat": 38.924579666666666, "bike_id": "7891054d3fd39984be448c111050c56e", "fusion_lon": 0.0}, {"rental_uris": {"ios": "https://dc.lft.to/lastmile_qr_scan", "android": "https://dc.lft.to/lastmile_qr_scan"}, "type": "electric_scooter", "name": "ed5d5b854be028330a6147fb4df7c638", "is_reserved": 0, "lon": -77.00826133333334, "is_disabled": 0, "fusion_lat": 0.0, "lat": 38.913758, "bike_id": "ed5d5b854be028330a6147fb4df7c638", "fusion_lon": 0.0}, {"rental_uris": {"ios": "https://dc.lft.to/lastmile_qr_scan", "android": "https://dc.lft.to/lastmile_qr_scan"}, "type": "electric_scooter", "name": "1a27e5b1ea73e92a5416a4476e2e0329", "is_reserved": 0, "lon": -77.0409545, "is_disabled": 0, "fusion_lat": 0.0, "lat": 38.927061333333334, "bike_id": "1a27e5b1ea73e92a5416a4476e2e0329", "fusion_lon": 0.0}, {"rental_uris": {"ios": "https://dc.lft.to/lastmile_qr_scan", "android": "https://dc.lft.to/lastmile_qr_scan"}, "type": "electric_scooter", "name": "262767c7b48d186c28d9b18f9079bd09", "is_reserved": 0, "lon": -77.03439183333333, "is_disabled": 0, "fusion_lat": 0.0, "lat": 38.900965666666664, "bike_id": "262767c7b48d186c28d9b18f9079bd09", "fusion_lon": 0.0}, {"rental_uris": {"ios": "https://dc.lft.to/lastmile_qr_scan", "android": "https://dc.lft.to/lastmile_qr_scan"}, "type": "electric_scooter", "name": "25b861f9322aacf41f6bc5df9bf6d4e6", "is_reserved": 0, "lon": -77.05624866666666, "is_disabled": 0, "fusion_lat": 0.0, "lat": 38.90684783333333, "bike_id": "25b861f9322aacf41f6bc5df9bf6d4e6", "fusion_lon": 0.0}, {"rental_uris": {"ios": "https://dc.lft.to/lastmile_qr_scan", "android": "https://dc.lft.to/lastmile_qr_scan"}, "type": "electric_bike", "name": "67f2990e8da24b877bc363219ae9c1fa", "is_reserved": 0, "lon": -76.90734983333333, "is_disabled": 0, "fusion_lat": 0.0, "lat": 38.896184, "bike_id": "67f2990e8da24b877bc363219ae9c1fa", "fusion_lon": 0.0}, {"rental_uris": {"ios": "https://dc.lft.to/lastmile_qr_scan", "android": "https://dc.lft.to/lastmile_qr_scan"}, "type": "electric_scooter", "name": "7672c136d9475a85be8476602d55e3b7", "is_reserved": 0, "lon": -77.03821283333333, "is_disabled": 0, "fusion_lat": 0.0, "lat": 38.9098075, "bike_id": "7672c136d9475a85be8476602d55e3b7", "fusion_lon": 0.0}, {"rental_uris": {"ios": "https://dc.lft.to/lastmile_qr_scan", "android": "https://dc.lft.to/lastmile_qr_scan"}, "type": "electric_scooter", "name": "919e0b780b5a1e1a942777714840b8af", "is_reserved": 0, "lon": -77.0122705, "is_disabled": 0, "fusion_lat": 0.0, "lat": 38.867229333333334, "bike_id": "919e0b780b5a1e1a942777714840b8af", "fusion_lon": 0.0}, {"rental_uris": {"ios": "https://dc.lft.to/lastmile_qr_scan", "android": "https://dc.lft.to/lastmile_qr_scan"}, "type": "electric_scooter", "name": "e021449fc7c402b9cd5d158dbb9ba900", "is_reserved": 0, "lon": -77.0255285, "is_disabled": 0, "fusion_lat": 0.0, "lat": 38.930902333333336, "bike_id": "e021449fc7c402b9cd5d158dbb9ba900", "fusion_lon": 0.0}, {"rental_uris": {"ios": "https://dc.lft.to/lastmile_qr_scan", "android": "https://dc.lft.to/lastmile_qr_scan"}, "type": "electric_scooter", "name": "18e86efc0dedcd76532dd82d3fcc25e8", "is_reserved": 0, "lon": -77.04490833333334, "is_disabled": 0, "fusion_lat": 0.0, "lat": 38.91862416666667, "bike_id": "18e86efc0dedcd76532dd82d3fcc25e8", "fusion_lon": 0.0}, {"rental_uris": {"ios": "https://dc.lft.to/lastmile_qr_scan", "android": "https://dc.lft.to/lastmile_qr_scan"}, "type": "electric_scooter", "name": "d5096880d9f300257a0528f885104d9d", "is_reserved": 0, "lon": -77.013425, "is_disabled": 0, "fusion_lat": 0.0, "lat": 38.89607016666667, "bike_id": "d5096880d9f300257a0528f885104d9d", "fusion_lon": 0.0}, {"rental_uris": {"ios": "https://dc.lft.to/lastmile_qr_scan", "android": "https://dc.lft.to/lastmile_qr_scan"}, "type": "electric_scooter", "name": "5c483f4a2372b9695156ef8dab389e4b", "is_reserved": 0, "lon": -77.04275783333334, "is_disabled": 0, "fusion_lat": 0.0, "lat": 38.904234833333334, "bike_id": "5c483f4a2372b9695156ef8dab389e4b", "fusion_lon": 0.0}, {"rental_uris": {"ios": "https://dc.lft.to/lastmile_qr_scan", "android": "https://dc.lft.to/lastmile_qr_scan"}, "type": "electric_scooter", "name": "c4df3271f1dae74ef3b8d47c214ad929", "is_reserved": 0, "lon": -77.04401983333334, "is_disabled": 0, "fusion_lat": 0.0, "lat": 38.92953933333333, "bike_id": "c4df3271f1dae74ef3b8d47c214ad929", "fusion_lon": 0.0}, {"rental_uris": {"ios": "https://dc.lft.to/lastmile_qr_scan", "android": "https://dc.lft.to/lastmile_qr_scan"}, "type": "electric_bike", "name": "824b965f0f91665af2b20a896e4bc6e6", "is_reserved": 0, "lon": -77.004063, "is_disabled": 0, "fusion_lat": 0.0, "lat": 38.985437833333336, "bike_id": "824b965f0f91665af2b20a896e4bc6e6", "fusion_lon": 0.0}, {"rental_uris": {"ios": "https://dc.lft.to/lastmile_qr_scan", "android": "https://dc.lft.to/lastmile_qr_scan"}, "type": "electric_scooter", "name": "f6041ecd1d366b19aa4e4e5a14d4ab7e", "is_reserved": 0, "lon": -76.93210416666666, "is_disabled": 0, "fusion_lat": 0.0, "lat": 38.89669, "bike_id": "f6041ecd1d366b19aa4e4e5a14d4ab7e", "fusion_lon": 0.0}, {"rental_uris": {"ios": "https://dc.lft.to/lastmile_qr_scan", "android": "https://dc.lft.to/lastmile_qr_scan"}, "type": "electric_bike", "name": "1d5e329494986f98936268e95f974a0c", "is_reserved": 0, "lon": -77.09818016666667, "is_disabled": 0, "fusion_lat": 0.0, "lat": 38.85022416666666, "bike_id": "1d5e329494986f98936268e95f974a0c", "fusion_lon": 0.0}, {"rental_uris": {"ios": "https://dc.lft.to/lastmile_qr_scan", "android": "https://dc.lft.to/lastmile_qr_scan"}, "type": "electric_scooter", "name": "01ff1da890ad552342cd976390404dc4", "is_reserved": 0, "lon": -76.99941233333334, "is_disabled": 0, "fusion_lat": 0.0, "lat": 38.89175016666667, "bike_id": "01ff1da890ad552342cd976390404dc4", "fusion_lon": 0.0}, {"rental_uris": {"ios": "https://dc.lft.to/lastmile_qr_scan", "android": "https://dc.lft.to/lastmile_qr_scan"}, "type": "electric_bike", "name": "38a7592821db434dbcfaf9d24eb3aa9a", "is_reserved": 0, "lon": -76.998109, "is_disabled": 0, "fusion_lat": 0.0, "lat": 38.9053615, "bike_id": "38a7592821db434dbcfaf9d24eb3aa9a", "fusion_lon": 0.0}, {"rental_uris": {"ios": "https://dc.lft.to/lastmile_qr_scan", "android": "https://dc.lft.to/lastmile_qr_scan"}, "type": "electric_scooter", "name": "52d18bc78cb2c9cc70da6347959e1a8f", "is_reserved": 0, "lon": -77.00800233333334, "is_disabled": 0, "fusion_lat": 0.0, "lat": 38.912655, "bike_id": "52d18bc78cb2c9cc70da6347959e1a8f", "fusion_lon": 0.0}, {"rental_uris": {"ios": "https://dc.lft.to/lastmile_qr_scan", "android": "https://dc.lft.to/lastmile_qr_scan"}, "type": "electric_scooter", "name": "80ce5f58b6745f2bf270aa4ffaf4e618", "is_reserved": 0, "lon": -77.01767716666667, "is_disabled": 0, "fusion_lat": 0.0, "lat": 38.90033416666667, "bike_id": "80ce5f58b6745f2bf270aa4ffaf4e618", "fusion_lon": 0.0}, {"rental_uris": {"ios": "https://dc.lft.to/lastmile_qr_scan", "android": "https://dc.lft.to/lastmile_qr_scan"}, "type": "electric_scooter", "name": "604cdfb14d58d197e7cbda2805949835", "is_reserved": 0, "lon": -77.00282433333334, "is_disabled": 0, "fusion_lat": 0.0, "lat": 38.846165666666664, "bike_id": "604cdfb14d58d197e7cbda2805949835", "fusion_lon": 0.0}, {"rental_uris": {"ios": "https://dc.lft.to/lastmile_qr_scan", "android": "https://dc.lft.to/lastmile_qr_scan"}, "type": "electric_scooter", "name": "92f227ac939a7c9bbe906822d77abcb7", "is_reserved": 0, "lon": -77.029793, "is_disabled": 0, "fusion_lat": 0.0, "lat": 38.93255416666667, "bike_id": "92f227ac939a7c9bbe906822d77abcb7", "fusion_lon": 0.0}, {"rental_uris": {"ios": "https://dc.lft.to/lastmile_qr_scan", "android": "https://dc.lft.to/lastmile_qr_scan"}, "type": "electric_scooter", "name": "add59cbcfc014da353d0f4492cbd114c", "is_reserved": 0, "lon": -77.06597116666667, "is_disabled": 0, "fusion_lat": 0.0, "lat": 38.9039785, "bike_id": "add59cbcfc014da353d0f4492cbd114c", "fusion_lon": 0.0}, {"rental_uris": {"ios": "https://dc.lft.to/lastmile_qr_scan", "android": "https://dc.lft.to/lastmile_qr_scan"}, "type": "electric_scooter", "name": "2388f1f4ee2994a96b3227cfb1e16163", "is_reserved": 0, "lon": -77.04605966666666, "is_disabled": 0, "fusion_lat": 0.0, "lat": 38.90578516666667, "bike_id": "2388f1f4ee2994a96b3227cfb1e16163", "fusion_lon": 0.0}, {"rental_uris": {"ios": "https://dc.lft.to/lastmile_qr_scan", "android": "https://dc.lft.to/lastmile_qr_scan"}, "type": "electric_scooter", "name": "33b5aceb6907cd028b4011a76d8af3f4", "is_reserved": 0, "lon": -77.0248065, "is_disabled": 0, "fusion_lat": 0.0, "lat": 38.94053266666667, "bike_id": "33b5aceb6907cd028b4011a76d8af3f4", "fusion_lon": 0.0}, {"rental_uris": {"ios": "https://dc.lft.to/lastmile_qr_scan", "android": "https://dc.lft.to/lastmile_qr_scan"}, "type": "electric_scooter", "name": "a4932e9cb89d82ab5555f7530bfde58f", "is_reserved": 0, "lon": -77.07924733333333, "is_disabled": 0, "fusion_lat": 0.0, "lat": 38.94565733333334, "bike_id": "a4932e9cb89d82ab5555f7530bfde58f", "fusion_lon": 0.0}, {"rental_uris": {"ios": "https://dc.lft.to/lastmile_qr_scan", "android": "https://dc.lft.to/lastmile_qr_scan"}, "type": "electric_scooter", "name": "20d64b3787f87b3cc2fc7efeb145c279", "is_reserved": 0, "lon": -77.00305466666667, "is_disabled": 0, "fusion_lat": 0.0, "lat": 38.877263666666664, "bike_id": "20d64b3787f87b3cc2fc7efeb145c279", "fusion_lon": 0.0}, {"rental_uris": {"ios": "https://dc.lft.to/lastmile_qr_scan", "android": "https://dc.lft.to/lastmile_qr_scan"}, "type": "electric_scooter", "name": "967614d512574854ad5f230a8c6aacc7", "is_reserved": 0, "lon": -77.01886, "is_disabled": 0, "fusion_lat": 0.0, "lat": 38.897535500000004, "bike_id": "967614d512574854ad5f230a8c6aacc7", "fusion_lon": 0.0}, {"rental_uris": {"ios": "https://dc.lft.to/lastmile_qr_scan", "android": "https://dc.lft.to/lastmile_qr_scan"}, "type": "electric_scooter", "name": "e8b17d3d39f96c00e4a0e0876a80161b", "is_reserved": 0, "lon": -77.07701466666667, "is_disabled": 0, "fusion_lat": 0.0, "lat": 38.893464333333334, "bike_id": "e8b17d3d39f96c00e4a0e0876a80161b", "fusion_lon": 0.0}, {"rental_uris": {"ios": "https://dc.lft.to/lastmile_qr_scan", "android": "https://dc.lft.to/lastmile_qr_scan"}, "type": "electric_scooter", "name": "1d2fe88ba977c2ba22bbf06951a405e2", "is_reserved": 0, "lon": -77.0362945, "is_disabled": 0, "fusion_lat": 0.0, "lat": 38.903800833333335, "bike_id": "1d2fe88ba977c2ba22bbf06951a405e2", "fusion_lon": 0.0}, {"rental_uris": {"ios": "https://dc.lft.to/lastmile_qr_scan", "android": "https://dc.lft.to/lastmile_qr_scan"}, "type": "electric_scooter", "name": "dc9f6d9b39d347b66c6f29cd1887b6df", "is_reserved": 0, "lon": -77.018036, "is_disabled": 0, "fusion_lat": 0.0, "lat": 38.921338666666664, "bike_id": "dc9f6d9b39d347b66c6f29cd1887b6df", "fusion_lon": 0.0}, {"rental_uris": {"ios": "https://dc.lft.to/lastmile_qr_scan", "android": "https://dc.lft.to/lastmile_qr_scan"}, "type": "electric_scooter", "name": "9ee0d9060d1e7543d5f5406c01ba73f4", "is_reserved": 0, "lon": -76.98211483333333, "is_disabled": 0, "fusion_lat": 0.0, "lat": 38.886436333333336, "bike_id": "9ee0d9060d1e7543d5f5406c01ba73f4", "fusion_lon": 0.0}, {"rental_uris": {"ios": "https://dc.lft.to/lastmile_qr_scan", "android": "https://dc.lft.to/lastmile_qr_scan"}, "type": "electric_scooter", "name": "8262f7ca2447625fc6d5ab5a35d885ae", "is_reserved": 0, "lon": -77.03985966666667, "is_disabled": 0, "fusion_lat": 0.0, "lat": 38.90259116666667, "bike_id": "8262f7ca2447625fc6d5ab5a35d885ae", "fusion_lon": 0.0}, {"rental_uris": {"ios": "https://dc.lft.to/lastmile_qr_scan", "android": "https://dc.lft.to/lastmile_qr_scan"}, "type": "electric_scooter", "name": "55bc47a459fc684ba725cf0c04a961bc", "is_reserved": 0, "lon": -77.04658383333333, "is_disabled": 0, "fusion_lat": 0.0, "lat": 38.91801616666667, "bike_id": "55bc47a459fc684ba725cf0c04a961bc", "fusion_lon": 0.0}, {"rental_uris": {"ios": "https://dc.lft.to/lastmile_qr_scan", "android": "https://dc.lft.to/lastmile_qr_scan"}, "type": "electric_scooter", "name": "202c83a641fbede4369fd4e813abb24b", "is_reserved": 0, "lon": -76.996116, "is_disabled": 0, "fusion_lat": 0.0, "lat": 38.903231166666664, "bike_id": "202c83a641fbede4369fd4e813abb24b", "fusion_lon": 0.0}, {"rental_uris": {"ios": "https://dc.lft.to/lastmile_qr_scan", "android": "https://dc.lft.to/lastmile_qr_scan"}, "type": "electric_scooter", "name": "16402a28fc142e978a0dbb86b05ac4a7", "is_reserved": 0, "lon": -77.07831266666666, "is_disabled": 0, "fusion_lat": 0.0, "lat": 38.94570866666667, "bike_id": "16402a28fc142e978a0dbb86b05ac4a7", "fusion_lon": 0.0}, {"rental_uris": {"ios": "https://dc.lft.to/lastmile_qr_scan", "android": "https://dc.lft.to/lastmile_qr_scan"}, "type": "electric_scooter", "name": "c8026376353c30a0dff4083eef3871f3", "is_reserved": 0, "lon": -77.04202216666667, "is_disabled": 0, "fusion_lat": 0.0, "lat": 38.92115316666667, "bike_id": "c8026376353c30a0dff4083eef3871f3", "fusion_lon": 0.0}, {"rental_uris": {"ios": "https://dc.lft.to/lastmile_qr_scan", "android": "https://dc.lft.to/lastmile_qr_scan"}, "type": "electric_scooter", "name": "05f698e02654bd6d1fdec46af84f0a9c", "is_reserved": 0, "lon": -77.005774, "is_disabled": 0, "fusion_lat": 0.0, "lat": 38.87895316666667, "bike_id": "05f698e02654bd6d1fdec46af84f0a9c", "fusion_lon": 0.0}, {"rental_uris": {"ios": "https://dc.lft.to/lastmile_qr_scan", "android": "https://dc.lft.to/lastmile_qr_scan"}, "type": "electric_scooter", "name": "016c8c2a677acd75cfadce2e8ce5d2f0", "is_reserved": 0, "lon": -77.03753933333333, "is_disabled": 0, "fusion_lat": 0.0, "lat": 38.936024333333336, "bike_id": "016c8c2a677acd75cfadce2e8ce5d2f0", "fusion_lon": 0.0}, {"rental_uris": {"ios": "https://dc.lft.to/lastmile_qr_scan", "android": "https://dc.lft.to/lastmile_qr_scan"}, "type": "electric_scooter", "name": "fb727ad6cfdd02813bf7384358b5b0c1", "is_reserved": 0, "lon": -77.0143895, "is_disabled": 0, "fusion_lat": 0.0, "lat": 38.90236633333333, "bike_id": "fb727ad6cfdd02813bf7384358b5b0c1", "fusion_lon": 0.0}, {"rental_uris": {"ios": "https://dc.lft.to/lastmile_qr_scan", "android": "https://dc.lft.to/lastmile_qr_scan"}, "type": "electric_scooter", "name": "06df5b7b20c41dcbd5adeadfffbbfe0f", "is_reserved": 0, "lon": -77.0466655, "is_disabled": 0, "fusion_lat": 0.0, "lat": 38.896484666666666, "bike_id": "06df5b7b20c41dcbd5adeadfffbbfe0f", "fusion_lon": 0.0}, {"rental_uris": {"ios": "https://dc.lft.to/lastmile_qr_scan", "android": "https://dc.lft.to/lastmile_qr_scan"}, "type": "electric_scooter", "name": "c878c4fc6a3ea6c3ef25a4bf4b779ffd", "is_reserved": 0, "lon": -77.0290025, "is_disabled": 0, "fusion_lat": 0.0, "lat": 38.903223833333335, "bike_id": "c878c4fc6a3ea6c3ef25a4bf4b779ffd", "fusion_lon": 0.0}, {"rental_uris": {"ios": "https://dc.lft.to/lastmile_qr_scan", "android": "https://dc.lft.to/lastmile_qr_scan"}, "type": "electric_scooter", "name": "bc6a2c11e5609cf862556091e7d75eac", "is_reserved": 0, "lon": -77.0270095, "is_disabled": 0, "fusion_lat": 0.0, "lat": 38.905341, "bike_id": "bc6a2c11e5609cf862556091e7d75eac", "fusion_lon": 0.0}, {"rental_uris": {"ios": "https://dc.lft.to/lastmile_qr_scan", "android": "https://dc.lft.to/lastmile_qr_scan"}, "type": "electric_scooter", "name": "06db5223b2f4aaff5551535af3a0a3b7", "is_reserved": 0, "lon": -77.04629066666666, "is_disabled": 0, "fusion_lat": 0.0, "lat": 38.906708, "bike_id": "06db5223b2f4aaff5551535af3a0a3b7", "fusion_lon": 0.0}, {"rental_uris": {"ios": "https://dc.lft.to/lastmile_qr_scan", "android": "https://dc.lft.to/lastmile_qr_scan"}, "type": "electric_scooter", "name": "a1ec026f754a26e2f96c27f19cbb5d23", "is_reserved": 0, "lon": -77.03260433333334, "is_disabled": 0, "fusion_lat": 0.0, "lat": 38.93633883333333, "bike_id": "a1ec026f754a26e2f96c27f19cbb5d23", "fusion_lon": 0.0}, {"rental_uris": {"ios": "https://dc.lft.to/lastmile_qr_scan", "android": "https://dc.lft.to/lastmile_qr_scan"}, "type": "electric_bike", "name": "6495497890872ae38cbc652fc92121c7", "is_reserved": 0, "lon": -77.0202995, "is_disabled": 0, "fusion_lat": 0.0, "lat": 38.965614, "bike_id": "6495497890872ae38cbc652fc92121c7", "fusion_lon": 0.0}, {"rental_uris": {"ios": "https://dc.lft.to/lastmile_qr_scan", "android": "https://dc.lft.to/lastmile_qr_scan"}, "type": "electric_bike", "name": "b0bd487c0d6bfa549b416c9dd3c81011", "is_reserved": 0, "lon": -76.98284016666666, "is_disabled": 0, "fusion_lat": 0.0, "lat": 38.84673683333333, "bike_id": "b0bd487c0d6bfa549b416c9dd3c81011", "fusion_lon": 0.0}, {"rental_uris": {"ios": "https://dc.lft.to/lastmile_qr_scan", "android": "https://dc.lft.to/lastmile_qr_scan"}, "type": "electric_scooter", "name": "a504c4b34f94260a5d9268838b138072", "is_reserved": 0, "lon": -77.0186685, "is_disabled": 0, "fusion_lat": 0.0, "lat": 38.930525833333334, "bike_id": "a504c4b34f94260a5d9268838b138072", "fusion_lon": 0.0}, {"rental_uris": {"ios": "https://dc.lft.to/lastmile_qr_scan", "android": "https://dc.lft.to/lastmile_qr_scan"}, "type": "electric_bike", "name": "e46af8cbdcf06d4ff74cb703a8a5b150", "is_reserved": 0, "lon": -77.06699533333334, "is_disabled": 0, "fusion_lat": 0.0, "lat": 38.831714833333336, "bike_id": "e46af8cbdcf06d4ff74cb703a8a5b150", "fusion_lon": 0.0}, {"rental_uris": {"ios": "https://dc.lft.to/lastmile_qr_scan", "android": "https://dc.lft.to/lastmile_qr_scan"}, "type": "electric_scooter", "name": "c90a4bd863e7fd45a82678e9fe2b0881", "is_reserved": 0, "lon": -77.022768, "is_disabled": 0, "fusion_lat": 0.0, "lat": 38.9242125, "bike_id": "c90a4bd863e7fd45a82678e9fe2b0881", "fusion_lon": 0.0}, {"rental_uris": {"ios": "https://dc.lft.to/lastmile_qr_scan", "android": "https://dc.lft.to/lastmile_qr_scan"}, "type": "electric_scooter", "name": "950a41003096df33db8fa2608d359ce0", "is_reserved": 0, "lon": -77.05347416666666, "is_disabled": 0, "fusion_lat": 0.0, "lat": 38.90242766666667, "bike_id": "950a41003096df33db8fa2608d359ce0", "fusion_lon": 0.0}, {"rental_uris": {"ios": "https://dc.lft.to/lastmile_qr_scan", "android": "https://dc.lft.to/lastmile_qr_scan"}, "type": "electric_scooter", "name": "cfb65b8acb1d67c624e4ecd0dcec77f9", "is_reserved": 0, "lon": -77.01752533333334, "is_disabled": 0, "fusion_lat": 0.0, "lat": 38.87686583333333, "bike_id": "cfb65b8acb1d67c624e4ecd0dcec77f9", "fusion_lon": 0.0}, {"rental_uris": {"ios": "https://dc.lft.to/lastmile_qr_scan", "android": "https://dc.lft.to/lastmile_qr_scan"}, "type": "electric_scooter", "name": "f2d83b69ba50e34340b9137331a93e45", "is_reserved": 0, "lon": -77.00816016666667, "is_disabled": 0, "fusion_lat": 0.0, "lat": 38.878570333333336, "bike_id": "f2d83b69ba50e34340b9137331a93e45", "fusion_lon": 0.0}, {"rental_uris": {"ios": "https://dc.lft.to/lastmile_qr_scan", "android": "https://dc.lft.to/lastmile_qr_scan"}, "type": "electric_scooter", "name": "4c77d46c64fa0b2802ce23a98e8b96fc", "is_reserved": 0, "lon": -77.027894, "is_disabled": 0, "fusion_lat": 0.0, "lat": 38.9561045, "bike_id": "4c77d46c64fa0b2802ce23a98e8b96fc", "fusion_lon": 0.0}, {"rental_uris": {"ios": "https://dc.lft.to/lastmile_qr_scan", "android": "https://dc.lft.to/lastmile_qr_scan"}, "type": "electric_scooter", "name": "8284f52e4c59e4ecce81f4ca5f125464", "is_reserved": 0, "lon": -77.0366105, "is_disabled": 0, "fusion_lat": 0.0, "lat": 38.922895833333335, "bike_id": "8284f52e4c59e4ecce81f4ca5f125464", "fusion_lon": 0.0}, {"rental_uris": {"ios": "https://dc.lft.to/lastmile_qr_scan", "android": "https://dc.lft.to/lastmile_qr_scan"}, "type": "electric_scooter", "name": "6a2dd307eac5a9b85dae99b46162e326", "is_reserved": 0, "lon": -76.9704615, "is_disabled": 0, "fusion_lat": 0.0, "lat": 38.873236, "bike_id": "6a2dd307eac5a9b85dae99b46162e326", "fusion_lon": 0.0}, {"rental_uris": {"ios": "https://dc.lft.to/lastmile_qr_scan", "android": "https://dc.lft.to/lastmile_qr_scan"}, "type": "electric_scooter", "name": "c59be90f9ccf51e4e979c33aaf4c43fd", "is_reserved": 0, "lon": -77.03236183333334, "is_disabled": 0, "fusion_lat": 0.0, "lat": 38.91044183333333, "bike_id": "c59be90f9ccf51e4e979c33aaf4c43fd", "fusion_lon": 0.0}, {"rental_uris": {"ios": "https://dc.lft.to/lastmile_qr_scan", "android": "https://dc.lft.to/lastmile_qr_scan"}, "type": "electric_scooter", "name": "f60c7c8ddfcd9eaafa93724fec28cd06", "is_reserved": 0, "lon": -77.02896216666667, "is_disabled": 0, "fusion_lat": 0.0, "lat": 38.940416, "bike_id": "f60c7c8ddfcd9eaafa93724fec28cd06", "fusion_lon": 0.0}, {"rental_uris": {"ios": "https://dc.lft.to/lastmile_qr_scan", "android": "https://dc.lft.to/lastmile_qr_scan"}, "type": "electric_scooter", "name": "5c713b0ae9a38bdc0a1b0952920f1f03", "is_reserved": 0, "lon": -77.035453, "is_disabled": 0, "fusion_lat": 0.0, "lat": 38.92388283333333, "bike_id": "5c713b0ae9a38bdc0a1b0952920f1f03", "fusion_lon": 0.0}, {"rental_uris": {"ios": "https://dc.lft.to/lastmile_qr_scan", "android": "https://dc.lft.to/lastmile_qr_scan"}, "type": "electric_scooter", "name": "e0dbddf84ba136e27449da15daf668ab", "is_reserved": 0, "lon": -77.00877366666667, "is_disabled": 0, "fusion_lat": 0.0, "lat": 38.91554383333333, "bike_id": "e0dbddf84ba136e27449da15daf668ab", "fusion_lon": 0.0}, {"rental_uris": {"ios": "https://dc.lft.to/lastmile_qr_scan", "android": "https://dc.lft.to/lastmile_qr_scan"}, "type": "electric_scooter", "name": "fda7c5ef124255669f58daa33acc3dbc", "is_reserved": 0, "lon": -77.0385565, "is_disabled": 0, "fusion_lat": 0.0, "lat": 38.90884916666667, "bike_id": "fda7c5ef124255669f58daa33acc3dbc", "fusion_lon": 0.0}, {"rental_uris": {"ios": "https://dc.lft.to/lastmile_qr_scan", "android": "https://dc.lft.to/lastmile_qr_scan"}, "type": "electric_scooter", "name": "29f992e1256e8dbd826bcad7f1634f98", "is_reserved": 0, "lon": -77.032094, "is_disabled": 0, "fusion_lat": 0.0, "lat": 38.91822783333333, "bike_id": "29f992e1256e8dbd826bcad7f1634f98", "fusion_lon": 0.0}, {"rental_uris": {"ios": "https://dc.lft.to/lastmile_qr_scan", "android": "https://dc.lft.to/lastmile_qr_scan"}, "type": "electric_scooter", "name": "39baa6ea6a6eb55745b5793bc239c152", "is_reserved": 0, "lon": -77.07248233333334, "is_disabled": 0, "fusion_lat": 0.0, "lat": 38.9343435, "bike_id": "39baa6ea6a6eb55745b5793bc239c152", "fusion_lon": 0.0}, {"rental_uris": {"ios": "https://dc.lft.to/lastmile_qr_scan", "android": "https://dc.lft.to/lastmile_qr_scan"}, "type": "electric_scooter", "name": "d7afc852488081e7598a63f9cf04b8cb", "is_reserved": 0, "lon": -77.0506435, "is_disabled": 0, "fusion_lat": 0.0, "lat": 38.923624333333336, "bike_id": "d7afc852488081e7598a63f9cf04b8cb", "fusion_lon": 0.0}, {"rental_uris": {"ios": "https://dc.lft.to/lastmile_qr_scan", "android": "https://dc.lft.to/lastmile_qr_scan"}, "type": "electric_scooter", "name": "6f5c8dd2339e600fec80b47f6fa3961e", "is_reserved": 0, "lon": -77.07164066666667, "is_disabled": 0, "fusion_lat": 0.0, "lat": 38.90781966666667, "bike_id": "6f5c8dd2339e600fec80b47f6fa3961e", "fusion_lon": 0.0}, {"rental_uris": {"ios": "https://dc.lft.to/lastmile_qr_scan", "android": "https://dc.lft.to/lastmile_qr_scan"}, "type": "electric_scooter", "name": "10c1316dd2992267857640cf2fdf4614", "is_reserved": 0, "lon": -76.99963883333334, "is_disabled": 0, "fusion_lat": 0.0, "lat": 38.8919465, "bike_id": "10c1316dd2992267857640cf2fdf4614", "fusion_lon": 0.0}, {"rental_uris": {"ios": "https://dc.lft.to/lastmile_qr_scan", "android": "https://dc.lft.to/lastmile_qr_scan"}, "type": "electric_scooter", "name": "e91854f67cfc6eb8710f488d88f955e6", "is_reserved": 0, "lon": -77.01771, "is_disabled": 0, "fusion_lat": 0.0, "lat": 38.92046916666666, "bike_id": "e91854f67cfc6eb8710f488d88f955e6", "fusion_lon": 0.0}, {"rental_uris": {"ios": "https://dc.lft.to/lastmile_qr_scan", "android": "https://dc.lft.to/lastmile_qr_scan"}, "type": "electric_scooter", "name": "21284c189b3754a9a6441d2cdd15ebb2", "is_reserved": 0, "lon": -77.0412615, "is_disabled": 0, "fusion_lat": 0.0, "lat": 38.92883066666667, "bike_id": "21284c189b3754a9a6441d2cdd15ebb2", "fusion_lon": 0.0}, {"rental_uris": {"ios": "https://dc.lft.to/lastmile_qr_scan", "android": "https://dc.lft.to/lastmile_qr_scan"}, "type": "electric_scooter", "name": "3d7d27d92c5a67d5428e31345096809f", "is_reserved": 0, "lon": -77.0550875, "is_disabled": 0, "fusion_lat": 0.0, "lat": 38.92841333333333, "bike_id": "3d7d27d92c5a67d5428e31345096809f", "fusion_lon": 0.0}, {"rental_uris": {"ios": "https://dc.lft.to/lastmile_qr_scan", "android": "https://dc.lft.to/lastmile_qr_scan"}, "type": "electric_scooter", "name": "55c46ec643a2c57ee44a6fa338db27f9", "is_reserved": 0, "lon": -77.0470015, "is_disabled": 0, "fusion_lat": 0.0, "lat": 38.92065216666667, "bike_id": "55c46ec643a2c57ee44a6fa338db27f9", "fusion_lon": 0.0}, {"rental_uris": {"ios": "https://dc.lft.to/lastmile_qr_scan", "android": "https://dc.lft.to/lastmile_qr_scan"}, "type": "electric_scooter", "name": "a1f5f30f0b9ea062f94d56867a241add", "is_reserved": 0, "lon": -77.0283305, "is_disabled": 0, "fusion_lat": 0.0, "lat": 38.932424, "bike_id": "a1f5f30f0b9ea062f94d56867a241add", "fusion_lon": 0.0}, {"rental_uris": {"ios": "https://dc.lft.to/lastmile_qr_scan", "android": "https://dc.lft.to/lastmile_qr_scan"}, "type": "electric_scooter", "name": "c845ac8859ad61e64b669157f025a1fa", "is_reserved": 0, "lon": -77.03340566666667, "is_disabled": 0, "fusion_lat": 0.0, "lat": 38.9155915, "bike_id": "c845ac8859ad61e64b669157f025a1fa", "fusion_lon": 0.0}, {"rental_uris": {"ios": "https://dc.lft.to/lastmile_qr_scan", "android": "https://dc.lft.to/lastmile_qr_scan"}, "type": "electric_scooter", "name": "2a98b596f202cbee00039342a94dac12", "is_reserved": 0, "lon": -77.03343166666667, "is_disabled": 0, "fusion_lat": 0.0, "lat": 38.91919016666667, "bike_id": "2a98b596f202cbee00039342a94dac12", "fusion_lon": 0.0}, {"rental_uris": {"ios": "https://dc.lft.to/lastmile_qr_scan", "android": "https://dc.lft.to/lastmile_qr_scan"}, "type": "electric_scooter", "name": "1e2c99b0ed8936bc4de3c62b49a5449e", "is_reserved": 0, "lon": -77.03445566666667, "is_disabled": 0, "fusion_lat": 0.0, "lat": 38.91806316666667, "bike_id": "1e2c99b0ed8936bc4de3c62b49a5449e", "fusion_lon": 0.0}, {"rental_uris": {"ios": "https://dc.lft.to/lastmile_qr_scan", "android": "https://dc.lft.to/lastmile_qr_scan"}, "type": "electric_scooter", "name": "d32332abf940762b4aa85cb7c68183c7", "is_reserved": 0, "lon": -77.02109216666666, "is_disabled": 0, "fusion_lat": 0.0, "lat": 38.92689933333333, "bike_id": "d32332abf940762b4aa85cb7c68183c7", "fusion_lon": 0.0}, {"rental_uris": {"ios": "https://dc.lft.to/lastmile_qr_scan", "android": "https://dc.lft.to/lastmile_qr_scan"}, "type": "electric_scooter", "name": "817d8a220ede70d3e081dcfd79fc01e9", "is_reserved": 0, "lon": -76.98546233333333, "is_disabled": 0, "fusion_lat": 0.0, "lat": 38.91296583333333, "bike_id": "817d8a220ede70d3e081dcfd79fc01e9", "fusion_lon": 0.0}, {"rental_uris": {"ios": "https://dc.lft.to/lastmile_qr_scan", "android": "https://dc.lft.to/lastmile_qr_scan"}, "type": "electric_scooter", "name": "be86bb737a5b0a210dc2ac25fb192cd4", "is_reserved": 0, "lon": -77.02597533333334, "is_disabled": 0, "fusion_lat": 0.0, "lat": 38.9241865, "bike_id": "be86bb737a5b0a210dc2ac25fb192cd4", "fusion_lon": 0.0}, {"rental_uris": {"ios": "https://dc.lft.to/lastmile_qr_scan", "android": "https://dc.lft.to/lastmile_qr_scan"}, "type": "electric_scooter", "name": "6c7b89c7e0127fe0a6c570e901721906", "is_reserved": 0, "lon": -77.02944716666667, "is_disabled": 0, "fusion_lat": 0.0, "lat": 38.90411016666667, "bike_id": "6c7b89c7e0127fe0a6c570e901721906", "fusion_lon": 0.0}, {"rental_uris": {"ios": "https://dc.lft.to/lastmile_qr_scan", "android": "https://dc.lft.to/lastmile_qr_scan"}, "type": "electric_bike", "name": "301bbf50b2bb309189661131cd4477e7", "is_reserved": 0, "lon": -77.0518625, "is_disabled": 0, "fusion_lat": 0.0, "lat": 38.8446345, "bike_id": "301bbf50b2bb309189661131cd4477e7", "fusion_lon": 0.0}, {"rental_uris": {"ios": "https://dc.lft.to/lastmile_qr_scan", "android": "https://dc.lft.to/lastmile_qr_scan"}, "type": "electric_scooter", "name": "7f749daecf0ed3b1de19d77804044746", "is_reserved": 0, "lon": -77.03373816666667, "is_disabled": 0, "fusion_lat": 0.0, "lat": 38.911163, "bike_id": "7f749daecf0ed3b1de19d77804044746", "fusion_lon": 0.0}, {"rental_uris": {"ios": "https://dc.lft.to/lastmile_qr_scan", "android": "https://dc.lft.to/lastmile_qr_scan"}, "type": "electric_scooter", "name": "ecbfaf1818010a937ed5806798de1fd1", "is_reserved": 0, "lon": -77.04521866666667, "is_disabled": 0, "fusion_lat": 0.0, "lat": 38.92328233333333, "bike_id": "ecbfaf1818010a937ed5806798de1fd1", "fusion_lon": 0.0}, {"rental_uris": {"ios": "https://dc.lft.to/lastmile_qr_scan", "android": "https://dc.lft.to/lastmile_qr_scan"}, "type": "electric_scooter", "name": "49a4bc084c35b6832e711fc4582aa3bb", "is_reserved": 0, "lon": -77.02816266666666, "is_disabled": 0, "fusion_lat": 0.0, "lat": 38.899332, "bike_id": "49a4bc084c35b6832e711fc4582aa3bb", "fusion_lon": 0.0}, {"rental_uris": {"ios": "https://dc.lft.to/lastmile_qr_scan", "android": "https://dc.lft.to/lastmile_qr_scan"}, "type": "electric_scooter", "name": "d89b977332197ab90737da1530e6b6bd", "is_reserved": 0, "lon": -77.01548366666667, "is_disabled": 0, "fusion_lat": 0.0, "lat": 38.943299333333336, "bike_id": "d89b977332197ab90737da1530e6b6bd", "fusion_lon": 0.0}, {"rental_uris": {"ios": "https://dc.lft.to/lastmile_qr_scan", "android": "https://dc.lft.to/lastmile_qr_scan"}, "type": "electric_scooter", "name": "c21c0c13d3da264e4022752bd24f75c9", "is_reserved": 0, "lon": -77.06277033333333, "is_disabled": 0, "fusion_lat": 0.0, "lat": 38.912454833333335, "bike_id": "c21c0c13d3da264e4022752bd24f75c9", "fusion_lon": 0.0}, {"rental_uris": {"ios": "https://dc.lft.to/lastmile_qr_scan", "android": "https://dc.lft.to/lastmile_qr_scan"}, "type": "electric_scooter", "name": "134e9c246d817b222bc201c3e8d1f9f1", "is_reserved": 0, "lon": -77.0386975, "is_disabled": 0, "fusion_lat": 0.0, "lat": 38.921522, "bike_id": "134e9c246d817b222bc201c3e8d1f9f1", "fusion_lon": 0.0}, {"rental_uris": {"ios": "https://dc.lft.to/lastmile_qr_scan", "android": "https://dc.lft.to/lastmile_qr_scan"}, "type": "electric_scooter", "name": "0b32042cc42354868ab59c0351073a9a", "is_reserved": 0, "lon": -77.01099816666667, "is_disabled": 0, "fusion_lat": 0.0, "lat": 38.88542316666667, "bike_id": "0b32042cc42354868ab59c0351073a9a", "fusion_lon": 0.0}, {"rental_uris": {"ios": "https://dc.lft.to/lastmile_qr_scan", "android": "https://dc.lft.to/lastmile_qr_scan"}, "type": "electric_scooter", "name": "3b091a68eaed46a7dc3cca59c60b854d", "is_reserved": 0, "lon": -77.05863966666666, "is_disabled": 0, "fusion_lat": 0.0, "lat": 38.904499, "bike_id": "3b091a68eaed46a7dc3cca59c60b854d", "fusion_lon": 0.0}, {"rental_uris": {"ios": "https://dc.lft.to/lastmile_qr_scan", "android": "https://dc.lft.to/lastmile_qr_scan"}, "type": "electric_scooter", "name": "0fe5acd3d2cd738ec6a2be91f43bec6b", "is_reserved": 0, "lon": -77.00772283333333, "is_disabled": 0, "fusion_lat": 0.0, "lat": 38.878554666666666, "bike_id": "0fe5acd3d2cd738ec6a2be91f43bec6b", "fusion_lon": 0.0}, {"rental_uris": {"ios": "https://dc.lft.to/lastmile_qr_scan", "android": "https://dc.lft.to/lastmile_qr_scan"}, "type": "electric_scooter", "name": "0f56fd7401d43f5b22eaf0d345647d22", "is_reserved": 0, "lon": -77.03150066666667, "is_disabled": 0, "fusion_lat": 0.0, "lat": 38.887490166666666, "bike_id": "0f56fd7401d43f5b22eaf0d345647d22", "fusion_lon": 0.0}, {"rental_uris": {"ios": "https://dc.lft.to/lastmile_qr_scan", "android": "https://dc.lft.to/lastmile_qr_scan"}, "type": "electric_bike", "name": "db8ab12313dda8abfbd6152dbee82f21", "is_reserved": 0, "lon": -76.96103133333334, "is_disabled": 0, "fusion_lat": 0.0, "lat": 38.949662333333336, "bike_id": "db8ab12313dda8abfbd6152dbee82f21", "fusion_lon": 0.0}, {"rental_uris": {"ios": "https://dc.lft.to/lastmile_qr_scan", "android": "https://dc.lft.to/lastmile_qr_scan"}, "type": "electric_scooter", "name": "642eca92110e77d636f52b9f7f102ebb", "is_reserved": 0, "lon": -77.017725, "is_disabled": 0, "fusion_lat": 0.0, "lat": 38.9027405, "bike_id": "642eca92110e77d636f52b9f7f102ebb", "fusion_lon": 0.0}, {"rental_uris": {"ios": "https://dc.lft.to/lastmile_qr_scan", "android": "https://dc.lft.to/lastmile_qr_scan"}, "type": "electric_scooter", "name": "4f7556ebfa7ac7d5487a77a3628e650b", "is_reserved": 0, "lon": -77.0160935, "is_disabled": 0, "fusion_lat": 0.0, "lat": 38.91077, "bike_id": "4f7556ebfa7ac7d5487a77a3628e650b", "fusion_lon": 0.0}, {"rental_uris": {"ios": "https://dc.lft.to/lastmile_qr_scan", "android": "https://dc.lft.to/lastmile_qr_scan"}, "type": "electric_scooter", "name": "ba8c13038bd607fa88c57714510d35c6", "is_reserved": 0, "lon": -77.038657, "is_disabled": 0, "fusion_lat": 0.0, "lat": 38.91191716666667, "bike_id": "ba8c13038bd607fa88c57714510d35c6", "fusion_lon": 0.0}, {"rental_uris": {"ios": "https://dc.lft.to/lastmile_qr_scan", "android": "https://dc.lft.to/lastmile_qr_scan"},