{"data": {"bikes": [{"bike_id": "a6eb784a50131c92da21a4706b24eba3", "is_reserved": 0, "fusion_lon": 0.0, "lat": 38.935041, "is_disabled": 0, "name": "a6eb784a50131c92da21a4706b24eba3", "fusion_lat": 0.0, "rental_uris": {"ios": "https://dc.lft.to/lastmile_qr_scan", "android": "https://dc.lft.to/lastmile_qr_scan"}, "lon": -77.01997716666666, "type": "electric_scooter"}, {"bike_id": "26d2c95b24123258d37ae45e07b79def", "is_reserved": 0, "fusion_lon": 0.0, "lat": 38.89896066666667, "is_disabled": 0, "name": "26d2c95b24123258d37ae45e07b79def", "fusion_lat": 0.0, "rental_uris": {"ios": "https://dc.lft.to/lastmile_qr_scan", "android": "https://dc.lft.to/lastmile_qr_scan"}, "lon": -77.03336833333333, "type": "electric_scooter"}, {"bike_id": "ea8f0c00492ad34252312d3238f51fa8", "is_reserved": 0, "fusion_lon": 0.0, "lat": 38.88753366666667, "is_disabled": 0, "name": "ea8f0c00492ad34252312d3238f51fa8", "fusion_lat": 0.0, "rental_uris": {"ios": "https://dc.lft.to/lastmile_qr_scan", "android": "https://dc.lft.to/lastmile_qr_scan"}, "lon": -76.97982433333334, "type": "electric_scooter"}, {"bike_id": "f111edd5ff8b4f694cfe7fdfe0e769e1", "is_reserved": 0, "fusion_lon": 0.0, "lat": 38.94366516666667, "is_disabled": 0, "name": "f111edd5ff8b4f694cfe7fdfe0e769e1", "fusion_lat": 0.0, "rental_uris": {"ios": "https://dc.lft.to/lastmile_qr_scan", "android": "https://dc.lft.to/lastmile_qr_scan"}, "lon": -77.02181066666667, "type": "electric_scooter"}, {"bike_id": "f9805e958141d5b12489a2c6548420eb", "is_reserved": 0, "fusion_lon": 0.0, "lat": 38.883533166666666, "is_disabled": 0, "name": "f9805e958141d5b12489a2c6548420eb", "fusion_lat": 0.0, "rental_uris": {"ios": "https://dc.lft.to/lastmile_qr_scan", "android": "https://dc.lft.to/lastmile_qr_scan"}, "lon": -76.927955, "type": "electric_scooter"}, {"bike_id": "7600562ba8bd557392e2bb496810b6ef", "is_reserved": 0, "fusion_lon": 0.0, "lat": 38.90578083333333, "is_disabled": 0, "name": "7600562ba8bd557392e2bb496810b6ef", "fusion_lat": 0.0, "rental_uris": {"ios": "https://dc.lft.to/lastmile_qr_scan", "android": "https://dc.lft.to/lastmile_qr_scan"}, "lon": -77.04695516666666, "type": "electric_scooter"}, {"bike_id": "3d5c00615f474258cab8ef753b72608b", "is_reserved": 0, "fusion_lon": 0.0, "lat": 38.894872666666664, "is_disabled": 0, "name": "3d5c00615f474258cab8ef753b72608b", "fusion_lat": 0.0, "rental_uris": {"ios": "https://dc.lft.to/lastmile_qr_scan", "android": "https://dc.lft.to/lastmile_qr_scan"}, "lon": -77.01014883333333, "type": "electric_scooter"}, {"bike_id": "02d0deadaa759decd528e50143ac9206", "is_reserved": 0, "fusion_lon": 0.0, "lat": 38.9403715, "is_disabled": 0, "name": "02d0deadaa759decd528e50143ac9206", "fusion_lat": 0.0, "rental_uris": {"ios": "https://dc.lft.to/lastmile_qr_scan", "android": "https://dc.lft.to/lastmile_qr_scan"}, "lon": -77.02888183333333, "type": "electric_scooter"}, {"bike_id": "14f3ae6e03572e78a476b38bafb29497", "is_reserved": 0, "fusion_lon": 0.0, "lat": 38.873354666666664, "is_disabled": 0, "name": "14f3ae6e03572e78a476b38bafb29497", "fusion_lat": 0.0, "rental_uris": {"ios": "https://dc.lft.to/lastmile_qr_scan", "android": "https://dc.lft.to/lastmile_qr_scan"}, "lon": -77.10606683333333, "type": "electric_bike"}, {"bike_id": "cde37ba29398fdb565a4a31c455b0061", "is_reserved": 0, "fusion_lon": 0.0, "lat": 38.911897, "is_disabled": 0, "name": "cde37ba29398fdb565a4a31c455b0061", "fusion_lat": 0.0, "rental_uris": {"ios": "https://dc.lft.to/lastmile_qr_scan", "android": "https://dc.lft.to/lastmile_qr_scan"}, "lon": -77.01148966666666, "type": "electric_bike"}, {"bike_id": "64541ba5ca99aeb28b5ea55bf838dc43", "is_reserved": 0, "fusion_lon": 0.0, "lat": 38.862426666666664, "is_disabled": 0, "name": "64541ba5ca99aeb28b5ea55bf838dc43", "fusion_lat": 0.0, "rental_uris": {"ios": "https://dc.lft.to/lastmile_qr_scan", "android": "https://dc.lft.to/lastmile_qr_scan"}, "lon": -76.99493366666667, "type": "electric_scooter"}, {"bike_id": "d94c00b2509c84db1f3c52fccb32fe2e", "is_reserved": 0, "fusion_lon": 0.0, "lat": 38.91110483333333, "is_disabled": 0, "name": "d94c00b2509c84db1f3c52fccb32fe2e", "fusion_lat": 0.0, "rental_uris": {"ios": "https://dc.lft.to/lastmile_qr_scan", "android": "https://dc.lft.to/lastmile_qr_scan"}, "lon": -77.03724666666666, "type": "electric_scooter"}, {"bike_id": "0360ec460c476847a78cb8103ac8599a", "is_reserved": 0, "fusion_lon": 0.0, "lat": 38.93235033333333, "is_disabled": 0, "name": "0360ec460c476847a78cb8103ac8599a", "fusion_lat": 0.0, "rental_uris": {"ios": "https://dc.lft.to/lastmile_qr_scan", "android": "https://dc.lft.to/lastmile_qr_scan"}, "lon": -77.03827466666667, "type": "electric_scooter"}, {"bike_id": "4a60b27257b53bc25ac25eaad913c09b", "is_reserved": 0, "fusion_lon": 0.0, "lat": 38.985078333333334, "is_disabled": 0, "name": "4a60b27257b53bc25ac25eaad913c09b", "fusion_lat": 0.0, "rental_uris": {"ios": "https://dc.lft.to/lastmile_qr_scan", "android": "https://dc.lft.to/lastmile_qr_scan"}, "lon": -76.98216483333333, "type": "electric_bike"}, {"bike_id": "b765501ca813fb2cfbc8aa5ba6723579", "is_reserved": 0, "fusion_lon": 0.0, "lat": 38.86987766666667, "is_disabled": 0, "name": "b765501ca813fb2cfbc8aa5ba6723579", "fusion_lat": 0.0, "rental_uris": {"ios": "https://dc.lft.to/lastmile_qr_scan", "android": "https://dc.lft.to/lastmile_qr_scan"}, "lon": -76.95985283333333, "type": "electric_bike"}, {"bike_id": "cc6db9941b71f1596df617583bd7f838", "is_reserved": 0, "fusion_lon": 0.0, "lat": 38.87879, "is_disabled": 0, "name": "cc6db9941b71f1596df617583bd7f838", "fusion_lat": 0.0, "rental_uris": {"ios": "https://dc.lft.to/lastmile_qr_scan", "android": "https://dc.lft.to/lastmile_qr_scan"}, "lon": -77.0057005, "type": "electric_scooter"}, {"bike_id": "bfef7564e7e1921cb88c343061c254a1", "is_reserved": 0, "fusion_lon": 0.0, "lat": 38.902383666666665, "is_disabled": 0, "name": "bfef7564e7e1921cb88c343061c254a1", "fusion_lat": 0.0, "rental_uris": {"ios": "https://dc.lft.to/lastmile_qr_scan", "android": "https://dc.lft.to/lastmile_qr_scan"}, "lon": -77.03959483333334, "type": "electric_scooter"}, {"bike_id": "e2a34eeae13753eac193026b908a2e2e", "is_reserved": 0, "fusion_lon": 0.0, "lat": 38.86564966666667, "is_disabled": 0, "name": "e2a34eeae13753eac193026b908a2e2e", "fusion_lat": 0.0, "rental_uris": {"ios": "https://dc.lft.to/lastmile_qr_scan", "android": "https://dc.lft.to/lastmile_qr_scan"}, "lon": -76.9855035, "type": "electric_scooter"}, {"bike_id": "997f162cef149f1daccb473e5776aefd", "is_reserved": 0, "fusion_lon": 0.0, "lat": 38.9446335, "is_disabled": 0, "name": "997f162cef149f1daccb473e5776aefd", "fusion_lat": 0.0, "rental_uris": {"ios": "https://dc.lft.to/lastmile_qr_scan", "android": "https://dc.lft.to/lastmile_qr_scan"}, "lon": -77.0065595, "type": "electric_scooter"}, {"bike_id": "79043ec6290f6fc90298ecfeee51b908", "is_reserved": 0, "fusion_lon": 0.0, "lat": 38.9006345, "is_disabled": 0, "name": "79043ec6290f6fc90298ecfeee51b908", "fusion_lat": 0.0, "rental_uris": {"ios": "https://dc.lft.to/lastmile_qr_scan", "android": "https://dc.lft.to/lastmile_qr_scan"}, "lon": -76.98714833333334, "type": "electric_scooter"}, {"bike_id": "6ba931c3998bdc8b1471875d7b938c5d", "is_reserved": 0, "fusion_lon": 0.0, "lat": 38.90790466666667, "is_disabled": 0, "name": "6ba931c3998bdc8b1471875d7b938c5d", "fusion_lat": 0.0, "rental_uris": {"ios": "https://dc.lft.to/lastmile_qr_scan", "android": "https://dc.lft.to/lastmile_qr_scan"}, "lon": -77.03681916666666, "type": "electric_scooter"}, {"bike_id": "b5f1e9227519313a4d19ab7ef2d4c126", "is_reserved": 0, "fusion_lon": 0.0, "lat": 38.8938745, "is_disabled": 0, "name": "b5f1e9227519313a4d19ab7ef2d4c126", "fusion_lat": 0.0, "rental_uris": {"ios": "https://dc.lft.to/lastmile_qr_scan", "android": "https://dc.lft.to/lastmile_qr_scan"}, "lon": -77.00601066666667, "type": "electric_scooter"}, {"bike_id": "7ac1f4fcfeee077e2698783f40b3e0f9", "is_reserved": 0, "fusion_lon": 0.0, "lat": 38.93027883333333, "is_disabled": 0, "name": "7ac1f4fcfeee077e2698783f40b3e0f9", "fusion_lat": 0.0, "rental_uris": {"ios": "https://dc.lft.to/lastmile_qr_scan", "android": "https://dc.lft.to/lastmile_qr_scan"}, "lon": -77.02332833333334, "type": "electric_scooter"}, {"bike_id": "b099af52134927e738e2d8fb45e81b34", "is_reserved": 0, "fusion_lon": 0.0, "lat": 38.822657, "is_disabled": 0, "name": "b099af52134927e738e2d8fb45e81b34", "fusion_lat": 0.0, "rental_uris": {"ios": "https://dc.lft.to/lastmile_qr_scan", "android": "https://dc.lft.to/lastmile_qr_scan"}, "lon": -77.05811466666667, "type": "electric_bike"}, {"bike_id": "93e8801cb89ae95c25043f47eadc98bc", "is_reserved": 0, "fusion_lon": 0.0, "lat": 38.902787000000004, "is_disabled": 0, "name": "93e8801cb89ae95c25043f47eadc98bc", "fusion_lat": 0.0, "rental_uris": {"ios": "https://dc.lft.to/lastmile_qr_scan", "android": "https://dc.lft.to/lastmile_qr_scan"}, "lon": -77.01736033333333, "type": "electric_scooter"}, {"bike_id": "e203a1072aaa3c467fe4c19867265a67", "is_reserved": 0, "fusion_lon": 0.0, "lat": 38.8700695, "is_disabled": 0, "name": "e203a1072aaa3c467fe4c19867265a67", "fusion_lat": 0.0, "rental_uris": {"ios": "https://dc.lft.to/lastmile_qr_scan", "android": "https://dc.lft.to/lastmile_qr_scan"}, "lon": -77.01233733333333, "type": "electric_scooter"}, {"bike_id": "e7e2ede9cb4564fa7960a63cc8832cea", "is_reserved": 0, "fusion_lon": 0.0, "lat": 38.92704366666667, "is_disabled": 0, "name": "e7e2ede9cb4564fa7960a63cc8832cea", "fusion_lat": 0.0, "rental_uris": {"ios": "https://dc.lft.to/lastmile_qr_scan", "android": "https://dc.lft.to/lastmile_qr_scan"}, "lon": -77.04052066666667, "type": "electric_scooter"}, {"bike_id": "acceff0ef411459cd1815bae020636fd", "is_reserved": 0, "fusion_lon": 0.0, "lat": 38.9052235, "is_disabled": 0, "name": "acceff0ef411459cd1815bae020636fd", "fusion_lat": 0.0, "rental_uris": {"ios": "https://dc.lft.to/lastmile_qr_scan", "android": "https://dc.lft.to/lastmile_qr_scan"}, "lon": -77.06528983333334, "type": "electric_scooter"}, {"bike_id": "5f6cd4b936259d4607391e15c3c30584", "is_reserved": 0, "fusion_lon": 0.0, "lat": 38.90704183333333, "is_disabled": 0, "name": "5f6cd4b936259d4607391e15c3c30584", "fusion_lat": 0.0, "rental_uris": {"ios": "https://dc.lft.to/lastmile_qr_scan", "android": "https://dc.lft.to/lastmile_qr_scan"}, "lon": -77.00583933333333, "type": "electric_scooter"}, {"bike_id": "25a4aef0b7a877004c3359bb3d382367", "is_reserved": 0, "fusion_lon": 0.0, "lat": 38.90386433333333, "is_disabled": 0, "name": "25a4aef0b7a877004c3359bb3d382367", "fusion_lat": 0.0, "rental_uris": {"ios": "https://dc.lft.to/lastmile_qr_scan", "android": "https://dc.lft.to/lastmile_qr_scan"}, "lon": -77.04478466666667, "type": "electric_scooter"}, {"bike_id": "41e1505534daa4207ded0433da6eb6b9", "is_reserved": 0, "fusion_lon": 0.0, "lat": 38.899573333333336, "is_disabled": 0, "name": "41e1505534daa4207ded0433da6eb6b9", "fusion_lat": 0.0, "rental_uris": {"ios": "https://dc.lft.to/lastmile_qr_scan", "android": "https://dc.lft.to/lastmile_qr_scan"}, "lon": -77.05267716666667, "type": "electric_scooter"}, {"bike_id": "41d80093b028f79fc085c606307c5548", "is_reserved": 0, "fusion_lon": 0.0, "lat": 38.9227145, "is_disabled": 0, "name": "41d80093b028f79fc085c606307c5548", "fusion_lat": 0.0, "rental_uris": {"ios": "https://dc.lft.to/lastmile_qr_scan", "android": "https://dc.lft.to/lastmile_qr_scan"}, "lon": -77.018246, "type": "electric_scooter"}, {"bike_id": "e8ee893b085ded6aa6042fea9fd0d642", "is_reserved": 0, "fusion_lon": 0.0, "lat": 38.901245333333335, "is_disabled": 0, "name": "e8ee893b085ded6aa6042fea9fd0d642", "fusion_lat": 0.0, "rental_uris": {"ios": "https://dc.lft.to/lastmile_qr_scan", "android": "https://dc.lft.to/lastmile_qr_scan"}, "lon": -76.99711566666667, "type": "electric_scooter"}, {"bike_id": "5b53dfe0bf8c3d03a4e53661b27ff479", "is_reserved": 0, "fusion_lon": 0.0, "lat": 38.915904166666664, "is_disabled": 0, "name": "5b53dfe0bf8c3d03a4e53661b27ff479", "fusion_lat": 0.0, "rental_uris": {"ios": "https://dc.lft.to/lastmile_qr_scan", "android": "https://dc.lft.to/lastmile_qr_scan"}, "lon": -77.0415685, "type": "electric_scooter"}, {"bike_id": "b5ba9dd360c3b4df3b754fae535d88e9", "is_reserved": 0, "fusion_lon": 0.0, "lat": 38.967664, "is_disabled": 0, "name": "b5ba9dd360c3b4df3b754fae535d88e9", "fusion_lat": 0.0, "rental_uris": {"ios": "https://dc.lft.to/lastmile_qr_scan", "android": "https://dc.lft.to/lastmile_qr_scan"}, "lon": -77.0916155, "type": "electric_bike"}, {"bike_id": "d0dded4f4e1df72e6a128475c530278c", "is_reserved": 0, "fusion_lon": 0.0, "lat": 38.90572133333333, "is_disabled": 0, "name": "d0dded4f4e1df72e6a128475c530278c", "fusion_lat": 0.0, "rental_uris": {"ios": "https://dc.lft.to/lastmile_qr_scan", "android": "https://dc.lft.to/lastmile_qr_scan"}, "lon": -77.01508633333333, "type": "electric_scooter"}, {"bike_id": "a914775e90239a8a2337bc22570a7f58", "is_reserved": 0, "fusion_lon": 0.0, "lat": 38.900082166666664, "is_disabled": 0, "name": "a914775e90239a8a2337bc22570a7f58", "fusion_lat": 0.0, "rental_uris": {"ios": "https://dc.lft.to/lastmile_qr_scan", "android": "https://dc.lft.to/lastmile_qr_scan"}, "lon": -77.04365283333334, "type": "electric_scooter"}, {"bike_id": "f5e6892a51dce6927b1cfc1e949497d8", "is_reserved": 0, "fusion_lon": 0.0, "lat": 38.937536, "is_disabled": 0, "name": "f5e6892a51dce6927b1cfc1e949497d8", "fusion_lat": 0.0, "rental_uris": {"ios": "https://dc.lft.to/lastmile_qr_scan", "android": "https://dc.lft.to/lastmile_qr_scan"}, "lon": -77.03571416666666, "type": "electric_scooter"}, {"bike_id": "444cc03d00abf6b7a79baec86eaf07dc", "is_reserved": 0, "fusion_lon": 0.0, "lat": 38.9075765, "is_disabled": 0, "name": "444cc03d00abf6b7a79baec86eaf07dc", "fusion_lat": 0.0, "rental_uris": {"ios": "https://dc.lft.to/lastmile_qr_scan", "android": "https://dc.lft.to/lastmile_qr_scan"}, "lon": -77.0360485, "type": "electric_scooter"}, {"bike_id": "bc6272bc15430c200e2dd486a8493d77", "is_reserved": 0, "fusion_lon": 0.0, "lat": 38.91725516666666, "is_disabled": 0, "name": "bc6272bc15430c200e2dd486a8493d77", "fusion_lat": 0.0, "rental_uris": {"ios": "https://dc.lft.to/lastmile_qr_scan", "android": "https://dc.lft.to/lastmile_qr_scan"}, "lon": -77.036595, "type": "electric_scooter"}, {"bike_id": "3864af3f32830ea0f2f740550fc229e1", "is_reserved": 0, "fusion_lon": 0.0, "lat": 38.909572, "is_disabled": 0, "name": "3864af3f32830ea0f2f740550fc229e1", "fusion_lat": 0.0, "rental_uris": {"ios": "https://dc.lft.to/lastmile_qr_scan", "android": "https://dc.lft.to/lastmile_qr_scan"}, "lon": -76.98471716666667, "type": "electric_scooter"}, {"bike_id": "90d6c0091cb5c981af8b0c9da8380fac", "is_reserved": 0, "fusion_lon": 0.0, "lat": 38.86161416666667, "is_disabled": 0, "name": "90d6c0091cb5c981af8b0c9da8380fac", "fusion_lat": 0.0, "rental_uris": {"ios": "https://dc.lft.to/lastmile_qr_scan", "android": "https://dc.lft.to/lastmile_qr_scan"}, "lon": -77.13094066666666, "type": "electric_bike"}, {"bike_id": "5bca593dd6606c176ec5f8be0c1a1f1f", "is_reserved": 0, "fusion_lon": 0.0, "lat": 38.891838, "is_disabled": 0, "name": "5bca593dd6606c176ec5f8be0c1a1f1f", "fusion_lat": 0.0, "rental_uris": {"ios": "https://dc.lft.to/lastmile_qr_scan", "android": "https://dc.lft.to/lastmile_qr_scan"}, "lon": -77.01529516666666, "type": "electric_scooter"}, {"bike_id": "fd8aec02d27fa56b152471933358f396", "is_reserved": 0, "fusion_lon": 0.0, "lat": 38.909692666666665, "is_disabled": 0, "name": "fd8aec02d27fa56b152471933358f396", "fusion_lat": 0.0, "rental_uris": {"ios": "https://dc.lft.to/lastmile_qr_scan", "android": "https://dc.lft.to/lastmile_qr_scan"}, "lon": -77.02725583333333, "type": "electric_scooter"}, {"bike_id": "421bc369e44717b084af7c2b4e12b581", "is_reserved": 0, "fusion_lon": 0.0, "lat": 38.941869, "is_disabled": 0, "name": "421bc369e44717b084af7c2b4e12b581", "fusion_lat": 0.0, "rental_uris": {"ios": "https://dc.lft.to/lastmile_qr_scan", "android": "https://dc.lft.to/lastmile_qr_scan"}, "lon": -77.01704316666667, "type": "electric_scooter"}, {"bike_id": "c76eba5b951b03c8b63fe07be3a390ca", "is_reserved": 0, "fusion_lon": 0.0, "lat": 38.9023735, "is_disabled": 0, "name": "c76eba5b951b03c8b63fe07be3a390ca", "fusion_lat": 0.0, "rental_uris": {"ios": "https://dc.lft.to/lastmile_qr_scan", "android": "https://dc.lft.to/lastmile_qr_scan"}, "lon": -76.97418583333334, "type": "electric_scooter"}, {"bike_id": "33701188aefe68fb3e3547d0b133c375", "is_reserved": 0, "fusion_lon": 0.0, "lat": 38.89800283333334, "is_disabled": 0, "name": "33701188aefe68fb3e3547d0b133c375", "fusion_lat": 0.0, "rental_uris": {"ios": "https://dc.lft.to/lastmile_qr_scan", "android": "https://dc.lft.to/lastmile_qr_scan"}, "lon": -77.00608533333333, "type": "electric_bike"}, {"bike_id": "18bc9baec4922076ca14a93b3c2d9406", "is_reserved": 0, "fusion_lon": 0.0, "lat": 39.015912666666665, "is_disabled": 0, "name": "18bc9baec4922076ca14a93b3c2d9406", "fusion_lat": 0.0, "rental_uris": {"ios": "https://dc.lft.to/lastmile_qr_scan", "android": "https://dc.lft.to/lastmile_qr_scan"}, "lon": -77.04433183333333, "type": "electric_bike"}, {"bike_id": "caa715aee098fe57c57a85b3ea00d852", "is_reserved": 0, "fusion_lon": 0.0, "lat": 38.915682333333336, "is_disabled": 0, "name": "caa715aee098fe57c57a85b3ea00d852", "fusion_lat": 0.0, "rental_uris": {"ios": "https://dc.lft.to/lastmile_qr_scan", "android": "https://dc.lft.to/lastmile_qr_scan"}, "lon": -77.041469, "type": "electric_scooter"}, {"bike_id": "a65cba97bfa55ac02291a241430da384", "is_reserved": 0, "fusion_lon": 0.0, "lat": 38.902975833333336, "is_disabled": 0, "name": "a65cba97bfa55ac02291a241430da384", "fusion_lat": 0.0, "rental_uris": {"ios": "https://dc.lft.to/lastmile_qr_scan", "android": "https://dc.lft.to/lastmile_qr_scan"}, "lon": -76.94444316666667, "type": "electric_bike"}, {"bike_id": "7a4b4c969037b690c71a04e8fb614b11", "is_reserved": 0, "fusion_lon": 0.0, "lat": 38.9334105, "is_disabled": 0, "name": "7a4b4c969037b690c71a04e8fb614b11", "fusion_lat": 0.0, "rental_uris": {"ios": "https://dc.lft.to/lastmile_qr_scan", "android": "https://dc.lft.to/lastmile_qr_scan"}, "lon": -77.032816, "type": "electric_scooter"}, {"bike_id": "5697a47034efc90992e5bbe80e70fd08", "is_reserved": 0, "fusion_lon": 0.0, "lat": 38.83802333333333, "is_disabled": 0, "name": "5697a47034efc90992e5bbe80e70fd08", "fusion_lat": 0.0, "rental_uris": {"ios": "https://dc.lft.to/lastmile_qr_scan", "android": "https://dc.lft.to/lastmile_qr_scan"}, "lon": -76.99839683333333, "type": "electric_bike"}, {"bike_id": "f91ba011078448f263969576ef805e49", "is_reserved": 0, "fusion_lon": 0.0, "lat": 38.90162016666667, "is_disabled": 0, "name": "f91ba011078448f263969576ef805e49", "fusion_lat": 0.0, "rental_uris": {"ios": "https://dc.lft.to/lastmile_qr_scan", "android": "https://dc.lft.to/lastmile_qr_scan"}, "lon": -76.97506316666667, "type": "electric_scooter"}, {"bike_id": "43a4c925cec2bfd37cd47f4f04bf1a71", "is_reserved": 0, "fusion_lon": 0.0, "lat": 38.9055335, "is_disabled": 0, "name": "43a4c925cec2bfd37cd47f4f04bf1a71", "fusion_lat": 0.0, "rental_uris": {"ios": "https://dc.lft.to/lastmile_qr_scan", "android": "https://dc.lft.to/lastmile_qr_scan"}, "lon": -77.03992516666666, "type": "electric_scooter"}, {"bike_id": "7d903ed583e3c0a848e8063f70d27540", "is_reserved": 0, "fusion_lon": 0.0, "lat": 38.900785, "is_disabled": 0, "name": "7d903ed583e3c0a848e8063f70d27540", "fusion_lat": 0.0, "rental_uris": {"ios": "https://dc.lft.to/lastmile_qr_scan", "android": "https://dc.lft.to/lastmile_qr_scan"}, "lon": -77.0476945, "type": "electric_scooter"}, {"bike_id": "d84cd4ade1c748d4b92a4e1f919312d5", "is_reserved": 0, "fusion_lon": 0.0, "lat": 38.901196166666665, "is_disabled": 0, "name": "d84cd4ade1c748d4b92a4e1f919312d5", "fusion_lat": 0.0, "rental_uris": {"ios": "https://dc.lft.to/lastmile_qr_scan", "android": "https://dc.lft.to/lastmile_qr_scan"}, "lon": -77.0498385, "type": "electric_scooter"}, {"bike_id": "2a2de440a77b9cd49fd947cb1e0053df", "is_reserved": 0, "fusion_lon": 0.0, "lat": 38.922625, "is_disabled": 0, "name": "2a2de440a77b9cd49fd947cb1e0053df", "fusion_lat": 0.0, "rental_uris": {"ios": "https://dc.lft.to/lastmile_qr_scan", "android": "https://dc.lft.to/lastmile_qr_scan"}, "lon": -77.04225733333334, "type": "electric_scooter"}, {"bike_id": "ad872dee8beb00497c1ae282ca335b63", "is_reserved": 0, "fusion_lon": 0.0, "lat": 38.89774966666667, "is_disabled": 0, "name": "ad872dee8beb00497c1ae282ca335b63", "fusion_lat": 0.0, "rental_uris": {"ios": "https://dc.lft.to/lastmile_qr_scan", "android": "https://dc.lft.to/lastmile_qr_scan"}, "lon": -77.00763866666667, "type": "electric_scooter"}, {"bike_id": "85fbdafb145dca031a37d8381685e290", "is_reserved": 0, "fusion_lon": 0.0, "lat": 38.9223865, "is_disabled": 0, "name": "85fbdafb145dca031a37d8381685e290", "fusion_lat": 0.0, "rental_uris": {"ios": "https://dc.lft.to/lastmile_qr_scan", "android": "https://dc.lft.to/lastmile_qr_scan"}, "lon": -77.0366915, "type": "electric_scooter"}, {"bike_id": "7d5b88505d79951c6ee2dc1ec181a9ae", "is_reserved": 0, "fusion_lon": 0.0, "lat": 38.87458183333333, "is_disabled": 0, "name": "7d5b88505d79951c6ee2dc1ec181a9ae", "fusion_lat": 0.0, "rental_uris": {"ios": "https://dc.lft.to/lastmile_qr_scan", "android": "https://dc.lft.to/lastmile_qr_scan"}, "lon": -77.005448, "type": "electric_scooter"}, {"bike_id": "91ed9aba2897c2201682601d6fed6b1e", "is_reserved": 0, "fusion_lon": 0.0, "lat": 38.92878116666667, "is_disabled": 0, "name": "91ed9aba2897c2201682601d6fed6b1e", "fusion_lat": 0.0, "rental_uris": {"ios": "https://dc.lft.to/lastmile_qr_scan", "android": "https://dc.lft.to/lastmile_qr_scan"}, "lon": -77.0375315, "type": "electric_scooter"}, {"bike_id": "21d3ff6e80efa2b235de37ce5141c3bd", "is_reserved": 0, "fusion_lon": 0.0, "lat": 38.938920333333336, "is_disabled": 0, "name": "21d3ff6e80efa2b235de37ce5141c3bd", "fusion_lat": 0.0, "rental_uris": {"ios": "https://dc.lft.to/lastmile_qr_scan", "android": "https://dc.lft.to/lastmile_qr_scan"}, "lon": -77.03337483333334, "type": "electric_scooter"}, {"bike_id": "1e16efc756248d3a21d077d7e5ab27f2", "is_reserved": 0, "fusion_lon": 0.0, "lat": 38.921531, "is_disabled": 0, "name": "1e16efc756248d3a21d077d7e5ab27f2", "fusion_lat": 0.0, "rental_uris": {"ios": "https://dc.lft.to/lastmile_qr_scan", "android": "https://dc.lft.to/lastmile_qr_scan"}, "lon": -77.03522283333334, "type": "electric_scooter"}, {"bike_id": "96e24e2b15025d06df265c862b23b8f9", "is_reserved": 0, "fusion_lon": 0.0, "lat": 38.903303, "is_disabled": 0, "name": "96e24e2b15025d06df265c862b23b8f9", "fusion_lat": 0.0, "rental_uris": {"ios": "https://dc.lft.to/lastmile_qr_scan", "android": "https://dc.lft.to/lastmile_qr_scan"}, "lon": -77.03764783333334, "type": "electric_scooter"}, {"bike_id": "9f2cd18ab644b4a71b908f5360cc6f04", "is_reserved": 0, "fusion_lon": 0.0, "lat": 38.885036, "is_disabled": 0, "name": "9f2cd18ab644b4a71b908f5360cc6f04", "fusion_lat": 0.0, "rental_uris": {"ios": "https://dc.lft.to/lastmile_qr_scan", "android": "https://dc.lft.to/lastmile_qr_scan"}, "lon": -77.00565716666667, "type": "electric_scooter"}, {"bike_id": "0cb06dd20995fd97ccd0a70a59dad029", "is_reserved": 0, "fusion_lon": 0.0, "lat": 38.95910516666667, "is_disabled": 0, "name": "0cb06dd20995fd97ccd0a70a59dad029", "fusion_lat": 0.0, "rental_uris": {"ios": "https://dc.lft.to/lastmile_qr_scan", "android": "https://dc.lft.to/lastmile_qr_scan"}, "lon": -77.00154516666667, "type": "electric_bike"}, {"bike_id": "199a361208832c03dc6c8b6dfe6b5ccc", "is_reserved": 0, "fusion_lon": 0.0, "lat": 38.90366616666667, "is_disabled": 0, "name": "199a361208832c03dc6c8b6dfe6b5ccc", "fusion_lat": 0.0, "rental_uris": {"ios": "https://dc.lft.to/lastmile_qr_scan", "android": "https://dc.lft.to/lastmile_qr_scan"}, "lon": -77.03975216666667, "type": "electric_scooter"}, {"bike_id": "130f7c277347cd49a60fac1f1e16391b", "is_reserved": 0, "fusion_lon": 0.0, "lat": 38.90622533333333, "is_disabled": 0, "name": "130f7c277347cd49a60fac1f1e16391b", "fusion_lat": 0.0, "rental_uris": {"ios": "https://dc.lft.to/lastmile_qr_scan", "android": "https://dc.lft.to/lastmile_qr_scan"}, "lon": -77.0396605, "type": "electric_scooter"}, {"bike_id": "1669c0d8ab64cb32e3a48d7aaa82bc33", "is_reserved": 0, "fusion_lon": 0.0, "lat": 38.911092, "is_disabled": 0, "name": "1669c0d8ab64cb32e3a48d7aaa82bc33", "fusion_lat": 0.0, "rental_uris": {"ios": "https://dc.lft.to/lastmile_qr_scan", "android": "https://dc.lft.to/lastmile_qr_scan"}, "lon": -77.02720966666666, "type": "electric_scooter"}, {"bike_id": "4c4af3340fbfd4cadf05e59e556d4a99", "is_reserved": 0, "fusion_lon": 0.0, "lat": 38.912683333333334, "is_disabled": 0, "name": "4c4af3340fbfd4cadf05e59e556d4a99", "fusion_lat": 0.0, "rental_uris": {"ios": "https://dc.lft.to/lastmile_qr_scan", "android": "https://dc.lft.to/lastmile_qr_scan"}, "lon": -77.02210616666666, "type": "electric_scooter"}, {"bike_id": "c0212a18d3ec9786cbf321eabde302a8", "is_reserved": 0, "fusion_lon": 0.0, "lat": 38.936731333333334, "is_disabled": 0, "name": "c0212a18d3ec9786cbf321eabde302a8", "fusion_lat": 0.0, "rental_uris": {"ios": "https://dc.lft.to/lastmile_qr_scan", "android": "https://dc.lft.to/lastmile_qr_scan"}, "lon": -77.036342, "type": "electric_scooter"}, {"bike_id": "c82feb9724bd8324d18998a16977d2f9", "is_reserved": 0, "fusion_lon": 0.0, "lat": 38.89967166666667, "is_disabled": 0, "name": "c82feb9724bd8324d18998a16977d2f9", "fusion_lat": 0.0, "rental_uris": {"ios": "https://dc.lft.to/lastmile_qr_scan", "android": "https://dc.lft.to/lastmile_qr_scan"}, "lon": -77.03122, "type": "electric_scooter"}, {"bike_id": "cf25df012f771096cdffc54cbd45a6e2", "is_reserved": 0, "fusion_lon": 0.0, "lat": 38.887404, "is_disabled": 0, "name": "cf25df012f771096cdffc54cbd45a6e2", "fusion_lat": 0.0, "rental_uris": {"ios": "https://dc.lft.to/lastmile_qr_scan", "android": "https://dc.lft.to/lastmile_qr_scan"}, "lon": -77.01534033333333, "type": "electric_scooter"}, {"bike_id": "829353401f8b919cc6600361ebfea572", "is_reserved": 0, "fusion_lon": 0.0, "lat": 38.93374216666667, "is_disabled": 0, "name": "829353401f8b919cc6600361ebfea572", "fusion_lat": 0.0, "rental_uris": {"ios": "https://dc.lft.to/lastmile_qr_scan", "android": "https://dc.lft.to/lastmile_qr_scan"}, "lon": -77.0346755, "type": "electric_scooter"}, {"bike_id": "a33de9fa5c7bb9988ca6a430da94cc4a", "is_reserved": 0, "fusion_lon": 0.0, "lat": 38.917209666666665, "is_disabled": 0, "name": "a33de9fa5c7bb9988ca6a430da94cc4a", "fusion_lat": 0.0, "rental_uris": {"ios": "https://dc.lft.to/lastmile_qr_scan", "android": "https://dc.lft.to/lastmile_qr_scan"}, "lon": -77.06843766666667, "type": "electric_scooter"}, {"bike_id": "1ec5778beabdaf6e1cefeb60db87fc56", "is_reserved": 0, "fusion_lon": 0.0, "lat": 38.939041833333334, "is_disabled": 0, "name": "1ec5778beabdaf6e1cefeb60db87fc56", "fusion_lat": 0.0, "rental_uris": {"ios": "https://dc.lft.to/lastmile_qr_scan", "android": "https://dc.lft.to/lastmile_qr_scan"}, "lon": -77.07722733333334, "type": "electric_scooter"}, {"bike_id": "db64db4b788877e942b866d1a6290fc4", "is_reserved": 0, "fusion_lon": 0.0, "lat": 38.89473983333333, "is_disabled": 0, "name": "db64db4b788877e942b866d1a6290fc4", "fusion_lat": 0.0, "rental_uris": {"ios": "https://dc.lft.to/lastmile_qr_scan", "android": "https://dc.lft.to/lastmile_qr_scan"}, "lon": -77.03054333333333, "type": "electric_scooter"}, {"bike_id": "b214be2cefbc5719af835709fa38bc96", "is_reserved": 0, "fusion_lon": 0.0, "lat": 38.906022, "is_disabled": 0, "name": "b214be2cefbc5719af835709fa38bc96", "fusion_lat": 0.0, "rental_uris": {"ios": "https://dc.lft.to/lastmile_qr_scan", "android": "https://dc.lft.to/lastmile_qr_scan"}, "lon": -77.04040083333334, "type": "electric_scooter"}, {"bike_id": "5234b8ce62e551940d341ca037895369", "is_reserved": 0, "fusion_lon": 0.0, "lat": 38.9483205, "is_disabled": 0, "name": "5234b8ce62e551940d341ca037895369", "fusion_lat": 0.0, "rental_uris": {"ios": "https://dc.lft.to/lastmile_qr_scan", "android": "https://dc.lft.to/lastmile_qr_scan"}, "lon": -77.039021, "type": "electric_bike"}, {"bike_id": "63d3a851498bcd24a7a3ce33dd51a375", "is_reserved": 0, "fusion_lon": 0.0, "lat": 38.934482833333334, "is_disabled": 0, "name": "63d3a851498bcd24a7a3ce33dd51a375", "fusion_lat": 0.0, "rental_uris": {"ios": "https://dc.lft.to/lastmile_qr_scan", "android": "https://dc.lft.to/lastmile_qr_scan"}, "lon": -77.02845916666666, "type": "electric_scooter"}, {"bike_id": "22153836d284319021f3147d82fd04ea", "is_reserved": 0, "fusion_lon": 0.0, "lat": 38.907211333333336, "is_disabled": 0, "name": "22153836d284319021f3147d82fd04ea", "fusion_lat": 0.0, "rental_uris": {"ios": "https://dc.lft.to/lastmile_qr_scan", "android": "https://dc.lft.to/lastmile_qr_scan"}, "lon": -77.02976433333333, "type": "electric_scooter"}, {"bike_id": "3ce480a6b3006394754f3098b7384331", "is_reserved": 0, "fusion_lon": 0.0, "lat": 38.930533833333335, "is_disabled": 0, "name": "3ce480a6b3006394754f3098b7384331", "fusion_lat": 0.0, "rental_uris": {"ios": "https://dc.lft.to/lastmile_qr_scan", "android": "https://dc.lft.to/lastmile_qr_scan"}, "lon": -77.03189816666666, "type": "electric_scooter"}, {"bike_id": "d95dd3d47be11707ebf339d20698a813", "is_reserved": 0, "fusion_lon": 0.0, "lat": 38.931143666666664, "is_disabled": 0, "name": "d95dd3d47be11707ebf339d20698a813", "fusion_lat": 0.0, "rental_uris": {"ios": "https://dc.lft.to/lastmile_qr_scan", "android": "https://dc.lft.to/lastmile_qr_scan"}, "lon": -77.03467716666667, "type": "electric_scooter"}, {"bike_id": "236af69b632f57243f05e9ef972d79ef", "is_reserved": 0, "fusion_lon": 0.0, "lat": 38.885019166666666, "is_disabled": 0, "name": "236af69b632f57243f05e9ef972d79ef", "fusion_lat": 0.0, "rental_uris": {"ios": "https://dc.lft.to/lastmile_qr_scan", "android": "https://dc.lft.to/lastmile_qr_scan"}, "lon": -77.0056665, "type": "electric_scooter"}, {"bike_id": "d1dcf32d109fd0410fcb343b5dea051b", "is_reserved": 0, "fusion_lon": 0.0, "lat": 38.883366333333335, "is_disabled": 0, "name": "d1dcf32d109fd0410fcb343b5dea051b", "fusion_lat": 0.0, "rental_uris": {"ios": "https://dc.lft.to/lastmile_qr_scan", "android": "https://dc.lft.to/lastmile_qr_scan"}, "lon": -77.01760216666666, "type": "electric_scooter"}, {"bike_id": "dc9ac8af5f01196aaea9954d186de64b", "is_reserved": 0, "fusion_lon": 0.0, "lat": 38.9234635, "is_disabled": 0, "name": "dc9ac8af5f01196aaea9954d186de64b", "fusion_lat": 0.0, "rental_uris": {"ios": "https://dc.lft.to/lastmile_qr_scan", "android": "https://dc.lft.to/lastmile_qr_scan"}, "lon": -77.04343866666666, "type": "electric_scooter"}, {"bike_id": "8bc2535ab7ca46b95aefbf8f11a69a0b", "is_reserved": 0, "fusion_lon": 0.0, "lat": 38.9193585, "is_disabled": 0, "name": "8bc2535ab7ca46b95aefbf8f11a69a0b", "fusion_lat": 0.0, "rental_uris": {"ios": "https://dc.lft.to/lastmile_qr_scan", "android": "https://dc.lft.to/lastmile_qr_scan"}, "lon": -77.02491833333333, "type": "electric_scooter"}, {"bike_id": "2b9a0833bb78248bdf98267786a3f2ba", "is_reserved": 0, "fusion_lon": 0.0, "lat": 38.9002875, "is_disabled": 0, "name": "2b9a0833bb78248bdf98267786a3f2ba", "fusion_lat": 0.0, "rental_uris": {"ios": "https://dc.lft.to/lastmile_qr_scan", "android": "https://dc.lft.to/lastmile_qr_scan"}, "lon": -76.995366, "type": "electric_scooter"}, {"bike_id": "2a1e9461977f42778bd3040da6d37f50", "is_reserved": 0, "fusion_lon": 0.0, "lat": 38.867161333333335, "is_disabled": 0, "name": "2a1e9461977f42778bd3040da6d37f50", "fusion_lat": 0.0, "rental_uris": {"ios": "https://dc.lft.to/lastmile_qr_scan", "android": "https://dc.lft.to/lastmile_qr_scan"}, "lon": -76.98772216666667, "type": "electric_scooter"}, {"bike_id": "8a2ca2c6d5979e7bed9a0bf8304622ea", "is_reserved": 0, "fusion_lon": 0.0, "lat": 38.9364045, "is_disabled": 0, "name": "8a2ca2c6d5979e7bed9a0bf8304622ea", "fusion_lat": 0.0, "rental_uris": {"ios": "https://dc.lft.to/lastmile_qr_scan", "android": "https://dc.lft.to/lastmile_qr_scan"}, "lon": -77.03655966666666, "type": "electric_scooter"}, {"bike_id": "3a825a36054bcbb3454b9496daf831c5", "is_reserved": 0, "fusion_lon": 0.0, "lat": 38.924757, "is_disabled": 0, "name": "3a825a36054bcbb3454b9496daf831c5", "fusion_lat": 0.0, "rental_uris": {"ios": "https://dc.lft.to/lastmile_qr_scan", "android": "https://dc.lft.to/lastmile_qr_scan"}, "lon": -77.03776083333334, "type": "electric_scooter"}, {"bike_id": "d4eff321008f5a496116609d609b00dd", "is_reserved": 0, "fusion_lon": 0.0, "lat": 38.897915833333336, "is_disabled": 0, "name": "d4eff321008f5a496116609d609b00dd", "fusion_lat": 0.0, "rental_uris": {"ios": "https://dc.lft.to/lastmile_qr_scan", "android": "https://dc.lft.to/lastmile_qr_scan"}, "lon": -76.90437416666667, "type": "electric_bike"}, {"bike_id": "5ca0bb1db4e2e1f616fbc114b613f02c", "is_reserved": 0, "fusion_lon": 0.0, "lat": 38.8993175, "is_disabled": 0, "name": "5ca0bb1db4e2e1f616fbc114b613f02c", "fusion_lat": 0.0, "rental_uris": {"ios": "https://dc.lft.to/lastmile_qr_scan", "android": "https://dc.lft.to/lastmile_qr_scan"}, "lon": -77.031876, "type": "electric_scooter"}, {"bike_id": "7479888b8e2b9b25063ac2b772e8b219", "is_reserved": 0, "fusion_lon": 0.0, "lat": 38.918424, "is_disabled": 0, "name": "7479888b8e2b9b25063ac2b772e8b219", "fusion_lat": 0.0, "rental_uris": {"ios": "https://dc.lft.to/lastmile_qr_scan", "android": "https://dc.lft.to/lastmile_qr_scan"}, "lon": -77.03902133333334, "type": "electric_scooter"}, {"bike_id": "2609d8d6f7e5258dce2eae4a7c328545", "is_reserved": 0, "fusion_lon": 0.0, "lat": 38.89800283333334, "is_disabled": 0, "name": "2609d8d6f7e5258dce2eae4a7c328545", "fusion_lat": 0.0, "rental_uris": {"ios": "https://dc.lft.to/lastmile_qr_scan", "android": "https://dc.lft.to/lastmile_qr_scan"}, "lon": -76.99163866666666, "type": "electric_scooter"}, {"bike_id": "32c5dab9ba9372f29759f0ba8bff6dc7", "is_reserved": 0, "fusion_lon": 0.0, "lat": 38.897634, "is_disabled": 0, "name": "32c5dab9ba9372f29759f0ba8bff6dc7", "fusion_lat": 0.0, "rental_uris": {"ios": "https://dc.lft.to/lastmile_qr_scan", "android": "https://dc.lft.to/lastmile_qr_scan"}, "lon": -77.0268165, "type": "electric_scooter"}, {"bike_id": "f2bd847d74f43147210053c2db305bfb", "is_reserved": 0, "fusion_lon": 0.0, "lat": 38.88493283333333, "is_disabled": 0, "name": "f2bd847d74f43147210053c2db305bfb", "fusion_lat": 0.0, "rental_uris": {"ios": "https://dc.lft.to/lastmile_qr_scan", "android": "https://dc.lft.to/lastmile_qr_scan"}, "lon": -77.00722683333333, "type": "electric_scooter"}, {"bike_id": "05a4a9591593aff7711a781b7d22d0cc", "is_reserved": 0, "fusion_lon": 0.0, "lat": 38.9140985, "is_disabled": 0, "name": "05a4a9591593aff7711a781b7d22d0cc", "fusion_lat": 0.0, "rental_uris": {"ios": "https://dc.lft.to/lastmile_qr_scan", "android": "https://dc.lft.to/lastmile_qr_scan"}, "lon": -77.0208275, "type": "electric_scooter"}, {"bike_id": "cc0d1ed2221eb02a75fc643b9f690556", "is_reserved": 0, "fusion_lon": 0.0, "lat": 38.902920333333334, "is_disabled": 0, "name": "cc0d1ed2221eb02a75fc643b9f690556", "fusion_lat": 0.0, "rental_uris": {"ios": "https://dc.lft.to/lastmile_qr_scan", "android": "https://dc.lft.to/lastmile_qr_scan"}, "lon": -77.0335555, "type": "electric_scooter"}, {"bike_id": "9e9984a3b876845afdd9454f50dfb326", "is_reserved": 0, "fusion_lon": 0.0, "lat": 38.8393385, "is_disabled": 0, "name": "9e9984a3b876845afdd9454f50dfb326", "fusion_lat": 0.0, "rental_uris": {"ios": "https://dc.lft.to/lastmile_qr_scan", "android": "https://dc.lft.to/lastmile_qr_scan"}, "lon": -77.07909616666667, "type": "electric_bike"}, {"bike_id": "83f86a671650799415d366a89f9c8e79", "is_reserved": 0, "fusion_lon": 0.0, "lat": 38.8804765, "is_disabled": 0, "name": "83f86a671650799415d366a89f9c8e79", "fusion_lat": 0.0, "rental_uris": {"ios": "https://dc.lft.to/lastmile_qr_scan", "android": "https://dc.lft.to/lastmile_qr_scan"}, "lon": -77.013138, "type": "electric_bike"}, {"bike_id": "0ceb98634db9c197791e8cb63b77477d", "is_reserved": 0, "fusion_lon": 0.0, "lat": 38.84279, "is_disabled": 0, "name": "0ceb98634db9c197791e8cb63b77477d", "fusion_lat": 0.0, "rental_uris": {"ios": "https://dc.lft.to/lastmile_qr_scan", "android": "https://dc.lft.to/lastmile_qr_scan"}, "lon": -76.98843083333334, "type": "electric_bike"}, {"bike_id": "eebe943b445b4e6faa00c1dd19b76782", "is_reserved": 0, "fusion_lon": 0.0, "lat": 38.89818533333333, "is_disabled": 0, "name": "eebe943b445b4e6faa00c1dd19b76782", "fusion_lat": 0.0, "rental_uris": {"ios": "https://dc.lft.to/lastmile_qr_scan", "android": "https://dc.lft.to/lastmile_qr_scan"}, "lon": -77.03303716666667, "type": "electric_scooter"}, {"bike_id": "86f8a7f5d650fd6c392cd7c92d5f775b", "is_reserved": 0, "fusion_lon": 0.0, "lat": 38.90590316666667, "is_disabled": 0, "name": "86f8a7f5d650fd6c392cd7c92d5f775b", "fusion_lat": 0.0, "rental_uris": {"ios": "https://dc.lft.to/lastmile_qr_scan", "android": "https://dc.lft.to/lastmile_qr_scan"}, "lon": -77.01617016666667, "type": "electric_scooter"}, {"bike_id": "ad4738f2ffe3ea158aa60227f344fe8a", "is_reserved": 0, "fusion_lon": 0.0, "lat": 38.90034583333333, "is_disabled": 0, "name": "ad4738f2ffe3ea158aa60227f344fe8a", "fusion_lat": 0.0, "rental_uris": {"ios": "https://dc.lft.to/lastmile_qr_scan", "android": "https://dc.lft.to/lastmile_qr_scan"}, "lon": -77.01159483333333, "type": "electric_scooter"}, {"bike_id": "dd93f0f0cc51606dc7ba134d712def02", "is_reserved": 0, "fusion_lon": 0.0, "lat": 38.91603, "is_disabled": 0, "name": "dd93f0f0cc51606dc7ba134d712def02", "fusion_lat": 0.0, "rental_uris": {"ios": "https://dc.lft.to/lastmile_qr_scan", "android": "https://dc.lft.to/lastmile_qr_scan"}, "lon": -77.03184833333333, "type": "electric_scooter"}, {"bike_id": "d7f0f1555862fe38d9ac7002b788cb35", "is_reserved": 0, "fusion_lon": 0.0, "lat": 38.91979766666667, "is_disabled": 0, "name": "d7f0f1555862fe38d9ac7002b788cb35", "fusion_lat": 0.0, "rental_uris": {"ios": "https://dc.lft.to/lastmile_qr_scan", "android": "https://dc.lft.to/lastmile_qr_scan"}, "lon": -77.04441166666666, "type": "electric_scooter"}, {"bike_id": "f2e81ab28ba908d73c7561e4e63e6860", "is_reserved": 0, "fusion_lon": 0.0, "lat": 38.89857833333333, "is_disabled": 0, "name": "f2e81ab28ba908d73c7561e4e63e6860", "fusion_lat": 0.0, "rental_uris": {"ios": "https://dc.lft.to/lastmile_qr_scan", "android": "https://dc.lft.to/lastmile_qr_scan"}, "lon": -77.0320195, "type": "electric_scooter"}, {"bike_id": "219748c6c53b64c5bed7408c6466de1f", "is_reserved": 0, "fusion_lon": 0.0, "lat": 38.88289783333333, "is_disabled": 0, "name": "219748c6c53b64c5bed7408c6466de1f", "fusion_lat": 0.0, "rental_uris": {"ios": "https://dc.lft.to/lastmile_qr_scan", "android": "https://dc.lft.to/lastmile_qr_scan"}, "lon": -76.9860835, "type": "electric_scooter"}, {"bike_id": "6370486acf9be0292ebbb40cd4092cdb", "is_reserved": 0, "fusion_lon": 0.0, "lat": 38.9023855, "is_disabled": 0, "name": "6370486acf9be0292ebbb40cd4092cdb", "fusion_lat": 0.0, "rental_uris": {"ios": "https://dc.lft.to/lastmile_qr_scan", "android": "https://dc.lft.to/lastmile_qr_scan"}, "lon": -77.0020235, "type": "electric_scooter"}, {"bike_id": "9e12264ed72d33e4e8b39332d4495a8c", "is_reserved": 0, "fusion_lon": 0.0, "lat": 38.8885745, "is_disabled": 0, "name": "9e12264ed72d33e4e8b39332d4495a8c", "fusion_lat": 0.0, "rental_uris": {"ios": "https://dc.lft.to/lastmile_qr_scan", "android": "https://dc.lft.to/lastmile_qr_scan"}, "lon": -77.03248116666667, "type": "electric_bike"}, {"bike_id": "4769e77ee9e14325115741e1167996b9", "is_reserved": 0, "fusion_lon": 0.0, "lat": 38.91334883333333, "is_disabled": 0, "name": "4769e77ee9e14325115741e1167996b9", "fusion_lat": 0.0, "rental_uris": {"ios": "https://dc.lft.to/lastmile_qr_scan", "android": "https://dc.lft.to/lastmile_qr_scan"}, "lon": -77.04810766666667, "type": "electric_scooter"}, {"bike_id": "94bfd7c9766ff188955e943c5501ddf7", "is_reserved": 0, "fusion_lon": 0.0, "lat": 38.900005, "is_disabled": 0, "name": "94bfd7c9766ff188955e943c5501ddf7", "fusion_lat": 0.0, "rental_uris": {"ios": "https://dc.lft.to/lastmile_qr_scan", "android": "https://dc.lft.to/lastmile_qr_scan"}, "lon": -77.03322233333333, "type": "electric_scooter"}, {"bike_id": "3d57fa2a7c4cef8508c74a9d8750f905", "is_reserved": 0, "fusion_lon": 0.0, "lat": 38.941811666666666, "is_disabled": 0, "name": "3d57fa2a7c4cef8508c74a9d8750f905", "fusion_lat": 0.0, "rental_uris": {"ios": "https://dc.lft.to/lastmile_qr_scan", "android": "https://dc.lft.to/lastmile_qr_scan"}, "lon": -77.0365305, "type": "electric_scooter"}, {"bike_id": "466d74d7f548f3f3dd3039765df3bbc5", "is_reserved": 0, "fusion_lon": 0.0, "lat": 38.90392466666667, "is_disabled": 0, "name": "466d74d7f548f3f3dd3039765df3bbc5", "fusion_lat": 0.0, "rental_uris": {"ios": "https://dc.lft.to/lastmile_qr_scan", "android": "https://dc.lft.to/lastmile_qr_scan"}, "lon": -77.04419983333334, "type": "electric_scooter"}, {"bike_id": "47b13bed4d180479a16ef32eba2c09ec", "is_reserved": 0, "fusion_lon": 0.0, "lat": 38.93705666666666, "is_disabled": 0, "name": "47b13bed4d180479a16ef32eba2c09ec", "fusion_lat": 0.0, "rental_uris": {"ios": "https://dc.lft.to/lastmile_qr_scan", "android": "https://dc.lft.to/lastmile_qr_scan"}, "lon": -77.02974966666666, "type": "electric_bike"}, {"bike_id": "b534eababae91f6219a3c7cf763c31f0", "is_reserved": 0, "fusion_lon": 0.0, "lat": 38.917387, "is_disabled": 0, "name": "b534eababae91f6219a3c7cf763c31f0", "fusion_lat": 0.0, "rental_uris": {"ios": "https://dc.lft.to/lastmile_qr_scan", "android": "https://dc.lft.to/lastmile_qr_scan"}, "lon": -77.04414916666667, "type": "electric_scooter"}, {"bike_id": "262c024f865d83e538f4abe615c6f20c", "is_reserved": 0, "fusion_lon": 0.0, "lat": 38.8982085, "is_disabled": 0, "name": "262c024f865d83e538f4abe615c6f20c", "fusion_lat": 0.0, "rental_uris": {"ios": "https://dc.lft.to/lastmile_qr_scan", "android": "https://dc.lft.to/lastmile_qr_scan"}, "lon": -77.03287633333333, "type": "electric_scooter"}, {"bike_id": "d31443997420d5a8bfe48c210681af76", "is_reserved": 0, "fusion_lon": 0.0, "lat": 38.919890333333335, "is_disabled": 0, "name": "d31443997420d5a8bfe48c210681af76", "fusion_lat": 0.0, "rental_uris": {"ios": "https://dc.lft.to/lastmile_qr_scan", "android": "https://dc.lft.to/lastmile_qr_scan"}, "lon": -76.97306283333333, "type": "electric_scooter"}, {"bike_id": "6559fca4b5d1f7eb09c9fe885cf5fd4f", "is_reserved": 0, "fusion_lon": 0.0, "lat": 38.871320833333336, "is_disabled": 0, "name": "6559fca4b5d1f7eb09c9fe885cf5fd4f", "fusion_lat": 0.0, "rental_uris": {"ios": "https://dc.lft.to/lastmile_qr_scan", "android": "https://dc.lft.to/lastmile_qr_scan"}, "lon": -76.93729133333333, "type": "electric_bike"}, {"bike_id": "5395289dd57cc81f2ff42f28791f347f", "is_reserved": 0, "fusion_lon": 0.0, "lat": 38.923693666666665, "is_disabled": 0, "name": "5395289dd57cc81f2ff42f28791f347f", "fusion_lat": 0.0, "rental_uris": {"ios": "https://dc.lft.to/lastmile_qr_scan", "android": "https://dc.lft.to/lastmile_qr_scan"}, "lon": -77.01949116666667, "type": "electric_scooter"}, {"bike_id": "16e815544895431d63bbba1ea74ef081", "is_reserved": 0, "fusion_lon": 0.0, "lat": 38.90119083333333, "is_disabled": 0, "name": "16e815544895431d63bbba1ea74ef081", "fusion_lat": 0.0, "rental_uris": {"ios": "https://dc.lft.to/lastmile_qr_scan", "android": "https://dc.lft.to/lastmile_qr_scan"}, "lon": -77.043559, "type": "electric_scooter"}, {"bike_id": "059b627646662e4dd58452e464e54e40", "is_reserved": 0, "fusion_lon": 0.0, "lat": 38.929913666666664, "is_disabled": 0, "name": "059b627646662e4dd58452e464e54e40", "fusion_lat": 0.0, "rental_uris": {"ios": "https://dc.lft.to/lastmile_qr_scan", "android": "https://dc.lft.to/lastmile_qr_scan"}, "lon": -77.079398, "type": "electric_scooter"}, {"bike_id": "29f779ae985f769af1c9d262e76c4cb6", "is_reserved": 0, "fusion_lon": 0.0, "lat": 38.919822333333336, "is_disabled": 0, "name": "29f779ae985f769af1c9d262e76c4cb6", "fusion_lat": 0.0, "rental_uris": {"ios": "https://dc.lft.to/lastmile_qr_scan", "android": "https://dc.lft.to/lastmile_qr_scan"}, "lon": -77.02388766666667, "type": "electric_scooter"}, {"bike_id": "0c8398b0b23922de983c580e32e13f80", "is_reserved": 0, "fusion_lon": 0.0, "lat": 38.9308965, "is_disabled": 0, "name": "0c8398b0b23922de983c580e32e13f80", "fusion_lat": 0.0, "rental_uris": {"ios": "https://dc.lft.to/lastmile_qr_scan", "android": "https://dc.lft.to/lastmile_qr_scan"}, "lon": -77.036196, "type": "electric_scooter"}, {"bike_id": "87d7a80a79571de12bf65e45c44a85c4", "is_reserved": 0, "fusion_lon": 0.0, "lat": 38.94123733333333, "is_disabled": 0, "name": "87d7a80a79571de12bf65e45c44a85c4", "fusion_lat": 0.0, "rental_uris": {"ios": "https://dc.lft.to/lastmile_qr_scan", "android": "https://dc.lft.to/lastmile_qr_scan"}, "lon": -77.01537283333333, "type": "electric_scooter"}, {"bike_id": "f308d4c8f174e6c0ed28de3bbc53efd4", "is_reserved": 0, "fusion_lon": 0.0, "lat": 38.92614366666667, "is_disabled": 0, "name": "f308d4c8f174e6c0ed28de3bbc53efd4", "fusion_lat": 0.0, "rental_uris": {"ios": "https://dc.lft.to/lastmile_qr_scan", "android": "https://dc.lft.to/lastmile_qr_scan"}, "lon": -77.0367095, "type": "electric_bike"}, {"bike_id": "b44da689b2d250668a8163f710f3ff3f", "is_reserved": 0, "fusion_lon": 0.0, "lat": 38.9249065, "is_disabled": 0, "name": "b44da689b2d250668a8163f710f3ff3f", "fusion_lat": 0.0, "rental_uris": {"ios": "https://dc.lft.to/lastmile_qr_scan", "android": "https://dc.lft.to/lastmile_qr_scan"}, "lon": -77.02713883333334, "type": "electric_scooter"}, {"bike_id": "306bb4cb713c34b422507fb43134775b", "is_reserved": 0, "fusion_lon": 0.0, "lat": 38.918709666666665, "is_disabled": 0, "name": "306bb4cb713c34b422507fb43134775b", "fusion_lat": 0.0, "rental_uris": {"ios": "https://dc.lft.to/lastmile_qr_scan", "android": "https://dc.lft.to/lastmile_qr_scan"}, "lon": -77.04465166666667, "type": "electric_scooter"}, {"bike_id": "babc5367e0268b5f25a360c2a292f162", "is_reserved": 0, "fusion_lon": 0.0, "lat": 38.8927835, "is_disabled": 0, "name": "babc5367e0268b5f25a360c2a292f162", "fusion_lat": 0.0, "rental_uris": {"ios": "https://dc.lft.to/lastmile_qr_scan", "android": "https://dc.lft.to/lastmile_qr_scan"}, "lon": -77.02595, "type": "electric_scooter"}, {"bike_id": "724e7f07e8ea4e9b430b80d5f13e5bc4", "is_reserved": 0, "fusion_lon": 0.0, "lat": 38.918633166666666, "is_disabled": 0, "name": "724e7f07e8ea4e9b430b80d5f13e5bc4", "fusion_lat": 0.0, "rental_uris": {"ios": "https://dc.lft.to/lastmile_qr_scan", "android": "https://dc.lft.to/lastmile_qr_scan"}, "lon": -77.04459333333334, "type": "electric_scooter"}, {"bike_id": "c2cff397f8123cdf9352e4b202dc18ce", "is_reserved": 0, "fusion_lon": 0.0, "lat": 38.92749666666667, "is_disabled": 0, "name": "c2cff397f8123cdf9352e4b202dc18ce", "fusion_lat": 0.0, "rental_uris": {"ios": "https://dc.lft.to/lastmile_qr_scan", "android": "https://dc.lft.to/lastmile_qr_scan"}, "lon": -77.02422583333333, "type": "electric_scooter"}, {"bike_id": "8c57f924045321ccf2b55ac708c404d2", "is_reserved": 0, "fusion_lon": 0.0, "lat": 38.86519116666667, "is_disabled": 0, "name": "8c57f924045321ccf2b55ac708c404d2", "fusion_lat": 0.0, "rental_uris": {"ios": "https://dc.lft.to/lastmile_qr_scan", "android": "https://dc.lft.to/lastmile_qr_scan"}, "lon": -76.99032133333333, "type": "electric_scooter"}, {"bike_id": "961cf15184018e2b463d24c6de80fecd", "is_reserved": 0, "fusion_lon": 0.0, "lat": 38.940862, "is_disabled": 0, "name": "961cf15184018e2b463d24c6de80fecd", "fusion_lat": 0.0, "rental_uris": {"ios": "https://dc.lft.to/lastmile_qr_scan", "android": "https://dc.lft.to/lastmile_qr_scan"}, "lon": -77.0618885, "type": "electric_scooter"}, {"bike_id": "c482ddcb313c69230b337c4c653b2c7b", "is_reserved": 0, "fusion_lon": 0.0, "lat": 38.922538, "is_disabled": 0, "name": "c482ddcb313c69230b337c4c653b2c7b", "fusion_lat": 0.0, "rental_uris": {"ios": "https://dc.lft.to/lastmile_qr_scan", "android": "https://dc.lft.to/lastmile_qr_scan"}, "lon": -77.03645683333333, "type": "electric_scooter"}, {"bike_id": "846a50e25bdd4cf0982e387682ce224a", "is_reserved": 0, "fusion_lon": 0.0, "lat": 38.906225166666665, "is_disabled": 0, "name": "846a50e25bdd4cf0982e387682ce224a", "fusion_lat": 0.0, "rental_uris": {"ios": "https://dc.lft.to/lastmile_qr_scan", "android": "https://dc.lft.to/lastmile_qr_scan"}, "lon": -77.03956716666667, "type": "electric_scooter"}, {"bike_id": "6d9872601bed88e037d32b9637e12942", "is_reserved": 0, "fusion_lon": 0.0, "lat": 38.89553816666667, "is_disabled": 0, "name": "6d9872601bed88e037d32b9637e12942", "fusion_lat": 0.0, "rental_uris": {"ios": "https://dc.lft.to/lastmile_qr_scan", "android": "https://dc.lft.to/lastmile_qr_scan"}, "lon": -77.02170033333333, "type": "electric_scooter"}, {"bike_id": "1019279f0a4167186f4e57b6dab67027", "is_reserved": 0, "fusion_lon": 0.0, "lat": 38.928941, "is_disabled": 0, "name": "1019279f0a4167186f4e57b6dab67027", "fusion_lat": 0.0, "rental_uris": {"ios": "https://dc.lft.to/lastmile_qr_scan", "android": "https://dc.lft.to/lastmile_qr_scan"}, "lon": -77.05462633333333, "type": "electric_scooter"}, {"bike_id": "0d26766247dcee39cb6a528bb5fe4a92", "is_reserved": 0, "fusion_lon": 0.0, "lat": 38.99823883333333, "is_disabled": 0, "name": "0d26766247dcee39cb6a528bb5fe4a92", "fusion_lat": 0.0, "rental_uris": {"ios": "https://dc.lft.to/lastmile_qr_scan", "android": "https://dc.lft.to/lastmile_qr_scan"}, "lon": -76.88368316666667, "type": "electric_bike"}, {"bike_id": "1b88d205a6dbc8a4afc00b2b47692c08", "is_reserved": 0, "fusion_lon": 0.0, "lat": 38.856350166666665, "is_disabled": 0, "name": "1b88d205a6dbc8a4afc00b2b47692c08", "fusion_lat": 0.0, "rental_uris": {"ios": "https://dc.lft.to/lastmile_qr_scan", "android": "https://dc.lft.to/lastmile_qr_scan"}, "lon": -76.9745175, "type": "electric_scooter"}, {"bike_id": "f6812ac8c260ac38293472e06fbbb6f0", "is_reserved": 0, "fusion_lon": 0.0, "lat": 38.903597833333336, "is_disabled": 0, "name": "f6812ac8c260ac38293472e06fbbb6f0", "fusion_lat": 0.0, "rental_uris": {"ios": "https://dc.lft.to/lastmile_qr_scan", "android": "https://dc.lft.to/lastmile_qr_scan"}, "lon": -77.01103033333334, "type": "electric_scooter"}, {"bike_id": "8e92683c257bd24d84cb1fbc42c274c0", "is_reserved": 0, "fusion_lon": 0.0, "lat": 38.807458833333335, "is_disabled": 0, "name": "8e92683c257bd24d84cb1fbc42c274c0", "fusion_lat": 0.0, "rental_uris": {"ios": "https://dc.lft.to/lastmile_qr_scan", "android": "https://dc.lft.to/lastmile_qr_scan"}, "lon": -77.09427633333334, "type": "electric_bike"}, {"bike_id": "d5e87dd339c007aa3cb832b1ecfeaa1f", "is_reserved": 0, "fusion_lon": 0.0, "lat": 38.94171816666667, "is_disabled": 0, "name": "d5e87dd339c007aa3cb832b1ecfeaa1f", "fusion_lat": 0.0, "rental_uris": {"ios": "https://dc.lft.to/lastmile_qr_scan", "android": "https://dc.lft.to/lastmile_qr_scan"}, "lon": -77.04129266666666, "type": "electric_scooter"}, {"bike_id": "3baea99ce8f172453529cdb0770f41d2", "is_reserved": 0, "fusion_lon": 0.0, "lat": 38.95626083333333, "is_disabled": 0, "name": "3baea99ce8f172453529cdb0770f41d2", "fusion_lat": 0.0, "rental_uris": {"ios": "https://dc.lft.to/lastmile_qr_scan", "android": "https://dc.lft.to/lastmile_qr_scan"}, "lon": -76.966626, "type": "electric_bike"}, {"bike_id": "f111a0d661c875092f376f29f5e963a3", "is_reserved": 0, "fusion_lon": 0.0, "lat": 38.898776, "is_disabled": 0, "name": "f111a0d661c875092f376f29f5e963a3", "fusion_lat": 0.0, "rental_uris": {"ios": "https://dc.lft.to/lastmile_qr_scan", "android": "https://dc.lft.to/lastmile_qr_scan"}, "lon": -76.93159033333333, "type": "electric_scooter"}, {"bike_id": "3f959402f1ce03a6274a24e41ebecc87", "is_reserved": 0, "fusion_lon": 0.0, "lat": 38.9213895, "is_disabled": 0, "name": "3f959402f1ce03a6274a24e41ebecc87", "fusion_lat": 0.0, "rental_uris": {"ios": "https://dc.lft.to/lastmile_qr_scan", "android": "https://dc.lft.to/lastmile_qr_scan"}, "lon": -77.0349435, "type": "electric_scooter"}, {"bike_id": "4913464a0979e0c16ffe4b6679b47325", "is_reserved": 0, "fusion_lon": 0.0, "lat": 38.903450666666664, "is_disabled": 0, "name": "4913464a0979e0c16ffe4b6679b47325", "fusion_lat": 0.0, "rental_uris": {"ios": "https://dc.lft.to/lastmile_qr_scan", "android": "https://dc.lft.to/lastmile_qr_scan"}, "lon": -77.0665225, "type": "electric_scooter"}, {"bike_id": "b8d125c7bdec6f86fd02ddc1451c65b1", "is_reserved": 0, "fusion_lon": 0.0, "lat": 38.9103075, "is_disabled": 0, "name": "b8d125c7bdec6f86fd02ddc1451c65b1", "fusion_lat": 0.0, "rental_uris": {"ios": "https://dc.lft.to/lastmile_qr_scan", "android": "https://dc.lft.to/lastmile_qr_scan"}, "lon": -77.04815, "type": "electric_scooter"}, {"bike_id": "d0a172c567d547689c3f6c474379e6ba", "is_reserved": 0, "fusion_lon": 0.0, "lat": 38.90522266666667, "is_disabled": 0, "name": "d0a172c567d547689c3f6c474379e6ba", "fusion_lat": 0.0, "rental_uris": {"ios": "https://dc.lft.to/lastmile_qr_scan", "android": "https://dc.lft.to/lastmile_qr_scan"}, "lon": -77.05145766666666, "type": "electric_scooter"}, {"bike_id": "f5e95daccfaeff40f9d72181861a300c", "is_reserved": 0, "fusion_lon": 0.0, "lat": 38.91542366666667, "is_disabled": 0, "name": "f5e95daccfaeff40f9d72181861a300c", "fusion_lat": 0.0, "rental_uris": {"ios": "https://dc.lft.to/lastmile_qr_scan", "android": "https://dc.lft.to/lastmile_qr_scan"}, "lon": -77.03869416666667, "type": "electric_scooter"}, {"bike_id": "8b33227ffb3bf06614f0a40c2552d570", "is_reserved": 0, "fusion_lon": 0.0, "lat": 38.92853616666667, "is_disabled": 0, "name": "8b33227ffb3bf06614f0a40c2552d570", "fusion_lat": 0.0, "rental_uris": {"ios": "https://dc.lft.to/lastmile_qr_scan", "android": "https://dc.lft.to/lastmile_qr_scan"}, "lon": -77.222072, "type": "electric_bike"}, {"bike_id": "00df70551d1d1cc980a10e547b48a70a", "is_reserved": 0, "fusion_lon": 0.0, "lat": 38.935307, "is_disabled": 0, "name": "00df70551d1d1cc980a10e547b48a70a", "fusion_lat": 0.0, "rental_uris": {"ios": "https://dc.lft.to/lastmile_qr_scan", "android": "https://dc.lft.to/lastmile_qr_scan"}, "lon": -77.03426533333334, "type": "electric_scooter"}, {"bike_id": "f14a0f73f71667c491bedf6bf24c393e", "is_reserved": 0, "fusion_lon": 0.0, "lat": 38.887384, "is_disabled": 0, "name": "f14a0f73f71667c491bedf6bf24c393e", "fusion_lat": 0.0, "rental_uris": {"ios": "https://dc.lft.to/lastmile_qr_scan", "android": "https://dc.lft.to/lastmile_qr_scan"}, "lon": -77.0226715, "type": "electric_bike"}, {"bike_id": "6eb1d0c7dd0c362a2545d5f75d0beb7f", "is_reserved": 0, "fusion_lon": 0.0, "lat": 39.088588333333334, "is_disabled": 0, "name": "6eb1d0c7dd0c362a2545d5f75d0beb7f", "fusion_lat": 0.0, "rental_uris": {"ios": "https://dc.lft.to/lastmile_qr_scan", "android": "https://dc.lft.to/lastmile_qr_scan"}, "lon": -77.1784705, "type": "electric_bike"}, {"bike_id": "1e189bf0c8f7432e8547aa21552c6d62", "is_reserved": 0, "fusion_lon": 0.0, "lat": 38.95651816666667, "is_disabled": 0, "name": "1e189bf0c8f7432e8547aa21552c6d62", "fusion_lat": 0.0, "rental_uris": {"ios": "https://dc.lft.to/lastmile_qr_scan", "android": "https://dc.lft.to/lastmile_qr_scan"}, "lon": -77.0328835, "type": "electric_scooter"}, {"bike_id": "f9853c2d206817f12004e02dc4b864c9", "is_reserved": 0, "fusion_lon": 0.0, "lat": 38.957473, "is_disabled": 0, "name": "f9853c2d206817f12004e02dc4b864c9", "fusion_lat": 0.0, "rental_uris": {"ios": "https://dc.lft.to/lastmile_qr_scan", "android": "https://dc.lft.to/lastmile_qr_scan"}, "lon": -77.02415483333333, "type": "electric_scooter"}, {"bike_id": "9aad5ca4f7ad2b34e2ded7061f4bfaea", "is_reserved": 0, "fusion_lon": 0.0, "lat": 38.90722616666667, "is_disabled": 0, "name": "9aad5ca4f7ad2b34e2ded7061f4bfaea", "fusion_lat": 0.0, "rental_uris": {"ios": "https://dc.lft.to/lastmile_qr_scan", "android": "https://dc.lft.to/lastmile_qr_scan"}, "lon": -77.04359533333333, "type": "electric_scooter"}, {"bike_id": "aa33e96360bd3c44c27cec2ae5809fde", "is_reserved": 0, "fusion_lon": 0.0, "lat": 38.911244333333336, "is_disabled": 0, "name": "aa33e96360bd3c44c27cec2ae5809fde", "fusion_lat": 0.0, "rental_uris": {"ios": "https://dc.lft.to/lastmile_qr_scan", "android": "https://dc.lft.to/lastmile_qr_scan"}, "lon": -77.0383005, "type": "electric_scooter"}, {"bike_id": "3790862fc33955f638f84bc40d70a7bb", "is_reserved": 0, "fusion_lon": 0.0, "lat": 38.865373, "is_disabled": 0, "name": "3790862fc33955f638f84bc40d70a7bb", "fusion_lat": 0.0, "rental_uris": {"ios": "https://dc.lft.to/lastmile_qr_scan", "android": "https://dc.lft.to/lastmile_qr_scan"}, "lon": -76.98709916666667, "type": "electric_scooter"}, {"bike_id": "a649f20af1cf313484fcc5212c1b24a6", "is_reserved": 0, "fusion_lon": 0.0, "lat": 38.95341716666667, "is_disabled": 0, "name": "a649f20af1cf313484fcc5212c1b24a6", "fusion_lat": 0.0, "rental_uris": {"ios": "https://dc.lft.to/lastmile_qr_scan", "android": "https://dc.lft.to/lastmile_qr_scan"}, "lon": -77.00956383333333, "type": "electric_bike"}, {"bike_id": "1106330913c130f177e9c5d0ee54325c", "is_reserved": 0, "fusion_lon": 0.0, "lat": 38.8460725, "is_disabled": 0, "name": "1106330913c130f177e9c5d0ee54325c", "fusion_lat": 0.0, "rental_uris": {"ios": "https://dc.lft.to/lastmile_qr_scan", "android": "https://dc.lft.to/lastmile_qr_scan"}, "lon": -76.97835733333334, "type": "electric_bike"}, {"bike_id": "ac5a5e0876acbdb8277f61c45fbf4664", "is_reserved": 0, "fusion_lon": 0.0, "lat": 38.902422666666666, "is_disabled": 0, "name": "ac5a5e0876acbdb8277f61c45fbf4664", "fusion_lat": 0.0, "rental_uris": {"ios": "https://dc.lft.to/lastmile_qr_scan", "android": "https://dc.lft.to/lastmile_qr_scan"}, "lon": -77.0020075, "type": "electric_scooter"}, {"bike_id": "a7c65a5fad8a09765b2c16ecafedffb4", "is_reserved": 0, "fusion_lon": 0.0, "lat": 38.89890883333333, "is_disabled": 0, "name": "a7c65a5fad8a09765b2c16ecafedffb4", "fusion_lat": 0.0, "rental_uris": {"ios": "https://dc.lft.to/lastmile_qr_scan", "android": "https://dc.lft.to/lastmile_qr_scan"}, "lon": -77.03285983333333, "type": "electric_scooter"}, {"bike_id": "8404a640f6b108b785426a59f680fd9f", "is_reserved": 0, "fusion_lon": 0.0, "lat": 38.91480766666667, "is_disabled": 0, "name": "8404a640f6b108b785426a59f680fd9f", "fusion_lat": 0.0, "rental_uris": {"ios": "https://dc.lft.to/lastmile_qr_scan", "android": "https://dc.lft.to/lastmile_qr_scan"}, "lon": -77.0083485, "type": "electric_scooter"}, {"bike_id": "0e8e5be42cf1b2c88b827a11929fe2b9", "is_reserved": 0, "fusion_lon": 0.0, "lat": 38.895605, "is_disabled": 0, "name": "0e8e5be42cf1b2c88b827a11929fe2b9", "fusion_lat": 0.0, "rental_uris": {"ios": "https://dc.lft.to/lastmile_qr_scan", "android": "https://dc.lft.to/lastmile_qr_scan"}, "lon": -76.93044583333334, "type": "electric_scooter"}, {"bike_id": "e3c78aa58a329cdf57ad62dd4d30aa3d", "is_reserved": 0, "fusion_lon": 0.0, "lat": 39.0581375, "is_disabled": 0, "name": "e3c78aa58a329cdf57ad62dd4d30aa3d", "fusion_lat": 0.0, "rental_uris": {"ios": "https://dc.lft.to/lastmile_qr_scan", "android": "https://dc.lft.to/lastmile_qr_scan"}, "lon": -77.12624733333334, "type": "electric_bike"}, {"bike_id": "ed78ca66def735bfba4cce98c1ce1e84", "is_reserved": 0, "fusion_lon": 0.0, "lat": 38.920703333333336, "is_disabled": 0, "name": "ed78ca66def735bfba4cce98c1ce1e84", "fusion_lat": 0.0, "rental_uris": {"ios": "https://dc.lft.to/lastmile_qr_scan", "android": "https://dc.lft.to/lastmile_qr_scan"}, "lon": -77.02432816666666, "type": "electric_scooter"}, {"bike_id": "1ebac7484d731ef90a69befc1dd64260", "is_reserved": 0, "fusion_lon": 0.0, "lat": 38.9159385, "is_disabled": 0, "name": "1ebac7484d731ef90a69befc1dd64260", "fusion_lat": 0.0, "rental_uris": {"ios": "https://dc.lft.to/lastmile_qr_scan", "android": "https://dc.lft.to/lastmile_qr_scan"}, "lon": -76.98378416666667, "type": "electric_scooter"}, {"bike_id": "329ebc8725c2526921fbd9f6d32786b1", "is_reserved": 0, "fusion_lon": 0.0, "lat": 38.89842083333333, "is_disabled": 0, "name": "329ebc8725c2526921fbd9f6d32786b1", "fusion_lat": 0.0, "rental_uris": {"ios": "https://dc.lft.to/lastmile_qr_scan", "android": "https://dc.lft.to/lastmile_qr_scan"}, "lon": -77.02876516666667, "type": "electric_scooter"}, {"bike_id": "103578d08235aed2d27e17213eb41c15", "is_reserved": 0, "fusion_lon": 0.0, "lat": 38.924339833333335, "is_disabled": 0, "name": "103578d08235aed2d27e17213eb41c15", "fusion_lat": 0.0, "rental_uris": {"ios": "https://dc.lft.to/lastmile_qr_scan", "android": "https://dc.lft.to/lastmile_qr_scan"}, "lon": -77.04233183333334, "type": "electric_scooter"}, {"bike_id": "a49b3980c7ab3cf6d08dc05333bea594", "is_reserved": 0, "fusion_lon": 0.0, "lat": 38.9028675, "is_disabled": 0, "name": "a49b3980c7ab3cf6d08dc05333bea594", "fusion_lat": 0.0, "rental_uris": {"ios": "https://dc.lft.to/lastmile_qr_scan", "android": "https://dc.lft.to/lastmile_qr_scan"}, "lon": -77.03835216666667, "type": "electric_scooter"}, {"bike_id": "b12476603fd967e6f4df5be8066afeaf", "is_reserved": 0, "fusion_lon": 0.0, "lat": 38.907669166666665, "is_disabled": 0, "name": "b12476603fd967e6f4df5be8066afeaf", "fusion_lat": 0.0, "rental_uris": {"ios": "https://dc.lft.to/lastmile_qr_scan", "android": "https://dc.lft.to/lastmile_qr_scan"}, "lon": -77.03183566666667, "type": "electric_scooter"}, {"bike_id": "3978e23d82d773a525dd8e895b80411b", "is_reserved": 0, "fusion_lon": 0.0, "lat": 38.897093, "is_disabled": 0, "name": "3978e23d82d773a525dd8e895b80411b", "fusion_lat": 0.0, "rental_uris": {"ios": "https://dc.lft.to/lastmile_qr_scan", "android": "https://dc.lft.to/lastmile_qr_scan"}, "lon": -77.02730783333334, "type": "electric_scooter"}, {"bike_id": "cd6885adf16573c3dd5074935984be45", "is_reserved": 0, "fusion_lon": 0.0, "lat": 38.9071985, "is_disabled": 0, "name": "cd6885adf16573c3dd5074935984be45", "fusion_lat": 0.0, "rental_uris": {"ios": "https://dc.lft.to/lastmile_qr_scan", "android": "https://dc.lft.to/lastmile_qr_scan"}, "lon": -77.0441875, "type": "electric_scooter"}, {"bike_id": "5dab9968db368e710be4e927b52bcebb", "is_reserved": 0, "fusion_lon": 0.0, "lat": 38.910427, "is_disabled": 0, "name": "5dab9968db368e710be4e927b52bcebb", "fusion_lat": 0.0, "rental_uris": {"ios": "https://dc.lft.to/lastmile_qr_scan", "android": "https://dc.lft.to/lastmile_qr_scan"}, "lon": -77.03632233333333, "type": "electric_scooter"}, {"bike_id": "884795989a59c5be766cfc1852e72372", "is_reserved": 0, "fusion_lon": 0.0, "lat": 38.9587565, "is_disabled": 0, "name": "884795989a59c5be766cfc1852e72372", "fusion_lat": 0.0, "rental_uris": {"ios": "https://dc.lft.to/lastmile_qr_scan", "android": "https://dc.lft.to/lastmile_qr_scan"}, "lon": -76.97051566666667, "type": "electric_bike"}, {"bike_id": "7dda0214766a86cda3c9196de373eed8", "is_reserved": 0, "fusion_lon": 0.0, "lat": 38.92010116666667, "is_disabled": 0, "name": "7dda0214766a86cda3c9196de373eed8", "fusion_lat": 0.0, "rental_uris": {"ios": "https://dc.lft.to/lastmile_qr_scan", "android": "https://dc.lft.to/lastmile_qr_scan"}, "lon": -77.0377685, "type": "electric_scooter"}, {"bike_id": "93a92de5d7af6fe6e7bc7b5bcc3c6b43", "is_reserved": 0, "fusion_lon": 0.0, "lat": 38.869637833333336, "is_disabled": 0, "name": "93a92de5d7af6fe6e7bc7b5bcc3c6b43", "fusion_lat": 0.0, "rental_uris": {"ios": "https://dc.lft.to/lastmile_qr_scan", "android": "https://dc.lft.to/lastmile_qr_scan"}, "lon": -77.01373883333333, "type": "electric_scooter"}, {"bike_id": "c66464492aab1ed5bd51aacd0a781576", "is_reserved": 0, "fusion_lon": 0.0, "lat": 38.95926083333333, "is_disabled": 0, "name": "c66464492aab1ed5bd51aacd0a781576", "fusion_lat": 0.0, "rental_uris": {"ios": "https://dc.lft.to/lastmile_qr_scan", "android": "https://dc.lft.to/lastmile_qr_scan"}, "lon": -76.9254275, "type": "electric_bike"}, {"bike_id": "36bb2bdb5c4bfa4055bddf7fd51d6b5d", "is_reserved": 0, "fusion_lon": 0.0, "lat": 38.88637466666667, "is_disabled": 0, "name": "36bb2bdb5c4bfa4055bddf7fd51d6b5d", "fusion_lat": 0.0, "rental_uris": {"ios": "https://dc.lft.to/lastmile_qr_scan", "android": "https://dc.lft.to/lastmile_qr_scan"}, "lon": -77.021428, "type": "electric_scooter"}, {"bike_id": "a4e7eab1821fd0e9a4eae8d5136d5ba4", "is_reserved": 0, "fusion_lon": 0.0, "lat": 38.906803, "is_disabled": 0, "name": "a4e7eab1821fd0e9a4eae8d5136d5ba4", "fusion_lat": 0.0, "rental_uris": {"ios": "https://dc.lft.to/lastmile_qr_scan", "android": "https://dc.lft.to/lastmile_qr_scan"}, "lon": -77.00064233333333, "type": "electric_scooter"}, {"bike_id": "01681880ef57f012af255246223252c8", "is_reserved": 0, "fusion_lon": 0.0, "lat": 38.9037915, "is_disabled": 0, "name": "01681880ef57f012af255246223252c8", "fusion_lat": 0.0, "rental_uris": {"ios": "https://dc.lft.to/lastmile_qr_scan", "android": "https://dc.lft.to/lastmile_qr_scan"}, "lon": -76.99830266666666, "type": "electric_scooter"}, {"bike_id": "30827c86ead57c471d5b33831681bb39", "is_reserved": 0, "fusion_lon": 0.0, "lat": 38.92161516666667, "is_disabled": 0, "name": "30827c86ead57c471d5b33831681bb39", "fusion_lat": 0.0, "rental_uris": {"ios": "https://dc.lft.to/lastmile_qr_scan", "android": "https://dc.lft.to/lastmile_qr_scan"}, "lon": -76.99406583333334, "type": "electric_scooter"}, {"bike_id": "6d019112394ac3046472ae6456e8c7f1", "is_reserved": 0, "fusion_lon": 0.0, "lat": 38.81337083333333, "is_disabled": 0, "name": "6d019112394ac3046472ae6456e8c7f1", "fusion_lat": 0.0, "rental_uris": {"ios": "https://dc.lft.to/lastmile_qr_scan", "android": "https://dc.lft.to/lastmile_qr_scan"}, "lon": -77.051073, "type": "electric_bike"}, {"bike_id": "6a0ff80c682225e67465953e3dfd9474", "is_reserved": 0, "fusion_lon": 0.0, "lat": 38.86663316666667, "is_disabled": 0, "name": "6a0ff80c682225e67465953e3dfd9474", "fusion_lat": 0.0, "rental_uris": {"ios": "https://dc.lft.to/lastmile_qr_scan", "android": "https://dc.lft.to/lastmile_qr_scan"}, "lon": -76.988843, "type": "electric_scooter"}, {"bike_id": "d25ac6eb0346a5002ac628e2ca486d5f", "is_reserved": 0, "fusion_lon": 0.0, "lat": 38.91963716666667, "is_disabled": 0, "name": "d25ac6eb0346a5002ac628e2ca486d5f", "fusion_lat": 0.0, "rental_uris": {"ios": "https://dc.lft.to/lastmile_qr_scan", "android": "https://dc.lft.to/lastmile_qr_scan"}, "lon": -77.03194766666667, "type": "electric_scooter"}, {"bike_id": "4c84ea46c1b7288449d171cdd236519e", "is_reserved": 0, "fusion_lon": 0.0, "lat": 38.903869666666665, "is_disabled": 0, "name": "4c84ea46c1b7288449d171cdd236519e", "fusion_lat": 0.0, "rental_uris": {"ios": "https://dc.lft.to/lastmile_qr_scan", "android": "https://dc.lft.to/lastmile_qr_scan"}, "lon": -77.0447745, "type": "electric_scooter"}, {"bike_id": "5dd400be8cfeebfe36f0c6b2a8e3b372", "is_reserved": 0, "fusion_lon": 0.0, "lat": 38.896895, "is_disabled": 0, "name": "5dd400be8cfeebfe36f0c6b2a8e3b372", "fusion_lat": 0.0, "rental_uris": {"ios": "https://dc.lft.to/lastmile_qr_scan", "android": "https://dc.lft.to/lastmile_qr_scan"}, "lon": -76.99614983333333, "type": "electric_scooter"}, {"bike_id": "d030bf837b810b3fa4680647fbfd5ffa", "is_reserved": 0, "fusion_lon": 0.0, "lat": 38.949716333333335, "is_disabled": 0, "name": "d030bf837b810b3fa4680647fbfd5ffa", "fusion_lat": 0.0, "rental_uris": {"ios": "https://dc.lft.to/lastmile_qr_scan", "android": "https://dc.lft.to/lastmile_qr_scan"}, "lon": -76.97283733333333, "type": "electric_bike"}, {"bike_id": "f8d94157638205878471962b015ef3db", "is_reserved": 0, "fusion_lon": 0.0, "lat": 38.8884575, "is_disabled": 0, "name": "f8d94157638205878471962b015ef3db", "fusion_lat": 0.0, "rental_uris": {"ios": "https://dc.lft.to/lastmile_qr_scan", "android": "https://dc.lft.to/lastmile_qr_scan"}, "lon": -76.92681066666667, "type": "electric_scooter"}, {"bike_id": "9fc81e0cf5b0113c3d7b45b2427f7e98", "is_reserved": 0, "fusion_lon": 0.0, "lat": 38.93436, "is_disabled": 0, "name": "9fc81e0cf5b0113c3d7b45b2427f7e98", "fusion_lat": 0.0, "rental_uris": {"ios": "https://dc.lft.to/lastmile_qr_scan", "android": "https://dc.lft.to/lastmile_qr_scan"}, "lon": -77.0725795, "type": "electric_scooter"}, {"bike_id": "c84adb838209cfcede5e6eb1c60c242d", "is_reserved": 0, "fusion_lon": 0.0, "lat": 38.860108333333336, "is_disabled": 0, "name": "c84adb838209cfcede5e6eb1c60c242d", "fusion_lat": 0.0, "rental_uris": {"ios": "https://dc.lft.to/lastmile_qr_scan", "android": "https://dc.lft.to/lastmile_qr_scan"}, "lon": -77.0577075, "type": "electric_bike"}, {"bike_id": "71efb3b47dac6770528fdca1cf91d75a", "is_reserved": 0, "fusion_lon": 0.0, "lat": 38.90083766666667, "is_disabled": 0, "name": "71efb3b47dac6770528fdca1cf91d75a", "fusion_lat": 0.0, "rental_uris": {"ios": "https://dc.lft.to/lastmile_qr_scan", "android": "https://dc.lft.to/lastmile_qr_scan"}, "lon": -76.938605, "type": "electric_scooter"}, {"bike_id": "d65036cf6191847fc9346b996dc09346", "is_reserved": 0, "fusion_lon": 0.0, "lat": 38.887424333333335, "is_disabled": 0, "name": "d65036cf6191847fc9346b996dc09346", "fusion_lat": 0.0, "rental_uris": {"ios": "https://dc.lft.to/lastmile_qr_scan", "android": "https://dc.lft.to/lastmile_qr_scan"}, "lon": -77.02975366666666, "type": "electric_scooter"}, {"bike_id": "f6951548ce05c861670e7c020fe12e58", "is_reserved": 0, "fusion_lon": 0.0, "lat": 38.901089166666665, "is_disabled": 0, "name": "f6951548ce05c861670e7c020fe12e58", "fusion_lat": 0.0, "rental_uris": {"ios": "https://dc.lft.to/lastmile_qr_scan", "android": "https://dc.lft.to/lastmile_qr_scan"}, "lon": -77.0500425, "type": "electric_scooter"}, {"bike_id": "cc06d9b7e74c7fbe9164a80faa8f96cb", "is_reserved": 0, "fusion_lon": 0.0, "lat": 38.8972845, "is_disabled": 0, "name": "cc06d9b7e74c7fbe9164a80faa8f96cb", "fusion_lat": 0.0, "rental_uris": {"ios": "https://dc.lft.to/lastmile_qr_scan", "android": "https://dc.lft.to/lastmile_qr_scan"}, "lon": -77.055722, "type": "electric_scooter"}, {"bike_id": "e0ea6e2721cc6a2807aff867f7bb5892", "is_reserved": 0, "fusion_lon": 0.0, "lat": 38.89223533333333, "is_disabled": 0, "name": "e0ea6e2721cc6a2807aff867f7bb5892", "fusion_lat": 0.0, "rental_uris": {"ios": "https://dc.lft.to/lastmile_qr_scan", "android": "https://dc.lft.to/lastmile_qr_scan"}, "lon": -77.02624583333333, "type": "electric_scooter"}, {"bike_id": "aadd477b10e3aa4e7e16f5d375e57adf", "is_reserved": 0, "fusion_lon": 0.0, "lat": 38.885070166666665, "is_disabled": 0, "name": "aadd477b10e3aa4e7e16f5d375e57adf", "fusion_lat": 0.0, "rental_uris": {"ios": "https://dc.lft.to/lastmile_qr_scan", "android": "https://dc.lft.to/lastmile_qr_scan"}, "lon": -77.00564616666666, "type": "electric_scooter"}, {"bike_id": "02c19f6f4db0fad2b0a4b20cc5456fd4", "is_reserved": 0, "fusion_lon": 0.0, "lat": 38.904671, "is_disabled": 0, "name": "02c19f6f4db0fad2b0a4b20cc5456fd4", "fusion_lat": 0.0, "rental_uris": {"ios": "https://dc.lft.to/lastmile_qr_scan", "android": "https://dc.lft.to/lastmile_qr_scan"}, "lon": -77.03206016666667, "type": "electric_scooter"}, {"bike_id": "bd78f8c553bb074c6ea8b351889b1c2e", "is_reserved": 0, "fusion_lon": 0.0, "lat": 38.914062666666666, "is_disabled": 0, "name": "bd78f8c553bb074c6ea8b351889b1c2e", "fusion_lat": 0.0, "rental_uris": {"ios": "https://dc.lft.to/lastmile_qr_scan", "android": "https://dc.lft.to/lastmile_qr_scan"}, "lon": -77.0317675, "type": "electric_scooter"}, {"bike_id": "d09983158057305f302c0445de32e7f6", "is_reserved": 0, "fusion_lon": 0.0, "lat": 38.904408, "is_disabled": 0, "name": "d09983158057305f302c0445de32e7f6", "fusion_lat": 0.0, "rental_uris": {"ios": "https://dc.lft.to/lastmile_qr_scan", "android": "https://dc.lft.to/lastmile_qr_scan"}, "lon": -77.0327485, "type": "electric_scooter"}, {"bike_id": "257937f98805f50943d204ea1426ffb1", "is_reserved": 0, "fusion_lon": 0.0, "lat": 38.907303166666665, "is_disabled": 0, "name": "257937f98805f50943d204ea1426ffb1", "fusion_lat": 0.0, "rental_uris": {"ios": "https://dc.lft.to/lastmile_qr_scan", "android": "https://dc.lft.to/lastmile_qr_scan"}, "lon": -77.07036483333333, "type": "electric_bike"}, {"bike_id": "cc0342a37de15f5018c92e15123bf651", "is_reserved": 0, "fusion_lon": 0.0, "lat": 38.9203585, "is_disabled": 0, "name": "cc0342a37de15f5018c92e15123bf651", "fusion_lat": 0.0, "rental_uris": {"ios": "https://dc.lft.to/lastmile_qr_scan", "android": "https://dc.lft.to/lastmile_qr_scan"}, "lon": -77.01218533333333, "type": "electric_bike"}, {"bike_id": "12dc25ef63eb6c625525b46c6ad3413d", "is_reserved": 0, "fusion_lon": 0.0, "lat": 38.920723333333335, "is_disabled": 0, "name": "12dc25ef63eb6c625525b46c6ad3413d", "fusion_lat": 0.0, "rental_uris": {"ios": "https://dc.lft.to/lastmile_qr_scan", "android": "https://dc.lft.to/lastmile_qr_scan"}, "lon": -77.02431666666666, "type": "electric_scooter"}, {"bike_id": "015f78d1980dd809abc6ce92e3d47e66", "is_reserved": 0, "fusion_lon": 0.0, "lat": 38.9038595, "is_disabled": 0, "name": "015f78d1980dd809abc6ce92e3d47e66", "fusion_lat": 0.0, "rental_uris": {"ios": "https://dc.lft.to/lastmile_qr_scan", "android": "https://dc.lft.to/lastmile_qr_scan"}, "lon": -77.044597, "type": "electric_scooter"}, {"bike_id": "e408ab6a9ad1d0544eb5692b2a81c7f4", "is_reserved": 0, "fusion_lon": 0.0, "lat": 38.92243283333333, "is_disabled": 0, "name": "e408ab6a9ad1d0544eb5692b2a81c7f4", "fusion_lat": 0.0, "rental_uris": {"ios": "https://dc.lft.to/lastmile_qr_scan", "android": "https://dc.lft.to/lastmile_qr_scan"}, "lon": -77.03089216666666, "type": "electric_scooter"}, {"bike_id": "d8e73e488911917e53e199799eaa0ab4", "is_reserved": 0, "fusion_lon": 0.0, "lat": 38.90505533333334, "is_disabled": 0, "name": "d8e73e488911917e53e199799eaa0ab4", "fusion_lat": 0.0, "rental_uris": {"ios": "https://dc.lft.to/lastmile_qr_scan", "android": "https://dc.lft.to/lastmile_qr_scan"}, "lon": -76.99022516666666, "type": "electric_scooter"}, {"bike_id": "6e62cda7b3e6f842dbfaced34529d048", "is_reserved": 0, "fusion_lon": 0.0, "lat": 38.913571166666664, "is_disabled": 0, "name": "6e62cda7b3e6f842dbfaced34529d048", "fusion_lat": 0.0, "rental_uris": {"ios": "https://dc.lft.to/lastmile_qr_scan", "android": "https://dc.lft.to/lastmile_qr_scan"}, "lon": -77.01758, "type": "electric_scooter"}, {"bike_id": "b26275d40ae85771824fb51a51b84879", "is_reserved": 0, "fusion_lon": 0.0, "lat": 38.90466516666667, "is_disabled": 0, "name": "b26275d40ae85771824fb51a51b84879", "fusion_lat": 0.0, "rental_uris": {"ios": "https://dc.lft.to/lastmile_qr_scan", "android": "https://dc.lft.to/lastmile_qr_scan"}, "lon": -77.04360883333334, "type": "electric_scooter"}, {"bike_id": "f5e890b3d756fb76b38ea22148766bb5", "is_reserved": 0, "fusion_lon": 0.0, "lat": 38.926480166666664, "is_disabled": 0, "name": "f5e890b3d756fb76b38ea22148766bb5", "fusion_lat": 0.0, "rental_uris": {"ios": "https://dc.lft.to/lastmile_qr_scan", "android": "https://dc.lft.to/lastmile_qr_scan"}, "lon": -77.03847316666666, "type": "electric_scooter"}, {"bike_id": "1a1eff166273af7b540d4c441921566e", "is_reserved": 0, "fusion_lon": 0.0, "lat": 38.90720916666667, "is_disabled": 0, "name": "1a1eff166273af7b540d4c441921566e", "fusion_lat": 0.0, "rental_uris": {"ios": "https://dc.lft.to/lastmile_qr_scan", "android": "https://dc.lft.to/lastmile_qr_scan"}, "lon": -77.00363733333333, "type": "electric_scooter"}, {"bike_id": "25cc30663ed05f4354444ae71de4d3c8", "is_reserved": 0, "fusion_lon": 0.0, "lat": 38.89195733333333, "is_disabled": 0, "name": "25cc30663ed05f4354444ae71de4d3c8", "fusion_lat": 0.0, "rental_uris": {"ios": "https://dc.lft.to/lastmile_qr_scan", "android": "https://dc.lft.to/lastmile_qr_scan"}, "lon": -77.02980066666667, "type": "electric_scooter"}, {"bike_id": "a7b5823ed15d0432c6baa0c388f6494d", "is_reserved": 0, "fusion_lon": 0.0, "lat": 38.90850483333333, "is_disabled": 0, "name": "a7b5823ed15d0432c6baa0c388f6494d", "fusion_lat": 0.0, "rental_uris": {"ios": "https://dc.lft.to/lastmile_qr_scan", "android": "https://dc.lft.to/lastmile_qr_scan"}, "lon": -77.04420083333333, "type": "electric_scooter"}, {"bike_id": "10cde2c1772d802bcb2579870b501f4a", "is_reserved": 0, "fusion_lon": 0.0, "lat": 38.89001866666667, "is_disabled": 0, "name": "10cde2c1772d802bcb2579870b501f4a", "fusion_lat": 0.0, "rental_uris": {"ios": "https://dc.lft.to/lastmile_qr_scan", "android": "https://dc.lft.to/lastmile_qr_scan"}, "lon": -77.04898183333333, "type": "electric_scooter"}, {"bike_id": "a8671f55f4cc3022eb1c252b281ff574", "is_reserved": 0, "fusion_lon": 0.0, "lat": 38.898206, "is_disabled": 0, "name": "a8671f55f4cc3022eb1c252b281ff574", "fusion_lat": 0.0, "rental_uris": {"ios": "https://dc.lft.to/lastmile_qr_scan", "android": "https://dc.lft.to/lastmile_qr_scan"}, "lon": -77.03310366666666, "type": "electric_scooter"}, {"bike_id": "03d859b5d2ea18e39114a480e8c84adf", "is_reserved": 0, "fusion_lon": 0.0, "lat": 38.89388116666667, "is_disabled": 0, "name": "03d859b5d2ea18e39114a480e8c84adf", "fusion_lat": 0.0, "rental_uris": {"ios": "https://dc.lft.to/lastmile_qr_scan", "android": "https://dc.lft.to/lastmile_qr_scan"}, "lon": -77.02254666666667, "type": "electric_bike"}, {"bike_id": "51adeb22d7abe234c1124b9f735eae28", "is_reserved": 0, "fusion_lon": 0.0, "lat": 38.93251166666667, "is_disabled": 0, "name": "51adeb22d7abe234c1124b9f735eae28", "fusion_lat": 0.0, "rental_uris": {"ios": "https://dc.lft.to/lastmile_qr_scan", "android": "https://dc.lft.to/lastmile_qr_scan"}, "lon": -77.03279983333333, "type": "electric_scooter"}, {"bike_id": "756602ee94022fb7851180d5723c9e9c", "is_reserved": 0, "fusion_lon": 0.0, "lat": 38.90268416666667, "is_disabled": 0, "name": "756602ee94022fb7851180d5723c9e9c", "fusion_lat": 0.0, "rental_uris": {"ios": "https://dc.lft.to/lastmile_qr_scan", "android": "https://dc.lft.to/lastmile_qr_scan"}, "lon": -77.05919566666667, "type": "electric_scooter"}, {"bike_id": "82ec2cda1f0186cb13c9703a912f8360", "is_reserved": 0, "fusion_lon": 0.0, "lat": 38.922453, "is_disabled": 0, "name": "82ec2cda1f0186cb13c9703a912f8360", "fusion_lat": 0.0, "rental_uris": {"ios": "https://dc.lft.to/lastmile_qr_scan", "android": "https://dc.lft.to/lastmile_qr_scan"}, "lon": -77.01005033333334, "type": "electric_scooter"}, {"bike_id": "d540d96b20a5dc843dfb32cd4cf3ffb3", "is_reserved": 0, "fusion_lon": 0.0, "lat": 38.90685366666666, "is_disabled": 0, "name": "d540d96b20a5dc843dfb32cd4cf3ffb3", "fusion_lat": 0.0, "rental_uris": {"ios": "https://dc.lft.to/lastmile_qr_scan", "android": "https://dc.lft.to/lastmile_qr_scan"}, "lon": -77.013463, "type": "electric_scooter"}, {"bike_id": "95070788bb555b21cfc5eff014a7c355", "is_reserved": 0, "fusion_lon": 0.0, "lat": 38.891938333333336, "is_disabled": 0, "name": "95070788bb555b21cfc5eff014a7c355", "fusion_lat": 0.0, "rental_uris": {"ios": "https://dc.lft.to/lastmile_qr_scan", "android": "https://dc.lft.to/lastmile_qr_scan"}, "lon": -77.002444, "type": "electric_bike"}, {"bike_id": "87b40e0bd93452d79563b46d8bd0ccc2", "is_reserved": 0, "fusion_lon": 0.0, "lat": 38.90727866666667, "is_disabled": 0, "name": "87b40e0bd93452d79563b46d8bd0ccc2", "fusion_lat": 0.0, "rental_uris": {"ios": "https://dc.lft.to/lastmile_qr_scan", "android": "https://dc.lft.to/lastmile_qr_scan"}, "lon": -77.0435135, "type": "electric_scooter"}, {"bike_id": "103e495a12c8da2300fbec4a398b59d4", "is_reserved": 0, "fusion_lon": 0.0, "lat": 38.869075333333335, "is_disabled": 0, "name": "103e495a12c8da2300fbec4a398b59d4", "fusion_lat": 0.0, "rental_uris": {"ios": "https://dc.lft.to/lastmile_qr_scan", "android": "https://dc.lft.to/lastmile_qr_scan"}, "lon": -77.13183616666667, "type": "electric_bike"}, {"bike_id": "d78efe4a517f5d4ecb3da92cbbc4c878", "is_reserved": 0, "fusion_lon": 0.0, "lat": 38.92904766666667, "is_disabled": 0, "name": "d78efe4a517f5d4ecb3da92cbbc4c878", "fusion_lat": 0.0, "rental_uris": {"ios": "https://dc.lft.to/lastmile_qr_scan", "android": "https://dc.lft.to/lastmile_qr_scan"}, "lon": -77.03171016666667, "type": "electric_scooter"}, {"bike_id": "27ebb46b1d5a4c4f8d6f7f438629f770", "is_reserved": 0, "fusion_lon": 0.0, "lat": 38.918040833333336, "is_disabled": 0, "name": "27ebb46b1d5a4c4f8d6f7f438629f770", "fusion_lat": 0.0, "rental_uris": {"ios": "https://dc.lft.to/lastmile_qr_scan", "android": "https://dc.lft.to/lastmile_qr_scan"}, "lon": -77.03210783333333, "type": "electric_scooter"}, {"bike_id": "ee92cfa4472fbf2049c36fd741cf4316", "is_reserved": 0, "fusion_lon": 0.0, "lat": 38.916842, "is_disabled": 0, "name": "ee92cfa4472fbf2049c36fd741cf4316", "fusion_lat": 0.0, "rental_uris": {"ios": "https://dc.lft.to/lastmile_qr_scan", "android": "https://dc.lft.to/lastmile_qr_scan"}, "lon": -77.02958466666666, "type": "electric_scooter"}, {"bike_id": "741eabb586045f4d66df1682ba7abfc4", "is_reserved": 0, "fusion_lon": 0.0, "lat": 38.8959565, "is_disabled": 0, "name": "741eabb586045f4d66df1682ba7abfc4", "fusion_lat": 0.0, "rental_uris": {"ios": "https://dc.lft.to/lastmile_qr_scan", "android": "https://dc.lft.to/lastmile_qr_scan"}, "lon": -77.02840033333334, "type": "electric_scooter"}, {"bike_id": "4a13555244637b4540ee5e59362cec77", "is_reserved": 0, "fusion_lon": 0.0, "lat": 38.922485333333334, "is_disabled": 0, "name": "4a13555244637b4540ee5e59362cec77", "fusion_lat": 0.0, "rental_uris": {"ios": "https://dc.lft.to/lastmile_qr_scan", "android": "https://dc.lft.to/lastmile_qr_scan"}, "lon": -77.03065233333334, "type": "electric_scooter"}, {"bike_id": "b3d5c308214bd02df648f620dadb602d", "is_reserved": 0, "fusion_lon": 0.0, "lat": 38.8962685, "is_disabled": 0, "name": "b3d5c308214bd02df648f620dadb602d", "fusion_lat": 0.0, "rental_uris": {"ios": "https://dc.lft.to/lastmile_qr_scan", "android": "https://dc.lft.to/lastmile_qr_scan"}, "lon": -76.99844333333333, "type": "electric_scooter"}, {"bike_id": "f30a81ba204380bf2b9628a0c6195175", "is_reserved": 0, "fusion_lon": 0.0, "lat": 38.905973833333334, "is_disabled": 0, "name": "f30a81ba204380bf2b9628a0c6195175", "fusion_lat": 0.0, "rental_uris": {"ios": "https://dc.lft.to/lastmile_qr_scan", "android": "https://dc.lft.to/lastmile_qr_scan"}, "lon": -77.01327283333333, "type": "electric_scooter"}, {"bike_id": "ec8aeebda16832c88ffeea21f3c9437d", "is_reserved": 0, "fusion_lon": 0.0, "lat": 38.930813, "is_disabled": 0, "name": "ec8aeebda16832c88ffeea21f3c9437d", "fusion_lat": 0.0, "rental_uris": {"ios": "https://dc.lft.to/lastmile_qr_scan", "android": "https://dc.lft.to/lastmile_qr_scan"}, "lon": -77.02797083333333, "type": "electric_scooter"}, {"bike_id": "4d6624c6124f36cb7f79eb62e79bb0c7", "is_reserved": 0, "fusion_lon": 0.0, "lat": 38.92359166666667, "is_disabled": 0, "name": "4d6624c6124f36cb7f79eb62e79bb0c7", "fusion_lat": 0.0, "rental_uris": {"ios": "https://dc.lft.to/lastmile_qr_scan", "android": "https://dc.lft.to/lastmile_qr_scan"}, "lon": -77.05243133333333, "type": "electric_scooter"}, {"bike_id": "de95a62dbf5d505b79a8464467ebe11d", "is_reserved": 0, "fusion_lon": 0.0, "lat": 38.92474333333333, "is_disabled": 0, "name": "de95a62dbf5d505b79a8464467ebe11d", "fusion_lat": 0.0, "rental_uris": {"ios": "https://dc.lft.to/lastmile_qr_scan", "android": "https://dc.lft.to/lastmile_qr_scan"}, "lon": -77.0283045, "type": "electric_scooter"}, {"bike_id": "bc538b9b138e25e1664bf13ce24d231b", "is_reserved": 0, "fusion_lon": 0.0, "lat": 38.93029033333333, "is_disabled": 0, "name": "bc538b9b138e25e1664bf13ce24d231b", "fusion_lat": 0.0, "rental_uris": {"ios": "https://dc.lft.to/lastmile_qr_scan", "android": "https://dc.lft.to/lastmile_qr_scan"}, "lon": -77.02355316666667, "type": "electric_scooter"}, {"bike_id": "bb95d74e263b6a2b13c7c0f87a3fe502", "is_reserved": 0, "fusion_lon": 0.0, "lat": 38.89475183333333, "is_disabled": 0, "name": "bb95d74e263b6a2b13c7c0f87a3fe502", "fusion_lat": 0.0, "rental_uris": {"ios": "https://dc.lft.to/lastmile_qr_scan", "android": "https://dc.lft.to/lastmile_qr_scan"}, "lon": -76.995402, "type": "electric_scooter"}, {"bike_id": "bdb7dddad513daa667c63ce7aee59c18", "is_reserved": 0, "fusion_lon": 0.0, "lat": 38.930688, "is_disabled": 0, "name": "bdb7dddad513daa667c63ce7aee59c18", "fusion_lat": 0.0, "rental_uris": {"ios": "https://dc.lft.to/lastmile_qr_scan", "android": "https://dc.lft.to/lastmile_qr_scan"}, "lon": -77.031807, "type": "electric_scooter"}, {"bike_id": "5446687c510235138bb941b9034598ad", "is_reserved": 0, "fusion_lon": 0.0, "lat": 38.884168333333335, "is_disabled": 0, "name": "5446687c510235138bb941b9034598ad", "fusion_lat": 0.0, "rental_uris": {"ios": "https://dc.lft.to/lastmile_qr_scan", "android": "https://dc.lft.to/lastmile_qr_scan"}, "lon": -77.017448, "type": "electric_scooter"}, {"bike_id": "073ce5cb930d1474831cef809d974efe", "is_reserved": 0, "fusion_lon": 0.0, "lat": 38.93207016666667, "is_disabled": 0, "name": "073ce5cb930d1474831cef809d974efe", "fusion_lat": 0.0, "rental_uris": {"ios": "https://dc.lft.to/lastmile_qr_scan", "android": "https://dc.lft.to/lastmile_qr_scan"}, "lon": -77.03845166666666, "type": "electric_scooter"}, {"bike_id": "ed84af0ee26418e47df5d6c28713a834", "is_reserved": 0, "fusion_lon": 0.0, "lat": 38.8863345, "is_disabled": 0, "name": "ed84af0ee26418e47df5d6c28713a834", "fusion_lat": 0.0, "rental_uris": {"ios": "https://dc.lft.to/lastmile_qr_scan", "android": "https://dc.lft.to/lastmile_qr_scan"}, "lon": -77.01527633333333, "type": "electric_scooter"}, {"bike_id": "b4ad72ff3240868e6453bf362b946633", "is_reserved": 0, "fusion_lon": 0.0, "lat": 38.90349883333333, "is_disabled": 0, "name": "b4ad72ff3240868e6453bf362b946633", "fusion_lat": 0.0, "rental_uris": {"ios": "https://dc.lft.to/lastmile_qr_scan", "android": "https://dc.lft.to/lastmile_qr_scan"}, "lon": -77.03868083333333, "type": "electric_scooter"}, {"bike_id": "7e92d0e626e572e76ac59da3a6a47385", "is_reserved": 0, "fusion_lon": 0.0, "lat": 38.90006533333333, "is_disabled": 0, "name": "7e92d0e626e572e76ac59da3a6a47385", "fusion_lat": 0.0, "rental_uris": {"ios": "https://dc.lft.to/lastmile_qr_scan", "android": "https://dc.lft.to/lastmile_qr_scan"}, "lon": -77.0303045, "type": "electric_scooter"}, {"bike_id": "ee990852fa55e41c189c5a649e9f0514", "is_reserved": 0, "fusion_lon": 0.0, "lat": 38.9024035, "is_disabled": 0, "name": "ee990852fa55e41c189c5a649e9f0514", "fusion_lat": 0.0, "rental_uris": {"ios": "https://dc.lft.to/lastmile_qr_scan", "android": "https://dc.lft.to/lastmile_qr_scan"}, "lon": -77.02977916666667, "type": "electric_scooter"}, {"bike_id": "6c3663682354f24b7399f42454abfed1", "is_reserved": 0, "fusion_lon": 0.0, "lat": 39.038808333333336, "is_disabled": 0, "name": "6c3663682354f24b7399f42454abfed1", "fusion_lat": 0.0, "rental_uris": {"ios": "https://dc.lft.to/lastmile_qr_scan", "android": "https://dc.lft.to/lastmile_qr_scan"}, "lon": -76.99041233333334, "type": "electric_bike"}, {"bike_id": "5b27b376baa0480cf5df4af41c40a426", "is_reserved": 0, "fusion_lon": 0.0, "lat": 38.91666383333333, "is_disabled": 0, "name": "5b27b376baa0480cf5df4af41c40a426", "fusion_lat": 0.0, "rental_uris": {"ios": "https://dc.lft.to/lastmile_qr_scan", "android": "https://dc.lft.to/lastmile_qr_scan"}, "lon": -77.03213016666666, "type": "electric_scooter"}, {"bike_id": "03da0480e29f80d85ed3d84d3844ccf7", "is_reserved": 0, "fusion_lon": 0.0, "lat": 38.8921755, "is_disabled": 0, "name": "03da0480e29f80d85ed3d84d3844ccf7", "fusion_lat": 0.0, "rental_uris": {"ios": "https://dc.lft.to/lastmile_qr_scan", "android": "https://dc.lft.to/lastmile_qr_scan"}, "lon": -77.02445233333333, "type": "electric_scooter"}, {"bike_id": "0b1b9d1146d5adc2d9a8310980f86373", "is_reserved": 0, "fusion_lon": 0.0, "lat": 38.914329333333335, "is_disabled": 0, "name": "0b1b9d1146d5adc2d9a8310980f86373", "fusion_lat": 0.0, "rental_uris": {"ios": "https://dc.lft.to/lastmile_qr_scan", "android": "https://dc.lft.to/lastmile_qr_scan"}, "lon": -77.04488716666667, "type": "electric_scooter"}, {"bike_id": "71e5ba1a640b9149b6afe81a236f7b19", "is_reserved": 0, "fusion_lon": 0.0, "lat": 38.894696833333334, "is_disabled": 0, "name": "71e5ba1a640b9149b6afe81a236f7b19", "fusion_lat": 0.0, "rental_uris": {"ios": "https://dc.lft.to/lastmile_qr_scan", "android": "https://dc.lft.to/lastmile_qr_scan"}, "lon": -77.02755966666666, "type": "electric_scooter"}, {"bike_id": "2aca6903dfad6a0396a26e45677a7701", "is_reserved": 0, "fusion_lon": 0.0, "lat": 38.909727333333336, "is_disabled": 0, "name": "2aca6903dfad6a0396a26e45677a7701", "fusion_lat": 0.0, "rental_uris": {"ios": "https://dc.lft.to/lastmile_qr_scan", "android": "https://dc.lft.to/lastmile_qr_scan"}, "lon": -77.02302183333333, "type": "electric_scooter"}, {"bike_id": "3ab7e85acb0a9c8a6c5af49a4da8ca0a", "is_reserved": 0, "fusion_lon": 0.0, "lat": 38.906122, "is_disabled": 0, "name": "3ab7e85acb0a9c8a6c5af49a4da8ca0a", "fusion_lat": 0.0, "rental_uris": {"ios": "https://dc.lft.to/lastmile_qr_scan", "android": "https://dc.lft.to/lastmile_qr_scan"}, "lon": -77.07490116666666, "type": "electric_scooter"}, {"bike_id": "fab2fa75c34df2e7f126ac7e998d1135", "is_reserved": 0, "fusion_lon": 0.0, "lat": 38.90823833333334, "is_disabled": 0, "name": "fab2fa75c34df2e7f126ac7e998d1135", "fusion_lat": 0.0, "rental_uris": {"ios": "https://dc.lft.to/lastmile_qr_scan", "android": "https://dc.lft.to/lastmile_qr_scan"}, "lon": -77.0435115, "type": "electric_scooter"}, {"bike_id": "1af38930b2e6f09d4e127d5db21e58ab", "is_reserved": 0, "fusion_lon": 0.0, "lat": 38.93956683333333, "is_disabled": 0, "name": "1af38930b2e6f09d4e127d5db21e58ab", "fusion_lat": 0.0, "rental_uris": {"ios": "https://dc.lft.to/lastmile_qr_scan", "android": "https://dc.lft.to/lastmile_qr_scan"}, "lon": -77.072433, "type": "electric_scooter"}, {"bike_id": "7b6eed76a6e000542c26b2639e87160b", "is_reserved": 0, "fusion_lon": 0.0, "lat": 38.903768, "is_disabled": 0, "name": "7b6eed76a6e000542c26b2639e87160b", "fusion_lat": 0.0, "rental_uris": {"ios": "https://dc.lft.to/lastmile_qr_scan", "android": "https://dc.lft.to/lastmile_qr_scan"}, "lon": -77.0417915, "type": "electric_scooter"}, {"bike_id": "5e027c69c0737e5785e82ed69894443c", "is_reserved": 0, "fusion_lon": 0.0, "lat": 38.901056833333335, "is_disabled": 0, "name": "5e027c69c0737e5785e82ed69894443c", "fusion_lat": 0.0, "rental_uris": {"ios": "https://dc.lft.to/lastmile_qr_scan", "android": "https://dc.lft.to/lastmile_qr_scan"}, "lon": -77.04335983333333, "type": "electric_scooter"}, {"bike_id": "aa1466548d3ed62d75f42d037a269d1c", "is_reserved": 0, "fusion_lon": 0.0, "lat": 38.884910166666664, "is_disabled": 0, "name": "aa1466548d3ed62d75f42d037a269d1c", "fusion_lat": 0.0, "rental_uris": {"ios": "https://dc.lft.to/lastmile_qr_scan", "android": "https://dc.lft.to/lastmile_qr_scan"}, "lon": -77.00721383333334, "type": "electric_scooter"}, {"bike_id": "a2113a00c560143592a7ded5392f53f1", "is_reserved": 0, "fusion_lon": 0.0, "lat": 38.880260666666665, "is_disabled": 0, "name": "a2113a00c560143592a7ded5392f53f1", "fusion_lat": 0.0, "rental_uris": {"ios": "https://dc.lft.to/lastmile_qr_scan", "android": "https://dc.lft.to/lastmile_qr_scan"}, "lon": -76.98831783333333, "type": "electric_scooter"}, {"bike_id": "f2d22904a5b3fb9e28e4cbd979df774b", "is_reserved": 0, "fusion_lon": 0.0, "lat": 38.87125116666667, "is_disabled": 0, "name": "f2d22904a5b3fb9e28e4cbd979df774b", "fusion_lat": 0.0, "rental_uris": {"ios": "https://dc.lft.to/lastmile_qr_scan", "android": "https://dc.lft.to/lastmile_qr_scan"}, "lon": -77.0060365, "type": "electric_scooter"}, {"bike_id": "6757e04527e5b6847aee5f09b67e2559", "is_reserved": 0, "fusion_lon": 0.0, "lat": 38.9108855, "is_disabled": 0, "name": "6757e04527e5b6847aee5f09b67e2559", "fusion_lat": 0.0, "rental_uris": {"ios": "https://dc.lft.to/lastmile_qr_scan", "android": "https://dc.lft.to/lastmile_qr_scan"}, "lon": -77.03857383333333, "type": "electric_scooter"}, {"bike_id": "4fcc5d0397c392caa415ee2d2276b5c2", "is_reserved": 0, "fusion_lon": 0.0, "lat": 38.95909916666667, "is_disabled": 0, "name": "4fcc5d0397c392caa415ee2d2276b5c2", "fusion_lat": 0.0, "rental_uris": {"ios": "https://dc.lft.to/lastmile_qr_scan", "android": "https://dc.lft.to/lastmile_qr_scan"}, "lon": -77.08082433333334, "type": "electric_scooter"}, {"bike_id": "5bab6f927633509a21337c457604040d", "is_reserved": 0, "fusion_lon": 0.0, "lat": 38.918103333333335, "is_disabled": 0, "name": "5bab6f927633509a21337c457604040d", "fusion_lat": 0.0, "rental_uris": {"ios": "https://dc.lft.to/lastmile_qr_scan", "android": "https://dc.lft.to/lastmile_qr_scan"}, "lon": -77.03438733333333, "type": "electric_scooter"}, {"bike_id": "55616a29309d0c421294326a2bf38059", "is_reserved": 0, "fusion_lon": 0.0, "lat": 38.883135833333334, "is_disabled": 0, "name": "55616a29309d0c421294326a2bf38059", "fusion_lat": 0.0, "rental_uris": {"ios": "https://dc.lft.to/lastmile_qr_scan", "android": "https://dc.lft.to/lastmile_qr_scan"}, "lon": -77.006, "type": "electric_scooter"}, {"bike_id": "0b0d5a0ecae5a72d7d231f55c7898f51", "is_reserved": 0, "fusion_lon": 0.0, "lat": 38.93400916666667, "is_disabled": 0, "name": "0b0d5a0ecae5a72d7d231f55c7898f51", "fusion_lat": 0.0, "rental_uris": {"ios": "https://dc.lft.to/lastmile_qr_scan", "android": "https://dc.lft.to/lastmile_qr_scan"}, "lon": -77.038848, "type": "electric_scooter"}, {"bike_id": "bd9f20a7027e071e0eef766af3e4eabe", "is_reserved": 0, "fusion_lon": 0.0, "lat": 38.930938833333336, "is_disabled": 0, "name": "bd9f20a7027e071e0eef766af3e4eabe", "fusion_lat": 0.0, "rental_uris": {"ios": "https://dc.lft.to/lastmile_qr_scan", "android": "https://dc.lft.to/lastmile_qr_scan"}, "lon": -77.02510316666667, "type": "electric_scooter"}, {"bike_id": "edb7d61878c010f09d2b742aff155436", "is_reserved": 0, "fusion_lon": 0.0, "lat": 38.906359333333334, "is_disabled": 0, "name": "edb7d61878c010f09d2b742aff155436", "fusion_lat": 0.0, "rental_uris": {"ios": "https://dc.lft.to/lastmile_qr_scan", "android": "https://dc.lft.to/lastmile_qr_scan"}, "lon": -77.041635, "type": "electric_scooter"}, {"bike_id": "06b36c69c488f336df29735d595e726e", "is_reserved": 0, "fusion_lon": 0.0, "lat": 38.8506815, "is_disabled": 0, "name": "06b36c69c488f336df29735d595e726e", "fusion_lat": 0.0, "rental_uris": {"ios": "https://dc.lft.to/lastmile_qr_scan", "android": "https://dc.lft.to/lastmile_qr_scan"}, "lon": -76.97333483333334, "type": "electric_bike"}, {"bike_id": "0937aac68e3e2018e84d67228f136309", "is_reserved": 0, "fusion_lon": 0.0, "lat": 38.89810683333333, "is_disabled": 0, "name": "0937aac68e3e2018e84d67228f136309", "fusion_lat": 0.0, "rental_uris": {"ios": "https://dc.lft.to/lastmile_qr_scan", "android": "https://dc.lft.to/lastmile_qr_scan"}, "lon": -77.00604033333333, "type": "electric_bike"}, {"bike_id": "0d58bb269ec827678e8eeaf11f14a5bb", "is_reserved": 0, "fusion_lon": 0.0, "lat": 38.90371366666667, "is_disabled": 0, "name": "0d58bb269ec827678e8eeaf11f14a5bb", "fusion_lat": 0.0, "rental_uris": {"ios": "https://dc.lft.to/lastmile_qr_scan", "android": "https://dc.lft.to/lastmile_qr_scan"}, "lon": -77.0401825, "type": "electric_scooter"}, {"bike_id": "7f24beaa3fe278212e96dfdf9fe0671a", "is_reserved": 0, "fusion_lon": 0.0, "lat": 38.907221166666666, "is_disabled": 0, "name": "7f24beaa3fe278212e96dfdf9fe0671a", "fusion_lat": 0.0, "rental_uris": {"ios": "https://dc.lft.to/lastmile_qr_scan", "android": "https://dc.lft.to/lastmile_qr_scan"}, "lon": -76.98601666666667, "type": "electric_scooter"}, {"bike_id": "ae1732717dd439dd20f2673188e303a1", "is_reserved": 0, "fusion_lon": 0.0, "lat": 38.91915266666667, "is_disabled": 0, "name": "ae1732717dd439dd20f2673188e303a1", "fusion_lat": 0.0, "rental_uris": {"ios": "https://dc.lft.to/lastmile_qr_scan", "android": "https://dc.lft.to/lastmile_qr_scan"}, "lon": -77.04175183333334, "type": "electric_scooter"}, {"bike_id": "112d1df0898b24e8c922a17298a97723", "is_reserved": 0, "fusion_lon": 0.0, "lat": 38.90383933333333, "is_disabled": 0, "name": "112d1df0898b24e8c922a17298a97723", "fusion_lat": 0.0, "rental_uris": {"ios": "https://dc.lft.to/lastmile_qr_scan", "android": "https://dc.lft.to/lastmile_qr_scan"}, "lon": -77.04490016666666, "type": "electric_scooter"}, {"bike_id": "2d34f0d43dfec037539a5f17d654c53d", "is_reserved": 0, "fusion_lon": 0.0, "lat": 38.91564283333334, "is_disabled": 0, "name": "2d34f0d43dfec037539a5f17d654c53d", "fusion_lat": 0.0, "rental_uris": {"ios": "https://dc.lft.to/lastmile_qr_scan", "android": "https://dc.lft.to/lastmile_qr_scan"}, "lon": -77.037664, "type": "electric_scooter"}, {"bike_id": "92a71174620e1e5d9cbbff7c179e256b", "is_reserved": 0, "fusion_lon": 0.0, "lat": 38.916967666666665, "is_disabled": 0, "name": "92a71174620e1e5d9cbbff7c179e256b", "fusion_lat": 0.0, "rental_uris": {"ios": "https://dc.lft.to/lastmile_qr_scan", "android": "https://dc.lft.to/lastmile_qr_scan"}, "lon": -77.00810916666667, "type": "electric_scooter"}, {"bike_id": "4b22e0175a22cdb0f90eebb628311f23", "is_reserved": 0, "fusion_lon": 0.0, "lat": 38.940107, "is_disabled": 0, "name": "4b22e0175a22cdb0f90eebb628311f23", "fusion_lat": 0.0, "rental_uris": {"ios": "https://dc.lft.to/lastmile_qr_scan", "android": "https://dc.lft.to/lastmile_qr_scan"}, "lon": -77.07174666666667, "type": "electric_scooter"}, {"bike_id": "491dc6edc6d3ae10cfb9de8c5647e7a2", "is_reserved": 0, "fusion_lon": 0.0, "lat": 38.9153055, "is_disabled": 0, "name": "491dc6edc6d3ae10cfb9de8c5647e7a2", "fusion_lat": 0.0, "rental_uris": {"ios": "https://dc.lft.to/lastmile_qr_scan", "android": "https://dc.lft.to/lastmile_qr_scan"}, "lon": -77.043424, "type": "electric_scooter"}, {"bike_id": "dcd9054c5d123c3734a13cf4dd37c140", "is_reserved": 0, "fusion_lon": 0.0, "lat": 38.9036675, "is_disabled": 0, "name": "dcd9054c5d123c3734a13cf4dd37c140", "fusion_lat": 0.0, "rental_uris": {"ios": "https://dc.lft.to/lastmile_qr_scan", "android": "https://dc.lft.to/lastmile_qr_scan"}, "lon": -77.0218105, "type": "electric_scooter"}, {"bike_id": "8445cf3388193e5738383f3fd6caa3e9", "is_reserved": 0, "fusion_lon": 0.0, "lat": 38.9198925, "is_disabled": 0, "name": "8445cf3388193e5738383f3fd6caa3e9", "fusion_lat": 0.0, "rental_uris": {"ios": "https://dc.lft.to/lastmile_qr_scan", "android": "https://dc.lft.to/lastmile_qr_scan"}, "lon": -77.03494116666667, "type": "electric_scooter"}, {"bike_id": "f2e179e11aaf5fdddee5b033884400d1", "is_reserved": 0, "fusion_lon": 0.0, "lat": 38.900876833333335, "is_disabled": 0, "name": "f2e179e11aaf5fdddee5b033884400d1", "fusion_lat": 0.0, "rental_uris": {"ios": "https://dc.lft.to/lastmile_qr_scan", "android": "https://dc.lft.to/lastmile_qr_scan"}, "lon": -77.050291, "type": "electric_scooter"}, {"bike_id": "3a0e36f0364ef8553fba0b80752d6970", "is_reserved": 0, "fusion_lon": 0.0, "lat": 38.8398175, "is_disabled": 0, "name": "3a0e36f0364ef8553fba0b80752d6970", "fusion_lat": 0.0, "rental_uris": {"ios": "https://dc.lft.to/lastmile_qr_scan", "android": "https://dc.lft.to/lastmile_qr_scan"}, "lon": -77.00576266666667, "type": "electric_bike"}, {"bike_id": "1b2142039a3486ef54a972a6ebbb1974", "is_reserved": 0, "fusion_lon": 0.0, "lat": 38.93770216666667, "is_disabled": 0, "name": "1b2142039a3486ef54a972a6ebbb1974", "fusion_lat": 0.0, "rental_uris": {"ios": "https://dc.lft.to/lastmile_qr_scan", "android": "https://dc.lft.to/lastmile_qr_scan"}, "lon": -77.0226485, "type": "electric_scooter"}, {"bike_id": "15403221dafed120abd56e7752643c4c", "is_reserved": 0, "fusion_lon": 0.0, "lat": 38.900699833333334, "is_disabled": 0, "name": "15403221dafed120abd56e7752643c4c", "fusion_lat": 0.0, "rental_uris": {"ios": "https://dc.lft.to/lastmile_qr_scan", "android": "https://dc.lft.to/lastmile_qr_scan"}, "lon": -77.05132433333333, "type": "electric_scooter"}, {"bike_id": "95188fe4d04899630622f32f58fdf56c", "is_reserved": 0, "fusion_lon": 0.0, "lat": 38.91419066666667, "is_disabled": 0, "name": "95188fe4d04899630622f32f58fdf56c", "fusion_lat": 0.0, "rental_uris": {"ios": "https://dc.lft.to/lastmile_qr_scan", "android": "https://dc.lft.to/lastmile_qr_scan"}, "lon": -77.03811133333333, "type": "electric_scooter"}, {"bike_id": "81bbe39e5519b1dbdcdab0aa0900a60f", "is_reserved": 0, "fusion_lon": 0.0, "lat": 38.93080716666667, "is_disabled": 0, "name": "81bbe39e5519b1dbdcdab0aa0900a60f", "fusion_lat": 0.0, "rental_uris": {"ios": "https://dc.lft.to/lastmile_qr_scan", "android": "https://dc.lft.to/lastmile_qr_scan"}, "lon": -77.02798883333334, "type": "electric_scooter"}, {"bike_id": "9a346eb4d5f5abf32f8a4982e3a9e691", "is_reserved": 0, "fusion_lon": 0.0, "lat": 38.90320833333333, "is_disabled": 0, "name": "9a346eb4d5f5abf32f8a4982e3a9e691", "fusion_lat": 0.0, "rental_uris": {"ios": "https://dc.lft.to/lastmile_qr_scan", "android": "https://dc.lft.to/lastmile_qr_scan"}, "lon": -77.05172633333333, "type": "electric_scooter"},