{"data": {"bikes": [{"name": "c53b3c01bbe0a2e1623d368a899961e8", "fusion_lon": 0.0, "lat": 38.92600933333333, "is_reserved": 0, "type": "electric_scooter", "bike_id": "c53b3c01bbe0a2e1623d368a899961e8", "is_disabled": 0, "rental_uris": {"android": "https://dc.lft.to/lastmile_qr_scan", "ios": "https://dc.lft.to/lastmile_qr_scan"}, "lon": -77.0662205, "fusion_lat": 0.0}, {"name": "09e2b2af2e7171f8c6a069e765783dc0", "fusion_lon": 0.0, "lat": 38.90030766666667, "is_reserved": 0, "type": "electric_scooter", "bike_id": "09e2b2af2e7171f8c6a069e765783dc0", "is_disabled": 0, "rental_uris": {"android": "https://dc.lft.to/lastmile_qr_scan", "ios": "https://dc.lft.to/lastmile_qr_scan"}, "lon": -77.01760766666666, "fusion_lat": 0.0}, {"name": "e1dcdf0612fd62907acee063966584c1", "fusion_lon": 0.0, "lat": 38.951827, "is_reserved": 0, "type": "electric_scooter", "bike_id": "e1dcdf0612fd62907acee063966584c1", "is_disabled": 0, "rental_uris": {"android": "https://dc.lft.to/lastmile_qr_scan", "ios": "https://dc.lft.to/lastmile_qr_scan"}, "lon": -77.02720666666667, "fusion_lat": 0.0}, {"name": "5a65654f2ef07db20dbb56704df1d3e3", "fusion_lon": 0.0, "lat": 38.900075333333334, "is_reserved": 0, "type": "electric_scooter", "bike_id": "5a65654f2ef07db20dbb56704df1d3e3", "is_disabled": 0, "rental_uris": {"android": "https://dc.lft.to/lastmile_qr_scan", "ios": "https://dc.lft.to/lastmile_qr_scan"}, "lon": -76.9970445, "fusion_lat": 0.0}, {"name": "e4dafe9fe9b6b2941e654fb772162e07", "fusion_lon": 0.0, "lat": 38.91191216666667, "is_reserved": 0, "type": "electric_scooter", "bike_id": "e4dafe9fe9b6b2941e654fb772162e07", "is_disabled": 0, "rental_uris": {"android": "https://dc.lft.to/lastmile_qr_scan", "ios": "https://dc.lft.to/lastmile_qr_scan"}, "lon": -77.017815, "fusion_lat": 0.0}, {"name": "63429cd12fc8aa3fca7d5fe12e415f70", "fusion_lon": 0.0, "lat": 38.900242666666664, "is_reserved": 0, "type": "electric_scooter", "bike_id": "63429cd12fc8aa3fca7d5fe12e415f70", "is_disabled": 0, "rental_uris": {"android": "https://dc.lft.to/lastmile_qr_scan", "ios": "https://dc.lft.to/lastmile_qr_scan"}, "lon": -76.980428, "fusion_lat": 0.0}, {"name": "bbd63ab0f64fc7824a0e3c62c068f62d", "fusion_lon": 0.0, "lat": 38.91684733333334, "is_reserved": 0, "type": "electric_scooter", "bike_id": "bbd63ab0f64fc7824a0e3c62c068f62d", "is_disabled": 0, "rental_uris": {"android": "https://dc.lft.to/lastmile_qr_scan", "ios": "https://dc.lft.to/lastmile_qr_scan"}, "lon": -77.02686916666667, "fusion_lat": 0.0}, {"name": "dafcbfb2180bace5ed96b4f76d5d38bd", "fusion_lon": 0.0, "lat": 38.923877, "is_reserved": 0, "type": "electric_scooter", "bike_id": "dafcbfb2180bace5ed96b4f76d5d38bd", "is_disabled": 0, "rental_uris": {"android": "https://dc.lft.to/lastmile_qr_scan", "ios": "https://dc.lft.to/lastmile_qr_scan"}, "lon": -77.02552116666666, "fusion_lat": 0.0}, {"name": "a5b899a759ee695bb37c009b26fad844", "fusion_lon": 0.0, "lat": 38.9574985, "is_reserved": 0, "type": "electric_scooter", "bike_id": "a5b899a759ee695bb37c009b26fad844", "is_disabled": 0, "rental_uris": {"android": "https://dc.lft.to/lastmile_qr_scan", "ios": "https://dc.lft.to/lastmile_qr_scan"}, "lon": -77.02095016666667, "fusion_lat": 0.0}, {"name": "45ddb84318db3a9593dac11d02b1b9a8", "fusion_lon": 0.0, "lat": 38.927903, "is_reserved": 0, "type": "electric_scooter", "bike_id": "45ddb84318db3a9593dac11d02b1b9a8", "is_disabled": 0, "rental_uris": {"android": "https://dc.lft.to/lastmile_qr_scan", "ios": "https://dc.lft.to/lastmile_qr_scan"}, "lon": -77.030175, "fusion_lat": 0.0}, {"name": "8aed3cec0a24001782389ae97df54de5", "fusion_lon": 0.0, "lat": 38.90173016666667, "is_reserved": 0, "type": "electric_scooter", "bike_id": "8aed3cec0a24001782389ae97df54de5", "is_disabled": 0, "rental_uris": {"android": "https://dc.lft.to/lastmile_qr_scan", "ios": "https://dc.lft.to/lastmile_qr_scan"}, "lon": -77.02476216666666, "fusion_lat": 0.0}, {"name": "648e66651d8ef72e211aefcd595432fe", "fusion_lon": 0.0, "lat": 38.834541333333334, "is_reserved": 0, "type": "electric_scooter", "bike_id": "648e66651d8ef72e211aefcd595432fe", "is_disabled": 0, "rental_uris": {"android": "https://dc.lft.to/lastmile_qr_scan", "ios": "https://dc.lft.to/lastmile_qr_scan"}, "lon": -76.99073666666666, "fusion_lat": 0.0}, {"name": "c1ee0abcffde849f829ee7e63e283781", "fusion_lon": 0.0, "lat": 38.904377833333335, "is_reserved": 0, "type": "electric_scooter", "bike_id": "c1ee0abcffde849f829ee7e63e283781", "is_disabled": 0, "rental_uris": {"android": "https://dc.lft.to/lastmile_qr_scan", "ios": "https://dc.lft.to/lastmile_qr_scan"}, "lon": -76.984797, "fusion_lat": 0.0}, {"name": "bd12db0f6147ab4772b9d54cb2f08cb8", "fusion_lon": 0.0, "lat": 38.8963255, "is_reserved": 0, "type": "electric_scooter", "bike_id": "bd12db0f6147ab4772b9d54cb2f08cb8", "is_disabled": 0, "rental_uris": {"android": "https://dc.lft.to/lastmile_qr_scan", "ios": "https://dc.lft.to/lastmile_qr_scan"}, "lon": -77.02986033333333, "fusion_lat": 0.0}, {"name": "dfc8a92a7daba9f7cd049682ccc8513e", "fusion_lon": 0.0, "lat": 38.8700445, "is_reserved": 0, "type": "electric_bike", "bike_id": "dfc8a92a7daba9f7cd049682ccc8513e", "is_disabled": 0, "rental_uris": {"android": "https://dc.lft.to/lastmile_qr_scan", "ios": "https://dc.lft.to/lastmile_qr_scan"}, "lon": -77.22969, "fusion_lat": 0.0}, {"name": "54c4106a6dc15acbcb98d9ea5a774880", "fusion_lon": 0.0, "lat": 38.90575183333333, "is_reserved": 0, "type": "electric_scooter", "bike_id": "54c4106a6dc15acbcb98d9ea5a774880", "is_disabled": 0, "rental_uris": {"android": "https://dc.lft.to/lastmile_qr_scan", "ios": "https://dc.lft.to/lastmile_qr_scan"}, "lon": -77.044649, "fusion_lat": 0.0}, {"name": "08b722ef24ef8cc2398ded542adc8d5a", "fusion_lon": 0.0, "lat": 38.9027045, "is_reserved": 0, "type": "electric_scooter", "bike_id": "08b722ef24ef8cc2398ded542adc8d5a", "is_disabled": 0, "rental_uris": {"android": "https://dc.lft.to/lastmile_qr_scan", "ios": "https://dc.lft.to/lastmile_qr_scan"}, "lon": -77.017851, "fusion_lat": 0.0}, {"name": "dafdd6e8aa21fac412dc9a83054d73f7", "fusion_lon": 0.0, "lat": 38.935238166666664, "is_reserved": 0, "type": "electric_scooter", "bike_id": "dafdd6e8aa21fac412dc9a83054d73f7", "is_disabled": 0, "rental_uris": {"android": "https://dc.lft.to/lastmile_qr_scan", "ios": "https://dc.lft.to/lastmile_qr_scan"}, "lon": -77.0326025, "fusion_lat": 0.0}, {"name": "9b8dd7ecf760985fe645db4e2e08fe00", "fusion_lon": 0.0, "lat": 38.90549933333333, "is_reserved": 0, "type": "electric_scooter", "bike_id": "9b8dd7ecf760985fe645db4e2e08fe00", "is_disabled": 0, "rental_uris": {"android": "https://dc.lft.to/lastmile_qr_scan", "ios": "https://dc.lft.to/lastmile_qr_scan"}, "lon": -77.04648133333333, "fusion_lat": 0.0}, {"name": "7e4068e0f36f2f1faaeef96a66253ecf", "fusion_lon": 0.0, "lat": 39.024349, "is_reserved": 0, "type": "electric_bike", "bike_id": "7e4068e0f36f2f1faaeef96a66253ecf", "is_disabled": 0, "rental_uris": {"android": "https://dc.lft.to/lastmile_qr_scan", "ios": "https://dc.lft.to/lastmile_qr_scan"}, "lon": -77.1309715, "fusion_lat": 0.0}, {"name": "4184d0606e8677fe8c7e1d11cbfe09ae", "fusion_lon": 0.0, "lat": 38.92231233333333, "is_reserved": 0, "type": "electric_scooter", "bike_id": "4184d0606e8677fe8c7e1d11cbfe09ae", "is_disabled": 0, "rental_uris": {"android": "https://dc.lft.to/lastmile_qr_scan", "ios": "https://dc.lft.to/lastmile_qr_scan"}, "lon": -77.02329733333333, "fusion_lat": 0.0}, {"name": "39827dbb21ba4029d25f52b2a41f0d37", "fusion_lon": 0.0, "lat": 38.914289, "is_reserved": 0, "type": "electric_scooter", "bike_id": "39827dbb21ba4029d25f52b2a41f0d37", "is_disabled": 0, "rental_uris": {"android": "https://dc.lft.to/lastmile_qr_scan", "ios": "https://dc.lft.to/lastmile_qr_scan"}, "lon": -77.04491933333334, "fusion_lat": 0.0}, {"name": "e4deb7243d177f847417ab71ae78d2c8", "fusion_lon": 0.0, "lat": 38.920044, "is_reserved": 0, "type": "electric_scooter", "bike_id": "e4deb7243d177f847417ab71ae78d2c8", "is_disabled": 0, "rental_uris": {"android": "https://dc.lft.to/lastmile_qr_scan", "ios": "https://dc.lft.to/lastmile_qr_scan"}, "lon": -77.03214516666667, "fusion_lat": 0.0}, {"name": "185ffd82c5dfb926bab3f15e0908e089", "fusion_lon": 0.0, "lat": 38.917094166666665, "is_reserved": 0, "type": "electric_scooter", "bike_id": "185ffd82c5dfb926bab3f15e0908e089", "is_disabled": 0, "rental_uris": {"android": "https://dc.lft.to/lastmile_qr_scan", "ios": "https://dc.lft.to/lastmile_qr_scan"}, "lon": -77.03478033333333, "fusion_lat": 0.0}, {"name": "2c48a7e5510b64be8a8eb8184c58051b", "fusion_lon": 0.0, "lat": 38.947823666666665, "is_reserved": 0, "type": "electric_bike", "bike_id": "2c48a7e5510b64be8a8eb8184c58051b", "is_disabled": 0, "rental_uris": {"android": "https://dc.lft.to/lastmile_qr_scan", "ios": "https://dc.lft.to/lastmile_qr_scan"}, "lon": -76.97211666666666, "fusion_lat": 0.0}, {"name": "2511c0a834b85f324f3ae20aa3bc079f", "fusion_lon": 0.0, "lat": 38.864079, "is_reserved": 0, "type": "electric_scooter", "bike_id": "2511c0a834b85f324f3ae20aa3bc079f", "is_disabled": 0, "rental_uris": {"android": "https://dc.lft.to/lastmile_qr_scan", "ios": "https://dc.lft.to/lastmile_qr_scan"}, "lon": -76.9743735, "fusion_lat": 0.0}, {"name": "c0dd2e5e927296be2563e24dad78ad45", "fusion_lon": 0.0, "lat": 38.88764283333333, "is_reserved": 0, "type": "electric_scooter", "bike_id": "c0dd2e5e927296be2563e24dad78ad45", "is_disabled": 0, "rental_uris": {"android": "https://dc.lft.to/lastmile_qr_scan", "ios": "https://dc.lft.to/lastmile_qr_scan"}, "lon": -76.955953, "fusion_lat": 0.0}, {"name": "8313aa71d2d4bf20043259f0bf854796", "fusion_lon": 0.0, "lat": 38.866248666666664, "is_reserved": 0, "type": "electric_scooter", "bike_id": "8313aa71d2d4bf20043259f0bf854796", "is_disabled": 0, "rental_uris": {"android": "https://dc.lft.to/lastmile_qr_scan", "ios": "https://dc.lft.to/lastmile_qr_scan"}, "lon": -76.98900616666667, "fusion_lat": 0.0}, {"name": "a0b04718d9ebdf2cb3b36b99a1500dec", "fusion_lon": 0.0, "lat": 38.899209, "is_reserved": 0, "type": "electric_scooter", "bike_id": "a0b04718d9ebdf2cb3b36b99a1500dec", "is_disabled": 0, "rental_uris": {"android": "https://dc.lft.to/lastmile_qr_scan", "ios": "https://dc.lft.to/lastmile_qr_scan"}, "lon": -77.07058183333334, "fusion_lat": 0.0}, {"name": "96daf915b4c5580d13d4237aeca3151b", "fusion_lon": 0.0, "lat": 38.9238515, "is_reserved": 0, "type": "electric_scooter", "bike_id": "96daf915b4c5580d13d4237aeca3151b", "is_disabled": 0, "rental_uris": {"android": "https://dc.lft.to/lastmile_qr_scan", "ios": "https://dc.lft.to/lastmile_qr_scan"}, "lon": -77.03092616666666, "fusion_lat": 0.0}, {"name": "d8d83e9b35cdad635a78294a3c7b37c1", "fusion_lon": 0.0, "lat": 38.90373666666667, "is_reserved": 0, "type": "electric_scooter", "bike_id": "d8d83e9b35cdad635a78294a3c7b37c1", "is_disabled": 0, "rental_uris": {"android": "https://dc.lft.to/lastmile_qr_scan", "ios": "https://dc.lft.to/lastmile_qr_scan"}, "lon": -77.04510733333333, "fusion_lat": 0.0}, {"name": "bfaea9ac95fe650a26f3a10b715c544a", "fusion_lon": 0.0, "lat": 38.9270225, "is_reserved": 0, "type": "electric_scooter", "bike_id": "bfaea9ac95fe650a26f3a10b715c544a", "is_disabled": 0, "rental_uris": {"android": "https://dc.lft.to/lastmile_qr_scan", "ios": "https://dc.lft.to/lastmile_qr_scan"}, "lon": -77.01461133333333, "fusion_lat": 0.0}, {"name": "77c1a6c3b4a44db19355f21f23ec18fb", "fusion_lon": 0.0, "lat": 38.89958716666667, "is_reserved": 0, "type": "electric_bike", "bike_id": "77c1a6c3b4a44db19355f21f23ec18fb", "is_disabled": 0, "rental_uris": {"android": "https://dc.lft.to/lastmile_qr_scan", "ios": "https://dc.lft.to/lastmile_qr_scan"}, "lon": -76.9856015, "fusion_lat": 0.0}, {"name": "387e252480541c68ead3578b17ce3b27", "fusion_lon": 0.0, "lat": 38.91560716666667, "is_reserved": 0, "type": "electric_scooter", "bike_id": "387e252480541c68ead3578b17ce3b27", "is_disabled": 0, "rental_uris": {"android": "https://dc.lft.to/lastmile_qr_scan", "ios": "https://dc.lft.to/lastmile_qr_scan"}, "lon": -77.01037466666666, "fusion_lat": 0.0}, {"name": "dcbbfc48803f76eff36a5dd323fa47a0", "fusion_lon": 0.0, "lat": 38.922518, "is_reserved": 0, "type": "electric_scooter", "bike_id": "dcbbfc48803f76eff36a5dd323fa47a0", "is_disabled": 0, "rental_uris": {"android": "https://dc.lft.to/lastmile_qr_scan", "ios": "https://dc.lft.to/lastmile_qr_scan"}, "lon": -77.03027416666667, "fusion_lat": 0.0}, {"name": "b6b21213afe925596e0132a95b81bea6", "fusion_lon": 0.0, "lat": 38.90032583333333, "is_reserved": 0, "type": "electric_scooter", "bike_id": "b6b21213afe925596e0132a95b81bea6", "is_disabled": 0, "rental_uris": {"android": "https://dc.lft.to/lastmile_qr_scan", "ios": "https://dc.lft.to/lastmile_qr_scan"}, "lon": -77.00202083333333, "fusion_lat": 0.0}, {"name": "0b6aebde0d5829a1c09745677e41ae2c", "fusion_lon": 0.0, "lat": 38.89842466666666, "is_reserved": 0, "type": "electric_scooter", "bike_id": "0b6aebde0d5829a1c09745677e41ae2c", "is_disabled": 0, "rental_uris": {"android": "https://dc.lft.to/lastmile_qr_scan", "ios": "https://dc.lft.to/lastmile_qr_scan"}, "lon": -77.02373883333334, "fusion_lat": 0.0}, {"name": "7ffe79eed22c197d12cbcac11c569796", "fusion_lon": 0.0, "lat": 38.915494, "is_reserved": 0, "type": "electric_scooter", "bike_id": "7ffe79eed22c197d12cbcac11c569796", "is_disabled": 0, "rental_uris": {"android": "https://dc.lft.to/lastmile_qr_scan", "ios": "https://dc.lft.to/lastmile_qr_scan"}, "lon": -77.04178883333333, "fusion_lat": 0.0}, {"name": "6725f7e9cceb4b81b6b4b672dea7a5d9", "fusion_lon": 0.0, "lat": 38.919995666666665, "is_reserved": 0, "type": "electric_scooter", "bike_id": "6725f7e9cceb4b81b6b4b672dea7a5d9", "is_disabled": 0, "rental_uris": {"android": "https://dc.lft.to/lastmile_qr_scan", "ios": "https://dc.lft.to/lastmile_qr_scan"}, "lon": -77.03213666666667, "fusion_lat": 0.0}, {"name": "d077e74b46b7575fd32c70c0a18d6c89", "fusion_lon": 0.0, "lat": 38.916411333333336, "is_reserved": 0, "type": "electric_scooter", "bike_id": "d077e74b46b7575fd32c70c0a18d6c89", "is_disabled": 0, "rental_uris": {"android": "https://dc.lft.to/lastmile_qr_scan", "ios": "https://dc.lft.to/lastmile_qr_scan"}, "lon": -77.02392116666667, "fusion_lat": 0.0}, {"name": "58ec3b2f9e503224daf849ce7940d9d9", "fusion_lon": 0.0, "lat": 38.89700233333333, "is_reserved": 0, "type": "electric_scooter", "bike_id": "58ec3b2f9e503224daf849ce7940d9d9", "is_disabled": 0, "rental_uris": {"android": "https://dc.lft.to/lastmile_qr_scan", "ios": "https://dc.lft.to/lastmile_qr_scan"}, "lon": -76.9299875, "fusion_lat": 0.0}, {"name": "b041aaacf054a1d01d9b6a8b36fc36de", "fusion_lon": 0.0, "lat": 38.932483500000004, "is_reserved": 0, "type": "electric_scooter", "bike_id": "b041aaacf054a1d01d9b6a8b36fc36de", "is_disabled": 0, "rental_uris": {"android": "https://dc.lft.to/lastmile_qr_scan", "ios": "https://dc.lft.to/lastmile_qr_scan"}, "lon": -77.03269833333333, "fusion_lat": 0.0}, {"name": "e8efd0634008034f7885bc8cb4d0bced", "fusion_lon": 0.0, "lat": 38.93248783333333, "is_reserved": 0, "type": "electric_scooter", "bike_id": "e8efd0634008034f7885bc8cb4d0bced", "is_disabled": 0, "rental_uris": {"android": "https://dc.lft.to/lastmile_qr_scan", "ios": "https://dc.lft.to/lastmile_qr_scan"}, "lon": -77.032638, "fusion_lat": 0.0}, {"name": "7a29f6ea53aa76eddb0c8fd2c1739b71", "fusion_lon": 0.0, "lat": 38.931007, "is_reserved": 0, "type": "electric_scooter", "bike_id": "7a29f6ea53aa76eddb0c8fd2c1739b71", "is_disabled": 0, "rental_uris": {"android": "https://dc.lft.to/lastmile_qr_scan", "ios": "https://dc.lft.to/lastmile_qr_scan"}, "lon": -77.026583, "fusion_lat": 0.0}, {"name": "2aedc10fedc145f70099fa7ae7eddc83", "fusion_lon": 0.0, "lat": 38.925904, "is_reserved": 0, "type": "electric_scooter", "bike_id": "2aedc10fedc145f70099fa7ae7eddc83", "is_disabled": 0, "rental_uris": {"android": "https://dc.lft.to/lastmile_qr_scan", "ios": "https://dc.lft.to/lastmile_qr_scan"}, "lon": -77.04405116666666, "fusion_lat": 0.0}, {"name": "4f3bbe97d43c781ffe3a37bb4ebaf61a", "fusion_lon": 0.0, "lat": 38.919305666666666, "is_reserved": 0, "type": "electric_scooter", "bike_id": "4f3bbe97d43c781ffe3a37bb4ebaf61a", "is_disabled": 0, "rental_uris": {"android": "https://dc.lft.to/lastmile_qr_scan", "ios": "https://dc.lft.to/lastmile_qr_scan"}, "lon": -77.04554933333333, "fusion_lat": 0.0}, {"name": "b059b87cb280962de92dd698e7973414", "fusion_lon": 0.0, "lat": 38.9056135, "is_reserved": 0, "type": "electric_scooter", "bike_id": "b059b87cb280962de92dd698e7973414", "is_disabled": 0, "rental_uris": {"android": "https://dc.lft.to/lastmile_qr_scan", "ios": "https://dc.lft.to/lastmile_qr_scan"}, "lon": -77.00594366666667, "fusion_lat": 0.0}, {"name": "f04b1695e1dd0077a19e742e440436be", "fusion_lon": 0.0, "lat": 38.91516983333333, "is_reserved": 0, "type": "electric_scooter", "bike_id": "f04b1695e1dd0077a19e742e440436be", "is_disabled": 0, "rental_uris": {"android": "https://dc.lft.to/lastmile_qr_scan", "ios": "https://dc.lft.to/lastmile_qr_scan"}, "lon": -77.01209483333334, "fusion_lat": 0.0}, {"name": "723786696a5c08158ba25f1f55e9fa61", "fusion_lon": 0.0, "lat": 38.9395865, "is_reserved": 0, "type": "electric_scooter", "bike_id": "723786696a5c08158ba25f1f55e9fa61", "is_disabled": 0, "rental_uris": {"android": "https://dc.lft.to/lastmile_qr_scan", "ios": "https://dc.lft.to/lastmile_qr_scan"}, "lon": -77.0274645, "fusion_lat": 0.0}, {"name": "ef5f0945f52a9499145aed876fd72066", "fusion_lon": 0.0, "lat": 38.937243333333335, "is_reserved": 0, "type": "electric_scooter", "bike_id": "ef5f0945f52a9499145aed876fd72066", "is_disabled": 0, "rental_uris": {"android": "https://dc.lft.to/lastmile_qr_scan", "ios": "https://dc.lft.to/lastmile_qr_scan"}, "lon": -77.03266783333333, "fusion_lat": 0.0}, {"name": "0b7be13afd254959ace3c44b940a89fa", "fusion_lon": 0.0, "lat": 38.9353505, "is_reserved": 0, "type": "electric_scooter", "bike_id": "0b7be13afd254959ace3c44b940a89fa", "is_disabled": 0, "rental_uris": {"android": "https://dc.lft.to/lastmile_qr_scan", "ios": "https://dc.lft.to/lastmile_qr_scan"}, "lon": -77.05741283333333, "fusion_lat": 0.0}, {"name": "d370f2f1db3f6661ad7fa9b25b579172", "fusion_lon": 0.0, "lat": 38.88587033333334, "is_reserved": 0, "type": "electric_scooter", "bike_id": "d370f2f1db3f6661ad7fa9b25b579172", "is_disabled": 0, "rental_uris": {"android": "https://dc.lft.to/lastmile_qr_scan", "ios": "https://dc.lft.to/lastmile_qr_scan"}, "lon": -76.996208, "fusion_lat": 0.0}, {"name": "e305d2d5f7b8700a0158e7d46ab3c5cb", "fusion_lon": 0.0, "lat": 38.892222, "is_reserved": 0, "type": "electric_scooter", "bike_id": "e305d2d5f7b8700a0158e7d46ab3c5cb", "is_disabled": 0, "rental_uris": {"android": "https://dc.lft.to/lastmile_qr_scan", "ios": "https://dc.lft.to/lastmile_qr_scan"}, "lon": -77.04262733333333, "fusion_lat": 0.0}, {"name": "a7ea3971cee797477d5010bb20a17de0", "fusion_lon": 0.0, "lat": 38.9119665, "is_reserved": 0, "type": "electric_scooter", "bike_id": "a7ea3971cee797477d5010bb20a17de0", "is_disabled": 0, "rental_uris": {"android": "https://dc.lft.to/lastmile_qr_scan", "ios": "https://dc.lft.to/lastmile_qr_scan"}, "lon": -77.0452035, "fusion_lat": 0.0}, {"name": "063d2e79898e1605bb8d0a7faf6b4420", "fusion_lon": 0.0, "lat": 38.87792433333333, "is_reserved": 0, "type": "electric_scooter", "bike_id": "063d2e79898e1605bb8d0a7faf6b4420", "is_disabled": 0, "rental_uris": {"android": "https://dc.lft.to/lastmile_qr_scan", "ios": "https://dc.lft.to/lastmile_qr_scan"}, "lon": -76.93087833333334, "fusion_lat": 0.0}, {"name": "590f07ae9573162c535671c587a94f34", "fusion_lon": 0.0, "lat": 38.944359, "is_reserved": 0, "type": "electric_scooter", "bike_id": "590f07ae9573162c535671c587a94f34", "is_disabled": 0, "rental_uris": {"android": "https://dc.lft.to/lastmile_qr_scan", "ios": "https://dc.lft.to/lastmile_qr_scan"}, "lon": -77.063476, "fusion_lat": 0.0}, {"name": "9d406dee68238cf98d63a770d1581e6f", "fusion_lon": 0.0, "lat": 38.91733933333333, "is_reserved": 0, "type": "electric_scooter", "bike_id": "9d406dee68238cf98d63a770d1581e6f", "is_disabled": 0, "rental_uris": {"android": "https://dc.lft.to/lastmile_qr_scan", "ios": "https://dc.lft.to/lastmile_qr_scan"}, "lon": -77.03637233333333, "fusion_lat": 0.0}, {"name": "3ebc16526d9cf08dd99dce3c9200eb7d", "fusion_lon": 0.0, "lat": 38.9002475, "is_reserved": 0, "type": "electric_scooter", "bike_id": "3ebc16526d9cf08dd99dce3c9200eb7d", "is_disabled": 0, "rental_uris": {"android": "https://dc.lft.to/lastmile_qr_scan", "ios": "https://dc.lft.to/lastmile_qr_scan"}, "lon": -77.0030155, "fusion_lat": 0.0}, {"name": "371f0f88b2bb287f7b3361f2e4aa24a1", "fusion_lon": 0.0, "lat": 38.907261166666665, "is_reserved": 0, "type": "electric_scooter", "bike_id": "371f0f88b2bb287f7b3361f2e4aa24a1", "is_disabled": 0, "rental_uris": {"android": "https://dc.lft.to/lastmile_qr_scan", "ios": "https://dc.lft.to/lastmile_qr_scan"}, "lon": -77.029624, "fusion_lat": 0.0}, {"name": "c79e594074b0dc3a1f78ee671d86d127", "fusion_lon": 0.0, "lat": 38.9170335, "is_reserved": 0, "type": "electric_scooter", "bike_id": "c79e594074b0dc3a1f78ee671d86d127", "is_disabled": 0, "rental_uris": {"android": "https://dc.lft.to/lastmile_qr_scan", "ios": "https://dc.lft.to/lastmile_qr_scan"}, "lon": -77.0404595, "fusion_lat": 0.0}, {"name": "5f9bda4cd8139f85c939df2857a2d5cf", "fusion_lon": 0.0, "lat": 38.914143, "is_reserved": 0, "type": "electric_scooter", "bike_id": "5f9bda4cd8139f85c939df2857a2d5cf", "is_disabled": 0, "rental_uris": {"android": "https://dc.lft.to/lastmile_qr_scan", "ios": "https://dc.lft.to/lastmile_qr_scan"}, "lon": -77.02248433333334, "fusion_lat": 0.0}, {"name": "34c581535a477742e8b43b6ef9ba1cff", "fusion_lon": 0.0, "lat": 38.8922505, "is_reserved": 0, "type": "electric_scooter", "bike_id": "34c581535a477742e8b43b6ef9ba1cff", "is_disabled": 0, "rental_uris": {"android": "https://dc.lft.to/lastmile_qr_scan", "ios": "https://dc.lft.to/lastmile_qr_scan"}, "lon": -77.0321875, "fusion_lat": 0.0}, {"name": "ae555ce74a737d41b243756455abad2c", "fusion_lon": 0.0, "lat": 38.933946, "is_reserved": 0, "type": "electric_scooter", "bike_id": "ae555ce74a737d41b243756455abad2c", "is_disabled": 0, "rental_uris": {"android": "https://dc.lft.to/lastmile_qr_scan", "ios": "https://dc.lft.to/lastmile_qr_scan"}, "lon": -77.02722966666667, "fusion_lat": 0.0}, {"name": "1148223db09591d382cd413b46d68d13", "fusion_lon": 0.0, "lat": 38.923311166666664, "is_reserved": 0, "type": "electric_scooter", "bike_id": "1148223db09591d382cd413b46d68d13", "is_disabled": 0, "rental_uris": {"android": "https://dc.lft.to/lastmile_qr_scan", "ios": "https://dc.lft.to/lastmile_qr_scan"}, "lon": -77.07328116666666, "fusion_lat": 0.0}, {"name": "a6ff5fa34a8df37a49b7b74873463fe9", "fusion_lon": 0.0, "lat": 38.909108833333335, "is_reserved": 0, "type": "electric_scooter", "bike_id": "a6ff5fa34a8df37a49b7b74873463fe9", "is_disabled": 0, "rental_uris": {"android": "https://dc.lft.to/lastmile_qr_scan", "ios": "https://dc.lft.to/lastmile_qr_scan"}, "lon": -77.03095666666667, "fusion_lat": 0.0}, {"name": "41fecb568f65f61b2b7d6965d0af7f8a", "fusion_lon": 0.0, "lat": 38.8922025, "is_reserved": 0, "type": "electric_scooter", "bike_id": "41fecb568f65f61b2b7d6965d0af7f8a", "is_disabled": 0, "rental_uris": {"android": "https://dc.lft.to/lastmile_qr_scan", "ios": "https://dc.lft.to/lastmile_qr_scan"}, "lon": -77.04308, "fusion_lat": 0.0}, {"name": "73f7a5ab8375dca5ce3a25348c4f9b10", "fusion_lon": 0.0, "lat": 38.907976833333336, "is_reserved": 0, "type": "electric_scooter", "bike_id": "73f7a5ab8375dca5ce3a25348c4f9b10", "is_disabled": 0, "rental_uris": {"android": "https://dc.lft.to/lastmile_qr_scan", "ios": "https://dc.lft.to/lastmile_qr_scan"}, "lon": -77.0312525, "fusion_lat": 0.0}, {"name": "9b9b4082b0b29e085d23d6895e88ed53", "fusion_lon": 0.0, "lat": 38.87112066666667, "is_reserved": 0, "type": "electric_scooter", "bike_id": "9b9b4082b0b29e085d23d6895e88ed53", "is_disabled": 0, "rental_uris": {"android": "https://dc.lft.to/lastmile_qr_scan", "ios": "https://dc.lft.to/lastmile_qr_scan"}, "lon": -77.0075205, "fusion_lat": 0.0}, {"name": "f14106f135d6d176c069f36d25743f0a", "fusion_lon": 0.0, "lat": 38.902356166666664, "is_reserved": 0, "type": "electric_scooter", "bike_id": "f14106f135d6d176c069f36d25743f0a", "is_disabled": 0, "rental_uris": {"android": "https://dc.lft.to/lastmile_qr_scan", "ios": "https://dc.lft.to/lastmile_qr_scan"}, "lon": -76.989306, "fusion_lat": 0.0}, {"name": "30f5a19de61648a7e9411d55c06da2ae", "fusion_lon": 0.0, "lat": 38.9109285, "is_reserved": 0, "type": "electric_scooter", "bike_id": "30f5a19de61648a7e9411d55c06da2ae", "is_disabled": 0, "rental_uris": {"android": "https://dc.lft.to/lastmile_qr_scan", "ios": "https://dc.lft.to/lastmile_qr_scan"}, "lon": -77.04191683333333, "fusion_lat": 0.0}, {"name": "5dd7ac1843fdad705d3eb35e1410c6e3", "fusion_lon": 0.0, "lat": 38.884879833333336, "is_reserved": 0, "type": "electric_scooter", "bike_id": "5dd7ac1843fdad705d3eb35e1410c6e3", "is_disabled": 0, "rental_uris": {"android": "https://dc.lft.to/lastmile_qr_scan", "ios": "https://dc.lft.to/lastmile_qr_scan"}, "lon": -77.00711916666667, "fusion_lat": 0.0}, {"name": "ff5611200cd83efad3697648526f8a8a", "fusion_lon": 0.0, "lat": 38.9136185, "is_reserved": 0, "type": "electric_scooter", "bike_id": "ff5611200cd83efad3697648526f8a8a", "is_disabled": 0, "rental_uris": {"android": "https://dc.lft.to/lastmile_qr_scan", "ios": "https://dc.lft.to/lastmile_qr_scan"}, "lon": -77.01613033333334, "fusion_lat": 0.0}, {"name": "f97693fb7c7b4b5d7e897239e05e0eb4", "fusion_lon": 0.0, "lat": 38.917203, "is_reserved": 0, "type": "electric_scooter", "bike_id": "f97693fb7c7b4b5d7e897239e05e0eb4", "is_disabled": 0, "rental_uris": {"android": "https://dc.lft.to/lastmile_qr_scan", "ios": "https://dc.lft.to/lastmile_qr_scan"}, "lon": -77.02583666666666, "fusion_lat": 0.0}, {"name": "0b2b9a36bc0564d227621ccb4ae5f5d8", "fusion_lon": 0.0, "lat": 38.903693, "is_reserved": 0, "type": "electric_scooter", "bike_id": "0b2b9a36bc0564d227621ccb4ae5f5d8", "is_disabled": 0, "rental_uris": {"android": "https://dc.lft.to/lastmile_qr_scan", "ios": "https://dc.lft.to/lastmile_qr_scan"}, "lon": -77.0179075, "fusion_lat": 0.0}, {"name": "0612a693a9a098e8f25d7d32fde27a0d", "fusion_lon": 0.0, "lat": 38.89716166666667, "is_reserved": 0, "type": "electric_scooter", "bike_id": "0612a693a9a098e8f25d7d32fde27a0d", "is_disabled": 0, "rental_uris": {"android": "https://dc.lft.to/lastmile_qr_scan", "ios": "https://dc.lft.to/lastmile_qr_scan"}, "lon": -76.973409, "fusion_lat": 0.0}, {"name": "a68b2f5d4de6dd76e65fb77b6c9c5487", "fusion_lon": 0.0, "lat": 38.91822483333333, "is_reserved": 0, "type": "electric_scooter", "bike_id": "a68b2f5d4de6dd76e65fb77b6c9c5487", "is_disabled": 0, "rental_uris": {"android": "https://dc.lft.to/lastmile_qr_scan", "ios": "https://dc.lft.to/lastmile_qr_scan"}, "lon": -77.02709816666666, "fusion_lat": 0.0}, {"name": "da1989b4836c1f144cbc1850eac38815", "fusion_lon": 0.0, "lat": 38.983613166666665, "is_reserved": 0, "type": "electric_bike", "bike_id": "da1989b4836c1f144cbc1850eac38815", "is_disabled": 0, "rental_uris": {"android": "https://dc.lft.to/lastmile_qr_scan", "ios": "https://dc.lft.to/lastmile_qr_scan"}, "lon": -76.97210133333333, "fusion_lat": 0.0}, {"name": "fea09de02941b266052527621120cfbb", "fusion_lon": 0.0, "lat": 38.923433, "is_reserved": 0, "type": "electric_scooter", "bike_id": "fea09de02941b266052527621120cfbb", "is_disabled": 0, "rental_uris": {"android": "https://dc.lft.to/lastmile_qr_scan", "ios": "https://dc.lft.to/lastmile_qr_scan"}, "lon": -77.05078483333334, "fusion_lat": 0.0}, {"name": "f021dc6fca436bd4dbad2e774a39f412", "fusion_lon": 0.0, "lat": 38.924122, "is_reserved": 0, "type": "electric_scooter", "bike_id": "f021dc6fca436bd4dbad2e774a39f412", "is_disabled": 0, "rental_uris": {"android": "https://dc.lft.to/lastmile_qr_scan", "ios": "https://dc.lft.to/lastmile_qr_scan"}, "lon": -77.050646, "fusion_lat": 0.0}, {"name": "a56eb7a611ccff4267823ca1b2a1e3a5", "fusion_lon": 0.0, "lat": 38.88434083333333, "is_reserved": 0, "type": "electric_scooter", "bike_id": "a56eb7a611ccff4267823ca1b2a1e3a5", "is_disabled": 0, "rental_uris": {"android": "https://dc.lft.to/lastmile_qr_scan", "ios": "https://dc.lft.to/lastmile_qr_scan"}, "lon": -77.02963, "fusion_lat": 0.0}, {"name": "e9749b7dd048a7ad86f2333b04c6988a", "fusion_lon": 0.0, "lat": 38.92601, "is_reserved": 0, "type": "electric_scooter", "bike_id": "e9749b7dd048a7ad86f2333b04c6988a", "is_disabled": 0, "rental_uris": {"android": "https://dc.lft.to/lastmile_qr_scan", "ios": "https://dc.lft.to/lastmile_qr_scan"}, "lon": -77.03923766666666, "fusion_lat": 0.0}, {"name": "9173fd3a66b8bf59c43a1b8d2d4be726", "fusion_lon": 0.0, "lat": 38.93153566666667, "is_reserved": 0, "type": "electric_bike", "bike_id": "9173fd3a66b8bf59c43a1b8d2d4be726", "is_disabled": 0, "rental_uris": {"android": "https://dc.lft.to/lastmile_qr_scan", "ios": "https://dc.lft.to/lastmile_qr_scan"}, "lon": -77.02716183333334, "fusion_lat": 0.0}, {"name": "1096992bf39b1e1a4d2addefb6f39db4", "fusion_lon": 0.0, "lat": 38.9174415, "is_reserved": 0, "type": "electric_scooter", "bike_id": "1096992bf39b1e1a4d2addefb6f39db4", "is_disabled": 0, "rental_uris": {"android": "https://dc.lft.to/lastmile_qr_scan", "ios": "https://dc.lft.to/lastmile_qr_scan"}, "lon": -77.01456166666667, "fusion_lat": 0.0}, {"name": "6c6289ddbc94f9005d67497a6e7b11e6", "fusion_lon": 0.0, "lat": 38.86244033333333, "is_reserved": 0, "type": "electric_scooter", "bike_id": "6c6289ddbc94f9005d67497a6e7b11e6", "is_disabled": 0, "rental_uris": {"android": "https://dc.lft.to/lastmile_qr_scan", "ios": "https://dc.lft.to/lastmile_qr_scan"}, "lon": -76.99490533333334, "fusion_lat": 0.0}, {"name": "1902c5453691de816c89dd5ca891a163", "fusion_lon": 0.0, "lat": 38.90271416666667, "is_reserved": 0, "type": "electric_scooter", "bike_id": "1902c5453691de816c89dd5ca891a163", "is_disabled": 0, "rental_uris": {"android": "https://dc.lft.to/lastmile_qr_scan", "ios": "https://dc.lft.to/lastmile_qr_scan"}, "lon": -77.03974066666666, "fusion_lat": 0.0}, {"name": "90580dd476fefcc7ca6b140da07c9d6d", "fusion_lon": 0.0, "lat": 38.957384166666664, "is_reserved": 0, "type": "electric_scooter", "bike_id": "90580dd476fefcc7ca6b140da07c9d6d", "is_disabled": 0, "rental_uris": {"android": "https://dc.lft.to/lastmile_qr_scan", "ios": "https://dc.lft.to/lastmile_qr_scan"}, "lon": -77.02064766666666, "fusion_lat": 0.0}, {"name": "8d751f5f07f6abb94a85b767429c8e4b", "fusion_lon": 0.0, "lat": 38.83141116666667, "is_reserved": 0, "type": "electric_scooter", "bike_id": "8d751f5f07f6abb94a85b767429c8e4b", "is_disabled": 0, "rental_uris": {"android": "https://dc.lft.to/lastmile_qr_scan", "ios": "https://dc.lft.to/lastmile_qr_scan"}, "lon": -77.05133383333333, "fusion_lat": 0.0}, {"name": "dd6cdc5b1ef697521d38b61a3017a670", "fusion_lon": 0.0, "lat": 38.896137, "is_reserved": 0, "type": "electric_scooter", "bike_id": "dd6cdc5b1ef697521d38b61a3017a670", "is_disabled": 0, "rental_uris": {"android": "https://dc.lft.to/lastmile_qr_scan", "ios": "https://dc.lft.to/lastmile_qr_scan"}, "lon": -76.98111966666667, "fusion_lat": 0.0}, {"name": "dec201461fb24e25f2ebf2047cc361d6", "fusion_lon": 0.0, "lat": 38.91290566666667, "is_reserved": 0, "type": "electric_scooter", "bike_id": "dec201461fb24e25f2ebf2047cc361d6", "is_disabled": 0, "rental_uris": {"android": "https://dc.lft.to/lastmile_qr_scan", "ios": "https://dc.lft.to/lastmile_qr_scan"}, "lon": -77.0237655, "fusion_lat": 0.0}, {"name": "7199b18d8127050d2f0d8a69b6fc079e", "fusion_lon": 0.0, "lat": 38.896212, "is_reserved": 0, "type": "electric_scooter", "bike_id": "7199b18d8127050d2f0d8a69b6fc079e", "is_disabled": 0, "rental_uris": {"android": "https://dc.lft.to/lastmile_qr_scan", "ios": "https://dc.lft.to/lastmile_qr_scan"}, "lon": -77.0159875, "fusion_lat": 0.0}, {"name": "235eece5e6715d1c68363c9d6fba815d", "fusion_lon": 0.0, "lat": 38.89621316666667, "is_reserved": 0, "type": "electric_scooter", "bike_id": "235eece5e6715d1c68363c9d6fba815d", "is_disabled": 0, "rental_uris": {"android": "https://dc.lft.to/lastmile_qr_scan", "ios": "https://dc.lft.to/lastmile_qr_scan"}, "lon": -77.02195316666666, "fusion_lat": 0.0}, {"name": "89db44d25de6b329b188fcb369447c6f", "fusion_lon": 0.0, "lat": 38.91014166666667, "is_reserved": 0, "type": "electric_scooter", "bike_id": "89db44d25de6b329b188fcb369447c6f", "is_disabled": 0, "rental_uris": {"android": "https://dc.lft.to/lastmile_qr_scan", "ios": "https://dc.lft.to/lastmile_qr_scan"}, "lon": -77.05254816666667, "fusion_lat": 0.0}, {"name": "f31bfaf244998a237c0272b620d56027", "fusion_lon": 0.0, "lat": 38.8971735, "is_reserved": 0, "type": "electric_scooter", "bike_id": "f31bfaf244998a237c0272b620d56027", "is_disabled": 0, "rental_uris": {"android": "https://dc.lft.to/lastmile_qr_scan", "ios": "https://dc.lft.to/lastmile_qr_scan"}, "lon": -77.02167933333334, "fusion_lat": 0.0}, {"name": "ce73cd58768d66c143bc04e462af7808", "fusion_lon": 0.0, "lat": 38.874406, "is_reserved": 0, "type": "electric_scooter", "bike_id": "ce73cd58768d66c143bc04e462af7808", "is_disabled": 0, "rental_uris": {"android": "https://dc.lft.to/lastmile_qr_scan", "ios": "https://dc.lft.to/lastmile_qr_scan"}, "lon": -77.00541066666666, "fusion_lat": 0.0}, {"name": "429e0f6c1299471a48dee65d0527e3de", "fusion_lon": 0.0, "lat": 38.934422166666664, "is_reserved": 0, "type": "electric_scooter", "bike_id": "429e0f6c1299471a48dee65d0527e3de", "is_disabled": 0, "rental_uris": {"android": "https://dc.lft.to/lastmile_qr_scan", "ios": "https://dc.lft.to/lastmile_qr_scan"}, "lon": -77.0328025, "fusion_lat": 0.0}, {"name": "07821e9f7a9ceb0350693d5a16addc4f", "fusion_lon": 0.0, "lat": 38.94202466666667, "is_reserved": 0, "type": "electric_scooter", "bike_id": "07821e9f7a9ceb0350693d5a16addc4f", "is_disabled": 0, "rental_uris": {"android": "https://dc.lft.to/lastmile_qr_scan", "ios": "https://dc.lft.to/lastmile_qr_scan"}, "lon": -77.025129, "fusion_lat": 0.0}, {"name": "918d5bf9d8d517175eba2d25e2aea617", "fusion_lon": 0.0, "lat": 38.9093605, "is_reserved": 0, "type": "electric_scooter", "bike_id": "918d5bf9d8d517175eba2d25e2aea617", "is_disabled": 0, "rental_uris": {"android": "https://dc.lft.to/lastmile_qr_scan", "ios": "https://dc.lft.to/lastmile_qr_scan"}, "lon": -77.03454483333333, "fusion_lat": 0.0}, {"name": "dd450d91649e1996aaf6786812e6b2f4", "fusion_lon": 0.0, "lat": 38.90000583333333, "is_reserved": 0, "type": "electric_scooter", "bike_id": "dd450d91649e1996aaf6786812e6b2f4", "is_disabled": 0, "rental_uris": {"android": "https://dc.lft.to/lastmile_qr_scan", "ios": "https://dc.lft.to/lastmile_qr_scan"}, "lon": -76.9961315, "fusion_lat": 0.0}, {"name": "68245689b9cb0e13092a7765817f2521", "fusion_lon": 0.0, "lat": 38.91707533333334, "is_reserved": 0, "type": "electric_scooter", "bike_id": "68245689b9cb0e13092a7765817f2521", "is_disabled": 0, "rental_uris": {"android": "https://dc.lft.to/lastmile_qr_scan", "ios": "https://dc.lft.to/lastmile_qr_scan"}, "lon": -77.01340966666666, "fusion_lat": 0.0}, {"name": "9d919f673d3c1c393751bd9080fedb65", "fusion_lon": 0.0, "lat": 38.948204833333335, "is_reserved": 0, "type": "electric_bike", "bike_id": "9d919f673d3c1c393751bd9080fedb65", "is_disabled": 0, "rental_uris": {"android": "https://dc.lft.to/lastmile_qr_scan", "ios": "https://dc.lft.to/lastmile_qr_scan"}, "lon": -77.02364083333333, "fusion_lat": 0.0}, {"name": "65d2bb3f5e3cb19be99c48caaba93fa0", "fusion_lon": 0.0, "lat": 38.93004416666667, "is_reserved": 0, "type": "electric_scooter", "bike_id": "65d2bb3f5e3cb19be99c48caaba93fa0", "is_disabled": 0, "rental_uris": {"android": "https://dc.lft.to/lastmile_qr_scan", "ios": "https://dc.lft.to/lastmile_qr_scan"}, "lon": -77.037831, "fusion_lat": 0.0}, {"name": "d629191c87cd59691568f22426c6a7b9", "fusion_lon": 0.0, "lat": 38.907585, "is_reserved": 0, "type": "electric_scooter", "bike_id": "d629191c87cd59691568f22426c6a7b9", "is_disabled": 0, "rental_uris": {"android": "https://dc.lft.to/lastmile_qr_scan", "ios": "https://dc.lft.to/lastmile_qr_scan"}, "lon": -77.02966016666667, "fusion_lat": 0.0}, {"name": "d62988b21b03dfbdd6764f8c413ed4d9", "fusion_lon": 0.0, "lat": 38.92874316666666, "is_reserved": 0, "type": "electric_scooter", "bike_id": "d62988b21b03dfbdd6764f8c413ed4d9", "is_disabled": 0, "rental_uris": {"android": "https://dc.lft.to/lastmile_qr_scan", "ios": "https://dc.lft.to/lastmile_qr_scan"}, "lon": -77.0333335, "fusion_lat": 0.0}, {"name": "863f7fdb861bf32f0dd9bca23153b72f", "fusion_lon": 0.0, "lat": 38.920341, "is_reserved": 0, "type": "electric_scooter", "bike_id": "863f7fdb861bf32f0dd9bca23153b72f", "is_disabled": 0, "rental_uris": {"android": "https://dc.lft.to/lastmile_qr_scan", "ios": "https://dc.lft.to/lastmile_qr_scan"}, "lon": -77.02573833333334, "fusion_lat": 0.0}, {"name": "dc28cd36aef5cf75d85e591154fef551", "fusion_lon": 0.0, "lat": 38.931262, "is_reserved": 0, "type": "electric_scooter", "bike_id": "dc28cd36aef5cf75d85e591154fef551", "is_disabled": 0, "rental_uris": {"android": "https://dc.lft.to/lastmile_qr_scan", "ios": "https://dc.lft.to/lastmile_qr_scan"}, "lon": -77.03306666666667, "fusion_lat": 0.0}, {"name": "a29771d1d7d546fe99a5df61200b32bc", "fusion_lon": 0.0, "lat": 38.847313666666665, "is_reserved": 0, "type": "electric_bike", "bike_id": "a29771d1d7d546fe99a5df61200b32bc", "is_disabled": 0, "rental_uris": {"android": "https://dc.lft.to/lastmile_qr_scan", "ios": "https://dc.lft.to/lastmile_qr_scan"}, "lon": -77.11987266666667, "fusion_lat": 0.0}, {"name": "1e811dde4cad8e863413715ca9b71dc9", "fusion_lon": 0.0, "lat": 38.877246666666665, "is_reserved": 0, "type": "electric_scooter", "bike_id": "1e811dde4cad8e863413715ca9b71dc9", "is_disabled": 0, "rental_uris": {"android": "https://dc.lft.to/lastmile_qr_scan", "ios": "https://dc.lft.to/lastmile_qr_scan"}, "lon": -77.017695, "fusion_lat": 0.0}, {"name": "888764d60f088fc5a5a21d0cb265697f", "fusion_lon": 0.0, "lat": 38.89912183333333, "is_reserved": 0, "type": "electric_scooter", "bike_id": "888764d60f088fc5a5a21d0cb265697f", "is_disabled": 0, "rental_uris": {"android": "https://dc.lft.to/lastmile_qr_scan", "ios": "https://dc.lft.to/lastmile_qr_scan"}, "lon": -76.93376383333333, "fusion_lat": 0.0}, {"name": "c090ae62fdf2f6f19e6a15df4d1b9d40", "fusion_lon": 0.0, "lat": 38.8921845, "is_reserved": 0, "type": "electric_scooter", "bike_id": "c090ae62fdf2f6f19e6a15df4d1b9d40", "is_disabled": 0, "rental_uris": {"android": "https://dc.lft.to/lastmile_qr_scan", "ios": "https://dc.lft.to/lastmile_qr_scan"}, "lon": -77.012823, "fusion_lat": 0.0}, {"name": "37162ec9e1d7b27d99230f3d3095c4d5", "fusion_lon": 0.0, "lat": 38.90336533333333, "is_reserved": 0, "type": "electric_scooter", "bike_id": "37162ec9e1d7b27d99230f3d3095c4d5", "is_disabled": 0, "rental_uris": {"android": "https://dc.lft.to/lastmile_qr_scan", "ios": "https://dc.lft.to/lastmile_qr_scan"}, "lon": -76.9758, "fusion_lat": 0.0}, {"name": "546131580df66eaa96f37f395282fa54", "fusion_lon": 0.0, "lat": 38.923377333333335, "is_reserved": 0, "type": "electric_scooter", "bike_id": "546131580df66eaa96f37f395282fa54", "is_disabled": 0, "rental_uris": {"android": "https://dc.lft.to/lastmile_qr_scan", "ios": "https://dc.lft.to/lastmile_qr_scan"}, "lon": -77.052454, "fusion_lat": 0.0}, {"name": "d410add0613867a562e11e9057c7efc1", "fusion_lon": 0.0, "lat": 38.898234, "is_reserved": 0, "type": "electric_scooter", "bike_id": "d410add0613867a562e11e9057c7efc1", "is_disabled": 0, "rental_uris": {"android": "https://dc.lft.to/lastmile_qr_scan", "ios": "https://dc.lft.to/lastmile_qr_scan"}, "lon": -77.04945266666667, "fusion_lat": 0.0}, {"name": "43ce9e8c3911b6cd60ec5d4376426d94", "fusion_lon": 0.0, "lat": 38.901523833333336, "is_reserved": 0, "type": "electric_scooter", "bike_id": "43ce9e8c3911b6cd60ec5d4376426d94", "is_disabled": 0, "rental_uris": {"android": "https://dc.lft.to/lastmile_qr_scan", "ios": "https://dc.lft.to/lastmile_qr_scan"}, "lon": -76.921375, "fusion_lat": 0.0}, {"name": "67f894478f235e47e04c8379539467f4", "fusion_lon": 0.0, "lat": 38.9141195, "is_reserved": 0, "type": "electric_scooter", "bike_id": "67f894478f235e47e04c8379539467f4", "is_disabled": 0, "rental_uris": {"android": "https://dc.lft.to/lastmile_qr_scan", "ios": "https://dc.lft.to/lastmile_qr_scan"}, "lon": -77.0402905, "fusion_lat": 0.0}, {"name": "455bb01bf617d6b17ba0b245a3a2e0f9", "fusion_lon": 0.0, "lat": 38.90273583333333, "is_reserved": 0, "type": "electric_scooter", "bike_id": "455bb01bf617d6b17ba0b245a3a2e0f9", "is_disabled": 0, "rental_uris": {"android": "https://dc.lft.to/lastmile_qr_scan", "ios": "https://dc.lft.to/lastmile_qr_scan"}, "lon": -77.03971616666666, "fusion_lat": 0.0}, {"name": "4f2e4e4f2dea2828bb75810fed2e05b4", "fusion_lon": 0.0, "lat": 38.919909833333335, "is_reserved": 0, "type": "electric_scooter", "bike_id": "4f2e4e4f2dea2828bb75810fed2e05b4", "is_disabled": 0, "rental_uris": {"android": "https://dc.lft.to/lastmile_qr_scan", "ios": "https://dc.lft.to/lastmile_qr_scan"}, "lon": -77.0238535, "fusion_lat": 0.0}, {"name": "71c772b71ae4d8e8f08afe672a39c0e9", "fusion_lon": 0.0, "lat": 38.9498965, "is_reserved": 0, "type": "electric_scooter", "bike_id": "71c772b71ae4d8e8f08afe672a39c0e9", "is_disabled": 0, "rental_uris": {"android": "https://dc.lft.to/lastmile_qr_scan", "ios": "https://dc.lft.to/lastmile_qr_scan"}, "lon": -77.02704716666666, "fusion_lat": 0.0}, {"name": "13cc68e62fbb47927f4c52c5ed1c663a", "fusion_lon": 0.0, "lat": 38.91120333333333, "is_reserved": 0, "type": "electric_scooter", "bike_id": "13cc68e62fbb47927f4c52c5ed1c663a", "is_disabled": 0, "rental_uris": {"android": "https://dc.lft.to/lastmile_qr_scan", "ios": "https://dc.lft.to/lastmile_qr_scan"}, "lon": -77.02236933333333, "fusion_lat": 0.0}, {"name": "85b63006d4e812d8baebc014965d5d57", "fusion_lon": 0.0, "lat": 38.883925833333336, "is_reserved": 0, "type": "electric_scooter", "bike_id": "85b63006d4e812d8baebc014965d5d57", "is_disabled": 0, "rental_uris": {"android": "https://dc.lft.to/lastmile_qr_scan", "ios": "https://dc.lft.to/lastmile_qr_scan"}, "lon": -77.02554983333333, "fusion_lat": 0.0}, {"name": "c93b8c21c54e1fc0c53edcfe811589d9", "fusion_lon": 0.0, "lat": 38.9718225, "is_reserved": 0, "type": "electric_scooter", "bike_id": "c93b8c21c54e1fc0c53edcfe811589d9", "is_disabled": 0, "rental_uris": {"android": "https://dc.lft.to/lastmile_qr_scan", "ios": "https://dc.lft.to/lastmile_qr_scan"}, "lon": -77.02678633333333, "fusion_lat": 0.0}, {"name": "e89011629b110b34be335b52da4452ab", "fusion_lon": 0.0, "lat": 38.9183925, "is_reserved": 0, "type": "electric_scooter", "bike_id": "e89011629b110b34be335b52da4452ab", "is_disabled": 0, "rental_uris": {"android": "https://dc.lft.to/lastmile_qr_scan", "ios": "https://dc.lft.to/lastmile_qr_scan"}, "lon": -77.059476, "fusion_lat": 0.0}, {"name": "edde90781d5eb3a32055d570062b312b", "fusion_lon": 0.0, "lat": 38.87820833333333, "is_reserved": 0, "type": "electric_scooter", "bike_id": "edde90781d5eb3a32055d570062b312b", "is_disabled": 0, "rental_uris": {"android": "https://dc.lft.to/lastmile_qr_scan", "ios": "https://dc.lft.to/lastmile_qr_scan"}, "lon": -76.93105, "fusion_lat": 0.0}, {"name": "65134973f2351eea5cdbc585fca031af", "fusion_lon": 0.0, "lat": 38.90408933333333, "is_reserved": 0, "type": "electric_scooter", "bike_id": "65134973f2351eea5cdbc585fca031af", "is_disabled": 0, "rental_uris": {"android": "https://dc.lft.to/lastmile_qr_scan", "ios": "https://dc.lft.to/lastmile_qr_scan"}, "lon": -76.97326166666667, "fusion_lat": 0.0}, {"name": "41d8879f41371d9c208ddb38cf046b0c", "fusion_lon": 0.0, "lat": 38.878559333333335, "is_reserved": 0, "type": "electric_bike", "bike_id": "41d8879f41371d9c208ddb38cf046b0c", "is_disabled": 0, "rental_uris": {"android": "https://dc.lft.to/lastmile_qr_scan", "ios": "https://dc.lft.to/lastmile_qr_scan"}, "lon": -77.0176475, "fusion_lat": 0.0}, {"name": "2550f3be58f3e262d1026fbf5de5baf4", "fusion_lon": 0.0, "lat": 39.000294, "is_reserved": 0, "type": "electric_bike", "bike_id": "2550f3be58f3e262d1026fbf5de5baf4", "is_disabled": 0, "rental_uris": {"android": "https://dc.lft.to/lastmile_qr_scan", "ios": "https://dc.lft.to/lastmile_qr_scan"}, "lon": -77.0474465, "fusion_lat": 0.0}, {"name": "ceb10f2c6c5f25834384a90e62527a2d", "fusion_lon": 0.0, "lat": 38.905700833333334, "is_reserved": 0, "type": "electric_scooter", "bike_id": "ceb10f2c6c5f25834384a90e62527a2d", "is_disabled": 0, "rental_uris": {"android": "https://dc.lft.to/lastmile_qr_scan", "ios": "https://dc.lft.to/lastmile_qr_scan"}, "lon": -77.04342133333333, "fusion_lat": 0.0}, {"name": "adb24125d1c66547d0e9079ffe5d80c9", "fusion_lon": 0.0, "lat": 38.9151985, "is_reserved": 0, "type": "electric_scooter", "bike_id": "adb24125d1c66547d0e9079ffe5d80c9", "is_disabled": 0, "rental_uris": {"android": "https://dc.lft.to/lastmile_qr_scan", "ios": "https://dc.lft.to/lastmile_qr_scan"}, "lon": -77.012253, "fusion_lat": 0.0}, {"name": "4ec65221b83f4ffdc04ea5e75fddfd19", "fusion_lon": 0.0, "lat": 38.87297016666667, "is_reserved": 0, "type": "electric_bike", "bike_id": "4ec65221b83f4ffdc04ea5e75fddfd19", "is_disabled": 0, "rental_uris": {"android": "https://dc.lft.to/lastmile_qr_scan", "ios": "https://dc.lft.to/lastmile_qr_scan"}, "lon": -76.96975333333333, "fusion_lat": 0.0}, {"name": "d69188f6a2d4dd52f0996218dc170514", "fusion_lon": 0.0, "lat": 38.886571, "is_reserved": 0, "type": "electric_scooter", "bike_id": "d69188f6a2d4dd52f0996218dc170514", "is_disabled": 0, "rental_uris": {"android": "https://dc.lft.to/lastmile_qr_scan", "ios": "https://dc.lft.to/lastmile_qr_scan"}, "lon": -76.99986216666667, "fusion_lat": 0.0}, {"name": "cffd022f4b972be0606231d8b29d7b6d", "fusion_lon": 0.0, "lat": 38.90789783333334, "is_reserved": 0, "type": "electric_scooter", "bike_id": "cffd022f4b972be0606231d8b29d7b6d", "is_disabled": 0, "rental_uris": {"android": "https://dc.lft.to/lastmile_qr_scan", "ios": "https://dc.lft.to/lastmile_qr_scan"}, "lon": -77.03861316666666, "fusion_lat": 0.0}, {"name": "e1562ed9d41b097b1e68151f16f47848", "fusion_lon": 0.0, "lat": 38.838221833333336, "is_reserved": 0, "type": "electric_bike", "bike_id": "e1562ed9d41b097b1e68151f16f47848", "is_disabled": 0, "rental_uris": {"android": "https://dc.lft.to/lastmile_qr_scan", "ios": "https://dc.lft.to/lastmile_qr_scan"}, "lon": -77.07911966666667, "fusion_lat": 0.0}, {"name": "1596e3355804357b6de25b416339e5c8", "fusion_lon": 0.0, "lat": 38.94829416666666, "is_reserved": 0, "type": "electric_bike", "bike_id": "1596e3355804357b6de25b416339e5c8", "is_disabled": 0, "rental_uris": {"android": "https://dc.lft.to/lastmile_qr_scan", "ios": "https://dc.lft.to/lastmile_qr_scan"}, "lon": -77.03374866666667, "fusion_lat": 0.0}, {"name": "068846a0bd373548ef7fac86a8c78eb6", "fusion_lon": 0.0, "lat": 38.924585666666665, "is_reserved": 0, "type": "electric_scooter", "bike_id": "068846a0bd373548ef7fac86a8c78eb6", "is_disabled": 0, "rental_uris": {"android": "https://dc.lft.to/lastmile_qr_scan", "ios": "https://dc.lft.to/lastmile_qr_scan"}, "lon": -77.027088, "fusion_lat": 0.0}, {"name": "6bac1a719b25f21a683d4c6af6b976bf", "fusion_lon": 0.0, "lat": 38.87546316666667, "is_reserved": 0, "type": "electric_scooter", "bike_id": "6bac1a719b25f21a683d4c6af6b976bf", "is_disabled": 0, "rental_uris": {"android": "https://dc.lft.to/lastmile_qr_scan", "ios": "https://dc.lft.to/lastmile_qr_scan"}, "lon": -77.00553666666667, "fusion_lat": 0.0}, {"name": "77123caa79f51d87558971b0cbdff89e", "fusion_lon": 0.0, "lat": 38.903615333333335, "is_reserved": 0, "type": "electric_scooter", "bike_id": "77123caa79f51d87558971b0cbdff89e", "is_disabled": 0, "rental_uris": {"android": "https://dc.lft.to/lastmile_qr_scan", "ios": "https://dc.lft.to/lastmile_qr_scan"}, "lon": -77.0367315, "fusion_lat": 0.0}, {"name": "360d5d94f30d5a346c2dc8473bd7c38c", "fusion_lon": 0.0, "lat": 38.92969333333333, "is_reserved": 0, "type": "electric_scooter", "bike_id": "360d5d94f30d5a346c2dc8473bd7c38c", "is_disabled": 0, "rental_uris": {"android": "https://dc.lft.to/lastmile_qr_scan", "ios": "https://dc.lft.to/lastmile_qr_scan"}, "lon": -77.02817433333334, "fusion_lat": 0.0}, {"name": "2670c383fd164613b925549733fa6f10", "fusion_lon": 0.0, "lat": 38.884033333333335, "is_reserved": 0, "type": "electric_scooter", "bike_id": "2670c383fd164613b925549733fa6f10", "is_disabled": 0, "rental_uris": {"android": "https://dc.lft.to/lastmile_qr_scan", "ios": "https://dc.lft.to/lastmile_qr_scan"}, "lon": -76.95390483333334, "fusion_lat": 0.0}, {"name": "4b70459dacfca576136b6083ce7a113c", "fusion_lon": 0.0, "lat": 38.90835666666667, "is_reserved": 0, "type": "electric_bike", "bike_id": "4b70459dacfca576136b6083ce7a113c", "is_disabled": 0, "rental_uris": {"android": "https://dc.lft.to/lastmile_qr_scan", "ios": "https://dc.lft.to/lastmile_qr_scan"}, "lon": -76.93307016666667, "fusion_lat": 0.0}, {"name": "72adc5534ad8a5153d479031cc53c29d", "fusion_lon": 0.0, "lat": 38.94032133333333, "is_reserved": 0, "type": "electric_scooter", "bike_id": "72adc5534ad8a5153d479031cc53c29d", "is_disabled": 0, "rental_uris": {"android": "https://dc.lft.to/lastmile_qr_scan", "ios": "https://dc.lft.to/lastmile_qr_scan"}, "lon": -77.02905183333333, "fusion_lat": 0.0}, {"name": "eebaeb8d4f21d5184dcae06b965fe47a", "fusion_lon": 0.0, "lat": 38.910680666666664, "is_reserved": 0, "type": "electric_scooter", "bike_id": "eebaeb8d4f21d5184dcae06b965fe47a", "is_disabled": 0, "rental_uris": {"android": "https://dc.lft.to/lastmile_qr_scan", "ios": "https://dc.lft.to/lastmile_qr_scan"}, "lon": -77.0383525, "fusion_lat": 0.0}, {"name": "d977c4601ef938504753e41bbb7303f7", "fusion_lon": 0.0, "lat": 38.92247966666667, "is_reserved": 0, "type": "electric_scooter", "bike_id": "d977c4601ef938504753e41bbb7303f7", "is_disabled": 0, "rental_uris": {"android": "https://dc.lft.to/lastmile_qr_scan", "ios": "https://dc.lft.to/lastmile_qr_scan"}, "lon": -77.02973966666667, "fusion_lat": 0.0}, {"name": "2c60575c7beeb181bff5384a371a84c3", "fusion_lon": 0.0, "lat": 38.879365666666665, "is_reserved": 0, "type": "electric_scooter", "bike_id": "2c60575c7beeb181bff5384a371a84c3", "is_disabled": 0, "rental_uris": {"android": "https://dc.lft.to/lastmile_qr_scan", "ios": "https://dc.lft.to/lastmile_qr_scan"}, "lon": -77.00911633333334, "fusion_lat": 0.0}, {"name": "fabd97dc2d4348d2620e2a5cb21637b3", "fusion_lon": 0.0, "lat": 38.9021725, "is_reserved": 0, "type": "electric_scooter", "bike_id": "fabd97dc2d4348d2620e2a5cb21637b3", "is_disabled": 0, "rental_uris": {"android": "https://dc.lft.to/lastmile_qr_scan", "ios": "https://dc.lft.to/lastmile_qr_scan"}, "lon": -77.02435483333333, "fusion_lat": 0.0}, {"name": "5c035058a00770352fc9f917c2485319", "fusion_lon": 0.0, "lat": 38.952278, "is_reserved": 0, "type": "electric_scooter", "bike_id": "5c035058a00770352fc9f917c2485319", "is_disabled": 0, "rental_uris": {"android": "https://dc.lft.to/lastmile_qr_scan", "ios": "https://dc.lft.to/lastmile_qr_scan"}, "lon": -77.01427516666666, "fusion_lat": 0.0}, {"name": "00d433bddebd729402c310807b4e8cf4", "fusion_lon": 0.0, "lat": 38.914776333333336, "is_reserved": 0, "type": "electric_scooter", "bike_id": "00d433bddebd729402c310807b4e8cf4", "is_disabled": 0, "rental_uris": {"android": "https://dc.lft.to/lastmile_qr_scan", "ios": "https://dc.lft.to/lastmile_qr_scan"}, "lon": -77.02534633333333, "fusion_lat": 0.0}, {"name": "5a9b06d4f1123c6eecb17f94f3c0fa77", "fusion_lon": 0.0, "lat": 38.93070516666667, "is_reserved": 0, "type": "electric_scooter", "bike_id": "5a9b06d4f1123c6eecb17f94f3c0fa77", "is_disabled": 0, "rental_uris": {"android": "https://dc.lft.to/lastmile_qr_scan", "ios": "https://dc.lft.to/lastmile_qr_scan"}, "lon": -77.0216005, "fusion_lat": 0.0}, {"name": "e2056a10a3268f542529cb75b69ac424", "fusion_lon": 0.0, "lat": 38.920706, "is_reserved": 0, "type": "electric_scooter", "bike_id": "e2056a10a3268f542529cb75b69ac424", "is_disabled": 0, "rental_uris": {"android": "https://dc.lft.to/lastmile_qr_scan", "ios": "https://dc.lft.to/lastmile_qr_scan"}, "lon": -77.02412816666667, "fusion_lat": 0.0}, {"name": "6f7501702cee31c777e90445826cda75", "fusion_lon": 0.0, "lat": 38.90831583333333, "is_reserved": 0, "type": "electric_scooter", "bike_id": "6f7501702cee31c777e90445826cda75", "is_disabled": 0, "rental_uris": {"android": "https://dc.lft.to/lastmile_qr_scan", "ios": "https://dc.lft.to/lastmile_qr_scan"}, "lon": -77.00914666666667, "fusion_lat": 0.0}, {"name": "679e5430b98942e056fae4f29b97be0f", "fusion_lon": 0.0, "lat": 38.88719433333333, "is_reserved": 0, "type": "electric_scooter", "bike_id": "679e5430b98942e056fae4f29b97be0f", "is_disabled": 0, "rental_uris": {"android": "https://dc.lft.to/lastmile_qr_scan", "ios": "https://dc.lft.to/lastmile_qr_scan"}, "lon": -77.01771683333334, "fusion_lat": 0.0}, {"name": "d87b34b7005a2e4e29cb64837b9eeee9", "fusion_lon": 0.0, "lat": 38.90628983333333, "is_reserved": 0, "type": "electric_scooter", "bike_id": "d87b34b7005a2e4e29cb64837b9eeee9", "is_disabled": 0, "rental_uris": {"android": "https://dc.lft.to/lastmile_qr_scan", "ios": "https://dc.lft.to/lastmile_qr_scan"}, "lon": -77.03423766666667, "fusion_lat": 0.0}, {"name": "6876a8e7c96a4c85d9604783fae521e9", "fusion_lon": 0.0, "lat": 38.932173, "is_reserved": 0, "type": "electric_scooter", "bike_id": "6876a8e7c96a4c85d9604783fae521e9", "is_disabled": 0, "rental_uris": {"android": "https://dc.lft.to/lastmile_qr_scan", "ios": "https://dc.lft.to/lastmile_qr_scan"}, "lon": -77.03342916666666, "fusion_lat": 0.0}, {"name": "d66aa7e8bb9dd7ec02f6fb38a8c7dcd0", "fusion_lon": 0.0, "lat": 38.87628683333333, "is_reserved": 0, "type": "electric_scooter", "bike_id": "d66aa7e8bb9dd7ec02f6fb38a8c7dcd0", "is_disabled": 0, "rental_uris": {"android": "https://dc.lft.to/lastmile_qr_scan", "ios": "https://dc.lft.to/lastmile_qr_scan"}, "lon": -77.00559, "fusion_lat": 0.0}, {"name": "db2b68bd96d1413ca7079d2e8f68ca14", "fusion_lon": 0.0, "lat": 38.8983555, "is_reserved": 0, "type": "electric_scooter", "bike_id": "db2b68bd96d1413ca7079d2e8f68ca14", "is_disabled": 0, "rental_uris": {"android": "https://dc.lft.to/lastmile_qr_scan", "ios": "https://dc.lft.to/lastmile_qr_scan"}, "lon": -77.03360416666666, "fusion_lat": 0.0}, {"name": "38388d7b59f72692bbbdc84bc1c0d013", "fusion_lon": 0.0, "lat": 38.86693116666667, "is_reserved": 0, "type": "electric_scooter", "bike_id": "38388d7b59f72692bbbdc84bc1c0d013", "is_disabled": 0, "rental_uris": {"android": "https://dc.lft.to/lastmile_qr_scan", "ios": "https://dc.lft.to/lastmile_qr_scan"}, "lon": -76.98708916666666, "fusion_lat": 0.0}, {"name": "9e79fb777add4f4749e2494e0dc3dec6", "fusion_lon": 0.0, "lat": 38.95709316666667, "is_reserved": 0, "type": "electric_scooter", "bike_id": "9e79fb777add4f4749e2494e0dc3dec6", "is_disabled": 0, "rental_uris": {"android": "https://dc.lft.to/lastmile_qr_scan", "ios": "https://dc.lft.to/lastmile_qr_scan"}, "lon": -77.02395933333334, "fusion_lat": 0.0}, {"name": "c023c73c2432623ebaeee64a5c6c776e", "fusion_lon": 0.0, "lat": 38.919056833333336, "is_reserved": 0, "type": "electric_scooter", "bike_id": "c023c73c2432623ebaeee64a5c6c776e", "is_disabled": 0, "rental_uris": {"android": "https://dc.lft.to/lastmile_qr_scan", "ios": "https://dc.lft.to/lastmile_qr_scan"}, "lon": -77.02504833333333, "fusion_lat": 0.0}, {"name": "82cc2d482ae745498821539bbf208502", "fusion_lon": 0.0, "lat": 38.90420483333333, "is_reserved": 0, "type": "electric_scooter", "bike_id": "82cc2d482ae745498821539bbf208502", "is_disabled": 0, "rental_uris": {"android": "https://dc.lft.to/lastmile_qr_scan", "ios": "https://dc.lft.to/lastmile_qr_scan"}, "lon": -77.02511466666667, "fusion_lat": 0.0}, {"name": "8d783d69ec0efedd828739bed1f3fc9e", "fusion_lon": 0.0, "lat": 38.9016245, "is_reserved": 0, "type": "electric_scooter", "bike_id": "8d783d69ec0efedd828739bed1f3fc9e", "is_disabled": 0, "rental_uris": {"android": "https://dc.lft.to/lastmile_qr_scan", "ios": "https://dc.lft.to/lastmile_qr_scan"}, "lon": -77.05057916666667, "fusion_lat": 0.0}, {"name": "c9469e30dab797297a77b4363fcc6dec", "fusion_lon": 0.0, "lat": 38.92087766666667, "is_reserved": 0, "type": "electric_scooter", "bike_id": "c9469e30dab797297a77b4363fcc6dec", "is_disabled": 0, "rental_uris": {"android": "https://dc.lft.to/lastmile_qr_scan", "ios": "https://dc.lft.to/lastmile_qr_scan"}, "lon": -77.00433833333334, "fusion_lat": 0.0}, {"name": "cfc29b540c1ecd5641d4879a9f61d4f3", "fusion_lon": 0.0, "lat": 38.92209166666667, "is_reserved": 0, "type": "electric_bike", "bike_id": "cfc29b540c1ecd5641d4879a9f61d4f3", "is_disabled": 0, "rental_uris": {"android": "https://dc.lft.to/lastmile_qr_scan", "ios": "https://dc.lft.to/lastmile_qr_scan"}, "lon": -76.987901, "fusion_lat": 0.0}, {"name": "1a32e2c7f236b39c35209d52995ac8b1", "fusion_lon": 0.0, "lat": 38.902727166666665, "is_reserved": 0, "type": "electric_scooter", "bike_id": "1a32e2c7f236b39c35209d52995ac8b1", "is_disabled": 0, "rental_uris": {"android": "https://dc.lft.to/lastmile_qr_scan", "ios": "https://dc.lft.to/lastmile_qr_scan"}, "lon": -77.0394575, "fusion_lat": 0.0}, {"name": "c23f8957f067d94eb7f9d4d62b4ae012", "fusion_lon": 0.0, "lat": 38.914149333333334, "is_reserved": 0, "type": "electric_scooter", "bike_id": "c23f8957f067d94eb7f9d4d62b4ae012", "is_disabled": 0, "rental_uris": {"android": "https://dc.lft.to/lastmile_qr_scan", "ios": "https://dc.lft.to/lastmile_qr_scan"}, "lon": -77.02147083333334, "fusion_lat": 0.0}, {"name": "f68584a4ab7f874e24e617185f1d62b6", "fusion_lon": 0.0, "lat": 38.911973, "is_reserved": 0, "type": "electric_scooter", "bike_id": "f68584a4ab7f874e24e617185f1d62b6", "is_disabled": 0, "rental_uris": {"android": "https://dc.lft.to/lastmile_qr_scan", "ios": "https://dc.lft.to/lastmile_qr_scan"}, "lon": -77.03843416666666, "fusion_lat": 0.0}, {"name": "0f0b88e377771fad89aec8b0f99cc034", "fusion_lon": 0.0, "lat": 38.93676516666667, "is_reserved": 0, "type": "electric_scooter", "bike_id": "0f0b88e377771fad89aec8b0f99cc034", "is_disabled": 0, "rental_uris": {"android": "https://dc.lft.to/lastmile_qr_scan", "ios": "https://dc.lft.to/lastmile_qr_scan"}, "lon": -77.03623833333333, "fusion_lat": 0.0}, {"name": "5da032805a9e8b9b30fd25894b700c2d", "fusion_lon": 0.0, "lat": 38.86092333333333, "is_reserved": 0, "type": "electric_bike", "bike_id": "5da032805a9e8b9b30fd25894b700c2d", "is_disabled": 0, "rental_uris": {"android": "https://dc.lft.to/lastmile_qr_scan", "ios": "https://dc.lft.to/lastmile_qr_scan"}, "lon": -77.09584583333333, "fusion_lat": 0.0}, {"name": "2445c40839bd2fffdbaaef80e397ec4d", "fusion_lon": 0.0, "lat": 38.918309, "is_reserved": 0, "type": "electric_scooter", "bike_id": "2445c40839bd2fffdbaaef80e397ec4d", "is_disabled": 0, "rental_uris": {"android": "https://dc.lft.to/lastmile_qr_scan", "ios": "https://dc.lft.to/lastmile_qr_scan"}, "lon": -77.031844, "fusion_lat": 0.0}, {"name": "ac39eb2306c4b580432f3dc6d3e32185", "fusion_lon": 0.0, "lat": 38.881158, "is_reserved": 0, "type": "electric_scooter", "bike_id": "ac39eb2306c4b580432f3dc6d3e32185", "is_disabled": 0, "rental_uris": {"android": "https://dc.lft.to/lastmile_qr_scan", "ios": "https://dc.lft.to/lastmile_qr_scan"}, "lon": -77.016553, "fusion_lat": 0.0}, {"name": "d1535493446e5655f853af6858b67fb7", "fusion_lon": 0.0, "lat": 38.88811333333334, "is_reserved": 0, "type": "electric_scooter", "bike_id": "d1535493446e5655f853af6858b67fb7", "is_disabled": 0, "rental_uris": {"android": "https://dc.lft.to/lastmile_qr_scan", "ios": "https://dc.lft.to/lastmile_qr_scan"}, "lon": -76.933444, "fusion_lat": 0.0}, {"name": "008f5582f77fd6a8b04523eac214e093", "fusion_lon": 0.0, "lat": 38.911022, "is_reserved": 0, "type": "electric_scooter", "bike_id": "008f5582f77fd6a8b04523eac214e093", "is_disabled": 0, "rental_uris": {"android": "https://dc.lft.to/lastmile_qr_scan", "ios": "https://dc.lft.to/lastmile_qr_scan"}, "lon": -77.0447245, "fusion_lat": 0.0}, {"name": "a91d5222ff2e313f0f774204b7fa4c4a", "fusion_lon": 0.0, "lat": 38.91618316666667, "is_reserved": 0, "type": "electric_scooter", "bike_id": "a91d5222ff2e313f0f774204b7fa4c4a", "is_disabled": 0, "rental_uris": {"android": "https://dc.lft.to/lastmile_qr_scan", "ios": "https://dc.lft.to/lastmile_qr_scan"}, "lon": -77.031801, "fusion_lat": 0.0}, {"name": "7d2b2749cccdf8e3b212589de623ba35", "fusion_lon": 0.0, "lat": 38.924715166666665, "is_reserved": 0, "type": "electric_scooter", "bike_id": "7d2b2749cccdf8e3b212589de623ba35", "is_disabled": 0, "rental_uris": {"android": "https://dc.lft.to/lastmile_qr_scan", "ios": "https://dc.lft.to/lastmile_qr_scan"}, "lon": -77.02204566666667, "fusion_lat": 0.0}, {"name": "2610a0d1095347da3b74cfc4189328fc", "fusion_lon": 0.0, "lat": 38.916365, "is_reserved": 0, "type": "electric_scooter", "bike_id": "2610a0d1095347da3b74cfc4189328fc", "is_disabled": 0, "rental_uris": {"android": "https://dc.lft.to/lastmile_qr_scan", "ios": "https://dc.lft.to/lastmile_qr_scan"}, "lon": -77.00195683333334, "fusion_lat": 0.0}, {"name": "34308646c0d0caf490bb9487ce15c0d7", "fusion_lon": 0.0, "lat": 38.903819, "is_reserved": 0, "type": "electric_scooter", "bike_id": "34308646c0d0caf490bb9487ce15c0d7", "is_disabled": 0, "rental_uris": {"android": "https://dc.lft.to/lastmile_qr_scan", "ios": "https://dc.lft.to/lastmile_qr_scan"}, "lon": -77.04472416666667, "fusion_lat": 0.0}, {"name": "60fbd8e4e731d72959c2f1a5ae67ca56", "fusion_lon": 0.0, "lat": 38.90173683333333, "is_reserved": 0, "type": "electric_scooter", "bike_id": "60fbd8e4e731d72959c2f1a5ae67ca56", "is_disabled": 0, "rental_uris": {"android": "https://dc.lft.to/lastmile_qr_scan", "ios": "https://dc.lft.to/lastmile_qr_scan"}, "lon": -76.98066216666666, "fusion_lat": 0.0}, {"name": "c710588d9ea7d90b525c345896c2e2f0", "fusion_lon": 0.0, "lat": 38.90384483333333, "is_reserved": 0, "type": "electric_scooter", "bike_id": "c710588d9ea7d90b525c345896c2e2f0", "is_disabled": 0, "rental_uris": {"android": "https://dc.lft.to/lastmile_qr_scan", "ios": "https://dc.lft.to/lastmile_qr_scan"}, "lon": -77.01966266666666, "fusion_lat": 0.0}, {"name": "8dc225df0467d70dc813d3339d7e8089", "fusion_lon": 0.0, "lat": 38.90260216666667, "is_reserved": 0, "type": "electric_scooter", "bike_id": "8dc225df0467d70dc813d3339d7e8089", "is_disabled": 0, "rental_uris": {"android": "https://dc.lft.to/lastmile_qr_scan", "ios": "https://dc.lft.to/lastmile_qr_scan"}, "lon": -77.02816733333333, "fusion_lat": 0.0}, {"name": "e6a086454beea2ad3b695fc3011b97a2", "fusion_lon": 0.0, "lat": 38.93360066666666, "is_reserved": 0, "type": "electric_scooter", "bike_id": "e6a086454beea2ad3b695fc3011b97a2", "is_disabled": 0, "rental_uris": {"android": "https://dc.lft.to/lastmile_qr_scan", "ios": "https://dc.lft.to/lastmile_qr_scan"}, "lon": -77.088497, "fusion_lat": 0.0}, {"name": "4633b95021c51eb72a382fc7f826a14c", "fusion_lon": 0.0, "lat": 38.919360166666664, "is_reserved": 0, "type": "electric_scooter", "bike_id": "4633b95021c51eb72a382fc7f826a14c", "is_disabled": 0, "rental_uris": {"android": "https://dc.lft.to/lastmile_qr_scan", "ios": "https://dc.lft.to/lastmile_qr_scan"}, "lon": -77.04468116666666, "fusion_lat": 0.0}, {"name": "b3a81be6e0c72de7343671c1389d8c73", "fusion_lon": 0.0, "lat": 38.884838, "is_reserved": 0, "type": "electric_bike", "bike_id": "b3a81be6e0c72de7343671c1389d8c73", "is_disabled": 0, "rental_uris": {"android": "https://dc.lft.to/lastmile_qr_scan", "ios": "https://dc.lft.to/lastmile_qr_scan"}, "lon": -77.12768633333333, "fusion_lat": 0.0}, {"name": "4dcfb6aaf41ee9761a14b3eb3a4da6c4", "fusion_lon": 0.0, "lat": 38.90729283333334, "is_reserved": 0, "type": "electric_scooter", "bike_id": "4dcfb6aaf41ee9761a14b3eb3a4da6c4", "is_disabled": 0, "rental_uris": {"android": "https://dc.lft.to/lastmile_qr_scan", "ios": "https://dc.lft.to/lastmile_qr_scan"}, "lon": -77.0113375, "fusion_lat": 0.0}, {"name": "e1c4fd3addb5193993bcf32e1c3ae906", "fusion_lon": 0.0, "lat": 38.911908, "is_reserved": 0, "type": "electric_scooter", "bike_id": "e1c4fd3addb5193993bcf32e1c3ae906", "is_disabled": 0, "rental_uris": {"android": "https://dc.lft.to/lastmile_qr_scan", "ios": "https://dc.lft.to/lastmile_qr_scan"}, "lon": -77.00202233333333, "fusion_lat": 0.0}, {"name": "10b39ee49b078dd4051922125500f1c4", "fusion_lon": 0.0, "lat": 38.903773666666666, "is_reserved": 0, "type": "electric_scooter", "bike_id": "10b39ee49b078dd4051922125500f1c4", "is_disabled": 0, "rental_uris": {"android": "https://dc.lft.to/lastmile_qr_scan", "ios": "https://dc.lft.to/lastmile_qr_scan"}, "lon": -77.04478766666666, "fusion_lat": 0.0}, {"name": "b5cea2d0ad156a043a742d60471f6fff", "fusion_lon": 0.0, "lat": 38.945119166666665, "is_reserved": 0, "type": "electric_scooter", "bike_id": "b5cea2d0ad156a043a742d60471f6fff", "is_disabled": 0, "rental_uris": {"android": "https://dc.lft.to/lastmile_qr_scan", "ios": "https://dc.lft.to/lastmile_qr_scan"}, "lon": -77.03373183333333, "fusion_lat": 0.0}, {"name": "f64a6f1157a1162b910a52816c0884a2", "fusion_lon": 0.0, "lat": 38.897625166666664, "is_reserved": 0, "type": "electric_scooter", "bike_id": "f64a6f1157a1162b910a52816c0884a2", "is_disabled": 0, "rental_uris": {"android": "https://dc.lft.to/lastmile_qr_scan", "ios": "https://dc.lft.to/lastmile_qr_scan"}, "lon": -77.02682183333333, "fusion_lat": 0.0}, {"name": "1a37dccc0bf6eb5295ddec841140b7e8", "fusion_lon": 0.0, "lat": 38.889193666666664, "is_reserved": 0, "type": "electric_scooter", "bike_id": "1a37dccc0bf6eb5295ddec841140b7e8", "is_disabled": 0, "rental_uris": {"android": "https://dc.lft.to/lastmile_qr_scan", "ios": "https://dc.lft.to/lastmile_qr_scan"}, "lon": -76.9912595, "fusion_lat": 0.0}, {"name": "5f994400a602c603631545374d9a09d0", "fusion_lon": 0.0, "lat": 38.93384616666667, "is_reserved": 0, "type": "electric_scooter", "bike_id": "5f994400a602c603631545374d9a09d0", "is_disabled": 0, "rental_uris": {"android": "https://dc.lft.to/lastmile_qr_scan", "ios": "https://dc.lft.to/lastmile_qr_scan"}, "lon": -77.03089916666667, "fusion_lat": 0.0}, {"name": "a00b57801974f5caac4d68dece3eb48a", "fusion_lon": 0.0, "lat": 38.90562416666667, "is_reserved": 0, "type": "electric_scooter", "bike_id": "a00b57801974f5caac4d68dece3eb48a", "is_disabled": 0, "rental_uris": {"android": "https://dc.lft.to/lastmile_qr_scan", "ios": "https://dc.lft.to/lastmile_qr_scan"}, "lon": -77.03450133333334, "fusion_lat": 0.0}, {"name": "53f3588a6fc3e7d286f19e31242e5220", "fusion_lon": 0.0, "lat": 38.9204575, "is_reserved": 0, "type": "electric_scooter", "bike_id": "53f3588a6fc3e7d286f19e31242e5220", "is_disabled": 0, "rental_uris": {"android": "https://dc.lft.to/lastmile_qr_scan", "ios": "https://dc.lft.to/lastmile_qr_scan"}, "lon": -76.98937466666666, "fusion_lat": 0.0}, {"name": "a12540da6fe20f12be9aa2c4686ec776", "fusion_lon": 0.0, "lat": 38.921479, "is_reserved": 0, "type": "electric_scooter", "bike_id": "a12540da6fe20f12be9aa2c4686ec776", "is_disabled": 0, "rental_uris": {"android": "https://dc.lft.to/lastmile_qr_scan", "ios": "https://dc.lft.to/lastmile_qr_scan"}, "lon": -77.043392, "fusion_lat": 0.0}, {"name": "9df068ef4a4aca0d17d3c050b0f25d12", "fusion_lon": 0.0, "lat": 38.91813716666667, "is_reserved": 0, "type": "electric_scooter", "bike_id": "9df068ef4a4aca0d17d3c050b0f25d12", "is_disabled": 0, "rental_uris": {"android": "https://dc.lft.to/lastmile_qr_scan", "ios": "https://dc.lft.to/lastmile_qr_scan"}, "lon": -77.040065, "fusion_lat": 0.0}, {"name": "e0a4a92550647df1500876407de62e53", "fusion_lon": 0.0, "lat": 38.82949833333333, "is_reserved": 0, "type": "electric_bike", "bike_id": "e0a4a92550647df1500876407de62e53", "is_disabled": 0, "rental_uris": {"android": "https://dc.lft.to/lastmile_qr_scan", "ios": "https://dc.lft.to/lastmile_qr_scan"}, "lon": -77.12358083333334, "fusion_lat": 0.0}, {"name": "b2374fd0f3b243dfd3c6a3537d3b919b", "fusion_lon": 0.0, "lat": 38.91208683333333, "is_reserved": 0, "type": "electric_scooter", "bike_id": "b2374fd0f3b243dfd3c6a3537d3b919b", "is_disabled": 0, "rental_uris": {"android": "https://dc.lft.to/lastmile_qr_scan", "ios": "https://dc.lft.to/lastmile_qr_scan"}, "lon": -77.0383065, "fusion_lat": 0.0}, {"name": "695883af5eff1102defc49991cc94971", "fusion_lon": 0.0, "lat": 38.9076225, "is_reserved": 0, "type": "electric_scooter", "bike_id": "695883af5eff1102defc49991cc94971", "is_disabled": 0, "rental_uris": {"android": "https://dc.lft.to/lastmile_qr_scan", "ios": "https://dc.lft.to/lastmile_qr_scan"}, "lon": -77.01202783333333, "fusion_lat": 0.0}, {"name": "00639eb267eefe38be27b0fdbbe9c538", "fusion_lon": 0.0, "lat": 38.9057515, "is_reserved": 0, "type": "electric_scooter", "bike_id": "00639eb267eefe38be27b0fdbbe9c538", "is_disabled": 0, "rental_uris": {"android": "https://dc.lft.to/lastmile_qr_scan", "ios": "https://dc.lft.to/lastmile_qr_scan"}, "lon": -77.04351866666667, "fusion_lat": 0.0}, {"name": "1a9f0df5d745f701e172e9d64f337dff", "fusion_lon": 0.0, "lat": 38.908130666666665, "is_reserved": 0, "type": "electric_scooter", "bike_id": "1a9f0df5d745f701e172e9d64f337dff", "is_disabled": 0, "rental_uris": {"android": "https://dc.lft.to/lastmile_qr_scan", "ios": "https://dc.lft.to/lastmile_qr_scan"}, "lon": -77.08427883333333, "fusion_lat": 0.0}, {"name": "cae18282efa977a1fa2d2d421bc48925", "fusion_lon": 0.0, "lat": 38.9269555, "is_reserved": 0, "type": "electric_scooter", "bike_id": "cae18282efa977a1fa2d2d421bc48925", "is_disabled": 0, "rental_uris": {"android": "https://dc.lft.to/lastmile_qr_scan", "ios": "https://dc.lft.to/lastmile_qr_scan"}, "lon": -77.02131683333333, "fusion_lat": 0.0}, {"name": "1cd700bcca8406e170922080a5330059", "fusion_lon": 0.0, "lat": 38.859214, "is_reserved": 0, "type": "electric_scooter", "bike_id": "1cd700bcca8406e170922080a5330059", "is_disabled": 0, "rental_uris": {"android": "https://dc.lft.to/lastmile_qr_scan", "ios": "https://dc.lft.to/lastmile_qr_scan"}, "lon": -76.98970983333334, "fusion_lat": 0.0}, {"name": "f22898fb4b209780d11ad6d6a4fd88c0", "fusion_lon": 0.0, "lat": 38.90368483333334, "is_reserved": 0, "type": "electric_scooter", "bike_id": "f22898fb4b209780d11ad6d6a4fd88c0", "is_disabled": 0, "rental_uris": {"android": "https://dc.lft.to/lastmile_qr_scan", "ios": "https://dc.lft.to/lastmile_qr_scan"}, "lon": -77.04036133333334, "fusion_lat": 0.0}, {"name": "491c09792f0c98eb56f92f3ed96baac2", "fusion_lon": 0.0, "lat": 38.91415466666667, "is_reserved": 0, "type": "electric_scooter", "bike_id": "491c09792f0c98eb56f92f3ed96baac2", "is_disabled": 0, "rental_uris": {"android": "https://dc.lft.to/lastmile_qr_scan", "ios": "https://dc.lft.to/lastmile_qr_scan"}, "lon": -77.02156866666667, "fusion_lat": 0.0}, {"name": "7c7f503e10fa7db278a1c30415310479", "fusion_lon": 0.0, "lat": 38.92707766666667, "is_reserved": 0, "type": "electric_scooter", "bike_id": "7c7f503e10fa7db278a1c30415310479", "is_disabled": 0, "rental_uris": {"android": "https://dc.lft.to/lastmile_qr_scan", "ios": "https://dc.lft.to/lastmile_qr_scan"}, "lon": -77.0242825, "fusion_lat": 0.0}, {"name": "d13db43d03d65b223138e43236aae692", "fusion_lon": 0.0, "lat": 38.993465666666665, "is_reserved": 0, "type": "electric_bike", "bike_id": "d13db43d03d65b223138e43236aae692", "is_disabled": 0, "rental_uris": {"android": "https://dc.lft.to/lastmile_qr_scan", "ios": "https://dc.lft.to/lastmile_qr_scan"}, "lon": -77.1157005, "fusion_lat": 0.0}, {"name": "d07bd11ed80adcac4a05b092252c3dcb", "fusion_lon": 0.0, "lat": 38.8076095, "is_reserved": 0, "type": "electric_bike", "bike_id": "d07bd11ed80adcac4a05b092252c3dcb", "is_disabled": 0, "rental_uris": {"android": "https://dc.lft.to/lastmile_qr_scan", "ios": "https://dc.lft.to/lastmile_qr_scan"}, "lon": -77.09466666666667, "fusion_lat": 0.0}, {"name": "5cf07d9097f3850af27e9dd487b909e3", "fusion_lon": 0.0, "lat": 38.919555833333334, "is_reserved": 0, "type": "electric_scooter", "bike_id": "5cf07d9097f3850af27e9dd487b909e3", "is_disabled": 0, "rental_uris": {"android": "https://dc.lft.to/lastmile_qr_scan", "ios": "https://dc.lft.to/lastmile_qr_scan"}, "lon": -77.0347115, "fusion_lat": 0.0}, {"name": "f13760f40838d1c5a30bf16d7c1986e1", "fusion_lon": 0.0, "lat": 38.898444166666664, "is_reserved": 0, "type": "electric_scooter", "bike_id": "f13760f40838d1c5a30bf16d7c1986e1", "is_disabled": 0, "rental_uris": {"android": "https://dc.lft.to/lastmile_qr_scan", "ios": "https://dc.lft.to/lastmile_qr_scan"}, "lon": -77.0237995, "fusion_lat": 0.0}, {"name": "e4eb252bdcad0170dbb377651c796f20", "fusion_lon": 0.0, "lat": 38.946186, "is_reserved": 0, "type": "electric_scooter", "bike_id": "e4eb252bdcad0170dbb377651c796f20", "is_disabled": 0, "rental_uris": {"android": "https://dc.lft.to/lastmile_qr_scan", "ios": "https://dc.lft.to/lastmile_qr_scan"}, "lon": -77.0216745, "fusion_lat": 0.0}, {"name": "48e5c26aab9a9eb12d8074b851ae0f9b", "fusion_lon": 0.0, "lat": 38.86503916666667, "is_reserved": 0, "type": "electric_scooter", "bike_id": "48e5c26aab9a9eb12d8074b851ae0f9b", "is_disabled": 0, "rental_uris": {"android": "https://dc.lft.to/lastmile_qr_scan", "ios": "https://dc.lft.to/lastmile_qr_scan"}, "lon": -76.99001216666667, "fusion_lat": 0.0}, {"name": "3525dec011dfa0675f5156a5a2dbb86c", "fusion_lon": 0.0, "lat": 38.916877, "is_reserved": 0, "type": "electric_scooter", "bike_id": "3525dec011dfa0675f5156a5a2dbb86c", "is_disabled": 0, "rental_uris": {"android": "https://dc.lft.to/lastmile_qr_scan", "ios": "https://dc.lft.to/lastmile_qr_scan"}, "lon": -77.02504133333333, "fusion_lat": 0.0}, {"name": "1c6459712049627524d086f032653549", "fusion_lon": 0.0, "lat": 38.921749166666665, "is_reserved": 0, "type": "electric_scooter", "bike_id": "1c6459712049627524d086f032653549", "is_disabled": 0, "rental_uris": {"android": "https://dc.lft.to/lastmile_qr_scan", "ios": "https://dc.lft.to/lastmile_qr_scan"}, "lon": -77.042418, "fusion_lat": 0.0}, {"name": "9ca8fe00310103c79db0fd419e3337cc", "fusion_lon": 0.0, "lat": 38.92055766666667, "is_reserved": 0, "type": "electric_scooter", "bike_id": "9ca8fe00310103c79db0fd419e3337cc", "is_disabled": 0, "rental_uris": {"android": "https://dc.lft.to/lastmile_qr_scan", "ios": "https://dc.lft.to/lastmile_qr_scan"}, "lon": -77.02984516666666, "fusion_lat": 0.0}, {"name": "ff08d34b71c1b7fa01abf254e1a1fe2d", "fusion_lon": 0.0, "lat": 38.922204, "is_reserved": 0, "type": "electric_scooter", "bike_id": "ff08d34b71c1b7fa01abf254e1a1fe2d", "is_disabled": 0, "rental_uris": {"android": "https://dc.lft.to/lastmile_qr_scan", "ios": "https://dc.lft.to/lastmile_qr_scan"}, "lon": -77.03287133333333, "fusion_lat": 0.0}, {"name": "c967a98394e96d2e9b2733e64a1617aa", "fusion_lon": 0.0, "lat": 38.94183983333333, "is_reserved": 0, "type": "electric_scooter", "bike_id": "c967a98394e96d2e9b2733e64a1617aa", "is_disabled": 0, "rental_uris": {"android": "https://dc.lft.to/lastmile_qr_scan", "ios": "https://dc.lft.to/lastmile_qr_scan"}, "lon": -77.02487433333333, "fusion_lat": 0.0}, {"name": "64d6dab260adaf8a2815ec3b01b4296f", "fusion_lon": 0.0, "lat": 38.9220945, "is_reserved": 0, "type": "electric_bike", "bike_id": "64d6dab260adaf8a2815ec3b01b4296f", "is_disabled": 0, "rental_uris": {"android": "https://dc.lft.to/lastmile_qr_scan", "ios": "https://dc.lft.to/lastmile_qr_scan"}, "lon": -77.08188016666666, "fusion_lat": 0.0}, {"name": "d56967c9dc146b4cddf09e22c70db37b", "fusion_lon": 0.0, "lat": 38.88498383333334, "is_reserved": 0, "type": "electric_scooter", "bike_id": "d56967c9dc146b4cddf09e22c70db37b", "is_disabled": 0, "rental_uris": {"android": "https://dc.lft.to/lastmile_qr_scan", "ios": "https://dc.lft.to/lastmile_qr_scan"}, "lon": -77.008779, "fusion_lat": 0.0}, {"name": "568dfd36637f01f83e2ada79dbf4f0a3", "fusion_lon": 0.0, "lat": 38.94287533333333, "is_reserved": 0, "type": "electric_scooter", "bike_id": "568dfd36637f01f83e2ada79dbf4f0a3", "is_disabled": 0, "rental_uris": {"android": "https://dc.lft.to/lastmile_qr_scan", "ios": "https://dc.lft.to/lastmile_qr_scan"}, "lon": -77.02165733333334, "fusion_lat": 0.0}, {"name": "f7e0042020005e35a073946e091ab075", "fusion_lon": 0.0, "lat": 38.90064116666667, "is_reserved": 0, "type": "electric_scooter", "bike_id": "f7e0042020005e35a073946e091ab075", "is_disabled": 0, "rental_uris": {"android": "https://dc.lft.to/lastmile_qr_scan", "ios": "https://dc.lft.to/lastmile_qr_scan"}, "lon": -76.927366, "fusion_lat": 0.0}, {"name": "a9324ca28d50539151969642466703d3", "fusion_lon": 0.0, "lat": 38.9177135, "is_reserved": 0, "type": "electric_scooter", "bike_id": "a9324ca28d50539151969642466703d3", "is_disabled": 0, "rental_uris": {"android": "https://dc.lft.to/lastmile_qr_scan", "ios": "https://dc.lft.to/lastmile_qr_scan"}, "lon": -77.04164333333334, "fusion_lat": 0.0}, {"name": "7115dd4948601d5409b92d2d843e6dcc", "fusion_lon": 0.0, "lat": 38.960994666666664, "is_reserved": 0, "type": "electric_bike", "bike_id": "7115dd4948601d5409b92d2d843e6dcc", "is_disabled": 0, "rental_uris": {"android": "https://dc.lft.to/lastmile_qr_scan", "ios": "https://dc.lft.to/lastmile_qr_scan"}, "lon": -77.069408, "fusion_lat": 0.0}, {"name": "e748fd0a514e96929d74499b547b89b4", "fusion_lon": 0.0, "lat": 38.9166885, "is_reserved": 0, "type": "electric_scooter", "bike_id": "e748fd0a514e96929d74499b547b89b4", "is_disabled": 0, "rental_uris": {"android": "https://dc.lft.to/lastmile_qr_scan", "ios": "https://dc.lft.to/lastmile_qr_scan"}, "lon": -77.02956266666666, "fusion_lat": 0.0}, {"name": "c055e55454421bca18ac08418db41884", "fusion_lon": 0.0, "lat": 38.914035, "is_reserved": 0, "type": "electric_scooter", "bike_id": "c055e55454421bca18ac08418db41884", "is_disabled": 0, "rental_uris": {"android": "https://dc.lft.to/lastmile_qr_scan", "ios": "https://dc.lft.to/lastmile_qr_scan"}, "lon": -77.026536, "fusion_lat": 0.0}, {"name": "2f3e98127172d967c98e01ececb30be2", "fusion_lon": 0.0, "lat": 38.94503266666667, "is_reserved": 0, "type": "electric_scooter", "bike_id": "2f3e98127172d967c98e01ececb30be2", "is_disabled": 0, "rental_uris": {"android": "https://dc.lft.to/lastmile_qr_scan", "ios": "https://dc.lft.to/lastmile_qr_scan"}, "lon": -77.0349425, "fusion_lat": 0.0}, {"name": "ef8aaed13daffc19511a56fc3b28f454", "fusion_lon": 0.0, "lat": 38.931828, "is_reserved": 0, "type": "electric_scooter", "bike_id": "ef8aaed13daffc19511a56fc3b28f454", "is_disabled": 0, "rental_uris": {"android": "https://dc.lft.to/lastmile_qr_scan", "ios": "https://dc.lft.to/lastmile_qr_scan"}, "lon": -77.03657716666666, "fusion_lat": 0.0}, {"name": "191039f5dd93e6da629511a16ee668af", "fusion_lon": 0.0, "lat": 38.9008305, "is_reserved": 0, "type": "electric_scooter", "bike_id": "191039f5dd93e6da629511a16ee668af", "is_disabled": 0, "rental_uris": {"android": "https://dc.lft.to/lastmile_qr_scan", "ios": "https://dc.lft.to/lastmile_qr_scan"}, "lon": -76.93025133333333, "fusion_lat": 0.0}, {"name": "f73b9a57972867164e92783f2abfb4e0", "fusion_lon": 0.0, "lat": 38.95529766666667, "is_reserved": 0, "type": "electric_bike", "bike_id": "f73b9a57972867164e92783f2abfb4e0", "is_disabled": 0, "rental_uris": {"android": "https://dc.lft.to/lastmile_qr_scan", "ios": "https://dc.lft.to/lastmile_qr_scan"}, "lon": -77.06981366666666, "fusion_lat": 0.0}, {"name": "993defd8c02d518b1b30faf5100bf864", "fusion_lon": 0.0, "lat": 39.06292716666667, "is_reserved": 0, "type": "electric_bike", "bike_id": "993defd8c02d518b1b30faf5100bf864", "is_disabled": 0, "rental_uris": {"android": "https://dc.lft.to/lastmile_qr_scan", "ios": "https://dc.lft.to/lastmile_qr_scan"}, "lon": -77.04976033333334, "fusion_lat": 0.0}, {"name": "615815c8fd10a31494941f1fc513bb28", "fusion_lon": 0.0, "lat": 38.9134855, "is_reserved": 0, "type": "electric_scooter", "bike_id": "615815c8fd10a31494941f1fc513bb28", "is_disabled": 0, "rental_uris": {"android": "https://dc.lft.to/lastmile_qr_scan", "ios": "https://dc.lft.to/lastmile_qr_scan"}, "lon": -77.03174, "fusion_lat": 0.0}, {"name": "6642af249a07176439460e5ecbc4dd5a", "fusion_lon": 0.0, "lat": 38.892221666666664, "is_reserved": 0, "type": "electric_scooter", "bike_id": "6642af249a07176439460e5ecbc4dd5a", "is_disabled": 0, "rental_uris": {"android": "https://dc.lft.to/lastmile_qr_scan", "ios": "https://dc.lft.to/lastmile_qr_scan"}, "lon": -77.04081116666667, "fusion_lat": 0.0}, {"name": "b4284c9267cc8031b1975bee231289df", "fusion_lon": 0.0, "lat": 38.91412283333333, "is_reserved": 0, "type": "electric_scooter", "bike_id": "b4284c9267cc8031b1975bee231289df", "is_disabled": 0, "rental_uris": {"android": "https://dc.lft.to/lastmile_qr_scan", "ios": "https://dc.lft.to/lastmile_qr_scan"}, "lon": -77.04177383333334, "fusion_lat": 0.0}, {"name": "1a51af1298bba63f3bcb1e670a8c48ad", "fusion_lon": 0.0, "lat": 38.924660333333335, "is_reserved": 0, "type": "electric_scooter", "bike_id": "1a51af1298bba63f3bcb1e670a8c48ad", "is_disabled": 0, "rental_uris": {"android": "https://dc.lft.to/lastmile_qr_scan", "ios": "https://dc.lft.to/lastmile_qr_scan"}, "lon": -77.02829933333334, "fusion_lat": 0.0}, {"name": "0b5544a5193bd564f33594b24fabe3c5", "fusion_lon": 0.0, "lat": 38.944357333333336, "is_reserved": 0, "type": "electric_scooter", "bike_id": "0b5544a5193bd564f33594b24fabe3c5", "is_disabled": 0, "rental_uris": {"android": "https://dc.lft.to/lastmile_qr_scan", "ios": "https://dc.lft.to/lastmile_qr_scan"}, "lon": -77.06350383333333, "fusion_lat": 0.0}, {"name": "fcabedae242ec2fc4dacdb33f3c79136", "fusion_lon": 0.0, "lat": 38.9127315, "is_reserved": 0, "type": "electric_scooter", "bike_id": "fcabedae242ec2fc4dacdb33f3c79136", "is_disabled": 0, "rental_uris": {"android": "https://dc.lft.to/lastmile_qr_scan", "ios": "https://dc.lft.to/lastmile_qr_scan"}, "lon": -77.02688316666666, "fusion_lat": 0.0}, {"name": "e70626b36da9d6cdc67cd2b5207ed937", "fusion_lon": 0.0, "lat": 38.901385833333336, "is_reserved": 0, "type": "electric_scooter", "bike_id": "e70626b36da9d6cdc67cd2b5207ed937", "is_disabled": 0, "rental_uris": {"android": "https://dc.lft.to/lastmile_qr_scan", "ios": "https://dc.lft.to/lastmile_qr_scan"}, "lon": -77.03973433333333, "fusion_lat": 0.0}, {"name": "c8ef25addf16cfe124293d5d548c9b71", "fusion_lon": 0.0, "lat": 38.917669333333336, "is_reserved": 0, "type": "electric_scooter", "bike_id": "c8ef25addf16cfe124293d5d548c9b71", "is_disabled": 0, "rental_uris": {"android": "https://dc.lft.to/lastmile_qr_scan", "ios": "https://dc.lft.to/lastmile_qr_scan"}, "lon": -77.01471766666667, "fusion_lat": 0.0}, {"name": "4cb43b229041bb61338e6b0f48729db2", "fusion_lon": 0.0, "lat": 38.9159705, "is_reserved": 0, "type": "electric_scooter", "bike_id": "4cb43b229041bb61338e6b0f48729db2", "is_disabled": 0, "rental_uris": {"android": "https://dc.lft.to/lastmile_qr_scan", "ios": "https://dc.lft.to/lastmile_qr_scan"}, "lon": -77.0320525, "fusion_lat": 0.0}, {"name": "ddebff09849776956097cde0e473f579", "fusion_lon": 0.0, "lat": 38.903727833333335, "is_reserved": 0, "type": "electric_scooter", "bike_id": "ddebff09849776956097cde0e473f579", "is_disabled": 0, "rental_uris": {"android": "https://dc.lft.to/lastmile_qr_scan", "ios": "https://dc.lft.to/lastmile_qr_scan"}, "lon": -76.93760733333333, "fusion_lat": 0.0}, {"name": "ef21ca0b46e5c595c4773608ec0def6f", "fusion_lon": 0.0, "lat": 38.901506, "is_reserved": 0, "type": "electric_scooter", "bike_id": "ef21ca0b46e5c595c4773608ec0def6f", "is_disabled": 0, "rental_uris": {"android": "https://dc.lft.to/lastmile_qr_scan", "ios": "https://dc.lft.to/lastmile_qr_scan"}, "lon": -76.93062266666666, "fusion_lat": 0.0}, {"name": "4aa00c02955f06ec2da57415b3af350d", "fusion_lon": 0.0, "lat": 38.918417166666664, "is_reserved": 0, "type": "electric_scooter", "bike_id": "4aa00c02955f06ec2da57415b3af350d", "is_disabled": 0, "rental_uris": {"android": "https://dc.lft.to/lastmile_qr_scan", "ios": "https://dc.lft.to/lastmile_qr_scan"}, "lon": -77.0226495, "fusion_lat": 0.0}, {"name": "a8a4664ef05f4b1e385fb0dc999797ea", "fusion_lon": 0.0, "lat": 38.877052666666664, "is_reserved": 0, "type": "electric_scooter", "bike_id": "a8a4664ef05f4b1e385fb0dc999797ea", "is_disabled": 0, "rental_uris": {"android": "https://dc.lft.to/lastmile_qr_scan", "ios": "https://dc.lft.to/lastmile_qr_scan"}, "lon": -77.00414583333334, "fusion_lat": 0.0}, {"name": "05fcc8f5df2b329c57d2eaea97fdb141", "fusion_lon": 0.0, "lat": 38.90090716666667, "is_reserved": 0, "type": "electric_scooter", "bike_id": "05fcc8f5df2b329c57d2eaea97fdb141", "is_disabled": 0, "rental_uris": {"android": "https://dc.lft.to/lastmile_qr_scan", "ios": "https://dc.lft.to/lastmile_qr_scan"}, "lon": -76.976379, "fusion_lat": 0.0}, {"name": "995125892910e000207edc2d6e22a373", "fusion_lon": 0.0, "lat": 38.89914483333333, "is_reserved": 0, "type": "electric_scooter", "bike_id": "995125892910e000207edc2d6e22a373", "is_disabled": 0, "rental_uris": {"android": "https://dc.lft.to/lastmile_qr_scan", "ios": "https://dc.lft.to/lastmile_qr_scan"}, "lon": -76.93365716666666, "fusion_lat": 0.0}, {"name": "8f38bc3f6dd1545fe2c564ac31087500", "fusion_lon": 0.0, "lat": 38.8650055, "is_reserved": 0, "type": "electric_scooter", "bike_id": "8f38bc3f6dd1545fe2c564ac31087500", "is_disabled": 0, "rental_uris": {"android": "https://dc.lft.to/lastmile_qr_scan", "ios": "https://dc.lft.to/lastmile_qr_scan"}, "lon": -76.9899855, "fusion_lat": 0.0}, {"name": "dcfda919039c0f7081e7bbf5339149af", "fusion_lon": 0.0, "lat": 38.92485683333334, "is_reserved": 0, "type": "electric_scooter", "bike_id": "dcfda919039c0f7081e7bbf5339149af", "is_disabled": 0, "rental_uris": {"android": "https://dc.lft.to/lastmile_qr_scan", "ios": "https://dc.lft.to/lastmile_qr_scan"}, "lon": -77.02134833333334, "fusion_lat": 0.0}, {"name": "734da1bc23a3c30cae5dddd9d83a5f66", "fusion_lon": 0.0, "lat": 38.89344066666666, "is_reserved": 0, "type": "electric_scooter", "bike_id": "734da1bc23a3c30cae5dddd9d83a5f66", "is_disabled": 0, "rental_uris": {"android": "https://dc.lft.to/lastmile_qr_scan", "ios": "https://dc.lft.to/lastmile_qr_scan"}, "lon": -77.012159, "fusion_lat": 0.0}, {"name": "8b88ca27afb9036387a8299ae821515d", "fusion_lon": 0.0, "lat": 38.88211716666667, "is_reserved": 0, "type": "electric_scooter", "bike_id": "8b88ca27afb9036387a8299ae821515d", "is_disabled": 0, "rental_uris": {"android": "https://dc.lft.to/lastmile_qr_scan", "ios": "https://dc.lft.to/lastmile_qr_scan"}, "lon": -76.98917833333333, "fusion_lat": 0.0}, {"name": "fdf54a6e028fe0855bd43d505cdffea0", "fusion_lon": 0.0, "lat": 38.90957933333333, "is_reserved": 0, "type": "electric_scooter", "bike_id": "fdf54a6e028fe0855bd43d505cdffea0", "is_disabled": 0, "rental_uris": {"android": "https://dc.lft.to/lastmile_qr_scan", "ios": "https://dc.lft.to/lastmile_qr_scan"}, "lon": -77.011765, "fusion_lat": 0.0}, {"name": "be8f3da1c1991be8367378b8b345d2f2", "fusion_lon": 0.0, "lat": 38.89304716666667, "is_reserved": 0, "type": "electric_scooter", "bike_id": "be8f3da1c1991be8367378b8b345d2f2", "is_disabled": 0, "rental_uris": {"android": "https://dc.lft.to/lastmile_qr_scan", "ios": "https://dc.lft.to/lastmile_qr_scan"}, "lon": -77.01197666666667, "fusion_lat": 0.0}, {"name": "9895f13f6a2285f5480ae5316670420a", "fusion_lon": 0.0, "lat": 38.903918166666664, "is_reserved": 0, "type": "electric_scooter", "bike_id": "9895f13f6a2285f5480ae5316670420a", "is_disabled": 0, "rental_uris": {"android": "https://dc.lft.to/lastmile_qr_scan", "ios": "https://dc.lft.to/lastmile_qr_scan"}, "lon": -77.0383745, "fusion_lat": 0.0}, {"name": "0c94fed0e1bc191b67f4524f73a49279", "fusion_lon": 0.0, "lat": 38.899185333333335, "is_reserved": 0, "type": "electric_scooter", "bike_id": "0c94fed0e1bc191b67f4524f73a49279", "is_disabled": 0, "rental_uris": {"android": "https://dc.lft.to/lastmile_qr_scan", "ios": "https://dc.lft.to/lastmile_qr_scan"}, "lon": -76.95067333333333, "fusion_lat": 0.0}, {"name": "6568d2f186e5af1a597397bca1272bfc", "fusion_lon": 0.0, "lat": 38.92533866666667, "is_reserved": 0, "type": "electric_bike", "bike_id": "6568d2f186e5af1a597397bca1272bfc", "is_disabled": 0, "rental_uris": {"android": "https://dc.lft.to/lastmile_qr_scan", "ios": "https://dc.lft.to/lastmile_qr_scan"}, "lon": -77.00107116666666, "fusion_lat": 0.0}, {"name": "fbb8b460701fea60321b674ddd0d19c1", "fusion_lon": 0.0, "lat": 38.9293405, "is_reserved": 0, "type": "electric_scooter", "bike_id": "fbb8b460701fea60321b674ddd0d19c1", "is_disabled": 0, "rental_uris": {"android": "https://dc.lft.to/lastmile_qr_scan", "ios": "https://dc.lft.to/lastmile_qr_scan"}, "lon": -77.0199025, "fusion_lat": 0.0}, {"name": "b3dc260e9a40c003341ffc692324f6c8", "fusion_lon": 0.0, "lat": 38.8996285, "is_reserved": 0, "type": "electric_bike", "bike_id": "b3dc260e9a40c003341ffc692324f6c8", "is_disabled": 0, "rental_uris": {"android": "https://dc.lft.to/lastmile_qr_scan", "ios": "https://dc.lft.to/lastmile_qr_scan"}, "lon": -76.9866225, "fusion_lat": 0.0}, {"name": "d1e98e147cc3fee4644c1f98caa6d12a", "fusion_lon": 0.0, "lat": 38.916338833333334, "is_reserved": 0, "type": "electric_scooter", "bike_id": "d1e98e147cc3fee4644c1f98caa6d12a", "is_disabled": 0, "rental_uris": {"android": "https://dc.lft.to/lastmile_qr_scan", "ios": "https://dc.lft.to/lastmile_qr_scan"}, "lon": -77.03976516666667, "fusion_lat": 0.0}, {"name": "8a0b8198f492440579978a792b020646", "fusion_lon": 0.0, "lat": 38.85892716666667, "is_reserved": 0, "type": "electric_scooter", "bike_id": "8a0b8198f492440579978a792b020646", "is_disabled": 0, "rental_uris": {"android": "https://dc.lft.to/lastmile_qr_scan", "ios": "https://dc.lft.to/lastmile_qr_scan"}, "lon": -76.99729583333334, "fusion_lat": 0.0}, {"name": "8421950ccb2d30173e6b4c1eb5ccd6cf", "fusion_lon": 0.0, "lat": 38.93042033333333, "is_reserved": 0, "type": "electric_scooter", "bike_id": "8421950ccb2d30173e6b4c1eb5ccd6cf", "is_disabled": 0, "rental_uris": {"android": "https://dc.lft.to/lastmile_qr_scan", "ios": "https://dc.lft.to/lastmile_qr_scan"}, "lon": -77.032169, "fusion_lat": 0.0}, {"name": "8a6c019f9c37c27de56f5af8172c90eb", "fusion_lon": 0.0, "lat": 38.927684666666664, "is_reserved": 0, "type": "electric_scooter", "bike_id": "8a6c019f9c37c27de56f5af8172c90eb", "is_disabled": 0, "rental_uris": {"android": "https://dc.lft.to/lastmile_qr_scan", "ios": "https://dc.lft.to/lastmile_qr_scan"}, "lon": -77.02704, "fusion_lat": 0.0}, {"name": "2dd9fd7e4a214edca21c5d6816541536", "fusion_lon": 0.0, "lat": 38.9001555, "is_reserved": 0, "type": "electric_scooter", "bike_id": "2dd9fd7e4a214edca21c5d6816541536", "is_disabled": 0, "rental_uris": {"android": "https://dc.lft.to/lastmile_qr_scan", "ios": "https://dc.lft.to/lastmile_qr_scan"}, "lon": -77.006852, "fusion_lat": 0.0}, {"name": "7983e7892ebc85a2790b5d4e9034409a", "fusion_lon": 0.0, "lat": 38.8543835, "is_reserved": 0, "type": "electric_bike", "bike_id": "7983e7892ebc85a2790b5d4e9034409a", "is_disabled": 0, "rental_uris": {"android": "https://dc.lft.to/lastmile_qr_scan", "ios": "https://dc.lft.to/lastmile_qr_scan"}, "lon": -77.0830575, "fusion_lat": 0.0}, {"name": "e2ef65e75c5fc0434257d4b2018a94bb", "fusion_lon": 0.0, "lat": 38.9286685, "is_reserved": 0, "type": "electric_scooter", "bike_id": "e2ef65e75c5fc0434257d4b2018a94bb", "is_disabled": 0, "rental_uris": {"android": "https://dc.lft.to/lastmile_qr_scan", "ios": "https://dc.lft.to/lastmile_qr_scan"}, "lon": -77.02167666666666, "fusion_lat": 0.0}, {"name": "11db993a6739bc7c456c435f6affd79f", "fusion_lon": 0.0, "lat": 38.9141475, "is_reserved": 0, "type": "electric_scooter", "bike_id": "11db993a6739bc7c456c435f6affd79f", "is_disabled": 0, "rental_uris": {"android": "https://dc.lft.to/lastmile_qr_scan", "ios": "https://dc.lft.to/lastmile_qr_scan"}, "lon": -77.03068866666666, "fusion_lat": 0.0}, {"name": "79d9840ac7151c6be00a60c5e649d43c", "fusion_lon": 0.0, "lat": 38.92411166666667, "is_reserved": 0, "type": "electric_scooter", "bike_id": "79d9840ac7151c6be00a60c5e649d43c", "is_disabled": 0, "rental_uris": {"android": "https://dc.lft.to/lastmile_qr_scan", "ios": "https://dc.lft.to/lastmile_qr_scan"}, "lon": -77.05067433333333, "fusion_lat": 0.0}, {"name": "7b84429f314b4ac9fcdb79ffdcbd1e02", "fusion_lon": 0.0, "lat": 38.86510116666667, "is_reserved": 0, "type": "electric_bike", "bike_id": "7b84429f314b4ac9fcdb79ffdcbd1e02", "is_disabled": 0, "rental_uris": {"android": "https://dc.lft.to/lastmile_qr_scan", "ios": "https://dc.lft.to/lastmile_qr_scan"}, "lon": -76.97333816666666, "fusion_lat": 0.0}, {"name": "30da5ac9f12e69287e7dbe53f98e1143", "fusion_lon": 0.0, "lat": 38.875888833333335, "is_reserved": 0, "type": "electric_scooter", "bike_id": "30da5ac9f12e69287e7dbe53f98e1143", "is_disabled": 0, "rental_uris": {"android": "https://dc.lft.to/lastmile_qr_scan", "ios": "https://dc.lft.to/lastmile_qr_scan"}, "lon": -77.00044016666666, "fusion_lat": 0.0}, {"name": "e4fc43200f929c7d6bdc8aa688747e5a", "fusion_lon": 0.0, "lat": 38.90135766666667, "is_reserved": 0, "type": "electric_scooter", "bike_id": "e4fc43200f929c7d6bdc8aa688747e5a", "is_disabled": 0, "rental_uris": {"android": "https://dc.lft.to/lastmile_qr_scan", "ios": "https://dc.lft.to/lastmile_qr_scan"}, "lon": -77.04427866666667, "fusion_lat": 0.0}, {"name": "3b2c18944c5271e221087356d92a34be", "fusion_lon": 0.0, "lat": 38.910981, "is_reserved": 0, "type": "electric_scooter", "bike_id": "3b2c18944c5271e221087356d92a34be", "is_disabled": 0, "rental_uris": {"android": "https://dc.lft.to/lastmile_qr_scan", "ios": "https://dc.lft.to/lastmile_qr_scan"}, "lon": -77.04198, "fusion_lat": 0.0}, {"name": "b1d05baa281a709d8cc43fe92ad646db", "fusion_lon": 0.0, "lat": 38.918303, "is_reserved": 0, "type": "electric_scooter", "bike_id": "b1d05baa281a709d8cc43fe92ad646db", "is_disabled": 0, "rental_uris": {"android": "https://dc.lft.to/lastmile_qr_scan", "ios": "https://dc.lft.to/lastmile_qr_scan"}, "lon": -77.03188566666667, "fusion_lat": 0.0}, {"name": "b36486740ed7124da622346303a5a23d", "fusion_lon": 0.0, "lat": 38.918572833333336, "is_reserved": 0, "type": "electric_scooter", "bike_id": "b36486740ed7124da622346303a5a23d", "is_disabled": 0, "rental_uris": {"android": "https://dc.lft.to/lastmile_qr_scan", "ios": "https://dc.lft.to/lastmile_qr_scan"}, "lon": -77.04368316666667, "fusion_lat": 0.0}, {"name": "2775a0a45cdd95379aac6436705691eb", "fusion_lon": 0.0, "lat": 38.9222825, "is_reserved": 0, "type": "electric_scooter", "bike_id": "2775a0a45cdd95379aac6436705691eb", "is_disabled": 0, "rental_uris": {"android": "https://dc.lft.to/lastmile_qr_scan", "ios": "https://dc.lft.to/lastmile_qr_scan"}, "lon": -77.04700216666667, "fusion_lat": 0.0}, {"name": "7d02180a41d1304ff9638f85dba447af", "fusion_lon": 0.0, "lat": 38.886065, "is_reserved": 0, "type": "electric_scooter", "bike_id": "7d02180a41d1304ff9638f85dba447af", "is_disabled": 0, "rental_uris": {"android": "https://dc.lft.to/lastmile_qr_scan", "ios": "https://dc.lft.to/lastmile_qr_scan"}, "lon": -77.00131166666667, "fusion_lat": 0.0}, {"name": "d69241b54fa04b038055cea1eb494240", "fusion_lon": 0.0, "lat": 38.94979383333333, "is_reserved": 0, "type": "electric_scooter", "bike_id": "d69241b54fa04b038055cea1eb494240", "is_disabled": 0, "rental_uris": {"android": "https://dc.lft.to/lastmile_qr_scan", "ios": "https://dc.lft.to/lastmile_qr_scan"}, "lon": -77.02649833333334, "fusion_lat": 0.0}, {"name": "a3b61de8af208bc0d3411ab3dac3b646", "fusion_lon": 0.0, "lat": 38.876669666666665, "is_reserved": 0, "type": "electric_scooter", "bike_id": "a3b61de8af208bc0d3411ab3dac3b646", "is_disabled": 0, "rental_uris": {"android": "https://dc.lft.to/lastmile_qr_scan", "ios": "https://dc.lft.to/lastmile_qr_scan"}, "lon": -77.00440083333334, "fusion_lat": 0.0}, {"name": "c0eae4532e94a461bf33ad97866076bc", "fusion_lon": 0.0, "lat": 38.95845283333333, "is_reserved": 0, "type": "electric_scooter", "bike_id": "c0eae4532e94a461bf33ad97866076bc", "is_disabled": 0, "rental_uris": {"android": "https://dc.lft.to/lastmile_qr_scan", "ios": "https://dc.lft.to/lastmile_qr_scan"}, "lon": -77.02736566666667, "fusion_lat": 0.0}, {"name": "05e9af5387543f041674e0d894c13c16", "fusion_lon": 0.0, "lat": 38.918154, "is_reserved": 0, "type": "electric_scooter", "bike_id": "05e9af5387543f041674e0d894c13c16", "is_disabled": 0, "rental_uris": {"android": "https://dc.lft.to/lastmile_qr_scan", "ios": "https://dc.lft.to/lastmile_qr_scan"}, "lon": -77.03665583333333, "fusion_lat": 0.0}, {"name": "9664535d4c657502e68ca46ba08c5798", "fusion_lon": 0.0, "lat": 38.82364616666667, "is_reserved": 0, "type": "electric_bike", "bike_id": "9664535d4c657502e68ca46ba08c5798", "is_disabled": 0, "rental_uris": {"android": "https://dc.lft.to/lastmile_qr_scan", "ios": "https://dc.lft.to/lastmile_qr_scan"}, "lon": -77.00209416666667, "fusion_lat": 0.0}, {"name": "60b4aa3d44332f0bd9f487d7e73141c2", "fusion_lon": 0.0, "lat": 38.918701166666665, "is_reserved": 0, "type": "electric_scooter", "bike_id": "60b4aa3d44332f0bd9f487d7e73141c2", "is_disabled": 0, "rental_uris": {"android": "https://dc.lft.to/lastmile_qr_scan", "ios": "https://dc.lft.to/lastmile_qr_scan"}, "lon": -77.03500566666666, "fusion_lat": 0.0}, {"name": "36afcf619daf7bc00f308c841ed79cd3", "fusion_lon": 0.0, "lat": 38.923914, "is_reserved": 0, "type": "electric_scooter", "bike_id": "36afcf619daf7bc00f308c841ed79cd3", "is_disabled": 0, "rental_uris": {"android": "https://dc.lft.to/lastmile_qr_scan", "ios": "https://dc.lft.to/lastmile_qr_scan"}, "lon": -77.040582, "fusion_lat": 0.0}, {"name": "3a61a33a7afbed9b4fcb73aa116c46f1", "fusion_lon": 0.0, "lat": 38.91118383333333, "is_reserved": 0, "type": "electric_scooter", "bike_id": "3a61a33a7afbed9b4fcb73aa116c46f1", "is_disabled": 0, "rental_uris": {"android": "https://dc.lft.to/lastmile_qr_scan", "ios": "https://dc.lft.to/lastmile_qr_scan"}, "lon": -77.02128133333333, "fusion_lat": 0.0}, {"name": "2cf084f92664ff5fb5301665f0033614", "fusion_lon": 0.0, "lat": 38.807540333333336, "is_reserved": 0, "type": "electric_bike", "bike_id": "2cf084f92664ff5fb5301665f0033614", "is_disabled": 0, "rental_uris": {"android": "https://dc.lft.to/lastmile_qr_scan", "ios": "https://dc.lft.to/lastmile_qr_scan"}, "lon": -77.09454083333334, "fusion_lat": 0.0}, {"name": "9c4f5a0e98727ecea77e0550f06e1df9", "fusion_lon": 0.0, "lat": 38.896232499999996, "is_reserved": 0, "type": "electric_scooter", "bike_id": "9c4f5a0e98727ecea77e0550f06e1df9", "is_disabled": 0, "rental_uris": {"android": "https://dc.lft.to/lastmile_qr_scan", "ios": "https://dc.lft.to/lastmile_qr_scan"}, "lon": -77.02137266666666, "fusion_lat": 0.0}, {"name": "c63be0e0d3cd9d639bf06471c04c0987", "fusion_lon": 0.0, "lat": 38.92768733333333, "is_reserved": 0, "type": "electric_scooter", "bike_id": "c63be0e0d3cd9d639bf06471c04c0987", "is_disabled": 0, "rental_uris": {"android": "https://dc.lft.to/lastmile_qr_scan", "ios": "https://dc.lft.to/lastmile_qr_scan"}, "lon": -77.02610183333333, "fusion_lat": 0.0}, {"name": "0806f529c2c351fc3136840606bb4a4e", "fusion_lon": 0.0, "lat": 38.90777033333333, "is_reserved": 0, "type": "electric_scooter", "bike_id": "0806f529c2c351fc3136840606bb4a4e", "is_disabled": 0, "rental_uris": {"android": "https://dc.lft.to/lastmile_qr_scan", "ios": "https://dc.lft.to/lastmile_qr_scan"}, "lon": -77.0382575, "fusion_lat": 0.0}, {"name": "3ad5b651053b3292dc0c890acded29cd", "fusion_lon": 0.0, "lat": 38.912710833333335, "is_reserved": 0, "type": "electric_scooter", "bike_id": "3ad5b651053b3292dc0c890acded29cd", "is_disabled": 0, "rental_uris": {"android": "https://dc.lft.to/lastmile_qr_scan", "ios": "https://dc.lft.to/lastmile_qr_scan"}, "lon": -77.02227866666667, "fusion_lat": 0.0}, {"name": "b124a3a96de28f063fa72552ff9207de", "fusion_lon": 0.0, "lat": 38.91049266666667, "is_reserved": 0, "type": "electric_scooter", "bike_id": "b124a3a96de28f063fa72552ff9207de", "is_disabled": 0, "rental_uris": {"android": "https://dc.lft.to/lastmile_qr_scan", "ios": "https://dc.lft.to/lastmile_qr_scan"}, "lon": -77.044814, "fusion_lat": 0.0}, {"name": "149a0131cd7dd7ab137f56c67d20aa17", "fusion_lon": 0.0, "lat": 38.934751, "is_reserved": 0, "type": "electric_scooter", "bike_id": "149a0131cd7dd7ab137f56c67d20aa17", "is_disabled": 0, "rental_uris": {"android": "https://dc.lft.to/lastmile_qr_scan", "ios": "https://dc.lft.to/lastmile_qr_scan"}, "lon": -77.03578316666666, "fusion_lat": 0.0},