{"data": {"bikes": [{"fusion_lat": 0.0, "name": "7f8946122f2d21baf2e3ee689ab558bc", "is_disabled": 0, "rental_uris": {"android": "https://dc.lft.to/lastmile_qr_scan", "ios": "https://dc.lft.to/lastmile_qr_scan"}, "fusion_lon": 0.0, "lat": 38.93599866666667, "bike_id": "7f8946122f2d21baf2e3ee689ab558bc", "type": "electric_scooter", "is_reserved": 0, "lon": -77.02298283333333}, {"fusion_lat": 0.0, "name": "ea688b5f455dd033dce9886641d35976", "is_disabled": 0, "rental_uris": {"android": "https://dc.lft.to/lastmile_qr_scan", "ios": "https://dc.lft.to/lastmile_qr_scan"}, "fusion_lon": 0.0, "lat": 38.91810616666667, "bike_id": "ea688b5f455dd033dce9886641d35976", "type": "electric_scooter", "is_reserved": 0, "lon": -77.0330275}, {"fusion_lat": 0.0, "name": "eec335b07f724ace91f605398b5af7ca", "is_disabled": 0, "rental_uris": {"android": "https://dc.lft.to/lastmile_qr_scan", "ios": "https://dc.lft.to/lastmile_qr_scan"}, "fusion_lon": 0.0, "lat": 38.905812, "bike_id": "eec335b07f724ace91f605398b5af7ca", "type": "electric_scooter", "is_reserved": 0, "lon": -77.03423966666666}, {"fusion_lat": 0.0, "name": "38a4d8214f1cbba13fc6772904f4ca18", "is_disabled": 0, "rental_uris": {"android": "https://dc.lft.to/lastmile_qr_scan", "ios": "https://dc.lft.to/lastmile_qr_scan"}, "fusion_lon": 0.0, "lat": 38.88744333333333, "bike_id": "38a4d8214f1cbba13fc6772904f4ca18", "type": "electric_scooter", "is_reserved": 0, "lon": -77.03157866666666}, {"fusion_lat": 0.0, "name": "c78322044b0ca8de9d3e93f139bc58de", "is_disabled": 0, "rental_uris": {"android": "https://dc.lft.to/lastmile_qr_scan", "ios": "https://dc.lft.to/lastmile_qr_scan"}, "fusion_lon": 0.0, "lat": 38.921186166666665, "bike_id": "c78322044b0ca8de9d3e93f139bc58de", "type": "electric_scooter", "is_reserved": 0, "lon": -77.04689466666666}, {"fusion_lat": 0.0, "name": "cdde38d958d4e0e68de580c4884c3c6d", "is_disabled": 0, "rental_uris": {"android": "https://dc.lft.to/lastmile_qr_scan", "ios": "https://dc.lft.to/lastmile_qr_scan"}, "fusion_lon": 0.0, "lat": 38.79023016666667, "bike_id": "cdde38d958d4e0e68de580c4884c3c6d", "type": "electric_bike", "is_reserved": 0, "lon": -77.0154375}, {"fusion_lat": 0.0, "name": "4e63f6f7c44d7a70f0ab2fa201fa542f", "is_disabled": 0, "rental_uris": {"android": "https://dc.lft.to/lastmile_qr_scan", "ios": "https://dc.lft.to/lastmile_qr_scan"}, "fusion_lon": 0.0, "lat": 38.926786166666666, "bike_id": "4e63f6f7c44d7a70f0ab2fa201fa542f", "type": "electric_scooter", "is_reserved": 0, "lon": -77.03053133333333}, {"fusion_lat": 0.0, "name": "357a7cbb071cd8fd4c8c803e16a6796c", "is_disabled": 0, "rental_uris": {"android": "https://dc.lft.to/lastmile_qr_scan", "ios": "https://dc.lft.to/lastmile_qr_scan"}, "fusion_lon": 0.0, "lat": 38.887448666666664, "bike_id": "357a7cbb071cd8fd4c8c803e16a6796c", "type": "electric_scooter", "is_reserved": 0, "lon": -77.02443166666667}, {"fusion_lat": 0.0, "name": "f5f4e1b00f339bc4ffebf777b974714f", "is_disabled": 0, "rental_uris": {"android": "https://dc.lft.to/lastmile_qr_scan", "ios": "https://dc.lft.to/lastmile_qr_scan"}, "fusion_lon": 0.0, "lat": 38.890912, "bike_id": "f5f4e1b00f339bc4ffebf777b974714f", "type": "electric_scooter", "is_reserved": 0, "lon": -76.91925716666667}, {"fusion_lat": 0.0, "name": "8680a3a669f9f8b51fd951c507a0c90f", "is_disabled": 0, "rental_uris": {"android": "https://dc.lft.to/lastmile_qr_scan", "ios": "https://dc.lft.to/lastmile_qr_scan"}, "fusion_lon": 0.0, "lat": 38.944333, "bike_id": "8680a3a669f9f8b51fd951c507a0c90f", "type": "electric_bike", "is_reserved": 0, "lon": -77.026056}, {"fusion_lat": 0.0, "name": "7357ed9ffea38c8e61a9327dca759bee", "is_disabled": 0, "rental_uris": {"android": "https://dc.lft.to/lastmile_qr_scan", "ios": "https://dc.lft.to/lastmile_qr_scan"}, "fusion_lon": 0.0, "lat": 38.90772033333333, "bike_id": "7357ed9ffea38c8e61a9327dca759bee", "type": "electric_scooter", "is_reserved": 0, "lon": -77.03190633333334}, {"fusion_lat": 0.0, "name": "974d1cad46781201342b03d79010ffe7", "is_disabled": 0, "rental_uris": {"android": "https://dc.lft.to/lastmile_qr_scan", "ios": "https://dc.lft.to/lastmile_qr_scan"}, "fusion_lon": 0.0, "lat": 38.9002065, "bike_id": "974d1cad46781201342b03d79010ffe7", "type": "electric_scooter", "is_reserved": 0, "lon": -77.0522315}, {"fusion_lat": 0.0, "name": "f169bcdf1dbf57e2535d4c0b1881eeb4", "is_disabled": 0, "rental_uris": {"android": "https://dc.lft.to/lastmile_qr_scan", "ios": "https://dc.lft.to/lastmile_qr_scan"}, "fusion_lon": 0.0, "lat": 38.92429816666667, "bike_id": "f169bcdf1dbf57e2535d4c0b1881eeb4", "type": "electric_scooter", "is_reserved": 0, "lon": -76.9859875}, {"fusion_lat": 0.0, "name": "5b5dae26d678ad8bf88c205477fad795", "is_disabled": 0, "rental_uris": {"android": "https://dc.lft.to/lastmile_qr_scan", "ios": "https://dc.lft.to/lastmile_qr_scan"}, "fusion_lon": 0.0, "lat": 38.88873, "bike_id": "5b5dae26d678ad8bf88c205477fad795", "type": "electric_scooter", "is_reserved": 0, "lon": -76.984546}, {"fusion_lat": 0.0, "name": "95d7ff70f372e64c8d1340c41626efd6", "is_disabled": 0, "rental_uris": {"android": "https://dc.lft.to/lastmile_qr_scan", "ios": "https://dc.lft.to/lastmile_qr_scan"}, "fusion_lon": 0.0, "lat": 38.9110645, "bike_id": "95d7ff70f372e64c8d1340c41626efd6", "type": "electric_scooter", "is_reserved": 0, "lon": -77.03212933333333}, {"fusion_lat": 0.0, "name": "6234fe4eee16d9246e4aaac6dcc50db7", "is_disabled": 0, "rental_uris": {"android": "https://dc.lft.to/lastmile_qr_scan", "ios": "https://dc.lft.to/lastmile_qr_scan"}, "fusion_lon": 0.0, "lat": 38.88256633333334, "bike_id": "6234fe4eee16d9246e4aaac6dcc50db7", "type": "electric_scooter", "is_reserved": 0, "lon": -76.990346}, {"fusion_lat": 0.0, "name": "d3de7896e15413511cdef005d9ae7355", "is_disabled": 0, "rental_uris": {"android": "https://dc.lft.to/lastmile_qr_scan", "ios": "https://dc.lft.to/lastmile_qr_scan"}, "fusion_lon": 0.0, "lat": 38.894828833333335, "bike_id": "d3de7896e15413511cdef005d9ae7355", "type": "electric_scooter", "is_reserved": 0, "lon": -76.99737716666667}, {"fusion_lat": 0.0, "name": "40063aba02c0344a8533f85263a0c995", "is_disabled": 0, "rental_uris": {"android": "https://dc.lft.to/lastmile_qr_scan", "ios": "https://dc.lft.to/lastmile_qr_scan"}, "fusion_lon": 0.0, "lat": 38.905267333333335, "bike_id": "40063aba02c0344a8533f85263a0c995", "type": "electric_scooter", "is_reserved": 0, "lon": -77.01717566666666}, {"fusion_lat": 0.0, "name": "b3d4575e9f74e00e28d3b572452fc1a4", "is_disabled": 0, "rental_uris": {"android": "https://dc.lft.to/lastmile_qr_scan", "ios": "https://dc.lft.to/lastmile_qr_scan"}, "fusion_lon": 0.0, "lat": 38.88726466666667, "bike_id": "b3d4575e9f74e00e28d3b572452fc1a4", "type": "electric_scooter", "is_reserved": 0, "lon": -77.02399683333333}, {"fusion_lat": 0.0, "name": "fadacc090302b075b6b5884277bad9ea", "is_disabled": 0, "rental_uris": {"android": "https://dc.lft.to/lastmile_qr_scan", "ios": "https://dc.lft.to/lastmile_qr_scan"}, "fusion_lon": 0.0, "lat": 38.84353766666667, "bike_id": "fadacc090302b075b6b5884277bad9ea", "type": "electric_bike", "is_reserved": 0, "lon": -76.97827916666667}, {"fusion_lat": 0.0, "name": "adfb2effdd79c91feffec14aaf661e73", "is_disabled": 0, "rental_uris": {"android": "https://dc.lft.to/lastmile_qr_scan", "ios": "https://dc.lft.to/lastmile_qr_scan"}, "fusion_lon": 0.0, "lat": 38.8836295, "bike_id": "adfb2effdd79c91feffec14aaf661e73", "type": "electric_scooter", "is_reserved": 0, "lon": -76.94155933333333}, {"fusion_lat": 0.0, "name": "22c733edd788199b5c7b836530ea82d8", "is_disabled": 0, "rental_uris": {"android": "https://dc.lft.to/lastmile_qr_scan", "ios": "https://dc.lft.to/lastmile_qr_scan"}, "fusion_lon": 0.0, "lat": 38.9052935, "bike_id": "22c733edd788199b5c7b836530ea82d8", "type": "electric_scooter", "is_reserved": 0, "lon": -77.05971033333333}, {"fusion_lat": 0.0, "name": "84d9f255b56c7c1ef95bc5e01463bf75", "is_disabled": 0, "rental_uris": {"android": "https://dc.lft.to/lastmile_qr_scan", "ios": "https://dc.lft.to/lastmile_qr_scan"}, "fusion_lon": 0.0, "lat": 38.94500766666667, "bike_id": "84d9f255b56c7c1ef95bc5e01463bf75", "type": "electric_scooter", "is_reserved": 0, "lon": -77.031529}, {"fusion_lat": 0.0, "name": "69184d828f6cf25a97a99bf9f5a481eb", "is_disabled": 0, "rental_uris": {"android": "https://dc.lft.to/lastmile_qr_scan", "ios": "https://dc.lft.to/lastmile_qr_scan"}, "fusion_lon": 0.0, "lat": 38.9141495, "bike_id": "69184d828f6cf25a97a99bf9f5a481eb", "type": "electric_scooter", "is_reserved": 0, "lon": -77.03188366666667}, {"fusion_lat": 0.0, "name": "78e18c8f0a8721e8ac69c3cbfe0961ed", "is_disabled": 0, "rental_uris": {"android": "https://dc.lft.to/lastmile_qr_scan", "ios": "https://dc.lft.to/lastmile_qr_scan"}, "fusion_lon": 0.0, "lat": 38.911706833333334, "bike_id": "78e18c8f0a8721e8ac69c3cbfe0961ed", "type": "electric_bike", "is_reserved": 0, "lon": -77.00285633333333}, {"fusion_lat": 0.0, "name": "5ff386e449131ab822dedd2b0cf03ee4", "is_disabled": 0, "rental_uris": {"android": "https://dc.lft.to/lastmile_qr_scan", "ios": "https://dc.lft.to/lastmile_qr_scan"}, "fusion_lon": 0.0, "lat": 38.91629833333333, "bike_id": "5ff386e449131ab822dedd2b0cf03ee4", "type": "electric_scooter", "is_reserved": 0, "lon": -77.00593533333333}, {"fusion_lat": 0.0, "name": "e1e420e54b4847300abec5c972ad7f3c", "is_disabled": 0, "rental_uris": {"android": "https://dc.lft.to/lastmile_qr_scan", "ios": "https://dc.lft.to/lastmile_qr_scan"}, "fusion_lon": 0.0, "lat": 38.957479, "bike_id": "e1e420e54b4847300abec5c972ad7f3c", "type": "electric_bike", "is_reserved": 0, "lon": -77.0216645}, {"fusion_lat": 0.0, "name": "5efe3d32497b60bd8a52ca3cf328560c", "is_disabled": 0, "rental_uris": {"android": "https://dc.lft.to/lastmile_qr_scan", "ios": "https://dc.lft.to/lastmile_qr_scan"}, "fusion_lon": 0.0, "lat": 38.92871366666667, "bike_id": "5efe3d32497b60bd8a52ca3cf328560c", "type": "electric_bike", "is_reserved": 0, "lon": -77.03370316666667}, {"fusion_lat": 0.0, "name": "93690f78d4128a035b417487254f89e9", "is_disabled": 0, "rental_uris": {"android": "https://dc.lft.to/lastmile_qr_scan", "ios": "https://dc.lft.to/lastmile_qr_scan"}, "fusion_lon": 0.0, "lat": 38.897339833333334, "bike_id": "93690f78d4128a035b417487254f89e9", "type": "electric_scooter", "is_reserved": 0, "lon": -77.04659333333333}, {"fusion_lat": 0.0, "name": "86ad35e803f831ba1752de183e0f8c63", "is_disabled": 0, "rental_uris": {"android": "https://dc.lft.to/lastmile_qr_scan", "ios": "https://dc.lft.to/lastmile_qr_scan"}, "fusion_lon": 0.0, "lat": 38.997772833333336, "bike_id": "86ad35e803f831ba1752de183e0f8c63", "type": "electric_bike", "is_reserved": 0, "lon": -77.047157}, {"fusion_lat": 0.0, "name": "5b3cab162309a5563ba7f04e380a0d6e", "is_disabled": 0, "rental_uris": {"android": "https://dc.lft.to/lastmile_qr_scan", "ios": "https://dc.lft.to/lastmile_qr_scan"}, "fusion_lon": 0.0, "lat": 38.932096, "bike_id": "5b3cab162309a5563ba7f04e380a0d6e", "type": "electric_scooter", "is_reserved": 0, "lon": -77.02379916666666}, {"fusion_lat": 0.0, "name": "317e05204010d70e2d49966f7b8c469d", "is_disabled": 0, "rental_uris": {"android": "https://dc.lft.to/lastmile_qr_scan", "ios": "https://dc.lft.to/lastmile_qr_scan"}, "fusion_lon": 0.0, "lat": 38.94120566666667, "bike_id": "317e05204010d70e2d49966f7b8c469d", "type": "electric_scooter", "is_reserved": 0, "lon": -77.02629133333333}, {"fusion_lat": 0.0, "name": "efa1c1f745bf63353d2310de535aeb61", "is_disabled": 0, "rental_uris": {"android": "https://dc.lft.to/lastmile_qr_scan", "ios": "https://dc.lft.to/lastmile_qr_scan"}, "fusion_lon": 0.0, "lat": 38.902903333333335, "bike_id": "efa1c1f745bf63353d2310de535aeb61", "type": "electric_scooter", "is_reserved": 0, "lon": -76.97636466666667}, {"fusion_lat": 0.0, "name": "af32b895959374ba51a523fba2fa7b63", "is_disabled": 0, "rental_uris": {"android": "https://dc.lft.to/lastmile_qr_scan", "ios": "https://dc.lft.to/lastmile_qr_scan"}, "fusion_lon": 0.0, "lat": 38.91118733333333, "bike_id": "af32b895959374ba51a523fba2fa7b63", "type": "electric_scooter", "is_reserved": 0, "lon": -77.04464016666667}, {"fusion_lat": 0.0, "name": "0fbea2e4fe415aa0917bfbee41d728c9", "is_disabled": 0, "rental_uris": {"android": "https://dc.lft.to/lastmile_qr_scan", "ios": "https://dc.lft.to/lastmile_qr_scan"}, "fusion_lon": 0.0, "lat": 38.900098166666666, "bike_id": "0fbea2e4fe415aa0917bfbee41d728c9", "type": "electric_scooter", "is_reserved": 0, "lon": -77.011403}, {"fusion_lat": 0.0, "name": "bb9723263a3efc54844c8e5ce46756ac", "is_disabled": 0, "rental_uris": {"android": "https://dc.lft.to/lastmile_qr_scan", "ios": "https://dc.lft.to/lastmile_qr_scan"}, "fusion_lon": 0.0, "lat": 38.9164315, "bike_id": "bb9723263a3efc54844c8e5ce46756ac", "type": "electric_scooter", "is_reserved": 0, "lon": -77.03167533333334}, {"fusion_lat": 0.0, "name": "b99cce55126c96d4cd4535fb4212ba1b", "is_disabled": 0, "rental_uris": {"android": "https://dc.lft.to/lastmile_qr_scan", "ios": "https://dc.lft.to/lastmile_qr_scan"}, "fusion_lon": 0.0, "lat": 38.9025535, "bike_id": "b99cce55126c96d4cd4535fb4212ba1b", "type": "electric_scooter", "is_reserved": 0, "lon": -76.98668666666667}, {"fusion_lat": 0.0, "name": "e5b8fcee80a63ff95ffc6b308e1e9e4b", "is_disabled": 0, "rental_uris": {"android": "https://dc.lft.to/lastmile_qr_scan", "ios": "https://dc.lft.to/lastmile_qr_scan"}, "fusion_lon": 0.0, "lat": 38.807617666666665, "bike_id": "e5b8fcee80a63ff95ffc6b308e1e9e4b", "type": "electric_bike", "is_reserved": 0, "lon": -77.0946955}, {"fusion_lat": 0.0, "name": "c9c4182d2bbae1c68a1ff6cb34cfe8de", "is_disabled": 0, "rental_uris": {"android": "https://dc.lft.to/lastmile_qr_scan", "ios": "https://dc.lft.to/lastmile_qr_scan"}, "fusion_lon": 0.0, "lat": 38.892320833333336, "bike_id": "c9c4182d2bbae1c68a1ff6cb34cfe8de", "type": "electric_scooter", "is_reserved": 0, "lon": -77.02411333333333}, {"fusion_lat": 0.0, "name": "96ee73c0307c42a6b8bc75f504ba8105", "is_disabled": 0, "rental_uris": {"android": "https://dc.lft.to/lastmile_qr_scan", "ios": "https://dc.lft.to/lastmile_qr_scan"}, "fusion_lon": 0.0, "lat": 38.90721816666667, "bike_id": "96ee73c0307c42a6b8bc75f504ba8105", "type": "electric_scooter", "is_reserved": 0, "lon": -77.04224883333333}, {"fusion_lat": 0.0, "name": "70d1211892c4f4dd628e916686e66708", "is_disabled": 0, "rental_uris": {"android": "https://dc.lft.to/lastmile_qr_scan", "ios": "https://dc.lft.to/lastmile_qr_scan"}, "fusion_lon": 0.0, "lat": 38.92410733333333, "bike_id": "70d1211892c4f4dd628e916686e66708", "type": "electric_scooter", "is_reserved": 0, "lon": -77.02104533333333}, {"fusion_lat": 0.0, "name": "5e6b16cb319d666f0520c45c30ad3235", "is_disabled": 0, "rental_uris": {"android": "https://dc.lft.to/lastmile_qr_scan", "ios": "https://dc.lft.to/lastmile_qr_scan"}, "fusion_lon": 0.0, "lat": 38.907666, "bike_id": "5e6b16cb319d666f0520c45c30ad3235", "type": "electric_scooter", "is_reserved": 0, "lon": -77.07105683333333}, {"fusion_lat": 0.0, "name": "5b6e883bfa49603970e0c29fa8ad8ef3", "is_disabled": 0, "rental_uris": {"android": "https://dc.lft.to/lastmile_qr_scan", "ios": "https://dc.lft.to/lastmile_qr_scan"}, "fusion_lon": 0.0, "lat": 38.89879766666667, "bike_id": "5b6e883bfa49603970e0c29fa8ad8ef3", "type": "electric_scooter", "is_reserved": 0, "lon": -77.04011383333334}, {"fusion_lat": 0.0, "name": "7df54806c5527936980771902dd9dfc9", "is_disabled": 0, "rental_uris": {"android": "https://dc.lft.to/lastmile_qr_scan", "ios": "https://dc.lft.to/lastmile_qr_scan"}, "fusion_lon": 0.0, "lat": 38.905287, "bike_id": "7df54806c5527936980771902dd9dfc9", "type": "electric_scooter", "is_reserved": 0, "lon": -77.06139683333333}, {"fusion_lat": 0.0, "name": "9b88a6f54887a8fbf3d7e7155a211e7e", "is_disabled": 0, "rental_uris": {"android": "https://dc.lft.to/lastmile_qr_scan", "ios": "https://dc.lft.to/lastmile_qr_scan"}, "fusion_lon": 0.0, "lat": 38.88114233333334, "bike_id": "9b88a6f54887a8fbf3d7e7155a211e7e", "type": "electric_scooter", "is_reserved": 0, "lon": -77.01651133333333}, {"fusion_lat": 0.0, "name": "f651287b0e5b8c53fd995483c8aeeae8", "is_disabled": 0, "rental_uris": {"android": "https://dc.lft.to/lastmile_qr_scan", "ios": "https://dc.lft.to/lastmile_qr_scan"}, "fusion_lon": 0.0, "lat": 38.90521483333333, "bike_id": "f651287b0e5b8c53fd995483c8aeeae8", "type": "electric_scooter", "is_reserved": 0, "lon": -77.048744}, {"fusion_lat": 0.0, "name": "b4e57299db27445a34c199b0e457978c", "is_disabled": 0, "rental_uris": {"android": "https://dc.lft.to/lastmile_qr_scan", "ios": "https://dc.lft.to/lastmile_qr_scan"}, "fusion_lon": 0.0, "lat": 38.835141166666666, "bike_id": "b4e57299db27445a34c199b0e457978c", "type": "electric_bike", "is_reserved": 0, "lon": -76.98667566666667}, {"fusion_lat": 0.0, "name": "b736b48dd656bce339d2b83aad26edcc", "is_disabled": 0, "rental_uris": {"android": "https://dc.lft.to/lastmile_qr_scan", "ios": "https://dc.lft.to/lastmile_qr_scan"}, "fusion_lon": 0.0, "lat": 38.900348666666666, "bike_id": "b736b48dd656bce339d2b83aad26edcc", "type": "electric_scooter", "is_reserved": 0, "lon": -77.0161695}, {"fusion_lat": 0.0, "name": "0e82a76b5c1d5d19cad089e2133e2499", "is_disabled": 0, "rental_uris": {"android": "https://dc.lft.to/lastmile_qr_scan", "ios": "https://dc.lft.to/lastmile_qr_scan"}, "fusion_lon": 0.0, "lat": 38.90773216666667, "bike_id": "0e82a76b5c1d5d19cad089e2133e2499", "type": "electric_scooter", "is_reserved": 0, "lon": -77.0559595}, {"fusion_lat": 0.0, "name": "b65dca11e9203617f8e8c3b2adf216db", "is_disabled": 0, "rental_uris": {"android": "https://dc.lft.to/lastmile_qr_scan", "ios": "https://dc.lft.to/lastmile_qr_scan"}, "fusion_lon": 0.0, "lat": 38.88729433333334, "bike_id": "b65dca11e9203617f8e8c3b2adf216db", "type": "electric_scooter", "is_reserved": 0, "lon": -77.03179383333334}, {"fusion_lat": 0.0, "name": "191ce4949161136372231d3012d39f1c", "is_disabled": 0, "rental_uris": {"android": "https://dc.lft.to/lastmile_qr_scan", "ios": "https://dc.lft.to/lastmile_qr_scan"}, "fusion_lon": 0.0, "lat": 38.88677716666667, "bike_id": "191ce4949161136372231d3012d39f1c", "type": "electric_scooter", "is_reserved": 0, "lon": -77.01373333333333}, {"fusion_lat": 0.0, "name": "323c8fdfbdb9ec32d13169d4775fd83e", "is_disabled": 0, "rental_uris": {"android": "https://dc.lft.to/lastmile_qr_scan", "ios": "https://dc.lft.to/lastmile_qr_scan"}, "fusion_lon": 0.0, "lat": 38.9006455, "bike_id": "323c8fdfbdb9ec32d13169d4775fd83e", "type": "electric_scooter", "is_reserved": 0, "lon": -76.933858}, {"fusion_lat": 0.0, "name": "2e107a08c54e59663dd47f2e86638594", "is_disabled": 0, "rental_uris": {"android": "https://dc.lft.to/lastmile_qr_scan", "ios": "https://dc.lft.to/lastmile_qr_scan"}, "fusion_lon": 0.0, "lat": 38.948614, "bike_id": "2e107a08c54e59663dd47f2e86638594", "type": "electric_scooter", "is_reserved": 0, "lon": -77.02569416666667}, {"fusion_lat": 0.0, "name": "dc0a8cfad9530ced702440e4aa4d60bd", "is_disabled": 0, "rental_uris": {"android": "https://dc.lft.to/lastmile_qr_scan", "ios": "https://dc.lft.to/lastmile_qr_scan"}, "fusion_lon": 0.0, "lat": 38.942739, "bike_id": "dc0a8cfad9530ced702440e4aa4d60bd", "type": "electric_scooter", "is_reserved": 0, "lon": -77.03260633333333}, {"fusion_lat": 0.0, "name": "fd59c76ea728475ec037c6691ef21038", "is_disabled": 0, "rental_uris": {"android": "https://dc.lft.to/lastmile_qr_scan", "ios": "https://dc.lft.to/lastmile_qr_scan"}, "fusion_lon": 0.0, "lat": 38.91558333333333, "bike_id": "fd59c76ea728475ec037c6691ef21038", "type": "electric_scooter", "is_reserved": 0, "lon": -77.01134033333334}, {"fusion_lat": 0.0, "name": "b23f002e8d1d9588025e76390a6d98fd", "is_disabled": 0, "rental_uris": {"android": "https://dc.lft.to/lastmile_qr_scan", "ios": "https://dc.lft.to/lastmile_qr_scan"}, "fusion_lon": 0.0, "lat": 38.897332, "bike_id": "b23f002e8d1d9588025e76390a6d98fd", "type": "electric_scooter", "is_reserved": 0, "lon": -77.021597}, {"fusion_lat": 0.0, "name": "1c67962743791f1c6991ad2caa692abd", "is_disabled": 0, "rental_uris": {"android": "https://dc.lft.to/lastmile_qr_scan", "ios": "https://dc.lft.to/lastmile_qr_scan"}, "fusion_lon": 0.0, "lat": 38.902726, "bike_id": "1c67962743791f1c6991ad2caa692abd", "type": "electric_scooter", "is_reserved": 0, "lon": -77.01764333333334}, {"fusion_lat": 0.0, "name": "5bbc1567980287c7fcec7fe0c0186b8a", "is_disabled": 0, "rental_uris": {"android": "https://dc.lft.to/lastmile_qr_scan", "ios": "https://dc.lft.to/lastmile_qr_scan"}, "fusion_lon": 0.0, "lat": 38.940114666666666, "bike_id": "5bbc1567980287c7fcec7fe0c0186b8a", "type": "electric_scooter", "is_reserved": 0, "lon": -77.0841675}, {"fusion_lat": 0.0, "name": "8c86a5a5ca86d6edd6f34ecdafdf277e", "is_disabled": 0, "rental_uris": {"android": "https://dc.lft.to/lastmile_qr_scan", "ios": "https://dc.lft.to/lastmile_qr_scan"}, "fusion_lon": 0.0, "lat": 38.906841166666666, "bike_id": "8c86a5a5ca86d6edd6f34ecdafdf277e", "type": "electric_bike", "is_reserved": 0, "lon": -76.9449225}, {"fusion_lat": 0.0, "name": "bb1170797db508f287babbe1c90c6673", "is_disabled": 0, "rental_uris": {"android": "https://dc.lft.to/lastmile_qr_scan", "ios": "https://dc.lft.to/lastmile_qr_scan"}, "fusion_lon": 0.0, "lat": 38.88746233333333, "bike_id": "bb1170797db508f287babbe1c90c6673", "type": "electric_scooter", "is_reserved": 0, "lon": -77.03158133333334}, {"fusion_lat": 0.0, "name": "e51d6672eb66e606b8f8dc765c0f3965", "is_disabled": 0, "rental_uris": {"android": "https://dc.lft.to/lastmile_qr_scan", "ios": "https://dc.lft.to/lastmile_qr_scan"}, "fusion_lon": 0.0, "lat": 38.8976655, "bike_id": "e51d6672eb66e606b8f8dc765c0f3965", "type": "electric_scooter", "is_reserved": 0, "lon": -77.02505883333333}, {"fusion_lat": 0.0, "name": "317b357d965f60b5874b85aba60761c2", "is_disabled": 0, "rental_uris": {"android": "https://dc.lft.to/lastmile_qr_scan", "ios": "https://dc.lft.to/lastmile_qr_scan"}, "fusion_lon": 0.0, "lat": 38.887674833333335, "bike_id": "317b357d965f60b5874b85aba60761c2", "type": "electric_scooter", "is_reserved": 0, "lon": -76.97745966666666}, {"fusion_lat": 0.0, "name": "a8f2e290ee2286cf2d75e9181da21564", "is_disabled": 0, "rental_uris": {"android": "https://dc.lft.to/lastmile_qr_scan", "ios": "https://dc.lft.to/lastmile_qr_scan"}, "fusion_lon": 0.0, "lat": 38.928074, "bike_id": "a8f2e290ee2286cf2d75e9181da21564", "type": "electric_scooter", "is_reserved": 0, "lon": -77.04363}, {"fusion_lat": 0.0, "name": "ab7dc481ce24bbdacba762ea1ae795f6", "is_disabled": 0, "rental_uris": {"android": "https://dc.lft.to/lastmile_qr_scan", "ios": "https://dc.lft.to/lastmile_qr_scan"}, "fusion_lon": 0.0, "lat": 38.917087333333335, "bike_id": "ab7dc481ce24bbdacba762ea1ae795f6", "type": "electric_scooter", "is_reserved": 0, "lon": -77.02483816666667}, {"fusion_lat": 0.0, "name": "5c9313f144ebb982c2eaa50ffd0c3286", "is_disabled": 0, "rental_uris": {"android": "https://dc.lft.to/lastmile_qr_scan", "ios": "https://dc.lft.to/lastmile_qr_scan"}, "fusion_lon": 0.0, "lat": 38.92873433333333, "bike_id": "5c9313f144ebb982c2eaa50ffd0c3286", "type": "electric_scooter", "is_reserved": 0, "lon": -77.03043116666667}, {"fusion_lat": 0.0, "name": "51daa7fa68496500f340c223e9d4c471", "is_disabled": 0, "rental_uris": {"android": "https://dc.lft.to/lastmile_qr_scan", "ios": "https://dc.lft.to/lastmile_qr_scan"}, "fusion_lon": 0.0, "lat": 38.9067795, "bike_id": "51daa7fa68496500f340c223e9d4c471", "type": "electric_scooter", "is_reserved": 0, "lon": -77.03839483333333}, {"fusion_lat": 0.0, "name": "814792b4591f2dbdd75054592bf06e61", "is_disabled": 0, "rental_uris": {"android": "https://dc.lft.to/lastmile_qr_scan", "ios": "https://dc.lft.to/lastmile_qr_scan"}, "fusion_lon": 0.0, "lat": 38.915546666666664, "bike_id": "814792b4591f2dbdd75054592bf06e61", "type": "electric_scooter", "is_reserved": 0, "lon": -77.024583}, {"fusion_lat": 0.0, "name": "42eea9a992ad032a4c2afd816c2b4b02", "is_disabled": 0, "rental_uris": {"android": "https://dc.lft.to/lastmile_qr_scan", "ios": "https://dc.lft.to/lastmile_qr_scan"}, "fusion_lon": 0.0, "lat": 38.91245116666666, "bike_id": "42eea9a992ad032a4c2afd816c2b4b02", "type": "electric_scooter", "is_reserved": 0, "lon": -77.00651333333333}, {"fusion_lat": 0.0, "name": "2f2df9bd3f16ef042ba5a54b17bb2ee2", "is_disabled": 0, "rental_uris": {"android": "https://dc.lft.to/lastmile_qr_scan", "ios": "https://dc.lft.to/lastmile_qr_scan"}, "fusion_lon": 0.0, "lat": 38.901528166666665, "bike_id": "2f2df9bd3f16ef042ba5a54b17bb2ee2", "type": "electric_scooter", "is_reserved": 0, "lon": -76.93062766666667}, {"fusion_lat": 0.0, "name": "f3ce96b82613171f692578bc1f26a55e", "is_disabled": 0, "rental_uris": {"android": "https://dc.lft.to/lastmile_qr_scan", "ios": "https://dc.lft.to/lastmile_qr_scan"}, "fusion_lon": 0.0, "lat": 38.86917966666667, "bike_id": "f3ce96b82613171f692578bc1f26a55e", "type": "electric_bike", "is_reserved": 0, "lon": -76.97503366666666}, {"fusion_lat": 0.0, "name": "c84f680a3b4c1e1c11e74294e5567e16", "is_disabled": 0, "rental_uris": {"android": "https://dc.lft.to/lastmile_qr_scan", "ios": "https://dc.lft.to/lastmile_qr_scan"}, "fusion_lon": 0.0, "lat": 38.905755, "bike_id": "c84f680a3b4c1e1c11e74294e5567e16", "type": "electric_scooter", "is_reserved": 0, "lon": -77.02101816666666}, {"fusion_lat": 0.0, "name": "e94cdc511d07e98cc439dd525a92721b", "is_disabled": 0, "rental_uris": {"android": "https://dc.lft.to/lastmile_qr_scan", "ios": "https://dc.lft.to/lastmile_qr_scan"}, "fusion_lon": 0.0, "lat": 38.88134183333333, "bike_id": "e94cdc511d07e98cc439dd525a92721b", "type": "electric_bike", "is_reserved": 0, "lon": -76.995503}, {"fusion_lat": 0.0, "name": "e3860fe56f2c4f836d0cd652d9ca2493", "is_disabled": 0, "rental_uris": {"android": "https://dc.lft.to/lastmile_qr_scan", "ios": "https://dc.lft.to/lastmile_qr_scan"}, "fusion_lon": 0.0, "lat": 38.90938116666667, "bike_id": "e3860fe56f2c4f836d0cd652d9ca2493", "type": "electric_scooter", "is_reserved": 0, "lon": -77.018469}, {"fusion_lat": 0.0, "name": "2a11fb3c18b9443f6e4b919a70de0511", "is_disabled": 0, "rental_uris": {"android": "https://dc.lft.to/lastmile_qr_scan", "ios": "https://dc.lft.to/lastmile_qr_scan"}, "fusion_lon": 0.0, "lat": 38.919633833333336, "bike_id": "2a11fb3c18b9443f6e4b919a70de0511", "type": "electric_scooter", "is_reserved": 0, "lon": -77.03206883333333}, {"fusion_lat": 0.0, "name": "7e099bae2a5df40847a459738f9ae11f", "is_disabled": 0, "rental_uris": {"android": "https://dc.lft.to/lastmile_qr_scan", "ios": "https://dc.lft.to/lastmile_qr_scan"}, "fusion_lon": 0.0, "lat": 38.90025883333333, "bike_id": "7e099bae2a5df40847a459738f9ae11f", "type": "electric_scooter", "is_reserved": 0, "lon": -76.9885295}, {"fusion_lat": 0.0, "name": "27368c64f2f6793c362aa9abc802d4bd", "is_disabled": 0, "rental_uris": {"android": "https://dc.lft.to/lastmile_qr_scan", "ios": "https://dc.lft.to/lastmile_qr_scan"}, "fusion_lon": 0.0, "lat": 38.88201516666667, "bike_id": "27368c64f2f6793c362aa9abc802d4bd", "type": "electric_scooter", "is_reserved": 0, "lon": -77.00066333333334}, {"fusion_lat": 0.0, "name": "41f8b00bd75bdd30a865370295d9721e", "is_disabled": 0, "rental_uris": {"android": "https://dc.lft.to/lastmile_qr_scan", "ios": "https://dc.lft.to/lastmile_qr_scan"}, "fusion_lon": 0.0, "lat": 38.920865666666664, "bike_id": "41f8b00bd75bdd30a865370295d9721e", "type": "electric_scooter", "is_reserved": 0, "lon": -77.0045065}, {"fusion_lat": 0.0, "name": "8ef48016ca1ac10cfc6849d82f03c2ad", "is_disabled": 0, "rental_uris": {"android": "https://dc.lft.to/lastmile_qr_scan", "ios": "https://dc.lft.to/lastmile_qr_scan"}, "fusion_lon": 0.0, "lat": 38.973745666666666, "bike_id": "8ef48016ca1ac10cfc6849d82f03c2ad", "type": "electric_scooter", "is_reserved": 0, "lon": -77.01854333333333}, {"fusion_lat": 0.0, "name": "c1b627daf26c4c823b6f03021c69d23f", "is_disabled": 0, "rental_uris": {"android": "https://dc.lft.to/lastmile_qr_scan", "ios": "https://dc.lft.to/lastmile_qr_scan"}, "fusion_lon": 0.0, "lat": 38.8813045, "bike_id": "c1b627daf26c4c823b6f03021c69d23f", "type": "electric_scooter", "is_reserved": 0, "lon": -77.01650883333333}, {"fusion_lat": 0.0, "name": "352ab57e590475008eace4b355eab98e", "is_disabled": 0, "rental_uris": {"android": "https://dc.lft.to/lastmile_qr_scan", "ios": "https://dc.lft.to/lastmile_qr_scan"}, "fusion_lon": 0.0, "lat": 38.88312283333333, "bike_id": "352ab57e590475008eace4b355eab98e", "type": "electric_scooter", "is_reserved": 0, "lon": -76.99494016666667}, {"fusion_lat": 0.0, "name": "a24619efcd2386f2988dabcea12446e8", "is_disabled": 0, "rental_uris": {"android": "https://dc.lft.to/lastmile_qr_scan", "ios": "https://dc.lft.to/lastmile_qr_scan"}, "fusion_lon": 0.0, "lat": 38.8983335, "bike_id": "a24619efcd2386f2988dabcea12446e8", "type": "electric_scooter", "is_reserved": 0, "lon": -77.04081516666666}, {"fusion_lat": 0.0, "name": "29db8e4d7e34f113f2bb6f3c91731f37", "is_disabled": 0, "rental_uris": {"android": "https://dc.lft.to/lastmile_qr_scan", "ios": "https://dc.lft.to/lastmile_qr_scan"}, "fusion_lon": 0.0, "lat": 38.93374516666667, "bike_id": "29db8e4d7e34f113f2bb6f3c91731f37", "type": "electric_scooter", "is_reserved": 0, "lon": -77.03892983333333}, {"fusion_lat": 0.0, "name": "c8e75be3cce1b8aa291c22894863dc1d", "is_disabled": 0, "rental_uris": {"android": "https://dc.lft.to/lastmile_qr_scan", "ios": "https://dc.lft.to/lastmile_qr_scan"}, "fusion_lon": 0.0, "lat": 38.902357333333335, "bike_id": "c8e75be3cce1b8aa291c22894863dc1d", "type": "electric_scooter", "is_reserved": 0, "lon": -77.05340633333333}, {"fusion_lat": 0.0, "name": "27b70548488c42484d1656386bf99d7d", "is_disabled": 0, "rental_uris": {"android": "https://dc.lft.to/lastmile_qr_scan", "ios": "https://dc.lft.to/lastmile_qr_scan"}, "fusion_lon": 0.0, "lat": 38.89220316666667, "bike_id": "27b70548488c42484d1656386bf99d7d", "type": "electric_scooter", "is_reserved": 0, "lon": -77.02695116666666}, {"fusion_lat": 0.0, "name": "aae628db16638276735bbf7b6dd2c728", "is_disabled": 0, "rental_uris": {"android": "https://dc.lft.to/lastmile_qr_scan", "ios": "https://dc.lft.to/lastmile_qr_scan"}, "fusion_lon": 0.0, "lat": 38.9018845, "bike_id": "aae628db16638276735bbf7b6dd2c728", "type": "electric_scooter", "is_reserved": 0, "lon": -77.05009066666666}, {"fusion_lat": 0.0, "name": "bad38176b36a7e5f6bbb0466642748f9", "is_disabled": 0, "rental_uris": {"android": "https://dc.lft.to/lastmile_qr_scan", "ios": "https://dc.lft.to/lastmile_qr_scan"}, "fusion_lon": 0.0, "lat": 38.948359833333335, "bike_id": "bad38176b36a7e5f6bbb0466642748f9", "type": "electric_scooter", "is_reserved": 0, "lon": -77.0798625}, {"fusion_lat": 0.0, "name": "a78e6a4357f7f1f21d778d5f7c9da65a", "is_disabled": 0, "rental_uris": {"android": "https://dc.lft.to/lastmile_qr_scan", "ios": "https://dc.lft.to/lastmile_qr_scan"}, "fusion_lon": 0.0, "lat": 38.905265, "bike_id": "a78e6a4357f7f1f21d778d5f7c9da65a", "type": "electric_scooter", "is_reserved": 0, "lon": -77.063819}, {"fusion_lat": 0.0, "name": "430db5c2957ffbf03b84f629a0a8f3ee", "is_disabled": 0, "rental_uris": {"android": "https://dc.lft.to/lastmile_qr_scan", "ios": "https://dc.lft.to/lastmile_qr_scan"}, "fusion_lon": 0.0, "lat": 38.88396766666666, "bike_id": "430db5c2957ffbf03b84f629a0a8f3ee", "type": "electric_scooter", "is_reserved": 0, "lon": -76.93044866666666}, {"fusion_lat": 0.0, "name": "6b5ab0d602aff52b27116dbf9fa87d46", "is_disabled": 0, "rental_uris": {"android": "https://dc.lft.to/lastmile_qr_scan", "ios": "https://dc.lft.to/lastmile_qr_scan"}, "fusion_lon": 0.0, "lat": 38.912684666666664, "bike_id": "6b5ab0d602aff52b27116dbf9fa87d46", "type": "electric_scooter", "is_reserved": 0, "lon": -77.03142316666667}, {"fusion_lat": 0.0, "name": "2d9d4e16fdbe8131d87d416156c379c0", "is_disabled": 0, "rental_uris": {"android": "https://dc.lft.to/lastmile_qr_scan", "ios": "https://dc.lft.to/lastmile_qr_scan"}, "fusion_lon": 0.0, "lat": 38.940846666666665, "bike_id": "2d9d4e16fdbe8131d87d416156c379c0", "type": "electric_scooter", "is_reserved": 0, "lon": -77.06188566666667}, {"fusion_lat": 0.0, "name": "44f0d452807acf0feec446329b37636e", "is_disabled": 0, "rental_uris": {"android": "https://dc.lft.to/lastmile_qr_scan", "ios": "https://dc.lft.to/lastmile_qr_scan"}, "fusion_lon": 0.0, "lat": 38.89542483333334, "bike_id": "44f0d452807acf0feec446329b37636e", "type": "electric_scooter", "is_reserved": 0, "lon": -77.01081033333334}, {"fusion_lat": 0.0, "name": "3f9be9c4879e2a45eb63923ff36295e6", "is_disabled": 0, "rental_uris": {"android": "https://dc.lft.to/lastmile_qr_scan", "ios": "https://dc.lft.to/lastmile_qr_scan"}, "fusion_lon": 0.0, "lat": 38.857720666666665, "bike_id": "3f9be9c4879e2a45eb63923ff36295e6", "type": "electric_bike", "is_reserved": 0, "lon": -76.98764433333334}, {"fusion_lat": 0.0, "name": "f4fec361a867f65ad6cadb8633b5ff1f", "is_disabled": 0, "rental_uris": {"android": "https://dc.lft.to/lastmile_qr_scan", "ios": "https://dc.lft.to/lastmile_qr_scan"}, "fusion_lon": 0.0, "lat": 38.897326, "bike_id": "f4fec361a867f65ad6cadb8633b5ff1f", "type": "electric_scooter", "is_reserved": 0, "lon": -77.055251}, {"fusion_lat": 0.0, "name": "f86fabcd64ff65aac1f44e52c1eed5d9", "is_disabled": 0, "rental_uris": {"android": "https://dc.lft.to/lastmile_qr_scan", "ios": "https://dc.lft.to/lastmile_qr_scan"}, "fusion_lon": 0.0, "lat": 38.898556166666665, "bike_id": "f86fabcd64ff65aac1f44e52c1eed5d9", "type": "electric_scooter", "is_reserved": 0, "lon": -77.026281}, {"fusion_lat": 0.0, "name": "75d4d6a737774d5265819e7e9bb44160", "is_disabled": 0, "rental_uris": {"android": "https://dc.lft.to/lastmile_qr_scan", "ios": "https://dc.lft.to/lastmile_qr_scan"}, "fusion_lon": 0.0, "lat": 38.882217833333335, "bike_id": "75d4d6a737774d5265819e7e9bb44160", "type": "electric_scooter", "is_reserved": 0, "lon": -77.0293945}, {"fusion_lat": 0.0, "name": "18e035c2cf42f33c5ae02f71c44de7bb", "is_disabled": 0, "rental_uris": {"android": "https://dc.lft.to/lastmile_qr_scan", "ios": "https://dc.lft.to/lastmile_qr_scan"}, "fusion_lon": 0.0, "lat": 38.952215833333334, "bike_id": "18e035c2cf42f33c5ae02f71c44de7bb", "type": "electric_scooter", "is_reserved": 0, "lon": -77.082161}, {"fusion_lat": 0.0, "name": "77216d0f7ad7d276803fdaae3b572512", "is_disabled": 0, "rental_uris": {"android": "https://dc.lft.to/lastmile_qr_scan", "ios": "https://dc.lft.to/lastmile_qr_scan"}, "fusion_lon": 0.0, "lat": 38.9260205, "bike_id": "77216d0f7ad7d276803fdaae3b572512", "type": "electric_scooter", "is_reserved": 0, "lon": -77.021623}, {"fusion_lat": 0.0, "name": "46e1167535bd3d0116435fd3d4a3e64c", "is_disabled": 0, "rental_uris": {"android": "https://dc.lft.to/lastmile_qr_scan", "ios": "https://dc.lft.to/lastmile_qr_scan"}, "fusion_lon": 0.0, "lat": 38.931538833333335, "bike_id": "46e1167535bd3d0116435fd3d4a3e64c", "type": "electric_scooter", "is_reserved": 0, "lon": -77.03964183333333}, {"fusion_lat": 0.0, "name": "9240de5935cb5d7592cc298add251358", "is_disabled": 0, "rental_uris": {"android": "https://dc.lft.to/lastmile_qr_scan", "ios": "https://dc.lft.to/lastmile_qr_scan"}, "fusion_lon": 0.0, "lat": 38.915184333333336, "bike_id": "9240de5935cb5d7592cc298add251358", "type": "electric_scooter", "is_reserved": 0, "lon": -77.01983316666667}, {"fusion_lat": 0.0, "name": "c8645250f12245886208c95e96a33786", "is_disabled": 0, "rental_uris": {"android": "https://dc.lft.to/lastmile_qr_scan", "ios": "https://dc.lft.to/lastmile_qr_scan"}, "fusion_lon": 0.0, "lat": 38.94853716666667, "bike_id": "c8645250f12245886208c95e96a33786", "type": "electric_scooter", "is_reserved": 0, "lon": -77.02567616666667}, {"fusion_lat": 0.0, "name": "e969afeef4cff1ce06c161eace9df4d2", "is_disabled": 0, "rental_uris": {"android": "https://dc.lft.to/lastmile_qr_scan", "ios": "https://dc.lft.to/lastmile_qr_scan"}, "fusion_lon": 0.0, "lat": 38.9199715, "bike_id": "e969afeef4cff1ce06c161eace9df4d2", "type": "electric_scooter", "is_reserved": 0, "lon": -77.07188266666667}, {"fusion_lat": 0.0, "name": "d6eb10571e2c8c96953afe7c146ea19c", "is_disabled": 0, "rental_uris": {"android": "https://dc.lft.to/lastmile_qr_scan", "ios": "https://dc.lft.to/lastmile_qr_scan"}, "fusion_lon": 0.0, "lat": 38.8540775, "bike_id": "d6eb10571e2c8c96953afe7c146ea19c", "type": "electric_bike", "is_reserved": 0, "lon": -77.12075166666666}, {"fusion_lat": 0.0, "name": "5cf8dafd286bda90d02a0a350d50dd06", "is_disabled": 0, "rental_uris": {"android": "https://dc.lft.to/lastmile_qr_scan", "ios": "https://dc.lft.to/lastmile_qr_scan"}, "fusion_lon": 0.0, "lat": 38.8829905, "bike_id": "5cf8dafd286bda90d02a0a350d50dd06", "type": "electric_scooter", "is_reserved": 0, "lon": -76.94854783333334}, {"fusion_lat": 0.0, "name": "d2c15e24478b8139905b2ccff5b3276b", "is_disabled": 0, "rental_uris": {"android": "https://dc.lft.to/lastmile_qr_scan", "ios": "https://dc.lft.to/lastmile_qr_scan"}, "fusion_lon": 0.0, "lat": 38.92988916666667, "bike_id": "d2c15e24478b8139905b2ccff5b3276b", "type": "electric_scooter", "is_reserved": 0, "lon": -77.03244416666666}, {"fusion_lat": 0.0, "name": "aab9bf405eaa7b66c0f59bd154df2444", "is_disabled": 0, "rental_uris": {"android": "https://dc.lft.to/lastmile_qr_scan", "ios": "https://dc.lft.to/lastmile_qr_scan"}, "fusion_lon": 0.0, "lat": 38.91997116666667, "bike_id": "aab9bf405eaa7b66c0f59bd154df2444", "type": "electric_scooter", "is_reserved": 0, "lon": -77.07121733333334}, {"fusion_lat": 0.0, "name": "1d748573f877e05edf987bd155f4759a", "is_disabled": 0, "rental_uris": {"android": "https://dc.lft.to/lastmile_qr_scan", "ios": "https://dc.lft.to/lastmile_qr_scan"}, "fusion_lon": 0.0, "lat": 38.8969995, "bike_id": "1d748573f877e05edf987bd155f4759a", "type": "electric_scooter", "is_reserved": 0, "lon": -77.023945}, {"fusion_lat": 0.0, "name": "fffa26342f05961fda3dd2241440f061", "is_disabled": 0, "rental_uris": {"android": "https://dc.lft.to/lastmile_qr_scan", "ios": "https://dc.lft.to/lastmile_qr_scan"}, "fusion_lon": 0.0, "lat": 38.966669833333334, "bike_id": "fffa26342f05961fda3dd2241440f061", "type": "electric_bike", "is_reserved": 0, "lon": -76.97446433333333}, {"fusion_lat": 0.0, "name": "8bd450439ab4d8dc44600f636f33a308", "is_disabled": 0, "rental_uris": {"android": "https://dc.lft.to/lastmile_qr_scan", "ios": "https://dc.lft.to/lastmile_qr_scan"}, "fusion_lon": 0.0, "lat": 38.915995833333334, "bike_id": "8bd450439ab4d8dc44600f636f33a308", "type": "electric_scooter", "is_reserved": 0, "lon": -77.049031}, {"fusion_lat": 0.0, "name": "13b28d641efe7599e198226b6733dc15", "is_disabled": 0, "rental_uris": {"android": "https://dc.lft.to/lastmile_qr_scan", "ios": "https://dc.lft.to/lastmile_qr_scan"}, "fusion_lon": 0.0, "lat": 38.93844, "bike_id": "13b28d641efe7599e198226b6733dc15", "type": "electric_scooter", "is_reserved": 0, "lon": -77.062486}, {"fusion_lat": 0.0, "name": "f599ba164969757bda0ca4c670f87594", "is_disabled": 0, "rental_uris": {"android": "https://dc.lft.to/lastmile_qr_scan", "ios": "https://dc.lft.to/lastmile_qr_scan"}, "fusion_lon": 0.0, "lat": 38.9311915, "bike_id": "f599ba164969757bda0ca4c670f87594", "type": "electric_scooter", "is_reserved": 0, "lon": -77.02099216666667}, {"fusion_lat": 0.0, "name": "49e4169eb17a70cdf3513ca0df80d1fc", "is_disabled": 0, "rental_uris": {"android": "https://dc.lft.to/lastmile_qr_scan", "ios": "https://dc.lft.to/lastmile_qr_scan"}, "fusion_lon": 0.0, "lat": 38.90477833333333, "bike_id": "49e4169eb17a70cdf3513ca0df80d1fc", "type": "electric_bike", "is_reserved": 0, "lon": -77.0611895}, {"fusion_lat": 0.0, "name": "5f4029153539dcc8d410c84a3e907bd4", "is_disabled": 0, "rental_uris": {"android": "https://dc.lft.to/lastmile_qr_scan", "ios": "https://dc.lft.to/lastmile_qr_scan"}, "fusion_lon": 0.0, "lat": 38.9262155, "bike_id": "5f4029153539dcc8d410c84a3e907bd4", "type": "electric_scooter", "is_reserved": 0, "lon": -77.04329133333333}, {"fusion_lat": 0.0, "name": "d282360f7bfc52bad23031def8348093", "is_disabled": 0, "rental_uris": {"android": "https://dc.lft.to/lastmile_qr_scan", "ios": "https://dc.lft.to/lastmile_qr_scan"}, "fusion_lon": 0.0, "lat": 38.919965166666664, "bike_id": "d282360f7bfc52bad23031def8348093", "type": "electric_scooter", "is_reserved": 0, "lon": -77.03284133333334}, {"fusion_lat": 0.0, "name": "ed3233085775c157ea479f9c032cc623", "is_disabled": 0, "rental_uris": {"android": "https://dc.lft.to/lastmile_qr_scan", "ios": "https://dc.lft.to/lastmile_qr_scan"}, "fusion_lon": 0.0, "lat": 38.90031483333333, "bike_id": "ed3233085775c157ea479f9c032cc623", "type": "electric_scooter", "is_reserved": 0, "lon": -77.00026733333333}, {"fusion_lat": 0.0, "name": "3dea5cd73a84a1bf34d1a68ebf86e6ec", "is_disabled": 0, "rental_uris": {"android": "https://dc.lft.to/lastmile_qr_scan", "ios": "https://dc.lft.to/lastmile_qr_scan"}, "fusion_lon": 0.0, "lat": 38.9214765, "bike_id": "3dea5cd73a84a1bf34d1a68ebf86e6ec", "type": "electric_scooter", "is_reserved": 0, "lon": -77.03869016666667}, {"fusion_lat": 0.0, "name": "51247596d70e8b13b769143f0250f2e1", "is_disabled": 0, "rental_uris": {"android": "https://dc.lft.to/lastmile_qr_scan", "ios": "https://dc.lft.to/lastmile_qr_scan"}, "fusion_lon": 0.0, "lat": 38.90721216666667, "bike_id": "51247596d70e8b13b769143f0250f2e1", "type": "electric_scooter", "is_reserved": 0, "lon": -77.048138}, {"fusion_lat": 0.0, "name": "fc62b8f7272756def143be89f96f348b", "is_disabled": 0, "rental_uris": {"android": "https://dc.lft.to/lastmile_qr_scan", "ios": "https://dc.lft.to/lastmile_qr_scan"}, "fusion_lon": 0.0, "lat": 38.936864666666665, "bike_id": "fc62b8f7272756def143be89f96f348b", "type": "electric_scooter", "is_reserved": 0, "lon": -77.03629533333333}, {"fusion_lat": 0.0, "name": "f004d4bcbffd4a17e984519e0fccb980", "is_disabled": 0, "rental_uris": {"android": "https://dc.lft.to/lastmile_qr_scan", "ios": "https://dc.lft.to/lastmile_qr_scan"}, "fusion_lon": 0.0, "lat": 38.9233465, "bike_id": "f004d4bcbffd4a17e984519e0fccb980", "type": "electric_scooter", "is_reserved": 0, "lon": -77.020792}, {"fusion_lat": 0.0, "name": "405dd9641f9b321d2b6d4aa61b5e502c", "is_disabled": 0, "rental_uris": {"android": "https://dc.lft.to/lastmile_qr_scan", "ios": "https://dc.lft.to/lastmile_qr_scan"}, "fusion_lon": 0.0, "lat": 38.9028555, "bike_id": "405dd9641f9b321d2b6d4aa61b5e502c", "type": "electric_scooter", "is_reserved": 0, "lon": -77.0438475}, {"fusion_lat": 0.0, "name": "2b4ca9a0351cfc7f87347919293e41f9", "is_disabled": 0, "rental_uris": {"android": "https://dc.lft.to/lastmile_qr_scan", "ios": "https://dc.lft.to/lastmile_qr_scan"}, "fusion_lon": 0.0, "lat": 38.940712833333336, "bike_id": "2b4ca9a0351cfc7f87347919293e41f9", "type": "electric_bike", "is_reserved": 0, "lon": -76.99458483333333}, {"fusion_lat": 0.0, "name": "7a6b5352023e0a4f19aab9671d48058e", "is_disabled": 0, "rental_uris": {"android": "https://dc.lft.to/lastmile_qr_scan", "ios": "https://dc.lft.to/lastmile_qr_scan"}, "fusion_lon": 0.0, "lat": 38.88972833333333, "bike_id": "7a6b5352023e0a4f19aab9671d48058e", "type": "electric_scooter", "is_reserved": 0, "lon": -76.9993795}, {"fusion_lat": 0.0, "name": "1ffd10e3b1cf4532ed2c486ae1075047", "is_disabled": 0, "rental_uris": {"android": "https://dc.lft.to/lastmile_qr_scan", "ios": "https://dc.lft.to/lastmile_qr_scan"}, "fusion_lon": 0.0, "lat": 38.93152883333333, "bike_id": "1ffd10e3b1cf4532ed2c486ae1075047", "type": "electric_scooter", "is_reserved": 0, "lon": -77.07845766666667}, {"fusion_lat": 0.0, "name": "67a04f0da7652c4743f1045613c5cc32", "is_disabled": 0, "rental_uris": {"android": "https://dc.lft.to/lastmile_qr_scan", "ios": "https://dc.lft.to/lastmile_qr_scan"}, "fusion_lon": 0.0, "lat": 38.93143516666667, "bike_id": "67a04f0da7652c4743f1045613c5cc32", "type": "electric_scooter", "is_reserved": 0, "lon": -77.03244833333333}, {"fusion_lat": 0.0, "name": "4b45f24b9863b5d1cc1128ceaea61885", "is_disabled": 0, "rental_uris": {"android": "https://dc.lft.to/lastmile_qr_scan", "ios": "https://dc.lft.to/lastmile_qr_scan"}, "fusion_lon": 0.0, "lat": 38.878289, "bike_id": "4b45f24b9863b5d1cc1128ceaea61885", "type": "electric_scooter", "is_reserved": 0, "lon": -76.99019}, {"fusion_lat": 0.0, "name": "818b1cbc250d7551160d77c1075ebb0a", "is_disabled": 0, "rental_uris": {"android": "https://dc.lft.to/lastmile_qr_scan", "ios": "https://dc.lft.to/lastmile_qr_scan"}, "fusion_lon": 0.0, "lat": 38.90047833333333, "bike_id": "818b1cbc250d7551160d77c1075ebb0a", "type": "electric_scooter", "is_reserved": 0, "lon": -77.044867}, {"fusion_lat": 0.0, "name": "14e2bf5a6cff1fb05f7e4e9727750954", "is_disabled": 0, "rental_uris": {"android": "https://dc.lft.to/lastmile_qr_scan", "ios": "https://dc.lft.to/lastmile_qr_scan"}, "fusion_lon": 0.0, "lat": 38.900092, "bike_id": "14e2bf5a6cff1fb05f7e4e9727750954", "type": "electric_scooter", "is_reserved": 0, "lon": -76.99854783333333}, {"fusion_lat": 0.0, "name": "880108fcceac4a962775834331a7c959", "is_disabled": 0, "rental_uris": {"android": "https://dc.lft.to/lastmile_qr_scan", "ios": "https://dc.lft.to/lastmile_qr_scan"}, "fusion_lon": 0.0, "lat": 38.853635833333335, "bike_id": "880108fcceac4a962775834331a7c959", "type": "electric_bike", "is_reserved": 0, "lon": -77.11495033333334}, {"fusion_lat": 0.0, "name": "b85e67a2a540f2343bdb2222dbb1882d", "is_disabled": 0, "rental_uris": {"android": "https://dc.lft.to/lastmile_qr_scan", "ios": "https://dc.lft.to/lastmile_qr_scan"}, "fusion_lon": 0.0, "lat": 38.9098175, "bike_id": "b85e67a2a540f2343bdb2222dbb1882d", "type": "electric_scooter", "is_reserved": 0, "lon": -77.04748183333334}, {"fusion_lat": 0.0, "name": "7061560da59c3c66fb2ce0a3373163ef", "is_disabled": 0, "rental_uris": {"android": "https://dc.lft.to/lastmile_qr_scan", "ios": "https://dc.lft.to/lastmile_qr_scan"}, "fusion_lon": 0.0, "lat": 38.896335666666666, "bike_id": "7061560da59c3c66fb2ce0a3373163ef", "type": "electric_scooter", "is_reserved": 0, "lon": -77.02191133333334}, {"fusion_lat": 0.0, "name": "49f777a011bfcaa610de900a3dd9a3dc", "is_disabled": 0, "rental_uris": {"android": "https://dc.lft.to/lastmile_qr_scan", "ios": "https://dc.lft.to/lastmile_qr_scan"}, "fusion_lon": 0.0, "lat": 38.907869, "bike_id": "49f777a011bfcaa610de900a3dd9a3dc", "type": "electric_scooter", "is_reserved": 0, "lon": -77.023859}, {"fusion_lat": 0.0, "name": "34be2151ad748c0790e9ab39ff3728a5", "is_disabled": 0, "rental_uris": {"android": "https://dc.lft.to/lastmile_qr_scan", "ios": "https://dc.lft.to/lastmile_qr_scan"}, "fusion_lon": 0.0, "lat": 39.038932, "bike_id": "34be2151ad748c0790e9ab39ff3728a5", "type": "electric_bike", "is_reserved": 0, "lon": -77.050461}, {"fusion_lat": 0.0, "name": "2b82d5c20ce12f0e7ec04cfd74de0f63", "is_disabled": 0, "rental_uris": {"android": "https://dc.lft.to/lastmile_qr_scan", "ios": "https://dc.lft.to/lastmile_qr_scan"}, "fusion_lon": 0.0, "lat": 38.91417416666667, "bike_id": "2b82d5c20ce12f0e7ec04cfd74de0f63", "type": "electric_scooter", "is_reserved": 0, "lon": -76.98446883333334}, {"fusion_lat": 0.0, "name": "f8d0fb584491fc5ad92f48304fb32ef2", "is_disabled": 0, "rental_uris": {"android": "https://dc.lft.to/lastmile_qr_scan", "ios": "https://dc.lft.to/lastmile_qr_scan"}, "fusion_lon": 0.0, "lat": 38.91690233333333, "bike_id": "f8d0fb584491fc5ad92f48304fb32ef2", "type": "electric_scooter", "is_reserved": 0, "lon": -77.03757216666666}, {"fusion_lat": 0.0, "name": "a4a652f1725a8a74d107e2092ed996b6", "is_disabled": 0, "rental_uris": {"android": "https://dc.lft.to/lastmile_qr_scan", "ios": "https://dc.lft.to/lastmile_qr_scan"}, "fusion_lon": 0.0, "lat": 38.93858933333333, "bike_id": "a4a652f1725a8a74d107e2092ed996b6", "type": "electric_scooter", "is_reserved": 0, "lon": -77.03206883333333}, {"fusion_lat": 0.0, "name": "5dfe548113ee94a4ae85ca78e039f5e3", "is_disabled": 0, "rental_uris": {"android": "https://dc.lft.to/lastmile_qr_scan", "ios": "https://dc.lft.to/lastmile_qr_scan"}, "fusion_lon": 0.0, "lat": 38.92032483333333, "bike_id": "5dfe548113ee94a4ae85ca78e039f5e3", "type": "electric_scooter", "is_reserved": 0, "lon": -77.0121875}, {"fusion_lat": 0.0, "name": "181728865edc960f6a08e8b140d8ebb3", "is_disabled": 0, "rental_uris": {"android": "https://dc.lft.to/lastmile_qr_scan", "ios": "https://dc.lft.to/lastmile_qr_scan"}, "fusion_lon": 0.0, "lat": 38.93529316666667, "bike_id": "181728865edc960f6a08e8b140d8ebb3", "type": "electric_scooter", "is_reserved": 0, "lon": -77.03264966666667}, {"fusion_lat": 0.0, "name": "486ed36fe7850ec7d4a2973517d7b204", "is_disabled": 0, "rental_uris": {"android": "https://dc.lft.to/lastmile_qr_scan", "ios": "https://dc.lft.to/lastmile_qr_scan"}, "fusion_lon": 0.0, "lat": 38.90262883333333, "bike_id": "486ed36fe7850ec7d4a2973517d7b204", "type": "electric_scooter", "is_reserved": 0, "lon": -76.97449466666667}, {"fusion_lat": 0.0, "name": "a1c325ddd695432a389e3d5553e3e560", "is_disabled": 0, "rental_uris": {"android": "https://dc.lft.to/lastmile_qr_scan", "ios": "https://dc.lft.to/lastmile_qr_scan"}, "fusion_lon": 0.0, "lat": 38.90165316666667, "bike_id": "a1c325ddd695432a389e3d5553e3e560", "type": "electric_scooter", "is_reserved": 0, "lon": -77.022765}, {"fusion_lat": 0.0, "name": "3540c759444b6de36c7f77fcb06738d0", "is_disabled": 0, "rental_uris": {"android": "https://dc.lft.to/lastmile_qr_scan", "ios": "https://dc.lft.to/lastmile_qr_scan"}, "fusion_lon": 0.0, "lat": 38.9040945, "bike_id": "3540c759444b6de36c7f77fcb06738d0", "type": "electric_scooter", "is_reserved": 0, "lon": -76.9732925}, {"fusion_lat": 0.0, "name": "1eea9f8a8155a85610da0b930d9db6a4", "is_disabled": 0, "rental_uris": {"android": "https://dc.lft.to/lastmile_qr_scan", "ios": "https://dc.lft.to/lastmile_qr_scan"}, "fusion_lon": 0.0, "lat": 38.92319916666667, "bike_id": "1eea9f8a8155a85610da0b930d9db6a4", "type": "electric_scooter", "is_reserved": 0, "lon": -77.02044316666667}, {"fusion_lat": 0.0, "name": "a165507e649199a0df1bc3646a1b7cf8", "is_disabled": 0, "rental_uris": {"android": "https://dc.lft.to/lastmile_qr_scan", "ios": "https://dc.lft.to/lastmile_qr_scan"}, "fusion_lon": 0.0, "lat": 38.92931733333333, "bike_id": "a165507e649199a0df1bc3646a1b7cf8", "type": "electric_scooter", "is_reserved": 0, "lon": -77.02339333333333}, {"fusion_lat": 0.0, "name": "f45d7d5f560797ff486ba7c793320f03", "is_disabled": 0, "rental_uris": {"android": "https://dc.lft.to/lastmile_qr_scan", "ios": "https://dc.lft.to/lastmile_qr_scan"}, "fusion_lon": 0.0, "lat": 38.93079516666667, "bike_id": "f45d7d5f560797ff486ba7c793320f03", "type": "electric_scooter", "is_reserved": 0, "lon": -77.0776045}, {"fusion_lat": 0.0, "name": "afa23448a27c9b2bac91297cae2d5266", "is_disabled": 0, "rental_uris": {"android": "https://dc.lft.to/lastmile_qr_scan", "ios": "https://dc.lft.to/lastmile_qr_scan"}, "fusion_lon": 0.0, "lat": 38.91912883333333, "bike_id": "afa23448a27c9b2bac91297cae2d5266", "type": "electric_scooter", "is_reserved": 0, "lon": -77.0415775}, {"fusion_lat": 0.0, "name": "b11f3f192d490e37e6094aa84df9a3f1", "is_disabled": 0, "rental_uris": {"android": "https://dc.lft.to/lastmile_qr_scan", "ios": "https://dc.lft.to/lastmile_qr_scan"}, "fusion_lon": 0.0, "lat": 38.903936, "bike_id": "b11f3f192d490e37e6094aa84df9a3f1", "type": "electric_scooter", "is_reserved": 0, "lon": -76.99012783333333}, {"fusion_lat": 0.0, "name": "8b46977b88ecc4df4ad38b0a10eb50a1", "is_disabled": 0, "rental_uris": {"android": "https://dc.lft.to/lastmile_qr_scan", "ios": "https://dc.lft.to/lastmile_qr_scan"}, "fusion_lon": 0.0, "lat": 38.926624833333335, "bike_id": "8b46977b88ecc4df4ad38b0a10eb50a1", "type": "electric_scooter", "is_reserved": 0, "lon": -77.05153416666667}, {"fusion_lat": 0.0, "name": "e8922bc14c86f37e4ce68ee4b7d2cb32", "is_disabled": 0, "rental_uris": {"android": "https://dc.lft.to/lastmile_qr_scan", "ios": "https://dc.lft.to/lastmile_qr_scan"}, "fusion_lon": 0.0, "lat": 38.898466166666665, "bike_id": "e8922bc14c86f37e4ce68ee4b7d2cb32", "type": "electric_scooter", "is_reserved": 0, "lon": -77.02215733333334}, {"fusion_lat": 0.0, "name": "2e2dbddb36cba54ac84fb3a2dcd38005", "is_disabled": 0, "rental_uris": {"android": "https://dc.lft.to/lastmile_qr_scan", "ios": "https://dc.lft.to/lastmile_qr_scan"}, "fusion_lon": 0.0, "lat": 38.8990865, "bike_id": "2e2dbddb36cba54ac84fb3a2dcd38005", "type": "electric_scooter", "is_reserved": 0, "lon": -77.0399985}, {"fusion_lat": 0.0, "name": "6344f1899b20c1221b61af38a69c8b3b", "is_disabled": 0, "rental_uris": {"android": "https://dc.lft.to/lastmile_qr_scan", "ios": "https://dc.lft.to/lastmile_qr_scan"}, "fusion_lon": 0.0, "lat": 38.92404783333333, "bike_id": "6344f1899b20c1221b61af38a69c8b3b", "type": "electric_scooter", "is_reserved": 0, "lon": -77.025495}, {"fusion_lat": 0.0, "name": "77b89f06d13e1669a3f621c0e739a65b", "is_disabled": 0, "rental_uris": {"android": "https://dc.lft.to/lastmile_qr_scan", "ios": "https://dc.lft.to/lastmile_qr_scan"}, "fusion_lon": 0.0, "lat": 38.8963805, "bike_id": "77b89f06d13e1669a3f621c0e739a65b", "type": "electric_scooter", "is_reserved": 0, "lon": -77.0267075}, {"fusion_lat": 0.0, "name": "734388a22e88d0754e6d04c926b5aa9a", "is_disabled": 0, "rental_uris": {"android": "https://dc.lft.to/lastmile_qr_scan", "ios": "https://dc.lft.to/lastmile_qr_scan"}, "fusion_lon": 0.0, "lat": 38.911547666666664, "bike_id": "734388a22e88d0754e6d04c926b5aa9a", "type": "electric_scooter", "is_reserved": 0, "lon": -76.987253}, {"fusion_lat": 0.0, "name": "bf5312ae3fbc537a8028691ff5a423c6", "is_disabled": 0, "rental_uris": {"android": "https://dc.lft.to/lastmile_qr_scan", "ios": "https://dc.lft.to/lastmile_qr_scan"}, "fusion_lon": 0.0, "lat": 38.92353466666667, "bike_id": "bf5312ae3fbc537a8028691ff5a423c6", "type": "electric_scooter", "is_reserved": 0, "lon": -77.03492466666667}, {"fusion_lat": 0.0, "name": "2abb45fbe028a9c0695ec5658361faf3", "is_disabled": 0, "rental_uris": {"android": "https://dc.lft.to/lastmile_qr_scan", "ios": "https://dc.lft.to/lastmile_qr_scan"}, "fusion_lon": 0.0, "lat": 38.91489116666666, "bike_id": "2abb45fbe028a9c0695ec5658361faf3", "type": "electric_scooter", "is_reserved": 0, "lon": -77.0141755}, {"fusion_lat": 0.0, "name": "076c486c37d8e5b6117c003129939a45", "is_disabled": 0, "rental_uris": {"android": "https://dc.lft.to/lastmile_qr_scan", "ios": "https://dc.lft.to/lastmile_qr_scan"}, "fusion_lon": 0.0, "lat": 38.87998783333333, "bike_id": "076c486c37d8e5b6117c003129939a45", "type": "electric_scooter", "is_reserved": 0, "lon": -76.98541966666667}, {"fusion_lat": 0.0, "name": "17a623b454279826eceb4edf49630aaf", "is_disabled": 0, "rental_uris": {"android": "https://dc.lft.to/lastmile_qr_scan", "ios": "https://dc.lft.to/lastmile_qr_scan"}, "fusion_lon": 0.0, "lat": 38.907247, "bike_id": "17a623b454279826eceb4edf49630aaf", "type": "electric_scooter", "is_reserved": 0, "lon": -77.02940166666667}, {"fusion_lat": 0.0, "name": "d7b992c47b70c325d4fd21b002f6d42d", "is_disabled": 0, "rental_uris": {"android": "https://dc.lft.to/lastmile_qr_scan", "ios": "https://dc.lft.to/lastmile_qr_scan"}, "fusion_lon": 0.0, "lat": 38.9289125, "bike_id": "d7b992c47b70c325d4fd21b002f6d42d", "type": "electric_scooter", "is_reserved": 0, "lon": -77.03270733333333}, {"fusion_lat": 0.0, "name": "f95d4d985103f44a0d2a41fc73c005d1", "is_disabled": 0, "rental_uris": {"android": "https://dc.lft.to/lastmile_qr_scan", "ios": "https://dc.lft.to/lastmile_qr_scan"}, "fusion_lon": 0.0, "lat": 38.926006666666666, "bike_id": "f95d4d985103f44a0d2a41fc73c005d1", "type": "electric_scooter", "is_reserved": 0, "lon": -77.02153733333333}, {"fusion_lat": 0.0, "name": "d5b6e2f6f464d66da1147b7018532afd", "is_disabled": 0, "rental_uris": {"android": "https://dc.lft.to/lastmile_qr_scan", "ios": "https://dc.lft.to/lastmile_qr_scan"}, "fusion_lon": 0.0, "lat": 38.9308095, "bike_id": "d5b6e2f6f464d66da1147b7018532afd", "type": "electric_scooter", "is_reserved": 0, "lon": -77.03276366666667}, {"fusion_lat": 0.0, "name": "49618092f35fbf6cd0bc117fa3707698", "is_disabled": 0, "rental_uris": {"android": "https://dc.lft.to/lastmile_qr_scan", "ios": "https://dc.lft.to/lastmile_qr_scan"}, "fusion_lon": 0.0, "lat": 38.9198825, "bike_id": "49618092f35fbf6cd0bc117fa3707698", "type": "electric_scooter", "is_reserved": 0, "lon": -77.03328766666667}, {"fusion_lat": 0.0, "name": "ea32cbebdc41475bb977cb558750d3a7", "is_disabled": 0, "rental_uris": {"android": "https://dc.lft.to/lastmile_qr_scan", "ios": "https://dc.lft.to/lastmile_qr_scan"}, "fusion_lon": 0.0, "lat": 38.95570216666667, "bike_id": "ea32cbebdc41475bb977cb558750d3a7", "type": "electric_bike", "is_reserved": 0, "lon": -77.010066}, {"fusion_lat": 0.0, "name": "508f5f0e17f34cc45689d73af7829be9", "is_disabled": 0, "rental_uris": {"android": "https://dc.lft.to/lastmile_qr_scan", "ios": "https://dc.lft.to/lastmile_qr_scan"}, "fusion_lon": 0.0, "lat": 38.95871366666667, "bike_id": "508f5f0e17f34cc45689d73af7829be9", "type": "electric_bike", "is_reserved": 0, "lon": -76.97055266666666}, {"fusion_lat": 0.0, "name": "e6bbd8f38fe5a27412949543a3927d3d", "is_disabled": 0, "rental_uris": {"android": "https://dc.lft.to/lastmile_qr_scan", "ios": "https://dc.lft.to/lastmile_qr_scan"}, "fusion_lon": 0.0, "lat": 38.956355333333335, "bike_id": "e6bbd8f38fe5a27412949543a3927d3d", "type": "electric_scooter", "is_reserved": 0, "lon": -77.033024}, {"fusion_lat": 0.0, "name": "0bcb4ef3ff693b357c381133eb28c43b", "is_disabled": 0, "rental_uris": {"android": "https://dc.lft.to/lastmile_qr_scan", "ios": "https://dc.lft.to/lastmile_qr_scan"}, "fusion_lon": 0.0, "lat": 38.90989316666667, "bike_id": "0bcb4ef3ff693b357c381133eb28c43b", "type": "electric_scooter", "is_reserved": 0, "lon": -77.03452316666667}, {"fusion_lat": 0.0, "name": "bff713af78199ba4efd3effe5e5e4bb5", "is_disabled": 0, "rental_uris": {"android": "https://dc.lft.to/lastmile_qr_scan", "ios": "https://dc.lft.to/lastmile_qr_scan"}, "fusion_lon": 0.0, "lat": 38.92187116666667, "bike_id": "bff713af78199ba4efd3effe5e5e4bb5", "type": "electric_scooter", "is_reserved": 0, "lon": -77.04350383333333}, {"fusion_lat": 0.0, "name": "a86646b97fe1aa0b827e94b75d499468", "is_disabled": 0, "rental_uris": {"android": "https://dc.lft.to/lastmile_qr_scan", "ios": "https://dc.lft.to/lastmile_qr_scan"}, "fusion_lon": 0.0, "lat": 38.9037555, "bike_id": "a86646b97fe1aa0b827e94b75d499468", "type": "electric_scooter", "is_reserved": 0, "lon": -77.05020066666667}, {"fusion_lat": 0.0, "name": "821c29a94d58f7374b1b5b9d25d8de2b", "is_disabled": 0, "rental_uris": {"android": "https://dc.lft.to/lastmile_qr_scan", "ios": "https://dc.lft.to/lastmile_qr_scan"}, "fusion_lon": 0.0, "lat": 38.9057415, "bike_id": "821c29a94d58f7374b1b5b9d25d8de2b", "type": "electric_scooter", "is_reserved": 0, "lon": -77.04076}, {"fusion_lat": 0.0, "name": "9688b5bac61a4cf0bd65f495998b857f", "is_disabled": 0, "rental_uris": {"android": "https://dc.lft.to/lastmile_qr_scan", "ios": "https://dc.lft.to/lastmile_qr_scan"}, "fusion_lon": 0.0, "lat": 38.93707, "bike_id": "9688b5bac61a4cf0bd65f495998b857f", "type": "electric_scooter", "is_reserved": 0, "lon": -77.02419033333334}, {"fusion_lat": 0.0, "name": "9dd5d91b026bcf9ef611a0510ab851eb", "is_disabled": 0, "rental_uris": {"android": "https://dc.lft.to/lastmile_qr_scan", "ios": "https://dc.lft.to/lastmile_qr_scan"}, "fusion_lon": 0.0, "lat": 38.94387233333333, "bike_id": "9dd5d91b026bcf9ef611a0510ab851eb", "type": "electric_scooter", "is_reserved": 0, "lon": -77.09512416666666}, {"fusion_lat": 0.0, "name": "b4b569f37cce9d780200b47b06c6c7d5", "is_disabled": 0, "rental_uris": {"android": "https://dc.lft.to/lastmile_qr_scan", "ios": "https://dc.lft.to/lastmile_qr_scan"}, "fusion_lon": 0.0, "lat": 38.92879583333333, "bike_id": "b4b569f37cce9d780200b47b06c6c7d5", "type": "electric_scooter", "is_reserved": 0, "lon": -77.0322015}, {"fusion_lat": 0.0, "name": "44a515358e209751a1438e933b006386", "is_disabled": 0, "rental_uris": {"android": "https://dc.lft.to/lastmile_qr_scan", "ios": "https://dc.lft.to/lastmile_qr_scan"}, "fusion_lon": 0.0, "lat": 38.920826, "bike_id": "44a515358e209751a1438e933b006386", "type": "electric_scooter", "is_reserved": 0, "lon": -77.01483583333334}, {"fusion_lat": 0.0, "name": "b768daf1331e31a38299157a828fc97f", "is_disabled": 0, "rental_uris": {"android": "https://dc.lft.to/lastmile_qr_scan", "ios": "https://dc.lft.to/lastmile_qr_scan"}, "fusion_lon": 0.0, "lat": 38.91749166666666, "bike_id": "b768daf1331e31a38299157a828fc97f", "type": "electric_scooter", "is_reserved": 0, "lon": -77.00666983333333}, {"fusion_lat": 0.0, "name": "377463c25b0ae86eb2ff32338a421217", "is_disabled": 0, "rental_uris": {"android": "https://dc.lft.to/lastmile_qr_scan", "ios": "https://dc.lft.to/lastmile_qr_scan"}, "fusion_lon": 0.0, "lat": 38.912081, "bike_id": "377463c25b0ae86eb2ff32338a421217", "type": "electric_scooter", "is_reserved": 0, "lon": -77.03659383333333}, {"fusion_lat": 0.0, "name": "f5f3cc50447d343a19629b17bf7ece3b", "is_disabled": 0, "rental_uris": {"android": "https://dc.lft.to/lastmile_qr_scan", "ios": "https://dc.lft.to/lastmile_qr_scan"}, "fusion_lon": 0.0, "lat": 38.92061666666667, "bike_id": "f5f3cc50447d343a19629b17bf7ece3b", "type": "electric_scooter", "is_reserved": 0, "lon": -77.0270995}, {"fusion_lat": 0.0, "name": "f3e4ad5953a4ba6e7dec4255c87e2d5c", "is_disabled": 0, "rental_uris": {"android": "https://dc.lft.to/lastmile_qr_scan", "ios": "https://dc.lft.to/lastmile_qr_scan"}, "fusion_lon": 0.0, "lat": 38.91789266666667, "bike_id": "f3e4ad5953a4ba6e7dec4255c87e2d5c", "type": "electric_scooter", "is_reserved": 0, "lon": -77.040297}, {"fusion_lat": 0.0, "name": "2d99b1992b4f0aa4070dc448f11a4aae", "is_disabled": 0, "rental_uris": {"android": "https://dc.lft.to/lastmile_qr_scan", "ios": "https://dc.lft.to/lastmile_qr_scan"}, "fusion_lon": 0.0, "lat": 38.907209, "bike_id": "2d99b1992b4f0aa4070dc448f11a4aae", "type": "electric_scooter", "is_reserved": 0, "lon": -77.02892733333333}, {"fusion_lat": 0.0, "name": "bce6ed2d623739886de1a8469dc9c95c", "is_disabled": 0, "rental_uris": {"android": "https://dc.lft.to/lastmile_qr_scan", "ios": "https://dc.lft.to/lastmile_qr_scan"}, "fusion_lon": 0.0, "lat": 38.938757833333334, "bike_id": "bce6ed2d623739886de1a8469dc9c95c", "type": "electric_scooter", "is_reserved": 0, "lon": -77.0322975}, {"fusion_lat": 0.0, "name": "ae7411e6a9ba8b8250ac3ee125e006bb", "is_disabled": 0, "rental_uris": {"android": "https://dc.lft.to/lastmile_qr_scan", "ios": "https://dc.lft.to/lastmile_qr_scan"}, "fusion_lon": 0.0, "lat": 38.932221166666665, "bike_id": "ae7411e6a9ba8b8250ac3ee125e006bb", "type": "electric_scooter", "is_reserved": 0, "lon": -77.044135}, {"fusion_lat": 0.0, "name": "1a6952de19dea0e3b405ac6f987c683e", "is_disabled": 0, "rental_uris": {"android": "https://dc.lft.to/lastmile_qr_scan", "ios": "https://dc.lft.to/lastmile_qr_scan"}, "fusion_lon": 0.0, "lat": 38.84272516666667, "bike_id": "1a6952de19dea0e3b405ac6f987c683e", "type": "electric_bike", "is_reserved": 0, "lon": -76.98844316666667}, {"fusion_lat": 0.0, "name": "f442cdf4f8b2eed86eef5bee0719dc7d", "is_disabled": 0, "rental_uris": {"android": "https://dc.lft.to/lastmile_qr_scan", "ios": "https://dc.lft.to/lastmile_qr_scan"}, "fusion_lon": 0.0, "lat": 38.899859, "bike_id": "f442cdf4f8b2eed86eef5bee0719dc7d", "type": "electric_scooter", "is_reserved": 0, "lon": -77.040664}, {"fusion_lat": 0.0, "name": "5ffa077d5e8b1ae59b5c4088724d4341", "is_disabled": 0, "rental_uris": {"android": "https://dc.lft.to/lastmile_qr_scan", "ios": "https://dc.lft.to/lastmile_qr_scan"}, "fusion_lon": 0.0, "lat": 38.91123833333333, "bike_id": "5ffa077d5e8b1ae59b5c4088724d4341", "type": "electric_scooter", "is_reserved": 0, "lon": -77.03250683333333}, {"fusion_lat": 0.0, "name": "b17da1428a6e84c0fe0e017175963cdd", "is_disabled": 0, "rental_uris": {"android": "https://dc.lft.to/lastmile_qr_scan", "ios": "https://dc.lft.to/lastmile_qr_scan"}, "fusion_lon": 0.0, "lat": 38.887532666666665, "bike_id": "b17da1428a6e84c0fe0e017175963cdd", "type": "electric_scooter", "is_reserved": 0, "lon": -76.99616416666667}, {"fusion_lat": 0.0, "name": "8fd8f24a1767810b4f3d7bfaad21aaea", "is_disabled": 0, "rental_uris": {"android": "https://dc.lft.to/lastmile_qr_scan", "ios": "https://dc.lft.to/lastmile_qr_scan"}, "fusion_lon": 0.0, "lat": 38.91318, "bike_id": "8fd8f24a1767810b4f3d7bfaad21aaea", "type": "electric_scooter", "is_reserved": 0, "lon": -77.03650516666667}, {"fusion_lat": 0.0, "name": "ded635e136e92b35558c60f68f5d7d68", "is_disabled": 0, "rental_uris": {"android": "https://dc.lft.to/lastmile_qr_scan", "ios": "https://dc.lft.to/lastmile_qr_scan"}, "fusion_lon": 0.0, "lat": 38.9228305, "bike_id": "ded635e136e92b35558c60f68f5d7d68", "type": "electric_scooter", "is_reserved": 0, "lon": -77.07320283333334}, {"fusion_lat": 0.0, "name": "85faf93e65e39bb86d7e7d80963e9690", "is_disabled": 0, "rental_uris": {"android": "https://dc.lft.to/lastmile_qr_scan", "ios": "https://dc.lft.to/lastmile_qr_scan"}, "fusion_lon": 0.0, "lat": 38.91929116666667, "bike_id": "85faf93e65e39bb86d7e7d80963e9690", "type": "electric_scooter", "is_reserved": 0, "lon": -77.03202583333334}, {"fusion_lat": 0.0, "name": "74bbf0c0761b1ba22bf0d31be0cbccce", "is_disabled": 0, "rental_uris": {"android": "https://dc.lft.to/lastmile_qr_scan", "ios": "https://dc.lft.to/lastmile_qr_scan"}, "fusion_lon": 0.0, "lat": 38.9181095, "bike_id": "74bbf0c0761b1ba22bf0d31be0cbccce", "type": "electric_scooter", "is_reserved": 0, "lon": -77.01146816666666}, {"fusion_lat": 0.0, "name": "5c1d0cf7ff19e0d806b15c21e8b1b57c", "is_disabled": 0, "rental_uris": {"android": "https://dc.lft.to/lastmile_qr_scan", "ios": "https://dc.lft.to/lastmile_qr_scan"}, "fusion_lon": 0.0, "lat": 38.895902166666666, "bike_id": "5c1d0cf7ff19e0d806b15c21e8b1b57c", "type": "electric_bike", "is_reserved": 0, "lon": -77.02168516666667}, {"fusion_lat": 0.0, "name": "db8360b1117a32a502fa2a9a54fc6657", "is_disabled": 0, "rental_uris": {"android": "https://dc.lft.to/lastmile_qr_scan", "ios": "https://dc.lft.to/lastmile_qr_scan"}, "fusion_lon": 0.0, "lat": 38.995220333333336, "bike_id": "db8360b1117a32a502fa2a9a54fc6657", "type": "electric_bike", "is_reserved": 0, "lon": -77.02904533333333}, {"fusion_lat": 0.0, "name": "ebcfe3ad51739556d5448f80382c5a63", "is_disabled": 0, "rental_uris": {"android": "https://dc.lft.to/lastmile_qr_scan", "ios": "https://dc.lft.to/lastmile_qr_scan"}, "fusion_lon": 0.0, "lat": 38.9005085, "bike_id": "ebcfe3ad51739556d5448f80382c5a63", "type": "electric_scooter", "is_reserved": 0, "lon": -77.000649}, {"fusion_lat": 0.0, "name": "4cb787ab19c3104cff3f87b73e82cd96", "is_disabled": 0, "rental_uris": {"android": "https://dc.lft.to/lastmile_qr_scan", "ios": "https://dc.lft.to/lastmile_qr_scan"}, "fusion_lon": 0.0, "lat": 38.902899166666664, "bike_id": "4cb787ab19c3104cff3f87b73e82cd96", "type": "electric_scooter", "is_reserved": 0, "lon": -76.99039583333334}, {"fusion_lat": 0.0, "name": "a4269a20691f0efce7f52588ebb194da", "is_disabled": 0, "rental_uris": {"android": "https://dc.lft.to/lastmile_qr_scan", "ios": "https://dc.lft.to/lastmile_qr_scan"}, "fusion_lon": 0.0, "lat": 38.91976016666667, "bike_id": "a4269a20691f0efce7f52588ebb194da", "type": "electric_scooter", "is_reserved": 0, "lon": -77.04173966666667}, {"fusion_lat": 0.0, "name": "fc134cbed8d24680c25e8ea522c73465", "is_disabled": 0, "rental_uris": {"android": "https://dc.lft.to/lastmile_qr_scan", "ios": "https://dc.lft.to/lastmile_qr_scan"}, "fusion_lon": 0.0, "lat": 38.913434333333335, "bike_id": "fc134cbed8d24680c25e8ea522c73465", "type": "electric_bike", "is_reserved": 0, "lon": -76.98890466666667}, {"fusion_lat": 0.0, "name": "c82b860069fd28b480234bc93e364de6", "is_disabled": 0, "rental_uris": {"android": "https://dc.lft.to/lastmile_qr_scan", "ios": "https://dc.lft.to/lastmile_qr_scan"}, "fusion_lon": 0.0, "lat": 38.9430765, "bike_id": "c82b860069fd28b480234bc93e364de6", "type": "electric_scooter", "is_reserved": 0, "lon": -77.02006483333334}, {"fusion_lat": 0.0, "name": "69398d1dec521b24cb474e72ca2a1b47", "is_disabled": 0, "rental_uris": {"android": "https://dc.lft.to/lastmile_qr_scan", "ios": "https://dc.lft.to/lastmile_qr_scan"}, "fusion_lon": 0.0, "lat": 38.886628333333334, "bike_id": "69398d1dec521b24cb474e72ca2a1b47", "type": "electric_scooter", "is_reserved": 0, "lon": -77.0338585}, {"fusion_lat": 0.0, "name": "aa6e5696cbd39e519f134efc76b18b1d", "is_disabled": 0, "rental_uris": {"android": "https://dc.lft.to/lastmile_qr_scan", "ios": "https://dc.lft.to/lastmile_qr_scan"}, "fusion_lon": 0.0, "lat": 38.902978166666664, "bike_id": "aa6e5696cbd39e519f134efc76b18b1d", "type": "electric_scooter", "is_reserved": 0, "lon": -76.99248883333334}, {"fusion_lat": 0.0, "name": "1611b0ff7f14bd6e4a697e2fbb534122", "is_disabled": 0, "rental_uris": {"android": "https://dc.lft.to/lastmile_qr_scan", "ios": "https://dc.lft.to/lastmile_qr_scan"}, "fusion_lon": 0.0, "lat": 38.92417716666667, "bike_id": "1611b0ff7f14bd6e4a697e2fbb534122", "type": "electric_scooter", "is_reserved": 0, "lon": -77.02012933333333}, {"fusion_lat": 0.0, "name": "8da31d6c5f29a9736bcbdfc22c4c8c51", "is_disabled": 0, "rental_uris": {"android": "https://dc.lft.to/lastmile_qr_scan", "ios": "https://dc.lft.to/lastmile_qr_scan"}, "fusion_lon": 0.0, "lat": 38.888122333333335, "bike_id": "8da31d6c5f29a9736bcbdfc22c4c8c51", "type": "electric_scooter", "is_reserved": 0, "lon": -76.98359916666666}, {"fusion_lat": 0.0, "name": "95ae266ed671bb946b78192b09648b29", "is_disabled": 0, "rental_uris": {"android": "https://dc.lft.to/lastmile_qr_scan", "ios": "https://dc.lft.to/lastmile_qr_scan"}, "fusion_lon": 0.0, "lat": 38.89943733333333, "bike_id": "95ae266ed671bb946b78192b09648b29", "type": "electric_scooter", "is_reserved": 0, "lon": -77.05356833333333}, {"fusion_lat": 0.0, "name": "b2ca7dcc18ffcce07a18054fcc0bb7e4", "is_disabled": 0, "rental_uris": {"android": "https://dc.lft.to/lastmile_qr_scan", "ios": "https://dc.lft.to/lastmile_qr_scan"}, "fusion_lon": 0.0, "lat": 38.887461, "bike_id": "b2ca7dcc18ffcce07a18054fcc0bb7e4", "type": "electric_scooter", "is_reserved": 0, "lon": -76.983609}, {"fusion_lat": 0.0, "name": "1a0d5ad4619f32ac48b0639cecc8d371", "is_disabled": 0, "rental_uris": {"android": "https://dc.lft.to/lastmile_qr_scan", "ios": "https://dc.lft.to/lastmile_qr_scan"}, "fusion_lon": 0.0, "lat": 38.926842, "bike_id": "1a0d5ad4619f32ac48b0639cecc8d371", "type": "electric_scooter", "is_reserved": 0, "lon": -77.03145116666667}, {"fusion_lat": 0.0, "name": "59513ff33723474b0e0873df4d8bc820", "is_disabled": 0, "rental_uris": {"android": "https://dc.lft.to/lastmile_qr_scan", "ios": "https://dc.lft.to/lastmile_qr_scan"}, "fusion_lon": 0.0, "lat": 38.80495833333333, "bike_id": "59513ff33723474b0e0873df4d8bc820", "type": "electric_bike", "is_reserved": 0, "lon": -77.1016105}, {"fusion_lat": 0.0, "name": "b70e51d09eaf69fb3a6f9ef3c7cf9720", "is_disabled": 0, "rental_uris": {"android": "https://dc.lft.to/lastmile_qr_scan", "ios": "https://dc.lft.to/lastmile_qr_scan"}, "fusion_lon": 0.0, "lat": 38.920392166666666, "bike_id": "b70e51d09eaf69fb3a6f9ef3c7cf9720", "type": "electric_scooter", "is_reserved": 0, "lon": -77.0173205}, {"fusion_lat": 0.0, "name": "bdb1f35a268094fbbe017247e5ecc07c", "is_disabled": 0, "rental_uris": {"android": "https://dc.lft.to/lastmile_qr_scan", "ios": "https://dc.lft.to/lastmile_qr_scan"}, "fusion_lon": 0.0, "lat": 38.89283183333333, "bike_id": "bdb1f35a268094fbbe017247e5ecc07c", "type": "electric_scooter", "is_reserved": 0, "lon": -76.98309666666667}, {"fusion_lat": 0.0, "name": "64adeeee5bf23025dd128fc86ae5ef1b", "is_disabled": 0, "rental_uris": {"android": "https://dc.lft.to/lastmile_qr_scan", "ios": "https://dc.lft.to/lastmile_qr_scan"}, "fusion_lon": 0.0, "lat": 38.948761, "bike_id": "64adeeee5bf23025dd128fc86ae5ef1b", "type": "electric_scooter", "is_reserved": 0, "lon": -77.02687666666667}, {"fusion_lat": 0.0, "name": "34c1d551443d3e63827c13a442d6cc54", "is_disabled": 0, "rental_uris": {"android": "https://dc.lft.to/lastmile_qr_scan", "ios": "https://dc.lft.to/lastmile_qr_scan"}, "fusion_lon": 0.0, "lat": 38.91917766666667, "bike_id": "34c1d551443d3e63827c13a442d6cc54", "type": "electric_scooter", "is_reserved": 0, "lon": -77.03226333333333}, {"fusion_lat": 0.0, "name": "5e757104d662ead4000d50dd99b73332", "is_disabled": 0, "rental_uris": {"android": "https://dc.lft.to/lastmile_qr_scan", "ios": "https://dc.lft.to/lastmile_qr_scan"}, "fusion_lon": 0.0, "lat": 38.93633033333333, "bike_id": "5e757104d662ead4000d50dd99b73332", "type": "electric_scooter", "is_reserved": 0, "lon": -77.03662383333334}, {"fusion_lat": 0.0, "name": "3629b6cec1d181aedfed274455a2514c", "is_disabled": 0, "rental_uris": {"android": "https://dc.lft.to/lastmile_qr_scan", "ios": "https://dc.lft.to/lastmile_qr_scan"}, "fusion_lon": 0.0, "lat": 38.92788866666667, "bike_id": "3629b6cec1d181aedfed274455a2514c", "type": "electric_scooter", "is_reserved": 0, "lon": -77.03202733333333}, {"fusion_lat": 0.0, "name": "cfe047fbaceff4f56e159104ba2fc6f1", "is_disabled": 0, "rental_uris": {"android": "https://dc.lft.to/lastmile_qr_scan", "ios": "https://dc.lft.to/lastmile_qr_scan"}, "fusion_lon": 0.0, "lat": 38.9376635, "bike_id": "cfe047fbaceff4f56e159104ba2fc6f1", "type": "electric_scooter", "is_reserved": 0, "lon": -77.0326055}, {"fusion_lat": 0.0, "name": "9b0c942f75da9e9fddb305b6de97e0ae", "is_disabled": 0, "rental_uris": {"android": "https://dc.lft.to/lastmile_qr_scan", "ios": "https://dc.lft.to/lastmile_qr_scan"}, "fusion_lon": 0.0, "lat": 38.8783485, "bike_id": "9b0c942f75da9e9fddb305b6de97e0ae", "type": "electric_scooter", "is_reserved": 0, "lon": -76.9632135}, {"fusion_lat": 0.0, "name": "aaf0805fa664015cce7408877b53f6e5", "is_disabled": 0, "rental_uris": {"android": "https://dc.lft.to/lastmile_qr_scan", "ios": "https://dc.lft.to/lastmile_qr_scan"}, "fusion_lon": 0.0, "lat": 38.925653833333335, "bike_id": "aaf0805fa664015cce7408877b53f6e5", "type": "electric_scooter", "is_reserved": 0, "lon": -77.0776645}, {"fusion_lat": 0.0, "name": "816f9e0abb59d15c0af05b3771990eac", "is_disabled": 0, "rental_uris": {"android": "https://dc.lft.to/lastmile_qr_scan", "ios": "https://dc.lft.to/lastmile_qr_scan"}, "fusion_lon": 0.0, "lat": 38.919346, "bike_id": "816f9e0abb59d15c0af05b3771990eac", "type": "electric_scooter", "is_reserved": 0, "lon": -77.07068}, {"fusion_lat": 0.0, "name": "764b8f685bdc55723dfcdd60e6e86566", "is_disabled": 0, "rental_uris": {"android": "https://dc.lft.to/lastmile_qr_scan", "ios": "https://dc.lft.to/lastmile_qr_scan"}, "fusion_lon": 0.0, "lat": 38.91309966666667, "bike_id": "764b8f685bdc55723dfcdd60e6e86566", "type": "electric_scooter", "is_reserved": 0, "lon": -77.04881166666667}, {"fusion_lat": 0.0, "name": "85c99216fad8c71f1ea8b8af5e8fc063", "is_disabled": 0, "rental_uris": {"android": "https://dc.lft.to/lastmile_qr_scan", "ios": "https://dc.lft.to/lastmile_qr_scan"}, "fusion_lon": 0.0, "lat": 38.9042165, "bike_id": "85c99216fad8c71f1ea8b8af5e8fc063", "type": "electric_scooter", "is_reserved": 0, "lon": -77.02644483333333}, {"fusion_lat": 0.0, "name": "77224fa6d85bcd8d5c6e8448da9fef6c", "is_disabled": 0, "rental_uris": {"android": "https://dc.lft.to/lastmile_qr_scan", "ios": "https://dc.lft.to/lastmile_qr_scan"}, "fusion_lon": 0.0, "lat": 38.91012716666667, "bike_id": "77224fa6d85bcd8d5c6e8448da9fef6c", "type": "electric_scooter", "is_reserved": 0, "lon": -77.052682}, {"fusion_lat": 0.0, "name": "3d60888ee2d249781a7f06d95ed04164", "is_disabled": 0, "rental_uris": {"android": "https://dc.lft.to/lastmile_qr_scan", "ios": "https://dc.lft.to/lastmile_qr_scan"}, "fusion_lon": 0.0, "lat": 38.90379983333333, "bike_id": "3d60888ee2d249781a7f06d95ed04164", "type": "electric_scooter", "is_reserved": 0, "lon": -77.06730883333333}, {"fusion_lat": 0.0, "name": "8a90fb59c367a9359ac8f9319c2065ff", "is_disabled": 0, "rental_uris": {"android": "https://dc.lft.to/lastmile_qr_scan", "ios": "https://dc.lft.to/lastmile_qr_scan"}, "fusion_lon": 0.0, "lat": 38.9663735, "bike_id": "8a90fb59c367a9359ac8f9319c2065ff", "type": "electric_bike", "is_reserved": 0, "lon": -77.02749766666666}, {"fusion_lat": 0.0, "name": "416cc9cf594eacfcba12b64a1c5b2fb5", "is_disabled": 0, "rental_uris": {"android": "https://dc.lft.to/lastmile_qr_scan", "ios": "https://dc.lft.to/lastmile_qr_scan"}, "fusion_lon": 0.0, "lat": 38.882933333333334, "bike_id": "416cc9cf594eacfcba12b64a1c5b2fb5", "type": "electric_scooter", "is_reserved": 0, "lon": -77.013692}, {"fusion_lat": 0.0, "name": "ebeb26259b137149d5807e457d16b883", "is_disabled": 0, "rental_uris": {"android": "https://dc.lft.to/lastmile_qr_scan", "ios": "https://dc.lft.to/lastmile_qr_scan"}, "fusion_lon": 0.0, "lat": 38.91688033333333, "bike_id": "ebeb26259b137149d5807e457d16b883", "type": "electric_scooter", "is_reserved": 0, "lon": -77.0377475}, {"fusion_lat": 0.0, "name": "fb08d305efac080777d38e9e4427bbcf", "is_disabled": 0, "rental_uris": {"android": "https://dc.lft.to/lastmile_qr_scan", "ios": "https://dc.lft.to/lastmile_qr_scan"}, "fusion_lon": 0.0, "lat": 38.84194216666667, "bike_id": "fb08d305efac080777d38e9e4427bbcf", "type": "electric_bike", "is_reserved": 0, "lon": -77.07757266666667}, {"fusion_lat": 0.0, "name": "f1439183997028abe1daedc84819ad29", "is_disabled": 0, "rental_uris": {"android": "https://dc.lft.to/lastmile_qr_scan", "ios": "https://dc.lft.to/lastmile_qr_scan"}, "fusion_lon": 0.0, "lat": 38.9052565, "bike_id": "f1439183997028abe1daedc84819ad29", "type": "electric_scooter", "is_reserved": 0, "lon": -77.06517366666667}, {"fusion_lat": 0.0, "name": "132c2912ab58f99d0eab976919b018e1", "is_disabled": 0, "rental_uris": {"android": "https://dc.lft.to/lastmile_qr_scan", "ios": "https://dc.lft.to/lastmile_qr_scan"}, "fusion_lon": 0.0, "lat": 38.883958166666666, "bike_id": "132c2912ab58f99d0eab976919b018e1", "type": "electric_scooter", "is_reserved": 0, "lon": -76.93045183333334}, {"fusion_lat": 0.0, "name": "5766afdf8e986ce05f3d198eda9fb691", "is_disabled": 0, "rental_uris": {"android": "https://dc.lft.to/lastmile_qr_scan", "ios": "https://dc.lft.to/lastmile_qr_scan"}, "fusion_lon": 0.0, "lat": 38.94389183333333, "bike_id": "5766afdf8e986ce05f3d198eda9fb691", "type": "electric_scooter", "is_reserved": 0, "lon": -77.0321185}, {"fusion_lat": 0.0, "name": "79c149ae7a2d4785b1c7e38b6733b875", "is_disabled": 0, "rental_uris": {"android": "https://dc.lft.to/lastmile_qr_scan", "ios": "https://dc.lft.to/lastmile_qr_scan"}, "fusion_lon": 0.0, "lat": 38.868530166666666, "bike_id": "79c149ae7a2d4785b1c7e38b6733b875", "type": "electric_scooter", "is_reserved": 0, "lon": -76.988302}, {"fusion_lat": 0.0, "name": "39e5bf88b588eb21a179bc900bbfa947", "is_disabled": 0, "rental_uris": {"android": "https://dc.lft.to/lastmile_qr_scan", "ios": "https://dc.lft.to/lastmile_qr_scan"}, "fusion_lon": 0.0, "lat": 38.8874595, "bike_id": "39e5bf88b588eb21a179bc900bbfa947", "type": "electric_scooter", "is_reserved": 0, "lon": -77.02177533333334}, {"fusion_lat": 0.0, "name": "ef9d3d676c7e4d3394c496f669d42cee", "is_disabled": 0, "rental_uris": {"android": "https://dc.lft.to/lastmile_qr_scan", "ios": "https://dc.lft.to/lastmile_qr_scan"}, "fusion_lon": 0.0, "lat": 38.918177666666665, "bike_id": "ef9d3d676c7e4d3394c496f669d42cee", "type": "electric_scooter", "is_reserved": 0, "lon": -77.04007966666667}, {"fusion_lat": 0.0, "name": "f84287b6f7602a7ef6696620bf22c3ce", "is_disabled": 0, "rental_uris": {"android": "https://dc.lft.to/lastmile_qr_scan", "ios": "https://dc.lft.to/lastmile_qr_scan"}, "fusion_lon": 0.0, "lat": 38.92538833333333, "bike_id": "f84287b6f7602a7ef6696620bf22c3ce", "type": "electric_scooter", "is_reserved": 0, "lon": -77.05118866666666}, {"fusion_lat": 0.0, "name": "40df91b2305b9a4c71b5750ff485b863", "is_disabled": 0, "rental_uris": {"android": "https://dc.lft.to/lastmile_qr_scan", "ios": "https://dc.lft.to/lastmile_qr_scan"}, "fusion_lon": 0.0, "lat": 38.885144333333336, "bike_id": "40df91b2305b9a4c71b5750ff485b863", "type": "electric_scooter", "is_reserved": 0, "lon": -77.01732016666666}, {"fusion_lat": 0.0, "name": "5147d5fc4861c3f712ddc72d74ad9713", "is_disabled": 0, "rental_uris": {"android": "https://dc.lft.to/lastmile_qr_scan", "ios": "https://dc.lft.to/lastmile_qr_scan"}, "fusion_lon": 0.0, "lat": 38.91658666666667, "bike_id": "5147d5fc4861c3f712ddc72d74ad9713", "type": "electric_bike", "is_reserved": 0, "lon": -76.98225916666667}, {"fusion_lat": 0.0, "name": "ddf8fca249faca90503ae6440a48f6c8", "is_disabled": 0, "rental_uris": {"android": "https://dc.lft.to/lastmile_qr_scan", "ios": "https://dc.lft.to/lastmile_qr_scan"}, "fusion_lon": 0.0, "lat": 38.953466, "bike_id": "ddf8fca249faca90503ae6440a48f6c8", "type": "electric_scooter", "is_reserved": 0, "lon": -77.07951616666666}, {"fusion_lat": 0.0, "name": "dc0c49733f212c32aca1629d30054361", "is_disabled": 0, "rental_uris": {"android": "https://dc.lft.to/lastmile_qr_scan", "ios": "https://dc.lft.to/lastmile_qr_scan"}, "fusion_lon": 0.0, "lat": 38.89517, "bike_id": "dc0c49733f212c32aca1629d30054361", "type": "electric_scooter", "is_reserved": 0, "lon": -76.98086483333333}, {"fusion_lat": 0.0, "name": "89f978f25d09e716bd5ec598c0f0659b", "is_disabled": 0, "rental_uris": {"android": "https://dc.lft.to/lastmile_qr_scan", "ios": "https://dc.lft.to/lastmile_qr_scan"}, "fusion_lon": 0.0, "lat": 38.9307325, "bike_id": "89f978f25d09e716bd5ec598c0f0659b", "type": "electric_scooter", "is_reserved": 0, "lon": -77.03941783333333}, {"fusion_lat": 0.0, "name": "4b52a12d542a94f85271b464984c186d", "is_disabled": 0, "rental_uris": {"android": "https://dc.lft.to/lastmile_qr_scan", "ios": "https://dc.lft.to/lastmile_qr_scan"}, "fusion_lon": 0.0, "lat": 38.9592615, "bike_id": "4b52a12d542a94f85271b464984c186d", "type": "electric_scooter", "is_reserved": 0, "lon": -77.0848735}, {"fusion_lat": 0.0, "name": "52181f8ac991f820a31e0eaaa64f6ff4", "is_disabled": 0, "rental_uris": {"android": "https://dc.lft.to/lastmile_qr_scan", "ios": "https://dc.lft.to/lastmile_qr_scan"}, "fusion_lon": 0.0, "lat": 38.875602666666666, "bike_id": "52181f8ac991f820a31e0eaaa64f6ff4", "type": "electric_scooter", "is_reserved": 0, "lon": -77.007356}, {"fusion_lat": 0.0, "name": "900a6da77c10784b568e664ff31f0f40", "is_disabled": 0, "rental_uris": {"android": "https://dc.lft.to/lastmile_qr_scan", "ios": "https://dc.lft.to/lastmile_qr_scan"}, "fusion_lon": 0.0, "lat": 38.95087633333333, "bike_id": "900a6da77c10784b568e664ff31f0f40", "type": "electric_scooter", "is_reserved": 0, "lon": -77.02713916666667}, {"fusion_lat": 0.0, "name": "8e8ce25c5d0b8922f1b9d5743182abea", "is_disabled": 0, "rental_uris": {"android": "https://dc.lft.to/lastmile_qr_scan", "ios": "https://dc.lft.to/lastmile_qr_scan"}, "fusion_lon": 0.0, "lat": 38.945122166666664, "bike_id": "8e8ce25c5d0b8922f1b9d5743182abea", "type": "electric_bike", "is_reserved": 0, "lon": -77.00667816666666}, {"fusion_lat": 0.0, "name": "ce0d5651fa98d5439b3b1c5cdb41fddf", "is_disabled": 0, "rental_uris": {"android": "https://dc.lft.to/lastmile_qr_scan", "ios": "https://dc.lft.to/lastmile_qr_scan"}, "fusion_lon": 0.0, "lat": 38.9497895, "bike_id": "ce0d5651fa98d5439b3b1c5cdb41fddf", "type": "electric_scooter", "is_reserved": 0, "lon": -77.02696483333334}, {"fusion_lat": 0.0, "name": "c475aab97ea5d626ebb76881a1992167", "is_disabled": 0, "rental_uris": {"android": "https://dc.lft.to/lastmile_qr_scan", "ios": "https://dc.lft.to/lastmile_qr_scan"}, "fusion_lon": 0.0, "lat": 38.862149, "bike_id": "c475aab97ea5d626ebb76881a1992167", "type": "electric_bike", "is_reserved": 0, "lon": -76.99551783333334}, {"fusion_lat": 0.0, "name": "a8dc71d3c6b000ba983d1167c328bc8b", "is_disabled": 0, "rental_uris": {"android": "https://dc.lft.to/lastmile_qr_scan", "ios": "https://dc.lft.to/lastmile_qr_scan"}, "fusion_lon": 0.0, "lat": 38.89750166666666, "bike_id": "a8dc71d3c6b000ba983d1167c328bc8b", "type": "electric_scooter", "is_reserved": 0, "lon": -77.051052}, {"fusion_lat": 0.0, "name": "bc827f521a227dbc68887562daeedcdd", "is_disabled": 0, "rental_uris": {"android": "https://dc.lft.to/lastmile_qr_scan", "ios": "https://dc.lft.to/lastmile_qr_scan"}, "fusion_lon": 0.0, "lat": 38.915550333333336, "bike_id": "bc827f521a227dbc68887562daeedcdd", "type": "electric_scooter", "is_reserved": 0, "lon": -77.03663683333333}, {"fusion_lat": 0.0, "name": "53acb896f784f7b353a4d41c7ea5df39", "is_disabled": 0, "rental_uris": {"android": "https://dc.lft.to/lastmile_qr_scan", "ios": "https://dc.lft.to/lastmile_qr_scan"}, "fusion_lon": 0.0, "lat": 38.884428666666665, "bike_id": "53acb896f784f7b353a4d41c7ea5df39", "type": "electric_scooter", "is_reserved": 0, "lon": -77.00344283333334}, {"fusion_lat": 0.0, "name": "8a8eff7ae9a697d8e321aa4e58c4307b", "is_disabled": 0, "rental_uris": {"android": "https://dc.lft.to/lastmile_qr_scan", "ios": "https://dc.lft.to/lastmile_qr_scan"}, "fusion_lon": 0.0, "lat": 38.90415616666667, "bike_id": "8a8eff7ae9a697d8e321aa4e58c4307b", "type": "electric_scooter", "is_reserved": 0, "lon": -76.973303}, {"fusion_lat": 0.0, "name": "5455f78d1972e3e29175991f637c4447", "is_disabled": 0, "rental_uris": {"android": "https://dc.lft.to/lastmile_qr_scan", "ios": "https://dc.lft.to/lastmile_qr_scan"}, "fusion_lon": 0.0, "lat": 38.922512166666664, "bike_id": "5455f78d1972e3e29175991f637c4447", "type": "electric_scooter", "is_reserved": 0, "lon": -77.033851}, {"fusion_lat": 0.0, "name": "d37c62f804b23f671060fae7effc6c3a", "is_disabled": 0, "rental_uris": {"android": "https://dc.lft.to/lastmile_qr_scan", "ios": "https://dc.lft.to/lastmile_qr_scan"}, "fusion_lon": 0.0, "lat": 38.935764, "bike_id": "d37c62f804b23f671060fae7effc6c3a", "type": "electric_scooter", "is_reserved": 0, "lon": -77.01923366666666}, {"fusion_lat": 0.0, "name": "ac04aa9ea2b70ca7e6e406e4d760624f", "is_disabled": 0, "rental_uris": {"android": "https://dc.lft.to/lastmile_qr_scan", "ios": "https://dc.lft.to/lastmile_qr_scan"}, "fusion_lon": 0.0, "lat": 38.934997333333335, "bike_id": "ac04aa9ea2b70ca7e6e406e4d760624f", "type": "electric_scooter", "is_reserved": 0, "lon": -77.07349333333333}, {"fusion_lat": 0.0, "name": "a5cbf6b7ca074778d8943b1fcec4492d", "is_disabled": 0, "rental_uris": {"android": "https://dc.lft.to/lastmile_qr_scan", "ios": "https://dc.lft.to/lastmile_qr_scan"}, "fusion_lon": 0.0, "lat": 38.952486666666665, "bike_id": "a5cbf6b7ca074778d8943b1fcec4492d", "type": "electric_scooter", "is_reserved": 0, "lon": -77.023833}, {"fusion_lat": 0.0, "name": "8719864c1be5f562205886fd44559a5d", "is_disabled": 0, "rental_uris": {"android": "https://dc.lft.to/lastmile_qr_scan", "ios": "https://dc.lft.to/lastmile_qr_scan"}, "fusion_lon": 0.0, "lat": 38.9008825, "bike_id": "8719864c1be5f562205886fd44559a5d", "type": "electric_scooter", "is_reserved": 0, "lon": -77.05016466666666}, {"fusion_lat": 0.0, "name": "b704f279c8f106fab757b3e638159a2f", "is_disabled": 0, "rental_uris": {"android": "https://dc.lft.to/lastmile_qr_scan", "ios": "https://dc.lft.to/lastmile_qr_scan"}, "fusion_lon": 0.0, "lat": 38.8849965, "bike_id": "b704f279c8f106fab757b3e638159a2f", "type": "electric_scooter", "is_reserved": 0, "lon": -76.997601}, {"fusion_lat": 0.0, "name": "8ee97d2885b701f13af42b14a59ea272", "is_disabled": 0, "rental_uris": {"android": "https://dc.lft.to/lastmile_qr_scan", "ios": "https://dc.lft.to/lastmile_qr_scan"}, "fusion_lon": 0.0, "lat": 38.92679733333333, "bike_id": "8ee97d2885b701f13af42b14a59ea272", "type": "electric_scooter", "is_reserved": 0, "lon": -77.03099466666667}, {"fusion_lat": 0.0, "name": "9d66f6962e6811bef10dde10ec6bd673", "is_disabled": 0, "rental_uris": {"android": "https://dc.lft.to/lastmile_qr_scan", "ios": "https://dc.lft.to/lastmile_qr_scan"}, "fusion_lon": 0.0, "lat": 38.892605333333336, "bike_id": "9d66f6962e6811bef10dde10ec6bd673", "type": "electric_bike", "is_reserved": 0, "lon": -76.95118183333334}, {"fusion_lat": 0.0, "name": "22b53fe385f28a8f158918f60b2aca30", "is_disabled": 0, "rental_uris": {"android": "https://dc.lft.to/lastmile_qr_scan", "ios": "https://dc.lft.to/lastmile_qr_scan"}, "fusion_lon": 0.0, "lat": 38.93185316666667, "bike_id": "22b53fe385f28a8f158918f60b2aca30", "type": "electric_scooter", "is_reserved": 0, "lon": -77.01962866666666}, {"fusion_lat": 0.0, "name": "61bbb8fee1963ef206d0b9e48bb8b24d", "is_disabled": 0, "rental_uris": {"android": "https://dc.lft.to/lastmile_qr_scan", "ios": "https://dc.lft.to/lastmile_qr_scan"}, "fusion_lon": 0.0, "lat": 38.9138355, "bike_id": "61bbb8fee1963ef206d0b9e48bb8b24d", "type": "electric_scooter", "is_reserved": 0, "lon": -77.01803866666667}, {"fusion_lat": 0.0, "name": "826c68844f21272bdfefa7944b484254", "is_disabled": 0, "rental_uris": {"android": "https://dc.lft.to/lastmile_qr_scan", "ios": "https://dc.lft.to/lastmile_qr_scan"}, "fusion_lon": 0.0, "lat": 38.91947116666667, "bike_id": "826c68844f21272bdfefa7944b484254", "type": "electric_scooter", "is_reserved": 0, "lon": -77.04161433333333}, {"fusion_lat": 0.0, "name": "2dcc7360bcb8ca7f006b7afa5438ee39", "is_disabled": 0, "rental_uris": {"android": "https://dc.lft.to/lastmile_qr_scan", "ios": "https://dc.lft.to/lastmile_qr_scan"}, "fusion_lon": 0.0, "lat": 38.879413, "bike_id": "2dcc7360bcb8ca7f006b7afa5438ee39", "type": "electric_scooter", "is_reserved": 0, "lon": -77.0041665}, {"fusion_lat": 0.0, "name": "56cb53d3bb467ac2e7747c477d46a887", "is_disabled": 0, "rental_uris": {"android": "https://dc.lft.to/lastmile_qr_scan", "ios": "https://dc.lft.to/lastmile_qr_scan"}, "fusion_lon": 0.0, "lat": 38.929772, "bike_id": "56cb53d3bb467ac2e7747c477d46a887", "type": "electric_scooter", "is_reserved": 0, "lon": -77.04189833333334}, {"fusion_lat": 0.0, "name": "b415dd24367ae3ab5f6e7d724c4777c8", "is_disabled": 0, "rental_uris": {"android": "https://dc.lft.to/lastmile_qr_scan", "ios": "https://dc.lft.to/lastmile_qr_scan"}, "fusion_lon": 0.0, "lat": 38.918246833333335, "bike_id": "b415dd24367ae3ab5f6e7d724c4777c8", "type": "electric_scooter", "is_reserved": 0, "lon": -77.03841916666667}, {"fusion_lat": 0.0, "name": "a329f82713647903d9cd6ce2955947a8", "is_disabled": 0, "rental_uris": {"android": "https://dc.lft.to/lastmile_qr_scan", "ios": "https://dc.lft.to/lastmile_qr_scan"}, "fusion_lon": 0.0, "lat": 38.9033585, "bike_id": "a329f82713647903d9cd6ce2955947a8", "type": "electric_scooter", "is_reserved": 0, "lon": -76.97252466666667}, {"fusion_lat": 0.0, "name": "c2e139545acef337ef65688b470f39df", "is_disabled": 0, "rental_uris": {"android": "https://dc.lft.to/lastmile_qr_scan", "ios": "https://dc.lft.to/lastmile_qr_scan"}, "fusion_lon": 0.0, "lat": 38.93362783333333, "bike_id": "c2e139545acef337ef65688b470f39df", "type": "electric_scooter", "is_reserved": 0, "lon": -77.03884733333334}, {"fusion_lat": 0.0, "name": "e3822349b7bb34f834d79538c380772d", "is_disabled": 0, "rental_uris": {"android": "https://dc.lft.to/lastmile_qr_scan", "ios": "https://dc.lft.to/lastmile_qr_scan"}, "fusion_lon": 0.0, "lat": 38.94134716666667, "bike_id": "e3822349b7bb34f834d79538c380772d", "type": "electric_scooter", "is_reserved": 0, "lon": -77.006105}, {"fusion_lat": 0.0, "name": "1a597e79abdd8fe2089cd62aa6cebc1e", "is_disabled": 0, "rental_uris": {"android": "https://dc.lft.to/lastmile_qr_scan", "ios": "https://dc.lft.to/lastmile_qr_scan"}, "fusion_lon": 0.0, "lat": 38.89719433333333, "bike_id": "1a597e79abdd8fe2089cd62aa6cebc1e", "type": "electric_scooter", "is_reserved": 0, "lon": -77.03243883333333}, {"fusion_lat": 0.0, "name": "270a761871a31ffbe7d69a82f7094345", "is_disabled": 0, "rental_uris": {"android": "https://dc.lft.to/lastmile_qr_scan", "ios": "https://dc.lft.to/lastmile_qr_scan"}, "fusion_lon": 0.0, "lat": 38.90114366666667, "bike_id": "270a761871a31ffbe7d69a82f7094345", "type": "electric_scooter", "is_reserved": 0, "lon": -77.05167283333333}, {"fusion_lat": 0.0, "name": "2835d56c88e42c98c89d07a3eff4da63", "is_disabled": 0, "rental_uris": {"android": "https://dc.lft.to/lastmile_qr_scan", "ios": "https://dc.lft.to/lastmile_qr_scan"}, "fusion_lon": 0.0, "lat": 38.90983166666667, "bike_id": "2835d56c88e42c98c89d07a3eff4da63", "type": "electric_scooter", "is_reserved": 0, "lon": -77.031778}, {"fusion_lat": 0.0, "name": "ee25a4759ece6ea1a26ec2ae10a65b76", "is_disabled": 0, "rental_uris": {"android": "https://dc.lft.to/lastmile_qr_scan", "ios": "https://dc.lft.to/lastmile_qr_scan"}, "fusion_lon": 0.0, "lat": 38.839346666666664, "bike_id": "ee25a4759ece6ea1a26ec2ae10a65b76", "type": "electric_bike", "is_reserved": 0, "lon": -77.07900116666667}, {"fusion_lat": 0.0, "name": "155dbda61705b8959efd9a10639fe9fa", "is_disabled": 0, "rental_uris": {"android": "https://dc.lft.to/lastmile_qr_scan", "ios": "https://dc.lft.to/lastmile_qr_scan"}, "fusion_lon": 0.0, "lat": 38.909768, "bike_id": "155dbda61705b8959efd9a10639fe9fa", "type": "electric_scooter", "is_reserved": 0, "lon": -77.00894783333334}, {"fusion_lat": 0.0, "name": "3a65e5d7b90e6283ff7d9544c3957ce9", "is_disabled": 0, "rental_uris": {"android": "https://dc.lft.to/lastmile_qr_scan", "ios": "https://dc.lft.to/lastmile_qr_scan"}, "fusion_lon": 0.0, "lat": 38.9251515, "bike_id": "3a65e5d7b90e6283ff7d9544c3957ce9", "type": "electric_scooter", "is_reserved": 0, "lon": -77.02255316666667}, {"fusion_lat": 0.0, "name": "40103eb9df5f10dbe9e1db8826b69992", "is_disabled": 0, "rental_uris": {"android": "https://dc.lft.to/lastmile_qr_scan", "ios": "https://dc.lft.to/lastmile_qr_scan"}, "fusion_lon": 0.0, "lat": 38.89221116666667, "bike_id": "40103eb9df5f10dbe9e1db8826b69992", "type": "electric_scooter", "is_reserved": 0, "lon": -77.02414333333333}, {"fusion_lat": 0.0, "name": "1b22eb4841b049d5428ac6c3979f2edc", "is_disabled": 0, "rental_uris": {"android": "https://dc.lft.to/lastmile_qr_scan", "ios": "https://dc.lft.to/lastmile_qr_scan"}, "fusion_lon": 0.0, "lat": 38.941529333333335, "bike_id": "1b22eb4841b049d5428ac6c3979f2edc", "type": "electric_bike", "is_reserved": 0, "lon": -77.00193633333333}, {"fusion_lat": 0.0, "name": "09f5143ef072a7e4f43993af81198f90", "is_disabled": 0, "rental_uris": {"android": "https://dc.lft.to/lastmile_qr_scan", "ios": "https://dc.lft.to/lastmile_qr_scan"}, "fusion_lon": 0.0, "lat": 38.91388516666667, "bike_id": "09f5143ef072a7e4f43993af81198f90", "type": "electric_scooter", "is_reserved": 0, "lon": -77.0396245}, {"fusion_lat": 0.0, "name": "ced1b2e634b1a92050993ebd2b54de1b", "is_disabled": 0, "rental_uris": {"android": "https://dc.lft.to/lastmile_qr_scan", "ios": "https://dc.lft.to/lastmile_qr_scan"}, "fusion_lon": 0.0, "lat": 38.917048666666666, "bike_id": "ced1b2e634b1a92050993ebd2b54de1b", "type": "electric_scooter", "is_reserved": 0, "lon": -77.00867483333333}, {"fusion_lat": 0.0, "name": "de625b72a3712ee85f940c2e78e5a1e8", "is_disabled": 0, "rental_uris": {"android": "https://dc.lft.to/lastmile_qr_scan", "ios": "https://dc.lft.to/lastmile_qr_scan"}, "fusion_lon": 0.0, "lat": 38.987885166666665, "bike_id": "de625b72a3712ee85f940c2e78e5a1e8", "type": "electric_bike", "is_reserved": 0, "lon": -77.140988}, {"fusion_lat": 0.0, "name": "6603f8434f9a774669f4dbd45c4e48e8", "is_disabled": 0, "rental_uris": {"android": "https://dc.lft.to/lastmile_qr_scan", "ios": "https://dc.lft.to/lastmile_qr_scan"}, "fusion_lon": 0.0, "lat": 38.92974133333333, "bike_id": "6603f8434f9a774669f4dbd45c4e48e8", "type": "electric_scooter", "is_reserved": 0, "lon": -77.03133966666667}, {"fusion_lat": 0.0, "name": "0a1bc282b15312ce82a9f823c8af7f31", "is_disabled": 0, "rental_uris": {"android": "https://dc.lft.to/lastmile_qr_scan", "ios": "https://dc.lft.to/lastmile_qr_scan"}, "fusion_lon": 0.0, "lat": 38.9416485, "bike_id": "0a1bc282b15312ce82a9f823c8af7f31", "type": "electric_bike", "is_reserved": 0, "lon": -76.966463}, {"fusion_lat": 0.0, "name": "24887f5652280cca29bf337ef6f14c93", "is_disabled": 0, "rental_uris": {"android": "https://dc.lft.to/lastmile_qr_scan", "ios": "https://dc.lft.to/lastmile_qr_scan"}, "fusion_lon": 0.0, "lat": 38.922948166666664, "bike_id": "24887f5652280cca29bf337ef6f14c93", "type": "electric_scooter", "is_reserved": 0, "lon": -77.04249916666667}, {"fusion_lat": 0.0, "name": "f3e2d02fb2977ff896bc33978d6d285f", "is_disabled": 0, "rental_uris": {"android": "https://dc.lft.to/lastmile_qr_scan", "ios": "https://dc.lft.to/lastmile_qr_scan"}, "fusion_lon": 0.0, "lat": 38.8774995, "bike_id": "f3e2d02fb2977ff896bc33978d6d285f", "type": "electric_scooter", "is_reserved": 0, "lon": -77.00349}, {"fusion_lat": 0.0, "name": "13df29672ff275d5715018e04a1db0ea", "is_disabled": 0, "rental_uris": {"android": "https://dc.lft.to/lastmile_qr_scan", "ios": "https://dc.lft.to/lastmile_qr_scan"}, "fusion_lon": 0.0, "lat": 38.927488833333335, "bike_id": "13df29672ff275d5715018e04a1db0ea", "type": "electric_scooter", "is_reserved": 0, "lon": -77.03385433333334}, {"fusion_lat": 0.0, "name": "e13b34483457a31fa027e095efa960b6", "is_disabled": 0, "rental_uris": {"android": "https://dc.lft.to/lastmile_qr_scan", "ios": "https://dc.lft.to/lastmile_qr_scan"}, "fusion_lon": 0.0, "lat": 38.914552, "bike_id": "e13b34483457a31fa027e095efa960b6", "type": "electric_scooter", "is_reserved": 0, "lon": -77.07225116666666}, {"fusion_lat": 0.0, "name": "576fac3ed5385949d12d962fba8de632", "is_disabled": 0, "rental_uris": {"android": "https://dc.lft.to/lastmile_qr_scan", "ios": "https://dc.lft.to/lastmile_qr_scan"}, "fusion_lon": 0.0, "lat": 38.895441, "bike_id": "576fac3ed5385949d12d962fba8de632", "type": "electric_scooter", "is_reserved": 0, "lon": -76.949666}, {"fusion_lat": 0.0, "name": "31e210a4e91b331f122be51a3293a598", "is_disabled": 0, "rental_uris": {"android": "https://dc.lft.to/lastmile_qr_scan", "ios": "https://dc.lft.to/lastmile_qr_scan"}, "fusion_lon": 0.0, "lat": 38.87662916666667, "bike_id": "31e210a4e91b331f122be51a3293a598", "type": "electric_scooter", "is_reserved": 0, "lon": -76.99625083333333}, {"fusion_lat": 0.0, "name": "58e039826fcd9662421c65d5e0127044", "is_disabled": 0, "rental_uris": {"android": "https://dc.lft.to/lastmile_qr_scan", "ios": "https://dc.lft.to/lastmile_qr_scan"}, "fusion_lon": 0.0, "lat": 38.92480233333333, "bike_id": "58e039826fcd9662421c65d5e0127044", "type": "electric_scooter", "is_reserved": 0, "lon": -77.03915366666666}, {"fusion_lat": 0.0, "name": "c256ca115fddfde8c9071a44fd507e97", "is_disabled": 0, "rental_uris": {"android": "https://dc.lft.to/lastmile_qr_scan", "ios": "https://dc.lft.to/lastmile_qr_scan"}, "fusion_lon": 0.0, "lat": 38.913984666666664, "bike_id": "c256ca115fddfde8c9071a44fd507e97", "type": "electric_scooter", "is_reserved": 0, "lon": -77.01680466666667}, {"fusion_lat": 0.0, "name": "cfa485d85aa4037d33724964b8187dfc", "is_disabled": 0, "rental_uris": {"android": "https://dc.lft.to/lastmile_qr_scan", "ios": "https://dc.lft.to/lastmile_qr_scan"}, "fusion_lon": 0.0, "lat": 38.90070516666667, "bike_id": "cfa485d85aa4037d33724964b8187dfc", "type": "electric_scooter", "is_reserved": 0, "lon": -76.92745166666667}, {"fusion_lat": 0.0, "name": "45a3c2010a4f83d94330a76a330781d1", "is_disabled": 0, "rental_uris": {"android": "https://dc.lft.to/lastmile_qr_scan", "ios": "https://dc.lft.to/lastmile_qr_scan"}, "fusion_lon": 0.0, "lat": 38.906196333333334, "bike_id": "45a3c2010a4f83d94330a76a330781d1", "type": "electric_scooter", "is_reserved": 0, "lon": -77.06273283333333}, {"fusion_lat": 0.0, "name": "d090a6a24f1ce734bded26b852dc0409", "is_disabled": 0, "rental_uris": {"android": "https://dc.lft.to/lastmile_qr_scan", "ios": "https://dc.lft.to/lastmile_qr_scan"}, "fusion_lon": 0.0, "lat": 38.877486166666664, "bike_id": "d090a6a24f1ce734bded26b852dc0409", "type": "electric_scooter", "is_reserved": 0, "lon": -77.01431183333334}, {"fusion_lat": 0.0, "name": "d40908e4ffe21e4d1943a83e81b6b859", "is_disabled": 0, "rental_uris": {"android": "https://dc.lft.to/lastmile_qr_scan", "ios": "https://dc.lft.to/lastmile_qr_scan"}, "fusion_lon": 0.0, "lat": 38.896931, "bike_id": "d40908e4ffe21e4d1943a83e81b6b859", "type": "electric_scooter", "is_reserved": 0, "lon": -77.05203783333333}, {"fusion_lat": 0.0, "name": "b359bbf1db19a5ea10e19d8ce12d3508", "is_disabled": 0, "rental_uris": {"android": "https://dc.lft.to/lastmile_qr_scan", "ios": "https://dc.lft.to/lastmile_qr_scan"}, "fusion_lon": 0.0, "lat": 38.91598833333333, "bike_id": "b359bbf1db19a5ea10e19d8ce12d3508", "type": "electric_scooter", "is_reserved": 0, "lon": -77.0454725}, {"fusion_lat": 0.0, "name": "490eef1207ff143794019704c8d57979", "is_disabled": 0, "rental_uris": {"android": "https://dc.lft.to/lastmile_qr_scan", "ios": "https://dc.lft.to/lastmile_qr_scan"},