{"data": {"bikes": [{"rental_uris": {"ios": "https://dc.lft.to/lastmile_qr_scan", "android": "https://dc.lft.to/lastmile_qr_scan"}, "type": "electric_scooter", "name": "308d0ad344774e6a815ba6c9a09c3b70", "is_reserved": 0, "lon": -77.0384085, "is_disabled": 0, "fusion_lat": 0.0, "lat": 38.910353, "bike_id": "308d0ad344774e6a815ba6c9a09c3b70", "fusion_lon": 0.0}, {"rental_uris": {"ios": "https://dc.lft.to/lastmile_qr_scan", "android": "https://dc.lft.to/lastmile_qr_scan"}, "type": "electric_scooter", "name": "2eedc0e44ce3216414b2f5c9c3eee2ca", "is_reserved": 0, "lon": -77.02405966666667, "is_disabled": 0, "fusion_lat": 0.0, "lat": 38.8973125, "bike_id": "2eedc0e44ce3216414b2f5c9c3eee2ca", "fusion_lon": 0.0}, {"rental_uris": {"ios": "https://dc.lft.to/lastmile_qr_scan", "android": "https://dc.lft.to/lastmile_qr_scan"}, "type": "electric_scooter", "name": "16ff328ae43fe84692806b48cbfe7e54", "is_reserved": 0, "lon": -77.02743133333334, "is_disabled": 0, "fusion_lat": 0.0, "lat": 38.92382283333333, "bike_id": "16ff328ae43fe84692806b48cbfe7e54", "fusion_lon": 0.0}, {"rental_uris": {"ios": "https://dc.lft.to/lastmile_qr_scan", "android": "https://dc.lft.to/lastmile_qr_scan"}, "type": "electric_scooter", "name": "b2cea470856319cace269ffff9cd2d4c", "is_reserved": 0, "lon": -77.04085933333333, "is_disabled": 0, "fusion_lat": 0.0, "lat": 38.9202585, "bike_id": "b2cea470856319cace269ffff9cd2d4c", "fusion_lon": 0.0}, {"rental_uris": {"ios": "https://dc.lft.to/lastmile_qr_scan", "android": "https://dc.lft.to/lastmile_qr_scan"}, "type": "electric_scooter", "name": "802349fcae8406fd9e6a50bc2e7aa8aa", "is_reserved": 0, "lon": -77.038691, "is_disabled": 0, "fusion_lat": 0.0, "lat": 38.911682, "bike_id": "802349fcae8406fd9e6a50bc2e7aa8aa", "fusion_lon": 0.0}, {"rental_uris": {"ios": "https://dc.lft.to/lastmile_qr_scan", "android": "https://dc.lft.to/lastmile_qr_scan"}, "type": "electric_scooter", "name": "d9eb37320ba169c3627b6de4d10361c2", "is_reserved": 0, "lon": -76.932623, "is_disabled": 0, "fusion_lat": 0.0, "lat": 38.88747983333333, "bike_id": "d9eb37320ba169c3627b6de4d10361c2", "fusion_lon": 0.0}, {"rental_uris": {"ios": "https://dc.lft.to/lastmile_qr_scan", "android": "https://dc.lft.to/lastmile_qr_scan"}, "type": "electric_scooter", "name": "0ede3f7b0b7b7ae288c95890667c40af", "is_reserved": 0, "lon": -77.02297433333334, "is_disabled": 0, "fusion_lat": 0.0, "lat": 38.909170333333336, "bike_id": "0ede3f7b0b7b7ae288c95890667c40af", "fusion_lon": 0.0}, {"rental_uris": {"ios": "https://dc.lft.to/lastmile_qr_scan", "android": "https://dc.lft.to/lastmile_qr_scan"}, "type": "electric_scooter", "name": "47c5c143b806f028c627849966b1b5a5", "is_reserved": 0, "lon": -77.040505, "is_disabled": 0, "fusion_lat": 0.0, "lat": 38.917899166666665, "bike_id": "47c5c143b806f028c627849966b1b5a5", "fusion_lon": 0.0}, {"rental_uris": {"ios": "https://dc.lft.to/lastmile_qr_scan", "android": "https://dc.lft.to/lastmile_qr_scan"}, "type": "electric_scooter", "name": "36a9022f5c85c88c27829d54be833127", "is_reserved": 0, "lon": -77.04016883333334, "is_disabled": 0, "fusion_lat": 0.0, "lat": 38.922281166666664, "bike_id": "36a9022f5c85c88c27829d54be833127", "fusion_lon": 0.0}, {"rental_uris": {"ios": "https://dc.lft.to/lastmile_qr_scan", "android": "https://dc.lft.to/lastmile_qr_scan"}, "type": "electric_scooter", "name": "cbb8b6e1e2f611503c7efeb069d04d04", "is_reserved": 0, "lon": -77.0090375, "is_disabled": 0, "fusion_lat": 0.0, "lat": 38.895919666666664, "bike_id": "cbb8b6e1e2f611503c7efeb069d04d04", "fusion_lon": 0.0}, {"rental_uris": {"ios": "https://dc.lft.to/lastmile_qr_scan", "android": "https://dc.lft.to/lastmile_qr_scan"}, "type": "electric_scooter", "name": "c103be7b499e532a564aaf65fe551185", "is_reserved": 0, "lon": -76.946618, "is_disabled": 0, "fusion_lat": 0.0, "lat": 38.89868583333333, "bike_id": "c103be7b499e532a564aaf65fe551185", "fusion_lon": 0.0}, {"rental_uris": {"ios": "https://dc.lft.to/lastmile_qr_scan", "android": "https://dc.lft.to/lastmile_qr_scan"}, "type": "electric_scooter", "name": "b0437928a3a0f60b5154503d95e3c231", "is_reserved": 0, "lon": -77.037285, "is_disabled": 0, "fusion_lat": 0.0, "lat": 38.920281333333335, "bike_id": "b0437928a3a0f60b5154503d95e3c231", "fusion_lon": 0.0}, {"rental_uris": {"ios": "https://dc.lft.to/lastmile_qr_scan", "android": "https://dc.lft.to/lastmile_qr_scan"}, "type": "electric_scooter", "name": "9a9ded6553ad7812212f23b5cdf02533", "is_reserved": 0, "lon": -77.01764266666666, "is_disabled": 0, "fusion_lat": 0.0, "lat": 38.876871333333334, "bike_id": "9a9ded6553ad7812212f23b5cdf02533", "fusion_lon": 0.0}, {"rental_uris": {"ios": "https://dc.lft.to/lastmile_qr_scan", "android": "https://dc.lft.to/lastmile_qr_scan"}, "type": "electric_scooter", "name": "6550df8356a98499d95289b8e16c0c9d", "is_reserved": 0, "lon": -77.0500675, "is_disabled": 0, "fusion_lat": 0.0, "lat": 38.89750866666667, "bike_id": "6550df8356a98499d95289b8e16c0c9d", "fusion_lon": 0.0}, {"rental_uris": {"ios": "https://dc.lft.to/lastmile_qr_scan", "android": "https://dc.lft.to/lastmile_qr_scan"}, "type": "electric_bike", "name": "d1ce575d77801031b27b9b22bfcce60a", "is_reserved": 0, "lon": -76.93876166666666, "is_disabled": 0, "fusion_lat": 0.0, "lat": 38.977693, "bike_id": "d1ce575d77801031b27b9b22bfcce60a", "fusion_lon": 0.0}, {"rental_uris": {"ios": "https://dc.lft.to/lastmile_qr_scan", "android": "https://dc.lft.to/lastmile_qr_scan"}, "type": "electric_scooter", "name": "686c409b04889ec6e12b0038755587ed", "is_reserved": 0, "lon": -77.04427683333333, "is_disabled": 0, "fusion_lat": 0.0, "lat": 38.921173333333336, "bike_id": "686c409b04889ec6e12b0038755587ed", "fusion_lon": 0.0}, {"rental_uris": {"ios": "https://dc.lft.to/lastmile_qr_scan", "android": "https://dc.lft.to/lastmile_qr_scan"}, "type": "electric_scooter", "name": "255e68d11cd028542206bb1766aa6693", "is_reserved": 0, "lon": -77.00485816666666, "is_disabled": 0, "fusion_lat": 0.0, "lat": 38.874579, "bike_id": "255e68d11cd028542206bb1766aa6693", "fusion_lon": 0.0}, {"rental_uris": {"ios": "https://dc.lft.to/lastmile_qr_scan", "android": "https://dc.lft.to/lastmile_qr_scan"}, "type": "electric_scooter", "name": "4ad57ca41fd0c68305ed9232a2f1fff2", "is_reserved": 0, "lon": -77.0306005, "is_disabled": 0, "fusion_lat": 0.0, "lat": 38.923719166666665, "bike_id": "4ad57ca41fd0c68305ed9232a2f1fff2", "fusion_lon": 0.0}, {"rental_uris": {"ios": "https://dc.lft.to/lastmile_qr_scan", "android": "https://dc.lft.to/lastmile_qr_scan"}, "type": "electric_scooter", "name": "1d8f02dff7cafb1786a5ca31c8102e77", "is_reserved": 0, "lon": -77.03083066666666, "is_disabled": 0, "fusion_lat": 0.0, "lat": 38.909346, "bike_id": "1d8f02dff7cafb1786a5ca31c8102e77", "fusion_lon": 0.0}, {"rental_uris": {"ios": "https://dc.lft.to/lastmile_qr_scan", "android": "https://dc.lft.to/lastmile_qr_scan"}, "type": "electric_scooter", "name": "991fa1bc3ff9f81de12623fd82b8961c", "is_reserved": 0, "lon": -77.02225033333333, "is_disabled": 0, "fusion_lat": 0.0, "lat": 38.924843, "bike_id": "991fa1bc3ff9f81de12623fd82b8961c", "fusion_lon": 0.0}, {"rental_uris": {"ios": "https://dc.lft.to/lastmile_qr_scan", "android": "https://dc.lft.to/lastmile_qr_scan"}, "type": "electric_scooter", "name": "160941dbcbc441de11975da05037c774", "is_reserved": 0, "lon": -77.00076866666667, "is_disabled": 0, "fusion_lat": 0.0, "lat": 38.89483383333334, "bike_id": "160941dbcbc441de11975da05037c774", "fusion_lon": 0.0}, {"rental_uris": {"ios": "https://dc.lft.to/lastmile_qr_scan", "android": "https://dc.lft.to/lastmile_qr_scan"}, "type": "electric_scooter", "name": "a785978ffe6e3899eef27911d22672bb", "is_reserved": 0, "lon": -77.03858516666666, "is_disabled": 0, "fusion_lat": 0.0, "lat": 38.9166405, "bike_id": "a785978ffe6e3899eef27911d22672bb", "fusion_lon": 0.0}, {"rental_uris": {"ios": "https://dc.lft.to/lastmile_qr_scan", "android": "https://dc.lft.to/lastmile_qr_scan"}, "type": "electric_scooter", "name": "b618d3d8ede95c485ebf140af716cf9c", "is_reserved": 0, "lon": -76.9994555, "is_disabled": 0, "fusion_lat": 0.0, "lat": 38.891695666666664, "bike_id": "b618d3d8ede95c485ebf140af716cf9c", "fusion_lon": 0.0}, {"rental_uris": {"ios": "https://dc.lft.to/lastmile_qr_scan", "android": "https://dc.lft.to/lastmile_qr_scan"}, "type": "electric_scooter", "name": "46916fb245b352c86ebcb39f6647520e", "is_reserved": 0, "lon": -77.02435816666667, "is_disabled": 0, "fusion_lat": 0.0, "lat": 38.907273, "bike_id": "46916fb245b352c86ebcb39f6647520e", "fusion_lon": 0.0}, {"rental_uris": {"ios": "https://dc.lft.to/lastmile_qr_scan", "android": "https://dc.lft.to/lastmile_qr_scan"}, "type": "electric_scooter", "name": "75f110064424f4fa4a71b2bb031d54c3", "is_reserved": 0, "lon": -76.93816583333333, "is_disabled": 0, "fusion_lat": 0.0, "lat": 38.89843233333333, "bike_id": "75f110064424f4fa4a71b2bb031d54c3", "fusion_lon": 0.0}, {"rental_uris": {"ios": "https://dc.lft.to/lastmile_qr_scan", "android": "https://dc.lft.to/lastmile_qr_scan"}, "type": "electric_bike", "name": "75eb52d35d41ec44052dbca445793813", "is_reserved": 0, "lon": -76.9940685, "is_disabled": 0, "fusion_lat": 0.0, "lat": 38.831437333333334, "bike_id": "75eb52d35d41ec44052dbca445793813", "fusion_lon": 0.0}, {"rental_uris": {"ios": "https://dc.lft.to/lastmile_qr_scan", "android": "https://dc.lft.to/lastmile_qr_scan"}, "type": "electric_bike", "name": "573952809ffe4c8d768e1798c9f94d51", "is_reserved": 0, "lon": -77.00412633333333, "is_disabled": 0, "fusion_lat": 0.0, "lat": 38.98543766666667, "bike_id": "573952809ffe4c8d768e1798c9f94d51", "fusion_lon": 0.0}, {"rental_uris": {"ios": "https://dc.lft.to/lastmile_qr_scan", "android": "https://dc.lft.to/lastmile_qr_scan"}, "type": "electric_scooter", "name": "b556c801f7d526c8fcb8cbbfa431d996", "is_reserved": 0, "lon": -77.046709, "is_disabled": 0, "fusion_lat": 0.0, "lat": 38.9064925, "bike_id": "b556c801f7d526c8fcb8cbbfa431d996", "fusion_lon": 0.0}, {"rental_uris": {"ios": "https://dc.lft.to/lastmile_qr_scan", "android": "https://dc.lft.to/lastmile_qr_scan"}, "type": "electric_scooter", "name": "5d20a3cc3e265ed775efda5133c9cfb7", "is_reserved": 0, "lon": -77.0131945, "is_disabled": 0, "fusion_lat": 0.0, "lat": 38.8961865, "bike_id": "5d20a3cc3e265ed775efda5133c9cfb7", "fusion_lon": 0.0}, {"rental_uris": {"ios": "https://dc.lft.to/lastmile_qr_scan", "android": "https://dc.lft.to/lastmile_qr_scan"}, "type": "electric_bike", "name": "d71cc5fa4714ae934118066f69fcbbe5", "is_reserved": 0, "lon": -77.09831616666666, "is_disabled": 0, "fusion_lat": 0.0, "lat": 38.850187166666664, "bike_id": "d71cc5fa4714ae934118066f69fcbbe5", "fusion_lon": 0.0}, {"rental_uris": {"ios": "https://dc.lft.to/lastmile_qr_scan", "android": "https://dc.lft.to/lastmile_qr_scan"}, "type": "electric_scooter", "name": "c30771bc6567b3a4028d66a4c5753a4d", "is_reserved": 0, "lon": -77.044067, "is_disabled": 0, "fusion_lat": 0.0, "lat": 38.929509833333334, "bike_id": "c30771bc6567b3a4028d66a4c5753a4d", "fusion_lon": 0.0}, {"rental_uris": {"ios": "https://dc.lft.to/lastmile_qr_scan", "android": "https://dc.lft.to/lastmile_qr_scan"}, "type": "electric_scooter", "name": "5a1ff1ad92d6b7ebc2a00d39e613e553", "is_reserved": 0, "lon": -77.01885983333334, "is_disabled": 0, "fusion_lat": 0.0, "lat": 38.906130166666664, "bike_id": "5a1ff1ad92d6b7ebc2a00d39e613e553", "fusion_lon": 0.0}, {"rental_uris": {"ios": "https://dc.lft.to/lastmile_qr_scan", "android": "https://dc.lft.to/lastmile_qr_scan"}, "type": "electric_scooter", "name": "a60a4766e9707741600101689dbc3604", "is_reserved": 0, "lon": -77.0424675, "is_disabled": 0, "fusion_lat": 0.0, "lat": 38.9042455, "bike_id": "a60a4766e9707741600101689dbc3604", "fusion_lon": 0.0}, {"rental_uris": {"ios": "https://dc.lft.to/lastmile_qr_scan", "android": "https://dc.lft.to/lastmile_qr_scan"}, "type": "electric_scooter", "name": "94706785f755571f6c1300def0a6e1a5", "is_reserved": 0, "lon": -77.02163166666666, "is_disabled": 0, "fusion_lat": 0.0, "lat": 38.91995383333333, "bike_id": "94706785f755571f6c1300def0a6e1a5", "fusion_lon": 0.0}, {"rental_uris": {"ios": "https://dc.lft.to/lastmile_qr_scan", "android": "https://dc.lft.to/lastmile_qr_scan"}, "type": "electric_scooter", "name": "5b740502a4c30f9841ff1a6f66d46252", "is_reserved": 0, "lon": -77.018327, "is_disabled": 0, "fusion_lat": 0.0, "lat": 38.92152516666667, "bike_id": "5b740502a4c30f9841ff1a6f66d46252", "fusion_lon": 0.0}, {"rental_uris": {"ios": "https://dc.lft.to/lastmile_qr_scan", "android": "https://dc.lft.to/lastmile_qr_scan"}, "type": "electric_bike", "name": "ab33128f9de7cec851237df67fccb218", "is_reserved": 0, "lon": -77.04079066666667, "is_disabled": 0, "fusion_lat": 0.0, "lat": 38.830662833333335, "bike_id": "ab33128f9de7cec851237df67fccb218", "fusion_lon": 0.0}, {"rental_uris": {"ios": "https://dc.lft.to/lastmile_qr_scan", "android": "https://dc.lft.to/lastmile_qr_scan"}, "type": "electric_scooter", "name": "1f6e34857cb6af3d12c23cc90e094bf3", "is_reserved": 0, "lon": -77.00333233333333, "is_disabled": 0, "fusion_lat": 0.0, "lat": 38.877280999999996, "bike_id": "1f6e34857cb6af3d12c23cc90e094bf3", "fusion_lon": 0.0}, {"rental_uris": {"ios": "https://dc.lft.to/lastmile_qr_scan", "android": "https://dc.lft.to/lastmile_qr_scan"}, "type": "electric_scooter", "name": "fd3d906a84c7376fd636edaf10cc33e7", "is_reserved": 0, "lon": -77.034621, "is_disabled": 0, "fusion_lat": 0.0, "lat": 38.92063733333333, "bike_id": "fd3d906a84c7376fd636edaf10cc33e7", "fusion_lon": 0.0}, {"rental_uris": {"ios": "https://dc.lft.to/lastmile_qr_scan", "android": "https://dc.lft.to/lastmile_qr_scan"}, "type": "electric_scooter", "name": "83c1252d0e0b82dda73d70595c0312bc", "is_reserved": 0, "lon": -76.99285616666667, "is_disabled": 0, "fusion_lat": 0.0, "lat": 38.90257483333333, "bike_id": "83c1252d0e0b82dda73d70595c0312bc", "fusion_lon": 0.0}, {"rental_uris": {"ios": "https://dc.lft.to/lastmile_qr_scan", "android": "https://dc.lft.to/lastmile_qr_scan"}, "type": "electric_scooter", "name": "fb06635fd8c3a06cd231bed3703407e9", "is_reserved": 0, "lon": -77.01300933333333, "is_disabled": 0, "fusion_lat": 0.0, "lat": 38.8777295, "bike_id": "fb06635fd8c3a06cd231bed3703407e9", "fusion_lon": 0.0}, {"rental_uris": {"ios": "https://dc.lft.to/lastmile_qr_scan", "android": "https://dc.lft.to/lastmile_qr_scan"}, "type": "electric_scooter", "name": "6e7b2ee9ce7ca199a7b122f4838b56b7", "is_reserved": 0, "lon": -77.02411, "is_disabled": 0, "fusion_lat": 0.0, "lat": 38.916761666666666, "bike_id": "6e7b2ee9ce7ca199a7b122f4838b56b7", "fusion_lon": 0.0}, {"rental_uris": {"ios": "https://dc.lft.to/lastmile_qr_scan", "android": "https://dc.lft.to/lastmile_qr_scan"}, "type": "electric_scooter", "name": "ad322a3e8f880da750eea4f47f6b281b", "is_reserved": 0, "lon": -77.021522, "is_disabled": 0, "fusion_lat": 0.0, "lat": 38.925531666666664, "bike_id": "ad322a3e8f880da750eea4f47f6b281b", "fusion_lon": 0.0}, {"rental_uris": {"ios": "https://dc.lft.to/lastmile_qr_scan", "android": "https://dc.lft.to/lastmile_qr_scan"}, "type": "electric_scooter", "name": "3b509ae0f7f0455f7245b83e9a3114e9", "is_reserved": 0, "lon": -77.01779, "is_disabled": 0, "fusion_lat": 0.0, "lat": 38.900456166666665, "bike_id": "3b509ae0f7f0455f7245b83e9a3114e9", "fusion_lon": 0.0}, {"rental_uris": {"ios": "https://dc.lft.to/lastmile_qr_scan", "android": "https://dc.lft.to/lastmile_qr_scan"}, "type": "electric_scooter", "name": "ae9dea5062c8ae2b74c23e813cc13f5e", "is_reserved": 0, "lon": -77.0188995, "is_disabled": 0, "fusion_lat": 0.0, "lat": 38.89756, "bike_id": "ae9dea5062c8ae2b74c23e813cc13f5e", "fusion_lon": 0.0}, {"rental_uris": {"ios": "https://dc.lft.to/lastmile_qr_scan", "android": "https://dc.lft.to/lastmile_qr_scan"}, "type": "electric_scooter", "name": "3f0300218560de95e2331ff49a0d7967", "is_reserved": 0, "lon": -77.0398545, "is_disabled": 0, "fusion_lat": 0.0, "lat": 38.9023365, "bike_id": "3f0300218560de95e2331ff49a0d7967", "fusion_lon": 0.0}, {"rental_uris": {"ios": "https://dc.lft.to/lastmile_qr_scan", "android": "https://dc.lft.to/lastmile_qr_scan"}, "type": "electric_scooter", "name": "b9bb6bcb395582dec37da844fa61a182", "is_reserved": 0, "lon": -77.05817616666667, "is_disabled": 0, "fusion_lat": 0.0, "lat": 38.92904866666667, "bike_id": "b9bb6bcb395582dec37da844fa61a182", "fusion_lon": 0.0}, {"rental_uris": {"ios": "https://dc.lft.to/lastmile_qr_scan", "android": "https://dc.lft.to/lastmile_qr_scan"}, "type": "electric_scooter", "name": "2030e7d0e37ac7b5171ff0e68a0a8d4a", "is_reserved": 0, "lon": -77.08119316666667, "is_disabled": 0, "fusion_lat": 0.0, "lat": 38.89138966666667, "bike_id": "2030e7d0e37ac7b5171ff0e68a0a8d4a", "fusion_lon": 0.0}, {"rental_uris": {"ios": "https://dc.lft.to/lastmile_qr_scan", "android": "https://dc.lft.to/lastmile_qr_scan"}, "type": "electric_scooter", "name": "1d1d5079f38a247d5f1d5c5651506df2", "is_reserved": 0, "lon": -77.0028575, "is_disabled": 0, "fusion_lat": 0.0, "lat": 38.846160833333336, "bike_id": "1d1d5079f38a247d5f1d5c5651506df2", "fusion_lon": 0.0}, {"rental_uris": {"ios": "https://dc.lft.to/lastmile_qr_scan", "android": "https://dc.lft.to/lastmile_qr_scan"}, "type": "electric_scooter", "name": "af8685606447abf7453943e2bb7fcad0", "is_reserved": 0, "lon": -76.94105283333333, "is_disabled": 0, "fusion_lat": 0.0, "lat": 38.89367566666667, "bike_id": "af8685606447abf7453943e2bb7fcad0", "fusion_lon": 0.0}, {"rental_uris": {"ios": "https://dc.lft.to/lastmile_qr_scan", "android": "https://dc.lft.to/lastmile_qr_scan"}, "type": "electric_bike", "name": "74e54154269e4fd1bad57ad295ba5fc2", "is_reserved": 0, "lon": -77.07756833333333, "is_disabled": 0, "fusion_lat": 0.0, "lat": 38.84191233333333, "bike_id": "74e54154269e4fd1bad57ad295ba5fc2", "fusion_lon": 0.0}, {"rental_uris": {"ios": "https://dc.lft.to/lastmile_qr_scan", "android": "https://dc.lft.to/lastmile_qr_scan"}, "type": "electric_scooter", "name": "009c049a7ada1c69f507262442d92313", "is_reserved": 0, "lon": -77.05311066666667, "is_disabled": 0, "fusion_lat": 0.0, "lat": 38.90654166666667, "bike_id": "009c049a7ada1c69f507262442d92313", "fusion_lon": 0.0}, {"rental_uris": {"ios": "https://dc.lft.to/lastmile_qr_scan", "android": "https://dc.lft.to/lastmile_qr_scan"}, "type": "electric_bike", "name": "3e5ba8782fb912da99fa9b608b563f76", "is_reserved": 0, "lon": -76.960906, "is_disabled": 0, "fusion_lat": 0.0, "lat": 38.918627, "bike_id": "3e5ba8782fb912da99fa9b608b563f76", "fusion_lon": 0.0}, {"rental_uris": {"ios": "https://dc.lft.to/lastmile_qr_scan", "android": "https://dc.lft.to/lastmile_qr_scan"}, "type": "electric_scooter", "name": "0c9c9586c675c65c64283f7554ab0e4d", "is_reserved": 0, "lon": -77.04189416666667, "is_disabled": 0, "fusion_lat": 0.0, "lat": 38.9204915, "bike_id": "0c9c9586c675c65c64283f7554ab0e4d", "fusion_lon": 0.0}, {"rental_uris": {"ios": "https://dc.lft.to/lastmile_qr_scan", "android": "https://dc.lft.to/lastmile_qr_scan"}, "type": "electric_scooter", "name": "12e1d7ab4692c0a14e3883dad588ed9d", "is_reserved": 0, "lon": -76.99251683333334, "is_disabled": 0, "fusion_lat": 0.0, "lat": 38.94065583333333, "bike_id": "12e1d7ab4692c0a14e3883dad588ed9d", "fusion_lon": 0.0}, {"rental_uris": {"ios": "https://dc.lft.to/lastmile_qr_scan", "android": "https://dc.lft.to/lastmile_qr_scan"}, "type": "electric_bike", "name": "2677cb17236859891e02eee955ae8548", "is_reserved": 0, "lon": -76.9731545, "is_disabled": 0, "fusion_lat": 0.0, "lat": 38.91763666666667, "bike_id": "2677cb17236859891e02eee955ae8548", "fusion_lon": 0.0}, {"rental_uris": {"ios": "https://dc.lft.to/lastmile_qr_scan", "android": "https://dc.lft.to/lastmile_qr_scan"}, "type": "electric_scooter", "name": "803be746dfdd7bf842210ec30acb29e9", "is_reserved": 0, "lon": -77.03237633333333, "is_disabled": 0, "fusion_lat": 0.0, "lat": 38.915594166666665, "bike_id": "803be746dfdd7bf842210ec30acb29e9", "fusion_lon": 0.0}, {"rental_uris": {"ios": "https://dc.lft.to/lastmile_qr_scan", "android": "https://dc.lft.to/lastmile_qr_scan"}, "type": "electric_scooter", "name": "48ff179e66a52b03c124042f4a154d3a", "is_reserved": 0, "lon": -77.03567566666666, "is_disabled": 0, "fusion_lat": 0.0, "lat": 38.90967366666667, "bike_id": "48ff179e66a52b03c124042f4a154d3a", "fusion_lon": 0.0}, {"rental_uris": {"ios": "https://dc.lft.to/lastmile_qr_scan", "android": "https://dc.lft.to/lastmile_qr_scan"}, "type": "electric_scooter", "name": "46e37d2594c64e77ffa72bb5810e68bb", "is_reserved": 0, "lon": -76.96529016666666, "is_disabled": 0, "fusion_lat": 0.0, "lat": 38.876313, "bike_id": "46e37d2594c64e77ffa72bb5810e68bb", "fusion_lon": 0.0}, {"rental_uris": {"ios": "https://dc.lft.to/lastmile_qr_scan", "android": "https://dc.lft.to/lastmile_qr_scan"}, "type": "electric_scooter", "name": "fb4dfc60a0ce9ac92cea1250641f9e4f", "is_reserved": 0, "lon": -77.00761516666667, "is_disabled": 0, "fusion_lat": 0.0, "lat": 38.8766695, "bike_id": "fb4dfc60a0ce9ac92cea1250641f9e4f", "fusion_lon": 0.0}, {"rental_uris": {"ios": "https://dc.lft.to/lastmile_qr_scan", "android": "https://dc.lft.to/lastmile_qr_scan"}, "type": "electric_scooter", "name": "d87736ab43f5fdf56148e1ed0990a75b", "is_reserved": 0, "lon": -77.02323983333334, "is_disabled": 0, "fusion_lat": 0.0, "lat": 38.9091415, "bike_id": "d87736ab43f5fdf56148e1ed0990a75b", "fusion_lon": 0.0}, {"rental_uris": {"ios": "https://dc.lft.to/lastmile_qr_scan", "android": "https://dc.lft.to/lastmile_qr_scan"}, "type": "electric_scooter", "name": "cdfcee90d5373ea9b9ea84e2c00c8ecf", "is_reserved": 0, "lon": -77.02554566666667, "is_disabled": 0, "fusion_lat": 0.0, "lat": 38.95394866666667, "bike_id": "cdfcee90d5373ea9b9ea84e2c00c8ecf", "fusion_lon": 0.0}, {"rental_uris": {"ios": "https://dc.lft.to/lastmile_qr_scan", "android": "https://dc.lft.to/lastmile_qr_scan"}, "type": "electric_scooter", "name": "9e08b3988c3d97b0df0b65f9fc12df68", "is_reserved": 0, "lon": -77.02141816666666, "is_disabled": 0, "fusion_lat": 0.0, "lat": 38.92485216666667, "bike_id": "9e08b3988c3d97b0df0b65f9fc12df68", "fusion_lon": 0.0}, {"rental_uris": {"ios": "https://dc.lft.to/lastmile_qr_scan", "android": "https://dc.lft.to/lastmile_qr_scan"}, "type": "electric_scooter", "name": "f5bc74d6363aaad8f4de79f271703670", "is_reserved": 0, "lon": -77.03225616666667, "is_disabled": 0, "fusion_lat": 0.0, "lat": 38.91851483333333, "bike_id": "f5bc74d6363aaad8f4de79f271703670", "fusion_lon": 0.0}, {"rental_uris": {"ios": "https://dc.lft.to/lastmile_qr_scan", "android": "https://dc.lft.to/lastmile_qr_scan"}, "type": "electric_scooter", "name": "62c195d4bf79420ef765f2176a1c7368", "is_reserved": 0, "lon": -76.99141916666666, "is_disabled": 0, "fusion_lat": 0.0, "lat": 38.909027333333334, "bike_id": "62c195d4bf79420ef765f2176a1c7368", "fusion_lon": 0.0}, {"rental_uris": {"ios": "https://dc.lft.to/lastmile_qr_scan", "android": "https://dc.lft.to/lastmile_qr_scan"}, "type": "electric_scooter", "name": "2a044c07f75c643574b3337038161073", "is_reserved": 0, "lon": -77.04308983333334, "is_disabled": 0, "fusion_lat": 0.0, "lat": 38.9318345, "bike_id": "2a044c07f75c643574b3337038161073", "fusion_lon": 0.0}, {"rental_uris": {"ios": "https://dc.lft.to/lastmile_qr_scan", "android": "https://dc.lft.to/lastmile_qr_scan"}, "type": "electric_scooter", "name": "b924b0c173bf6a43e31f7c3e4e68f077", "is_reserved": 0, "lon": -77.02715183333333, "is_disabled": 0, "fusion_lat": 0.0, "lat": 38.90896466666667, "bike_id": "b924b0c173bf6a43e31f7c3e4e68f077", "fusion_lon": 0.0}, {"rental_uris": {"ios": "https://dc.lft.to/lastmile_qr_scan", "android": "https://dc.lft.to/lastmile_qr_scan"}, "type": "electric_scooter", "name": "d126229375b1b5e772ee55055574c760", "is_reserved": 0, "lon": -77.01994816666667, "is_disabled": 0, "fusion_lat": 0.0, "lat": 38.876051333333336, "bike_id": "d126229375b1b5e772ee55055574c760", "fusion_lon": 0.0}, {"rental_uris": {"ios": "https://dc.lft.to/lastmile_qr_scan", "android": "https://dc.lft.to/lastmile_qr_scan"}, "type": "electric_scooter", "name": "2633ba28c713712bfbfdcc41900fc22c", "is_reserved": 0, "lon": -77.0057795, "is_disabled": 0, "fusion_lat": 0.0, "lat": 38.90942783333333, "bike_id": "2633ba28c713712bfbfdcc41900fc22c", "fusion_lon": 0.0}, {"rental_uris": {"ios": "https://dc.lft.to/lastmile_qr_scan", "android": "https://dc.lft.to/lastmile_qr_scan"}, "type": "electric_scooter", "name": "a321015af1692148ab3294970617fa28", "is_reserved": 0, "lon": -77.0395985, "is_disabled": 0, "fusion_lat": 0.0, "lat": 38.893128833333336, "bike_id": "a321015af1692148ab3294970617fa28", "fusion_lon": 0.0}, {"rental_uris": {"ios": "https://dc.lft.to/lastmile_qr_scan", "android": "https://dc.lft.to/lastmile_qr_scan"}, "type": "electric_bike", "name": "721beb6cd1882138c1bf5d6657c90e3e", "is_reserved": 0, "lon": -77.12842483333333, "is_disabled": 0, "fusion_lat": 0.0, "lat": 38.800538833333334, "bike_id": "721beb6cd1882138c1bf5d6657c90e3e", "fusion_lon": 0.0}, {"rental_uris": {"ios": "https://dc.lft.to/lastmile_qr_scan", "android": "https://dc.lft.to/lastmile_qr_scan"}, "type": "electric_scooter", "name": "8afc37e08f30175cf5a3d20f00270606", "is_reserved": 0, "lon": -77.004559, "is_disabled": 0, "fusion_lat": 0.0, "lat": 38.878291, "bike_id": "8afc37e08f30175cf5a3d20f00270606", "fusion_lon": 0.0}, {"rental_uris": {"ios": "https://dc.lft.to/lastmile_qr_scan", "android": "https://dc.lft.to/lastmile_qr_scan"}, "type": "electric_scooter", "name": "347060be4f38b37c1395b684c9b9ae1f", "is_reserved": 0, "lon": -77.01875183333334, "is_disabled": 0, "fusion_lat": 0.0, "lat": 38.930561, "bike_id": "347060be4f38b37c1395b684c9b9ae1f", "fusion_lon": 0.0}, {"rental_uris": {"ios": "https://dc.lft.to/lastmile_qr_scan", "android": "https://dc.lft.to/lastmile_qr_scan"}, "type": "electric_scooter", "name": "6e690bfc3557883c26119e5991355d28", "is_reserved": 0, "lon": -77.02807483333333, "is_disabled": 0, "fusion_lat": 0.0, "lat": 38.91059633333333, "bike_id": "6e690bfc3557883c26119e5991355d28", "fusion_lon": 0.0}, {"rental_uris": {"ios": "https://dc.lft.to/lastmile_qr_scan", "android": "https://dc.lft.to/lastmile_qr_scan"}, "type": "electric_scooter", "name": "26af760f50b4bf3a4618a34c5a78636f", "is_reserved": 0, "lon": -77.038519, "is_disabled": 0, "fusion_lat": 0.0, "lat": 38.907223333333334, "bike_id": "26af760f50b4bf3a4618a34c5a78636f", "fusion_lon": 0.0}, {"rental_uris": {"ios": "https://dc.lft.to/lastmile_qr_scan", "android": "https://dc.lft.to/lastmile_qr_scan"}, "type": "electric_scooter", "name": "a1c22902c20f68d59b84157de8aa85ff", "is_reserved": 0, "lon": -77.110211, "is_disabled": 0, "fusion_lat": 0.0, "lat": 38.87714883333334, "bike_id": "a1c22902c20f68d59b84157de8aa85ff", "fusion_lon": 0.0}, {"rental_uris": {"ios": "https://dc.lft.to/lastmile_qr_scan", "android": "https://dc.lft.to/lastmile_qr_scan"}, "type": "electric_scooter", "name": "b8f2923a9e94182ba25c44f73e171e4c", "is_reserved": 0, "lon": -77.02445766666666, "is_disabled": 0, "fusion_lat": 0.0, "lat": 38.92347266666667, "bike_id": "b8f2923a9e94182ba25c44f73e171e4c", "fusion_lon": 0.0}, {"rental_uris": {"ios": "https://dc.lft.to/lastmile_qr_scan", "android": "https://dc.lft.to/lastmile_qr_scan"}, "type": "electric_scooter", "name": "ab3ff36267eadbbefd41f5f169b1d2cd", "is_reserved": 0, "lon": -77.01511233333333, "is_disabled": 0, "fusion_lat": 0.0, "lat": 38.8893495, "bike_id": "ab3ff36267eadbbefd41f5f169b1d2cd", "fusion_lon": 0.0}, {"rental_uris": {"ios": "https://dc.lft.to/lastmile_qr_scan", "android": "https://dc.lft.to/lastmile_qr_scan"}, "type": "electric_scooter", "name": "bcfa95979aa897fce56019daabb758fa", "is_reserved": 0, "lon": -77.01888416666667, "is_disabled": 0, "fusion_lat": 0.0, "lat": 38.89751483333333, "bike_id": "bcfa95979aa897fce56019daabb758fa", "fusion_lon": 0.0}, {"rental_uris": {"ios": "https://dc.lft.to/lastmile_qr_scan", "android": "https://dc.lft.to/lastmile_qr_scan"}, "type": "electric_scooter", "name": "60df6c9036e8ddb74a51a3b8c8e15a82", "is_reserved": 0, "lon": -77.03218883333334, "is_disabled": 0, "fusion_lat": 0.0, "lat": 38.909453666666664, "bike_id": "60df6c9036e8ddb74a51a3b8c8e15a82", "fusion_lon": 0.0}, {"rental_uris": {"ios": "https://dc.lft.to/lastmile_qr_scan", "android": "https://dc.lft.to/lastmile_qr_scan"}, "type": "electric_bike", "name": "03221f7c3a2964c6a2c234632aae2ad9", "is_reserved": 0, "lon": -77.036347, "is_disabled": 0, "fusion_lat": 0.0, "lat": 38.93765616666666, "bike_id": "03221f7c3a2964c6a2c234632aae2ad9", "fusion_lon": 0.0}, {"rental_uris": {"ios": "https://dc.lft.to/lastmile_qr_scan", "android": "https://dc.lft.to/lastmile_qr_scan"}, "type": "electric_scooter", "name": "1709123d9443a5a02dd288b4a2145084", "is_reserved": 0, "lon": -77.04898783333333, "is_disabled": 0, "fusion_lat": 0.0, "lat": 38.8900225, "bike_id": "1709123d9443a5a02dd288b4a2145084", "fusion_lon": 0.0}, {"rental_uris": {"ios": "https://dc.lft.to/lastmile_qr_scan", "android": "https://dc.lft.to/lastmile_qr_scan"}, "type": "electric_scooter", "name": "3d955ff064620f5a3d883e67a4d02af8", "is_reserved": 0, "lon": -77.003376, "is_disabled": 0, "fusion_lat": 0.0, "lat": 38.913345666666665, "bike_id": "3d955ff064620f5a3d883e67a4d02af8", "fusion_lon": 0.0}, {"rental_uris": {"ios": "https://dc.lft.to/lastmile_qr_scan", "android": "https://dc.lft.to/lastmile_qr_scan"}, "type": "electric_scooter", "name": "749f48da1604c4ce6d0eb44fa6645408", "is_reserved": 0, "lon": -77.0147465, "is_disabled": 0, "fusion_lat": 0.0, "lat": 38.9266975, "bike_id": "749f48da1604c4ce6d0eb44fa6645408", "fusion_lon": 0.0}, {"rental_uris": {"ios": "https://dc.lft.to/lastmile_qr_scan", "android": "https://dc.lft.to/lastmile_qr_scan"}, "type": "electric_scooter", "name": "fcf6dae3a4ff520772c5e1f1855720ad", "is_reserved": 0, "lon": -77.03192133333333, "is_disabled": 0, "fusion_lat": 0.0, "lat": 38.92125266666667, "bike_id": "fcf6dae3a4ff520772c5e1f1855720ad", "fusion_lon": 0.0}, {"rental_uris": {"ios": "https://dc.lft.to/lastmile_qr_scan", "android": "https://dc.lft.to/lastmile_qr_scan"}, "type": "electric_scooter", "name": "43d85458d4a23890f4c88c1f6ea3f32e", "is_reserved": 0, "lon": -77.03954766666666, "is_disabled": 0, "fusion_lat": 0.0, "lat": 38.90006566666667, "bike_id": "43d85458d4a23890f4c88c1f6ea3f32e", "fusion_lon": 0.0}, {"rental_uris": {"ios": "https://dc.lft.to/lastmile_qr_scan", "android": "https://dc.lft.to/lastmile_qr_scan"}, "type": "electric_scooter", "name": "519345133679b75d8e13d9ede8cca6d9", "is_reserved": 0, "lon": -77.02300883333334, "is_disabled": 0, "fusion_lat": 0.0, "lat": 38.961289666666666, "bike_id": "519345133679b75d8e13d9ede8cca6d9", "fusion_lon": 0.0}, {"rental_uris": {"ios": "https://dc.lft.to/lastmile_qr_scan", "android": "https://dc.lft.to/lastmile_qr_scan"}, "type": "electric_bike", "name": "1681d46a9cb4856c735ba91c34825368", "is_reserved": 0, "lon": -77.00207933333333, "is_disabled": 0, "fusion_lat": 0.0, "lat": 38.988483, "bike_id": "1681d46a9cb4856c735ba91c34825368", "fusion_lon": 0.0}, {"rental_uris": {"ios": "https://dc.lft.to/lastmile_qr_scan", "android": "https://dc.lft.to/lastmile_qr_scan"}, "type": "electric_scooter", "name": "0cf69a0dc8fe41f4d59eb6ee1ae3744d", "is_reserved": 0, "lon": -77.013898, "is_disabled": 0, "fusion_lat": 0.0, "lat": 38.8789565, "bike_id": "0cf69a0dc8fe41f4d59eb6ee1ae3744d", "fusion_lon": 0.0}, {"rental_uris": {"ios": "https://dc.lft.to/lastmile_qr_scan", "android": "https://dc.lft.to/lastmile_qr_scan"}, "type": "electric_scooter", "name": "76aad531daf05409133c1150e64b5323", "is_reserved": 0, "lon": -77.006076, "is_disabled": 0, "fusion_lat": 0.0, "lat": 38.875723666666666, "bike_id": "76aad531daf05409133c1150e64b5323", "fusion_lon": 0.0}, {"rental_uris": {"ios": "https://dc.lft.to/lastmile_qr_scan", "android": "https://dc.lft.to/lastmile_qr_scan"}, "type": "electric_scooter", "name": "f8c2e25254adc199ccd36df7ed5f0c0a", "is_reserved": 0, "lon": -77.0337645, "is_disabled": 0, "fusion_lat": 0.0, "lat": 38.910276, "bike_id": "f8c2e25254adc199ccd36df7ed5f0c0a", "fusion_lon": 0.0}, {"rental_uris": {"ios": "https://dc.lft.to/lastmile_qr_scan", "android": "https://dc.lft.to/lastmile_qr_scan"}, "type": "electric_scooter", "name": "e685dba5959022f0839b06741e16d2ab", "is_reserved": 0, "lon": -77.02952833333333, "is_disabled": 0, "fusion_lat": 0.0, "lat": 38.90426316666667, "bike_id": "e685dba5959022f0839b06741e16d2ab", "fusion_lon": 0.0}, {"rental_uris": {"ios": "https://dc.lft.to/lastmile_qr_scan", "android": "https://dc.lft.to/lastmile_qr_scan"}, "type": "electric_bike", "name": "1365e94b797b45f4d6bfd2ab1349af15", "is_reserved": 0, "lon": -77.03703916666667, "is_disabled": 0, "fusion_lat": 0.0, "lat": 38.93553333333333, "bike_id": "1365e94b797b45f4d6bfd2ab1349af15", "fusion_lon": 0.0}, {"rental_uris": {"ios": "https://dc.lft.to/lastmile_qr_scan", "android": "https://dc.lft.to/lastmile_qr_scan"}, "type": "electric_scooter", "name": "8e64ba96f74f79bcb080064f6cf4e6ac", "is_reserved": 0, "lon": -77.02814633333334, "is_disabled": 0, "fusion_lat": 0.0, "lat": 38.956424166666665, "bike_id": "8e64ba96f74f79bcb080064f6cf4e6ac", "fusion_lon": 0.0}, {"rental_uris": {"ios": "https://dc.lft.to/lastmile_qr_scan", "android": "https://dc.lft.to/lastmile_qr_scan"}, "type": "electric_scooter", "name": "7e098abfa83776602115dd602c63e8c9", "is_reserved": 0, "lon": -77.0537435, "is_disabled": 0, "fusion_lat": 0.0, "lat": 38.90382366666667, "bike_id": "7e098abfa83776602115dd602c63e8c9", "fusion_lon": 0.0}, {"rental_uris": {"ios": "https://dc.lft.to/lastmile_qr_scan", "android": "https://dc.lft.to/lastmile_qr_scan"}, "type": "electric_scooter", "name": "5c08ce9f21f434f3150722d36c72dc62", "is_reserved": 0, "lon": -77.04291866666667, "is_disabled": 0, "fusion_lat": 0.0, "lat": 38.91111866666667, "bike_id": "5c08ce9f21f434f3150722d36c72dc62", "fusion_lon": 0.0}, {"rental_uris": {"ios": "https://dc.lft.to/lastmile_qr_scan", "android": "https://dc.lft.to/lastmile_qr_scan"}, "type": "electric_bike", "name": "40ddea058a21a61d939cd365c16bfda1", "is_reserved": 0, "lon": -76.9732245, "is_disabled": 0, "fusion_lat": 0.0, "lat": 38.857821333333334, "bike_id": "40ddea058a21a61d939cd365c16bfda1", "fusion_lon": 0.0}, {"rental_uris": {"ios": "https://dc.lft.to/lastmile_qr_scan", "android": "https://dc.lft.to/lastmile_qr_scan"}, "type": "electric_scooter", "name": "594de4c82d4cef6af0de02ac43dda844", "is_reserved": 0, "lon": -77.07213116666667, "is_disabled": 0, "fusion_lat": 0.0, "lat": 38.90681766666667, "bike_id": "594de4c82d4cef6af0de02ac43dda844", "fusion_lon": 0.0}, {"rental_uris": {"ios": "https://dc.lft.to/lastmile_qr_scan", "android": "https://dc.lft.to/lastmile_qr_scan"}, "type": "electric_scooter", "name": "8c93b0bad17f46b5ea0d74b7df1376c1", "is_reserved": 0, "lon": -77.01705483333333, "is_disabled": 0, "fusion_lat": 0.0, "lat": 38.904691666666665, "bike_id": "8c93b0bad17f46b5ea0d74b7df1376c1", "fusion_lon": 0.0}, {"rental_uris": {"ios": "https://dc.lft.to/lastmile_qr_scan", "android": "https://dc.lft.to/lastmile_qr_scan"}, "type": "electric_scooter", "name": "8eb27893dcddaa71efeeb6278908bcd3", "is_reserved": 0, "lon": -77.04487516666667, "is_disabled": 0, "fusion_lat": 0.0, "lat": 38.9135705, "bike_id": "8eb27893dcddaa71efeeb6278908bcd3", "fusion_lon": 0.0}, {"rental_uris": {"ios": "https://dc.lft.to/lastmile_qr_scan", "android": "https://dc.lft.to/lastmile_qr_scan"}, "type": "electric_scooter", "name": "94622b40014cf2460986bec30ef5a432", "is_reserved": 0, "lon": -76.98721066666667, "is_disabled": 0, "fusion_lat": 0.0, "lat": 38.90981583333333, "bike_id": "94622b40014cf2460986bec30ef5a432", "fusion_lon": 0.0}, {"rental_uris": {"ios": "https://dc.lft.to/lastmile_qr_scan", "android": "https://dc.lft.to/lastmile_qr_scan"}, "type": "electric_scooter", "name": "f411bd58fac1e3e48bda9fa5e65a2df3", "is_reserved": 0, "lon": -77.01641783333334, "is_disabled": 0, "fusion_lat": 0.0, "lat": 38.929384666666664, "bike_id": "f411bd58fac1e3e48bda9fa5e65a2df3", "fusion_lon": 0.0}, {"rental_uris": {"ios": "https://dc.lft.to/lastmile_qr_scan", "android": "https://dc.lft.to/lastmile_qr_scan"}, "type": "electric_scooter", "name": "f72e2412b0a4910c4b741d879c3d80e4", "is_reserved": 0, "lon": -77.03230483333333, "is_disabled": 0, "fusion_lat": 0.0, "lat": 38.91709483333333, "bike_id": "f72e2412b0a4910c4b741d879c3d80e4", "fusion_lon": 0.0}, {"rental_uris": {"ios": "https://dc.lft.to/lastmile_qr_scan", "android": "https://dc.lft.to/lastmile_qr_scan"}, "type": "electric_scooter", "name": "3a69121257a8e0823fcd73e3056ab6c8", "is_reserved": 0, "lon": -76.98363083333334, "is_disabled": 0, "fusion_lat": 0.0, "lat": 38.887342833333335, "bike_id": "3a69121257a8e0823fcd73e3056ab6c8", "fusion_lon": 0.0}, {"rental_uris": {"ios": "https://dc.lft.to/lastmile_qr_scan", "android": "https://dc.lft.to/lastmile_qr_scan"}, "type": "electric_scooter", "name": "925e3c5a906fc789afc545dd990c9aef", "is_reserved": 0, "lon": -76.92309466666667, "is_disabled": 0, "fusion_lat": 0.0, "lat": 38.893857833333335, "bike_id": "925e3c5a906fc789afc545dd990c9aef", "fusion_lon": 0.0}, {"rental_uris": {"ios": "https://dc.lft.to/lastmile_qr_scan", "android": "https://dc.lft.to/lastmile_qr_scan"}, "type": "electric_scooter", "name": "aa7b97b6c5850216616778591ce3706c", "is_reserved": 0, "lon": -77.03416316666667, "is_disabled": 0, "fusion_lat": 0.0, "lat": 38.901368, "bike_id": "aa7b97b6c5850216616778591ce3706c", "fusion_lon": 0.0}, {"rental_uris": {"ios": "https://dc.lft.to/lastmile_qr_scan", "android": "https://dc.lft.to/lastmile_qr_scan"}, "type": "electric_scooter", "name": "9fdf6e3fef8f13fe07912c1328e902db", "is_reserved": 0, "lon": -77.036874, "is_disabled": 0, "fusion_lat": 0.0, "lat": 38.916775333333334, "bike_id": "9fdf6e3fef8f13fe07912c1328e902db", "fusion_lon": 0.0}, {"rental_uris": {"ios": "https://dc.lft.to/lastmile_qr_scan", "android": "https://dc.lft.to/lastmile_qr_scan"}, "type": "electric_scooter", "name": "fc18877d00961f4da09168d50d9471a0", "is_reserved": 0, "lon": -77.06381683333333, "is_disabled": 0, "fusion_lat": 0.0, "lat": 38.90525133333333, "bike_id": "fc18877d00961f4da09168d50d9471a0", "fusion_lon": 0.0}, {"rental_uris": {"ios": "https://dc.lft.to/lastmile_qr_scan", "android": "https://dc.lft.to/lastmile_qr_scan"}, "type": "electric_bike", "name": "069c436a86b9121e55ae7a232aec9cdf", "is_reserved": 0, "lon": -77.23181183333334, "is_disabled": 0, "fusion_lat": 0.0, "lat": 38.92895516666667, "bike_id": "069c436a86b9121e55ae7a232aec9cdf", "fusion_lon": 0.0}, {"rental_uris": {"ios": "https://dc.lft.to/lastmile_qr_scan", "android": "https://dc.lft.to/lastmile_qr_scan"}, "type": "electric_bike", "name": "4eb3340f45d70f7de19750538f06d5ae", "is_reserved": 0, "lon": -77.079114, "is_disabled": 0, "fusion_lat": 0.0, "lat": 38.83938766666667, "bike_id": "4eb3340f45d70f7de19750538f06d5ae", "fusion_lon": 0.0}, {"rental_uris": {"ios": "https://dc.lft.to/lastmile_qr_scan", "android": "https://dc.lft.to/lastmile_qr_scan"}, "type": "electric_bike", "name": "a158d12a23429668215cc17709d273c2", "is_reserved": 0, "lon": -77.1029225, "is_disabled": 0, "fusion_lat": 0.0, "lat": 38.85253216666667, "bike_id": "a158d12a23429668215cc17709d273c2", "fusion_lon": 0.0}, {"rental_uris": {"ios": "https://dc.lft.to/lastmile_qr_scan", "android": "https://dc.lft.to/lastmile_qr_scan"}, "type": "electric_bike", "name": "d5ea231f286955fb539924348931ed04", "is_reserved": 0, "lon": -76.97964, "is_disabled": 0, "fusion_lat": 0.0, "lat": 38.920379, "bike_id": "d5ea231f286955fb539924348931ed04", "fusion_lon": 0.0}, {"rental_uris": {"ios": "https://dc.lft.to/lastmile_qr_scan", "android": "https://dc.lft.to/lastmile_qr_scan"}, "type": "electric_scooter", "name": "70b03499928c1fe43b465c0343588537", "is_reserved": 0, "lon": -77.01499833333334, "is_disabled": 0, "fusion_lat": 0.0, "lat": 38.90655616666667, "bike_id": "70b03499928c1fe43b465c0343588537", "fusion_lon": 0.0}, {"rental_uris": {"ios": "https://dc.lft.to/lastmile_qr_scan", "android": "https://dc.lft.to/lastmile_qr_scan"}, "type": "electric_scooter", "name": "7e7e3f51aed2962423877e0ddefd17a4", "is_reserved": 0, "lon": -76.9464085, "is_disabled": 0, "fusion_lat": 0.0, "lat": 38.898678, "bike_id": "7e7e3f51aed2962423877e0ddefd17a4", "fusion_lon": 0.0}, {"rental_uris": {"ios": "https://dc.lft.to/lastmile_qr_scan", "android": "https://dc.lft.to/lastmile_qr_scan"}, "type": "electric_scooter", "name": "36b60aad3f09c096dffb81ba50023a2c", "is_reserved": 0, "lon": -77.00590233333334, "is_disabled": 0, "fusion_lat": 0.0, "lat": 38.87650516666667, "bike_id": "36b60aad3f09c096dffb81ba50023a2c", "fusion_lon": 0.0}, {"rental_uris": {"ios": "https://dc.lft.to/lastmile_qr_scan", "android": "https://dc.lft.to/lastmile_qr_scan"}, "type": "electric_scooter", "name": "1fdb498d9dfb918acad79de9001b47e2", "is_reserved": 0, "lon": -77.0200515, "is_disabled": 0, "fusion_lat": 0.0, "lat": 38.928045166666664, "bike_id": "1fdb498d9dfb918acad79de9001b47e2", "fusion_lon": 0.0}, {"rental_uris": {"ios": "https://dc.lft.to/lastmile_qr_scan", "android": "https://dc.lft.to/lastmile_qr_scan"}, "type": "electric_scooter", "name": "1dd9fe7975ee3861c18002bf82bee0e0", "is_reserved": 0, "lon": -77.0269765, "is_disabled": 0, "fusion_lat": 0.0, "lat": 38.906038333333335, "bike_id": "1dd9fe7975ee3861c18002bf82bee0e0", "fusion_lon": 0.0}, {"rental_uris": {"ios": "https://dc.lft.to/lastmile_qr_scan", "android": "https://dc.lft.to/lastmile_qr_scan"}, "type": "electric_scooter", "name": "81234a4cfbe9ac02bad362013d7d05c3", "is_reserved": 0, "lon": -77.02575133333333, "is_disabled": 0, "fusion_lat": 0.0, "lat": 38.9484995, "bike_id": "81234a4cfbe9ac02bad362013d7d05c3", "fusion_lon": 0.0}, {"rental_uris": {"ios": "https://dc.lft.to/lastmile_qr_scan", "android": "https://dc.lft.to/lastmile_qr_scan"}, "type": "electric_bike", "name": "1ce4a6e1e871e2adfcb046b5b0357fcb", "is_reserved": 0, "lon": -76.95253033333333, "is_disabled": 0, "fusion_lat": 0.0, "lat": 38.9070245, "bike_id": "1ce4a6e1e871e2adfcb046b5b0357fcb", "fusion_lon": 0.0}, {"rental_uris": {"ios": "https://dc.lft.to/lastmile_qr_scan", "android": "https://dc.lft.to/lastmile_qr_scan"}, "type": "electric_scooter", "name": "b14186276af3a65b8f81272ab2eed6ae", "is_reserved": 0, "lon": -77.03281483333333, "is_disabled": 0, "fusion_lat": 0.0, "lat": 38.932512333333335, "bike_id": "b14186276af3a65b8f81272ab2eed6ae", "fusion_lon": 0.0}, {"rental_uris": {"ios": "https://dc.lft.to/lastmile_qr_scan", "android": "https://dc.lft.to/lastmile_qr_scan"}, "type": "electric_scooter", "name": "f44f35d85681000704949848d14f4400", "is_reserved": 0, "lon": -77.00626966666667, "is_disabled": 0, "fusion_lat": 0.0, "lat": 38.871757, "bike_id": "f44f35d85681000704949848d14f4400", "fusion_lon": 0.0}, {"rental_uris": {"ios": "https://dc.lft.to/lastmile_qr_scan", "android": "https://dc.lft.to/lastmile_qr_scan"}, "type": "electric_scooter", "name": "1e602158bd09354fc1819c0843da216c", "is_reserved": 0, "lon": -77.03585283333334, "is_disabled": 0, "fusion_lat": 0.0, "lat": 38.92783516666667, "bike_id": "1e602158bd09354fc1819c0843da216c", "fusion_lon": 0.0}, {"rental_uris": {"ios": "https://dc.lft.to/lastmile_qr_scan", "android": "https://dc.lft.to/lastmile_qr_scan"}, "type": "electric_scooter", "name": "e57494ebe8dc8e3d80b38a802d19820f", "is_reserved": 0, "lon": -76.97960116666667, "is_disabled": 0, "fusion_lat": 0.0, "lat": 38.897900166666666, "bike_id": "e57494ebe8dc8e3d80b38a802d19820f", "fusion_lon": 0.0}, {"rental_uris": {"ios": "https://dc.lft.to/lastmile_qr_scan", "android": "https://dc.lft.to/lastmile_qr_scan"}, "type": "electric_scooter", "name": "2382f4a1967c03ce781c5ea8d7b08f04", "is_reserved": 0, "lon": -77.02257983333334, "is_disabled": 0, "fusion_lat": 0.0, "lat": 38.899915, "bike_id": "2382f4a1967c03ce781c5ea8d7b08f04", "fusion_lon": 0.0}, {"rental_uris": {"ios": "https://dc.lft.to/lastmile_qr_scan", "android": "https://dc.lft.to/lastmile_qr_scan"}, "type": "electric_scooter", "name": "4303637ad35256577063b49084e6d5d8", "is_reserved": 0, "lon": -77.03185133333334, "is_disabled": 0, "fusion_lat": 0.0, "lat": 38.915699833333335, "bike_id": "4303637ad35256577063b49084e6d5d8", "fusion_lon": 0.0}, {"rental_uris": {"ios": "https://dc.lft.to/lastmile_qr_scan", "android": "https://dc.lft.to/lastmile_qr_scan"}, "type": "electric_scooter", "name": "6193343e568b39a34ad8cf7eed4d5270", "is_reserved": 0, "lon": -77.0139115, "is_disabled": 0, "fusion_lat": 0.0, "lat": 38.9110445, "bike_id": "6193343e568b39a34ad8cf7eed4d5270", "fusion_lon": 0.0}, {"rental_uris": {"ios": "https://dc.lft.to/lastmile_qr_scan", "android": "https://dc.lft.to/lastmile_qr_scan"}, "type": "electric_bike", "name": "4c9aed687a0c55f2fd92fe204c9bc4f8", "is_reserved": 0, "lon": -77.12978, "is_disabled": 0, "fusion_lat": 0.0, "lat": 38.7998665, "bike_id": "4c9aed687a0c55f2fd92fe204c9bc4f8", "fusion_lon": 0.0}, {"rental_uris": {"ios": "https://dc.lft.to/lastmile_qr_scan", "android": "https://dc.lft.to/lastmile_qr_scan"}, "type": "electric_scooter", "name": "09bd8a43dfd3a59e14b4a5c5d2c21051", "is_reserved": 0, "lon": -77.02416983333333, "is_disabled": 0, "fusion_lat": 0.0, "lat": 38.905630333333335, "bike_id": "09bd8a43dfd3a59e14b4a5c5d2c21051", "fusion_lon": 0.0}, {"rental_uris": {"ios": "https://dc.lft.to/lastmile_qr_scan", "android": "https://dc.lft.to/lastmile_qr_scan"}, "type": "electric_scooter", "name": "481245804ddce2f5a9b2c3396e6a7c34", "is_reserved": 0, "lon": -76.9880375, "is_disabled": 0, "fusion_lat": 0.0, "lat": 38.89363983333333, "bike_id": "481245804ddce2f5a9b2c3396e6a7c34", "fusion_lon": 0.0}, {"rental_uris": {"ios": "https://dc.lft.to/lastmile_qr_scan", "android": "https://dc.lft.to/lastmile_qr_scan"}, "type": "electric_bike", "name": "cd053b115f47adb8f6a6967db4ec62c4", "is_reserved": 0, "lon": -77.028264, "is_disabled": 0, "fusion_lat": 0.0, "lat": 38.94517883333333, "bike_id": "cd053b115f47adb8f6a6967db4ec62c4", "fusion_lon": 0.0}, {"rental_uris": {"ios": "https://dc.lft.to/lastmile_qr_scan", "android": "https://dc.lft.to/lastmile_qr_scan"}, "type": "electric_scooter", "name": "07506d0c462f6dd60261be0ecfc9801e", "is_reserved": 0, "lon": -77.05321666666667, "is_disabled": 0, "fusion_lat": 0.0, "lat": 38.90644483333333, "bike_id": "07506d0c462f6dd60261be0ecfc9801e", "fusion_lon": 0.0}, {"rental_uris": {"ios": "https://dc.lft.to/lastmile_qr_scan", "android": "https://dc.lft.to/lastmile_qr_scan"}, "type": "electric_bike", "name": "00af8bfc834f86eae967c15e617cbe6c", "is_reserved": 0, "lon": -77.04648633333333, "is_disabled": 0, "fusion_lat": 0.0, "lat": 38.81548516666667, "bike_id": "00af8bfc834f86eae967c15e617cbe6c", "fusion_lon": 0.0}, {"rental_uris": {"ios": "https://dc.lft.to/lastmile_qr_scan", "android": "https://dc.lft.to/lastmile_qr_scan"}, "type": "electric_scooter", "name": "bb663f5c2c04b0e821498f1c72cb9bd4", "is_reserved": 0, "lon": -77.06376316666666, "is_disabled": 0, "fusion_lat": 0.0, "lat": 38.935591, "bike_id": "bb663f5c2c04b0e821498f1c72cb9bd4", "fusion_lon": 0.0}, {"rental_uris": {"ios": "https://dc.lft.to/lastmile_qr_scan", "android": "https://dc.lft.to/lastmile_qr_scan"}, "type": "electric_scooter", "name": "33daa980dc5d6b8ec621b776bfa6b5e5", "is_reserved": 0, "lon": -77.03657666666666, "is_disabled": 0, "fusion_lat": 0.0, "lat": 38.94180166666666, "bike_id": "33daa980dc5d6b8ec621b776bfa6b5e5", "fusion_lon": 0.0}, {"rental_uris": {"ios": "https://dc.lft.to/lastmile_qr_scan", "android": "https://dc.lft.to/lastmile_qr_scan"}, "type": "electric_scooter", "name": "0a6e063dd077ab0b6c437714aa809ac0", "is_reserved": 0, "lon": -77.03829116666667, "is_disabled": 0, "fusion_lat": 0.0, "lat": 38.92169416666667, "bike_id": "0a6e063dd077ab0b6c437714aa809ac0", "fusion_lon": 0.0}, {"rental_uris": {"ios": "https://dc.lft.to/lastmile_qr_scan", "android": "https://dc.lft.to/lastmile_qr_scan"}, "type": "electric_scooter", "name": "0630ea9cda0e7c6b5e316afd3802fc3d", "is_reserved": 0, "lon": -77.00526866666667, "is_disabled": 0, "fusion_lat": 0.0, "lat": 38.876445833333335, "bike_id": "0630ea9cda0e7c6b5e316afd3802fc3d", "fusion_lon": 0.0}, {"rental_uris": {"ios": "https://dc.lft.to/lastmile_qr_scan", "android": "https://dc.lft.to/lastmile_qr_scan"}, "type": "electric_scooter", "name": "2a9502deb37be199c3cc8278f6d3ef7d", "is_reserved": 0, "lon": -77.04080866666666, "is_disabled": 0, "fusion_lat": 0.0, "lat": 38.947867, "bike_id": "2a9502deb37be199c3cc8278f6d3ef7d", "fusion_lon": 0.0}, {"rental_uris": {"ios": "https://dc.lft.to/lastmile_qr_scan", "android": "https://dc.lft.to/lastmile_qr_scan"}, "type": "electric_bike", "name": "f38a51ddbb11cf072ad934bc0957041f", "is_reserved": 0, "lon": -76.980219, "is_disabled": 0, "fusion_lat": 0.0, "lat": 38.85311016666667, "bike_id": "f38a51ddbb11cf072ad934bc0957041f", "fusion_lon": 0.0}, {"rental_uris": {"ios": "https://dc.lft.to/lastmile_qr_scan", "android": "https://dc.lft.to/lastmile_qr_scan"}, "type": "electric_scooter", "name": "5126e98b9dbd69658a58961a67cf255f", "is_reserved": 0, "lon": -77.032203, "is_disabled": 0, "fusion_lat": 0.0, "lat": 38.91187633333333, "bike_id": "5126e98b9dbd69658a58961a67cf255f", "fusion_lon": 0.0}, {"rental_uris": {"ios": "https://dc.lft.to/lastmile_qr_scan", "android": "https://dc.lft.to/lastmile_qr_scan"}, "type": "electric_scooter", "name": "dfdb472194d963280ad89f3f0b2a497c", "is_reserved": 0, "lon": -77.06101033333333, "is_disabled": 0, "fusion_lat": 0.0, "lat": 38.90526083333334, "bike_id": "dfdb472194d963280ad89f3f0b2a497c", "fusion_lon": 0.0}, {"rental_uris": {"ios": "https://dc.lft.to/lastmile_qr_scan", "android": "https://dc.lft.to/lastmile_qr_scan"}, "type": "electric_scooter", "name": "adbf84b5e24cf31b75332d0ef16ae28b", "is_reserved": 0, "lon": -77.02100733333333, "is_disabled": 0, "fusion_lat": 0.0, "lat": 38.93262083333333, "bike_id": "adbf84b5e24cf31b75332d0ef16ae28b", "fusion_lon": 0.0}, {"rental_uris": {"ios": "https://dc.lft.to/lastmile_qr_scan", "android": "https://dc.lft.to/lastmile_qr_scan"}, "type": "electric_scooter", "name": "67b84489f28ac8edc6d24990df819c9b", "is_reserved": 0, "lon": -76.98156033333333, "is_disabled": 0, "fusion_lat": 0.0, "lat": 38.89939366666667, "bike_id": "67b84489f28ac8edc6d24990df819c9b", "fusion_lon": 0.0}, {"rental_uris": {"ios": "https://dc.lft.to/lastmile_qr_scan", "android": "https://dc.lft.to/lastmile_qr_scan"}, "type": "electric_scooter", "name": "b91a7ecc7c133215bde3c77b124b8ee7", "is_reserved": 0, "lon": -77.03265366666666, "is_disabled": 0, "fusion_lat": 0.0, "lat": 38.9126925, "bike_id": "b91a7ecc7c133215bde3c77b124b8ee7", "fusion_lon": 0.0}, {"rental_uris": {"ios": "https://dc.lft.to/lastmile_qr_scan", "android": "https://dc.lft.to/lastmile_qr_scan"}, "type": "electric_scooter", "name": "bc679f14cf9621d5192626f4c0ffd987", "is_reserved": 0, "lon": -77.021476, "is_disabled": 0, "fusion_lat": 0.0, "lat": 38.903037833333336, "bike_id": "bc679f14cf9621d5192626f4c0ffd987", "fusion_lon": 0.0}, {"rental_uris": {"ios": "https://dc.lft.to/lastmile_qr_scan", "android": "https://dc.lft.to/lastmile_qr_scan"}, "type": "electric_bike", "name": "2ff75d95e547d9bac1a38261cfc1ce6d", "is_reserved": 0, "lon": -76.990757, "is_disabled": 0, "fusion_lat": 0.0, "lat": 38.898176166666666, "bike_id": "2ff75d95e547d9bac1a38261cfc1ce6d", "fusion_lon": 0.0}, {"rental_uris": {"ios": "https://dc.lft.to/lastmile_qr_scan", "android": "https://dc.lft.to/lastmile_qr_scan"}, "type": "electric_bike", "name": "8e402cf466723a2e3941cc8b4a2d7e9d", "is_reserved": 0, "lon": -76.9824635, "is_disabled": 0, "fusion_lat": 0.0, "lat": 38.952437333333336, "bike_id": "8e402cf466723a2e3941cc8b4a2d7e9d", "fusion_lon": 0.0}, {"rental_uris": {"ios": "https://dc.lft.to/lastmile_qr_scan", "android": "https://dc.lft.to/lastmile_qr_scan"}, "type": "electric_scooter", "name": "7fc011b7155ce0be710137e91d241490", "is_reserved": 0, "lon": -77.029601, "is_disabled": 0, "fusion_lat": 0.0, "lat": 38.9252375, "bike_id": "7fc011b7155ce0be710137e91d241490", "fusion_lon": 0.0}, {"rental_uris": {"ios": "https://dc.lft.to/lastmile_qr_scan", "android": "https://dc.lft.to/lastmile_qr_scan"}, "type": "electric_scooter", "name": "bd0e0c5f4b097b5395df278e94ece80e", "is_reserved": 0, "lon": -77.04217783333333, "is_disabled": 0, "fusion_lat": 0.0, "lat": 38.92124883333334, "bike_id": "bd0e0c5f4b097b5395df278e94ece80e", "fusion_lon": 0.0}, {"rental_uris": {"ios": "https://dc.lft.to/lastmile_qr_scan", "android": "https://dc.lft.to/lastmile_qr_scan"}, "type": "electric_scooter", "name": "7b6a7dcdebedc4ae8c63c13c47b68426", "is_reserved": 0, "lon": -77.04405, "is_disabled": 0, "fusion_lat": 0.0, "lat": 38.895922, "bike_id": "7b6a7dcdebedc4ae8c63c13c47b68426", "fusion_lon": 0.0}, {"rental_uris": {"ios": "https://dc.lft.to/lastmile_qr_scan", "android": "https://dc.lft.to/lastmile_qr_scan"}, "type": "electric_scooter", "name": "6a1135eaa6934818fe2cb8a0f451d9e1", "is_reserved": 0, "lon": -76.92924983333333, "is_disabled": 0, "fusion_lat": 0.0, "lat": 38.8920445, "bike_id": "6a1135eaa6934818fe2cb8a0f451d9e1", "fusion_lon": 0.0}, {"rental_uris": {"ios": "https://dc.lft.to/lastmile_qr_scan", "android": "https://dc.lft.to/lastmile_qr_scan"}, "type": "electric_bike", "name": "8ff684e048a140db434905e03d4a58ac", "is_reserved": 0, "lon": -77.0945845, "is_disabled": 0, "fusion_lat": 0.0, "lat": 38.8075515, "bike_id": "8ff684e048a140db434905e03d4a58ac", "fusion_lon": 0.0}, {"rental_uris": {"ios": "https://dc.lft.to/lastmile_qr_scan", "android": "https://dc.lft.to/lastmile_qr_scan"}, "type": "electric_scooter", "name": "0872faf17855511e5499980e2da77302", "is_reserved": 0, "lon": -77.0137855, "is_disabled": 0, "fusion_lat": 0.0, "lat": 38.898273, "bike_id": "0872faf17855511e5499980e2da77302", "fusion_lon": 0.0}, {"rental_uris": {"ios": "https://dc.lft.to/lastmile_qr_scan", "android": "https://dc.lft.to/lastmile_qr_scan"}, "type": "electric_bike", "name": "63193c1c1f1926565ff521e1a88a6e0c", "is_reserved": 0, "lon": -77.07284866666667, "is_disabled": 0, "fusion_lat": 0.0, "lat": 38.91764033333333, "bike_id": "63193c1c1f1926565ff521e1a88a6e0c", "fusion_lon": 0.0}, {"rental_uris": {"ios": "https://dc.lft.to/lastmile_qr_scan", "android": "https://dc.lft.to/lastmile_qr_scan"}, "type": "electric_bike", "name": "0071001b4a5764cb8215522c9300379e", "is_reserved": 0, "lon": -77.08569483333333, "is_disabled": 0, "fusion_lat": 0.0, "lat": 38.8742295, "bike_id": "0071001b4a5764cb8215522c9300379e", "fusion_lon": 0.0}, {"rental_uris": {"ios": "https://dc.lft.to/lastmile_qr_scan", "android": "https://dc.lft.to/lastmile_qr_scan"}, "type": "electric_scooter", "name": "6abf82c77463d155329d3c8ce71624af", "is_reserved": 0, "lon": -77.01753733333334, "is_disabled": 0, "fusion_lat": 0.0, "lat": 38.8771715, "bike_id": "6abf82c77463d155329d3c8ce71624af", "fusion_lon": 0.0}, {"rental_uris": {"ios": "https://dc.lft.to/lastmile_qr_scan", "android": "https://dc.lft.to/lastmile_qr_scan"}, "type": "electric_scooter", "name": "579fb417b0b366b99854ead15dfd1a44", "is_reserved": 0, "lon": -77.0198155, "is_disabled": 0, "fusion_lat": 0.0, "lat": 38.905070333333335, "bike_id": "579fb417b0b366b99854ead15dfd1a44", "fusion_lon": 0.0}, {"rental_uris": {"ios": "https://dc.lft.to/lastmile_qr_scan", "android": "https://dc.lft.to/lastmile_qr_scan"}, "type": "electric_scooter", "name": "f88f0c79dd04c0e0c2e12471827a5095", "is_reserved": 0, "lon": -77.0543505, "is_disabled": 0, "fusion_lat": 0.0, "lat": 38.9235345, "bike_id": "f88f0c79dd04c0e0c2e12471827a5095", "fusion_lon": 0.0}, {"rental_uris": {"ios": "https://dc.lft.to/lastmile_qr_scan", "android": "https://dc.lft.to/lastmile_qr_scan"}, "type": "electric_scooter", "name": "1dbede15a75ce36acbe3cf7ac0d662ef", "is_reserved": 0, "lon": -77.0211, "is_disabled": 0, "fusion_lat": 0.0, "lat": 38.909377666666664, "bike_id": "1dbede15a75ce36acbe3cf7ac0d662ef", "fusion_lon": 0.0}, {"rental_uris": {"ios": "https://dc.lft.to/lastmile_qr_scan", "android": "https://dc.lft.to/lastmile_qr_scan"}, "type": "electric_scooter", "name": "bd23805b1c74f7c0d18d662c0289f1fd", "is_reserved": 0, "lon": -77.03814416666667, "is_disabled": 0, "fusion_lat": 0.0, "lat": 38.91408333333333, "bike_id": "bd23805b1c74f7c0d18d662c0289f1fd", "fusion_lon": 0.0}, {"rental_uris": {"ios": "https://dc.lft.to/lastmile_qr_scan", "android": "https://dc.lft.to/lastmile_qr_scan"}, "type": "electric_scooter", "name": "5041c547b6ed3dd05c61651d9a0b0a0d", "is_reserved": 0, "lon": -77.03185316666666, "is_disabled": 0, "fusion_lat": 0.0, "lat": 38.91581016666667, "bike_id": "5041c547b6ed3dd05c61651d9a0b0a0d", "fusion_lon": 0.0}, {"rental_uris": {"ios": "https://dc.lft.to/lastmile_qr_scan", "android": "https://dc.lft.to/lastmile_qr_scan"}, "type": "electric_scooter", "name": "70f76e1d2f1fcfff7e791de82530db40", "is_reserved": 0, "lon": -77.02202916666667, "is_disabled": 0, "fusion_lat": 0.0, "lat": 38.951537333333334, "bike_id": "70f76e1d2f1fcfff7e791de82530db40", "fusion_lon": 0.0}, {"rental_uris": {"ios": "https://dc.lft.to/lastmile_qr_scan", "android": "https://dc.lft.to/lastmile_qr_scan"}, "type": "electric_scooter", "name": "74f246e3bf7c472d722c149f1c0f1e0f", "is_reserved": 0, "lon": -76.9721135, "is_disabled": 0, "fusion_lat": 0.0, "lat": 38.91718816666667, "bike_id": "74f246e3bf7c472d722c149f1c0f1e0f", "fusion_lon": 0.0}, {"rental_uris": {"ios": "https://dc.lft.to/lastmile_qr_scan", "android": "https://dc.lft.to/lastmile_qr_scan"}, "type": "electric_scooter", "name": "cad0905d5b6ceb68f6fc5523d9842132", "is_reserved": 0, "lon": -77.03016433333333, "is_disabled": 0, "fusion_lat": 0.0, "lat": 38.9089905, "bike_id": "cad0905d5b6ceb68f6fc5523d9842132", "fusion_lon": 0.0}, {"rental_uris": {"ios": "https://dc.lft.to/lastmile_qr_scan", "android": "https://dc.lft.to/lastmile_qr_scan"}, "type": "electric_scooter", "name": "fea23b40649498ef54de1f79c76202cf", "is_reserved": 0, "lon": -77.03660366666666, "is_disabled": 0, "fusion_lat": 0.0, "lat": 38.92116683333333, "bike_id": "fea23b40649498ef54de1f79c76202cf", "fusion_lon": 0.0}, {"rental_uris": {"ios": "https://dc.lft.to/lastmile_qr_scan", "android": "https://dc.lft.to/lastmile_qr_scan"}, "type": "electric_scooter", "name": "5c28d59285b3209b8afa2f1a36d347ed", "is_reserved": 0, "lon": -76.93396183333333, "is_disabled": 0, "fusion_lat": 0.0, "lat": 38.8991325, "bike_id": "5c28d59285b3209b8afa2f1a36d347ed", "fusion_lon": 0.0}, {"rental_uris": {"ios": "https://dc.lft.to/lastmile_qr_scan", "android": "https://dc.lft.to/lastmile_qr_scan"}, "type": "electric_scooter", "name": "5e0155df2e178bf25082976eeb01356f", "is_reserved": 0, "lon": -76.940699, "is_disabled": 0, "fusion_lat": 0.0, "lat": 38.885879833333334, "bike_id": "5e0155df2e178bf25082976eeb01356f", "fusion_lon": 0.0}, {"rental_uris": {"ios": "https://dc.lft.to/lastmile_qr_scan", "android": "https://dc.lft.to/lastmile_qr_scan"}, "type": "electric_scooter", "name": "e32e84cab9049eba3203e318c6f794d3", "is_reserved": 0, "lon": -76.99505733333334, "is_disabled": 0, "fusion_lat": 0.0, "lat": 38.909793666666666, "bike_id": "e32e84cab9049eba3203e318c6f794d3", "fusion_lon": 0.0}, {"rental_uris": {"ios": "https://dc.lft.to/lastmile_qr_scan", "android": "https://dc.lft.to/lastmile_qr_scan"}, "type": "electric_scooter", "name": "9e3cbb7f8d5c3319e743af2bb5b355c3", "is_reserved": 0, "lon": -77.03795083333333, "is_disabled": 0, "fusion_lat": 0.0, "lat": 38.926691, "bike_id": "9e3cbb7f8d5c3319e743af2bb5b355c3", "fusion_lon": 0.0}, {"rental_uris": {"ios": "https://dc.lft.to/lastmile_qr_scan", "android": "https://dc.lft.to/lastmile_qr_scan"}, "type": "electric_scooter", "name": "cb58feb96708943a05bf819a2b713449", "is_reserved": 0, "lon": -76.97715883333333, "is_disabled": 0, "fusion_lat": 0.0, "lat": 38.888194666666664, "bike_id": "cb58feb96708943a05bf819a2b713449", "fusion_lon": 0.0}, {"rental_uris": {"ios": "https://dc.lft.to/lastmile_qr_scan", "android": "https://dc.lft.to/lastmile_qr_scan"}, "type": "electric_scooter", "name": "af9a81ae6fb2127e6fd77e273fba151f", "is_reserved": 0, "lon": -77.0166065, "is_disabled": 0, "fusion_lat": 0.0, "lat": 38.942028, "bike_id": "af9a81ae6fb2127e6fd77e273fba151f", "fusion_lon": 0.0}, {"rental_uris": {"ios": "https://dc.lft.to/lastmile_qr_scan", "android": "https://dc.lft.to/lastmile_qr_scan"}, "type": "electric_scooter", "name": "7f2792d6f38e4668f822946868d94874", "is_reserved": 0, "lon": -77.0179285, "is_disabled": 0, "fusion_lat": 0.0, "lat": 38.892400333333335, "bike_id": "7f2792d6f38e4668f822946868d94874", "fusion_lon": 0.0}, {"rental_uris": {"ios": "https://dc.lft.to/lastmile_qr_scan", "android": "https://dc.lft.to/lastmile_qr_scan"}, "type": "electric_scooter", "name": "03d7784f6751ab6e2d3f93562391e552", "is_reserved": 0, "lon": -77.02394033333333, "is_disabled": 0, "fusion_lat": 0.0, "lat": 38.9309115, "bike_id": "03d7784f6751ab6e2d3f93562391e552", "fusion_lon": 0.0}, {"rental_uris": {"ios": "https://dc.lft.to/lastmile_qr_scan", "android": "https://dc.lft.to/lastmile_qr_scan"}, "type": "electric_scooter", "name": "b1ce241e45a067c4a270c2fbc379011f", "is_reserved": 0, "lon": -77.03205533333333, "is_disabled": 0, "fusion_lat": 0.0, "lat": 38.914238833333336, "bike_id": "b1ce241e45a067c4a270c2fbc379011f", "fusion_lon": 0.0}, {"rental_uris": {"ios": "https://dc.lft.to/lastmile_qr_scan", "android": "https://dc.lft.to/lastmile_qr_scan"}, "type": "electric_scooter", "name": "232cf8fd9a055e12e4c29bdc55cb00fa", "is_reserved": 0, "lon": -77.01909383333333, "is_disabled": 0, "fusion_lat": 0.0, "lat": 38.92340383333333, "bike_id": "232cf8fd9a055e12e4c29bdc55cb00fa", "fusion_lon": 0.0}, {"rental_uris": {"ios": "https://dc.lft.to/lastmile_qr_scan", "android": "https://dc.lft.to/lastmile_qr_scan"}, "type": "electric_scooter", "name": "331b9b3931a247be701fceca08820934", "is_reserved": 0, "lon": -77.02669616666667, "is_disabled": 0, "fusion_lat": 0.0, "lat": 38.922163833333336, "bike_id": "331b9b3931a247be701fceca08820934", "fusion_lon": 0.0}, {"rental_uris": {"ios": "https://dc.lft.to/lastmile_qr_scan", "android": "https://dc.lft.to/lastmile_qr_scan"}, "type": "electric_scooter", "name": "5c84da935308a82a13ea4cf6c8d3fcc7", "is_reserved": 0, "lon": -77.04412966666666, "is_disabled": 0, "fusion_lat": 0.0, "lat": 38.909038, "bike_id": "5c84da935308a82a13ea4cf6c8d3fcc7", "fusion_lon": 0.0}, {"rental_uris": {"ios": "https://dc.lft.to/lastmile_qr_scan", "android": "https://dc.lft.to/lastmile_qr_scan"}, "type": "electric_scooter", "name": "1cb9410249e96d7740417399de24758e", "is_reserved": 0, "lon": -77.065569, "is_disabled": 0, "fusion_lat": 0.0, "lat": 38.91169766666667, "bike_id": "1cb9410249e96d7740417399de24758e", "fusion_lon": 0.0}, {"rental_uris": {"ios": "https://dc.lft.to/lastmile_qr_scan", "android": "https://dc.lft.to/lastmile_qr_scan"}, "type": "electric_scooter", "name": "8ca0432b014a7fa0d85365d5ba265e2b", "is_reserved": 0, "lon": -77.04345416666666, "is_disabled": 0, "fusion_lat": 0.0, "lat": 38.92348666666667, "bike_id": "8ca0432b014a7fa0d85365d5ba265e2b", "fusion_lon": 0.0}, {"rental_uris": {"ios": "https://dc.lft.to/lastmile_qr_scan", "android": "https://dc.lft.to/lastmile_qr_scan"}, "type": "electric_scooter", "name": "2b4b96155e2be447dfab82bf970b8984", "is_reserved": 0, "lon": -76.9789255, "is_disabled": 0, "fusion_lat": 0.0, "lat": 38.885399666666665, "bike_id": "2b4b96155e2be447dfab82bf970b8984", "fusion_lon": 0.0}, {"rental_uris": {"ios": "https://dc.lft.to/lastmile_qr_scan", "android": "https://dc.lft.to/lastmile_qr_scan"}, "type": "electric_scooter", "name": "68c3853c16559f7667d16273fcb8ec10", "is_reserved": 0, "lon": -77.01580016666666, "is_disabled": 0, "fusion_lat": 0.0, "lat": 38.87655066666667, "bike_id": "68c3853c16559f7667d16273fcb8ec10", "fusion_lon": 0.0}, {"rental_uris": {"ios": "https://dc.lft.to/lastmile_qr_scan", "android": "https://dc.lft.to/lastmile_qr_scan"}, "type": "electric_scooter", "name": "315df3acb0fb09d47d4dd705b7b8935d", "is_reserved": 0, "lon": -77.023371, "is_disabled": 0, "fusion_lat": 0.0, "lat": 38.9229725, "bike_id": "315df3acb0fb09d47d4dd705b7b8935d", "fusion_lon": 0.0}, {"rental_uris": {"ios": "https://dc.lft.to/lastmile_qr_scan", "android": "https://dc.lft.to/lastmile_qr_scan"}, "type": "electric_bike", "name": "4d6fdd2c6c372e7384dd92abebdfe532", "is_reserved": 0, "lon": -77.02008083333334, "is_disabled": 0, "fusion_lat": 0.0, "lat": 38.96437566666667, "bike_id": "4d6fdd2c6c372e7384dd92abebdfe532", "fusion_lon": 0.0}, {"rental_uris": {"ios": "https://dc.lft.to/lastmile_qr_scan", "android": "https://dc.lft.to/lastmile_qr_scan"}, "type": "electric_scooter", "name": "417b02d25e5d981040747ed86ec91061", "is_reserved": 0, "lon": -77.03408716666667, "is_disabled": 0, "fusion_lat": 0.0, "lat": 38.909787333333334, "bike_id": "417b02d25e5d981040747ed86ec91061", "fusion_lon": 0.0}, {"rental_uris": {"ios": "https://dc.lft.to/lastmile_qr_scan", "android": "https://dc.lft.to/lastmile_qr_scan"}, "type": "electric_scooter", "name": "0035b15ec518806020351d4cd8657cf8", "is_reserved": 0, "lon": -77.02178333333333, "is_disabled": 0, "fusion_lat": 0.0, "lat": 38.8923045, "bike_id": "0035b15ec518806020351d4cd8657cf8", "fusion_lon": 0.0}, {"rental_uris": {"ios": "https://dc.lft.to/lastmile_qr_scan", "android": "https://dc.lft.to/lastmile_qr_scan"}, "type": "electric_scooter", "name": "31787de756c8ade721a4aa35cf295548", "is_reserved": 0, "lon": -76.98261916666667, "is_disabled": 0, "fusion_lat": 0.0, "lat": 38.86627933333333, "bike_id": "31787de756c8ade721a4aa35cf295548", "fusion_lon": 0.0}, {"rental_uris": {"ios": "https://dc.lft.to/lastmile_qr_scan", "android": "https://dc.lft.to/lastmile_qr_scan"}, "type": "electric_scooter", "name": "d2b78c7b106b6f558c366858bc12b949", "is_reserved": 0, "lon": -77.04136883333334, "is_disabled": 0, "fusion_lat": 0.0, "lat": 38.922622833333335, "bike_id": "d2b78c7b106b6f558c366858bc12b949", "fusion_lon": 0.0}, {"rental_uris": {"ios": "https://dc.lft.to/lastmile_qr_scan", "android": "https://dc.lft.to/lastmile_qr_scan"}, "type": "electric_bike", "name": "23c570f54b85758cf694bb274b5d72bd", "is_reserved": 0, "lon": -76.98347316666667, "is_disabled": 0, "fusion_lat": 0.0, "lat": 38.8626285, "bike_id": "23c570f54b85758cf694bb274b5d72bd", "fusion_lon": 0.0}, {"rental_uris": {"ios": "https://dc.lft.to/lastmile_qr_scan", "android": "https://dc.lft.to/lastmile_qr_scan"}, "type": "electric_scooter", "name": "58048776cb7c53a4602b7c3f36669d99", "is_reserved": 0, "lon": -77.0109525, "is_disabled": 0, "fusion_lat": 0.0, "lat": 38.903339833333334, "bike_id": "58048776cb7c53a4602b7c3f36669d99", "fusion_lon": 0.0}, {"rental_uris": {"ios": "https://dc.lft.to/lastmile_qr_scan", "android": "https://dc.lft.to/lastmile_qr_scan"}, "type": "electric_scooter", "name": "895402a1c9fdf7a6c1860d5387d6c8d0", "is_reserved": 0, "lon": -77.0424965, "is_disabled": 0, "fusion_lat": 0.0, "lat": 38.909391166666666, "bike_id": "895402a1c9fdf7a6c1860d5387d6c8d0", "fusion_lon": 0.0}, {"rental_uris": {"ios": "https://dc.lft.to/lastmile_qr_scan", "android": "https://dc.lft.to/lastmile_qr_scan"}, "type": "electric_scooter", "name": "94146363c000aee3f9b85b6446126720", "is_reserved": 0, "lon": -76.977171, "is_disabled": 0, "fusion_lat": 0.0, "lat": 38.8882245, "bike_id": "94146363c000aee3f9b85b6446126720", "fusion_lon": 0.0}, {"rental_uris": {"ios": "https://dc.lft.to/lastmile_qr_scan", "android": "https://dc.lft.to/lastmile_qr_scan"}, "type": "electric_scooter", "name": "f9486cf2dffae8ea239e2f2e68c82074", "is_reserved": 0, "lon": -77.02386183333333, "is_disabled": 0, "fusion_lat": 0.0, "lat": 38.90845633333333, "bike_id": "f9486cf2dffae8ea239e2f2e68c82074", "fusion_lon": 0.0}, {"rental_uris": {"ios": "https://dc.lft.to/lastmile_qr_scan", "android": "https://dc.lft.to/lastmile_qr_scan"}, "type": "electric_scooter", "name": "fa605de6a4f123b8480ce7378ba0612c", "is_reserved": 0, "lon": -77.03661983333333, "is_disabled": 0, "fusion_lat": 0.0, "lat": 38.920449833333336, "bike_id": "fa605de6a4f123b8480ce7378ba0612c", "fusion_lon": 0.0}, {"rental_uris": {"ios": "https://dc.lft.to/lastmile_qr_scan", "android": "https://dc.lft.to/lastmile_qr_scan"}, "type": "electric_scooter", "name": "846233d6828ddd0349614521f473bdb0", "is_reserved": 0, "lon": -77.01629866666667, "is_disabled": 0, "fusion_lat": 0.0, "lat": 38.887429166666664, "bike_id": "846233d6828ddd0349614521f473bdb0", "fusion_lon": 0.0}, {"rental_uris": {"ios": "https://dc.lft.to/lastmile_qr_scan", "android": "https://dc.lft.to/lastmile_qr_scan"}, "type": "electric_scooter", "name": "1b75711c07fd146afa6026cd5c851a66", "is_reserved": 0, "lon": -77.03419716666667, "is_disabled": 0, "fusion_lat": 0.0, "lat": 38.919275, "bike_id": "1b75711c07fd146afa6026cd5c851a66", "fusion_lon": 0.0}, {"rental_uris": {"ios": "https://dc.lft.to/lastmile_qr_scan", "android": "https://dc.lft.to/lastmile_qr_scan"}, "type": "electric_scooter", "name": "afd3f20343760b2b2aedd3694e6d88b8", "is_reserved": 0, "lon": -77.031683, "is_disabled": 0, "fusion_lat": 0.0, "lat": 38.938684, "bike_id": "afd3f20343760b2b2aedd3694e6d88b8", "fusion_lon": 0.0}, {"rental_uris": {"ios": "https://dc.lft.to/lastmile_qr_scan", "android": "https://dc.lft.to/lastmile_qr_scan"}, "type": "electric_scooter", "name": "f513d40e128126853577bb61a17f1fa1", "is_reserved": 0, "lon": -77.0367175, "is_disabled": 0, "fusion_lat": 0.0, "lat": 38.903369, "bike_id": "f513d40e128126853577bb61a17f1fa1", "fusion_lon": 0.0}, {"rental_uris": {"ios": "https://dc.lft.to/lastmile_qr_scan", "android": "https://dc.lft.to/lastmile_qr_scan"}, "type": "electric_scooter", "name": "57948b760d209dd47ee8994d8c2cb958", "is_reserved": 0, "lon": -77.01143583333334, "is_disabled": 0, "fusion_lat": 0.0, "lat": 38.906445166666664, "bike_id": "57948b760d209dd47ee8994d8c2cb958", "fusion_lon": 0.0}, {"rental_uris": {"ios": "https://dc.lft.to/lastmile_qr_scan", "android": "https://dc.lft.to/lastmile_qr_scan"}, "type": "electric_scooter", "name": "0afd348a52defbdc298e2907cfe18914", "is_reserved": 0, "lon": -77.024336, "is_disabled": 0, "fusion_lat": 0.0, "lat": 38.91839616666667, "bike_id": "0afd348a52defbdc298e2907cfe18914", "fusion_lon": 0.0}, {"rental_uris": {"ios": "https://dc.lft.to/lastmile_qr_scan", "android": "https://dc.lft.to/lastmile_qr_scan"}, "type": "electric_scooter", "name": "4ca92c56b86f67f2b80fff14c9da6f23", "is_reserved": 0, "lon": -77.027782, "is_disabled": 0, "fusion_lat": 0.0, "lat": 38.96581416666667, "bike_id": "4ca92c56b86f67f2b80fff14c9da6f23", "fusion_lon": 0.0}, {"rental_uris": {"ios": "https://dc.lft.to/lastmile_qr_scan", "android": "https://dc.lft.to/lastmile_qr_scan"}, "type": "electric_scooter", "name": "da0fdefd3768f981a612a4e01687a4a6", "is_reserved": 0, "lon": -77.039745, "is_disabled": 0, "fusion_lat": 0.0, "lat": 38.89874016666667, "bike_id": "da0fdefd3768f981a612a4e01687a4a6", "fusion_lon": 0.0}, {"rental_uris": {"ios": "https://dc.lft.to/lastmile_qr_scan", "android": "https://dc.lft.to/lastmile_qr_scan"}, "type": "electric_scooter", "name": "ef2998e9a8a29378b563613ed37d86db", "is_reserved": 0, "lon": -77.0066225, "is_disabled": 0, "fusion_lat": 0.0, "lat": 38.91189033333333, "bike_id": "ef2998e9a8a29378b563613ed37d86db", "fusion_lon": 0.0}, {"rental_uris": {"ios": "https://dc.lft.to/lastmile_qr_scan", "android": "https://dc.lft.to/lastmile_qr_scan"}, "type": "electric_bike", "name": "e5c63a7f87d52227a5b69a5943b19e47", "is_reserved": 0, "lon": -77.09558566666666, "is_disabled": 0, "fusion_lat": 0.0, "lat": 38.858713333333334, "bike_id": "e5c63a7f87d52227a5b69a5943b19e47", "fusion_lon": 0.0}, {"rental_uris": {"ios": "https://dc.lft.to/lastmile_qr_scan", "android": "https://dc.lft.to/lastmile_qr_scan"}, "type": "electric_scooter", "name": "f2eb0f59d0098ea91de798d8c63935c4", "is_reserved": 0, "lon": -77.04094433333333, "is_disabled": 0, "fusion_lat": 0.0, "lat": 38.92067083333333, "bike_id": "f2eb0f59d0098ea91de798d8c63935c4", "fusion_lon": 0.0}, {"rental_uris": {"ios": "https://dc.lft.to/lastmile_qr_scan", "android": "https://dc.lft.to/lastmile_qr_scan"}, "type": "electric_scooter", "name": "4fe9e47c37c4a065d88078066a859080", "is_reserved": 0, "lon": -77.03500766666667, "is_disabled": 0, "fusion_lat": 0.0, "lat": 38.91701583333333, "bike_id": "4fe9e47c37c4a065d88078066a859080", "fusion_lon": 0.0}, {"rental_uris": {"ios": "https://dc.lft.to/lastmile_qr_scan", "android": "https://dc.lft.to/lastmile_qr_scan"}, "type": "electric_scooter", "name": "30df5247144d25f0727ed8fdff6b82b2", "is_reserved": 0, "lon": -77.0350905, "is_disabled": 0, "fusion_lat": 0.0, "lat": 38.921535, "bike_id": "30df5247144d25f0727ed8fdff6b82b2", "fusion_lon": 0.0}, {"rental_uris": {"ios": "https://dc.lft.to/lastmile_qr_scan", "android": "https://dc.lft.to/lastmile_qr_scan"}, "type": "electric_scooter", "name": "6be13cdc3c471ac7d56b5a32d7aa89be", "is_reserved": 0, "lon": -77.03837616666667, "is_disabled": 0, "fusion_lat": 0.0, "lat": 38.903839166666664, "bike_id": "6be13cdc3c471ac7d56b5a32d7aa89be", "fusion_lon": 0.0}, {"rental_uris": {"ios": "https://dc.lft.to/lastmile_qr_scan", "android": "https://dc.lft.to/lastmile_qr_scan"}, "type": "electric_scooter", "name": "42fc700b6c2f8509864cbd943e78e60f", "is_reserved": 0, "lon": -77.0134205, "is_disabled": 0, "fusion_lat": 0.0, "lat": 38.8812265, "bike_id": "42fc700b6c2f8509864cbd943e78e60f", "fusion_lon": 0.0}, {"rental_uris": {"ios": "https://dc.lft.to/lastmile_qr_scan", "android": "https://dc.lft.to/lastmile_qr_scan"}, "type": "electric_scooter", "name": "d9a311fd4003ce6085ce5a0f028d35a6", "is_reserved": 0, "lon": -77.02909933333333, "is_disabled": 0, "fusion_lat": 0.0, "lat": 38.9529905, "bike_id": "d9a311fd4003ce6085ce5a0f028d35a6", "fusion_lon": 0.0}, {"rental_uris": {"ios": "https://dc.lft.to/lastmile_qr_scan", "android": "https://dc.lft.to/lastmile_qr_scan"}, "type": "electric_scooter", "name": "2dc0b24ccf12279d754765b1660df40b", "is_reserved": 0, "lon": -76.997051, "is_disabled": 0, "fusion_lat": 0.0, "lat": 38.8876145, "bike_id": "2dc0b24ccf12279d754765b1660df40b", "fusion_lon": 0.0}, {"rental_uris": {"ios": "https://dc.lft.to/lastmile_qr_scan", "android": "https://dc.lft.to/lastmile_qr_scan"}, "type": "electric_scooter", "name": "27d73d9d06131f2309149cfc1decfe25", "is_reserved": 0, "lon": -77.002558, "is_disabled": 0, "fusion_lat": 0.0, "lat": 38.8947815, "bike_id": "27d73d9d06131f2309149cfc1decfe25", "fusion_lon": 0.0}, {"rental_uris": {"ios": "https://dc.lft.to/lastmile_qr_scan", "android": "https://dc.lft.to/lastmile_qr_scan"}, "type": "electric_scooter", "name": "4cc0e38a725e96f57a49242f42a1f758", "is_reserved": 0, "lon": -77.02004, "is_disabled": 0, "fusion_lat": 0.0, "lat": 38.899612166666664, "bike_id": "4cc0e38a725e96f57a49242f42a1f758", "fusion_lon": 0.0}, {"rental_uris": {"ios": "https://dc.lft.to/lastmile_qr_scan", "android": "https://dc.lft.to/lastmile_qr_scan"}, "type": "electric_scooter", "name": "263e9dd7c3deac8e88152d189c12f643", "is_reserved": 0, "lon": -77.0363735, "is_disabled": 0, "fusion_lat": 0.0, "lat": 38.903775333333336, "bike_id": "263e9dd7c3deac8e88152d189c12f643", "fusion_lon": 0.0}, {"rental_uris": {"ios": "https://dc.lft.to/lastmile_qr_scan", "android": "https://dc.lft.to/lastmile_qr_scan"}, "type": "electric_scooter", "name": "d8be0e35541350a55cd75e1ae8b46a4d", "is_reserved": 0, "lon": -77.0745865, "is_disabled": 0, "fusion_lat": 0.0, "lat": 38.89492166666667, "bike_id": "d8be0e35541350a55cd75e1ae8b46a4d", "fusion_lon": 0.0}, {"rental_uris": {"ios": "https://dc.lft.to/lastmile_qr_scan", "android": "https://dc.lft.to/lastmile_qr_scan"}, "type": "electric_scooter", "name": "47fa7279b315b805c4d5796c37291b9c", "is_reserved": 0, "lon": -76.98373566666666, "is_disabled": 0, "fusion_lat": 0.0, "lat": 38.892632166666665, "bike_id": "47fa7279b315b805c4d5796c37291b9c", "fusion_lon": 0.0}, {"rental_uris": {"ios": "https://dc.lft.to/lastmile_qr_scan", "android": "https://dc.lft.to/lastmile_qr_scan"}, "type": "electric_scooter", "name": "e6309d3713464238b138d1c659d95451", "is_reserved": 0, "lon": -77.0345905, "is_disabled": 0, "fusion_lat": 0.0, "lat": 38.908240166666666, "bike_id": "e6309d3713464238b138d1c659d95451", "fusion_lon": 0.0}, {"rental_uris": {"ios": "https://dc.lft.to/lastmile_qr_scan", "android": "https://dc.lft.to/lastmile_qr_scan"}, "type": "electric_scooter", "name": "cb32a8e6574a50b141b9e63bafe043e9", "is_reserved": 0, "lon": -77.07452116666667, "is_disabled": 0, "fusion_lat": 0.0, "lat": 38.93780733333333, "bike_id": "cb32a8e6574a50b141b9e63bafe043e9", "fusion_lon": 0.0}, {"rental_uris": {"ios": "https://dc.lft.to/lastmile_qr_scan", "android": "https://dc.lft.to/lastmile_qr_scan"}, "type": "electric_scooter", "name": "73b2c1b776bd2ce056f510e70740011b", "is_reserved": 0, "lon": -77.04676616666667, "is_disabled": 0, "fusion_lat": 0.0, "lat": 38.909419666666665, "bike_id": "73b2c1b776bd2ce056f510e70740011b", "fusion_lon": 0.0}, {"rental_uris": {"ios": "https://dc.lft.to/lastmile_qr_scan", "android": "https://dc.lft.to/lastmile_qr_scan"}, "type": "electric_scooter", "name": "eab8e6ce2332b684a603bab18aa088a0", "is_reserved": 0, "lon": -77.021539, "is_disabled": 0, "fusion_lat": 0.0, "lat": 38.88747733333334, "bike_id": "eab8e6ce2332b684a603bab18aa088a0", "fusion_lon": 0.0}, {"rental_uris": {"ios": "https://dc.lft.to/lastmile_qr_scan", "android": "https://dc.lft.to/lastmile_qr_scan"}, "type": "electric_scooter", "name": "f5c551f26ddcf1ef8d3a71019ebc98c8", "is_reserved": 0, "lon": -77.02111016666667, "is_disabled": 0, "fusion_lat": 0.0, "lat": 38.9060655, "bike_id": "f5c551f26ddcf1ef8d3a71019ebc98c8", "fusion_lon": 0.0}, {"rental_uris": {"ios": "https://dc.lft.to/lastmile_qr_scan", "android": "https://dc.lft.to/lastmile_qr_scan"}, "type": "electric_scooter", "name": "b1b3de60b31da0824b228ae78590042d", "is_reserved": 0, "lon": -77.02472633333333, "is_disabled": 0, "fusion_lat": 0.0, "lat": 38.91814166666666, "bike_id": "b1b3de60b31da0824b228ae78590042d", "fusion_lon": 0.0}, {"rental_uris": {"ios": "https://dc.lft.to/lastmile_qr_scan", "android": "https://dc.lft.to/lastmile_qr_scan"}, "type": "electric_scooter", "name": "f44cf716a958ea810d9925dc6e9d14a1", "is_reserved": 0, "lon": -76.99317233333333, "is_disabled": 0, "fusion_lat": 0.0, "lat": 38.9201435, "bike_id": "f44cf716a958ea810d9925dc6e9d14a1", "fusion_lon": 0.0}, {"rental_uris": {"ios": "https://dc.lft.to/lastmile_qr_scan", "android": "https://dc.lft.to/lastmile_qr_scan"}, "type": "electric_scooter", "name": "a6cb8b20857cc0e8d34abb44fca0d3b7", "is_reserved": 0, "lon": -77.03143283333333, "is_disabled": 0, "fusion_lat": 0.0, "lat": 38.90966383333333, "bike_id": "a6cb8b20857cc0e8d34abb44fca0d3b7", "fusion_lon": 0.0}, {"rental_uris": {"ios": "https://dc.lft.to/lastmile_qr_scan", "android": "https://dc.lft.to/lastmile_qr_scan"}, "type": "electric_scooter", "name": "7a061aa8492fbc09124f7a48bd743504", "is_reserved": 0, "lon": -76.9963745, "is_disabled": 0, "fusion_lat": 0.0, "lat": 38.900618, "bike_id": "7a061aa8492fbc09124f7a48bd743504", "fusion_lon": 0.0}, {"rental_uris": {"ios": "https://dc.lft.to/lastmile_qr_scan", "android": "https://dc.lft.to/lastmile_qr_scan"}, "type": "electric_scooter", "name": "bb249e1b06bd41fce45e579ff6219dcc", "is_reserved": 0, "lon": -77.03245, "is_disabled": 0, "fusion_lat": 0.0, "lat": 38.904763833333334, "bike_id": "bb249e1b06bd41fce45e579ff6219dcc", "fusion_lon": 0.0}, {"rental_uris": {"ios": "https://dc.lft.to/lastmile_qr_scan", "android": "https://dc.lft.to/lastmile_qr_scan"}, "type": "electric_scooter", "name": "cf08219230ad2c776ab60017fc388e70", "is_reserved": 0, "lon": -77.03186683333334, "is_disabled": 0, "fusion_lat": 0.0, "lat": 38.9134975, "bike_id": "cf08219230ad2c776ab60017fc388e70", "fusion_lon": 0.0}, {"rental_uris": {"ios": "https://dc.lft.to/lastmile_qr_scan", "android": "https://dc.lft.to/lastmile_qr_scan"}, "type": "electric_scooter", "name": "3f94a479b127b1be1c02e164dbe090d7", "is_reserved": 0, "lon": -76.99481233333333, "is_disabled": 0, "fusion_lat": 0.0, "lat": 38.862142166666665, "bike_id": "3f94a479b127b1be1c02e164dbe090d7", "fusion_lon": 0.0}, {"rental_uris": {"ios": "https://dc.lft.to/lastmile_qr_scan", "android": "https://dc.lft.to/lastmile_qr_scan"}, "type": "electric_scooter", "name": "35355dc36d19c5b9257d20ba86719df1", "is_reserved": 0, "lon": -76.99142033333334, "is_disabled": 0, "fusion_lat": 0.0, "lat": 38.843041166666666, "bike_id": "35355dc36d19c5b9257d20ba86719df1", "fusion_lon": 0.0}, {"rental_uris": {"ios": "https://dc.lft.to/lastmile_qr_scan", "android": "https://dc.lft.to/lastmile_qr_scan"}, "type": "electric_scooter", "name": "08f7c73053fb2c94e5fee3d2c63fb502", "is_reserved": 0, "lon": -77.0596645, "is_disabled": 0, "fusion_lat": 0.0, "lat": 38.928206, "bike_id": "08f7c73053fb2c94e5fee3d2c63fb502", "fusion_lon": 0.0}, {"rental_uris": {"ios": "https://dc.lft.to/lastmile_qr_scan", "android": "https://dc.lft.to/lastmile_qr_scan"}, "type": "electric_scooter", "name": "2a81c5d13215155b83e7892ee6d1502c", "is_reserved": 0, "lon": -77.04229316666667, "is_disabled": 0, "fusion_lat": 0.0, "lat": 38.911055833333336, "bike_id": "2a81c5d13215155b83e7892ee6d1502c", "fusion_lon": 0.0}, {"rental_uris": {"ios": "https://dc.lft.to/lastmile_qr_scan", "android": "https://dc.lft.to/lastmile_qr_scan"}, "type": "electric_bike", "name": "0f420889cb1eb00d48ed9b3c4c2526f6", "is_reserved": 0, "lon": -76.99915716666666, "is_disabled": 0, "fusion_lat": 0.0, "lat": 38.86447533333333, "bike_id": "0f420889cb1eb00d48ed9b3c4c2526f6", "fusion_lon": 0.0}, {"rental_uris": {"ios": "https://dc.lft.to/lastmile_qr_scan", "android": "https://dc.lft.to/lastmile_qr_scan"}, "type": "electric_bike", "name": "1594a52559f273a32d5e39287112525b", "is_reserved": 0, "lon": -77.00412783333333, "is_disabled": 0, "fusion_lat": 0.0, "lat": 38.9852275, "bike_id": "1594a52559f273a32d5e39287112525b", "fusion_lon": 0.0}, {"rental_uris": {"ios": "https://dc.lft.to/lastmile_qr_scan", "android": "https://dc.lft.to/lastmile_qr_scan"}, "type": "electric_scooter", "name": "76637ef5dbf18ed6d941e0b8096756a3", "is_reserved": 0, "lon": -77.0038135, "is_disabled": 0, "fusion_lat": 0.0, "lat": 38.879422, "bike_id": "76637ef5dbf18ed6d941e0b8096756a3", "fusion_lon": 0.0}, {"rental_uris": {"ios": "https://dc.lft.to/lastmile_qr_scan", "android": "https://dc.lft.to/lastmile_qr_scan"}, "type": "electric_scooter", "name": "abfc9e5be5816bf78eff5d572769c861", "is_reserved": 0, "lon": -77.0318175, "is_disabled": 0, "fusion_lat": 0.0, "lat": 38.930584833333334, "bike_id": "abfc9e5be5816bf78eff5d572769c861", "fusion_lon": 0.0}, {"rental_uris": {"ios": "https://dc.lft.to/lastmile_qr_scan", "android": "https://dc.lft.to/lastmile_qr_scan"}, "type": "electric_scooter", "name": "112c85b7042e3dec4664d3bacedf2ea6", "is_reserved": 0, "lon": -77.05303333333333, "is_disabled": 0, "fusion_lat": 0.0, "lat": 38.902652833333335, "bike_id": "112c85b7042e3dec4664d3bacedf2ea6", "fusion_lon": 0.0}, {"rental_uris": {"ios": "https://dc.lft.to/lastmile_qr_scan", "android": "https://dc.lft.to/lastmile_qr_scan"}, "type": "electric_scooter", "name": "5b09ce2bfbf5eef28dca9c8b47c8de48", "is_reserved": 0, "lon": -77.03187433333333, "is_disabled": 0, "fusion_lat": 0.0, "lat": 38.91797066666667, "bike_id": "5b09ce2bfbf5eef28dca9c8b47c8de48", "fusion_lon": 0.0}, {"rental_uris": {"ios": "https://dc.lft.to/lastmile_qr_scan", "android": "https://dc.lft.to/lastmile_qr_scan"}, "type": "electric_scooter", "name": "c27916560605aee2225360cd10a4c044", "is_reserved": 0, "lon": -77.0336855, "is_disabled": 0, "fusion_lat": 0.0, "lat": 38.90553716666667, "bike_id": "c27916560605aee2225360cd10a4c044", "fusion_lon": 0.0}, {"rental_uris": {"ios": "https://dc.lft.to/lastmile_qr_scan", "android": "https://dc.lft.to/lastmile_qr_scan"}, "type": "electric_scooter", "name": "328ce631a61c809146ec39bb6822a4de", "is_reserved": 0, "lon": -77.04906016666666, "is_disabled": 0, "fusion_lat": 0.0, "lat": 38.90076233333333, "bike_id": "328ce631a61c809146ec39bb6822a4de", "fusion_lon": 0.0}, {"rental_uris": {"ios": "https://dc.lft.to/lastmile_qr_scan", "android": "https://dc.lft.to/lastmile_qr_scan"}, "type": "electric_scooter", "name": "70b013874514098670a64d0598cf2a0f", "is_reserved": 0, "lon": -77.02029816666666, "is_disabled": 0, "fusion_lat": 0.0, "lat": 38.9340905, "bike_id": "70b013874514098670a64d0598cf2a0f", "fusion_lon": 0.0}, {"rental_uris": {"ios": "https://dc.lft.to/lastmile_qr_scan", "android": "https://dc.lft.to/lastmile_qr_scan"}, "type": "electric_scooter", "name": "a807264190bb169e8b079eb9cf1521c1", "is_reserved": 0, "lon": -76.93394833333333, "is_disabled": 0, "fusion_lat": 0.0, "lat": 38.899111, "bike_id": "a807264190bb169e8b079eb9cf1521c1", "fusion_lon": 0.0}, {"rental_uris": {"ios": "https://dc.lft.to/lastmile_qr_scan", "android": "https://dc.lft.to/lastmile_qr_scan"}, "type": "electric_scooter", "name": "daa9b51f51c0305f89103b759e701ce6", "is_reserved": 0, "lon": -77.04084083333333, "is_disabled": 0, "fusion_lat": 0.0, "lat": 38.917184166666665, "bike_id": "daa9b51f51c0305f89103b759e701ce6", "fusion_lon": 0.0}, {"rental_uris": {"ios": "https://dc.lft.to/lastmile_qr_scan", "android": "https://dc.lft.to/lastmile_qr_scan"}, "type": "electric_scooter", "name": "7740efd7fc00513073d9e7ddd1d253d1", "is_reserved": 0, "lon": -76.98277633333333, "is_disabled": 0, "fusion_lat": 0.0, "lat": 38.903435, "bike_id": "7740efd7fc00513073d9e7ddd1d253d1", "fusion_lon": 0.0}, {"rental_uris": {"ios": "https://dc.lft.to/lastmile_qr_scan", "android": "https://dc.lft.to/lastmile_qr_scan"}, "type": "electric_scooter", "name": "b09d1465e2391f74ecd97a7931c3b5c7", "is_reserved": 0, "lon": -77.04176366666667, "is_disabled": 0, "fusion_lat": 0.0, "lat": 38.9158725, "bike_id": "b09d1465e2391f74ecd97a7931c3b5c7", "fusion_lon": 0.0}, {"rental_uris": {"ios": "https://dc.lft.to/lastmile_qr_scan", "android": "https://dc.lft.to/lastmile_qr_scan"}, "type": "electric_scooter", "name": "27b6625eea6b1f2a78ee7fd9faedf724", "is_reserved": 0, "lon": -77.00730166666666, "is_disabled": 0, "fusion_lat": 0.0, "lat": 38.9118885, "bike_id": "27b6625eea6b1f2a78ee7fd9faedf724", "fusion_lon": 0.0}, {"rental_uris": {"ios": "https://dc.lft.to/lastmile_qr_scan", "android": "https://dc.lft.to/lastmile_qr_scan"}, "type": "electric_scooter", "name": "a56816d2be2b9a27048d4440d9534a9e", "is_reserved": 0, "lon": -77.022114, "is_disabled": 0, "fusion_lat": 0.0, "lat": 38.895734, "bike_id": "a56816d2be2b9a27048d4440d9534a9e", "fusion_lon": 0.0}, {"rental_uris": {"ios": "https://dc.lft.to/lastmile_qr_scan", "android": "https://dc.lft.to/lastmile_qr_scan"}, "type": "electric_scooter", "name": "d0bf13cbe430b704210e1899a70c0e28", "is_reserved": 0, "lon": -77.02201116666667, "is_disabled": 0, "fusion_lat": 0.0, "lat": 38.91056783333333, "bike_id": "d0bf13cbe430b704210e1899a70c0e28", "fusion_lon": 0.0}, {"rental_uris": {"ios": "https://dc.lft.to/lastmile_qr_scan", "android": "https://dc.lft.to/lastmile_qr_scan"}, "type": "electric_scooter", "name": "60452e77ece8caf54b2cc452ca6ab605", "is_reserved": 0, "lon": -77.059298, "is_disabled": 0, "fusion_lat": 0.0, "lat": 38.9366545, "bike_id": "60452e77ece8caf54b2cc452ca6ab605", "fusion_lon": 0.0}, {"rental_uris": {"ios": "https://dc.lft.to/lastmile_qr_scan", "android": "https://dc.lft.to/lastmile_qr_scan"}, "type": "electric_scooter", "name": "18074f94920c1d3e491fff069a03c62f", "is_reserved": 0, "lon": -77.0200225, "is_disabled": 0, "fusion_lat": 0.0, "lat": 38.91494733333333, "bike_id": "18074f94920c1d3e491fff069a03c62f", "fusion_lon": 0.0}, {"rental_uris": {"ios": "https://dc.lft.to/lastmile_qr_scan", "android": "https://dc.lft.to/lastmile_qr_scan"}, "type": "electric_scooter", "name": "c482ddc328eab06e344242fba9ab6d29", "is_reserved": 0, "lon": -77.02963916666667, "is_disabled": 0, "fusion_lat": 0.0, "lat": 38.897491333333335, "bike_id": "c482ddc328eab06e344242fba9ab6d29", "fusion_lon": 0.0}, {"rental_uris": {"ios": "https://dc.lft.to/lastmile_qr_scan", "android": "https://dc.lft.to/lastmile_qr_scan"}, "type": "electric_scooter", "name": "e7f59445c86df13e2914b361fa3980aa", "is_reserved": 0, "lon": -77.04438766666667, "is_disabled": 0, "fusion_lat": 0.0, "lat": 38.9125405, "bike_id": "e7f59445c86df13e2914b361fa3980aa", "fusion_lon": 0.0}, {"rental_uris": {"ios": "https://dc.lft.to/lastmile_qr_scan", "android": "https://dc.lft.to/lastmile_qr_scan"}, "type": "electric_scooter", "name": "f82869b728c07b0a10a01624a8827076", "is_reserved": 0, "lon": -77.029419, "is_disabled": 0, "fusion_lat": 0.0, "lat": 38.907271, "bike_id": "f82869b728c07b0a10a01624a8827076", "fusion_lon": 0.0}, {"rental_uris": {"ios": "https://dc.lft.to/lastmile_qr_scan", "android": "https://dc.lft.to/lastmile_qr_scan"}, "type": "electric_scooter", "name": "280c543999d964e6cd6d37579ab41d34", "is_reserved": 0, "lon": -77.02081633333333, "is_disabled": 0, "fusion_lat": 0.0, "lat": 38.88186066666667, "bike_id": "280c543999d964e6cd6d37579ab41d34", "fusion_lon": 0.0}, {"rental_uris": {"ios": "https://dc.lft.to/lastmile_qr_scan", "android": "https://dc.lft.to/lastmile_qr_scan"}, "type": "electric_scooter", "name": "4f0f872c72552cb1aa7344b17b1c5cd1", "is_reserved": 0, "lon": -77.00759083333334, "is_disabled": 0, "fusion_lat": 0.0, "lat": 38.9102995, "bike_id": "4f0f872c72552cb1aa7344b17b1c5cd1", "fusion_lon": 0.0}, {"rental_uris": {"ios": "https://dc.lft.to/lastmile_qr_scan", "android": "https://dc.lft.to/lastmile_qr_scan"}, "type": "electric_scooter", "name": "13122a2908b5a0e1b68b68f5e970793d", "is_reserved": 0, "lon": -77.01761983333333, "is_disabled": 0, "fusion_lat": 0.0, "lat": 38.87686716666666, "bike_id": "13122a2908b5a0e1b68b68f5e970793d", "fusion_lon": 0.0}, {"rental_uris": {"ios": "https://dc.lft.to/lastmile_qr_scan", "android": "https://dc.lft.to/lastmile_qr_scan"}, "type": "electric_bike", "name": "5aa14581a66b2a299be9bc0a6ae47ad9", "is_reserved": 0, "lon": -76.94234583333333, "is_disabled": 0, "fusion_lat": 0.0, "lat": 38.890512333333334, "bike_id": "5aa14581a66b2a299be9bc0a6ae47ad9", "fusion_lon": 0.0}, {"rental_uris": {"ios": "https://dc.lft.to/lastmile_qr_scan", "android": "https://dc.lft.to/lastmile_qr_scan"}, "type": "electric_scooter", "name": "9b90d4f6a3705e6afbe6b88a1ad91905", "is_reserved": 0, "lon": -77.041867, "is_disabled": 0, "fusion_lat": 0.0, "lat": 38.920456, "bike_id": "9b90d4f6a3705e6afbe6b88a1ad91905", "fusion_lon": 0.0}, {"rental_uris": {"ios": "https://dc.lft.to/lastmile_qr_scan", "android": "https://dc.lft.to/lastmile_qr_scan"}, "type": "electric_scooter", "name": "fdd1d7bb63b36b4e82323cf61ae27a5e", "is_reserved": 0, "lon": -77.07213766666666, "is_disabled": 0, "fusion_lat": 0.0, "lat": 38.89903266666666, "bike_id": "fdd1d7bb63b36b4e82323cf61ae27a5e", "fusion_lon": 0.0}, {"rental_uris": {"ios": "https://dc.lft.to/lastmile_qr_scan", "android": "https://dc.lft.to/lastmile_qr_scan"}, "type": "electric_scooter", "name": "bc810d9756e87b001811211c48649f9b", "is_reserved": 0, "lon": -77.00768633333334, "is_disabled": 0, "fusion_lat": 0.0, "lat": 38.87577316666667, "bike_id": "bc810d9756e87b001811211c48649f9b", "fusion_lon": 0.0}, {"rental_uris": {"ios": "https://dc.lft.to/lastmile_qr_scan", "android": "https://dc.lft.to/lastmile_qr_scan"}, "type": "electric_scooter", "name": "7faebd4d79244da6193cc853fb442c49", "is_reserved": 0, "lon": -77.03484233333333, "is_disabled": 0, "fusion_lat": 0.0, "lat": 38.92056983333333, "bike_id": "7faebd4d79244da6193cc853fb442c49", "fusion_lon": 0.0}, {"rental_uris": {"ios": "https://dc.lft.to/lastmile_qr_scan", "android": "https://dc.lft.to/lastmile_qr_scan"}, "type": "electric_bike", "name": "7c67a89c0a927d1ac5782316b5ac9434", "is_reserved": 0, "lon": -77.066987, "is_disabled": 0, "fusion_lat": 0.0, "lat": 38.831699, "bike_id": "7c67a89c0a927d1ac5782316b5ac9434", "fusion_lon": 0.0}, {"rental_uris": {"ios": "https://dc.lft.to/lastmile_qr_scan", "android": "https://dc.lft.to/lastmile_qr_scan"}, "type": "electric_scooter", "name": "447c42a32f21f2299da7f0f41d76c26a", "is_reserved": 0, "lon": -77.03842716666666, "is_disabled": 0, "fusion_lat": 0.0, "lat": 38.90986733333333, "bike_id": "447c42a32f21f2299da7f0f41d76c26a", "fusion_lon": 0.0}, {"rental_uris": {"ios": "https://dc.lft.to/lastmile_qr_scan", "android": "https://dc.lft.to/lastmile_qr_scan"}, "type": "electric_scooter", "name": "e27d5ab8b9eafa04c06579df44c73681", "is_reserved": 0, "lon": -76.97038316666666, "is_disabled": 0, "fusion_lat": 0.0, "lat": 38.87316216666667, "bike_id": "e27d5ab8b9eafa04c06579df44c73681", "fusion_lon": 0.0}, {"rental_uris": {"ios": "https://dc.lft.to/lastmile_qr_scan", "android": "https://dc.lft.to/lastmile_qr_scan"}, "type": "electric_scooter", "name": "878bcab576aecdc0fcf5171916d49d46", "is_reserved": 0, "lon": -77.0450135, "is_disabled": 0, "fusion_lat": 0.0, "lat": 38.8905145, "bike_id": "878bcab576aecdc0fcf5171916d49d46", "fusion_lon": 0.0}, {"rental_uris": {"ios": "https://dc.lft.to/lastmile_qr_scan", "android": "https://dc.lft.to/lastmile_qr_scan"}, "type": "electric_scooter", "name": "6bd1d3bf62c6baf40cad0588fe32818b", "is_reserved": 0, "lon": -77.0144735, "is_disabled": 0, "fusion_lat": 0.0, "lat": 38.90962966666667, "bike_id": "6bd1d3bf62c6baf40cad0588fe32818b", "fusion_lon": 0.0}, {"rental_uris": {"ios": "https://dc.lft.to/lastmile_qr_scan", "android": "https://dc.lft.to/lastmile_qr_scan"}, "type": "electric_scooter", "name": "341071e52c30ef5f812ae453f1742650", "is_reserved": 0, "lon": -77.02788466666667, "is_disabled": 0, "fusion_lat": 0.0, "lat": 38.95617283333333, "bike_id": "341071e52c30ef5f812ae453f1742650", "fusion_lon": 0.0}, {"rental_uris": {"ios": "https://dc.lft.to/lastmile_qr_scan", "android": "https://dc.lft.to/lastmile_qr_scan"}, "type": "electric_scooter", "name": "97aa2cb036f3eda2b768d20817dcc3c4", "is_reserved": 0, "lon": -76.99770616666666, "is_disabled": 0, "fusion_lat": 0.0, "lat": 38.9228805, "bike_id": "97aa2cb036f3eda2b768d20817dcc3c4", "fusion_lon": 0.0}, {"rental_uris": {"ios": "https://dc.lft.to/lastmile_qr_scan", "android": "https://dc.lft.to/lastmile_qr_scan"}, "type": "electric_scooter", "name": "94c3d1a340175e5a16ee5612fc2fe2c8", "is_reserved": 0, "lon": -76.937446, "is_disabled": 0, "fusion_lat": 0.0, "lat": 38.89013633333333, "bike_id": "94c3d1a340175e5a16ee5612fc2fe2c8", "fusion_lon": 0.0}, {"rental_uris": {"ios": "https://dc.lft.to/lastmile_qr_scan", "android": "https://dc.lft.to/lastmile_qr_scan"}, "type": "electric_scooter", "name": "aceb7dd4bec485e4319b33bb5d278aa1", "is_reserved": 0, "lon": -77.02809233333333, "is_disabled": 0, "fusion_lat": 0.0, "lat": 38.930850666666664, "bike_id": "aceb7dd4bec485e4319b33bb5d278aa1", "fusion_lon": 0.0}, {"rental_uris": {"ios": "https://dc.lft.to/lastmile_qr_scan", "android": "https://dc.lft.to/lastmile_qr_scan"}, "type": "electric_scooter", "name": "fce42e2b04f403c8e3881285674f888f", "is_reserved": 0, "lon": -76.99352466666667, "is_disabled": 0, "fusion_lat": 0.0, "lat": 38.90022916666667, "bike_id": "fce42e2b04f403c8e3881285674f888f", "fusion_lon": 0.0}, {"rental_uris": {"ios": "https://dc.lft.to/lastmile_qr_scan", "android": "https://dc.lft.to/lastmile_qr_scan"}, "type": "electric_scooter", "name": "b8999a0b63f1d0bee37518219c8329b2", "is_reserved": 0, "lon": -76.99035583333334, "is_disabled": 0, "fusion_lat": 0.0, "lat": 38.888754166666665, "bike_id": "b8999a0b63f1d0bee37518219c8329b2", "fusion_lon": 0.0}, {"rental_uris": {"ios": "https://dc.lft.to/lastmile_qr_scan", "android": "https://dc.lft.to/lastmile_qr_scan"}, "type": "electric_bike", "name": "3b2293d17ba66a32ad2cb435be0f001a", "is_reserved": 0, "lon": -77.0739305, "is_disabled": 0, "fusion_lat": 0.0, "lat": 38.92923833333333, "bike_id": "3b2293d17ba66a32ad2cb435be0f001a", "fusion_lon": 0.0}, {"rental_uris": {"ios": "https://dc.lft.to/lastmile_qr_scan", "android": "https://dc.lft.to/lastmile_qr_scan"}, "type": "electric_scooter", "name": "46ec1f318baef31592de1c29d0d1a07e", "is_reserved": 0, "lon": -76.99559966666666, "is_disabled": 0, "fusion_lat": 0.0, "lat": 38.9036935, "bike_id": "46ec1f318baef31592de1c29d0d1a07e", "fusion_lon": 0.0}, {"rental_uris": {"ios": "https://dc.lft.to/lastmile_qr_scan", "android": "https://dc.lft.to/lastmile_qr_scan"}, "type": "electric_bike", "name": "492c086f2458c1664058482c8944a2c8", "is_reserved": 0, "lon": -77.0037585, "is_disabled": 0, "fusion_lat": 0.0, "lat": 38.836071, "bike_id": "492c086f2458c1664058482c8944a2c8", "fusion_lon": 0.0}, {"rental_uris": {"ios": "https://dc.lft.to/lastmile_qr_scan", "android": "https://dc.lft.to/lastmile_qr_scan"}, "type": "electric_scooter", "name": "39bfc0c4f8276a6f42aa14ae39f609dd", "is_reserved": 0, "lon": -77.02074466666667, "is_disabled": 0, "fusion_lat": 0.0, "lat": 38.9301975, "bike_id": "39bfc0c4f8276a6f42aa14ae39f609dd", "fusion_lon": 0.0}, {"rental_uris": {"ios": "https://dc.lft.to/lastmile_qr_scan", "android": "https://dc.lft.to/lastmile_qr_scan"}, "type": "electric_scooter", "name": "c252b2a1ed2dd2dd7232cb9c8ac18284", "is_reserved": 0, "lon": -77.042485, "is_disabled": 0, "fusion_lat": 0.0, "lat": 38.903664666666664, "bike_id": "c252b2a1ed2dd2dd7232cb9c8ac18284", "fusion_lon": 0.0}, {"rental_uris": {"ios": "https://dc.lft.to/lastmile_qr_scan", "android": "https://dc.lft.to/lastmile_qr_scan"}, "type": "electric_scooter", "name": "c39bdcf31b2afb34488b56d26723b598", "is_reserved": 0, "lon": -77.05895066666666, "is_disabled": 0, "fusion_lat": 0.0, "lat": 38.9020635, "bike_id": "c39bdcf31b2afb34488b56d26723b598", "fusion_lon": 0.0}, {"rental_uris": {"ios": "https://dc.lft.to/lastmile_qr_scan", "android": "https://dc.lft.to/lastmile_qr_scan"}, "type": "electric_scooter", "name": "e8d9ad33703556af6870837f03cca3be", "is_reserved": 0, "lon": -77.01844566666666, "is_disabled": 0, "fusion_lat": 0.0, "lat": 38.9150635, "bike_id": "e8d9ad33703556af6870837f03cca3be", "fusion_lon": 0.0}, {"rental_uris": {"ios": "https://dc.lft.to/lastmile_qr_scan", "android": "https://dc.lft.to/lastmile_qr_scan"}, "type": "electric_scooter", "name": "66989533a69aa030d63063614cb4556d", "is_reserved": 0, "lon": -77.0021445, "is_disabled": 0, "fusion_lat": 0.0, "lat": 38.907586333333334, "bike_id": "66989533a69aa030d63063614cb4556d", "fusion_lon": 0.0}, {"rental_uris": {"ios": "https://dc.lft.to/lastmile_qr_scan", "android": "https://dc.lft.to/lastmile_qr_scan"}, "type": "electric_scooter", "name": "512073b9b27849d5651b6e29a12ba3d8", "is_reserved": 0, "lon": -77.051473, "is_disabled": 0, "fusion_lat": 0.0, "lat": 38.902326, "bike_id": "512073b9b27849d5651b6e29a12ba3d8", "fusion_lon": 0.0}, {"rental_uris": {"ios": "https://dc.lft.to/lastmile_qr_scan", "android": "https://dc.lft.to/lastmile_qr_scan"}, "type": "electric_scooter", "name": "29475807d691ebf1366c347600fb5c6d", "is_reserved": 0, "lon": -77.03734016666667, "is_disabled": 0, "fusion_lat": 0.0, "lat": 38.92028283333333, "bike_id": "29475807d691ebf1366c347600fb5c6d", "fusion_lon": 0.0}, {"rental_uris": {"ios": "https://dc.lft.to/lastmile_qr_scan", "android": "https://dc.lft.to/lastmile_qr_scan"}, "type": "electric_bike", "name": "7afa87147a3802f114119f1b81053798", "is_reserved": 0, "lon": -76.9632575, "is_disabled": 0, "fusion_lat": 0.0, "lat": 38.9389585, "bike_id": "7afa87147a3802f114119f1b81053798", "fusion_lon": 0.0}, {"rental_uris": {"ios": "https://dc.lft.to/lastmile_qr_scan", "android": "https://dc.lft.to/lastmile_qr_scan"}, "type": "electric_scooter", "name": "dda4e8326ca137e7e23c5cefb0c444c4", "is_reserved": 0, "lon": -77.04419466666667, "is_disabled": 0, "fusion_lat": 0.0, "lat": 38.91133333333333, "bike_id": "dda4e8326ca137e7e23c5cefb0c444c4", "fusion_lon": 0.0}, {"rental_uris": {"ios": "https://dc.lft.to/lastmile_qr_scan", "android": "https://dc.lft.to/lastmile_qr_scan"}, "type": "electric_scooter", "name": "dccfa14ef3a0a1d9f33847799d7d5330", "is_reserved": 0, "lon": -77.013757, "is_disabled": 0, "fusion_lat": 0.0, "lat": 38.876157666666664, "bike_id": "dccfa14ef3a0a1d9f33847799d7d5330", "fusion_lon": 0.0}, {"rental_uris": {"ios": "https://dc.lft.to/lastmile_qr_scan", "android": "https://dc.lft.to/lastmile_qr_scan"}, "type": "electric_scooter", "name": "7d1e2fd51ec96758cabea59d714553d8", "is_reserved": 0, "lon": -77.00221383333333, "is_disabled": 0, "fusion_lat": 0.0, "lat": 38.8945135, "bike_id": "7d1e2fd51ec96758cabea59d714553d8", "fusion_lon": 0.0}, {"rental_uris": {"ios": "https://dc.lft.to/lastmile_qr_scan", "android": "https://dc.lft.to/lastmile_qr_scan"},