{"data": {"bikes": [{"rental_uris": {"ios": "https://dc.lft.to/lastmile_qr_scan", "android": "https://dc.lft.to/lastmile_qr_scan"}, "fusion_lat": 0.0, "name": "a0ede64ef17a8ccc87c6fc6492d3ede7", "bike_id": "a0ede64ef17a8ccc87c6fc6492d3ede7", "is_disabled": 0, "type": "electric_scooter", "lat": 38.9028055, "lon": -77.04386883333333, "is_reserved": 0, "fusion_lon": 0.0}, {"rental_uris": {"ios": "https://dc.lft.to/lastmile_qr_scan", "android": "https://dc.lft.to/lastmile_qr_scan"}, "fusion_lat": 0.0, "name": "12eef66449fad17a44c231c0faa3b9bd", "bike_id": "12eef66449fad17a44c231c0faa3b9bd", "is_disabled": 0, "type": "electric_scooter", "lat": 38.905230833333334, "lon": -77.02694716666667, "is_reserved": 0, "fusion_lon": 0.0}, {"rental_uris": {"ios": "https://dc.lft.to/lastmile_qr_scan", "android": "https://dc.lft.to/lastmile_qr_scan"}, "fusion_lat": 0.0, "name": "68db47a036aae7616d9cda187c2d49b5", "bike_id": "68db47a036aae7616d9cda187c2d49b5", "is_disabled": 0, "type": "electric_scooter", "lat": 38.90264783333333, "lon": -77.02606516666667, "is_reserved": 0, "fusion_lon": 0.0}, {"rental_uris": {"ios": "https://dc.lft.to/lastmile_qr_scan", "android": "https://dc.lft.to/lastmile_qr_scan"}, "fusion_lat": 0.0, "name": "5e6d7869f9c4fbb4b960b77812b3e452", "bike_id": "5e6d7869f9c4fbb4b960b77812b3e452", "is_disabled": 0, "type": "electric_scooter", "lat": 38.89217333333333, "lon": -77.022213, "is_reserved": 0, "fusion_lon": 0.0}, {"rental_uris": {"ios": "https://dc.lft.to/lastmile_qr_scan", "android": "https://dc.lft.to/lastmile_qr_scan"}, "fusion_lat": 0.0, "name": "357ed6f2130400fb976e1dfa3d8a23f0", "bike_id": "357ed6f2130400fb976e1dfa3d8a23f0", "is_disabled": 0, "type": "electric_scooter", "lat": 38.89684583333333, "lon": -77.00497316666667, "is_reserved": 0, "fusion_lon": 0.0}, {"rental_uris": {"ios": "https://dc.lft.to/lastmile_qr_scan", "android": "https://dc.lft.to/lastmile_qr_scan"}, "fusion_lat": 0.0, "name": "bb78e3372318053ddfaf7562ffbdf205", "bike_id": "bb78e3372318053ddfaf7562ffbdf205", "is_disabled": 0, "type": "electric_scooter", "lat": 38.917641333333336, "lon": -77.03645683333333, "is_reserved": 0, "fusion_lon": 0.0}, {"rental_uris": {"ios": "https://dc.lft.to/lastmile_qr_scan", "android": "https://dc.lft.to/lastmile_qr_scan"}, "fusion_lat": 0.0, "name": "077bbf3c07f585b1f525f8048e63ef25", "bike_id": "077bbf3c07f585b1f525f8048e63ef25", "is_disabled": 0, "type": "electric_scooter", "lat": 38.90794133333333, "lon": -76.997264, "is_reserved": 0, "fusion_lon": 0.0}, {"rental_uris": {"ios": "https://dc.lft.to/lastmile_qr_scan", "android": "https://dc.lft.to/lastmile_qr_scan"}, "fusion_lat": 0.0, "name": "8002088bca4f5e7cbe1f4f746024e2b9", "bike_id": "8002088bca4f5e7cbe1f4f746024e2b9", "is_disabled": 0, "type": "electric_scooter", "lat": 38.90167066666667, "lon": -77.02613616666666, "is_reserved": 0, "fusion_lon": 0.0}, {"rental_uris": {"ios": "https://dc.lft.to/lastmile_qr_scan", "android": "https://dc.lft.to/lastmile_qr_scan"}, "fusion_lat": 0.0, "name": "72fd347b8e4b6e0216f89a4776478606", "bike_id": "72fd347b8e4b6e0216f89a4776478606", "is_disabled": 0, "type": "electric_scooter", "lat": 38.8667945, "lon": -76.984961, "is_reserved": 0, "fusion_lon": 0.0}, {"rental_uris": {"ios": "https://dc.lft.to/lastmile_qr_scan", "android": "https://dc.lft.to/lastmile_qr_scan"}, "fusion_lat": 0.0, "name": "70957573e2935b6dec610da44be0bd63", "bike_id": "70957573e2935b6dec610da44be0bd63", "is_disabled": 0, "type": "electric_scooter", "lat": 38.90275, "lon": -76.93938116666666, "is_reserved": 0, "fusion_lon": 0.0}, {"rental_uris": {"ios": "https://dc.lft.to/lastmile_qr_scan", "android": "https://dc.lft.to/lastmile_qr_scan"}, "fusion_lat": 0.0, "name": "7fcc4978960cadd3c50c40aa0bc739d2", "bike_id": "7fcc4978960cadd3c50c40aa0bc739d2", "is_disabled": 0, "type": "electric_scooter", "lat": 38.89610616666667, "lon": -77.02322616666666, "is_reserved": 0, "fusion_lon": 0.0}, {"rental_uris": {"ios": "https://dc.lft.to/lastmile_qr_scan", "android": "https://dc.lft.to/lastmile_qr_scan"}, "fusion_lat": 0.0, "name": "e8667879ce9df7cf418625b80d8e17fe", "bike_id": "e8667879ce9df7cf418625b80d8e17fe", "is_disabled": 0, "type": "electric_scooter", "lat": 38.89820816666667, "lon": -76.94650833333333, "is_reserved": 0, "fusion_lon": 0.0}, {"rental_uris": {"ios": "https://dc.lft.to/lastmile_qr_scan", "android": "https://dc.lft.to/lastmile_qr_scan"}, "fusion_lat": 0.0, "name": "ad01962fcbbb9cff380be4f10b018aa9", "bike_id": "ad01962fcbbb9cff380be4f10b018aa9", "is_disabled": 0, "type": "electric_scooter", "lat": 38.887364166666664, "lon": -77.01532, "is_reserved": 0, "fusion_lon": 0.0}, {"rental_uris": {"ios": "https://dc.lft.to/lastmile_qr_scan", "android": "https://dc.lft.to/lastmile_qr_scan"}, "fusion_lat": 0.0, "name": "6e22a65dc4976d2d0c95ca17d7bdc493", "bike_id": "6e22a65dc4976d2d0c95ca17d7bdc493", "is_disabled": 0, "type": "electric_bike", "lat": 39.056319, "lon": -77.12524916666666, "is_reserved": 0, "fusion_lon": 0.0}, {"rental_uris": {"ios": "https://dc.lft.to/lastmile_qr_scan", "android": "https://dc.lft.to/lastmile_qr_scan"}, "fusion_lat": 0.0, "name": "fed2b3b4cca0adeaef13a549000900e7", "bike_id": "fed2b3b4cca0adeaef13a549000900e7", "is_disabled": 0, "type": "electric_scooter", "lat": 38.904097, "lon": -76.97327966666667, "is_reserved": 0, "fusion_lon": 0.0}, {"rental_uris": {"ios": "https://dc.lft.to/lastmile_qr_scan", "android": "https://dc.lft.to/lastmile_qr_scan"}, "fusion_lat": 0.0, "name": "48f7e4091095e9bd34d7493a2460958b", "bike_id": "48f7e4091095e9bd34d7493a2460958b", "is_disabled": 0, "type": "electric_scooter", "lat": 38.91741183333333, "lon": -77.02395266666667, "is_reserved": 0, "fusion_lon": 0.0}, {"rental_uris": {"ios": "https://dc.lft.to/lastmile_qr_scan", "android": "https://dc.lft.to/lastmile_qr_scan"}, "fusion_lat": 0.0, "name": "7e1dcef65d06671b30c8bf6222fc8fde", "bike_id": "7e1dcef65d06671b30c8bf6222fc8fde", "is_disabled": 0, "type": "electric_scooter", "lat": 38.877895, "lon": -77.00118316666666, "is_reserved": 0, "fusion_lon": 0.0}, {"rental_uris": {"ios": "https://dc.lft.to/lastmile_qr_scan", "android": "https://dc.lft.to/lastmile_qr_scan"}, "fusion_lat": 0.0, "name": "266e8d25390f1cbfa5573c6a5c898aa8", "bike_id": "266e8d25390f1cbfa5573c6a5c898aa8", "is_disabled": 0, "type": "electric_scooter", "lat": 38.893964, "lon": -77.04999983333333, "is_reserved": 0, "fusion_lon": 0.0}, {"rental_uris": {"ios": "https://dc.lft.to/lastmile_qr_scan", "android": "https://dc.lft.to/lastmile_qr_scan"}, "fusion_lat": 0.0, "name": "e8c9e204c17f44cef26b56bb56ea7da7", "bike_id": "e8c9e204c17f44cef26b56bb56ea7da7", "is_disabled": 0, "type": "electric_scooter", "lat": 38.91569466666667, "lon": -77.03205166666666, "is_reserved": 0, "fusion_lon": 0.0}, {"rental_uris": {"ios": "https://dc.lft.to/lastmile_qr_scan", "android": "https://dc.lft.to/lastmile_qr_scan"}, "fusion_lat": 0.0, "name": "e825353156b13b3537975320e764f2ae", "bike_id": "e825353156b13b3537975320e764f2ae", "is_disabled": 0, "type": "electric_scooter", "lat": 38.90357316666667, "lon": -77.04667916666666, "is_reserved": 0, "fusion_lon": 0.0}, {"rental_uris": {"ios": "https://dc.lft.to/lastmile_qr_scan", "android": "https://dc.lft.to/lastmile_qr_scan"}, "fusion_lat": 0.0, "name": "e24dde516c3284f00f92bb5b70b18418", "bike_id": "e24dde516c3284f00f92bb5b70b18418", "is_disabled": 0, "type": "electric_scooter", "lat": 38.921449333333335, "lon": -77.07306633333333, "is_reserved": 0, "fusion_lon": 0.0}, {"rental_uris": {"ios": "https://dc.lft.to/lastmile_qr_scan", "android": "https://dc.lft.to/lastmile_qr_scan"}, "fusion_lat": 0.0, "name": "75d51072de085fc8ddfe6fe361865d42", "bike_id": "75d51072de085fc8ddfe6fe361865d42", "is_disabled": 0, "type": "electric_scooter", "lat": 38.91055516666667, "lon": -77.0417285, "is_reserved": 0, "fusion_lon": 0.0}, {"rental_uris": {"ios": "https://dc.lft.to/lastmile_qr_scan", "android": "https://dc.lft.to/lastmile_qr_scan"}, "fusion_lat": 0.0, "name": "5575f440a0e1761f6d3d5740617c24a5", "bike_id": "5575f440a0e1761f6d3d5740617c24a5", "is_disabled": 0, "type": "electric_bike", "lat": 39.030475333333335, "lon": -77.09479416666667, "is_reserved": 0, "fusion_lon": 0.0}, {"rental_uris": {"ios": "https://dc.lft.to/lastmile_qr_scan", "android": "https://dc.lft.to/lastmile_qr_scan"}, "fusion_lat": 0.0, "name": "66967c1fdad8798422e73b493b9cbc0d", "bike_id": "66967c1fdad8798422e73b493b9cbc0d", "is_disabled": 0, "type": "electric_scooter", "lat": 38.8757495, "lon": -77.02069583333333, "is_reserved": 0, "fusion_lon": 0.0}, {"rental_uris": {"ios": "https://dc.lft.to/lastmile_qr_scan", "android": "https://dc.lft.to/lastmile_qr_scan"}, "fusion_lat": 0.0, "name": "7597fd157d68719423efc9393cbb2ae4", "bike_id": "7597fd157d68719423efc9393cbb2ae4", "is_disabled": 0, "type": "electric_scooter", "lat": 38.920523, "lon": -76.99899916666666, "is_reserved": 0, "fusion_lon": 0.0}, {"rental_uris": {"ios": "https://dc.lft.to/lastmile_qr_scan", "android": "https://dc.lft.to/lastmile_qr_scan"}, "fusion_lat": 0.0, "name": "316222328270d595196ae7cfa7392387", "bike_id": "316222328270d595196ae7cfa7392387", "is_disabled": 0, "type": "electric_scooter", "lat": 38.90586783333333, "lon": -77.000604, "is_reserved": 0, "fusion_lon": 0.0}, {"rental_uris": {"ios": "https://dc.lft.to/lastmile_qr_scan", "android": "https://dc.lft.to/lastmile_qr_scan"}, "fusion_lat": 0.0, "name": "d00ad28054942dba2bda17592acb9670", "bike_id": "d00ad28054942dba2bda17592acb9670", "is_disabled": 0, "type": "electric_scooter", "lat": 38.918434833333336, "lon": -77.03212516666666, "is_reserved": 0, "fusion_lon": 0.0}, {"rental_uris": {"ios": "https://dc.lft.to/lastmile_qr_scan", "android": "https://dc.lft.to/lastmile_qr_scan"}, "fusion_lat": 0.0, "name": "2c8ba50e7f2292476ce07779ce66db9e", "bike_id": "2c8ba50e7f2292476ce07779ce66db9e", "is_disabled": 0, "type": "electric_scooter", "lat": 38.91333816666667, "lon": -77.04882733333334, "is_reserved": 0, "fusion_lon": 0.0}, {"rental_uris": {"ios": "https://dc.lft.to/lastmile_qr_scan", "android": "https://dc.lft.to/lastmile_qr_scan"}, "fusion_lat": 0.0, "name": "d5b591d0ed179c4944797f2694ca35b3", "bike_id": "d5b591d0ed179c4944797f2694ca35b3", "is_disabled": 0, "type": "electric_scooter", "lat": 38.88434016666667, "lon": -77.03035916666667, "is_reserved": 0, "fusion_lon": 0.0}, {"rental_uris": {"ios": "https://dc.lft.to/lastmile_qr_scan", "android": "https://dc.lft.to/lastmile_qr_scan"}, "fusion_lat": 0.0, "name": "403f9054f05a5229033393e8671f7f0d", "bike_id": "403f9054f05a5229033393e8671f7f0d", "is_disabled": 0, "type": "electric_scooter", "lat": 38.91683466666667, "lon": -77.02969683333333, "is_reserved": 0, "fusion_lon": 0.0}, {"rental_uris": {"ios": "https://dc.lft.to/lastmile_qr_scan", "android": "https://dc.lft.to/lastmile_qr_scan"}, "fusion_lat": 0.0, "name": "287d273930af1210aea9b4c0caf77d62", "bike_id": "287d273930af1210aea9b4c0caf77d62", "is_disabled": 0, "type": "electric_scooter", "lat": 38.91689183333333, "lon": -76.97946966666666, "is_reserved": 0, "fusion_lon": 0.0}, {"rental_uris": {"ios": "https://dc.lft.to/lastmile_qr_scan", "android": "https://dc.lft.to/lastmile_qr_scan"}, "fusion_lat": 0.0, "name": "fffd85a938aaf2c00f70ff98f6f10d39", "bike_id": "fffd85a938aaf2c00f70ff98f6f10d39", "is_disabled": 0, "type": "electric_bike", "lat": 38.932877, "lon": -77.03632166666667, "is_reserved": 0, "fusion_lon": 0.0}, {"rental_uris": {"ios": "https://dc.lft.to/lastmile_qr_scan", "android": "https://dc.lft.to/lastmile_qr_scan"}, "fusion_lat": 0.0, "name": "783dea9fbce49e5c0721d29c514332b0", "bike_id": "783dea9fbce49e5c0721d29c514332b0", "is_disabled": 0, "type": "electric_scooter", "lat": 38.90664, "lon": -77.03751733333333, "is_reserved": 0, "fusion_lon": 0.0}, {"rental_uris": {"ios": "https://dc.lft.to/lastmile_qr_scan", "android": "https://dc.lft.to/lastmile_qr_scan"}, "fusion_lat": 0.0, "name": "4c42bcae6a613675fe4563dd4e8ee553", "bike_id": "4c42bcae6a613675fe4563dd4e8ee553", "is_disabled": 0, "type": "electric_scooter", "lat": 38.907331, "lon": -77.03445033333334, "is_reserved": 0, "fusion_lon": 0.0}, {"rental_uris": {"ios": "https://dc.lft.to/lastmile_qr_scan", "android": "https://dc.lft.to/lastmile_qr_scan"}, "fusion_lat": 0.0, "name": "26ba8ea907742a8e22a95188c599e956", "bike_id": "26ba8ea907742a8e22a95188c599e956", "is_disabled": 0, "type": "electric_bike", "lat": 38.87074666666667, "lon": -77.11052383333333, "is_reserved": 0, "fusion_lon": 0.0}, {"rental_uris": {"ios": "https://dc.lft.to/lastmile_qr_scan", "android": "https://dc.lft.to/lastmile_qr_scan"}, "fusion_lat": 0.0, "name": "06eae9487842e73ec34f9f8bec703b14", "bike_id": "06eae9487842e73ec34f9f8bec703b14", "is_disabled": 0, "type": "electric_scooter", "lat": 38.90133016666667, "lon": -77.02625083333334, "is_reserved": 0, "fusion_lon": 0.0}, {"rental_uris": {"ios": "https://dc.lft.to/lastmile_qr_scan", "android": "https://dc.lft.to/lastmile_qr_scan"}, "fusion_lat": 0.0, "name": "0d045e2c9f96e6feccae8fedce60c82d", "bike_id": "0d045e2c9f96e6feccae8fedce60c82d", "is_disabled": 0, "type": "electric_scooter", "lat": 38.948129333333334, "lon": -76.99904583333333, "is_reserved": 0, "fusion_lon": 0.0}, {"rental_uris": {"ios": "https://dc.lft.to/lastmile_qr_scan", "android": "https://dc.lft.to/lastmile_qr_scan"}, "fusion_lat": 0.0, "name": "108755927e5cf90604d840e7e059f97d", "bike_id": "108755927e5cf90604d840e7e059f97d", "is_disabled": 0, "type": "electric_scooter", "lat": 38.9171145, "lon": -77.02883333333334, "is_reserved": 0, "fusion_lon": 0.0}, {"rental_uris": {"ios": "https://dc.lft.to/lastmile_qr_scan", "android": "https://dc.lft.to/lastmile_qr_scan"}, "fusion_lat": 0.0, "name": "e66dac6762f9c8ba668b46d5a985f805", "bike_id": "e66dac6762f9c8ba668b46d5a985f805", "is_disabled": 0, "type": "electric_scooter", "lat": 38.90419133333333, "lon": -77.05047166666667, "is_reserved": 0, "fusion_lon": 0.0}, {"rental_uris": {"ios": "https://dc.lft.to/lastmile_qr_scan", "android": "https://dc.lft.to/lastmile_qr_scan"}, "fusion_lat": 0.0, "name": "c8220a61ab92e047b58662eb3872e88b", "bike_id": "c8220a61ab92e047b58662eb3872e88b", "is_disabled": 0, "type": "electric_scooter", "lat": 38.9185685, "lon": -77.03212333333333, "is_reserved": 0, "fusion_lon": 0.0}, {"rental_uris": {"ios": "https://dc.lft.to/lastmile_qr_scan", "android": "https://dc.lft.to/lastmile_qr_scan"}, "fusion_lat": 0.0, "name": "0be340d31896a9300f3f2281bdbe70a3", "bike_id": "0be340d31896a9300f3f2281bdbe70a3", "is_disabled": 0, "type": "electric_scooter", "lat": 38.89225066666667, "lon": -77.04894366666667, "is_reserved": 0, "fusion_lon": 0.0}, {"rental_uris": {"ios": "https://dc.lft.to/lastmile_qr_scan", "android": "https://dc.lft.to/lastmile_qr_scan"}, "fusion_lat": 0.0, "name": "2847e9016aa7b3b600fed26131516c31", "bike_id": "2847e9016aa7b3b600fed26131516c31", "is_disabled": 0, "type": "electric_scooter", "lat": 38.92056516666667, "lon": -77.02876916666666, "is_reserved": 0, "fusion_lon": 0.0}, {"rental_uris": {"ios": "https://dc.lft.to/lastmile_qr_scan", "android": "https://dc.lft.to/lastmile_qr_scan"}, "fusion_lat": 0.0, "name": "3cd99484dec568a5970cd79dba900fac", "bike_id": "3cd99484dec568a5970cd79dba900fac", "is_disabled": 0, "type": "electric_scooter", "lat": 38.915517333333334, "lon": -77.0220905, "is_reserved": 0, "fusion_lon": 0.0}, {"rental_uris": {"ios": "https://dc.lft.to/lastmile_qr_scan", "android": "https://dc.lft.to/lastmile_qr_scan"}, "fusion_lat": 0.0, "name": "8ed0f5424797bbbdf4b5d57e9ccd5a98", "bike_id": "8ed0f5424797bbbdf4b5d57e9ccd5a98", "is_disabled": 0, "type": "electric_scooter", "lat": 38.8666525, "lon": -76.98511416666666, "is_reserved": 0, "fusion_lon": 0.0}, {"rental_uris": {"ios": "https://dc.lft.to/lastmile_qr_scan", "android": "https://dc.lft.to/lastmile_qr_scan"}, "fusion_lat": 0.0, "name": "96dd9f897221804e1f5459869cff4ec0", "bike_id": "96dd9f897221804e1f5459869cff4ec0", "is_disabled": 0, "type": "electric_scooter", "lat": 38.9180565, "lon": -77.02493816666667, "is_reserved": 0, "fusion_lon": 0.0}, {"rental_uris": {"ios": "https://dc.lft.to/lastmile_qr_scan", "android": "https://dc.lft.to/lastmile_qr_scan"}, "fusion_lat": 0.0, "name": "d8d403ec0808b845621c4de8fd8bbc8e", "bike_id": "d8d403ec0808b845621c4de8fd8bbc8e", "is_disabled": 0, "type": "electric_scooter", "lat": 38.9007295, "lon": -77.027089, "is_reserved": 0, "fusion_lon": 0.0}, {"rental_uris": {"ios": "https://dc.lft.to/lastmile_qr_scan", "android": "https://dc.lft.to/lastmile_qr_scan"}, "fusion_lat": 0.0, "name": "2c18a3abab6f73351b901cf46a6042a1", "bike_id": "2c18a3abab6f73351b901cf46a6042a1", "is_disabled": 0, "type": "electric_scooter", "lat": 38.91686833333333, "lon": -77.028131, "is_reserved": 0, "fusion_lon": 0.0}, {"rental_uris": {"ios": "https://dc.lft.to/lastmile_qr_scan", "android": "https://dc.lft.to/lastmile_qr_scan"}, "fusion_lat": 0.0, "name": "6f939c3c570f0397153be93fb6638ccb", "bike_id": "6f939c3c570f0397153be93fb6638ccb", "is_disabled": 0, "type": "electric_scooter", "lat": 38.90792866666666, "lon": -77.038363, "is_reserved": 0, "fusion_lon": 0.0}, {"rental_uris": {"ios": "https://dc.lft.to/lastmile_qr_scan", "android": "https://dc.lft.to/lastmile_qr_scan"}, "fusion_lat": 0.0, "name": "2a0f5add4d1ae9ac2e6b3dce970ae4c9", "bike_id": "2a0f5add4d1ae9ac2e6b3dce970ae4c9", "is_disabled": 0, "type": "electric_scooter", "lat": 38.892167666666666, "lon": -77.03154666666667, "is_reserved": 0, "fusion_lon": 0.0}, {"rental_uris": {"ios": "https://dc.lft.to/lastmile_qr_scan", "android": "https://dc.lft.to/lastmile_qr_scan"}, "fusion_lat": 0.0, "name": "1adea98d8d7094d759cf235140aa84a3", "bike_id": "1adea98d8d7094d759cf235140aa84a3", "is_disabled": 0, "type": "electric_bike", "lat": 38.87670416666667, "lon": -77.01446033333333, "is_reserved": 0, "fusion_lon": 0.0}, {"rental_uris": {"ios": "https://dc.lft.to/lastmile_qr_scan", "android": "https://dc.lft.to/lastmile_qr_scan"}, "fusion_lat": 0.0, "name": "cea63090bbb44dc4a53c2f0a0d8bc8ad", "bike_id": "cea63090bbb44dc4a53c2f0a0d8bc8ad", "is_disabled": 0, "type": "electric_scooter", "lat": 38.88814033333333, "lon": -76.93341216666667, "is_reserved": 0, "fusion_lon": 0.0}, {"rental_uris": {"ios": "https://dc.lft.to/lastmile_qr_scan", "android": "https://dc.lft.to/lastmile_qr_scan"}, "fusion_lat": 0.0, "name": "82ab2aa4a617d073ec8ade615a7f4492", "bike_id": "82ab2aa4a617d073ec8ade615a7f4492", "is_disabled": 0, "type": "electric_scooter", "lat": 38.920475333333336, "lon": -77.03401783333334, "is_reserved": 0, "fusion_lon": 0.0}, {"rental_uris": {"ios": "https://dc.lft.to/lastmile_qr_scan", "android": "https://dc.lft.to/lastmile_qr_scan"}, "fusion_lat": 0.0, "name": "1f49e331ff4389be16e3ab0854223df9", "bike_id": "1f49e331ff4389be16e3ab0854223df9", "is_disabled": 0, "type": "electric_bike", "lat": 38.83979433333333, "lon": -77.00569216666666, "is_reserved": 0, "fusion_lon": 0.0}, {"rental_uris": {"ios": "https://dc.lft.to/lastmile_qr_scan", "android": "https://dc.lft.to/lastmile_qr_scan"}, "fusion_lat": 0.0, "name": "6cac4c4e1fc35cde8459a28e05dcc0ec", "bike_id": "6cac4c4e1fc35cde8459a28e05dcc0ec", "is_disabled": 0, "type": "electric_scooter", "lat": 38.93178016666667, "lon": -77.07063133333334, "is_reserved": 0, "fusion_lon": 0.0}, {"rental_uris": {"ios": "https://dc.lft.to/lastmile_qr_scan", "android": "https://dc.lft.to/lastmile_qr_scan"}, "fusion_lat": 0.0, "name": "67d94039f9dd6cd358582674122a59c1", "bike_id": "67d94039f9dd6cd358582674122a59c1", "is_disabled": 0, "type": "electric_scooter", "lat": 38.90890516666666, "lon": -77.03208333333333, "is_reserved": 0, "fusion_lon": 0.0}, {"rental_uris": {"ios": "https://dc.lft.to/lastmile_qr_scan", "android": "https://dc.lft.to/lastmile_qr_scan"}, "fusion_lat": 0.0, "name": "1ff92ab6f9f6879aefb70d4ec9e608f2", "bike_id": "1ff92ab6f9f6879aefb70d4ec9e608f2", "is_disabled": 0, "type": "electric_scooter", "lat": 38.910675166666664, "lon": -77.0263945, "is_reserved": 0, "fusion_lon": 0.0}, {"rental_uris": {"ios": "https://dc.lft.to/lastmile_qr_scan", "android": "https://dc.lft.to/lastmile_qr_scan"}, "fusion_lat": 0.0, "name": "31d75b8733f4015e4f13e3c863d4abc6", "bike_id": "31d75b8733f4015e4f13e3c863d4abc6", "is_disabled": 0, "type": "electric_scooter", "lat": 38.91855566666667, "lon": -77.04042916666667, "is_reserved": 0, "fusion_lon": 0.0}, {"rental_uris": {"ios": "https://dc.lft.to/lastmile_qr_scan", "android": "https://dc.lft.to/lastmile_qr_scan"}, "fusion_lat": 0.0, "name": "230312c8282bcab728c252c23599a3bd", "bike_id": "230312c8282bcab728c252c23599a3bd", "is_disabled": 0, "type": "electric_scooter", "lat": 38.915477333333335, "lon": -77.02207883333334, "is_reserved": 0, "fusion_lon": 0.0}, {"rental_uris": {"ios": "https://dc.lft.to/lastmile_qr_scan", "android": "https://dc.lft.to/lastmile_qr_scan"}, "fusion_lat": 0.0, "name": "dc78dc65474e9cb3b8775d4670366b64", "bike_id": "dc78dc65474e9cb3b8775d4670366b64", "is_disabled": 0, "type": "electric_scooter", "lat": 38.939696166666664, "lon": -77.03252166666667, "is_reserved": 0, "fusion_lon": 0.0}, {"rental_uris": {"ios": "https://dc.lft.to/lastmile_qr_scan", "android": "https://dc.lft.to/lastmile_qr_scan"}, "fusion_lat": 0.0, "name": "e0c9cad84af6dba13fdf7d0544c1da4f", "bike_id": "e0c9cad84af6dba13fdf7d0544c1da4f", "is_disabled": 0, "type": "electric_scooter", "lat": 38.904363333333336, "lon": -77.06111733333333, "is_reserved": 0, "fusion_lon": 0.0}, {"rental_uris": {"ios": "https://dc.lft.to/lastmile_qr_scan", "android": "https://dc.lft.to/lastmile_qr_scan"}, "fusion_lat": 0.0, "name": "afa3c37ec729cd59aa5a36eb1d63d991", "bike_id": "afa3c37ec729cd59aa5a36eb1d63d991", "is_disabled": 0, "type": "electric_scooter", "lat": 38.930545, "lon": -77.0265335, "is_reserved": 0, "fusion_lon": 0.0}, {"rental_uris": {"ios": "https://dc.lft.to/lastmile_qr_scan", "android": "https://dc.lft.to/lastmile_qr_scan"}, "fusion_lat": 0.0, "name": "ebde4b2c58c67260e29ce11fd5328628", "bike_id": "ebde4b2c58c67260e29ce11fd5328628", "is_disabled": 0, "type": "electric_scooter", "lat": 38.916600833333334, "lon": -77.02192766666667, "is_reserved": 0, "fusion_lon": 0.0}, {"rental_uris": {"ios": "https://dc.lft.to/lastmile_qr_scan", "android": "https://dc.lft.to/lastmile_qr_scan"}, "fusion_lat": 0.0, "name": "0ddaa24da13ba800f0ae84f84bf06275", "bike_id": "0ddaa24da13ba800f0ae84f84bf06275", "is_disabled": 0, "type": "electric_scooter", "lat": 38.909564833333334, "lon": -77.03472366666666, "is_reserved": 0, "fusion_lon": 0.0}, {"rental_uris": {"ios": "https://dc.lft.to/lastmile_qr_scan", "android": "https://dc.lft.to/lastmile_qr_scan"}, "fusion_lat": 0.0, "name": "d706b59588b28e9ab977f797ea386669", "bike_id": "d706b59588b28e9ab977f797ea386669", "is_disabled": 0, "type": "electric_scooter", "lat": 38.8767265, "lon": -77.01798966666667, "is_reserved": 0, "fusion_lon": 0.0}, {"rental_uris": {"ios": "https://dc.lft.to/lastmile_qr_scan", "android": "https://dc.lft.to/lastmile_qr_scan"}, "fusion_lat": 0.0, "name": "589b06d2dbabc2b221a259260366f041", "bike_id": "589b06d2dbabc2b221a259260366f041", "is_disabled": 0, "type": "electric_scooter", "lat": 38.8610965, "lon": -76.98372016666667, "is_reserved": 0, "fusion_lon": 0.0}, {"rental_uris": {"ios": "https://dc.lft.to/lastmile_qr_scan", "android": "https://dc.lft.to/lastmile_qr_scan"}, "fusion_lat": 0.0, "name": "b1462a33b11fa71551880f947ccdd901", "bike_id": "b1462a33b11fa71551880f947ccdd901", "is_disabled": 0, "type": "electric_scooter", "lat": 38.90634133333333, "lon": -77.02400233333333, "is_reserved": 0, "fusion_lon": 0.0}, {"rental_uris": {"ios": "https://dc.lft.to/lastmile_qr_scan", "android": "https://dc.lft.to/lastmile_qr_scan"}, "fusion_lat": 0.0, "name": "2cdde317b3a562672e709c6a8f7aa2b0", "bike_id": "2cdde317b3a562672e709c6a8f7aa2b0", "is_disabled": 0, "type": "electric_bike", "lat": 38.92209833333333, "lon": -76.98796133333333, "is_reserved": 0, "fusion_lon": 0.0}, {"rental_uris": {"ios": "https://dc.lft.to/lastmile_qr_scan", "android": "https://dc.lft.to/lastmile_qr_scan"}, "fusion_lat": 0.0, "name": "1818b8753fa749f8bcb26a3064750435", "bike_id": "1818b8753fa749f8bcb26a3064750435", "is_disabled": 0, "type": "electric_scooter", "lat": 38.890133166666665, "lon": -76.9373465, "is_reserved": 0, "fusion_lon": 0.0}, {"rental_uris": {"ios": "https://dc.lft.to/lastmile_qr_scan", "android": "https://dc.lft.to/lastmile_qr_scan"}, "fusion_lat": 0.0, "name": "68f07558d22c704f549ed408fce3590f", "bike_id": "68f07558d22c704f549ed408fce3590f", "is_disabled": 0, "type": "electric_bike", "lat": 39.03888633333333, "lon": -77.050551, "is_reserved": 0, "fusion_lon": 0.0}, {"rental_uris": {"ios": "https://dc.lft.to/lastmile_qr_scan", "android": "https://dc.lft.to/lastmile_qr_scan"}, "fusion_lat": 0.0, "name": "04c209563f1a21783c531d5d201a6b48", "bike_id": "04c209563f1a21783c531d5d201a6b48", "is_disabled": 0, "type": "electric_scooter", "lat": 38.908052166666664, "lon": -77.03841033333333, "is_reserved": 0, "fusion_lon": 0.0}, {"rental_uris": {"ios": "https://dc.lft.to/lastmile_qr_scan", "android": "https://dc.lft.to/lastmile_qr_scan"}, "fusion_lat": 0.0, "name": "b7e708282fce426f3558b2a4d6322a2f", "bike_id": "b7e708282fce426f3558b2a4d6322a2f", "is_disabled": 0, "type": "electric_scooter", "lat": 38.951628666666664, "lon": -77.027484, "is_reserved": 0, "fusion_lon": 0.0}, {"rental_uris": {"ios": "https://dc.lft.to/lastmile_qr_scan", "android": "https://dc.lft.to/lastmile_qr_scan"}, "fusion_lat": 0.0, "name": "8e64c48ad08d08951ab8e437b78eba9d", "bike_id": "8e64c48ad08d08951ab8e437b78eba9d", "is_disabled": 0, "type": "electric_scooter", "lat": 38.918115666666665, "lon": -77.02713816666666, "is_reserved": 0, "fusion_lon": 0.0}, {"rental_uris": {"ios": "https://dc.lft.to/lastmile_qr_scan", "android": "https://dc.lft.to/lastmile_qr_scan"}, "fusion_lat": 0.0, "name": "856d5c5f351f11d624bfc0f9e5ea3e94", "bike_id": "856d5c5f351f11d624bfc0f9e5ea3e94", "is_disabled": 0, "type": "electric_scooter", "lat": 38.89220866666667, "lon": -77.0137355, "is_reserved": 0, "fusion_lon": 0.0}, {"rental_uris": {"ios": "https://dc.lft.to/lastmile_qr_scan", "android": "https://dc.lft.to/lastmile_qr_scan"}, "fusion_lat": 0.0, "name": "4c7870c6259388698cade9d051b0c37c", "bike_id": "4c7870c6259388698cade9d051b0c37c", "is_disabled": 0, "type": "electric_scooter", "lat": 38.892207666666664, "lon": -77.03215616666667, "is_reserved": 0, "fusion_lon": 0.0}, {"rental_uris": {"ios": "https://dc.lft.to/lastmile_qr_scan", "android": "https://dc.lft.to/lastmile_qr_scan"}, "fusion_lat": 0.0, "name": "e04ac3858e9b8b84222a2d590464f1d1", "bike_id": "e04ac3858e9b8b84222a2d590464f1d1", "is_disabled": 0, "type": "electric_scooter", "lat": 38.941948, "lon": -77.02590133333334, "is_reserved": 0, "fusion_lon": 0.0}, {"rental_uris": {"ios": "https://dc.lft.to/lastmile_qr_scan", "android": "https://dc.lft.to/lastmile_qr_scan"}, "fusion_lat": 0.0, "name": "98f00dc256d83e256b8f094e99a23839", "bike_id": "98f00dc256d83e256b8f094e99a23839", "is_disabled": 0, "type": "electric_scooter", "lat": 38.877933, "lon": -76.99405483333334, "is_reserved": 0, "fusion_lon": 0.0}, {"rental_uris": {"ios": "https://dc.lft.to/lastmile_qr_scan", "android": "https://dc.lft.to/lastmile_qr_scan"}, "fusion_lat": 0.0, "name": "04e7bc13d82f06ebc407cdf359af0368", "bike_id": "04e7bc13d82f06ebc407cdf359af0368", "is_disabled": 0, "type": "electric_bike", "lat": 38.859381, "lon": -77.08606666666667, "is_reserved": 0, "fusion_lon": 0.0}, {"rental_uris": {"ios": "https://dc.lft.to/lastmile_qr_scan", "android": "https://dc.lft.to/lastmile_qr_scan"}, "fusion_lat": 0.0, "name": "2d4c01c96229122ad140ca2e0857a548", "bike_id": "2d4c01c96229122ad140ca2e0857a548", "is_disabled": 0, "type": "electric_scooter", "lat": 38.9330635, "lon": -77.03585083333333, "is_reserved": 0, "fusion_lon": 0.0}, {"rental_uris": {"ios": "https://dc.lft.to/lastmile_qr_scan", "android": "https://dc.lft.to/lastmile_qr_scan"}, "fusion_lat": 0.0, "name": "e62cc7cf2f1c6c28c305430bb7cd27b7", "bike_id": "e62cc7cf2f1c6c28c305430bb7cd27b7", "is_disabled": 0, "type": "electric_scooter", "lat": 38.9156625, "lon": -77.0314555, "is_reserved": 0, "fusion_lon": 0.0}, {"rental_uris": {"ios": "https://dc.lft.to/lastmile_qr_scan", "android": "https://dc.lft.to/lastmile_qr_scan"}, "fusion_lat": 0.0, "name": "1ab3b2f80e051f00a6d47ab8ed444ccf", "bike_id": "1ab3b2f80e051f00a6d47ab8ed444ccf", "is_disabled": 0, "type": "electric_scooter", "lat": 38.88457566666666, "lon": -77.0217405, "is_reserved": 0, "fusion_lon": 0.0}, {"rental_uris": {"ios": "https://dc.lft.to/lastmile_qr_scan", "android": "https://dc.lft.to/lastmile_qr_scan"}, "fusion_lat": 0.0, "name": "fcc520225e60e2ad108a01b2861af880", "bike_id": "fcc520225e60e2ad108a01b2861af880", "is_disabled": 0, "type": "electric_scooter", "lat": 38.909710833333335, "lon": -77.03436533333333, "is_reserved": 0, "fusion_lon": 0.0}, {"rental_uris": {"ios": "https://dc.lft.to/lastmile_qr_scan", "android": "https://dc.lft.to/lastmile_qr_scan"}, "fusion_lat": 0.0, "name": "92263416a7445223a22f9d3d147a109c", "bike_id": "92263416a7445223a22f9d3d147a109c", "is_disabled": 0, "type": "electric_scooter", "lat": 38.908191333333335, "lon": -77.01840483333334, "is_reserved": 0, "fusion_lon": 0.0}, {"rental_uris": {"ios": "https://dc.lft.to/lastmile_qr_scan", "android": "https://dc.lft.to/lastmile_qr_scan"}, "fusion_lat": 0.0, "name": "68843d6cac48806cb889e3b27096a07e", "bike_id": "68843d6cac48806cb889e3b27096a07e", "is_disabled": 0, "type": "electric_scooter", "lat": 38.91688283333333, "lon": -77.02978516666667, "is_reserved": 0, "fusion_lon": 0.0}, {"rental_uris": {"ios": "https://dc.lft.to/lastmile_qr_scan", "android": "https://dc.lft.to/lastmile_qr_scan"}, "fusion_lat": 0.0, "name": "beb5e1d6f2690adf899db9a5792f5ea3", "bike_id": "beb5e1d6f2690adf899db9a5792f5ea3", "is_disabled": 0, "type": "electric_scooter", "lat": 38.898217, "lon": -76.9302295, "is_reserved": 0, "fusion_lon": 0.0}, {"rental_uris": {"ios": "https://dc.lft.to/lastmile_qr_scan", "android": "https://dc.lft.to/lastmile_qr_scan"}, "fusion_lat": 0.0, "name": "c3f9fc1d59997360874d2cff690e3bf5", "bike_id": "c3f9fc1d59997360874d2cff690e3bf5", "is_disabled": 0, "type": "electric_scooter", "lat": 38.90719516666667, "lon": -77.028879, "is_reserved": 0, "fusion_lon": 0.0}, {"rental_uris": {"ios": "https://dc.lft.to/lastmile_qr_scan", "android": "https://dc.lft.to/lastmile_qr_scan"}, "fusion_lat": 0.0, "name": "309104ec733ffcce5054e4f135938a78", "bike_id": "309104ec733ffcce5054e4f135938a78", "is_disabled": 0, "type": "electric_scooter", "lat": 38.8966545, "lon": -77.0243885, "is_reserved": 0, "fusion_lon": 0.0}, {"rental_uris": {"ios": "https://dc.lft.to/lastmile_qr_scan", "android": "https://dc.lft.to/lastmile_qr_scan"}, "fusion_lat": 0.0, "name": "605f362eec5c73b8c572d21ae548f976", "bike_id": "605f362eec5c73b8c572d21ae548f976", "is_disabled": 0, "type": "electric_scooter", "lat": 38.93969283333333, "lon": -77.02157166666667, "is_reserved": 0, "fusion_lon": 0.0}, {"rental_uris": {"ios": "https://dc.lft.to/lastmile_qr_scan", "android": "https://dc.lft.to/lastmile_qr_scan"}, "fusion_lat": 0.0, "name": "9a3d1748fd8a46bda3b1be576e4ca7f0", "bike_id": "9a3d1748fd8a46bda3b1be576e4ca7f0", "is_disabled": 0, "type": "electric_scooter", "lat": 38.910827833333336, "lon": -77.02093783333333, "is_reserved": 0, "fusion_lon": 0.0}, {"rental_uris": {"ios": "https://dc.lft.to/lastmile_qr_scan", "android": "https://dc.lft.to/lastmile_qr_scan"}, "fusion_lat": 0.0, "name": "20c3a64aa7b76f4d56a17893cb717145", "bike_id": "20c3a64aa7b76f4d56a17893cb717145", "is_disabled": 0, "type": "electric_scooter", "lat": 38.8872635, "lon": -77.02827133333334, "is_reserved": 0, "fusion_lon": 0.0}, {"rental_uris": {"ios": "https://dc.lft.to/lastmile_qr_scan", "android": "https://dc.lft.to/lastmile_qr_scan"}, "fusion_lat": 0.0, "name": "d978acf6fb6dab09a21009b52f4763d2", "bike_id": "d978acf6fb6dab09a21009b52f4763d2", "is_disabled": 0, "type": "electric_scooter", "lat": 38.89881583333333, "lon": -77.02209883333333, "is_reserved": 0, "fusion_lon": 0.0}, {"rental_uris": {"ios": "https://dc.lft.to/lastmile_qr_scan", "android": "https://dc.lft.to/lastmile_qr_scan"}, "fusion_lat": 0.0, "name": "592d1ef0588ef7ba01d03dc93cdbc155", "bike_id": "592d1ef0588ef7ba01d03dc93cdbc155", "is_disabled": 0, "type": "electric_scooter", "lat": 38.8973875, "lon": -77.046844, "is_reserved": 0, "fusion_lon": 0.0}, {"rental_uris": {"ios": "https://dc.lft.to/lastmile_qr_scan", "android": "https://dc.lft.to/lastmile_qr_scan"}, "fusion_lat": 0.0, "name": "dbba110e048e9aa0fbb1b139fccf7f91", "bike_id": "dbba110e048e9aa0fbb1b139fccf7f91", "is_disabled": 0, "type": "electric_scooter", "lat": 38.925673, "lon": -77.0285025, "is_reserved": 0, "fusion_lon": 0.0}, {"rental_uris": {"ios": "https://dc.lft.to/lastmile_qr_scan", "android": "https://dc.lft.to/lastmile_qr_scan"}, "fusion_lat": 0.0, "name": "edbcd6ed187fe19e75ca103e250ac60e", "bike_id": "edbcd6ed187fe19e75ca103e250ac60e", "is_disabled": 0, "type": "electric_scooter", "lat": 38.936793, "lon": -77.03264833333333, "is_reserved": 0, "fusion_lon": 0.0}, {"rental_uris": {"ios": "https://dc.lft.to/lastmile_qr_scan", "android": "https://dc.lft.to/lastmile_qr_scan"}, "fusion_lat": 0.0, "name": "8bdef8afddd960c1292062d7686ed9ea", "bike_id": "8bdef8afddd960c1292062d7686ed9ea", "is_disabled": 0, "type": "electric_scooter", "lat": 38.917253, "lon": -77.04166683333334, "is_reserved": 0, "fusion_lon": 0.0}, {"rental_uris": {"ios": "https://dc.lft.to/lastmile_qr_scan", "android": "https://dc.lft.to/lastmile_qr_scan"}, "fusion_lat": 0.0, "name": "be9cee99fcacdf91c1495be4e844bd04", "bike_id": "be9cee99fcacdf91c1495be4e844bd04", "is_disabled": 0, "type": "electric_scooter", "lat": 38.89223583333333, "lon": -77.0322125, "is_reserved": 0, "fusion_lon": 0.0}, {"rental_uris": {"ios": "https://dc.lft.to/lastmile_qr_scan", "android": "https://dc.lft.to/lastmile_qr_scan"}, "fusion_lat": 0.0, "name": "5d17bbd7986e3919d6fe7b5c436a0e8c", "bike_id": "5d17bbd7986e3919d6fe7b5c436a0e8c", "is_disabled": 0, "type": "electric_scooter", "lat": 38.905263833333336, "lon": -77.047475, "is_reserved": 0, "fusion_lon": 0.0}, {"rental_uris": {"ios": "https://dc.lft.to/lastmile_qr_scan", "android": "https://dc.lft.to/lastmile_qr_scan"}, "fusion_lat": 0.0, "name": "c9e25fd58b03e5666f8e6cea816bc7e7", "bike_id": "c9e25fd58b03e5666f8e6cea816bc7e7", "is_disabled": 0, "type": "electric_scooter", "lat": 38.8708235, "lon": -77.01375766666666, "is_reserved": 0, "fusion_lon": 0.0}, {"rental_uris": {"ios": "https://dc.lft.to/lastmile_qr_scan", "android": "https://dc.lft.to/lastmile_qr_scan"}, "fusion_lat": 0.0, "name": "cf5c907be286aef6e6d39e2a5ac24858", "bike_id": "cf5c907be286aef6e6d39e2a5ac24858", "is_disabled": 0, "type": "electric_scooter", "lat": 38.8791095, "lon": -76.99141066666667, "is_reserved": 0, "fusion_lon": 0.0}, {"rental_uris": {"ios": "https://dc.lft.to/lastmile_qr_scan", "android": "https://dc.lft.to/lastmile_qr_scan"}, "fusion_lat": 0.0, "name": "5ce4a1009b6b7478df1ffa0d6784d04c", "bike_id": "5ce4a1009b6b7478df1ffa0d6784d04c", "is_disabled": 0, "type": "electric_bike", "lat": 38.90613333333334, "lon": -77.0391505, "is_reserved": 0, "fusion_lon": 0.0}, {"rental_uris": {"ios": "https://dc.lft.to/lastmile_qr_scan", "android": "https://dc.lft.to/lastmile_qr_scan"}, "fusion_lat": 0.0, "name": "c31e66b5ff632773fdeb36f386290131", "bike_id": "c31e66b5ff632773fdeb36f386290131", "is_disabled": 0, "type": "electric_scooter", "lat": 38.8922275, "lon": -77.039844, "is_reserved": 0, "fusion_lon": 0.0}, {"rental_uris": {"ios": "https://dc.lft.to/lastmile_qr_scan", "android": "https://dc.lft.to/lastmile_qr_scan"}, "fusion_lat": 0.0, "name": "8f3f5a599831cd52b19d61a5ca23fc40", "bike_id": "8f3f5a599831cd52b19d61a5ca23fc40", "is_disabled": 0, "type": "electric_scooter", "lat": 38.909712, "lon": -77.03227366666667, "is_reserved": 0, "fusion_lon": 0.0}, {"rental_uris": {"ios": "https://dc.lft.to/lastmile_qr_scan", "android": "https://dc.lft.to/lastmile_qr_scan"}, "fusion_lat": 0.0, "name": "70003aef798617efa8a658513f37aae2", "bike_id": "70003aef798617efa8a658513f37aae2", "is_disabled": 0, "type": "electric_scooter", "lat": 38.90442083333333, "lon": -77.02691733333333, "is_reserved": 0, "fusion_lon": 0.0}, {"rental_uris": {"ios": "https://dc.lft.to/lastmile_qr_scan", "android": "https://dc.lft.to/lastmile_qr_scan"}, "fusion_lat": 0.0, "name": "bc6117e1b87338cfabc9df5df935bae1", "bike_id": "bc6117e1b87338cfabc9df5df935bae1", "is_disabled": 0, "type": "electric_scooter", "lat": 38.909771166666665, "lon": -77.033847, "is_reserved": 0, "fusion_lon": 0.0}, {"rental_uris": {"ios": "https://dc.lft.to/lastmile_qr_scan", "android": "https://dc.lft.to/lastmile_qr_scan"}, "fusion_lat": 0.0, "name": "f01d97181ee962de7f2f375c6968f494", "bike_id": "f01d97181ee962de7f2f375c6968f494", "is_disabled": 0, "type": "electric_scooter", "lat": 38.90777883333333, "lon": -76.9800435, "is_reserved": 0, "fusion_lon": 0.0}, {"rental_uris": {"ios": "https://dc.lft.to/lastmile_qr_scan", "android": "https://dc.lft.to/lastmile_qr_scan"}, "fusion_lat": 0.0, "name": "1c61191cc4fc7d6de51fab1e7268a622", "bike_id": "1c61191cc4fc7d6de51fab1e7268a622", "is_disabled": 0, "type": "electric_scooter", "lat": 38.89224333333333, "lon": -77.043287, "is_reserved": 0, "fusion_lon": 0.0}, {"rental_uris": {"ios": "https://dc.lft.to/lastmile_qr_scan", "android": "https://dc.lft.to/lastmile_qr_scan"}, "fusion_lat": 0.0, "name": "4cad3104ffead90be171ed5b83fd4019", "bike_id": "4cad3104ffead90be171ed5b83fd4019", "is_disabled": 0, "type": "electric_scooter", "lat": 38.954260166666664, "lon": -77.02763, "is_reserved": 0, "fusion_lon": 0.0}, {"rental_uris": {"ios": "https://dc.lft.to/lastmile_qr_scan", "android": "https://dc.lft.to/lastmile_qr_scan"}, "fusion_lat": 0.0, "name": "14b768067507ce1bcde5cb16f5695255", "bike_id": "14b768067507ce1bcde5cb16f5695255", "is_disabled": 0, "type": "electric_scooter", "lat": 38.901428, "lon": -77.003513, "is_reserved": 0, "fusion_lon": 0.0}, {"rental_uris": {"ios": "https://dc.lft.to/lastmile_qr_scan", "android": "https://dc.lft.to/lastmile_qr_scan"}, "fusion_lat": 0.0, "name": "824bfa7657577bcb5e316f4381005aae", "bike_id": "824bfa7657577bcb5e316f4381005aae", "is_disabled": 0, "type": "electric_bike", "lat": 38.901151, "lon": -77.0393215, "is_reserved": 0, "fusion_lon": 0.0}, {"rental_uris": {"ios": "https://dc.lft.to/lastmile_qr_scan", "android": "https://dc.lft.to/lastmile_qr_scan"}, "fusion_lat": 0.0, "name": "f0bd65242e96606abe8fc830eb676a82", "bike_id": "f0bd65242e96606abe8fc830eb676a82", "is_disabled": 0, "type": "electric_bike", "lat": 38.91786283333333, "lon": -76.97186183333334, "is_reserved": 0, "fusion_lon": 0.0}, {"rental_uris": {"ios": "https://dc.lft.to/lastmile_qr_scan", "android": "https://dc.lft.to/lastmile_qr_scan"}, "fusion_lat": 0.0, "name": "284586f061eabd385f6150bd66b62102", "bike_id": "284586f061eabd385f6150bd66b62102", "is_disabled": 0, "type": "electric_scooter", "lat": 38.89225416666667, "lon": -77.04326616666667, "is_reserved": 0, "fusion_lon": 0.0}, {"rental_uris": {"ios": "https://dc.lft.to/lastmile_qr_scan", "android": "https://dc.lft.to/lastmile_qr_scan"}, "fusion_lat": 0.0, "name": "ad0cd038391eb7498ca44a53c82fac9b", "bike_id": "ad0cd038391eb7498ca44a53c82fac9b", "is_disabled": 0, "type": "electric_scooter", "lat": 38.9000995, "lon": -77.04297166666667, "is_reserved": 0, "fusion_lon": 0.0}, {"rental_uris": {"ios": "https://dc.lft.to/lastmile_qr_scan", "android": "https://dc.lft.to/lastmile_qr_scan"}, "fusion_lat": 0.0, "name": "d8778087f7be1a16fffb5bead16df9b0", "bike_id": "d8778087f7be1a16fffb5bead16df9b0", "is_disabled": 0, "type": "electric_scooter", "lat": 38.915867666666664, "lon": -77.017198, "is_reserved": 0, "fusion_lon": 0.0}, {"rental_uris": {"ios": "https://dc.lft.to/lastmile_qr_scan", "android": "https://dc.lft.to/lastmile_qr_scan"}, "fusion_lat": 0.0, "name": "159b901c66b32aba976c90e7f57cbb6c", "bike_id": "159b901c66b32aba976c90e7f57cbb6c", "is_disabled": 0, "type": "electric_scooter", "lat": 38.909698, "lon": -77.03404983333333, "is_reserved": 0, "fusion_lon": 0.0}, {"rental_uris": {"ios": "https://dc.lft.to/lastmile_qr_scan", "android": "https://dc.lft.to/lastmile_qr_scan"}, "fusion_lat": 0.0, "name": "a0d6f2af09fe1d7ec9a8f985ae20820a", "bike_id": "a0d6f2af09fe1d7ec9a8f985ae20820a", "is_disabled": 0, "type": "electric_scooter", "lat": 38.90389316666667, "lon": -77.03857116666667, "is_reserved": 0, "fusion_lon": 0.0}, {"rental_uris": {"ios": "https://dc.lft.to/lastmile_qr_scan", "android": "https://dc.lft.to/lastmile_qr_scan"}, "fusion_lat": 0.0, "name": "2d5692f670a7b7fd56920ea50e4996f6", "bike_id": "2d5692f670a7b7fd56920ea50e4996f6", "is_disabled": 0, "type": "electric_scooter", "lat": 38.92136, "lon": -77.03190716666667, "is_reserved": 0, "fusion_lon": 0.0}, {"rental_uris": {"ios": "https://dc.lft.to/lastmile_qr_scan", "android": "https://dc.lft.to/lastmile_qr_scan"}, "fusion_lat": 0.0, "name": "4d5dc0f88bfacdeb8629d39ccf50233a", "bike_id": "4d5dc0f88bfacdeb8629d39ccf50233a", "is_disabled": 0, "type": "electric_scooter", "lat": 38.892223333333334, "lon": -77.031641, "is_reserved": 0, "fusion_lon": 0.0}, {"rental_uris": {"ios": "https://dc.lft.to/lastmile_qr_scan", "android": "https://dc.lft.to/lastmile_qr_scan"}, "fusion_lat": 0.0, "name": "8e3c872e15f4e193924a65778ecefd4c", "bike_id": "8e3c872e15f4e193924a65778ecefd4c", "is_disabled": 0, "type": "electric_scooter", "lat": 38.89801933333333, "lon": -77.0461165, "is_reserved": 0, "fusion_lon": 0.0}, {"rental_uris": {"ios": "https://dc.lft.to/lastmile_qr_scan", "android": "https://dc.lft.to/lastmile_qr_scan"}, "fusion_lat": 0.0, "name": "d08b41cac684c20cfde13ec7ce8be46b", "bike_id": "d08b41cac684c20cfde13ec7ce8be46b", "is_disabled": 0, "type": "electric_scooter", "lat": 38.927302, "lon": -77.03405916666667, "is_reserved": 0, "fusion_lon": 0.0}, {"rental_uris": {"ios": "https://dc.lft.to/lastmile_qr_scan", "android": "https://dc.lft.to/lastmile_qr_scan"}, "fusion_lat": 0.0, "name": "5f633b5a560da954b376527c1c6b19bd", "bike_id": "5f633b5a560da954b376527c1c6b19bd", "is_disabled": 0, "type": "electric_scooter", "lat": 38.92840116666667, "lon": -76.99366033333334, "is_reserved": 0, "fusion_lon": 0.0}, {"rental_uris": {"ios": "https://dc.lft.to/lastmile_qr_scan", "android": "https://dc.lft.to/lastmile_qr_scan"}, "fusion_lat": 0.0, "name": "4097dcd66c8ea898d85f744a020b5cd8", "bike_id": "4097dcd66c8ea898d85f744a020b5cd8", "is_disabled": 0, "type": "electric_scooter", "lat": 38.89222083333333, "lon": -77.03220183333333, "is_reserved": 0, "fusion_lon": 0.0}, {"rental_uris": {"ios": "https://dc.lft.to/lastmile_qr_scan", "android": "https://dc.lft.to/lastmile_qr_scan"}, "fusion_lat": 0.0, "name": "b50a2ecedc6203b4c1fb9a54be7b34dd", "bike_id": "b50a2ecedc6203b4c1fb9a54be7b34dd", "is_disabled": 0, "type": "electric_scooter", "lat": 38.919705, "lon": -77.04143816666667, "is_reserved": 0, "fusion_lon": 0.0}, {"rental_uris": {"ios": "https://dc.lft.to/lastmile_qr_scan", "android": "https://dc.lft.to/lastmile_qr_scan"}, "fusion_lat": 0.0, "name": "50640a2bf770be8c858810f23ee2cb7d", "bike_id": "50640a2bf770be8c858810f23ee2cb7d", "is_disabled": 0, "type": "electric_scooter", "lat": 38.89221583333333, "lon": -77.032198, "is_reserved": 0, "fusion_lon": 0.0}, {"rental_uris": {"ios": "https://dc.lft.to/lastmile_qr_scan", "android": "https://dc.lft.to/lastmile_qr_scan"}, "fusion_lat": 0.0, "name": "fdaef6ebac840d3eefe98cb294a6ce7c", "bike_id": "fdaef6ebac840d3eefe98cb294a6ce7c", "is_disabled": 0, "type": "electric_scooter", "lat": 38.9428855, "lon": -77.02170083333333, "is_reserved": 0, "fusion_lon": 0.0}, {"rental_uris": {"ios": "https://dc.lft.to/lastmile_qr_scan", "android": "https://dc.lft.to/lastmile_qr_scan"}, "fusion_lat": 0.0, "name": "8a561eb8f393fd8912c8055530033db4", "bike_id": "8a561eb8f393fd8912c8055530033db4", "is_disabled": 0, "type": "electric_scooter", "lat": 38.887382, "lon": -77.02617683333334, "is_reserved": 0, "fusion_lon": 0.0}, {"rental_uris": {"ios": "https://dc.lft.to/lastmile_qr_scan", "android": "https://dc.lft.to/lastmile_qr_scan"}, "fusion_lat": 0.0, "name": "7ec0f71e14d3d7855740993075b24780", "bike_id": "7ec0f71e14d3d7855740993075b24780", "is_disabled": 0, "type": "electric_bike", "lat": 38.86168133333334, "lon": -77.13143816666667, "is_reserved": 0, "fusion_lon": 0.0}, {"rental_uris": {"ios": "https://dc.lft.to/lastmile_qr_scan", "android": "https://dc.lft.to/lastmile_qr_scan"}, "fusion_lat": 0.0, "name": "d81a79e6614d2428f2f6d1c226527559", "bike_id": "d81a79e6614d2428f2f6d1c226527559", "is_disabled": 0, "type": "electric_scooter", "lat": 38.905180666666666, "lon": -77.0501965, "is_reserved": 0, "fusion_lon": 0.0}, {"rental_uris": {"ios": "https://dc.lft.to/lastmile_qr_scan", "android": "https://dc.lft.to/lastmile_qr_scan"}, "fusion_lat": 0.0, "name": "c6c8d2783abf76301de4fba177ba1ca0", "bike_id": "c6c8d2783abf76301de4fba177ba1ca0", "is_disabled": 0, "type": "electric_scooter", "lat": 38.86533333333333, "lon": -76.98709, "is_reserved": 0, "fusion_lon": 0.0}, {"rental_uris": {"ios": "https://dc.lft.to/lastmile_qr_scan", "android": "https://dc.lft.to/lastmile_qr_scan"}, "fusion_lat": 0.0, "name": "46086bf2f8c0d82bdbfc0b6139bd4bd5", "bike_id": "46086bf2f8c0d82bdbfc0b6139bd4bd5", "is_disabled": 0, "type": "electric_bike", "lat": 38.9496045, "lon": -77.0664495, "is_reserved": 0, "fusion_lon": 0.0}, {"rental_uris": {"ios": "https://dc.lft.to/lastmile_qr_scan", "android": "https://dc.lft.to/lastmile_qr_scan"}, "fusion_lat": 0.0, "name": "1b1b5627b3dbe79519ce316ad7ce9d25", "bike_id": "1b1b5627b3dbe79519ce316ad7ce9d25", "is_disabled": 0, "type": "electric_scooter", "lat": 38.8852185, "lon": -77.01132333333334, "is_reserved": 0, "fusion_lon": 0.0}, {"rental_uris": {"ios": "https://dc.lft.to/lastmile_qr_scan", "android": "https://dc.lft.to/lastmile_qr_scan"}, "fusion_lat": 0.0, "name": "111fcdc941e9dfedd1b0ec4380aebbf9", "bike_id": "111fcdc941e9dfedd1b0ec4380aebbf9", "is_disabled": 0, "type": "electric_scooter", "lat": 38.92147683333334, "lon": -77.03504816666667, "is_reserved": 0, "fusion_lon": 0.0}, {"rental_uris": {"ios": "https://dc.lft.to/lastmile_qr_scan", "android": "https://dc.lft.to/lastmile_qr_scan"}, "fusion_lat": 0.0, "name": "15b164b2fadd3ed1155325736c11c2d3", "bike_id": "15b164b2fadd3ed1155325736c11c2d3", "is_disabled": 0, "type": "electric_scooter", "lat": 38.94182033333333, "lon": -77.02489233333333, "is_reserved": 0, "fusion_lon": 0.0}, {"rental_uris": {"ios": "https://dc.lft.to/lastmile_qr_scan", "android": "https://dc.lft.to/lastmile_qr_scan"}, "fusion_lat": 0.0, "name": "981be1558da36d41c53375672bc42f04", "bike_id": "981be1558da36d41c53375672bc42f04", "is_disabled": 0, "type": "electric_bike", "lat": 38.91786, "lon": -76.9718105, "is_reserved": 0, "fusion_lon": 0.0}, {"rental_uris": {"ios": "https://dc.lft.to/lastmile_qr_scan", "android": "https://dc.lft.to/lastmile_qr_scan"}, "fusion_lat": 0.0, "name": "3ecde9e076af390d5e675e7ca0c4c638", "bike_id": "3ecde9e076af390d5e675e7ca0c4c638", "is_disabled": 0, "type": "electric_scooter", "lat": 38.916158, "lon": -77.04161666666667, "is_reserved": 0, "fusion_lon": 0.0}, {"rental_uris": {"ios": "https://dc.lft.to/lastmile_qr_scan", "android": "https://dc.lft.to/lastmile_qr_scan"}, "fusion_lat": 0.0, "name": "e820f16a5761d730bceb1908e0aaf1c2", "bike_id": "e820f16a5761d730bceb1908e0aaf1c2", "is_disabled": 0, "type": "electric_scooter", "lat": 38.936591166666666, "lon": -77.05501416666667, "is_reserved": 0, "fusion_lon": 0.0}, {"rental_uris": {"ios": "https://dc.lft.to/lastmile_qr_scan", "android": "https://dc.lft.to/lastmile_qr_scan"}, "fusion_lat": 0.0, "name": "bcd65327f86dc656a387e55d1951a023", "bike_id": "bcd65327f86dc656a387e55d1951a023", "is_disabled": 0, "type": "electric_scooter", "lat": 38.9013285, "lon": -77.0448445, "is_reserved": 0, "fusion_lon": 0.0}, {"rental_uris": {"ios": "https://dc.lft.to/lastmile_qr_scan", "android": "https://dc.lft.to/lastmile_qr_scan"}, "fusion_lat": 0.0, "name": "8d9b5eac6a6e8bbdfd863e47c75de06b", "bike_id": "8d9b5eac6a6e8bbdfd863e47c75de06b", "is_disabled": 0, "type": "electric_scooter", "lat": 38.89194833333333, "lon": -77.0241155, "is_reserved": 0, "fusion_lon": 0.0}, {"rental_uris": {"ios": "https://dc.lft.to/lastmile_qr_scan", "android": "https://dc.lft.to/lastmile_qr_scan"}, "fusion_lat": 0.0, "name": "108a99587cfa8b6d38e6ba6216ed7c0a", "bike_id": "108a99587cfa8b6d38e6ba6216ed7c0a", "is_disabled": 0, "type": "electric_scooter", "lat": 38.89477266666667, "lon": -77.03113033333334, "is_reserved": 0, "fusion_lon": 0.0}, {"rental_uris": {"ios": "https://dc.lft.to/lastmile_qr_scan", "android": "https://dc.lft.to/lastmile_qr_scan"}, "fusion_lat": 0.0, "name": "b6cf8fabc985c3494900ec6f39652403", "bike_id": "b6cf8fabc985c3494900ec6f39652403", "is_disabled": 0, "type": "electric_scooter", "lat": 38.918995833333334, "lon": -77.03207633333334, "is_reserved": 0, "fusion_lon": 0.0}, {"rental_uris": {"ios": "https://dc.lft.to/lastmile_qr_scan", "android": "https://dc.lft.to/lastmile_qr_scan"}, "fusion_lat": 0.0, "name": "1574aef4331b903b0810b5cb3e3d7339", "bike_id": "1574aef4331b903b0810b5cb3e3d7339", "is_disabled": 0, "type": "electric_scooter", "lat": 38.91552266666667, "lon": -77.02417016666666, "is_reserved": 0, "fusion_lon": 0.0}, {"rental_uris": {"ios": "https://dc.lft.to/lastmile_qr_scan", "android": "https://dc.lft.to/lastmile_qr_scan"}, "fusion_lat": 0.0, "name": "9cd59f834fb70d0a557b65a4e353afdc", "bike_id": "9cd59f834fb70d0a557b65a4e353afdc", "is_disabled": 0, "type": "electric_scooter", "lat": 38.9181225, "lon": -77.03206183333333, "is_reserved": 0, "fusion_lon": 0.0}, {"rental_uris": {"ios": "https://dc.lft.to/lastmile_qr_scan", "android": "https://dc.lft.to/lastmile_qr_scan"}, "fusion_lat": 0.0, "name": "cc561e9a9a2e5278f749e41547e8a38a", "bike_id": "cc561e9a9a2e5278f749e41547e8a38a", "is_disabled": 0, "type": "electric_bike", "lat": 38.9285005, "lon": -77.22217866666666, "is_reserved": 0, "fusion_lon": 0.0}, {"rental_uris": {"ios": "https://dc.lft.to/lastmile_qr_scan", "android": "https://dc.lft.to/lastmile_qr_scan"}, "fusion_lat": 0.0, "name": "8d76b23267a23a32ba63ed0dc7df54bb", "bike_id": "8d76b23267a23a32ba63ed0dc7df54bb", "is_disabled": 0, "type": "electric_scooter", "lat": 38.899765, "lon": -76.93989433333333, "is_reserved": 0, "fusion_lon": 0.0}, {"rental_uris": {"ios": "https://dc.lft.to/lastmile_qr_scan", "android": "https://dc.lft.to/lastmile_qr_scan"}, "fusion_lat": 0.0, "name": "810aadd617645a766a95b05040dc9291", "bike_id": "810aadd617645a766a95b05040dc9291", "is_disabled": 0, "type": "electric_scooter", "lat": 38.906780499999996, "lon": -77.02693216666667, "is_reserved": 0, "fusion_lon": 0.0}, {"rental_uris": {"ios": "https://dc.lft.to/lastmile_qr_scan", "android": "https://dc.lft.to/lastmile_qr_scan"}, "fusion_lat": 0.0, "name": "a42904fa2e4bd41630864be0d2f29797", "bike_id": "a42904fa2e4bd41630864be0d2f29797", "is_disabled": 0, "type": "electric_bike", "lat": 39.088544666666664, "lon": -77.17837133333333, "is_reserved": 0, "fusion_lon": 0.0}, {"rental_uris": {"ios": "https://dc.lft.to/lastmile_qr_scan", "android": "https://dc.lft.to/lastmile_qr_scan"}, "fusion_lat": 0.0, "name": "d67d33495c79cdc5f1a34ea65f112861", "bike_id": "d67d33495c79cdc5f1a34ea65f112861", "is_disabled": 0, "type": "electric_bike", "lat": 38.87479483333333, "lon": -76.96528583333334, "is_reserved": 0, "fusion_lon": 0.0}, {"rental_uris": {"ios": "https://dc.lft.to/lastmile_qr_scan", "android": "https://dc.lft.to/lastmile_qr_scan"}, "fusion_lat": 0.0, "name": "69a9bc127d0cc70b338d9434a9bdab70", "bike_id": "69a9bc127d0cc70b338d9434a9bdab70", "is_disabled": 0, "type": "electric_scooter", "lat": 38.922524333333335, "lon": -77.01931066666667, "is_reserved": 0, "fusion_lon": 0.0}, {"rental_uris": {"ios": "https://dc.lft.to/lastmile_qr_scan", "android": "https://dc.lft.to/lastmile_qr_scan"}, "fusion_lat": 0.0, "name": "353c0ff0c48181d7a25fffd1de86b91a", "bike_id": "353c0ff0c48181d7a25fffd1de86b91a", "is_disabled": 0, "type": "electric_bike", "lat": 38.91584566666667, "lon": -76.9788545, "is_reserved": 0, "fusion_lon": 0.0}, {"rental_uris": {"ios": "https://dc.lft.to/lastmile_qr_scan", "android": "https://dc.lft.to/lastmile_qr_scan"}, "fusion_lat": 0.0, "name": "fbc6265a66912ad40dd85d47f4a011fd", "bike_id": "fbc6265a66912ad40dd85d47f4a011fd", "is_disabled": 0, "type": "electric_scooter", "lat": 38.89525, "lon": -77.02935516666666, "is_reserved": 0, "fusion_lon": 0.0}, {"rental_uris": {"ios": "https://dc.lft.to/lastmile_qr_scan", "android": "https://dc.lft.to/lastmile_qr_scan"}, "fusion_lat": 0.0, "name": "a1ff412530929533eb73a072edbda6dc", "bike_id": "a1ff412530929533eb73a072edbda6dc", "is_disabled": 0, "type": "electric_scooter", "lat": 38.916313, "lon": -77.02551233333334, "is_reserved": 0, "fusion_lon": 0.0}, {"rental_uris": {"ios": "https://dc.lft.to/lastmile_qr_scan", "android": "https://dc.lft.to/lastmile_qr_scan"}, "fusion_lat": 0.0, "name": "b98df76c05f23ff734988e5c7e4a92cf", "bike_id": "b98df76c05f23ff734988e5c7e4a92cf", "is_disabled": 0, "type": "electric_scooter", "lat": 38.91561316666667, "lon": -77.03145283333333, "is_reserved": 0, "fusion_lon": 0.0}, {"rental_uris": {"ios": "https://dc.lft.to/lastmile_qr_scan", "android": "https://dc.lft.to/lastmile_qr_scan"}, "fusion_lat": 0.0, "name": "7fb60b9fb364218e125b4674ad86d59c", "bike_id": "7fb60b9fb364218e125b4674ad86d59c", "is_disabled": 0, "type": "electric_scooter", "lat": 38.892281, "lon": -77.01368583333333, "is_reserved": 0, "fusion_lon": 0.0}, {"rental_uris": {"ios": "https://dc.lft.to/lastmile_qr_scan", "android": "https://dc.lft.to/lastmile_qr_scan"}, "fusion_lat": 0.0, "name": "dc9e885745869b8d0cb0d3430a5e6f8f", "bike_id": "dc9e885745869b8d0cb0d3430a5e6f8f", "is_disabled": 0, "type": "electric_scooter", "lat": 38.89621566666667, "lon": -77.03162333333333, "is_reserved": 0, "fusion_lon": 0.0}, {"rental_uris": {"ios": "https://dc.lft.to/lastmile_qr_scan", "android": "https://dc.lft.to/lastmile_qr_scan"}, "fusion_lat": 0.0, "name": "2a4aa24e8dc5c42ea827aa533ab60f0e", "bike_id": "2a4aa24e8dc5c42ea827aa533ab60f0e", "is_disabled": 0, "type": "electric_scooter", "lat": 38.92412066666667, "lon": -77.02107483333333, "is_reserved": 0, "fusion_lon": 0.0}, {"rental_uris": {"ios": "https://dc.lft.to/lastmile_qr_scan", "android": "https://dc.lft.to/lastmile_qr_scan"}, "fusion_lat": 0.0, "name": "7874d9c5d96342d675b46c99951828c2", "bike_id": "7874d9c5d96342d675b46c99951828c2", "is_disabled": 0, "type": "electric_scooter", "lat": 38.905601, "lon": -77.00584716666667, "is_reserved": 0, "fusion_lon": 0.0}, {"rental_uris": {"ios": "https://dc.lft.to/lastmile_qr_scan", "android": "https://dc.lft.to/lastmile_qr_scan"}, "fusion_lat": 0.0, "name": "64dc94bb9e0d3adc87d86553dc4d743f", "bike_id": "64dc94bb9e0d3adc87d86553dc4d743f", "is_disabled": 0, "type": "electric_scooter", "lat": 38.961637333333336, "lon": -77.02785266666666, "is_reserved": 0, "fusion_lon": 0.0}, {"rental_uris": {"ios": "https://dc.lft.to/lastmile_qr_scan", "android": "https://dc.lft.to/lastmile_qr_scan"}, "fusion_lat": 0.0, "name": "60d4466b5275309c6c024e106331b73d", "bike_id": "60d4466b5275309c6c024e106331b73d", "is_disabled": 0, "type": "electric_scooter", "lat": 38.903127, "lon": -77.02426666666666, "is_reserved": 0, "fusion_lon": 0.0}, {"rental_uris": {"ios": "https://dc.lft.to/lastmile_qr_scan", "android": "https://dc.lft.to/lastmile_qr_scan"}, "fusion_lat": 0.0, "name": "2278c35997884438a969a6cade871a7a", "bike_id": "2278c35997884438a969a6cade871a7a", "is_disabled": 0, "type": "electric_bike", "lat": 39.062909833333336, "lon": -77.04975583333334, "is_reserved": 0, "fusion_lon": 0.0}, {"rental_uris": {"ios": "https://dc.lft.to/lastmile_qr_scan", "android": "https://dc.lft.to/lastmile_qr_scan"}, "fusion_lat": 0.0, "name": "0f0e9d0a016393ab5e147ad15c682f36", "bike_id": "0f0e9d0a016393ab5e147ad15c682f36", "is_disabled": 0, "type": "electric_scooter", "lat": 38.91407733333333, "lon": -77.04039416666667, "is_reserved": 0, "fusion_lon": 0.0}, {"rental_uris": {"ios": "https://dc.lft.to/lastmile_qr_scan", "android": "https://dc.lft.to/lastmile_qr_scan"}, "fusion_lat": 0.0, "name": "0b6b79586ef8a6c1de68c1bdf7a199bc", "bike_id": "0b6b79586ef8a6c1de68c1bdf7a199bc", "is_disabled": 0, "type": "electric_scooter", "lat": 38.84423983333333, "lon": -76.99773283333333, "is_reserved": 0, "fusion_lon": 0.0}, {"rental_uris": {"ios": "https://dc.lft.to/lastmile_qr_scan", "android": "https://dc.lft.to/lastmile_qr_scan"}, "fusion_lat": 0.0, "name": "c53b101ac323608778630f09757174bc", "bike_id": "c53b101ac323608778630f09757174bc", "is_disabled": 0, "type": "electric_scooter", "lat": 38.92442466666667, "lon": -77.04024733333334, "is_reserved": 0, "fusion_lon": 0.0}, {"rental_uris": {"ios": "https://dc.lft.to/lastmile_qr_scan", "android": "https://dc.lft.to/lastmile_qr_scan"}, "fusion_lat": 0.0, "name": "2e462efdd01b5c190f1657bc9f5e6280", "bike_id": "2e462efdd01b5c190f1657bc9f5e6280", "is_disabled": 0, "type": "electric_scooter", "lat": 38.88427433333333, "lon": -76.95754083333334, "is_reserved": 0, "fusion_lon": 0.0}, {"rental_uris": {"ios": "https://dc.lft.to/lastmile_qr_scan", "android": "https://dc.lft.to/lastmile_qr_scan"}, "fusion_lat": 0.0, "name": "7d63d81af44a003edfdf3b8f4916cabc", "bike_id": "7d63d81af44a003edfdf3b8f4916cabc", "is_disabled": 0, "type": "electric_scooter", "lat": 38.89738966666667, "lon": -77.02603783333333, "is_reserved": 0, "fusion_lon": 0.0}, {"rental_uris": {"ios": "https://dc.lft.to/lastmile_qr_scan", "android": "https://dc.lft.to/lastmile_qr_scan"}, "fusion_lat": 0.0, "name": "b1bb36f8cd5085227e1be4296e402799", "bike_id": "b1bb36f8cd5085227e1be4296e402799", "is_disabled": 0, "type": "electric_scooter", "lat": 38.90604016666666, "lon": -77.03405833333333, "is_reserved": 0, "fusion_lon": 0.0}, {"rental_uris": {"ios": "https://dc.lft.to/lastmile_qr_scan", "android": "https://dc.lft.to/lastmile_qr_scan"}, "fusion_lat": 0.0, "name": "83733c8c2033e4759b75728f14ffbb87", "bike_id": "83733c8c2033e4759b75728f14ffbb87", "is_disabled": 0, "type": "electric_scooter", "lat": 38.91702933333333, "lon": -77.011357, "is_reserved": 0, "fusion_lon": 0.0}, {"rental_uris": {"ios": "https://dc.lft.to/lastmile_qr_scan", "android": "https://dc.lft.to/lastmile_qr_scan"}, "fusion_lat": 0.0, "name": "bf62d5ba68e427f841709796c306e81a", "bike_id": "bf62d5ba68e427f841709796c306e81a", "is_disabled": 0, "type": "electric_scooter", "lat": 38.88741483333333, "lon": -77.02121233333334, "is_reserved": 0, "fusion_lon": 0.0}, {"rental_uris": {"ios": "https://dc.lft.to/lastmile_qr_scan", "android": "https://dc.lft.to/lastmile_qr_scan"}, "fusion_lat": 0.0, "name": "dbcd19beecbe52711ce3fae95b0d89c3", "bike_id": "dbcd19beecbe52711ce3fae95b0d89c3", "is_disabled": 0, "type": "electric_bike", "lat": 38.92894116666667, "lon": -77.10596616666666, "is_reserved": 0, "fusion_lon": 0.0}, {"rental_uris": {"ios": "https://dc.lft.to/lastmile_qr_scan", "android": "https://dc.lft.to/lastmile_qr_scan"}, "fusion_lat": 0.0, "name": "d73753af8584e22eb2d059df01c59b14", "bike_id": "d73753af8584e22eb2d059df01c59b14", "is_disabled": 0, "type": "electric_scooter", "lat": 38.9230755, "lon": -77.0419575, "is_reserved": 0, "fusion_lon": 0.0}, {"rental_uris": {"ios": "https://dc.lft.to/lastmile_qr_scan", "android": "https://dc.lft.to/lastmile_qr_scan"}, "fusion_lat": 0.0, "name": "5f0f8bfe551b71243611b7851b75d80a", "bike_id": "5f0f8bfe551b71243611b7851b75d80a", "is_disabled": 0, "type": "electric_scooter", "lat": 38.92608283333333, "lon": -77.02158616666667, "is_reserved": 0, "fusion_lon": 0.0}, {"rental_uris": {"ios": "https://dc.lft.to/lastmile_qr_scan", "android": "https://dc.lft.to/lastmile_qr_scan"}, "fusion_lat": 0.0, "name": "97291e01680bf86e6183c6cf73f5ebad", "bike_id": "97291e01680bf86e6183c6cf73f5ebad", "is_disabled": 0, "type": "electric_scooter", "lat": 38.90657866666667, "lon": -77.02689083333334, "is_reserved": 0, "fusion_lon": 0.0}, {"rental_uris": {"ios": "https://dc.lft.to/lastmile_qr_scan", "android": "https://dc.lft.to/lastmile_qr_scan"}, "fusion_lat": 0.0, "name": "9f900d26ffed0b9f56e2bde180d3e078", "bike_id": "9f900d26ffed0b9f56e2bde180d3e078", "is_disabled": 0, "type": "electric_scooter", "lat": 38.91159716666667, "lon": -77.044793, "is_reserved": 0, "fusion_lon": 0.0}, {"rental_uris": {"ios": "https://dc.lft.to/lastmile_qr_scan", "android": "https://dc.lft.to/lastmile_qr_scan"}, "fusion_lat": 0.0, "name": "6d1aabdedbf32ec8c8a5602582dc993c", "bike_id": "6d1aabdedbf32ec8c8a5602582dc993c", "is_disabled": 0, "type": "electric_scooter", "lat": 38.88782916666667, "lon": -76.95535883333334, "is_reserved": 0, "fusion_lon": 0.0}, {"rental_uris": {"ios": "https://dc.lft.to/lastmile_qr_scan", "android": "https://dc.lft.to/lastmile_qr_scan"}, "fusion_lat": 0.0, "name": "2383b6cbbd61b47aff1e71c6a43ca815", "bike_id": "2383b6cbbd61b47aff1e71c6a43ca815", "is_disabled": 0, "type": "electric_scooter", "lat": 38.90302333333333, "lon": -77.01187583333333, "is_reserved": 0, "fusion_lon": 0.0}, {"rental_uris": {"ios": "https://dc.lft.to/lastmile_qr_scan", "android": "https://dc.lft.to/lastmile_qr_scan"}, "fusion_lat": 0.0, "name": "86382b3cc4d2ea5f889c6012acc9b052", "bike_id": "86382b3cc4d2ea5f889c6012acc9b052", "is_disabled": 0, "type": "electric_scooter", "lat": 38.9094955, "lon": -77.03201183333333, "is_reserved": 0, "fusion_lon": 0.0}, {"rental_uris": {"ios": "https://dc.lft.to/lastmile_qr_scan", "android": "https://dc.lft.to/lastmile_qr_scan"}, "fusion_lat": 0.0, "name": "dd7c3b87f7db480bfbdb457fb6fad7f7", "bike_id": "dd7c3b87f7db480bfbdb457fb6fad7f7", "is_disabled": 0, "type": "electric_scooter", "lat": 38.9264985, "lon": -77.03669133333334, "is_reserved": 0, "fusion_lon": 0.0}, {"rental_uris": {"ios": "https://dc.lft.to/lastmile_qr_scan", "android": "https://dc.lft.to/lastmile_qr_scan"}, "fusion_lat": 0.0, "name": "95a109eeeae8dbea7cf435d7d19460e9", "bike_id": "95a109eeeae8dbea7cf435d7d19460e9", "is_disabled": 0, "type": "electric_scooter", "lat": 38.898215666666665, "lon": -77.04359083333334, "is_reserved": 0, "fusion_lon": 0.0}, {"rental_uris": {"ios": "https://dc.lft.to/lastmile_qr_scan", "android": "https://dc.lft.to/lastmile_qr_scan"}, "fusion_lat": 0.0, "name": "4891a14b3a99498b2406619c54afeaca", "bike_id": "4891a14b3a99498b2406619c54afeaca", "is_disabled": 0, "type": "electric_scooter", "lat": 38.902521, "lon": -77.04596766666667, "is_reserved": 0, "fusion_lon": 0.0}, {"rental_uris": {"ios": "https://dc.lft.to/lastmile_qr_scan", "android": "https://dc.lft.to/lastmile_qr_scan"}, "fusion_lat": 0.0, "name": "8cd7cb2d394feb5f7be7620d2cfba12b", "bike_id": "8cd7cb2d394feb5f7be7620d2cfba12b", "is_disabled": 0, "type": "electric_scooter", "lat": 38.9057405, "lon": -77.0344565, "is_reserved": 0, "fusion_lon": 0.0}, {"rental_uris": {"ios": "https://dc.lft.to/lastmile_qr_scan", "android": "https://dc.lft.to/lastmile_qr_scan"}, "fusion_lat": 0.0, "name": "ae72e231139d85207471214350e4e995", "bike_id": "ae72e231139d85207471214350e4e995", "is_disabled": 0, "type": "electric_scooter", "lat": 38.892197333333336, "lon": -77.01372, "is_reserved": 0, "fusion_lon": 0.0}, {"rental_uris": {"ios": "https://dc.lft.to/lastmile_qr_scan", "android": "https://dc.lft.to/lastmile_qr_scan"}, "fusion_lat": 0.0, "name": "8a365a82b78ede66550c900a72ed5973", "bike_id": "8a365a82b78ede66550c900a72ed5973", "is_disabled": 0, "type": "electric_scooter", "lat": 38.9203175, "lon": -76.9701915, "is_reserved": 0, "fusion_lon": 0.0}, {"rental_uris": {"ios": "https://dc.lft.to/lastmile_qr_scan", "android": "https://dc.lft.to/lastmile_qr_scan"}, "fusion_lat": 0.0, "name": "b72c0de556592df0aba7f6999f30a2d1", "bike_id": "b72c0de556592df0aba7f6999f30a2d1", "is_disabled": 0, "type": "electric_scooter", "lat": 38.9495605, "lon": -77.02719916666666, "is_reserved": 0, "fusion_lon": 0.0}, {"rental_uris": {"ios": "https://dc.lft.to/lastmile_qr_scan", "android": "https://dc.lft.to/lastmile_qr_scan"}, "fusion_lat": 0.0, "name": "752fa23c754a30b9c3efbd8c47702db6", "bike_id": "752fa23c754a30b9c3efbd8c47702db6", "is_disabled": 0, "type": "electric_scooter", "lat": 38.90116916666667, "lon": -77.03092766666667, "is_reserved": 0, "fusion_lon": 0.0}, {"rental_uris": {"ios": "https://dc.lft.to/lastmile_qr_scan", "android": "https://dc.lft.to/lastmile_qr_scan"}, "fusion_lat": 0.0, "name": "31cabba6a60d230ce9b20f6b78b04401", "bike_id": "31cabba6a60d230ce9b20f6b78b04401", "is_disabled": 0, "type": "electric_scooter", "lat": 38.917571333333335, "lon": -77.03073216666667, "is_reserved": 0, "fusion_lon": 0.0}, {"rental_uris": {"ios": "https://dc.lft.to/lastmile_qr_scan", "android": "https://dc.lft.to/lastmile_qr_scan"}, "fusion_lat": 0.0, "name": "2468461da4b351b160d6d1b649c2e68b", "bike_id": "2468461da4b351b160d6d1b649c2e68b", "is_disabled": 0, "type": "electric_scooter", "lat": 38.928760833333335, "lon": -77.02667116666667, "is_reserved": 0, "fusion_lon": 0.0}, {"rental_uris": {"ios": "https://dc.lft.to/lastmile_qr_scan", "android": "https://dc.lft.to/lastmile_qr_scan"}, "fusion_lat": 0.0, "name": "e0d9d4e15d011bbd23cdf8357e493330", "bike_id": "e0d9d4e15d011bbd23cdf8357e493330", "is_disabled": 0, "type": "electric_scooter", "lat": 38.92676316666667, "lon": -77.03039683333333, "is_reserved": 0, "fusion_lon": 0.0}, {"rental_uris": {"ios": "https://dc.lft.to/lastmile_qr_scan", "android": "https://dc.lft.to/lastmile_qr_scan"}, "fusion_lat": 0.0, "name": "c9974ee8f963939ed2d0dc32a6a6d856", "bike_id": "c9974ee8f963939ed2d0dc32a6a6d856", "is_disabled": 0, "type": "electric_scooter", "lat": 38.892212, "lon": -77.02219233333334, "is_reserved": 0, "fusion_lon": 0.0}, {"rental_uris": {"ios": "https://dc.lft.to/lastmile_qr_scan", "android": "https://dc.lft.to/lastmile_qr_scan"}, "fusion_lat": 0.0, "name": "52d98c53c79a0342c18016eeb3b4bc5d", "bike_id": "52d98c53c79a0342c18016eeb3b4bc5d", "is_disabled": 0, "type": "electric_bike", "lat": 38.8484545, "lon": -77.098449, "is_reserved": 0, "fusion_lon": 0.0}, {"rental_uris": {"ios": "https://dc.lft.to/lastmile_qr_scan", "android": "https://dc.lft.to/lastmile_qr_scan"}, "fusion_lat": 0.0, "name": "42fdbffc7c6fc651e553a3fd78ec7639", "bike_id": "42fdbffc7c6fc651e553a3fd78ec7639", "is_disabled": 0, "type": "electric_scooter", "lat": 38.934137166666666, "lon": -77.04158933333333, "is_reserved": 0, "fusion_lon": 0.0}, {"rental_uris": {"ios": "https://dc.lft.to/lastmile_qr_scan", "android": "https://dc.lft.to/lastmile_qr_scan"}, "fusion_lat": 0.0, "name": "0e3a1e07af33ed5a1b38c37f27cfa7e6", "bike_id": "0e3a1e07af33ed5a1b38c37f27cfa7e6", "is_disabled": 0, "type": "electric_scooter", "lat": 38.90575966666667, "lon": -77.03460566666666, "is_reserved": 0, "fusion_lon": 0.0}, {"rental_uris": {"ios": "https://dc.lft.to/lastmile_qr_scan", "android": "https://dc.lft.to/lastmile_qr_scan"}, "fusion_lat": 0.0, "name": "b5fc64584bd115d7d59f9c59e1528a98", "bike_id": "b5fc64584bd115d7d59f9c59e1528a98", "is_disabled": 0, "type": "electric_scooter", "lat": 38.93885083333333, "lon": -77.0248255, "is_reserved": 0, "fusion_lon": 0.0}, {"rental_uris": {"ios": "https://dc.lft.to/lastmile_qr_scan", "android": "https://dc.lft.to/lastmile_qr_scan"}, "fusion_lat": 0.0, "name": "0bc3710b9a54e2df07405d26fa89da1c", "bike_id": "0bc3710b9a54e2df07405d26fa89da1c", "is_disabled": 0, "type": "electric_scooter", "lat": 38.901583333333335, "lon": -77.02721483333333, "is_reserved": 0, "fusion_lon": 0.0}, {"rental_uris": {"ios": "https://dc.lft.to/lastmile_qr_scan", "android": "https://dc.lft.to/lastmile_qr_scan"}, "fusion_lat": 0.0, "name": "10d1f7f1ca847225721e9e31574c3659", "bike_id": "10d1f7f1ca847225721e9e31574c3659", "is_disabled": 0, "type": "electric_bike", "lat": 38.966892333333334, "lon": -77.08841066666666, "is_reserved": 0, "fusion_lon": 0.0}, {"rental_uris": {"ios": "https://dc.lft.to/lastmile_qr_scan", "android": "https://dc.lft.to/lastmile_qr_scan"}, "fusion_lat": 0.0, "name": "b5935ca4ca340efebae5804e39202c03", "bike_id": "b5935ca4ca340efebae5804e39202c03", "is_disabled": 0, "type": "electric_scooter", "lat": 38.89963633333333, "lon": -77.00680116666666, "is_reserved": 0, "fusion_lon": 0.0}, {"rental_uris": {"ios": "https://dc.lft.to/lastmile_qr_scan", "android": "https://dc.lft.to/lastmile_qr_scan"}, "fusion_lat": 0.0, "name": "f7e21c525e823396b9750d3c8661df1e", "bike_id": "f7e21c525e823396b9750d3c8661df1e", "is_disabled": 0, "type": "electric_scooter", "lat": 38.91674183333333, "lon": -77.03686416666666, "is_reserved": 0, "fusion_lon": 0.0}, {"rental_uris": {"ios": "https://dc.lft.to/lastmile_qr_scan", "android": "https://dc.lft.to/lastmile_qr_scan"}, "fusion_lat": 0.0, "name": "91f79e3d05b8f98d9a17d48880e95a85", "bike_id": "91f79e3d05b8f98d9a17d48880e95a85", "is_disabled": 0, "type": "electric_bike", "lat": 38.856043166666666, "lon": -77.112427, "is_reserved": 0, "fusion_lon": 0.0}, {"rental_uris": {"ios": "https://dc.lft.to/lastmile_qr_scan", "android": "https://dc.lft.to/lastmile_qr_scan"}, "fusion_lat": 0.0, "name": "2f3c7191ed04df98fe9c8d9c9132af64", "bike_id": "2f3c7191ed04df98fe9c8d9c9132af64", "is_disabled": 0, "type": "electric_scooter", "lat": 38.919006833333334, "lon": -77.021269, "is_reserved": 0, "fusion_lon": 0.0}, {"rental_uris": {"ios": "https://dc.lft.to/lastmile_qr_scan", "android": "https://dc.lft.to/lastmile_qr_scan"}, "fusion_lat": 0.0, "name": "b09c81d010b352dff8bf2ec30e166348", "bike_id": "b09c81d010b352dff8bf2ec30e166348", "is_disabled": 0, "type": "electric_bike", "lat": 38.911347, "lon": -76.98811283333333, "is_reserved": 0, "fusion_lon": 0.0}, {"rental_uris": {"ios": "https://dc.lft.to/lastmile_qr_scan", "android": "https://dc.lft.to/lastmile_qr_scan"}, "fusion_lat": 0.0, "name": "168abef6bb2e4ee3a83d1786d46bc975", "bike_id": "168abef6bb2e4ee3a83d1786d46bc975", "is_disabled": 0, "type": "electric_scooter", "lat": 38.88639783333333, "lon": -77.0217885, "is_reserved": 0, "fusion_lon": 0.0}, {"rental_uris": {"ios": "https://dc.lft.to/lastmile_qr_scan", "android": "https://dc.lft.to/lastmile_qr_scan"}, "fusion_lat": 0.0, "name": "ed438713e46ad215b1a770e02b86ad9e", "bike_id": "ed438713e46ad215b1a770e02b86ad9e", "is_disabled": 0, "type": "electric_scooter", "lat": 38.88717233333333, "lon": -76.996122, "is_reserved": 0, "fusion_lon": 0.0}, {"rental_uris": {"ios": "https://dc.lft.to/lastmile_qr_scan", "android": "https://dc.lft.to/lastmile_qr_scan"}, "fusion_lat": 0.0, "name": "e783c6016b777661f426fd0e86543440", "bike_id": "e783c6016b777661f426fd0e86543440", "is_disabled": 0, "type": "electric_scooter", "lat": 38.918159833333334, "lon": -77.032521, "is_reserved": 0, "fusion_lon": 0.0}, {"rental_uris": {"ios": "https://dc.lft.to/lastmile_qr_scan", "android": "https://dc.lft.to/lastmile_qr_scan"}, "fusion_lat": 0.0, "name": "08a03f482434dc9b670d67760f7a7567", "bike_id": "08a03f482434dc9b670d67760f7a7567", "is_disabled": 0, "type": "electric_scooter", "lat": 38.915648833333336, "lon": -77.01173633333333, "is_reserved": 0, "fusion_lon": 0.0}, {"rental_uris": {"ios": "https://dc.lft.to/lastmile_qr_scan", "android": "https://dc.lft.to/lastmile_qr_scan"}, "fusion_lat": 0.0, "name": "96244b0d293c3bc5aea570c93d8b88f8", "bike_id": "96244b0d293c3bc5aea570c93d8b88f8", "is_disabled": 0, "type": "electric_scooter", "lat": 38.92952433333333, "lon": -76.9908745, "is_reserved": 0, "fusion_lon": 0.0}, {"rental_uris": {"ios": "https://dc.lft.to/lastmile_qr_scan", "android": "https://dc.lft.to/lastmile_qr_scan"}, "fusion_lat": 0.0, "name": "8ebb68244e0c0b23d229c1118e319be2", "bike_id": "8ebb68244e0c0b23d229c1118e319be2", "is_disabled": 0, "type": "electric_scooter", "lat": 38.89843166666667, "lon": -76.94634533333334, "is_reserved": 0, "fusion_lon": 0.0}, {"rental_uris": {"ios": "https://dc.lft.to/lastmile_qr_scan", "android": "https://dc.lft.to/lastmile_qr_scan"}, "fusion_lat": 0.0, "name": "1828ea69524a88e6a78e3d5005a3191d", "bike_id": "1828ea69524a88e6a78e3d5005a3191d", "is_disabled": 0, "type": "electric_scooter", "lat": 38.909654333333336, "lon": -76.996035, "is_reserved": 0, "fusion_lon": 0.0}, {"rental_uris": {"ios": "https://dc.lft.to/lastmile_qr_scan", "android": "https://dc.lft.to/lastmile_qr_scan"}, "fusion_lat": 0.0, "name": "0c68f0be05e9192467792315535f415c", "bike_id": "0c68f0be05e9192467792315535f415c", "is_disabled": 0, "type": "electric_scooter", "lat": 38.90377383333333, "lon": -77.03457833333333, "is_reserved": 0, "fusion_lon": 0.0}, {"rental_uris": {"ios": "https://dc.lft.to/lastmile_qr_scan", "android": "https://dc.lft.to/lastmile_qr_scan"}, "fusion_lat": 0.0, "name": "f1d6f566f6cad8f7086f27d365ca87a0", "bike_id": "f1d6f566f6cad8f7086f27d365ca87a0", "is_disabled": 0, "type": "electric_scooter", "lat": 38.920562, "lon": -77.041927, "is_reserved": 0, "fusion_lon": 0.0}, {"rental_uris": {"ios": "https://dc.lft.to/lastmile_qr_scan", "android": "https://dc.lft.to/lastmile_qr_scan"}, "fusion_lat": 0.0, "name": "25a925b8616a7377082f2af181c46434", "bike_id": "25a925b8616a7377082f2af181c46434", "is_disabled": 0, "type": "electric_scooter", "lat": 38.913353, "lon": -77.031672, "is_reserved": 0, "fusion_lon": 0.0}, {"rental_uris": {"ios": "https://dc.lft.to/lastmile_qr_scan", "android": "https://dc.lft.to/lastmile_qr_scan"}, "fusion_lat": 0.0, "name": "c247648ecbae6bdc8ebb9bdec5f3925f", "bike_id": "c247648ecbae6bdc8ebb9bdec5f3925f", "is_disabled": 0, "type": "electric_bike", "lat": 38.94551666666667, "lon": -76.89537066666666, "is_reserved": 0, "fusion_lon": 0.0}, {"rental_uris": {"ios": "https://dc.lft.to/lastmile_qr_scan", "android": "https://dc.lft.to/lastmile_qr_scan"}, "fusion_lat": 0.0, "name": "1c9237a3ebfba56a984abfa2ebf63663", "bike_id": "1c9237a3ebfba56a984abfa2ebf63663", "is_disabled": 0, "type": "electric_scooter", "lat": 38.90552983333333, "lon": -77.0028955, "is_reserved": 0, "fusion_lon": 0.0}, {"rental_uris": {"ios": "https://dc.lft.to/lastmile_qr_scan", "android": "https://dc.lft.to/lastmile_qr_scan"}, "fusion_lat": 0.0, "name": "5a606c46c2421b204d3878713300501f", "bike_id": "5a606c46c2421b204d3878713300501f", "is_disabled": 0, "type": "electric_scooter", "lat": 38.932479666666666, "lon": -77.02988416666666, "is_reserved": 0, "fusion_lon": 0.0}, {"rental_uris": {"ios": "https://dc.lft.to/lastmile_qr_scan", "android": "https://dc.lft.to/lastmile_qr_scan"}, "fusion_lat": 0.0, "name": "f0e9e8fa9c19b3a554acd240c82bd96e", "bike_id": "f0e9e8fa9c19b3a554acd240c82bd96e", "is_disabled": 0, "type": "electric_scooter", "lat": 38.85194283333333, "lon": -76.97633033333334, "is_reserved": 0, "fusion_lon": 0.0}, {"rental_uris": {"ios": "https://dc.lft.to/lastmile_qr_scan", "android": "https://dc.lft.to/lastmile_qr_scan"}, "fusion_lat": 0.0, "name": "b6e112f8be94627faf6b6870d0008652", "bike_id": "b6e112f8be94627faf6b6870d0008652", "is_disabled": 0, "type": "electric_scooter", "lat": 38.9111565, "lon": -77.04464766666666, "is_reserved": 0, "fusion_lon": 0.0}, {"rental_uris": {"ios": "https://dc.lft.to/lastmile_qr_scan", "android": "https://dc.lft.to/lastmile_qr_scan"}, "fusion_lat": 0.0, "name": "c23f93dc1305a903e5e2664a9714c8e0", "bike_id": "c23f93dc1305a903e5e2664a9714c8e0", "is_disabled": 0, "type": "electric_scooter", "lat": 38.9126565, "lon": -77.04552166666667, "is_reserved": 0, "fusion_lon": 0.0}, {"rental_uris": {"ios": "https://dc.lft.to/lastmile_qr_scan", "android": "https://dc.lft.to/lastmile_qr_scan"}, "fusion_lat": 0.0, "name": "6ff209829efca6b162342f18a8a6bb30", "bike_id": "6ff209829efca6b162342f18a8a6bb30", "is_disabled": 0, "type": "electric_scooter", "lat": 38.918725333333335, "lon": -77.0350585, "is_reserved": 0, "fusion_lon": 0.0}, {"rental_uris": {"ios": "https://dc.lft.to/lastmile_qr_scan", "android": "https://dc.lft.to/lastmile_qr_scan"}, "fusion_lat": 0.0, "name": "40cea6857d6e95c29d560c440a02f7b6", "bike_id": "40cea6857d6e95c29d560c440a02f7b6", "is_disabled": 0, "type": "electric_scooter", "lat": 38.902876666666664, "lon": -77.03352066666666, "is_reserved": 0, "fusion_lon": 0.0}, {"rental_uris": {"ios": "https://dc.lft.to/lastmile_qr_scan", "android": "https://dc.lft.to/lastmile_qr_scan"}, "fusion_lat": 0.0, "name": "ae189ecdf9031039cf28735b4641ce49", "bike_id": "ae189ecdf9031039cf28735b4641ce49", "is_disabled": 0, "type": "electric_scooter", "lat": 38.90495516666667, "lon": -77.05913583333333, "is_reserved": 0, "fusion_lon": 0.0}, {"rental_uris": {"ios": "https://dc.lft.to/lastmile_qr_scan", "android": "https://dc.lft.to/lastmile_qr_scan"}, "fusion_lat": 0.0, "name": "f0bb4ead6a91a561c1218c61bb8a5c11", "bike_id": "f0bb4ead6a91a561c1218c61bb8a5c11", "is_disabled": 0, "type": "electric_scooter", "lat": 38.865072, "lon": -76.98978583333333, "is_reserved": 0, "fusion_lon": 0.0}, {"rental_uris": {"ios": "https://dc.lft.to/lastmile_qr_scan", "android": "https://dc.lft.to/lastmile_qr_scan"}, "fusion_lat": 0.0, "name": "c779c750dae5fa202055993b60f5c92e", "bike_id": "c779c750dae5fa202055993b60f5c92e", "is_disabled": 0, "type": "electric_scooter", "lat": 38.89608483333333, "lon": -77.04543033333333, "is_reserved": 0, "fusion_lon": 0.0}, {"rental_uris": {"ios": "https://dc.lft.to/lastmile_qr_scan", "android": "https://dc.lft.to/lastmile_qr_scan"}, "fusion_lat": 0.0, "name": "4426ae8a2b59a8aa81a1016cbe2e4c1e", "bike_id": "4426ae8a2b59a8aa81a1016cbe2e4c1e", "is_disabled": 0, "type": "electric_bike", "lat": 38.934088833333334, "lon": -77.02509016666667, "is_reserved": 0, "fusion_lon": 0.0}, {"rental_uris": {"ios": "https://dc.lft.to/lastmile_qr_scan", "android": "https://dc.lft.to/lastmile_qr_scan"}, "fusion_lat": 0.0, "name": "619e3709e72d17cc1afd490c195191ad", "bike_id": "619e3709e72d17cc1afd490c195191ad", "is_disabled": 0, "type": "electric_scooter", "lat": 38.90387716666667, "lon": -77.03220216666666, "is_reserved": 0, "fusion_lon": 0.0}, {"rental_uris": {"ios": "https://dc.lft.to/lastmile_qr_scan", "android": "https://dc.lft.to/lastmile_qr_scan"}, "fusion_lat": 0.0, "name": "c862df03a29a8cf4a46c389c8b8a6f99", "bike_id": "c862df03a29a8cf4a46c389c8b8a6f99", "is_disabled": 0, "type": "electric_scooter", "lat": 38.90968566666667, "lon": -77.03788333333334, "is_reserved": 0, "fusion_lon": 0.0}, {"rental_uris": {"ios": "https://dc.lft.to/lastmile_qr_scan", "android": "https://dc.lft.to/lastmile_qr_scan"}, "fusion_lat": 0.0, "name": "731c5cf2718ca52a45c6667a25b71a03", "bike_id": "731c5cf2718ca52a45c6667a25b71a03", "is_disabled": 0, "type": "electric_scooter", "lat": 38.8872545, "lon": -77.02830233333333, "is_reserved": 0, "fusion_lon": 0.0}, {"rental_uris": {"ios": "https://dc.lft.to/lastmile_qr_scan", "android": "https://dc.lft.to/lastmile_qr_scan"}, "fusion_lat": 0.0, "name": "e74853c89931c601b8c23f2f22a296b4", "bike_id": "e74853c89931c601b8c23f2f22a296b4", "is_disabled": 0, "type": "electric_scooter", "lat": 38.920608666666666, "lon": -77.04358533333334, "is_reserved": 0, "fusion_lon": 0.0}, {"rental_uris": {"ios": "https://dc.lft.to/lastmile_qr_scan", "android": "https://dc.lft.to/lastmile_qr_scan"}, "fusion_lat": 0.0, "name": "2701fe7501366d3db0809372b80dd467", "bike_id": "2701fe7501366d3db0809372b80dd467", "is_disabled": 0, "type": "electric_scooter", "lat": 38.899798, "lon": -77.03070116666666, "is_reserved": 0, "fusion_lon": 0.0}, {"rental_uris": {"ios": "https://dc.lft.to/lastmile_qr_scan", "android": "https://dc.lft.to/lastmile_qr_scan"}, "fusion_lat": 0.0, "name": "609cf9ec994019f8c664adcfe8a0d61c", "bike_id": "609cf9ec994019f8c664adcfe8a0d61c", "is_disabled": 0, "type": "electric_bike", "lat": 38.929038, "lon": -77.02742633333334, "is_reserved": 0, "fusion_lon": 0.0}, {"rental_uris": {"ios": "https://dc.lft.to/lastmile_qr_scan", "android": "https://dc.lft.to/lastmile_qr_scan"}, "fusion_lat": 0.0, "name": "dd73fe1ffc09cdee5059dbc2834952b0", "bike_id": "dd73fe1ffc09cdee5059dbc2834952b0", "is_disabled": 0, "type": "electric_scooter", "lat": 38.8858435, "lon": -77.03066416666667, "is_reserved": 0, "fusion_lon": 0.0}, {"rental_uris": {"ios": "https://dc.lft.to/lastmile_qr_scan", "android": "https://dc.lft.to/lastmile_qr_scan"}, "fusion_lat": 0.0, "name": "ad0a62d73f6bf8835bd277dbf68eed0a", "bike_id": "ad0a62d73f6bf8835bd277dbf68eed0a", "is_disabled": 0, "type": "electric_scooter", "lat": 38.905512, "lon": -77.02713866666667, "is_reserved": 0, "fusion_lon": 0.0}, {"rental_uris": {"ios": "https://dc.lft.to/lastmile_qr_scan", "android": "https://dc.lft.to/lastmile_qr_scan"}, "fusion_lat": 0.0, "name": "7ef4b8dcac75a85a1b9e43db224ab4fa", "bike_id": "7ef4b8dcac75a85a1b9e43db224ab4fa", "is_disabled": 0, "type": "electric_scooter", "lat": 38.8934575, "lon": -77.041404, "is_reserved": 0, "fusion_lon": 0.0}, {"rental_uris": {"ios": "https://dc.lft.to/lastmile_qr_scan", "android": "https://dc.lft.to/lastmile_qr_scan"}, "fusion_lat": 0.0, "name": "6bd2c314cac05880e44ddfd2a6a82dc2", "bike_id": "6bd2c314cac05880e44ddfd2a6a82dc2", "is_disabled": 0, "type": "electric_scooter", "lat": 38.89398083333333, "lon": -77.0217735, "is_reserved": 0, "fusion_lon": 0.0}, {"rental_uris": {"ios": "https://dc.lft.to/lastmile_qr_scan", "android": "https://dc.lft.to/lastmile_qr_scan"}, "fusion_lat": 0.0, "name": "c2cbeee966fa313573b12ca76cae9d5b", "bike_id": "c2cbeee966fa313573b12ca76cae9d5b", "is_disabled": 0, "type": "electric_scooter", "lat": 38.956371833333336, "lon": -77.0329275, "is_reserved": 0, "fusion_lon": 0.0}, {"rental_uris": {"ios": "https://dc.lft.to/lastmile_qr_scan", "android": "https://dc.lft.to/lastmile_qr_scan"}, "fusion_lat": 0.0, "name": "d9e37a75e270d4c18426e059c299d25e", "bike_id": "d9e37a75e270d4c18426e059c299d25e", "is_disabled": 0, "type": "electric_bike", "lat": 38.88651866666667, "lon": -77.162288, "is_reserved": 0, "fusion_lon": 0.0}, {"rental_uris": {"ios": "https://dc.lft.to/lastmile_qr_scan", "android": "https://dc.lft.to/lastmile_qr_scan"}, "fusion_lat": 0.0, "name": "9a6606f9035d0ead3d169a8da99352a0", "bike_id": "9a6606f9035d0ead3d169a8da99352a0", "is_disabled": 0, "type": "electric_scooter", "lat": 38.91123316666667, "lon": -77.02691783333333, "is_reserved": 0, "fusion_lon": 0.0}, {"rental_uris": {"ios": "https://dc.lft.to/lastmile_qr_scan", "android": "https://dc.lft.to/lastmile_qr_scan"}, "fusion_lat": 0.0, "name": "f8dd7a0260d1cb639abe7253bb331a33", "bike_id": "f8dd7a0260d1cb639abe7253bb331a33", "is_disabled": 0, "type": "electric_scooter", "lat": 38.9219465, "lon": -77.04236883333333, "is_reserved": 0, "fusion_lon": 0.0}, {"rental_uris": {"ios": "https://dc.lft.to/lastmile_qr_scan", "android": "https://dc.lft.to/lastmile_qr_scan"}, "fusion_lat": 0.0, "name": "d16684534974ffc9273e5c9ca87d9868", "bike_id": "d16684534974ffc9273e5c9ca87d9868", "is_disabled": 0, "type": "electric_scooter", "lat": 38.932427833333335, "lon": -76.99527433333333, "is_reserved": 0, "fusion_lon": 0.0}, {"rental_uris": {"ios": "https://dc.lft.to/lastmile_qr_scan", "android": "https://dc.lft.to/lastmile_qr_scan"}, "fusion_lat": 0.0, "name": "05467417e6354afb2d9eff2e33b3c2c8", "bike_id": "05467417e6354afb2d9eff2e33b3c2c8", "is_disabled": 0, "type": "electric_scooter", "lat": 38.866432, "lon": -76.98887233333333, "is_reserved": 0, "fusion_lon": 0.0}, {"rental_uris": {"ios": "https://dc.lft.to/lastmile_qr_scan", "android": "https://dc.lft.to/lastmile_qr_scan"}, "fusion_lat": 0.0, "name": "0f4b3b08174c484645482fe546c50933", "bike_id": "0f4b3b08174c484645482fe546c50933", "is_disabled": 0, "type": "electric_scooter", "lat": 38.90386433333333, "lon": -77.03217383333333, "is_reserved": 0, "fusion_lon": 0.0}, {"rental_uris": {"ios": "https://dc.lft.to/lastmile_qr_scan", "android": "https://dc.lft.to/lastmile_qr_scan"}, "fusion_lat": 0.0, "name": "0b306eb343f7193f80d0ad856d619ced", "bike_id": "0b306eb343f7193f80d0ad856d619ced", "is_disabled": 0, "type": "electric_scooter", "lat": 38.902259, "lon": -77.05983683333334, "is_reserved": 0, "fusion_lon": 0.0}, {"rental_uris": {"ios": "https://dc.lft.to/lastmile_qr_scan", "android": "https://dc.lft.to/lastmile_qr_scan"}, "fusion_lat": 0.0, "name": "114f4935b9b551b05337d6e369411f4f", "bike_id": "114f4935b9b551b05337d6e369411f4f", "is_disabled": 0, "type": "electric_scooter", "lat": 38.92538033333334, "lon": -77.0525895, "is_reserved": 0, "fusion_lon": 0.0}, {"rental_uris": {"ios": "https://dc.lft.to/lastmile_qr_scan", "android": "https://dc.lft.to/lastmile_qr_scan"}, "fusion_lat": 0.0, "name": "e76a8c3bc28237e979a7e36fd935cdcf", "bike_id": "e76a8c3bc28237e979a7e36fd935cdcf", "is_disabled": 0, "type": "electric_scooter", "lat": 38.91107316666667, "lon": -77.0432, "is_reserved": 0, "fusion_lon": 0.0}, {"rental_uris": {"ios": "https://dc.lft.to/lastmile_qr_scan", "android": "https://dc.lft.to/lastmile_qr_scan"}, "fusion_lat": 0.0, "name": "a9d5a731ed1dbba519e0b5a28c73c883", "bike_id": "a9d5a731ed1dbba519e0b5a28c73c883", "is_disabled": 0, "type": "electric_scooter", "lat": 38.94407066666667, "lon": -77.02619133333333, "is_reserved": 0, "fusion_lon": 0.0}, {"rental_uris": {"ios": "https://dc.lft.to/lastmile_qr_scan", "android": "https://dc.lft.to/lastmile_qr_scan"}, "fusion_lat": 0.0, "name": "4cef595203e9cffe94be78000994d231", "bike_id": "4cef595203e9cffe94be78000994d231", "is_disabled": 0, "type": "electric_scooter", "lat": 38.915604, "lon": -77.03861016666667, "is_reserved": 0, "fusion_lon": 0.0}, {"rental_uris": {"ios": "https://dc.lft.to/lastmile_qr_scan", "android": "https://dc.lft.to/lastmile_qr_scan"}, "fusion_lat": 0.0, "name": "65092edbc54bd623399f140337c9ecad", "bike_id": "65092edbc54bd623399f140337c9ecad", "is_disabled": 0, "type": "electric_scooter", "lat": 38.892221, "lon": -77.03215816666666, "is_reserved": 0, "fusion_lon": 0.0}, {"rental_uris": {"ios": "https://dc.lft.to/lastmile_qr_scan", "android": "https://dc.lft.to/lastmile_qr_scan"}, "fusion_lat": 0.0, "name": "b206c869a3a4d4bd90ca12d8c1ca89ec", "bike_id": "b206c869a3a4d4bd90ca12d8c1ca89ec", "is_disabled": 0, "type": "electric_scooter", "lat": 38.8802015, "lon": -76.988215, "is_reserved": 0, "fusion_lon": 0.0}, {"rental_uris": {"ios": "https://dc.lft.to/lastmile_qr_scan", "android": "https://dc.lft.to/lastmile_qr_scan"}, "fusion_lat": 0.0, "name": "26b687e9fcc9664b9782049f82da7bc3", "bike_id": "26b687e9fcc9664b9782049f82da7bc3", "is_disabled": 0, "type": "electric_scooter", "lat": 38.900470166666665, "lon": -77.04341916666667, "is_reserved": 0, "fusion_lon": 0.0}, {"rental_uris": {"ios": "https://dc.lft.to/lastmile_qr_scan", "android": "https://dc.lft.to/lastmile_qr_scan"}, "fusion_lat": 0.0, "name": "d34eb6b46423aeb8e79c0824f4cddd39", "bike_id": "d34eb6b46423aeb8e79c0824f4cddd39", "is_disabled": 0, "type": "electric_scooter", "lat": 38.9222545, "lon": -77.02234283333334, "is_reserved": 0, "fusion_lon": 0.0}, {"rental_uris": {"ios": "https://dc.lft.to/lastmile_qr_scan", "android": "https://dc.lft.to/lastmile_qr_scan"}, "fusion_lat": 0.0, "name": "95bd6455621497fdbfccda2bf455cc4a", "bike_id": "95bd6455621497fdbfccda2bf455cc4a", "is_disabled": 0, "type": "electric_bike", "lat": 38.91803133333333, "lon": -77.22344066666666, "is_reserved": 0, "fusion_lon": 0.0}, {"rental_uris": {"ios": "https://dc.lft.to/lastmile_qr_scan", "android": "https://dc.lft.to/lastmile_qr_scan"}, "fusion_lat": 0.0, "name": "d16ce57debf89ed2d145a3e4f3e62ece", "bike_id": "d16ce57debf89ed2d145a3e4f3e62ece", "is_disabled": 0, "type": "electric_scooter", "lat": 38.9045635, "lon": -77.04869233333334, "is_reserved": 0, "fusion_lon": 0.0}, {"rental_uris": {"ios": "https://dc.lft.to/lastmile_qr_scan", "android": "https://dc.lft.to/lastmile_qr_scan"}, "fusion_lat": 0.0, "name": "6492af187ea71a521fb57f89432a9c79", "bike_id": "6492af187ea71a521fb57f89432a9c79", "is_disabled": 0, "type": "electric_scooter", "lat": 38.88667866666667, "lon": -76.9361255, "is_reserved": 0, "fusion_lon": 0.0}, {"rental_uris": {"ios": "https://dc.lft.to/lastmile_qr_scan", "android": "https://dc.lft.to/lastmile_qr_scan"}, "fusion_lat": 0.0, "name": "b79822aafe8011db39e420a0f792d85a", "bike_id": "b79822aafe8011db39e420a0f792d85a", "is_disabled": 0, "type": "electric_bike", "lat": 38.877336, "lon": -76.99481333333334, "is_reserved": 0, "fusion_lon": 0.0}, {"rental_uris": {"ios": "https://dc.lft.to/lastmile_qr_scan", "android": "https://dc.lft.to/lastmile_qr_scan"}, "fusion_lat": 0.0, "name": "3977cf73ec9422608802d613e408b35e", "bike_id": "3977cf73ec9422608802d613e408b35e", "is_disabled": 0, "type": "electric_scooter", "lat": 38.90054933333333, "lon": -77.051298, "is_reserved": 0, "fusion_lon": 0.0}, {"rental_uris": {"ios": "https://dc.lft.to/lastmile_qr_scan", "android": "https://dc.lft.to/lastmile_qr_scan"}, "fusion_lat": 0.0, "name": "40da841a89c65c5b10cdc2691bc58cba", "bike_id": "40da841a89c65c5b10cdc2691bc58cba", "is_disabled": 0, "type": "electric_scooter", "lat": 38.916868666666666, "lon": -77.02979633333334, "is_reserved": 0, "fusion_lon": 0.0}, {"rental_uris": {"ios": "https://dc.lft.to/lastmile_qr_scan", "android": "https://dc.lft.to/lastmile_qr_scan"}, "fusion_lat": 0.0, "name": "3231382962eb5938439acb3dcb143ebe", "bike_id": "3231382962eb5938439acb3dcb143ebe", "is_disabled": 0, "type": "electric_scooter", "lat": 38.92798166666667, "lon": -77.03251816666666, "is_reserved": 0, "fusion_lon": 0.0}, {"rental_uris": {"ios": "https://dc.lft.to/lastmile_qr_scan", "android": "https://dc.lft.to/lastmile_qr_scan"}, "fusion_lat": 0.0, "name": "9310dde3bb7192aed52b98e29058b826", "bike_id": "9310dde3bb7192aed52b98e29058b826", "is_disabled": 0, "type": "electric_bike", "lat": 38.8381045, "lon": -77.09519166666666, "is_reserved": 0, "fusion_lon": 0.0}, {"rental_uris": {"ios": "https://dc.lft.to/lastmile_qr_scan", "android": "https://dc.lft.to/lastmile_qr_scan"}, "fusion_lat": 0.0, "name": "48be13c2ade3cafe76354b39af1916a2", "bike_id": "48be13c2ade3cafe76354b39af1916a2", "is_disabled": 0, "type": "electric_scooter", "lat": 38.91691383333333, "lon": -77.03141483333333, "is_reserved": 0, "fusion_lon": 0.0}, {"rental_uris": {"ios": "https://dc.lft.to/lastmile_qr_scan", "android": "https://dc.lft.to/lastmile_qr_scan"}, "fusion_lat": 0.0, "name": "2415a5fff0cc190dc4fd1585f24da817", "bike_id": "2415a5fff0cc190dc4fd1585f24da817", "is_disabled": 0, "type": "electric_scooter", "lat": 38.9127, "lon": -77.03177433333333, "is_reserved": 0, "fusion_lon": 0.0}, {"rental_uris": {"ios": "https://dc.lft.to/lastmile_qr_scan", "android": "https://dc.lft.to/lastmile_qr_scan"}, "fusion_lat": 0.0, "name": "15b402a9af3300ff6e805f8bbafab91d", "bike_id": "15b402a9af3300ff6e805f8bbafab91d", "is_disabled": 0, "type": "electric_scooter", "lat": 38.91549933333334, "lon": -77.02214616666667, "is_reserved": 0, "fusion_lon": 0.0}, {"rental_uris": {"ios": "https://dc.lft.to/lastmile_qr_scan", "android": "https://dc.lft.to/lastmile_qr_scan"}, "fusion_lat": 0.0, "name": "51e2b04387ce8518bf19462d5790ffa3", "bike_id": "51e2b04387ce8518bf19462d5790ffa3", "is_disabled": 0, "type": "electric_scooter", "lat": 38.892362, "lon": -77.04656783333333, "is_reserved": 0, "fusion_lon": 0.0}, {"rental_uris": {"ios": "https://dc.lft.to/lastmile_qr_scan", "android": "https://dc.lft.to/lastmile_qr_scan"}, "fusion_lat": 0.0, "name": "c329779f875921faf92b4323325af05e", "bike_id": "c329779f875921faf92b4323325af05e", "is_disabled": 0, "type": "electric_scooter", "lat": 38.921207, "lon": -77.0437705, "is_reserved": 0, "fusion_lon": 0.0}, {"rental_uris": {"ios": "https://dc.lft.to/lastmile_qr_scan", "android": "https://dc.lft.to/lastmile_qr_scan"}, "fusion_lat": 0.0, "name": "e15d4af5ed3eaf942176ad653281fae8", "bike_id": "e15d4af5ed3eaf942176ad653281fae8", "is_disabled": 0, "type": "electric_scooter", "lat": 38.8875465, "lon": -77.03363866666666, "is_reserved": 0, "fusion_lon": 0.0}, {"rental_uris": {"ios": "https://dc.lft.to/lastmile_qr_scan", "android": "https://dc.lft.to/lastmile_qr_scan"}, "fusion_lat": 0.0, "name": "a83786d4a68b8873d8b4ca8bb7895892", "bike_id": "a83786d4a68b8873d8b4ca8bb7895892", "is_disabled": 0, "type": "electric_scooter", "lat": 38.93250833333333, "lon": -77.038583, "is_reserved": 0, "fusion_lon": 0.0}, {"rental_uris": {"ios": "https://dc.lft.to/lastmile_qr_scan", "android": "https://dc.lft.to/lastmile_qr_scan"}, "fusion_lat": 0.0, "name": "545dba1d12851b9c4b111fe577612fe6", "bike_id": "545dba1d12851b9c4b111fe577612fe6", "is_disabled": 0, "type": "electric_scooter", "lat": 38.873898, "lon": -76.96602266666666, "is_reserved": 0, "fusion_lon": 0.0}, {"rental_uris": {"ios": "https://dc.lft.to/lastmile_qr_scan", "android": "https://dc.lft.to/lastmile_qr_scan"}, "fusion_lat": 0.0, "name": "d22ea762c8f692c7497016ec5e83d070", "bike_id": "d22ea762c8f692c7497016ec5e83d070", "is_disabled": 0, "type": "electric_scooter", "lat": 38.8962475, "lon": -77.02614516666667, "is_reserved": 0, "fusion_lon": 0.0}, {"rental_uris": {"ios": "https://dc.lft.to/lastmile_qr_scan", "android": "https://dc.lft.to/lastmile_qr_scan"}, "fusion_lat": 0.0, "name": "c6aa716fb5930798985e80003ff84e6d", "bike_id": "c6aa716fb5930798985e80003ff84e6d", "is_disabled": 0, "type": "electric_scooter", "lat": 38.90787866666667, "lon": -77.03183883333334, "is_reserved": 0, "fusion_lon": 0.0}, {"rental_uris": {"ios": "https://dc.lft.to/lastmile_qr_scan", "android": "https://dc.lft.to/lastmile_qr_scan"}, "fusion_lat": 0.0, "name": "579b6a551c7ac82ee0d0f23c4ad4e424", "bike_id": "579b6a551c7ac82ee0d0f23c4ad4e424", "is_disabled": 0, "type": "electric_scooter", "lat": 38.9168245, "lon": -77.02963716666666, "is_reserved": 0, "fusion_lon": 0.0}, {"rental_uris": {"ios": "https://dc.lft.to/lastmile_qr_scan", "android": "https://dc.lft.to/lastmile_qr_scan"}, "fusion_lat": 0.0, "name": "9ab1a10db560ec06e418113a2a5530af", "bike_id": "9ab1a10db560ec06e418113a2a5530af", "is_disabled": 0, "type": "electric_scooter", "lat": 38.8922435, "lon": -77.02779983333333, "is_reserved": 0, "fusion_lon": 0.0}, {"rental_uris": {"ios": "https://dc.lft.to/lastmile_qr_scan", "android": "https://dc.lft.to/lastmile_qr_scan"}, "fusion_lat": 0.0, "name": "4882d032a8b51b94b660685915d45d07", "bike_id": "4882d032a8b51b94b660685915d45d07", "is_disabled": 0, "type": "electric_scooter", "lat": 38.925080666666666, "lon": -77.00222333333333, "is_reserved": 0, "fusion_lon": 0.0}, {"rental_uris": {"ios": "https://dc.lft.to/lastmile_qr_scan", "android": "https://dc.lft.to/lastmile_qr_scan"}, "fusion_lat": 0.0, "name": "e09a717667e56e1b959f30018bfb4372", "bike_id": "e09a717667e56e1b959f30018bfb4372", "is_disabled": 0, "type": "electric_scooter", "lat": 38.904357833333336, "lon": -77.03471616666667, "is_reserved": 0, "fusion_lon": 0.0}, {"rental_uris": {"ios": "https://dc.lft.to/lastmile_qr_scan", "android": "https://dc.lft.to/lastmile_qr_scan"}, "fusion_lat": 0.0, "name": "be432d930ff693924385377c90114a1d", "bike_id": "be432d930ff693924385377c90114a1d", "is_disabled": 0, "type": "electric_scooter", "lat": 38.8922135, "lon": -77.026576, "is_reserved": 0, "fusion_lon": 0.0}, {"rental_uris": {"ios": "https://dc.lft.to/lastmile_qr_scan", "android": "https://dc.lft.to/lastmile_qr_scan"}, "fusion_lat": 0.0, "name": "4c8216e65fc107c9a4a767718c95db25", "bike_id": "4c8216e65fc107c9a4a767718c95db25", "is_disabled": 0, "type": "electric_scooter", "lat": 38.86211933333333, "lon": -76.99480183333333, "is_reserved": 0, "fusion_lon": 0.0}, {"rental_uris": {"ios": "https://dc.lft.to/lastmile_qr_scan", "android": "https://dc.lft.to/lastmile_qr_scan"}, "fusion_lat": 0.0, "name": "4415c21a391de4139f3e04c4fe7d12f9", "bike_id": "4415c21a391de4139f3e04c4fe7d12f9", "is_disabled": 0, "type": "electric_scooter", "lat": 38.916808833333334, "lon": -77.0232995, "is_reserved": 0, "fusion_lon": 0.0}, {"rental_uris": {"ios": "https://dc.lft.to/lastmile_qr_scan", "android": "https://dc.lft.to/lastmile_qr_scan"}, "fusion_lat": 0.0, "name": "93b11eb56c8b7a241edb391549b5c0b6", "bike_id": "93b11eb56c8b7a241edb391549b5c0b6", "is_disabled": 0, "type": "electric_scooter", "lat": 38.870886666666664, "lon": -76.96866633333333, "is_reserved": 0, "fusion_lon": 0.0}, {"rental_uris": {"ios": "https://dc.lft.to/lastmile_qr_scan", "android": "https://dc.lft.to/lastmile_qr_scan"}, "fusion_lat": 0.0, "name": "43f63e28c0e4193f70b17692175d6915", "bike_id": "43f63e28c0e4193f70b17692175d6915", "is_disabled": 0, "type": "electric_scooter", "lat": 38.9262225, "lon": -77.03796766666666, "is_reserved": 0, "fusion_lon": 0.0}, {"rental_uris": {"ios": "https://dc.lft.to/lastmile_qr_scan", "android": "https://dc.lft.to/lastmile_qr_scan"}, "fusion_lat": 0.0, "name": "fcdb88d233c7cc5829ab0fe237d678bf", "bike_id": "fcdb88d233c7cc5829ab0fe237d678bf", "is_disabled": 0, "type": "electric_scooter", "lat": 38.906708333333334, "lon": -77.027139, "is_reserved": 0, "fusion_lon": 0.0}, {"rental_uris": {"ios": "https://dc.lft.to/lastmile_qr_scan", "android": "https://dc.lft.to/lastmile_qr_scan"}, "fusion_lat": 0.0, "name": "86689601bbaa15248344091b98fdc9df", "bike_id": "86689601bbaa15248344091b98fdc9df", "is_disabled": 0, "type": "electric_scooter", "lat": 38.920579833333335, "lon": -77.04196233333333, "is_reserved": 0, "fusion_lon": 0.0}, {"rental_uris": {"ios": "https://dc.lft.to/lastmile_qr_scan", "android": "https://dc.lft.to/lastmile_qr_scan"}, "fusion_lat": 0.0, "name": "29478a7b73120e84141b14dd440ee149", "bike_id": "29478a7b73120e84141b14dd440ee149", "is_disabled": 0, "type": "electric_scooter", "lat": 38.91817016666667, "lon": -77.04518016666667, "is_reserved": 0, "fusion_lon": 0.0}, {"rental_uris": {"ios": "https://dc.lft.to/lastmile_qr_scan", "android": "https://dc.lft.to/lastmile_qr_scan"}, "fusion_lat": 0.0, "name": "1338f96ffea92790443e16f85fc70478", "bike_id": "1338f96ffea92790443e16f85fc70478", "is_disabled": 0, "type": "electric_scooter", "lat": 38.890343666666666, "lon": -76.93754416666667, "is_reserved": 0, "fusion_lon": 0.0}, {"rental_uris": {"ios": "https://dc.lft.to/lastmile_qr_scan", "android": "https://dc.lft.to/lastmile_qr_scan"}, "fusion_lat": 0.0, "name": "6a1f87e9e4abbfa44255c6f2557778f7", "bike_id": "6a1f87e9e4abbfa44255c6f2557778f7", "is_disabled": 0, "type": "electric_bike", "lat": 38.87150333333334, "lon": -76.936479, "is_reserved": 0, "fusion_lon": 0.0}, {"rental_uris": {"ios": "https://dc.lft.to/lastmile_qr_scan", "android": "https://dc.lft.to/lastmile_qr_scan"}, "fusion_lat": 0.0, "name": "9f139c4ed8cab6b208034d27433de830", "bike_id": "9f139c4ed8cab6b208034d27433de830", "is_disabled": 0, "type": "electric_scooter", "lat": 38.886428333333335, "lon": -77.00095016666667, "is_reserved": 0, "fusion_lon": 0.0}, {"rental_uris": {"ios": "https://dc.lft.to/lastmile_qr_scan", "android": "https://dc.lft.to/lastmile_qr_scan"}, "fusion_lat": 0.0, "name": "daa3336a77ada8a8f552aa9b38fd9db1", "bike_id": "daa3336a77ada8a8f552aa9b38fd9db1", "is_disabled": 0, "type": "electric_scooter", "lat": 38.915657333333336, "lon": -77.02002966666667, "is_reserved": 0, "fusion_lon": 0.0}, {"rental_uris": {"ios": "https://dc.lft.to/lastmile_qr_scan", "android": "https://dc.lft.to/lastmile_qr_scan"}, "fusion_lat": 0.0, "name": "cd725bace99dff3650b0b1c01c953986", "bike_id": "cd725bace99dff3650b0b1c01c953986", "is_disabled": 0, "type": "electric_scooter", "lat": 38.90260116666666, "lon": -77.03463733333334, "is_reserved": 0, "fusion_lon": 0.0}, {"rental_uris": {"ios": "https://dc.lft.to/lastmile_qr_scan", "android": "https://dc.lft.to/lastmile_qr_scan"}, "fusion_lat": 0.0, "name": "9d733fa3f41c21af4d83b6bde53014c5", "bike_id": "9d733fa3f41c21af4d83b6bde53014c5", "is_disabled": 0, "type": "electric_scooter", "lat": 38.908287, "lon": -76.99699133333333, "is_reserved": 0, "fusion_lon": 0.0}, {"rental_uris": {"ios": "https://dc.lft.to/lastmile_qr_scan", "android": "https://dc.lft.to/lastmile_qr_scan"}, "fusion_lat": 0.0, "name": "f9dcde6038b80202f9b9591b3ed19e91", "bike_id": "f9dcde6038b80202f9b9591b3ed19e91", "is_disabled": 0, "type": "electric_scooter", "lat": 38.922453, "lon": -77.03654466666667, "is_reserved": 0, "fusion_lon": 0.0}, {"rental_uris": {"ios": "https://dc.lft.to/lastmile_qr_scan", "android": "https://dc.lft.to/lastmile_qr_scan"}, "fusion_lat": 0.0, "name": "e0f965b2a7dc01912fe71e093aa18583", "bike_id": "e0f965b2a7dc01912fe71e093aa18583", "is_disabled": 0, "type": "electric_scooter", "lat": 38.892222333333336, "lon": -77.02330783333333, "is_reserved": 0, "fusion_lon": 0.0}, {"rental_uris": {"ios": "https://dc.lft.to/lastmile_qr_scan", "android": "https://dc.lft.to/lastmile_qr_scan"},