{"data": {"bikes": [{"is_reserved": 0, "type": "electric_scooter", "bike_id": "b1505605c176a09279e982e850c2889f", "lat": 38.9207415, "lon": -77.02529783333334, "rental_uris": {"android": "https://dc.lft.to/lastmile_qr_scan", "ios": "https://dc.lft.to/lastmile_qr_scan"}, "is_disabled": 0, "fusion_lat": 0.0, "name": "b1505605c176a09279e982e850c2889f", "fusion_lon": 0.0}, {"is_reserved": 0, "type": "electric_scooter", "bike_id": "2d2467d5891497010b042605dcb7d9f5", "lat": 38.93193133333333, "lon": -77.04135233333334, "rental_uris": {"android": "https://dc.lft.to/lastmile_qr_scan", "ios": "https://dc.lft.to/lastmile_qr_scan"}, "is_disabled": 0, "fusion_lat": 0.0, "name": "2d2467d5891497010b042605dcb7d9f5", "fusion_lon": 0.0}, {"is_reserved": 0, "type": "electric_scooter", "bike_id": "77111cc0a4f0f279a937adf6c6ab5efe", "lat": 38.91109633333333, "lon": -77.02196116666667, "rental_uris": {"android": "https://dc.lft.to/lastmile_qr_scan", "ios": "https://dc.lft.to/lastmile_qr_scan"}, "is_disabled": 0, "fusion_lat": 0.0, "name": "77111cc0a4f0f279a937adf6c6ab5efe", "fusion_lon": 0.0}, {"is_reserved": 0, "type": "electric_bike", "bike_id": "abad2b09c432ee1f444944ae3e89791f", "lat": 38.8405495, "lon": -77.0560045, "rental_uris": {"android": "https://dc.lft.to/lastmile_qr_scan", "ios": "https://dc.lft.to/lastmile_qr_scan"}, "is_disabled": 0, "fusion_lat": 0.0, "name": "abad2b09c432ee1f444944ae3e89791f", "fusion_lon": 0.0}, {"is_reserved": 0, "type": "electric_scooter", "bike_id": "64235a0806ef9463ee5d3107de7bba4d", "lat": 38.8993275, "lon": -77.03206916666667, "rental_uris": {"android": "https://dc.lft.to/lastmile_qr_scan", "ios": "https://dc.lft.to/lastmile_qr_scan"}, "is_disabled": 0, "fusion_lat": 0.0, "name": "64235a0806ef9463ee5d3107de7bba4d", "fusion_lon": 0.0}, {"is_reserved": 0, "type": "electric_scooter", "bike_id": "1cd868384230aa108d8791be8ae46408", "lat": 38.90347116666667, "lon": -76.986175, "rental_uris": {"android": "https://dc.lft.to/lastmile_qr_scan", "ios": "https://dc.lft.to/lastmile_qr_scan"}, "is_disabled": 0, "fusion_lat": 0.0, "name": "1cd868384230aa108d8791be8ae46408", "fusion_lon": 0.0}, {"is_reserved": 0, "type": "electric_scooter", "bike_id": "18fdcb29f0025b35702b991e4119387a", "lat": 38.91863166666667, "lon": -77.041777, "rental_uris": {"android": "https://dc.lft.to/lastmile_qr_scan", "ios": "https://dc.lft.to/lastmile_qr_scan"}, "is_disabled": 0, "fusion_lat": 0.0, "name": "18fdcb29f0025b35702b991e4119387a", "fusion_lon": 0.0}, {"is_reserved": 0, "type": "electric_scooter", "bike_id": "835eaf2f5323987f05ad422e7122c6a2", "lat": 38.89922383333333, "lon": -77.02722133333333, "rental_uris": {"android": "https://dc.lft.to/lastmile_qr_scan", "ios": "https://dc.lft.to/lastmile_qr_scan"}, "is_disabled": 0, "fusion_lat": 0.0, "name": "835eaf2f5323987f05ad422e7122c6a2", "fusion_lon": 0.0}, {"is_reserved": 0, "type": "electric_scooter", "bike_id": "9f0370bc323c86e12fd628bc97bf0521", "lat": 38.92344116666666, "lon": -77.05684933333333, "rental_uris": {"android": "https://dc.lft.to/lastmile_qr_scan", "ios": "https://dc.lft.to/lastmile_qr_scan"}, "is_disabled": 0, "fusion_lat": 0.0, "name": "9f0370bc323c86e12fd628bc97bf0521", "fusion_lon": 0.0}, {"is_reserved": 0, "type": "electric_scooter", "bike_id": "b134b4549f8cadf5bac3bd53056646e0", "lat": 38.91812783333334, "lon": -77.04549683333333, "rental_uris": {"android": "https://dc.lft.to/lastmile_qr_scan", "ios": "https://dc.lft.to/lastmile_qr_scan"}, "is_disabled": 0, "fusion_lat": 0.0, "name": "b134b4549f8cadf5bac3bd53056646e0", "fusion_lon": 0.0}, {"is_reserved": 0, "type": "electric_scooter", "bike_id": "16c70413c854fcab4557314e0feeacaa", "lat": 38.97516516666666, "lon": -77.01744716666667, "rental_uris": {"android": "https://dc.lft.to/lastmile_qr_scan", "ios": "https://dc.lft.to/lastmile_qr_scan"}, "is_disabled": 0, "fusion_lat": 0.0, "name": "16c70413c854fcab4557314e0feeacaa", "fusion_lon": 0.0}, {"is_reserved": 0, "type": "electric_scooter", "bike_id": "e7b01776896b5d3772c09ba50dc95174", "lat": 38.916768, "lon": -77.03201866666667, "rental_uris": {"android": "https://dc.lft.to/lastmile_qr_scan", "ios": "https://dc.lft.to/lastmile_qr_scan"}, "is_disabled": 0, "fusion_lat": 0.0, "name": "e7b01776896b5d3772c09ba50dc95174", "fusion_lon": 0.0}, {"is_reserved": 0, "type": "electric_scooter", "bike_id": "090f41e77eb3cb3d754a1394a4a79b25", "lat": 38.910835, "lon": -77.044788, "rental_uris": {"android": "https://dc.lft.to/lastmile_qr_scan", "ios": "https://dc.lft.to/lastmile_qr_scan"}, "is_disabled": 0, "fusion_lat": 0.0, "name": "090f41e77eb3cb3d754a1394a4a79b25", "fusion_lon": 0.0}, {"is_reserved": 0, "type": "electric_scooter", "bike_id": "0afa617ccec127cbeb36c37f4309be2c", "lat": 38.92604466666667, "lon": -77.02169166666667, "rental_uris": {"android": "https://dc.lft.to/lastmile_qr_scan", "ios": "https://dc.lft.to/lastmile_qr_scan"}, "is_disabled": 0, "fusion_lat": 0.0, "name": "0afa617ccec127cbeb36c37f4309be2c", "fusion_lon": 0.0}, {"is_reserved": 0, "type": "electric_scooter", "bike_id": "da2a461eb1b75ed06943998a083f9f75", "lat": 38.90075233333334, "lon": -77.0020445, "rental_uris": {"android": "https://dc.lft.to/lastmile_qr_scan", "ios": "https://dc.lft.to/lastmile_qr_scan"}, "is_disabled": 0, "fusion_lat": 0.0, "name": "da2a461eb1b75ed06943998a083f9f75", "fusion_lon": 0.0}, {"is_reserved": 0, "type": "electric_bike", "bike_id": "a0554e359b336a4e5a74f23293da3d3f", "lat": 38.95754133333333, "lon": -76.98021616666666, "rental_uris": {"android": "https://dc.lft.to/lastmile_qr_scan", "ios": "https://dc.lft.to/lastmile_qr_scan"}, "is_disabled": 0, "fusion_lat": 0.0, "name": "a0554e359b336a4e5a74f23293da3d3f", "fusion_lon": 0.0}, {"is_reserved": 0, "type": "electric_scooter", "bike_id": "5e6ca4059ba6f13ee4bc7964f69a44ef", "lat": 38.937781333333334, "lon": -77.03271033333333, "rental_uris": {"android": "https://dc.lft.to/lastmile_qr_scan", "ios": "https://dc.lft.to/lastmile_qr_scan"}, "is_disabled": 0, "fusion_lat": 0.0, "name": "5e6ca4059ba6f13ee4bc7964f69a44ef", "fusion_lon": 0.0}, {"is_reserved": 0, "type": "electric_scooter", "bike_id": "e2922c3011b4e32d62f1bc131ea891f2", "lat": 38.92900616666667, "lon": -77.036309, "rental_uris": {"android": "https://dc.lft.to/lastmile_qr_scan", "ios": "https://dc.lft.to/lastmile_qr_scan"}, "is_disabled": 0, "fusion_lat": 0.0, "name": "e2922c3011b4e32d62f1bc131ea891f2", "fusion_lon": 0.0}, {"is_reserved": 0, "type": "electric_scooter", "bike_id": "e3691e801a5eb9ab06c5fb6a630670cf", "lat": 38.908614166666666, "lon": -77.02356266666666, "rental_uris": {"android": "https://dc.lft.to/lastmile_qr_scan", "ios": "https://dc.lft.to/lastmile_qr_scan"}, "is_disabled": 0, "fusion_lat": 0.0, "name": "e3691e801a5eb9ab06c5fb6a630670cf", "fusion_lon": 0.0}, {"is_reserved": 0, "type": "electric_scooter", "bike_id": "750e02ae515719e727b73300c90a4a50", "lat": 38.89964366666667, "lon": -77.0160275, "rental_uris": {"android": "https://dc.lft.to/lastmile_qr_scan", "ios": "https://dc.lft.to/lastmile_qr_scan"}, "is_disabled": 0, "fusion_lat": 0.0, "name": "750e02ae515719e727b73300c90a4a50", "fusion_lon": 0.0}, {"is_reserved": 0, "type": "electric_scooter", "bike_id": "0c889243d03a093e9379b924788afefd", "lat": 38.956224, "lon": -77.02782166666667, "rental_uris": {"android": "https://dc.lft.to/lastmile_qr_scan", "ios": "https://dc.lft.to/lastmile_qr_scan"}, "is_disabled": 0, "fusion_lat": 0.0, "name": "0c889243d03a093e9379b924788afefd", "fusion_lon": 0.0}, {"is_reserved": 0, "type": "electric_scooter", "bike_id": "a00aacf5d41cbe8efe1ae3811d173ca2", "lat": 38.92453916666667, "lon": -77.043928, "rental_uris": {"android": "https://dc.lft.to/lastmile_qr_scan", "ios": "https://dc.lft.to/lastmile_qr_scan"}, "is_disabled": 0, "fusion_lat": 0.0, "name": "a00aacf5d41cbe8efe1ae3811d173ca2", "fusion_lon": 0.0}, {"is_reserved": 0, "type": "electric_scooter", "bike_id": "e3212de774159e73c4a60423eff82e1c", "lat": 38.90575716666667, "lon": -77.0461665, "rental_uris": {"android": "https://dc.lft.to/lastmile_qr_scan", "ios": "https://dc.lft.to/lastmile_qr_scan"}, "is_disabled": 0, "fusion_lat": 0.0, "name": "e3212de774159e73c4a60423eff82e1c", "fusion_lon": 0.0}, {"is_reserved": 0, "type": "electric_scooter", "bike_id": "1205847ab3bbd0f5aebfbb3fa35a84e5", "lat": 38.89821666666667, "lon": -77.02922716666667, "rental_uris": {"android": "https://dc.lft.to/lastmile_qr_scan", "ios": "https://dc.lft.to/lastmile_qr_scan"}, "is_disabled": 0, "fusion_lat": 0.0, "name": "1205847ab3bbd0f5aebfbb3fa35a84e5", "fusion_lon": 0.0}, {"is_reserved": 0, "type": "electric_scooter", "bike_id": "6d2781e45f5d86263d38054f3d599739", "lat": 38.892258166666664, "lon": -77.0435925, "rental_uris": {"android": "https://dc.lft.to/lastmile_qr_scan", "ios": "https://dc.lft.to/lastmile_qr_scan"}, "is_disabled": 0, "fusion_lat": 0.0, "name": "6d2781e45f5d86263d38054f3d599739", "fusion_lon": 0.0}, {"is_reserved": 0, "type": "electric_scooter", "bike_id": "5f8e4fa7214bc90b3ccbd36d2572b66c", "lat": 38.90537583333333, "lon": -77.005585, "rental_uris": {"android": "https://dc.lft.to/lastmile_qr_scan", "ios": "https://dc.lft.to/lastmile_qr_scan"}, "is_disabled": 0, "fusion_lat": 0.0, "name": "5f8e4fa7214bc90b3ccbd36d2572b66c", "fusion_lon": 0.0}, {"is_reserved": 0, "type": "electric_bike", "bike_id": "42f1dbf2b62c5ef61ac0dcef11488087", "lat": 38.90323, "lon": -77.05213683333334, "rental_uris": {"android": "https://dc.lft.to/lastmile_qr_scan", "ios": "https://dc.lft.to/lastmile_qr_scan"}, "is_disabled": 0, "fusion_lat": 0.0, "name": "42f1dbf2b62c5ef61ac0dcef11488087", "fusion_lon": 0.0}, {"is_reserved": 0, "type": "electric_scooter", "bike_id": "4cf793a0ff0f2eccfbf4e3a334d4c03c", "lat": 38.918149166666666, "lon": -77.03301733333333, "rental_uris": {"android": "https://dc.lft.to/lastmile_qr_scan", "ios": "https://dc.lft.to/lastmile_qr_scan"}, "is_disabled": 0, "fusion_lat": 0.0, "name": "4cf793a0ff0f2eccfbf4e3a334d4c03c", "fusion_lon": 0.0}, {"is_reserved": 0, "type": "electric_scooter", "bike_id": "b201dc351219f6cd1edc6e5f011318cd", "lat": 38.9156055, "lon": -77.03850033333333, "rental_uris": {"android": "https://dc.lft.to/lastmile_qr_scan", "ios": "https://dc.lft.to/lastmile_qr_scan"}, "is_disabled": 0, "fusion_lat": 0.0, "name": "b201dc351219f6cd1edc6e5f011318cd", "fusion_lon": 0.0}, {"is_reserved": 0, "type": "electric_scooter", "bike_id": "87b851b111afa8baf9348ce7b918808c", "lat": 38.88629516666666, "lon": -77.02227916666666, "rental_uris": {"android": "https://dc.lft.to/lastmile_qr_scan", "ios": "https://dc.lft.to/lastmile_qr_scan"}, "is_disabled": 0, "fusion_lat": 0.0, "name": "87b851b111afa8baf9348ce7b918808c", "fusion_lon": 0.0}, {"is_reserved": 0, "type": "electric_scooter", "bike_id": "719c501ee1feb1366686512321c48708", "lat": 38.893580166666666, "lon": -77.003373, "rental_uris": {"android": "https://dc.lft.to/lastmile_qr_scan", "ios": "https://dc.lft.to/lastmile_qr_scan"}, "is_disabled": 0, "fusion_lat": 0.0, "name": "719c501ee1feb1366686512321c48708", "fusion_lon": 0.0}, {"is_reserved": 0, "type": "electric_scooter", "bike_id": "ee02dd431ec984aee7449a3e86c3e546", "lat": 38.9252385, "lon": -77.05059033333333, "rental_uris": {"android": "https://dc.lft.to/lastmile_qr_scan", "ios": "https://dc.lft.to/lastmile_qr_scan"}, "is_disabled": 0, "fusion_lat": 0.0, "name": "ee02dd431ec984aee7449a3e86c3e546", "fusion_lon": 0.0}, {"is_reserved": 0, "type": "electric_bike", "bike_id": "0e6198c97951fedd4e72c60a1daa2f1f", "lat": 38.870011, "lon": -77.23005016666667, "rental_uris": {"android": "https://dc.lft.to/lastmile_qr_scan", "ios": "https://dc.lft.to/lastmile_qr_scan"}, "is_disabled": 0, "fusion_lat": 0.0, "name": "0e6198c97951fedd4e72c60a1daa2f1f", "fusion_lon": 0.0}, {"is_reserved": 0, "type": "electric_scooter", "bike_id": "ad2d5aff3e35ba7610577e1df6df0966", "lat": 38.885343166666665, "lon": -76.98087233333334, "rental_uris": {"android": "https://dc.lft.to/lastmile_qr_scan", "ios": "https://dc.lft.to/lastmile_qr_scan"}, "is_disabled": 0, "fusion_lat": 0.0, "name": "ad2d5aff3e35ba7610577e1df6df0966", "fusion_lon": 0.0}, {"is_reserved": 0, "type": "electric_bike", "bike_id": "cf9d17809dbab4d670c122e998629755", "lat": 38.9002065, "lon": -76.9975445, "rental_uris": {"android": "https://dc.lft.to/lastmile_qr_scan", "ios": "https://dc.lft.to/lastmile_qr_scan"}, "is_disabled": 0, "fusion_lat": 0.0, "name": "cf9d17809dbab4d670c122e998629755", "fusion_lon": 0.0}, {"is_reserved": 0, "type": "electric_scooter", "bike_id": "b9c965dfbf5c4908a293de57da6f4fec", "lat": 38.89616616666667, "lon": -77.04475633333334, "rental_uris": {"android": "https://dc.lft.to/lastmile_qr_scan", "ios": "https://dc.lft.to/lastmile_qr_scan"}, "is_disabled": 0, "fusion_lat": 0.0, "name": "b9c965dfbf5c4908a293de57da6f4fec", "fusion_lon": 0.0}, {"is_reserved": 0, "type": "electric_scooter", "bike_id": "ab079cfd73c9222cf465ade4a7385b4b", "lat": 38.900102833333335, "lon": -76.99683333333333, "rental_uris": {"android": "https://dc.lft.to/lastmile_qr_scan", "ios": "https://dc.lft.to/lastmile_qr_scan"}, "is_disabled": 0, "fusion_lat": 0.0, "name": "ab079cfd73c9222cf465ade4a7385b4b", "fusion_lon": 0.0}, {"is_reserved": 0, "type": "electric_scooter", "bike_id": "95f6f9e2dbe3df6c7caed50e5a0bd43d", "lat": 38.86634733333333, "lon": -76.98287633333334, "rental_uris": {"android": "https://dc.lft.to/lastmile_qr_scan", "ios": "https://dc.lft.to/lastmile_qr_scan"}, "is_disabled": 0, "fusion_lat": 0.0, "name": "95f6f9e2dbe3df6c7caed50e5a0bd43d", "fusion_lon": 0.0}, {"is_reserved": 0, "type": "electric_bike", "bike_id": "83352ea74b884ed586f8e50ce5ec5840", "lat": 38.8541955, "lon": -77.08365333333333, "rental_uris": {"android": "https://dc.lft.to/lastmile_qr_scan", "ios": "https://dc.lft.to/lastmile_qr_scan"}, "is_disabled": 0, "fusion_lat": 0.0, "name": "83352ea74b884ed586f8e50ce5ec5840", "fusion_lon": 0.0}, {"is_reserved": 0, "type": "electric_scooter", "bike_id": "3e9e7609a0c2b623933416646bbf399f", "lat": 38.90096616666666, "lon": -77.05776266666666, "rental_uris": {"android": "https://dc.lft.to/lastmile_qr_scan", "ios": "https://dc.lft.to/lastmile_qr_scan"}, "is_disabled": 0, "fusion_lat": 0.0, "name": "3e9e7609a0c2b623933416646bbf399f", "fusion_lon": 0.0}, {"is_reserved": 0, "type": "electric_scooter", "bike_id": "7db3b7effe6f0e725d5b4afa19f72f98", "lat": 38.92680683333333, "lon": -77.03195833333334, "rental_uris": {"android": "https://dc.lft.to/lastmile_qr_scan", "ios": "https://dc.lft.to/lastmile_qr_scan"}, "is_disabled": 0, "fusion_lat": 0.0, "name": "7db3b7effe6f0e725d5b4afa19f72f98", "fusion_lon": 0.0}, {"is_reserved": 0, "type": "electric_scooter", "bike_id": "1b049cd9d21e2f38b6deb80313377824", "lat": 38.8964275, "lon": -77.009271, "rental_uris": {"android": "https://dc.lft.to/lastmile_qr_scan", "ios": "https://dc.lft.to/lastmile_qr_scan"}, "is_disabled": 0, "fusion_lat": 0.0, "name": "1b049cd9d21e2f38b6deb80313377824", "fusion_lon": 0.0}, {"is_reserved": 0, "type": "electric_scooter", "bike_id": "d4c8d4f923ad87483fd673a431c7b5c6", "lat": 38.89324383333334, "lon": -77.01240433333334, "rental_uris": {"android": "https://dc.lft.to/lastmile_qr_scan", "ios": "https://dc.lft.to/lastmile_qr_scan"}, "is_disabled": 0, "fusion_lat": 0.0, "name": "d4c8d4f923ad87483fd673a431c7b5c6", "fusion_lon": 0.0}, {"is_reserved": 0, "type": "electric_scooter", "bike_id": "d28e4f2c6aeef4f5c4e1106bb56f8e73", "lat": 38.89342333333333, "lon": -77.04870816666667, "rental_uris": {"android": "https://dc.lft.to/lastmile_qr_scan", "ios": "https://dc.lft.to/lastmile_qr_scan"}, "is_disabled": 0, "fusion_lat": 0.0, "name": "d28e4f2c6aeef4f5c4e1106bb56f8e73", "fusion_lon": 0.0}, {"is_reserved": 0, "type": "electric_scooter", "bike_id": "8d42cebcd066365a0fe6d52c0734cee9", "lat": 38.896358, "lon": -76.9280165, "rental_uris": {"android": "https://dc.lft.to/lastmile_qr_scan", "ios": "https://dc.lft.to/lastmile_qr_scan"}, "is_disabled": 0, "fusion_lat": 0.0, "name": "8d42cebcd066365a0fe6d52c0734cee9", "fusion_lon": 0.0}, {"is_reserved": 0, "type": "electric_bike", "bike_id": "1f2b358f1b07ac7a5496de4cadde5883", "lat": 38.87345216666667, "lon": -77.01855483333334, "rental_uris": {"android": "https://dc.lft.to/lastmile_qr_scan", "ios": "https://dc.lft.to/lastmile_qr_scan"}, "is_disabled": 0, "fusion_lat": 0.0, "name": "1f2b358f1b07ac7a5496de4cadde5883", "fusion_lon": 0.0}, {"is_reserved": 0, "type": "electric_bike", "bike_id": "637ae1d09820bd51607676ef5a33a6c3", "lat": 38.9426285, "lon": -76.990701, "rental_uris": {"android": "https://dc.lft.to/lastmile_qr_scan", "ios": "https://dc.lft.to/lastmile_qr_scan"}, "is_disabled": 0, "fusion_lat": 0.0, "name": "637ae1d09820bd51607676ef5a33a6c3", "fusion_lon": 0.0}, {"is_reserved": 0, "type": "electric_scooter", "bike_id": "950db5c5343c4df4a644a9792bea4f4d", "lat": 38.90212533333333, "lon": -77.02186266666666, "rental_uris": {"android": "https://dc.lft.to/lastmile_qr_scan", "ios": "https://dc.lft.to/lastmile_qr_scan"}, "is_disabled": 0, "fusion_lat": 0.0, "name": "950db5c5343c4df4a644a9792bea4f4d", "fusion_lon": 0.0}, {"is_reserved": 0, "type": "electric_scooter", "bike_id": "733e55597c439a92ff6f3dcd944d50f5", "lat": 38.9108415, "lon": -77.0220335, "rental_uris": {"android": "https://dc.lft.to/lastmile_qr_scan", "ios": "https://dc.lft.to/lastmile_qr_scan"}, "is_disabled": 0, "fusion_lat": 0.0, "name": "733e55597c439a92ff6f3dcd944d50f5", "fusion_lon": 0.0}, {"is_reserved": 0, "type": "electric_scooter", "bike_id": "ac783b9a5a1ecf99a5940a0a82b0ab89", "lat": 38.87708833333333, "lon": -77.017638, "rental_uris": {"android": "https://dc.lft.to/lastmile_qr_scan", "ios": "https://dc.lft.to/lastmile_qr_scan"}, "is_disabled": 0, "fusion_lat": 0.0, "name": "ac783b9a5a1ecf99a5940a0a82b0ab89", "fusion_lon": 0.0}, {"is_reserved": 0, "type": "electric_scooter", "bike_id": "a3f083d036f3e09915d6f6150a68e36e", "lat": 38.95911733333333, "lon": -77.00020383333333, "rental_uris": {"android": "https://dc.lft.to/lastmile_qr_scan", "ios": "https://dc.lft.to/lastmile_qr_scan"}, "is_disabled": 0, "fusion_lat": 0.0, "name": "a3f083d036f3e09915d6f6150a68e36e", "fusion_lon": 0.0}, {"is_reserved": 0, "type": "electric_scooter", "bike_id": "a54a81b3220328aa7f33aa8823608562", "lat": 38.945903, "lon": -77.0203215, "rental_uris": {"android": "https://dc.lft.to/lastmile_qr_scan", "ios": "https://dc.lft.to/lastmile_qr_scan"}, "is_disabled": 0, "fusion_lat": 0.0, "name": "a54a81b3220328aa7f33aa8823608562", "fusion_lon": 0.0}, {"is_reserved": 0, "type": "electric_scooter", "bike_id": "d8ce57d80f9ee19252010db135e148f4", "lat": 38.920467, "lon": -77.0418995, "rental_uris": {"android": "https://dc.lft.to/lastmile_qr_scan", "ios": "https://dc.lft.to/lastmile_qr_scan"}, "is_disabled": 0, "fusion_lat": 0.0, "name": "d8ce57d80f9ee19252010db135e148f4", "fusion_lon": 0.0}, {"is_reserved": 0, "type": "electric_scooter", "bike_id": "ebb1e4cf0152050beade92413ed3d943", "lat": 38.98221916666667, "lon": -77.02641516666667, "rental_uris": {"android": "https://dc.lft.to/lastmile_qr_scan", "ios": "https://dc.lft.to/lastmile_qr_scan"}, "is_disabled": 0, "fusion_lat": 0.0, "name": "ebb1e4cf0152050beade92413ed3d943", "fusion_lon": 0.0}, {"is_reserved": 0, "type": "electric_scooter", "bike_id": "08cecbe03ed7a028ef5f3b20a26d6fa2", "lat": 38.8737505, "lon": -77.0012915, "rental_uris": {"android": "https://dc.lft.to/lastmile_qr_scan", "ios": "https://dc.lft.to/lastmile_qr_scan"}, "is_disabled": 0, "fusion_lat": 0.0, "name": "08cecbe03ed7a028ef5f3b20a26d6fa2", "fusion_lon": 0.0}, {"is_reserved": 0, "type": "electric_bike", "bike_id": "c66fa5053f02e79d59e9f62b122aefbe", "lat": 38.839331333333334, "lon": -77.07903666666667, "rental_uris": {"android": "https://dc.lft.to/lastmile_qr_scan", "ios": "https://dc.lft.to/lastmile_qr_scan"}, "is_disabled": 0, "fusion_lat": 0.0, "name": "c66fa5053f02e79d59e9f62b122aefbe", "fusion_lon": 0.0}, {"is_reserved": 0, "type": "electric_scooter", "bike_id": "7f8cce19abc56bded83aa7abdfc6535b", "lat": 38.92840266666666, "lon": -77.00604466666667, "rental_uris": {"android": "https://dc.lft.to/lastmile_qr_scan", "ios": "https://dc.lft.to/lastmile_qr_scan"}, "is_disabled": 0, "fusion_lat": 0.0, "name": "7f8cce19abc56bded83aa7abdfc6535b", "fusion_lon": 0.0}, {"is_reserved": 0, "type": "electric_scooter", "bike_id": "a31a69d76c810a792f0a99098d7d565b", "lat": 38.90011883333333, "lon": -76.993515, "rental_uris": {"android": "https://dc.lft.to/lastmile_qr_scan", "ios": "https://dc.lft.to/lastmile_qr_scan"}, "is_disabled": 0, "fusion_lat": 0.0, "name": "a31a69d76c810a792f0a99098d7d565b", "fusion_lon": 0.0}, {"is_reserved": 0, "type": "electric_scooter", "bike_id": "e43cae1ab256c9db2efdb32c0683a90c", "lat": 38.900125, "lon": -77.03194916666666, "rental_uris": {"android": "https://dc.lft.to/lastmile_qr_scan", "ios": "https://dc.lft.to/lastmile_qr_scan"}, "is_disabled": 0, "fusion_lat": 0.0, "name": "e43cae1ab256c9db2efdb32c0683a90c", "fusion_lon": 0.0}, {"is_reserved": 0, "type": "electric_scooter", "bike_id": "a911719096ad3990dfe9da3030a55b8b", "lat": 38.885105333333335, "lon": -76.996788, "rental_uris": {"android": "https://dc.lft.to/lastmile_qr_scan", "ios": "https://dc.lft.to/lastmile_qr_scan"}, "is_disabled": 0, "fusion_lat": 0.0, "name": "a911719096ad3990dfe9da3030a55b8b", "fusion_lon": 0.0}, {"is_reserved": 0, "type": "electric_bike", "bike_id": "d89e1f8a5aee36e019b762519afbe889", "lat": 38.91302, "lon": -77.08287833333333, "rental_uris": {"android": "https://dc.lft.to/lastmile_qr_scan", "ios": "https://dc.lft.to/lastmile_qr_scan"}, "is_disabled": 0, "fusion_lat": 0.0, "name": "d89e1f8a5aee36e019b762519afbe889", "fusion_lon": 0.0}, {"is_reserved": 0, "type": "electric_scooter", "bike_id": "5cd2eb23b5f8df36b8fe0e4c740b64a9", "lat": 38.926317, "lon": -77.03532016666666, "rental_uris": {"android": "https://dc.lft.to/lastmile_qr_scan", "ios": "https://dc.lft.to/lastmile_qr_scan"}, "is_disabled": 0, "fusion_lat": 0.0, "name": "5cd2eb23b5f8df36b8fe0e4c740b64a9", "fusion_lon": 0.0}, {"is_reserved": 0, "type": "electric_scooter", "bike_id": "67d96f6b77a08cbef60a2ad3f8cc00ff", "lat": 38.93537416666667, "lon": -77.02352333333333, "rental_uris": {"android": "https://dc.lft.to/lastmile_qr_scan", "ios": "https://dc.lft.to/lastmile_qr_scan"}, "is_disabled": 0, "fusion_lat": 0.0, "name": "67d96f6b77a08cbef60a2ad3f8cc00ff", "fusion_lon": 0.0}, {"is_reserved": 0, "type": "electric_scooter", "bike_id": "c1695fc03fb4468315a75a976555e5ea", "lat": 38.90169016666667, "lon": -77.032048, "rental_uris": {"android": "https://dc.lft.to/lastmile_qr_scan", "ios": "https://dc.lft.to/lastmile_qr_scan"}, "is_disabled": 0, "fusion_lat": 0.0, "name": "c1695fc03fb4468315a75a976555e5ea", "fusion_lon": 0.0}, {"is_reserved": 0, "type": "electric_scooter", "bike_id": "6f3ddd6fbc160f0c5daa760ec0d8908d", "lat": 38.917060666666664, "lon": -77.03214583333333, "rental_uris": {"android": "https://dc.lft.to/lastmile_qr_scan", "ios": "https://dc.lft.to/lastmile_qr_scan"}, "is_disabled": 0, "fusion_lat": 0.0, "name": "6f3ddd6fbc160f0c5daa760ec0d8908d", "fusion_lon": 0.0}, {"is_reserved": 0, "type": "electric_scooter", "bike_id": "09d90d4ff59b40953cee024fdfa27591", "lat": 38.90972266666667, "lon": -77.03196383333334, "rental_uris": {"android": "https://dc.lft.to/lastmile_qr_scan", "ios": "https://dc.lft.to/lastmile_qr_scan"}, "is_disabled": 0, "fusion_lat": 0.0, "name": "09d90d4ff59b40953cee024fdfa27591", "fusion_lon": 0.0}, {"is_reserved": 0, "type": "electric_scooter", "bike_id": "7114ec29af1786abb861e5aba2a9c92d", "lat": 38.921299833333336, "lon": -77.018138, "rental_uris": {"android": "https://dc.lft.to/lastmile_qr_scan", "ios": "https://dc.lft.to/lastmile_qr_scan"}, "is_disabled": 0, "fusion_lat": 0.0, "name": "7114ec29af1786abb861e5aba2a9c92d", "fusion_lon": 0.0}, {"is_reserved": 0, "type": "electric_scooter", "bike_id": "7c15fe7456d32fbfb4197b20d11e2ee2", "lat": 38.912709166666666, "lon": -77.04478183333333, "rental_uris": {"android": "https://dc.lft.to/lastmile_qr_scan", "ios": "https://dc.lft.to/lastmile_qr_scan"}, "is_disabled": 0, "fusion_lat": 0.0, "name": "7c15fe7456d32fbfb4197b20d11e2ee2", "fusion_lon": 0.0}, {"is_reserved": 0, "type": "electric_scooter", "bike_id": "ef3690a0dc14bca6dc9ae99646afdfb5", "lat": 38.920555, "lon": -77.024461, "rental_uris": {"android": "https://dc.lft.to/lastmile_qr_scan", "ios": "https://dc.lft.to/lastmile_qr_scan"}, "is_disabled": 0, "fusion_lat": 0.0, "name": "ef3690a0dc14bca6dc9ae99646afdfb5", "fusion_lon": 0.0}, {"is_reserved": 0, "type": "electric_scooter", "bike_id": "afeca3f4ed3dd7d9bc032ea7eda56481", "lat": 38.93209366666667, "lon": -77.02379283333333, "rental_uris": {"android": "https://dc.lft.to/lastmile_qr_scan", "ios": "https://dc.lft.to/lastmile_qr_scan"}, "is_disabled": 0, "fusion_lat": 0.0, "name": "afeca3f4ed3dd7d9bc032ea7eda56481", "fusion_lon": 0.0}, {"is_reserved": 0, "type": "electric_scooter", "bike_id": "1f2dbc8c77f7c6e414ab6a0da200ad70", "lat": 38.88383783333333, "lon": -76.93048116666667, "rental_uris": {"android": "https://dc.lft.to/lastmile_qr_scan", "ios": "https://dc.lft.to/lastmile_qr_scan"}, "is_disabled": 0, "fusion_lat": 0.0, "name": "1f2dbc8c77f7c6e414ab6a0da200ad70", "fusion_lon": 0.0}, {"is_reserved": 0, "type": "electric_scooter", "bike_id": "e34970927f0794136e605e3b222aa8d3", "lat": 38.8923045, "lon": -77.01609583333334, "rental_uris": {"android": "https://dc.lft.to/lastmile_qr_scan", "ios": "https://dc.lft.to/lastmile_qr_scan"}, "is_disabled": 0, "fusion_lat": 0.0, "name": "e34970927f0794136e605e3b222aa8d3", "fusion_lon": 0.0}, {"is_reserved": 0, "type": "electric_scooter", "bike_id": "437a773d263ec8829dbcbecd2da3b8c5", "lat": 38.90149533333334, "lon": -77.041615, "rental_uris": {"android": "https://dc.lft.to/lastmile_qr_scan", "ios": "https://dc.lft.to/lastmile_qr_scan"}, "is_disabled": 0, "fusion_lat": 0.0, "name": "437a773d263ec8829dbcbecd2da3b8c5", "fusion_lon": 0.0}, {"is_reserved": 0, "type": "electric_scooter", "bike_id": "4bfe63b4e65a0212778929d7cad075a9", "lat": 38.905804333333336, "lon": -76.95073483333333, "rental_uris": {"android": "https://dc.lft.to/lastmile_qr_scan", "ios": "https://dc.lft.to/lastmile_qr_scan"}, "is_disabled": 0, "fusion_lat": 0.0, "name": "4bfe63b4e65a0212778929d7cad075a9", "fusion_lon": 0.0}, {"is_reserved": 0, "type": "electric_bike", "bike_id": "6c554fc1f3a7931b5efca10b7ae49896", "lat": 38.894586833333335, "lon": -77.19136966666667, "rental_uris": {"android": "https://dc.lft.to/lastmile_qr_scan", "ios": "https://dc.lft.to/lastmile_qr_scan"}, "is_disabled": 0, "fusion_lat": 0.0, "name": "6c554fc1f3a7931b5efca10b7ae49896", "fusion_lon": 0.0}, {"is_reserved": 0, "type": "electric_scooter", "bike_id": "5e0e700ddd966ffeb70e0a8b116f1472", "lat": 38.90523733333333, "lon": -77.061499, "rental_uris": {"android": "https://dc.lft.to/lastmile_qr_scan", "ios": "https://dc.lft.to/lastmile_qr_scan"}, "is_disabled": 0, "fusion_lat": 0.0, "name": "5e0e700ddd966ffeb70e0a8b116f1472", "fusion_lon": 0.0}, {"is_reserved": 0, "type": "electric_scooter", "bike_id": "ae30a92b32d3ca6a9ce795fc43ee5158", "lat": 38.915996666666665, "lon": -77.02402966666666, "rental_uris": {"android": "https://dc.lft.to/lastmile_qr_scan", "ios": "https://dc.lft.to/lastmile_qr_scan"}, "is_disabled": 0, "fusion_lat": 0.0, "name": "ae30a92b32d3ca6a9ce795fc43ee5158", "fusion_lon": 0.0}, {"is_reserved": 0, "type": "electric_scooter", "bike_id": "7bc4bdcfec2820307b72f17894bdb720", "lat": 38.935862166666666, "lon": -77.05837516666666, "rental_uris": {"android": "https://dc.lft.to/lastmile_qr_scan", "ios": "https://dc.lft.to/lastmile_qr_scan"}, "is_disabled": 0, "fusion_lat": 0.0, "name": "7bc4bdcfec2820307b72f17894bdb720", "fusion_lon": 0.0}, {"is_reserved": 0, "type": "electric_scooter", "bike_id": "bf1529c6b4168a465659bb1600e30ba9", "lat": 38.9147175, "lon": -77.032147, "rental_uris": {"android": "https://dc.lft.to/lastmile_qr_scan", "ios": "https://dc.lft.to/lastmile_qr_scan"}, "is_disabled": 0, "fusion_lat": 0.0, "name": "bf1529c6b4168a465659bb1600e30ba9", "fusion_lon": 0.0}, {"is_reserved": 0, "type": "electric_scooter", "bike_id": "8a9ee755909ffe579e9d5258a5c1c5f9", "lat": 38.89540866666667, "lon": -77.03027433333334, "rental_uris": {"android": "https://dc.lft.to/lastmile_qr_scan", "ios": "https://dc.lft.to/lastmile_qr_scan"}, "is_disabled": 0, "fusion_lat": 0.0, "name": "8a9ee755909ffe579e9d5258a5c1c5f9", "fusion_lon": 0.0}, {"is_reserved": 0, "type": "electric_scooter", "bike_id": "a485d6da90e83264fa4f2d5d1e740697", "lat": 38.899278833333334, "lon": -76.9782745, "rental_uris": {"android": "https://dc.lft.to/lastmile_qr_scan", "ios": "https://dc.lft.to/lastmile_qr_scan"}, "is_disabled": 0, "fusion_lat": 0.0, "name": "a485d6da90e83264fa4f2d5d1e740697", "fusion_lon": 0.0}, {"is_reserved": 0, "type": "electric_scooter", "bike_id": "71050a001fea9adb4d19493d075916a8", "lat": 38.92577633333333, "lon": -76.994932, "rental_uris": {"android": "https://dc.lft.to/lastmile_qr_scan", "ios": "https://dc.lft.to/lastmile_qr_scan"}, "is_disabled": 0, "fusion_lat": 0.0, "name": "71050a001fea9adb4d19493d075916a8", "fusion_lon": 0.0}, {"is_reserved": 0, "type": "electric_scooter", "bike_id": "6a86e10b683fa60efb04c1ef828c3e2d", "lat": 38.90274816666667, "lon": -77.027201, "rental_uris": {"android": "https://dc.lft.to/lastmile_qr_scan", "ios": "https://dc.lft.to/lastmile_qr_scan"}, "is_disabled": 0, "fusion_lat": 0.0, "name": "6a86e10b683fa60efb04c1ef828c3e2d", "fusion_lon": 0.0}, {"is_reserved": 0, "type": "electric_scooter", "bike_id": "0a9994d26aafd08424c8c7c40c48f244", "lat": 38.91404933333333, "lon": -77.02227116666667, "rental_uris": {"android": "https://dc.lft.to/lastmile_qr_scan", "ios": "https://dc.lft.to/lastmile_qr_scan"}, "is_disabled": 0, "fusion_lat": 0.0, "name": "0a9994d26aafd08424c8c7c40c48f244", "fusion_lon": 0.0}, {"is_reserved": 0, "type": "electric_scooter", "bike_id": "9fd7b55bfe28945b9619fb78c86a8d3f", "lat": 38.89607133333333, "lon": -77.04687466666667, "rental_uris": {"android": "https://dc.lft.to/lastmile_qr_scan", "ios": "https://dc.lft.to/lastmile_qr_scan"}, "is_disabled": 0, "fusion_lat": 0.0, "name": "9fd7b55bfe28945b9619fb78c86a8d3f", "fusion_lon": 0.0}, {"is_reserved": 0, "type": "electric_scooter", "bike_id": "edb7f7909b2617974fc9568373ac70aa", "lat": 38.937011166666665, "lon": -77.02117666666666, "rental_uris": {"android": "https://dc.lft.to/lastmile_qr_scan", "ios": "https://dc.lft.to/lastmile_qr_scan"}, "is_disabled": 0, "fusion_lat": 0.0, "name": "edb7f7909b2617974fc9568373ac70aa", "fusion_lon": 0.0}, {"is_reserved": 0, "type": "electric_scooter", "bike_id": "ed221d77b60d6e5c84065b3421f74e88", "lat": 38.929365833333335, "lon": -76.997833, "rental_uris": {"android": "https://dc.lft.to/lastmile_qr_scan", "ios": "https://dc.lft.to/lastmile_qr_scan"}, "is_disabled": 0, "fusion_lat": 0.0, "name": "ed221d77b60d6e5c84065b3421f74e88", "fusion_lon": 0.0}, {"is_reserved": 0, "type": "electric_scooter", "bike_id": "4246142f4437e6a281e6ccceeaec0582", "lat": 38.90360033333333, "lon": -77.00341066666667, "rental_uris": {"android": "https://dc.lft.to/lastmile_qr_scan", "ios": "https://dc.lft.to/lastmile_qr_scan"}, "is_disabled": 0, "fusion_lat": 0.0, "name": "4246142f4437e6a281e6ccceeaec0582", "fusion_lon": 0.0}, {"is_reserved": 0, "type": "electric_scooter", "bike_id": "2be155e81018004fd33b64c818229115", "lat": 38.905624, "lon": -77.00809366666667, "rental_uris": {"android": "https://dc.lft.to/lastmile_qr_scan", "ios": "https://dc.lft.to/lastmile_qr_scan"}, "is_disabled": 0, "fusion_lat": 0.0, "name": "2be155e81018004fd33b64c818229115", "fusion_lon": 0.0}, {"is_reserved": 0, "type": "electric_scooter", "bike_id": "031f2af0b0501ffbcbd81616f4340847", "lat": 38.915892666666664, "lon": -77.0218825, "rental_uris": {"android": "https://dc.lft.to/lastmile_qr_scan", "ios": "https://dc.lft.to/lastmile_qr_scan"}, "is_disabled": 0, "fusion_lat": 0.0, "name": "031f2af0b0501ffbcbd81616f4340847", "fusion_lon": 0.0}, {"is_reserved": 0, "type": "electric_scooter", "bike_id": "2cafda90f1ef2b4d38183e3d912ec4b7", "lat": 38.893421833333335, "lon": -77.02828316666667, "rental_uris": {"android": "https://dc.lft.to/lastmile_qr_scan", "ios": "https://dc.lft.to/lastmile_qr_scan"}, "is_disabled": 0, "fusion_lat": 0.0, "name": "2cafda90f1ef2b4d38183e3d912ec4b7", "fusion_lon": 0.0}, {"is_reserved": 0, "type": "electric_scooter", "bike_id": "8afb321254b152a0269c1e4e2c20f646", "lat": 38.920878, "lon": -77.0137015, "rental_uris": {"android": "https://dc.lft.to/lastmile_qr_scan", "ios": "https://dc.lft.to/lastmile_qr_scan"}, "is_disabled": 0, "fusion_lat": 0.0, "name": "8afb321254b152a0269c1e4e2c20f646", "fusion_lon": 0.0}, {"is_reserved": 0, "type": "electric_scooter", "bike_id": "df9604bc248c486ba8f2a0d573549649", "lat": 38.9185055, "lon": -76.96546033333334, "rental_uris": {"android": "https://dc.lft.to/lastmile_qr_scan", "ios": "https://dc.lft.to/lastmile_qr_scan"}, "is_disabled": 0, "fusion_lat": 0.0, "name": "df9604bc248c486ba8f2a0d573549649", "fusion_lon": 0.0}, {"is_reserved": 0, "type": "electric_scooter", "bike_id": "440d6eea6ebc570f940b69e9cbaece79", "lat": 38.90409616666667, "lon": -77.0677875, "rental_uris": {"android": "https://dc.lft.to/lastmile_qr_scan", "ios": "https://dc.lft.to/lastmile_qr_scan"}, "is_disabled": 0, "fusion_lat": 0.0, "name": "440d6eea6ebc570f940b69e9cbaece79", "fusion_lon": 0.0}, {"is_reserved": 0, "type": "electric_scooter", "bike_id": "83d270d06a08a7901e07a360caee09b9", "lat": 38.916582, "lon": -77.02464966666666, "rental_uris": {"android": "https://dc.lft.to/lastmile_qr_scan", "ios": "https://dc.lft.to/lastmile_qr_scan"}, "is_disabled": 0, "fusion_lat": 0.0, "name": "83d270d06a08a7901e07a360caee09b9", "fusion_lon": 0.0}, {"is_reserved": 0, "type": "electric_scooter", "bike_id": "74c1b00a29b1fda487778c3c02f9eb80", "lat": 38.880937833333334, "lon": -76.99514033333334, "rental_uris": {"android": "https://dc.lft.to/lastmile_qr_scan", "ios": "https://dc.lft.to/lastmile_qr_scan"}, "is_disabled": 0, "fusion_lat": 0.0, "name": "74c1b00a29b1fda487778c3c02f9eb80", "fusion_lon": 0.0}, {"is_reserved": 0, "type": "electric_scooter", "bike_id": "d0919d24871fc0ad29e2dd2fd088ee05", "lat": 38.897672666666665, "lon": -77.02696583333334, "rental_uris": {"android": "https://dc.lft.to/lastmile_qr_scan", "ios": "https://dc.lft.to/lastmile_qr_scan"}, "is_disabled": 0, "fusion_lat": 0.0, "name": "d0919d24871fc0ad29e2dd2fd088ee05", "fusion_lon": 0.0}, {"is_reserved": 0, "type": "electric_scooter", "bike_id": "9b4f228f3e4a5d88caaaf18a4ebac402", "lat": 38.865915666666666, "lon": -76.974542, "rental_uris": {"android": "https://dc.lft.to/lastmile_qr_scan", "ios": "https://dc.lft.to/lastmile_qr_scan"}, "is_disabled": 0, "fusion_lat": 0.0, "name": "9b4f228f3e4a5d88caaaf18a4ebac402", "fusion_lon": 0.0}, {"is_reserved": 0, "type": "electric_scooter", "bike_id": "525287ee76847fd42e7b0cdeddca73ec", "lat": 38.900803833333335, "lon": -76.98012933333334, "rental_uris": {"android": "https://dc.lft.to/lastmile_qr_scan", "ios": "https://dc.lft.to/lastmile_qr_scan"}, "is_disabled": 0, "fusion_lat": 0.0, "name": "525287ee76847fd42e7b0cdeddca73ec", "fusion_lon": 0.0}, {"is_reserved": 0, "type": "electric_bike", "bike_id": "276b0d409a9e49973b92856cc0308be6", "lat": 38.895926333333335, "lon": -76.90692166666666, "rental_uris": {"android": "https://dc.lft.to/lastmile_qr_scan", "ios": "https://dc.lft.to/lastmile_qr_scan"}, "is_disabled": 0, "fusion_lat": 0.0, "name": "276b0d409a9e49973b92856cc0308be6", "fusion_lon": 0.0}, {"is_reserved": 0, "type": "electric_scooter", "bike_id": "135f6a206650aaa6ec18138e2a7af328", "lat": 38.886734833333335, "lon": -77.00197816666666, "rental_uris": {"android": "https://dc.lft.to/lastmile_qr_scan", "ios": "https://dc.lft.to/lastmile_qr_scan"}, "is_disabled": 0, "fusion_lat": 0.0, "name": "135f6a206650aaa6ec18138e2a7af328", "fusion_lon": 0.0}, {"is_reserved": 0, "type": "electric_scooter", "bike_id": "e92d9129598cccd1e04c34f8d02ce45e", "lat": 38.91692466666667, "lon": -77.024424, "rental_uris": {"android": "https://dc.lft.to/lastmile_qr_scan", "ios": "https://dc.lft.to/lastmile_qr_scan"}, "is_disabled": 0, "fusion_lat": 0.0, "name": "e92d9129598cccd1e04c34f8d02ce45e", "fusion_lon": 0.0}, {"is_reserved": 0, "type": "electric_scooter", "bike_id": "3d406b9ebb1536c628c4cf713f0780e4", "lat": 38.910588833333335, "lon": -77.03199333333333, "rental_uris": {"android": "https://dc.lft.to/lastmile_qr_scan", "ios": "https://dc.lft.to/lastmile_qr_scan"}, "is_disabled": 0, "fusion_lat": 0.0, "name": "3d406b9ebb1536c628c4cf713f0780e4", "fusion_lon": 0.0}, {"is_reserved": 0, "type": "electric_scooter", "bike_id": "8aaa2ff5fd7cb7b0473aa6b944a87914", "lat": 38.92567416666667, "lon": -77.022756, "rental_uris": {"android": "https://dc.lft.to/lastmile_qr_scan", "ios": "https://dc.lft.to/lastmile_qr_scan"}, "is_disabled": 0, "fusion_lat": 0.0, "name": "8aaa2ff5fd7cb7b0473aa6b944a87914", "fusion_lon": 0.0}, {"is_reserved": 0, "type": "electric_scooter", "bike_id": "f21c2aabca8ec14a4346995322bfdcfc", "lat": 38.904949, "lon": -77.029591, "rental_uris": {"android": "https://dc.lft.to/lastmile_qr_scan", "ios": "https://dc.lft.to/lastmile_qr_scan"}, "is_disabled": 0, "fusion_lat": 0.0, "name": "f21c2aabca8ec14a4346995322bfdcfc", "fusion_lon": 0.0}, {"is_reserved": 0, "type": "electric_scooter", "bike_id": "ef4e56d3cbc15173785c53f143c5eb38", "lat": 38.86718, "lon": -76.9807265, "rental_uris": {"android": "https://dc.lft.to/lastmile_qr_scan", "ios": "https://dc.lft.to/lastmile_qr_scan"}, "is_disabled": 0, "fusion_lat": 0.0, "name": "ef4e56d3cbc15173785c53f143c5eb38", "fusion_lon": 0.0}, {"is_reserved": 0, "type": "electric_scooter", "bike_id": "3e72b4fc515f599c3c8e6d18eab21f7e", "lat": 38.881079666666665, "lon": -76.99506266666667, "rental_uris": {"android": "https://dc.lft.to/lastmile_qr_scan", "ios": "https://dc.lft.to/lastmile_qr_scan"}, "is_disabled": 0, "fusion_lat": 0.0, "name": "3e72b4fc515f599c3c8e6d18eab21f7e", "fusion_lon": 0.0}, {"is_reserved": 0, "type": "electric_scooter", "bike_id": "33d35d1777ae791ddb01a9968cdd350c", "lat": 38.91224783333333, "lon": -77.03207833333333, "rental_uris": {"android": "https://dc.lft.to/lastmile_qr_scan", "ios": "https://dc.lft.to/lastmile_qr_scan"}, "is_disabled": 0, "fusion_lat": 0.0, "name": "33d35d1777ae791ddb01a9968cdd350c", "fusion_lon": 0.0}, {"is_reserved": 0, "type": "electric_scooter", "bike_id": "d1a49b1ac480d0a91a3185a3f253760c", "lat": 38.8974345, "lon": -77.01766133333334, "rental_uris": {"android": "https://dc.lft.to/lastmile_qr_scan", "ios": "https://dc.lft.to/lastmile_qr_scan"}, "is_disabled": 0, "fusion_lat": 0.0, "name": "d1a49b1ac480d0a91a3185a3f253760c", "fusion_lon": 0.0}, {"is_reserved": 0, "type": "electric_scooter", "bike_id": "28c8f9e15cd4273bbe2b263973d4eaab", "lat": 38.898774833333334, "lon": -77.04894233333333, "rental_uris": {"android": "https://dc.lft.to/lastmile_qr_scan", "ios": "https://dc.lft.to/lastmile_qr_scan"}, "is_disabled": 0, "fusion_lat": 0.0, "name": "28c8f9e15cd4273bbe2b263973d4eaab", "fusion_lon": 0.0}, {"is_reserved": 0, "type": "electric_scooter", "bike_id": "78ec651cba1d02a7e71528243dab2652", "lat": 38.928007, "lon": -77.03639133333333, "rental_uris": {"android": "https://dc.lft.to/lastmile_qr_scan", "ios": "https://dc.lft.to/lastmile_qr_scan"}, "is_disabled": 0, "fusion_lat": 0.0, "name": "78ec651cba1d02a7e71528243dab2652", "fusion_lon": 0.0}, {"is_reserved": 0, "type": "electric_scooter", "bike_id": "c56195daae30cbbfdfba14afcc95a94e", "lat": 38.89217983333333, "lon": -77.01608116666667, "rental_uris": {"android": "https://dc.lft.to/lastmile_qr_scan", "ios": "https://dc.lft.to/lastmile_qr_scan"}, "is_disabled": 0, "fusion_lat": 0.0, "name": "c56195daae30cbbfdfba14afcc95a94e", "fusion_lon": 0.0}, {"is_reserved": 0, "type": "electric_scooter", "bike_id": "33c4ba31fd816d221758f1780f188908", "lat": 38.900425166666665, "lon": -76.99038083333333, "rental_uris": {"android": "https://dc.lft.to/lastmile_qr_scan", "ios": "https://dc.lft.to/lastmile_qr_scan"}, "is_disabled": 0, "fusion_lat": 0.0, "name": "33c4ba31fd816d221758f1780f188908", "fusion_lon": 0.0}, {"is_reserved": 0, "type": "electric_scooter", "bike_id": "b952c7205c2282b868764ac1fbd7282a", "lat": 38.912635333333334, "lon": -77.03390483333334, "rental_uris": {"android": "https://dc.lft.to/lastmile_qr_scan", "ios": "https://dc.lft.to/lastmile_qr_scan"}, "is_disabled": 0, "fusion_lat": 0.0, "name": "b952c7205c2282b868764ac1fbd7282a", "fusion_lon": 0.0}, {"is_reserved": 0, "type": "electric_scooter", "bike_id": "96e04ac154b621994da61c3485487951", "lat": 38.92398033333333, "lon": -76.95159783333334, "rental_uris": {"android": "https://dc.lft.to/lastmile_qr_scan", "ios": "https://dc.lft.to/lastmile_qr_scan"}, "is_disabled": 0, "fusion_lat": 0.0, "name": "96e04ac154b621994da61c3485487951", "fusion_lon": 0.0}, {"is_reserved": 0, "type": "electric_scooter", "bike_id": "cb88722ed50a3aaeffaea93e60ad5370", "lat": 38.896310166666666, "lon": -77.0020595, "rental_uris": {"android": "https://dc.lft.to/lastmile_qr_scan", "ios": "https://dc.lft.to/lastmile_qr_scan"}, "is_disabled": 0, "fusion_lat": 0.0, "name": "cb88722ed50a3aaeffaea93e60ad5370", "fusion_lon": 0.0}, {"is_reserved": 0, "type": "electric_scooter", "bike_id": "d96ef97925c513386cb9ac0c01c83c56", "lat": 38.89998033333333, "lon": -77.02900233333334, "rental_uris": {"android": "https://dc.lft.to/lastmile_qr_scan", "ios": "https://dc.lft.to/lastmile_qr_scan"}, "is_disabled": 0, "fusion_lat": 0.0, "name": "d96ef97925c513386cb9ac0c01c83c56", "fusion_lon": 0.0}, {"is_reserved": 0, "type": "electric_scooter", "bike_id": "0aaca73514f0744015bb427614c54639", "lat": 38.8988035, "lon": -77.01621566666667, "rental_uris": {"android": "https://dc.lft.to/lastmile_qr_scan", "ios": "https://dc.lft.to/lastmile_qr_scan"}, "is_disabled": 0, "fusion_lat": 0.0, "name": "0aaca73514f0744015bb427614c54639", "fusion_lon": 0.0}, {"is_reserved": 0, "type": "electric_scooter", "bike_id": "e618b19669a0c7f1b9dccec5d74c9cfb", "lat": 38.8993335, "lon": -77.0320715, "rental_uris": {"android": "https://dc.lft.to/lastmile_qr_scan", "ios": "https://dc.lft.to/lastmile_qr_scan"}, "is_disabled": 0, "fusion_lat": 0.0, "name": "e618b19669a0c7f1b9dccec5d74c9cfb", "fusion_lon": 0.0}, {"is_reserved": 0, "type": "electric_scooter", "bike_id": "5013eb90b7b91638276af4bf7026befa", "lat": 38.90366183333333, "lon": -76.98489033333334, "rental_uris": {"android": "https://dc.lft.to/lastmile_qr_scan", "ios": "https://dc.lft.to/lastmile_qr_scan"}, "is_disabled": 0, "fusion_lat": 0.0, "name": "5013eb90b7b91638276af4bf7026befa", "fusion_lon": 0.0}, {"is_reserved": 0, "type": "electric_scooter", "bike_id": "474204565e1e864ea9058bc3d9f7984f", "lat": 38.894817, "lon": -77.02144016666666, "rental_uris": {"android": "https://dc.lft.to/lastmile_qr_scan", "ios": "https://dc.lft.to/lastmile_qr_scan"}, "is_disabled": 0, "fusion_lat": 0.0, "name": "474204565e1e864ea9058bc3d9f7984f", "fusion_lon": 0.0}, {"is_reserved": 0, "type": "electric_scooter", "bike_id": "223ec6f11dd71abdbffe79519dd80a0e", "lat": 38.9145765, "lon": -76.98435766666667, "rental_uris": {"android": "https://dc.lft.to/lastmile_qr_scan", "ios": "https://dc.lft.to/lastmile_qr_scan"}, "is_disabled": 0, "fusion_lat": 0.0, "name": "223ec6f11dd71abdbffe79519dd80a0e", "fusion_lon": 0.0}, {"is_reserved": 0, "type": "electric_scooter", "bike_id": "8ac4d9a3a074d79deb264b1a02b0121d", "lat": 38.91547833333333, "lon": -77.04451133333333, "rental_uris": {"android": "https://dc.lft.to/lastmile_qr_scan", "ios": "https://dc.lft.to/lastmile_qr_scan"}, "is_disabled": 0, "fusion_lat": 0.0, "name": "8ac4d9a3a074d79deb264b1a02b0121d", "fusion_lon": 0.0}, {"is_reserved": 0, "type": "electric_scooter", "bike_id": "d3ffc3978947b5fb4739c5c38ad196e0", "lat": 38.9376065, "lon": -77.028386, "rental_uris": {"android": "https://dc.lft.to/lastmile_qr_scan", "ios": "https://dc.lft.to/lastmile_qr_scan"}, "is_disabled": 0, "fusion_lat": 0.0, "name": "d3ffc3978947b5fb4739c5c38ad196e0", "fusion_lon": 0.0}, {"is_reserved": 0, "type": "electric_scooter", "bike_id": "14b3de8d15b64f8641c20f462a0855bb", "lat": 38.877420666666666, "lon": -77.01900633333334, "rental_uris": {"android": "https://dc.lft.to/lastmile_qr_scan", "ios": "https://dc.lft.to/lastmile_qr_scan"}, "is_disabled": 0, "fusion_lat": 0.0, "name": "14b3de8d15b64f8641c20f462a0855bb", "fusion_lon": 0.0}, {"is_reserved": 0, "type": "electric_scooter", "bike_id": "ab76dd4d50caee2baf2350e2dc2bb9b9", "lat": 38.915567833333334, "lon": -77.0330705, "rental_uris": {"android": "https://dc.lft.to/lastmile_qr_scan", "ios": "https://dc.lft.to/lastmile_qr_scan"}, "is_disabled": 0, "fusion_lat": 0.0, "name": "ab76dd4d50caee2baf2350e2dc2bb9b9", "fusion_lon": 0.0}, {"is_reserved": 0, "type": "electric_scooter", "bike_id": "c2fb2ec09597d75a7d3695b18884406d", "lat": 38.90566166666667, "lon": -77.00786483333333, "rental_uris": {"android": "https://dc.lft.to/lastmile_qr_scan", "ios": "https://dc.lft.to/lastmile_qr_scan"}, "is_disabled": 0, "fusion_lat": 0.0, "name": "c2fb2ec09597d75a7d3695b18884406d", "fusion_lon": 0.0}, {"is_reserved": 0, "type": "electric_scooter", "bike_id": "5400c1cf3a75056a93b8353be286aa1e", "lat": 38.889759166666664, "lon": -76.999402, "rental_uris": {"android": "https://dc.lft.to/lastmile_qr_scan", "ios": "https://dc.lft.to/lastmile_qr_scan"}, "is_disabled": 0, "fusion_lat": 0.0, "name": "5400c1cf3a75056a93b8353be286aa1e", "fusion_lon": 0.0}, {"is_reserved": 0, "type": "electric_scooter", "bike_id": "194b4bfaef50979c986c6b52ad58ea50", "lat": 38.90533883333333, "lon": -77.060995, "rental_uris": {"android": "https://dc.lft.to/lastmile_qr_scan", "ios": "https://dc.lft.to/lastmile_qr_scan"}, "is_disabled": 0, "fusion_lat": 0.0, "name": "194b4bfaef50979c986c6b52ad58ea50", "fusion_lon": 0.0}, {"is_reserved": 0, "type": "electric_scooter", "bike_id": "60fb1a6a59bf52821e8ed8b800c78882", "lat": 38.88774183333334, "lon": -76.93261583333333, "rental_uris": {"android": "https://dc.lft.to/lastmile_qr_scan", "ios": "https://dc.lft.to/lastmile_qr_scan"}, "is_disabled": 0, "fusion_lat": 0.0, "name": "60fb1a6a59bf52821e8ed8b800c78882", "fusion_lon": 0.0}, {"is_reserved": 0, "type": "electric_scooter", "bike_id": "faa97645a70f96f89b7c3fa50eca9547", "lat": 38.9203045, "lon": -76.9854345, "rental_uris": {"android": "https://dc.lft.to/lastmile_qr_scan", "ios": "https://dc.lft.to/lastmile_qr_scan"}, "is_disabled": 0, "fusion_lat": 0.0, "name": "faa97645a70f96f89b7c3fa50eca9547", "fusion_lon": 0.0}, {"is_reserved": 0, "type": "electric_bike", "bike_id": "bb631eea191b5cd1280b8109ddd24dc0", "lat": 38.932148833333336, "lon": -77.0234185, "rental_uris": {"android": "https://dc.lft.to/lastmile_qr_scan", "ios": "https://dc.lft.to/lastmile_qr_scan"}, "is_disabled": 0, "fusion_lat": 0.0, "name": "bb631eea191b5cd1280b8109ddd24dc0", "fusion_lon": 0.0}, {"is_reserved": 0, "type": "electric_scooter", "bike_id": "bfa850b9a087b2a93ae8d9b2e61f32a4", "lat": 38.9215765, "lon": -77.0387475, "rental_uris": {"android": "https://dc.lft.to/lastmile_qr_scan", "ios": "https://dc.lft.to/lastmile_qr_scan"}, "is_disabled": 0, "fusion_lat": 0.0, "name": "bfa850b9a087b2a93ae8d9b2e61f32a4", "fusion_lon": 0.0}, {"is_reserved": 0, "type": "electric_scooter", "bike_id": "110bb06d5543c1c20c811c33e63ab4c9", "lat": 38.905285666666664, "lon": -77.02687, "rental_uris": {"android": "https://dc.lft.to/lastmile_qr_scan", "ios": "https://dc.lft.to/lastmile_qr_scan"}, "is_disabled": 0, "fusion_lat": 0.0, "name": "110bb06d5543c1c20c811c33e63ab4c9", "fusion_lon": 0.0}, {"is_reserved": 0, "type": "electric_scooter", "bike_id": "260b3be34e6d17cffca7202cc800620c", "lat": 38.91117916666666, "lon": -77.03260633333333, "rental_uris": {"android": "https://dc.lft.to/lastmile_qr_scan", "ios": "https://dc.lft.to/lastmile_qr_scan"}, "is_disabled": 0, "fusion_lat": 0.0, "name": "260b3be34e6d17cffca7202cc800620c", "fusion_lon": 0.0}, {"is_reserved": 0, "type": "electric_bike", "bike_id": "ade9d11ecd66262f4a847392106b8f0a", "lat": 38.867536666666666, "lon": -76.94530066666667, "rental_uris": {"android": "https://dc.lft.to/lastmile_qr_scan", "ios": "https://dc.lft.to/lastmile_qr_scan"}, "is_disabled": 0, "fusion_lat": 0.0, "name": "ade9d11ecd66262f4a847392106b8f0a", "fusion_lon": 0.0}, {"is_reserved": 0, "type": "electric_scooter", "bike_id": "274f5e60e467461a254d06c3c59d3b14", "lat": 38.90532833333333, "lon": -77.06457816666666, "rental_uris": {"android": "https://dc.lft.to/lastmile_qr_scan", "ios": "https://dc.lft.to/lastmile_qr_scan"}, "is_disabled": 0, "fusion_lat": 0.0, "name": "274f5e60e467461a254d06c3c59d3b14", "fusion_lon": 0.0}, {"is_reserved": 0, "type": "electric_scooter", "bike_id": "7ba6f275ab24c36d13754f9e40cf659d", "lat": 38.9064685, "lon": -76.983763, "rental_uris": {"android": "https://dc.lft.to/lastmile_qr_scan", "ios": "https://dc.lft.to/lastmile_qr_scan"}, "is_disabled": 0, "fusion_lat": 0.0, "name": "7ba6f275ab24c36d13754f9e40cf659d", "fusion_lon": 0.0}, {"is_reserved": 0, "type": "electric_scooter", "bike_id": "cbc2d7c41f80e7b809447b922e0519ac", "lat": 38.91650966666667, "lon": -77.03894416666667, "rental_uris": {"android": "https://dc.lft.to/lastmile_qr_scan", "ios": "https://dc.lft.to/lastmile_qr_scan"}, "is_disabled": 0, "fusion_lat": 0.0, "name": "cbc2d7c41f80e7b809447b922e0519ac", "fusion_lon": 0.0}, {"is_reserved": 0, "type": "electric_scooter", "bike_id": "b86af7975438d39579ee1de9ed91c6f1", "lat": 38.900144833333336, "lon": -77.02710216666667, "rental_uris": {"android": "https://dc.lft.to/lastmile_qr_scan", "ios": "https://dc.lft.to/lastmile_qr_scan"}, "is_disabled": 0, "fusion_lat": 0.0, "name": "b86af7975438d39579ee1de9ed91c6f1", "fusion_lon": 0.0}, {"is_reserved": 0, "type": "electric_scooter", "bike_id": "38a190352023c884a1af4ab797b63a2e", "lat": 38.9352975, "lon": -77.01945133333334, "rental_uris": {"android": "https://dc.lft.to/lastmile_qr_scan", "ios": "https://dc.lft.to/lastmile_qr_scan"}, "is_disabled": 0, "fusion_lat": 0.0, "name": "38a190352023c884a1af4ab797b63a2e", "fusion_lon": 0.0}, {"is_reserved": 0, "type": "electric_scooter", "bike_id": "ea05fa46df777818ae26ab27f7ab33b3", "lat": 38.926844, "lon": -77.03199916666667, "rental_uris": {"android": "https://dc.lft.to/lastmile_qr_scan", "ios": "https://dc.lft.to/lastmile_qr_scan"}, "is_disabled": 0, "fusion_lat": 0.0, "name": "ea05fa46df777818ae26ab27f7ab33b3", "fusion_lon": 0.0}, {"is_reserved": 0, "type": "electric_scooter", "bike_id": "7bf83f7be05411f1ec6dca9e1c9be1cb", "lat": 38.932391, "lon": -77.03640733333333, "rental_uris": {"android": "https://dc.lft.to/lastmile_qr_scan", "ios": "https://dc.lft.to/lastmile_qr_scan"}, "is_disabled": 0, "fusion_lat": 0.0, "name": "7bf83f7be05411f1ec6dca9e1c9be1cb", "fusion_lon": 0.0}, {"is_reserved": 0, "type": "electric_scooter", "bike_id": "c62c61203acd1f38bd7778489d0be0df", "lat": 38.92156083333333, "lon": -77.04370416666667, "rental_uris": {"android": "https://dc.lft.to/lastmile_qr_scan", "ios": "https://dc.lft.to/lastmile_qr_scan"}, "is_disabled": 0, "fusion_lat": 0.0, "name": "c62c61203acd1f38bd7778489d0be0df", "fusion_lon": 0.0}, {"is_reserved": 0, "type": "electric_scooter", "bike_id": "50a4e1b40a0df48ce83b801dd56bb58f", "lat": 38.899528, "lon": -76.97905316666666, "rental_uris": {"android": "https://dc.lft.to/lastmile_qr_scan", "ios": "https://dc.lft.to/lastmile_qr_scan"}, "is_disabled": 0, "fusion_lat": 0.0, "name": "50a4e1b40a0df48ce83b801dd56bb58f", "fusion_lon": 0.0}, {"is_reserved": 0, "type": "electric_scooter", "bike_id": "4df16169d703718679fabd888f085dca", "lat": 38.9215225, "lon": -77.0329455, "rental_uris": {"android": "https://dc.lft.to/lastmile_qr_scan", "ios": "https://dc.lft.to/lastmile_qr_scan"}, "is_disabled": 0, "fusion_lat": 0.0, "name": "4df16169d703718679fabd888f085dca", "fusion_lon": 0.0}, {"is_reserved": 0, "type": "electric_scooter", "bike_id": "07a78bf2d97a64eec8623ed9bbdbc3be", "lat": 38.904181666666666, "lon": -77.04890633333333, "rental_uris": {"android": "https://dc.lft.to/lastmile_qr_scan", "ios": "https://dc.lft.to/lastmile_qr_scan"}, "is_disabled": 0, "fusion_lat": 0.0, "name": "07a78bf2d97a64eec8623ed9bbdbc3be", "fusion_lon": 0.0}, {"is_reserved": 0, "type": "electric_scooter", "bike_id": "bd2b61c39814b5fb8d85fa4f1442ee23", "lat": 38.912627, "lon": -77.0081955, "rental_uris": {"android": "https://dc.lft.to/lastmile_qr_scan", "ios": "https://dc.lft.to/lastmile_qr_scan"}, "is_disabled": 0, "fusion_lat": 0.0, "name": "bd2b61c39814b5fb8d85fa4f1442ee23", "fusion_lon": 0.0}, {"is_reserved": 0, "type": "electric_scooter", "bike_id": "7f72f7ac4dd313f66b57ad7591a57838", "lat": 38.9057905, "lon": -77.00891233333333, "rental_uris": {"android": "https://dc.lft.to/lastmile_qr_scan", "ios": "https://dc.lft.to/lastmile_qr_scan"}, "is_disabled": 0, "fusion_lat": 0.0, "name": "7f72f7ac4dd313f66b57ad7591a57838", "fusion_lon": 0.0}, {"is_reserved": 0, "type": "electric_scooter", "bike_id": "a8e13554054f2aea02766c6abd498e73", "lat": 38.910228333333336, "lon": -76.99374116666667, "rental_uris": {"android": "https://dc.lft.to/lastmile_qr_scan", "ios": "https://dc.lft.to/lastmile_qr_scan"}, "is_disabled": 0, "fusion_lat": 0.0, "name": "a8e13554054f2aea02766c6abd498e73", "fusion_lon": 0.0}, {"is_reserved": 0, "type": "electric_scooter", "bike_id": "6eb23aad31b4a2ad2c202cc4167250d3", "lat": 38.930854833333335, "lon": -77.02792666666667, "rental_uris": {"android": "https://dc.lft.to/lastmile_qr_scan", "ios": "https://dc.lft.to/lastmile_qr_scan"}, "is_disabled": 0, "fusion_lat": 0.0, "name": "6eb23aad31b4a2ad2c202cc4167250d3", "fusion_lon": 0.0}, {"is_reserved": 0, "type": "electric_scooter", "bike_id": "d79415b04f3b75009365164a9092f903", "lat": 38.93512283333333, "lon": -77.03656933333333, "rental_uris": {"android": "https://dc.lft.to/lastmile_qr_scan", "ios": "https://dc.lft.to/lastmile_qr_scan"}, "is_disabled": 0, "fusion_lat": 0.0, "name": "d79415b04f3b75009365164a9092f903", "fusion_lon": 0.0}, {"is_reserved": 0, "type": "electric_scooter", "bike_id": "77101d43c5fe883206efbe8cb1037e6d", "lat": 38.9220625, "lon": -77.02028533333333, "rental_uris": {"android": "https://dc.lft.to/lastmile_qr_scan", "ios": "https://dc.lft.to/lastmile_qr_scan"}, "is_disabled": 0, "fusion_lat": 0.0, "name": "77101d43c5fe883206efbe8cb1037e6d", "fusion_lon": 0.0}, {"is_reserved": 0, "type": "electric_scooter", "bike_id": "6e58647a272438f84dc29af9509483a6", "lat": 38.912658, "lon": -77.03395166666667, "rental_uris": {"android": "https://dc.lft.to/lastmile_qr_scan", "ios": "https://dc.lft.to/lastmile_qr_scan"}, "is_disabled": 0, "fusion_lat": 0.0, "name": "6e58647a272438f84dc29af9509483a6", "fusion_lon": 0.0}, {"is_reserved": 0, "type": "electric_scooter", "bike_id": "f3b39540277d29bf7c721ee743b84cb1", "lat": 38.9164395, "lon": -77.047823, "rental_uris": {"android": "https://dc.lft.to/lastmile_qr_scan", "ios": "https://dc.lft.to/lastmile_qr_scan"}, "is_disabled": 0, "fusion_lat": 0.0, "name": "f3b39540277d29bf7c721ee743b84cb1", "fusion_lon": 0.0}, {"is_reserved": 0, "type": "electric_scooter", "bike_id": "7e763dac035be43efdfcba730e3f40b4", "lat": 38.884047833333334, "lon": -77.0303905, "rental_uris": {"android": "https://dc.lft.to/lastmile_qr_scan", "ios": "https://dc.lft.to/lastmile_qr_scan"}, "is_disabled": 0, "fusion_lat": 0.0, "name": "7e763dac035be43efdfcba730e3f40b4", "fusion_lon": 0.0}, {"is_reserved": 0, "type": "electric_scooter", "bike_id": "e9be3760e24e69080691729a6fe39875", "lat": 38.92959483333333, "lon": -77.00406933333333, "rental_uris": {"android": "https://dc.lft.to/lastmile_qr_scan", "ios": "https://dc.lft.to/lastmile_qr_scan"}, "is_disabled": 0, "fusion_lat": 0.0, "name": "e9be3760e24e69080691729a6fe39875", "fusion_lon": 0.0}, {"is_reserved": 0, "type": "electric_scooter", "bike_id": "e98735d22d6001d247c3a407cfba8cc6", "lat": 38.903969000000004, "lon": -77.03159866666667, "rental_uris": {"android": "https://dc.lft.to/lastmile_qr_scan", "ios": "https://dc.lft.to/lastmile_qr_scan"}, "is_disabled": 0, "fusion_lat": 0.0, "name": "e98735d22d6001d247c3a407cfba8cc6", "fusion_lon": 0.0}, {"is_reserved": 0, "type": "electric_scooter", "bike_id": "f5c7432ff0300c4370666d2dadb9e669", "lat": 38.92827833333333, "lon": -77.02260733333334, "rental_uris": {"android": "https://dc.lft.to/lastmile_qr_scan", "ios": "https://dc.lft.to/lastmile_qr_scan"}, "is_disabled": 0, "fusion_lat": 0.0, "name": "f5c7432ff0300c4370666d2dadb9e669", "fusion_lon": 0.0}, {"is_reserved": 0, "type": "electric_bike", "bike_id": "ce36f0f739a07d32022ea10b937d42ee", "lat": 38.99527916666667, "lon": -77.074733, "rental_uris": {"android": "https://dc.lft.to/lastmile_qr_scan", "ios": "https://dc.lft.to/lastmile_qr_scan"}, "is_disabled": 0, "fusion_lat": 0.0, "name": "ce36f0f739a07d32022ea10b937d42ee", "fusion_lon": 0.0}, {"is_reserved": 0, "type": "electric_scooter", "bike_id": "cdfbdc31948c40ecbf188881abfe2bea", "lat": 38.92608283333333, "lon": -77.0216175, "rental_uris": {"android": "https://dc.lft.to/lastmile_qr_scan", "ios": "https://dc.lft.to/lastmile_qr_scan"}, "is_disabled": 0, "fusion_lat": 0.0, "name": "cdfbdc31948c40ecbf188881abfe2bea", "fusion_lon": 0.0}, {"is_reserved": 0, "type": "electric_scooter", "bike_id": "2cdf41d68d9fd0a2fabb8bd95142e57c", "lat": 38.91625483333333, "lon": -77.01572516666667, "rental_uris": {"android": "https://dc.lft.to/lastmile_qr_scan", "ios": "https://dc.lft.to/lastmile_qr_scan"}, "is_disabled": 0, "fusion_lat": 0.0, "name": "2cdf41d68d9fd0a2fabb8bd95142e57c", "fusion_lon": 0.0}, {"is_reserved": 0, "type": "electric_scooter", "bike_id": "a66bfa1b02c615d03bef568349f831b5", "lat": 38.93529433333333, "lon": -77.02489933333334, "rental_uris": {"android": "https://dc.lft.to/lastmile_qr_scan", "ios": "https://dc.lft.to/lastmile_qr_scan"}, "is_disabled": 0, "fusion_lat": 0.0, "name": "a66bfa1b02c615d03bef568349f831b5", "fusion_lon": 0.0}, {"is_reserved": 0, "type": "electric_scooter", "bike_id": "93d08b403a2b10cbf04d24ac29adbf6a", "lat": 38.952554166666665, "lon": -77.02401616666667, "rental_uris": {"android": "https://dc.lft.to/lastmile_qr_scan", "ios": "https://dc.lft.to/lastmile_qr_scan"}, "is_disabled": 0, "fusion_lat": 0.0, "name": "93d08b403a2b10cbf04d24ac29adbf6a", "fusion_lon": 0.0}, {"is_reserved": 0, "type": "electric_scooter", "bike_id": "0057068bca860d5f4197f9f333c48a95", "lat": 38.896966166666665, "lon": -77.02709483333334, "rental_uris": {"android": "https://dc.lft.to/lastmile_qr_scan", "ios": "https://dc.lft.to/lastmile_qr_scan"}, "is_disabled": 0, "fusion_lat": 0.0, "name": "0057068bca860d5f4197f9f333c48a95", "fusion_lon": 0.0}, {"is_reserved": 0, "type": "electric_scooter", "bike_id": "5ca8bbe3893a7f7fad6629b787dcabef", "lat": 38.9664525, "lon": -77.0089235, "rental_uris": {"android": "https://dc.lft.to/lastmile_qr_scan", "ios": "https://dc.lft.to/lastmile_qr_scan"}, "is_disabled": 0, "fusion_lat": 0.0, "name": "5ca8bbe3893a7f7fad6629b787dcabef", "fusion_lon": 0.0}, {"is_reserved": 0, "type": "electric_scooter", "bike_id": "dd2dbd682b172dc8f0f7750a6dd1f718", "lat": 38.91161616666667, "lon": -77.00132766666667, "rental_uris": {"android": "https://dc.lft.to/lastmile_qr_scan", "ios": "https://dc.lft.to/lastmile_qr_scan"}, "is_disabled": 0, "fusion_lat": 0.0, "name": "dd2dbd682b172dc8f0f7750a6dd1f718", "fusion_lon": 0.0}, {"is_reserved": 0, "type": "electric_scooter", "bike_id": "bb10b26b3d3b99903c717bc9f119f21c", "lat": 38.89982966666667, "lon": -77.02705533333334, "rental_uris": {"android": "https://dc.lft.to/lastmile_qr_scan", "ios": "https://dc.lft.to/lastmile_qr_scan"}, "is_disabled": 0, "fusion_lat": 0.0, "name": "bb10b26b3d3b99903c717bc9f119f21c", "fusion_lon": 0.0}, {"is_reserved": 0, "type": "electric_scooter", "bike_id": "c2312ee86373f4d43230e4ef277675b1", "lat": 38.91008583333333, "lon": -76.99412966666667, "rental_uris": {"android": "https://dc.lft.to/lastmile_qr_scan", "ios": "https://dc.lft.to/lastmile_qr_scan"}, "is_disabled": 0, "fusion_lat": 0.0, "name": "c2312ee86373f4d43230e4ef277675b1", "fusion_lon": 0.0}, {"is_reserved": 0, "type": "electric_bike", "bike_id": "55266930072989c5c977bdbc1ddf6199", "lat": 38.841023166666666, "lon": -77.08946783333333, "rental_uris": {"android": "https://dc.lft.to/lastmile_qr_scan", "ios": "https://dc.lft.to/lastmile_qr_scan"}, "is_disabled": 0, "fusion_lat": 0.0, "name": "55266930072989c5c977bdbc1ddf6199", "fusion_lon": 0.0}, {"is_reserved": 0, "type": "electric_scooter", "bike_id": "06e577d6db940f4b71a98cf2a3d52273", "lat": 38.89624766666667, "lon": -76.997273, "rental_uris": {"android": "https://dc.lft.to/lastmile_qr_scan", "ios": "https://dc.lft.to/lastmile_qr_scan"}, "is_disabled": 0, "fusion_lat": 0.0, "name": "06e577d6db940f4b71a98cf2a3d52273", "fusion_lon": 0.0}, {"is_reserved": 0, "type": "electric_scooter", "bike_id": "c18db8da6c6ef72192966cff6ca54d1f", "lat": 38.911271166666666, "lon": -77.02185483333334, "rental_uris": {"android": "https://dc.lft.to/lastmile_qr_scan", "ios": "https://dc.lft.to/lastmile_qr_scan"}, "is_disabled": 0, "fusion_lat": 0.0, "name": "c18db8da6c6ef72192966cff6ca54d1f", "fusion_lon": 0.0}, {"is_reserved": 0, "type": "electric_scooter", "bike_id": "a6065497f1e3af06d79e4f4152ef4a05", "lat": 38.88297516666667, "lon": -76.948504, "rental_uris": {"android": "https://dc.lft.to/lastmile_qr_scan", "ios": "https://dc.lft.to/lastmile_qr_scan"}, "is_disabled": 0, "fusion_lat": 0.0, "name": "a6065497f1e3af06d79e4f4152ef4a05", "fusion_lon": 0.0}, {"is_reserved": 0, "type": "electric_scooter", "bike_id": "19edb75ef39f466414b40efd67cc54e6", "lat": 38.910097, "lon": -77.02418066666667, "rental_uris": {"android": "https://dc.lft.to/lastmile_qr_scan", "ios": "https://dc.lft.to/lastmile_qr_scan"}, "is_disabled": 0, "fusion_lat": 0.0, "name": "19edb75ef39f466414b40efd67cc54e6", "fusion_lon": 0.0}, {"is_reserved": 0, "type": "electric_scooter", "bike_id": "1fe7653ea8ee711ce463541b18647df8", "lat": 38.879342, "lon": -77.01671683333333, "rental_uris": {"android": "https://dc.lft.to/lastmile_qr_scan", "ios": "https://dc.lft.to/lastmile_qr_scan"}, "is_disabled": 0, "fusion_lat": 0.0, "name": "1fe7653ea8ee711ce463541b18647df8", "fusion_lon": 0.0}, {"is_reserved": 0, "type": "electric_scooter", "bike_id": "6f65879efa24be3b140173934d028245", "lat": 38.89672616666667, "lon": -77.03225683333334, "rental_uris": {"android": "https://dc.lft.to/lastmile_qr_scan", "ios": "https://dc.lft.to/lastmile_qr_scan"}, "is_disabled": 0, "fusion_lat": 0.0, "name": "6f65879efa24be3b140173934d028245", "fusion_lon": 0.0}, {"is_reserved": 0, "type": "electric_scooter", "bike_id": "2c1454938d4d68088c234f9b3290e9d8", "lat": 38.9237945, "lon": -77.0288485, "rental_uris": {"android": "https://dc.lft.to/lastmile_qr_scan", "ios": "https://dc.lft.to/lastmile_qr_scan"}, "is_disabled": 0, "fusion_lat": 0.0, "name": "2c1454938d4d68088c234f9b3290e9d8", "fusion_lon": 0.0}, {"is_reserved": 0, "type": "electric_scooter", "bike_id": "51c6475b3827a8252b3e11743b10dc2d", "lat": 38.912513833333335, "lon": -77.04764716666666, "rental_uris": {"android": "https://dc.lft.to/lastmile_qr_scan", "ios": "https://dc.lft.to/lastmile_qr_scan"}, "is_disabled": 0, "fusion_lat": 0.0, "name": "51c6475b3827a8252b3e11743b10dc2d", "fusion_lon": 0.0}, {"is_reserved": 0, "type": "electric_scooter", "bike_id": "760d3894a91ccf11ee3d98a1402cd912", "lat": 38.88767, "lon": -76.99160283333333, "rental_uris": {"android": "https://dc.lft.to/lastmile_qr_scan", "ios": "https://dc.lft.to/lastmile_qr_scan"}, "is_disabled": 0, "fusion_lat": 0.0, "name": "760d3894a91ccf11ee3d98a1402cd912", "fusion_lon": 0.0}, {"is_reserved": 0, "type": "electric_scooter", "bike_id": "9f509eafa1a556f918a84a7ff9d50286", "lat": 38.924026833333336, "lon": -77.05043433333333, "rental_uris": {"android": "https://dc.lft.to/lastmile_qr_scan", "ios": "https://dc.lft.to/lastmile_qr_scan"}, "is_disabled": 0, "fusion_lat": 0.0, "name": "9f509eafa1a556f918a84a7ff9d50286", "fusion_lon": 0.0}, {"is_reserved": 0, "type": "electric_bike", "bike_id": "85b3fce57387fd5b4d1e06c232c39a56", "lat": 38.945661333333334, "lon": -76.95846633333333, "rental_uris": {"android": "https://dc.lft.to/lastmile_qr_scan", "ios": "https://dc.lft.to/lastmile_qr_scan"}, "is_disabled": 0, "fusion_lat": 0.0, "name": "85b3fce57387fd5b4d1e06c232c39a56", "fusion_lon": 0.0}, {"is_reserved": 0, "type": "electric_scooter", "bike_id": "67d57434940aed6f71fc10b7414d87ec", "lat": 38.874705666666664, "lon": -77.00547616666667, "rental_uris": {"android": "https://dc.lft.to/lastmile_qr_scan", "ios": "https://dc.lft.to/lastmile_qr_scan"}, "is_disabled": 0, "fusion_lat": 0.0, "name": "67d57434940aed6f71fc10b7414d87ec", "fusion_lon": 0.0}, {"is_reserved": 0, "type": "electric_scooter", "bike_id": "7447e29c1a4d547b5db0c2c8087cf170", "lat": 38.91812133333333, "lon": -77.04539433333333, "rental_uris": {"android": "https://dc.lft.to/lastmile_qr_scan", "ios": "https://dc.lft.to/lastmile_qr_scan"}, "is_disabled": 0, "fusion_lat": 0.0, "name": "7447e29c1a4d547b5db0c2c8087cf170", "fusion_lon": 0.0}, {"is_reserved": 0, "type": "electric_bike", "bike_id": "41c952495b5bf399694ce39f0615c156", "lat": 38.9587495, "lon": -76.970499, "rental_uris": {"android": "https://dc.lft.to/lastmile_qr_scan", "ios": "https://dc.lft.to/lastmile_qr_scan"}, "is_disabled": 0, "fusion_lat": 0.0, "name": "41c952495b5bf399694ce39f0615c156", "fusion_lon": 0.0}, {"is_reserved": 0, "type": "electric_scooter", "bike_id": "cdc6635c451e5dc0d49e57fcde56e241", "lat": 38.93229983333333, "lon": -76.997495, "rental_uris": {"android": "https://dc.lft.to/lastmile_qr_scan", "ios": "https://dc.lft.to/lastmile_qr_scan"}, "is_disabled": 0, "fusion_lat": 0.0, "name": "cdc6635c451e5dc0d49e57fcde56e241", "fusion_lon": 0.0}, {"is_reserved": 0, "type": "electric_scooter", "bike_id": "531f7ccfc699965da3c0453f254a0f8c", "lat": 38.90150916666666, "lon": -77.0298495, "rental_uris": {"android": "https://dc.lft.to/lastmile_qr_scan", "ios": "https://dc.lft.to/lastmile_qr_scan"}, "is_disabled": 0, "fusion_lat": 0.0, "name": "531f7ccfc699965da3c0453f254a0f8c", "fusion_lon": 0.0}, {"is_reserved": 0, "type": "electric_scooter", "bike_id": "6e5179ac22c35ac1aad577a7f7dee4ff", "lat": 38.9312055, "lon": -77.023178, "rental_uris": {"android": "https://dc.lft.to/lastmile_qr_scan", "ios": "https://dc.lft.to/lastmile_qr_scan"}, "is_disabled": 0, "fusion_lat": 0.0, "name": "6e5179ac22c35ac1aad577a7f7dee4ff", "fusion_lon": 0.0}, {"is_reserved": 0, "type": "electric_scooter", "bike_id": "05dc8c07b74a18107493066bfbc44855", "lat": 38.946482333333336, "lon": -77.06556183333333, "rental_uris": {"android": "https://dc.lft.to/lastmile_qr_scan", "ios": "https://dc.lft.to/lastmile_qr_scan"}, "is_disabled": 0, "fusion_lat": 0.0, "name": "05dc8c07b74a18107493066bfbc44855", "fusion_lon": 0.0}, {"is_reserved": 0, "type": "electric_scooter", "bike_id": "305dc7f0a7e115b4f914a274fa8d539c", "lat": 38.901841, "lon": -76.92892083333334, "rental_uris": {"android": "https://dc.lft.to/lastmile_qr_scan", "ios": "https://dc.lft.to/lastmile_qr_scan"}, "is_disabled": 0, "fusion_lat": 0.0, "name": "305dc7f0a7e115b4f914a274fa8d539c", "fusion_lon": 0.0}, {"is_reserved": 0, "type": "electric_scooter", "bike_id": "7ee0b04f3895e60ca02ca0fce8786508", "lat": 38.91669366666667, "lon": -77.02706883333333, "rental_uris": {"android": "https://dc.lft.to/lastmile_qr_scan", "ios": "https://dc.lft.to/lastmile_qr_scan"}, "is_disabled": 0, "fusion_lat": 0.0, "name": "7ee0b04f3895e60ca02ca0fce8786508", "fusion_lon": 0.0}, {"is_reserved": 0, "type": "electric_scooter", "bike_id": "72065bcf59896dd833f4466485d9db92", "lat": 38.92106783333333, "lon": -77.022081, "rental_uris": {"android": "https://dc.lft.to/lastmile_qr_scan", "ios": "https://dc.lft.to/lastmile_qr_scan"}, "is_disabled": 0, "fusion_lat": 0.0, "name": "72065bcf59896dd833f4466485d9db92", "fusion_lon": 0.0}, {"is_reserved": 0, "type": "electric_scooter", "bike_id": "dcef774bd0298fd52ce923d12c7e414d", "lat": 38.92147333333333, "lon": -77.036537, "rental_uris": {"android": "https://dc.lft.to/lastmile_qr_scan", "ios": "https://dc.lft.to/lastmile_qr_scan"}, "is_disabled": 0, "fusion_lat": 0.0, "name": "dcef774bd0298fd52ce923d12c7e414d", "fusion_lon": 0.0}, {"is_reserved": 0, "type": "electric_scooter", "bike_id": "f1873a4cd303415af0a6314bf964629f", "lat": 38.90537466666667, "lon": -77.06287083333333, "rental_uris": {"android": "https://dc.lft.to/lastmile_qr_scan", "ios": "https://dc.lft.to/lastmile_qr_scan"}, "is_disabled": 0, "fusion_lat": 0.0, "name": "f1873a4cd303415af0a6314bf964629f", "fusion_lon": 0.0}, {"is_reserved": 0, "type": "electric_bike", "bike_id": "466cda2ee1a348dd5d2b6611d889b89e", "lat": 38.807305, "lon": -76.99255566666666, "rental_uris": {"android": "https://dc.lft.to/lastmile_qr_scan", "ios": "https://dc.lft.to/lastmile_qr_scan"}, "is_disabled": 0, "fusion_lat": 0.0, "name": "466cda2ee1a348dd5d2b6611d889b89e", "fusion_lon": 0.0}, {"is_reserved": 0, "type": "electric_scooter", "bike_id": "19875d93b38d420fe9a04002dc2a453c", "lat": 38.92247, "lon": -77.02886083333334, "rental_uris": {"android": "https://dc.lft.to/lastmile_qr_scan", "ios": "https://dc.lft.to/lastmile_qr_scan"}, "is_disabled": 0, "fusion_lat": 0.0, "name": "19875d93b38d420fe9a04002dc2a453c", "fusion_lon": 0.0}, {"is_reserved": 0, "type": "electric_scooter", "bike_id": "739b22868492deb7c52d48e7cd718d43", "lat": 38.92891183333333, "lon": -77.02619083333333, "rental_uris": {"android": "https://dc.lft.to/lastmile_qr_scan", "ios": "https://dc.lft.to/lastmile_qr_scan"}, "is_disabled": 0, "fusion_lat": 0.0, "name": "739b22868492deb7c52d48e7cd718d43", "fusion_lon": 0.0}, {"is_reserved": 0, "type": "electric_scooter", "bike_id": "55588dd7d9607c7ae7a447b0be3ea3ae", "lat": 38.89716266666667, "lon": -77.0535005, "rental_uris": {"android": "https://dc.lft.to/lastmile_qr_scan", "ios": "https://dc.lft.to/lastmile_qr_scan"}, "is_disabled": 0, "fusion_lat": 0.0, "name": "55588dd7d9607c7ae7a447b0be3ea3ae", "fusion_lon": 0.0}, {"is_reserved": 0, "type": "electric_bike", "bike_id": "2508cbfdbb1a58fbc60be64a4cfe0b37", "lat": 38.88836833333333, "lon": -76.95748783333333, "rental_uris": {"android": "https://dc.lft.to/lastmile_qr_scan", "ios": "https://dc.lft.to/lastmile_qr_scan"}, "is_disabled": 0, "fusion_lat": 0.0, "name": "2508cbfdbb1a58fbc60be64a4cfe0b37", "fusion_lon": 0.0}, {"is_reserved": 0, "type": "electric_scooter", "bike_id": "79a03cfc758666553f6c8121b7337247", "lat": 38.899802666666666, "lon": -77.02708183333333, "rental_uris": {"android": "https://dc.lft.to/lastmile_qr_scan", "ios": "https://dc.lft.to/lastmile_qr_scan"}, "is_disabled": 0, "fusion_lat": 0.0, "name": "79a03cfc758666553f6c8121b7337247", "fusion_lon": 0.0}, {"is_reserved": 0, "type": "electric_bike", "bike_id": "13178f5b211ddd1de38fde558e4c4575", "lat": 38.886563333333335, "lon": -77.1623165, "rental_uris": {"android": "https://dc.lft.to/lastmile_qr_scan", "ios": "https://dc.lft.to/lastmile_qr_scan"}, "is_disabled": 0, "fusion_lat": 0.0, "name": "13178f5b211ddd1de38fde558e4c4575", "fusion_lon": 0.0}, {"is_reserved": 0, "type": "electric_scooter", "bike_id": "b067da312f53ecac5f40b7484ae7a200", "lat": 38.9376325, "lon": -77.0315565, "rental_uris": {"android": "https://dc.lft.to/lastmile_qr_scan", "ios": "https://dc.lft.to/lastmile_qr_scan"}, "is_disabled": 0, "fusion_lat": 0.0, "name": "b067da312f53ecac5f40b7484ae7a200", "fusion_lon": 0.0}, {"is_reserved": 0, "type": "electric_scooter", "bike_id": "f906003a3b264474d8930c164784f5a6", "lat": 38.894955833333334, "lon": -77.02266266666666, "rental_uris": {"android": "https://dc.lft.to/lastmile_qr_scan", "ios": "https://dc.lft.to/lastmile_qr_scan"}, "is_disabled": 0, "fusion_lat": 0.0, "name": "f906003a3b264474d8930c164784f5a6", "fusion_lon": 0.0}, {"is_reserved": 0, "type": "electric_scooter", "bike_id": "9424a117af6673acda1eb85879aea01b", "lat": 38.92298983333333, "lon": -76.983648, "rental_uris": {"android": "https://dc.lft.to/lastmile_qr_scan", "ios": "https://dc.lft.to/lastmile_qr_scan"}, "is_disabled": 0, "fusion_lat": 0.0, "name": "9424a117af6673acda1eb85879aea01b", "fusion_lon": 0.0}, {"is_reserved": 0, "type": "electric_scooter", "bike_id": "16530df2bf45c14076d20b8388cdd4f5", "lat": 38.931732, "lon": -77.02346616666667, "rental_uris": {"android": "https://dc.lft.to/lastmile_qr_scan", "ios": "https://dc.lft.to/lastmile_qr_scan"}, "is_disabled": 0, "fusion_lat": 0.0, "name": "16530df2bf45c14076d20b8388cdd4f5", "fusion_lon": 0.0}, {"is_reserved": 0, "type": "electric_scooter", "bike_id": "d6aeca720894504f7dac38b769308451", "lat": 38.90065516666667, "lon": -76.986545, "rental_uris": {"android": "https://dc.lft.to/lastmile_qr_scan", "ios": "https://dc.lft.to/lastmile_qr_scan"}, "is_disabled": 0, "fusion_lat": 0.0, "name": "d6aeca720894504f7dac38b769308451", "fusion_lon": 0.0}, {"is_reserved": 0, "type": "electric_scooter", "bike_id": "0da9ab5061911b2bc3439b6cb4b1df3d", "lat": 38.91685233333333, "lon": -77.0280375, "rental_uris": {"android": "https://dc.lft.to/lastmile_qr_scan", "ios": "https://dc.lft.to/lastmile_qr_scan"}, "is_disabled": 0, "fusion_lat": 0.0, "name": "0da9ab5061911b2bc3439b6cb4b1df3d", "fusion_lon": 0.0}, {"is_reserved": 0, "type": "electric_scooter", "bike_id": "21b176a1574580efdcc3171b20349d00", "lat": 38.940330333333335, "lon": -77.02637366666667, "rental_uris": {"android": "https://dc.lft.to/lastmile_qr_scan", "ios": "https://dc.lft.to/lastmile_qr_scan"}, "is_disabled": 0, "fusion_lat": 0.0, "name": "21b176a1574580efdcc3171b20349d00", "fusion_lon": 0.0}, {"is_reserved": 0, "type": "electric_scooter", "bike_id": "36efd25488ca7ad36b3634dc90981894", "lat": 38.864314, "lon": -76.99863133333334, "rental_uris": {"android": "https://dc.lft.to/lastmile_qr_scan", "ios": "https://dc.lft.to/lastmile_qr_scan"}, "is_disabled": 0, "fusion_lat": 0.0, "name": "36efd25488ca7ad36b3634dc90981894", "fusion_lon": 0.0}, {"is_reserved": 0, "type": "electric_scooter", "bike_id": "59f9dca8eade2aee560c2324e974d540", "lat": 38.934659333333336, "lon": -77.02244266666666, "rental_uris": {"android": "https://dc.lft.to/lastmile_qr_scan", "ios": "https://dc.lft.to/lastmile_qr_scan"}, "is_disabled": 0, "fusion_lat": 0.0, "name": "59f9dca8eade2aee560c2324e974d540", "fusion_lon": 0.0}, {"is_reserved": 0, "type": "electric_scooter", "bike_id": "6a504b184d9b2e877d232ceb6c7976d9", "lat": 38.899202833333334, "lon": -77.0320445, "rental_uris": {"android": "https://dc.lft.to/lastmile_qr_scan", "ios": "https://dc.lft.to/lastmile_qr_scan"}, "is_disabled": 0, "fusion_lat": 0.0, "name": "6a504b184d9b2e877d232ceb6c7976d9", "fusion_lon": 0.0}, {"is_reserved": 0, "type": "electric_scooter", "bike_id": "33bfdd28bf9250d766eee9c1d1b2ac99", "lat": 38.9197255, "lon": -77.0218855, "rental_uris": {"android": "https://dc.lft.to/lastmile_qr_scan", "ios": "https://dc.lft.to/lastmile_qr_scan"}, "is_disabled": 0, "fusion_lat": 0.0, "name": "33bfdd28bf9250d766eee9c1d1b2ac99", "fusion_lon": 0.0}, {"is_reserved": 0, "type": "electric_scooter", "bike_id": "22660387a0745a88476708c739ef424a", "lat": 38.90354033333333, "lon": -77.010991, "rental_uris": {"android": "https://dc.lft.to/lastmile_qr_scan", "ios": "https://dc.lft.to/lastmile_qr_scan"}, "is_disabled": 0, "fusion_lat": 0.0, "name": "22660387a0745a88476708c739ef424a", "fusion_lon": 0.0}, {"is_reserved": 0, "type": "electric_scooter", "bike_id": "f519aacc2938ec4c851ec3970df753c3", "lat": 38.8983305, "lon": -77.02779, "rental_uris": {"android": "https://dc.lft.to/lastmile_qr_scan", "ios": "https://dc.lft.to/lastmile_qr_scan"}, "is_disabled": 0, "fusion_lat": 0.0, "name": "f519aacc2938ec4c851ec3970df753c3", "fusion_lon": 0.0}, {"is_reserved": 0, "type": "electric_scooter", "bike_id": "5f55d46d609acdf1ea8f702ac9973f13", "lat": 38.90230783333333, "lon": -77.016765, "rental_uris": {"android": "https://dc.lft.to/lastmile_qr_scan", "ios": "https://dc.lft.to/lastmile_qr_scan"}, "is_disabled": 0, "fusion_lat": 0.0, "name": "5f55d46d609acdf1ea8f702ac9973f13", "fusion_lon": 0.0}, {"is_reserved": 0, "type": "electric_scooter", "bike_id": "184da977a34ac8a70d2e4e27e6242ddf", "lat": 38.89704116666667, "lon": -77.03184133333333, "rental_uris": {"android": "https://dc.lft.to/lastmile_qr_scan", "ios": "https://dc.lft.to/lastmile_qr_scan"}, "is_disabled": 0, "fusion_lat": 0.0, "name": "184da977a34ac8a70d2e4e27e6242ddf", "fusion_lon": 0.0}, {"is_reserved": 0, "type": "electric_bike", "bike_id": "99c4b779dd4541d2cd5060be41f3131b", "lat": 39.04239366666667, "lon": -76.99737, "rental_uris": {"android": "https://dc.lft.to/lastmile_qr_scan", "ios": "https://dc.lft.to/lastmile_qr_scan"}, "is_disabled": 0, "fusion_lat": 0.0, "name": "99c4b779dd4541d2cd5060be41f3131b", "fusion_lon": 0.0}, {"is_reserved": 0, "type": "electric_scooter", "bike_id": "d6fcb5e17b967c19dc5a3bffafdbd82f", "lat": 38.92784483333333, "lon": -77.0256385, "rental_uris": {"android": "https://dc.lft.to/lastmile_qr_scan", "ios": "https://dc.lft.to/lastmile_qr_scan"}, "is_disabled": 0, "fusion_lat": 0.0, "name": "d6fcb5e17b967c19dc5a3bffafdbd82f", "fusion_lon": 0.0}, {"is_reserved": 0, "type": "electric_bike", "bike_id": "4c07d47f58ec63aa120a00fed22461f8", "lat": 38.97345383333333, "lon": -76.99580483333334, "rental_uris": {"android": "https://dc.lft.to/lastmile_qr_scan", "ios": "https://dc.lft.to/lastmile_qr_scan"}, "is_disabled": 0, "fusion_lat": 0.0, "name": "4c07d47f58ec63aa120a00fed22461f8", "fusion_lon": 0.0}, {"is_reserved": 0, "type": "electric_scooter", "bike_id": "f921bdd2aedc6ba4a12b12620e1a3ad5", "lat": 38.913877, "lon": -77.0460285, "rental_uris": {"android": "https://dc.lft.to/lastmile_qr_scan", "ios": "https://dc.lft.to/lastmile_qr_scan"}, "is_disabled": 0, "fusion_lat": 0.0, "name": "f921bdd2aedc6ba4a12b12620e1a3ad5", "fusion_lon": 0.0}, {"is_reserved": 0, "type": "electric_scooter", "bike_id": "8e4016d6c22844e799d666619db0aa57", "lat": 38.894903666666664, "lon": -77.02186933333333, "rental_uris": {"android": "https://dc.lft.to/lastmile_qr_scan", "ios": "https://dc.lft.to/lastmile_qr_scan"}, "is_disabled": 0, "fusion_lat": 0.0, "name": "8e4016d6c22844e799d666619db0aa57", "fusion_lon": 0.0}, {"is_reserved": 0, "type": "electric_scooter", "bike_id": "b2ffa86843920bfbb28f2a2fd5b7217b", "lat": 38.89508983333333, "lon": -76.9347505, "rental_uris": {"android": "https://dc.lft.to/lastmile_qr_scan", "ios": "https://dc.lft.to/lastmile_qr_scan"}, "is_disabled": 0, "fusion_lat": 0.0, "name": "b2ffa86843920bfbb28f2a2fd5b7217b", "fusion_lon": 0.0}, {"is_reserved": 0, "type": "electric_scooter", "bike_id": "9e48675c883b671449717ea4da9d203a", "lat": 38.93171516666666, "lon": -77.0281505, "rental_uris": {"android": "https://dc.lft.to/lastmile_qr_scan", "ios": "https://dc.lft.to/lastmile_qr_scan"}, "is_disabled": 0, "fusion_lat": 0.0, "name": "9e48675c883b671449717ea4da9d203a", "fusion_lon": 0.0}, {"is_reserved": 0, "type": "electric_scooter", "bike_id": "81904e4a1de89b3ef27efaaebd0f93be", "lat": 38.878373833333335, "lon": -77.02275616666667, "rental_uris": {"android": "https://dc.lft.to/lastmile_qr_scan", "ios": "https://dc.lft.to/lastmile_qr_scan"}, "is_disabled": 0, "fusion_lat": 0.0, "name": "81904e4a1de89b3ef27efaaebd0f93be", "fusion_lon": 0.0}, {"is_reserved": 0, "type": "electric_scooter", "bike_id": "d21032e637da98d54cd2f9c86a2ddbbb", "lat": 38.917529333333334, "lon": -77.01715033333333, "rental_uris": {"android": "https://dc.lft.to/lastmile_qr_scan", "ios": "https://dc.lft.to/lastmile_qr_scan"}, "is_disabled": 0, "fusion_lat": 0.0, "name": "d21032e637da98d54cd2f9c86a2ddbbb", "fusion_lon": 0.0}, {"is_reserved": 0, "type": "electric_scooter", "bike_id": "53df1e3bc73fa180fe479d2f9167cc37", "lat": 38.88430066666667, "lon": -77.02510683333334, "rental_uris": {"android": "https://dc.lft.to/lastmile_qr_scan", "ios": "https://dc.lft.to/lastmile_qr_scan"}, "is_disabled": 0, "fusion_lat": 0.0, "name": "53df1e3bc73fa180fe479d2f9167cc37", "fusion_lon": 0.0}, {"is_reserved": 0, "type": "electric_scooter", "bike_id": "d65f6fdfe6c8294bc54388a5bb9de5ef", "lat": 38.90289033333333, "lon": -77.03666116666666, "rental_uris": {"android": "https://dc.lft.to/lastmile_qr_scan", "ios": "https://dc.lft.to/lastmile_qr_scan"}, "is_disabled": 0, "fusion_lat": 0.0, "name": "d65f6fdfe6c8294bc54388a5bb9de5ef", "fusion_lon": 0.0}, {"is_reserved": 0, "type": "electric_scooter", "bike_id": "86ba889be8fa9f9e5285c4d0e8d89e03", "lat": 38.90959866666667, "lon": -77.02383966666666, "rental_uris": {"android": "https://dc.lft.to/lastmile_qr_scan", "ios": "https://dc.lft.to/lastmile_qr_scan"}, "is_disabled": 0, "fusion_lat": 0.0, "name": "86ba889be8fa9f9e5285c4d0e8d89e03", "fusion_lon": 0.0}, {"is_reserved": 0, "type": "electric_scooter", "bike_id": "d2e79d73b889a2a9daf37c844fe5ca5b", "lat": 38.927379333333334, "lon": -77.05368783333333, "rental_uris": {"android": "https://dc.lft.to/lastmile_qr_scan", "ios": "https://dc.lft.to/lastmile_qr_scan"}, "is_disabled": 0, "fusion_lat": 0.0, "name": "d2e79d73b889a2a9daf37c844fe5ca5b", "fusion_lon": 0.0}, {"is_reserved": 0, "type": "electric_scooter", "bike_id": "77a1ea5060c59b02bebdf9bd3a76d2c3", "lat": 38.911088, "lon": -77.04448633333334, "rental_uris": {"android": "https://dc.lft.to/lastmile_qr_scan", "ios": "https://dc.lft.to/lastmile_qr_scan"}, "is_disabled": 0, "fusion_lat": 0.0, "name": "77a1ea5060c59b02bebdf9bd3a76d2c3", "fusion_lon": 0.0}, {"is_reserved": 0, "type": "electric_bike", "bike_id": "33a813954daa1d85f4a7429cc51c6d80", "lat": 38.900515, "lon": -76.977876, "rental_uris": {"android": "https://dc.lft.to/lastmile_qr_scan", "ios": "https://dc.lft.to/lastmile_qr_scan"}, "is_disabled": 0, "fusion_lat": 0.0, "name": "33a813954daa1d85f4a7429cc51c6d80", "fusion_lon": 0.0}, {"is_reserved": 0, "type": "electric_scooter", "bike_id": "7e293e7ccda7377c0ab49cf372dafeb2", "lat": 38.9236335, "lon": -77.01928316666667, "rental_uris": {"android": "https://dc.lft.to/lastmile_qr_scan", "ios": "https://dc.lft.to/lastmile_qr_scan"}, "is_disabled": 0, "fusion_lat": 0.0, "name": "7e293e7ccda7377c0ab49cf372dafeb2", "fusion_lon": 0.0}, {"is_reserved": 0, "type": "electric_scooter", "bike_id": "c0a5ba35d8371073dfc1963b3bf0d7c6", "lat": 38.908112, "lon": -77.036884, "rental_uris": {"android": "https://dc.lft.to/lastmile_qr_scan", "ios": "https://dc.lft.to/lastmile_qr_scan"}, "is_disabled": 0, "fusion_lat": 0.0, "name": "c0a5ba35d8371073dfc1963b3bf0d7c6", "fusion_lon": 0.0}, {"is_reserved": 0, "type": "electric_scooter", "bike_id": "45f17fe5b9c575f29eb0bbc5b9e7449f", "lat": 38.931861, "lon": -77.03842116666667, "rental_uris": {"android": "https://dc.lft.to/lastmile_qr_scan", "ios": "https://dc.lft.to/lastmile_qr_scan"}, "is_disabled": 0, "fusion_lat": 0.0, "name": "45f17fe5b9c575f29eb0bbc5b9e7449f", "fusion_lon": 0.0}, {"is_reserved": 0, "type": "electric_scooter", "bike_id": "4de0604637af3038c5540faa81e98597", "lat": 38.89335916666667, "lon": -77.02821883333333, "rental_uris": {"android": "https://dc.lft.to/lastmile_qr_scan", "ios": "https://dc.lft.to/lastmile_qr_scan"}, "is_disabled": 0, "fusion_lat": 0.0, "name": "4de0604637af3038c5540faa81e98597", "fusion_lon": 0.0}, {"is_reserved": 0, "type": "electric_bike", "bike_id": "2d26ed27f2152753554aa871a6d2fee6", "lat": 38.949668833333334, "lon": -76.96104266666667, "rental_uris": {"android": "https://dc.lft.to/lastmile_qr_scan", "ios": "https://dc.lft.to/lastmile_qr_scan"}, "is_disabled": 0, "fusion_lat": 0.0, "name": "2d26ed27f2152753554aa871a6d2fee6", "fusion_lon": 0.0}, {"is_reserved": 0, "type": "electric_scooter", "bike_id": "4c75cea4b45e8da9bb2c1c658de76b2c", "lat": 38.907132833333335, "lon": -77.0323465, "rental_uris": {"android": "https://dc.lft.to/lastmile_qr_scan", "ios": "https://dc.lft.to/lastmile_qr_scan"}, "is_disabled": 0, "fusion_lat": 0.0, "name": "4c75cea4b45e8da9bb2c1c658de76b2c", "fusion_lon": 0.0}, {"is_reserved": 0, "type": "electric_scooter", "bike_id": "6e38a29b1fa4155d1a24325d199ace66", "lat": 38.90851216666667, "lon": -77.0448535, "rental_uris": {"android": "https://dc.lft.to/lastmile_qr_scan", "ios": "https://dc.lft.to/lastmile_qr_scan"}, "is_disabled": 0, "fusion_lat": 0.0, "name": "6e38a29b1fa4155d1a24325d199ace66", "fusion_lon": 0.0}, {"is_reserved": 0, "type": "electric_scooter", "bike_id": "ee8f859245a54e92bf5a54a17c77f330", "lat": 38.9051405, "lon": -77.05665816666667, "rental_uris": {"android": "https://dc.lft.to/lastmile_qr_scan", "ios": "https://dc.lft.to/lastmile_qr_scan"}, "is_disabled": 0, "fusion_lat": 0.0, "name": "ee8f859245a54e92bf5a54a17c77f330", "fusion_lon": 0.0}, {"is_reserved": 0, "type": "electric_scooter", "bike_id": "06e3b25ef8d8c1ef5a6abdfb64326c67", "lat": 38.915618, "lon": -77.0236005, "rental_uris": {"android": "https://dc.lft.to/lastmile_qr_scan", "ios": "https://dc.lft.to/lastmile_qr_scan"}, "is_disabled": 0, "fusion_lat": 0.0, "name": "06e3b25ef8d8c1ef5a6abdfb64326c67", "fusion_lon": 0.0}, {"is_reserved": 0, "type": "electric_scooter", "bike_id": "75458e5f87ea5b8863c7af83bdc855b3", "lat": 38.93865066666667, "lon": -77.02655566666667, "rental_uris": {"android": "https://dc.lft.to/lastmile_qr_scan", "ios": "https://dc.lft.to/lastmile_qr_scan"}, "is_disabled": 0, "fusion_lat": 0.0, "name": "75458e5f87ea5b8863c7af83bdc855b3", "fusion_lon": 0.0}, {"is_reserved": 0, "type": "electric_bike", "bike_id": "e7292067de022c62b7bca47b43da5507", "lat": 38.8086675, "lon": -77.11256333333333, "rental_uris": {"android": "https://dc.lft.to/lastmile_qr_scan", "ios": "https://dc.lft.to/lastmile_qr_scan"}, "is_disabled": 0, "fusion_lat": 0.0, "name": "e7292067de022c62b7bca47b43da5507", "fusion_lon": 0.0}, {"is_reserved": 0, "type": "electric_scooter", "bike_id": "9b499eda046bcfbdff7e20149adf6114", "lat": 38.872724, "lon": -77.01719783333333, "rental_uris": {"android": "https://dc.lft.to/lastmile_qr_scan", "ios": "https://dc.lft.to/lastmile_qr_scan"}, "is_disabled": 0, "fusion_lat": 0.0, "name": "9b499eda046bcfbdff7e20149adf6114", "fusion_lon": 0.0}, {"is_reserved": 0, "type": "electric_scooter", "bike_id": "8c3f87f540776d35407502129397b96a", "lat": 38.90686733333333, "lon": -77.06259033333333, "rental_uris": {"android": "https://dc.lft.to/lastmile_qr_scan", "ios": "https://dc.lft.to/lastmile_qr_scan"}, "is_disabled": 0, "fusion_lat": 0.0, "name": "8c3f87f540776d35407502129397b96a", "fusion_lon": 0.0}, {"is_reserved": 0, "type": "electric_scooter", "bike_id": "ed8ac9459bcb556419c3b49f6a14f163", "lat": 38.87158183333333, "lon": -77.013147, "rental_uris": {"android": "https://dc.lft.to/lastmile_qr_scan", "ios": "https://dc.lft.to/lastmile_qr_scan"}, "is_disabled": 0, "fusion_lat": 0.0, "name": "ed8ac9459bcb556419c3b49f6a14f163", "fusion_lon": 0.0}, {"is_reserved": 0, "type": "electric_scooter", "bike_id": "2571de5e7c2b90291573013a169fd744", "lat": 38.91879683333333, "lon": -77.04148366666666, "rental_uris": {"android": "https://dc.lft.to/lastmile_qr_scan", "ios": "https://dc.lft.to/lastmile_qr_scan"}, "is_disabled": 0, "fusion_lat": 0.0, "name": "2571de5e7c2b90291573013a169fd744", "fusion_lon": 0.0}, {"is_reserved": 0, "type": "electric_scooter", "bike_id": "bfe3c2b96e09ea0d58014fbd13aa8508", "lat": 38.93019483333333, "lon": -77.02326716666667, "rental_uris": {"android": "https://dc.lft.to/lastmile_qr_scan", "ios": "https://dc.lft.to/lastmile_qr_scan"}, "is_disabled": 0, "fusion_lat": 0.0, "name": "bfe3c2b96e09ea0d58014fbd13aa8508", "fusion_lon": 0.0}, {"is_reserved": 0, "type": "electric_bike", "bike_id": "610fd4707798a10fc183656faea437b5", "lat": 38.908609, "lon": -76.98484566666667, "rental_uris": {"android": "https://dc.lft.to/lastmile_qr_scan", "ios": "https://dc.lft.to/lastmile_qr_scan"}, "is_disabled": 0, "fusion_lat": 0.0, "name": "610fd4707798a10fc183656faea437b5", "fusion_lon": 0.0}, {"is_reserved": 0, "type": "electric_scooter", "bike_id": "29bce67634dc9d861ef3b3c7847795b7", "lat": 38.9013455, "lon": -77.00006816666667, "rental_uris": {"android": "https://dc.lft.to/lastmile_qr_scan", "ios": "https://dc.lft.to/lastmile_qr_scan"}, "is_disabled": 0, "fusion_lat": 0.0, "name": "29bce67634dc9d861ef3b3c7847795b7", "fusion_lon": 0.0}, {"is_reserved": 0, "type": "electric_scooter", "bike_id": "1676ea50c780355cd4bda38b3ad9861e", "lat": 38.91174616666667, "lon": -77.02196733333334, "rental_uris": {"android": "https://dc.lft.to/lastmile_qr_scan", "ios": "https://dc.lft.to/lastmile_qr_scan"}, "is_disabled": 0, "fusion_lat": 0.0, "name": "1676ea50c780355cd4bda38b3ad9861e", "fusion_lon": 0.0}, {"is_reserved": 0, "type": "electric_scooter", "bike_id": "9da6eb72deb0eb2139bae4154df491bd", "lat": 38.898418166666666, "lon": -77.04810166666667, "rental_uris": {"android": "https://dc.lft.to/lastmile_qr_scan", "ios": "https://dc.lft.to/lastmile_qr_scan"}, "is_disabled": 0, "fusion_lat": 0.0, "name": "9da6eb72deb0eb2139bae4154df491bd", "fusion_lon": 0.0}, {"is_reserved": 0, "type": "electric_scooter", "bike_id": "4cae9ac99caf8de1d7c588c79d994d4f", "lat": 38.8790925, "lon": -77.02205333333333, "rental_uris": {"android": "https://dc.lft.to/lastmile_qr_scan", "ios": "https://dc.lft.to/lastmile_qr_scan"}, "is_disabled": 0, "fusion_lat": 0.0, "name": "4cae9ac99caf8de1d7c588c79d994d4f", "fusion_lon": 0.0}, {"is_reserved": 0, "type": "electric_scooter", "bike_id": "dd5263063950df95394e210dacb013ec", "lat": 38.9254525, "lon": -77.034669, "rental_uris": {"android": "https://dc.lft.to/lastmile_qr_scan", "ios": "https://dc.lft.to/lastmile_qr_scan"}, "is_disabled": 0, "fusion_lat": 0.0, "name": "dd5263063950df95394e210dacb013ec", "fusion_lon": 0.0}, {"is_reserved": 0, "type": "electric_scooter", "bike_id": "5733aff7894a126b23adf920da5a8548", "lat": 38.92604866666667, "lon": -77.024195, "rental_uris": {"android": "https://dc.lft.to/lastmile_qr_scan", "ios": "https://dc.lft.to/lastmile_qr_scan"}, "is_disabled": 0, "fusion_lat": 0.0, "name": "5733aff7894a126b23adf920da5a8548", "fusion_lon": 0.0}, {"is_reserved": 0, "type": "electric_scooter", "bike_id": "26e6958ae80f4cc4b8d02df7d103d2a2", "lat": 38.9025995, "lon": -77.02768366666666, "rental_uris": {"android": "https://dc.lft.to/lastmile_qr_scan", "ios": "https://dc.lft.to/lastmile_qr_scan"}, "is_disabled": 0, "fusion_lat": 0.0, "name": "26e6958ae80f4cc4b8d02df7d103d2a2", "fusion_lon": 0.0}, {"is_reserved": 0, "type": "electric_scooter", "bike_id": "e7eb9188fb32db24b81eb55a52c9c0c0", "lat": 38.955043333333336, "lon": -76.995815, "rental_uris": {"android": "https://dc.lft.to/lastmile_qr_scan", "ios": "https://dc.lft.to/lastmile_qr_scan"}, "is_disabled": 0, "fusion_lat": 0.0, "name": "e7eb9188fb32db24b81eb55a52c9c0c0", "fusion_lon": 0.0}, {"is_reserved": 0, "type": "electric_scooter", "bike_id": "0d26dee3646fe2e43c5d20c10206f9ce", "lat": 38.899425, "lon": -77.04796266666666, "rental_uris": {"android": "https://dc.lft.to/lastmile_qr_scan", "ios": "https://dc.lft.to/lastmile_qr_scan"}, "is_disabled": 0, "fusion_lat": 0.0, "name": "0d26dee3646fe2e43c5d20c10206f9ce", "fusion_lon": 0.0}, {"is_reserved": 0, "type": "electric_scooter", "bike_id": "ad01d6caebd1a8a185b71cf40b4c2a78", "lat": 38.91109183333333, "lon": -77.01900716666667, "rental_uris": {"android": "https://dc.lft.to/lastmile_qr_scan", "ios": "https://dc.lft.to/lastmile_qr_scan"}, "is_disabled": 0, "fusion_lat": 0.0, "name": "ad01d6caebd1a8a185b71cf40b4c2a78", "fusion_lon": 0.0}, {"is_reserved": 0, "type": "electric_scooter", "bike_id": "f32eb7cd6a7a9ee90ea94a781b7a8bb6", "lat": 38.869727166666664, "lon": -77.01121283333333, "rental_uris": {"android": "https://dc.lft.to/lastmile_qr_scan", "ios": "https://dc.lft.to/lastmile_qr_scan"}, "is_disabled": 0, "fusion_lat": 0.0, "name": "f32eb7cd6a7a9ee90ea94a781b7a8bb6", "fusion_lon": 0.0}, {"is_reserved": 0, "type": "electric_scooter", "bike_id": "b76fc6fe4dee61bb04d368ec2fe8bcb9", "lat": 38.91432666666667, "lon": -77.03217683333334, "rental_uris": {"android": "https://dc.lft.to/lastmile_qr_scan", "ios": "https://dc.lft.to/lastmile_qr_scan"}, "is_disabled": 0, "fusion_lat": 0.0, "name": "b76fc6fe4dee61bb04d368ec2fe8bcb9", "fusion_lon": 0.0}, {"is_reserved": 0, "type": "electric_scooter", "bike_id": "be644caea6bb689af1fe01be8fd744a2", "lat": 38.905529, "lon": -77.00592066666667, "rental_uris": {"android": "https://dc.lft.to/lastmile_qr_scan", "ios": "https://dc.lft.to/lastmile_qr_scan"}, "is_disabled": 0, "fusion_lat": 0.0, "name": "be644caea6bb689af1fe01be8fd744a2", "fusion_lon": 0.0}, {"is_reserved": 0, "type": "electric_scooter", "bike_id": "1c0ec9d36bc556c443f04ff5a114091e", "lat": 38.90530233333333, "lon": -77.05677216666666, "rental_uris": {"android": "https://dc.lft.to/lastmile_qr_scan", "ios": "https://dc.lft.to/lastmile_qr_scan"}, "is_disabled": 0, "fusion_lat": 0.0, "name": "1c0ec9d36bc556c443f04ff5a114091e", "fusion_lon": 0.0}, {"is_reserved": 0, "type": "electric_scooter", "bike_id": "5c8c133876da55042c67fb7c20cd5fb3", "lat": 38.91695766666667, "lon": -77.0410645, "rental_uris": {"android": "https://dc.lft.to/lastmile_qr_scan", "ios": "https://dc.lft.to/lastmile_qr_scan"}, "is_disabled": 0, "fusion_lat": 0.0, "name": "5c8c133876da55042c67fb7c20cd5fb3", "fusion_lon": 0.0}, {"is_reserved": 0, "type": "electric_scooter", "bike_id": "d83812c401980631e6c72783a35b1856", "lat": 38.911249166666664, "lon": -77.02199033333333, "rental_uris": {"android": "https://dc.lft.to/lastmile_qr_scan", "ios": "https://dc.lft.to/lastmile_qr_scan"}, "is_disabled": 0, "fusion_lat": 0.0, "name": "d83812c401980631e6c72783a35b1856", "fusion_lon": 0.0}, {"is_reserved": 0, "type": "electric_scooter", "bike_id": "f6332289ab3ef791cbeb7e3f4229d895", "lat": 38.91560783333333, "lon": -77.025559, "rental_uris": {"android": "https://dc.lft.to/lastmile_qr_scan", "ios": "https://dc.lft.to/lastmile_qr_scan"}, "is_disabled": 0, "fusion_lat": 0.0, "name": "f6332289ab3ef791cbeb7e3f4229d895", "fusion_lon": 0.0}, {"is_reserved": 0, "type": "electric_scooter", "bike_id": "b869e28280d7e33c577992465a894832", "lat": 38.88509083333334, "lon": -77.01118066666666, "rental_uris": {"android": "https://dc.lft.to/lastmile_qr_scan", "ios": "https://dc.lft.to/lastmile_qr_scan"}, "is_disabled": 0, "fusion_lat": 0.0, "name": "b869e28280d7e33c577992465a894832", "fusion_lon": 0.0}, {"is_reserved": 0, "type": "electric_scooter", "bike_id": "ce341b0b04d5225ead8466a29f51e77f", "lat": 38.913879333333334, "lon": -77.03209583333333, "rental_uris": {"android": "https://dc.lft.to/lastmile_qr_scan", "ios": "https://dc.lft.to/lastmile_qr_scan"}, "is_disabled": 0, "fusion_lat": 0.0, "name": "ce341b0b04d5225ead8466a29f51e77f", "fusion_lon": 0.0}, {"is_reserved": 0, "type": "electric_bike", "bike_id": "92df7565a01f20434e14715f638bae03", "lat": 38.9568025, "lon": -77.022305, "rental_uris": {"android": "https://dc.lft.to/lastmile_qr_scan", "ios": "https://dc.lft.to/lastmile_qr_scan"}, "is_disabled": 0, "fusion_lat": 0.0, "name": "92df7565a01f20434e14715f638bae03", "fusion_lon": 0.0}, {"is_reserved": 0, "type": "electric_scooter", "bike_id": "588664397c8717beba602e325d1f12be", "lat": 38.886034, "lon": -77.00399783333333, "rental_uris": {"android": "https://dc.lft.to/lastmile_qr_scan", "ios": "https://dc.lft.to/lastmile_qr_scan"}, "is_disabled": 0, "fusion_lat": 0.0, "name": "588664397c8717beba602e325d1f12be", "fusion_lon": 0.0}, {"is_reserved": 0, "type": "electric_scooter", "bike_id": "5c3686f5c3a51bab47a82f5f82836d2a", "lat": 38.908030833333335, "lon": -77.03634416666667, "rental_uris": {"android": "https://dc.lft.to/lastmile_qr_scan", "ios": "https://dc.lft.to/lastmile_qr_scan"}, "is_disabled": 0, "fusion_lat": 0.0, "name": "5c3686f5c3a51bab47a82f5f82836d2a", "fusion_lon": 0.0}, {"is_reserved": 0, "type": "electric_scooter", "bike_id": "88b333475116562c3eef31b5fbf6d1e4", "lat": 38.914065, "lon": -77.02836216666667, "rental_uris": {"android": "https://dc.lft.to/lastmile_qr_scan", "ios": "https://dc.lft.to/lastmile_qr_scan"}, "is_disabled": 0, "fusion_lat": 0.0, "name": "88b333475116562c3eef31b5fbf6d1e4", "fusion_lon": 0.0}, {"is_reserved": 0, "type": "electric_scooter", "bike_id": "de534d6587d2ef64f9063a27f5632990", "lat": 38.90085233333333, "lon": -77.022306, "rental_uris": {"android": "https://dc.lft.to/lastmile_qr_scan", "ios": "https://dc.lft.to/lastmile_qr_scan"}, "is_disabled": 0, "fusion_lat": 0.0, "name": "de534d6587d2ef64f9063a27f5632990", "fusion_lon": 0.0}, {"is_reserved": 0, "type": "electric_bike", "bike_id": "01d81853cf928297802e8c63e498037f", "lat": 38.84435233333333, "lon": -76.99767983333334, "rental_uris": {"android": "https://dc.lft.to/lastmile_qr_scan", "ios": "https://dc.lft.to/lastmile_qr_scan"}, "is_disabled": 0, "fusion_lat": 0.0, "name": "01d81853cf928297802e8c63e498037f", "fusion_lon": 0.0}, {"is_reserved": 0, "type": "electric_scooter", "bike_id": "53c9dd63c514f82a7cb2d846f8b40721", "lat": 38.90852116666667, "lon": -77.02335533333333, "rental_uris": {"android": "https://dc.lft.to/lastmile_qr_scan", "ios": "https://dc.lft.to/lastmile_qr_scan"}, "is_disabled": 0, "fusion_lat": 0.0, "name": "53c9dd63c514f82a7cb2d846f8b40721", "fusion_lon": 0.0}, {"is_reserved": 0, "type": "electric_scooter", "bike_id": "28575b92a74759c2400913737f93ca15", "lat": 38.91846983333333, "lon": -76.9652585, "rental_uris": {"android": "https://dc.lft.to/lastmile_qr_scan", "ios": "https://dc.lft.to/lastmile_qr_scan"}, "is_disabled": 0, "fusion_lat": 0.0, "name": "28575b92a74759c2400913737f93ca15", "fusion_lon": 0.0}, {"is_reserved": 0, "type": "electric_scooter", "bike_id": "e186079a1d3029cb4a49d2e752a6fcbd", "lat": 38.926910166666666, "lon": -77.02418816666666, "rental_uris": {"android": "https://dc.lft.to/lastmile_qr_scan", "ios": "https://dc.lft.to/lastmile_qr_scan"}, "is_disabled": 0, "fusion_lat": 0.0, "name": "e186079a1d3029cb4a49d2e752a6fcbd", "fusion_lon": 0.0}, {"is_reserved": 0, "type": "electric_scooter", "bike_id": "2221d66096f777f810e7af786cfa023b", "lat": 38.92084366666667, "lon": -77.02437533333334, "rental_uris": {"android": "https://dc.lft.to/lastmile_qr_scan", "ios": "https://dc.lft.to/lastmile_qr_scan"}, "is_disabled": 0, "fusion_lat": 0.0, "name": "2221d66096f777f810e7af786cfa023b", "fusion_lon": 0.0}, {"is_reserved": 0, "type": "electric_scooter", "bike_id": "a7003ccd7133c43e74f292eadbfe400d", "lat": 38.90832416666667, "lon": -76.98716966666667, "rental_uris": {"android": "https://dc.lft.to/lastmile_qr_scan", "ios": "https://dc.lft.to/lastmile_qr_scan"}, "is_disabled": 0, "fusion_lat": 0.0, "name": "a7003ccd7133c43e74f292eadbfe400d", "fusion_lon": 0.0}, {"is_reserved": 0, "type": "electric_scooter", "bike_id": "a225317bed235cd0d39afd90faceb9e0", "lat": 38.92298516666666, "lon": -77.02421283333334, "rental_uris": {"android": "https://dc.lft.to/lastmile_qr_scan", "ios": "https://dc.lft.to/lastmile_qr_scan"}, "is_disabled": 0, "fusion_lat": 0.0, "name": "a225317bed235cd0d39afd90faceb9e0", "fusion_lon": 0.0}, {"is_reserved": 0, "type": "electric_bike", "bike_id": "5715a38932c86a00caf8e2dd5e4b1cce", "lat": 38.991045, "lon": -76.88158133333333, "rental_uris": {"android": "https://dc.lft.to/lastmile_qr_scan", "ios": "https://dc.lft.to/lastmile_qr_scan"}, "is_disabled": 0, "fusion_lat": 0.0, "name": "5715a38932c86a00caf8e2dd5e4b1cce", "fusion_lon": 0.0}, {"is_reserved": 0, "type": "electric_scooter", "bike_id": "74f05b965d3068025fbdcab9ae66578e", "lat": 38.9129995, "lon": -76.984737, "rental_uris": {"android": "https://dc.lft.to/lastmile_qr_scan", "ios": "https://dc.lft.to/lastmile_qr_scan"}, "is_disabled": 0, "fusion_lat": 0.0, "name": "74f05b965d3068025fbdcab9ae66578e", "fusion_lon": 0.0}, {"is_reserved": 0, "type": "electric_scooter", "bike_id": "1fd8fc7956b28204d3fc8fff54906ae5", "lat": 38.941819833333334, "lon": -77.02490783333333, "rental_uris": {"android": "https://dc.lft.to/lastmile_qr_scan", "ios": "https://dc.lft.to/lastmile_qr_scan"}, "is_disabled": 0, "fusion_lat": 0.0, "name": "1fd8fc7956b28204d3fc8fff54906ae5", "fusion_lon": 0.0}, {"is_reserved": 0, "type": "electric_scooter", "bike_id": "8c351499706a666a2695560d3e51796f", "lat": 38.92689716666667, "lon": -77.029777, "rental_uris": {"android": "https://dc.lft.to/lastmile_qr_scan", "ios": "https://dc.lft.to/lastmile_qr_scan"}, "is_disabled": 0, "fusion_lat": 0.0, "name": "8c351499706a666a2695560d3e51796f", "fusion_lon": 0.0},