{"data": {"bikes": [{"rental_uris": {"android": "https://dc.lft.to/lastmile_qr_scan", "ios": "https://dc.lft.to/lastmile_qr_scan"}, "is_reserved": 0, "is_disabled": 0, "name": "6c05f57f27c835746a0c8387d0257692", "bike_id": "6c05f57f27c835746a0c8387d0257692", "fusion_lat": 0.0, "lon": -76.98991283333334, "type": "electric_scooter", "fusion_lon": 0.0, "lat": 38.8643715}, {"rental_uris": {"android": "https://dc.lft.to/lastmile_qr_scan", "ios": "https://dc.lft.to/lastmile_qr_scan"}, "is_reserved": 0, "is_disabled": 0, "name": "e450f672e17b046da94038043bea7cc0", "bike_id": "e450f672e17b046da94038043bea7cc0", "fusion_lat": 0.0, "lon": -77.02951566666667, "type": "electric_scooter", "fusion_lon": 0.0, "lat": 38.905046166666665}, {"rental_uris": {"android": "https://dc.lft.to/lastmile_qr_scan", "ios": "https://dc.lft.to/lastmile_qr_scan"}, "is_reserved": 0, "is_disabled": 0, "name": "ebdd2a248d160a0a6abf5cad9c182377", "bike_id": "ebdd2a248d160a0a6abf5cad9c182377", "fusion_lat": 0.0, "lon": -77.024267, "type": "electric_bike", "fusion_lon": 0.0, "lat": 38.93707083333334}, {"rental_uris": {"android": "https://dc.lft.to/lastmile_qr_scan", "ios": "https://dc.lft.to/lastmile_qr_scan"}, "is_reserved": 0, "is_disabled": 0, "name": "633d0b79605ba2ec8bc1ce80906dfb7e", "bike_id": "633d0b79605ba2ec8bc1ce80906dfb7e", "fusion_lat": 0.0, "lon": -76.982372, "type": "electric_scooter", "fusion_lon": 0.0, "lat": 38.868957333333334}, {"rental_uris": {"android": "https://dc.lft.to/lastmile_qr_scan", "ios": "https://dc.lft.to/lastmile_qr_scan"}, "is_reserved": 0, "is_disabled": 0, "name": "4786b264f60b82545693814b44711694", "bike_id": "4786b264f60b82545693814b44711694", "fusion_lat": 0.0, "lon": -77.04861416666667, "type": "electric_scooter", "fusion_lon": 0.0, "lat": 38.899433333333334}, {"rental_uris": {"android": "https://dc.lft.to/lastmile_qr_scan", "ios": "https://dc.lft.to/lastmile_qr_scan"}, "is_reserved": 0, "is_disabled": 0, "name": "934b9556a2dde7af2ee1b0426c69908f", "bike_id": "934b9556a2dde7af2ee1b0426c69908f", "fusion_lat": 0.0, "lon": -76.99515016666666, "type": "electric_scooter", "fusion_lon": 0.0, "lat": 38.88787816666667}, {"rental_uris": {"android": "https://dc.lft.to/lastmile_qr_scan", "ios": "https://dc.lft.to/lastmile_qr_scan"}, "is_reserved": 0, "is_disabled": 0, "name": "ce2ef0ac34b29fc654ccb097ae213817", "bike_id": "ce2ef0ac34b29fc654ccb097ae213817", "fusion_lat": 0.0, "lon": -77.03860166666666, "type": "electric_scooter", "fusion_lon": 0.0, "lat": 38.9171305}, {"rental_uris": {"android": "https://dc.lft.to/lastmile_qr_scan", "ios": "https://dc.lft.to/lastmile_qr_scan"}, "is_reserved": 0, "is_disabled": 0, "name": "a5b372faccd0ebe9dc267bfc0aceba75", "bike_id": "a5b372faccd0ebe9dc267bfc0aceba75", "fusion_lat": 0.0, "lon": -77.05685383333334, "type": "electric_scooter", "fusion_lon": 0.0, "lat": 38.906039166666666}, {"rental_uris": {"android": "https://dc.lft.to/lastmile_qr_scan", "ios": "https://dc.lft.to/lastmile_qr_scan"}, "is_reserved": 0, "is_disabled": 0, "name": "9741b8ee7b196a2233f01782d1a164c4", "bike_id": "9741b8ee7b196a2233f01782d1a164c4", "fusion_lat": 0.0, "lon": -77.0341255, "type": "electric_scooter", "fusion_lon": 0.0, "lat": 38.93095666666667}, {"rental_uris": {"android": "https://dc.lft.to/lastmile_qr_scan", "ios": "https://dc.lft.to/lastmile_qr_scan"}, "is_reserved": 0, "is_disabled": 0, "name": "eb81b01d5818c64dd701bc8f286b9ce7", "bike_id": "eb81b01d5818c64dd701bc8f286b9ce7", "fusion_lat": 0.0, "lon": -77.031886, "type": "electric_scooter", "fusion_lon": 0.0, "lat": 38.9154375}, {"rental_uris": {"android": "https://dc.lft.to/lastmile_qr_scan", "ios": "https://dc.lft.to/lastmile_qr_scan"}, "is_reserved": 0, "is_disabled": 0, "name": "093784b2e1efae09c8b3559c4547e594", "bike_id": "093784b2e1efae09c8b3559c4547e594", "fusion_lat": 0.0, "lon": -77.0282665, "type": "electric_scooter", "fusion_lon": 0.0, "lat": 38.88743}, {"rental_uris": {"android": "https://dc.lft.to/lastmile_qr_scan", "ios": "https://dc.lft.to/lastmile_qr_scan"}, "is_reserved": 0, "is_disabled": 0, "name": "a86d19ae215cc800764ee670444ddf61", "bike_id": "a86d19ae215cc800764ee670444ddf61", "fusion_lat": 0.0, "lon": -76.977226, "type": "electric_scooter", "fusion_lon": 0.0, "lat": 38.88819183333333}, {"rental_uris": {"android": "https://dc.lft.to/lastmile_qr_scan", "ios": "https://dc.lft.to/lastmile_qr_scan"}, "is_reserved": 0, "is_disabled": 0, "name": "97c7fb9040512a6a03aa51f28d7b5d51", "bike_id": "97c7fb9040512a6a03aa51f28d7b5d51", "fusion_lat": 0.0, "lon": -77.04667116666667, "type": "electric_scooter", "fusion_lon": 0.0, "lat": 38.90385166666667}, {"rental_uris": {"android": "https://dc.lft.to/lastmile_qr_scan", "ios": "https://dc.lft.to/lastmile_qr_scan"}, "is_reserved": 0, "is_disabled": 0, "name": "42782b8fd4995b3323dda2d376279c7f", "bike_id": "42782b8fd4995b3323dda2d376279c7f", "fusion_lat": 0.0, "lon": -77.0280715, "type": "electric_scooter", "fusion_lon": 0.0, "lat": 38.902452833333335}, {"rental_uris": {"android": "https://dc.lft.to/lastmile_qr_scan", "ios": "https://dc.lft.to/lastmile_qr_scan"}, "is_reserved": 0, "is_disabled": 0, "name": "db60cac20e8f43e141ade356126b1ca8", "bike_id": "db60cac20e8f43e141ade356126b1ca8", "fusion_lat": 0.0, "lon": -77.00325866666667, "type": "electric_scooter", "fusion_lon": 0.0, "lat": 38.902684}, {"rental_uris": {"android": "https://dc.lft.to/lastmile_qr_scan", "ios": "https://dc.lft.to/lastmile_qr_scan"}, "is_reserved": 0, "is_disabled": 0, "name": "68fd7d7fb2a61db4a66a4a38176f50ce", "bike_id": "68fd7d7fb2a61db4a66a4a38176f50ce", "fusion_lat": 0.0, "lon": -77.03160983333333, "type": "electric_scooter", "fusion_lon": 0.0, "lat": 38.92369733333334}, {"rental_uris": {"android": "https://dc.lft.to/lastmile_qr_scan", "ios": "https://dc.lft.to/lastmile_qr_scan"}, "is_reserved": 0, "is_disabled": 0, "name": "f5ba41468fe2266c4ccd4dad794f2261", "bike_id": "f5ba41468fe2266c4ccd4dad794f2261", "fusion_lat": 0.0, "lon": -77.0145925, "type": "electric_scooter", "fusion_lon": 0.0, "lat": 38.919253166666664}, {"rental_uris": {"android": "https://dc.lft.to/lastmile_qr_scan", "ios": "https://dc.lft.to/lastmile_qr_scan"}, "is_reserved": 0, "is_disabled": 0, "name": "891a434358ce50962db6a2a5520c445f", "bike_id": "891a434358ce50962db6a2a5520c445f", "fusion_lat": 0.0, "lon": -77.03392966666667, "type": "electric_scooter", "fusion_lon": 0.0, "lat": 38.907975666666665}, {"rental_uris": {"android": "https://dc.lft.to/lastmile_qr_scan", "ios": "https://dc.lft.to/lastmile_qr_scan"}, "is_reserved": 0, "is_disabled": 0, "name": "f7bb39c3f4d4a886cc05f8612c771460", "bike_id": "f7bb39c3f4d4a886cc05f8612c771460", "fusion_lat": 0.0, "lon": -77.05519216666667, "type": "electric_scooter", "fusion_lon": 0.0, "lat": 38.910533666666666}, {"rental_uris": {"android": "https://dc.lft.to/lastmile_qr_scan", "ios": "https://dc.lft.to/lastmile_qr_scan"}, "is_reserved": 0, "is_disabled": 0, "name": "adb56f9f67902c6ee6c0b199fad395d4", "bike_id": "adb56f9f67902c6ee6c0b199fad395d4", "fusion_lat": 0.0, "lon": -76.98865866666667, "type": "electric_scooter", "fusion_lon": 0.0, "lat": 38.934821666666664}, {"rental_uris": {"android": "https://dc.lft.to/lastmile_qr_scan", "ios": "https://dc.lft.to/lastmile_qr_scan"}, "is_reserved": 0, "is_disabled": 0, "name": "aa84efdee7a9ea5f1bc9b14129a98c1f", "bike_id": "aa84efdee7a9ea5f1bc9b14129a98c1f", "fusion_lat": 0.0, "lon": -77.02430533333333, "type": "electric_bike", "fusion_lon": 0.0, "lat": 38.92301066666667}, {"rental_uris": {"android": "https://dc.lft.to/lastmile_qr_scan", "ios": "https://dc.lft.to/lastmile_qr_scan"}, "is_reserved": 0, "is_disabled": 0, "name": "0a0822093b44f030fced61cc131031f8", "bike_id": "0a0822093b44f030fced61cc131031f8", "fusion_lat": 0.0, "lon": -76.93082616666666, "type": "electric_scooter", "fusion_lon": 0.0, "lat": 38.8956005}, {"rental_uris": {"android": "https://dc.lft.to/lastmile_qr_scan", "ios": "https://dc.lft.to/lastmile_qr_scan"}, "is_reserved": 0, "is_disabled": 0, "name": "19772c7f7c16a1848c74376e45e112bd", "bike_id": "19772c7f7c16a1848c74376e45e112bd", "fusion_lat": 0.0, "lon": -77.006063, "type": "electric_scooter", "fusion_lon": 0.0, "lat": 38.905773333333336}, {"rental_uris": {"android": "https://dc.lft.to/lastmile_qr_scan", "ios": "https://dc.lft.to/lastmile_qr_scan"}, "is_reserved": 0, "is_disabled": 0, "name": "5ee046377dc12154317c7a0c86be2b06", "bike_id": "5ee046377dc12154317c7a0c86be2b06", "fusion_lat": 0.0, "lon": -77.0387765, "type": "electric_scooter", "fusion_lon": 0.0, "lat": 38.93205666666667}, {"rental_uris": {"android": "https://dc.lft.to/lastmile_qr_scan", "ios": "https://dc.lft.to/lastmile_qr_scan"}, "is_reserved": 0, "is_disabled": 0, "name": "fc2a1813765dac3e2d5b51ff12e8b1b3", "bike_id": "fc2a1813765dac3e2d5b51ff12e8b1b3", "fusion_lat": 0.0, "lon": -77.016563, "type": "electric_scooter", "fusion_lon": 0.0, "lat": 38.942131}, {"rental_uris": {"android": "https://dc.lft.to/lastmile_qr_scan", "ios": "https://dc.lft.to/lastmile_qr_scan"}, "is_reserved": 0, "is_disabled": 0, "name": "0099c53a96df0d0aab115a6c322c55a7", "bike_id": "0099c53a96df0d0aab115a6c322c55a7", "fusion_lat": 0.0, "lon": -77.04601116666667, "type": "electric_scooter", "fusion_lon": 0.0, "lat": 38.91659833333333}, {"rental_uris": {"android": "https://dc.lft.to/lastmile_qr_scan", "ios": "https://dc.lft.to/lastmile_qr_scan"}, "is_reserved": 0, "is_disabled": 0, "name": "daa128ddb253a87a366ce2968d87e49b", "bike_id": "daa128ddb253a87a366ce2968d87e49b", "fusion_lat": 0.0, "lon": -77.02181233333333, "type": "electric_scooter", "fusion_lon": 0.0, "lat": 38.921861666666665}, {"rental_uris": {"android": "https://dc.lft.to/lastmile_qr_scan", "ios": "https://dc.lft.to/lastmile_qr_scan"}, "is_reserved": 0, "is_disabled": 0, "name": "2752c4a8180b9bc54451f45dd7b37577", "bike_id": "2752c4a8180b9bc54451f45dd7b37577", "fusion_lat": 0.0, "lon": -77.00057416666667, "type": "electric_scooter", "fusion_lon": 0.0, "lat": 38.8788585}, {"rental_uris": {"android": "https://dc.lft.to/lastmile_qr_scan", "ios": "https://dc.lft.to/lastmile_qr_scan"}, "is_reserved": 0, "is_disabled": 0, "name": "d591824cf5c4464bd5b4dda24b96baeb", "bike_id": "d591824cf5c4464bd5b4dda24b96baeb", "fusion_lat": 0.0, "lon": -77.00799116666667, "type": "electric_scooter", "fusion_lon": 0.0, "lat": 38.89716416666667}, {"rental_uris": {"android": "https://dc.lft.to/lastmile_qr_scan", "ios": "https://dc.lft.to/lastmile_qr_scan"}, "is_reserved": 0, "is_disabled": 0, "name": "d32c4a93e3f5e936a80a24670e70f930", "bike_id": "d32c4a93e3f5e936a80a24670e70f930", "fusion_lat": 0.0, "lon": -77.02132333333333, "type": "electric_scooter", "fusion_lon": 0.0, "lat": 38.9279755}, {"rental_uris": {"android": "https://dc.lft.to/lastmile_qr_scan", "ios": "https://dc.lft.to/lastmile_qr_scan"}, "is_reserved": 0, "is_disabled": 0, "name": "3767708e8a8deb2ef2822378295e9d24", "bike_id": "3767708e8a8deb2ef2822378295e9d24", "fusion_lat": 0.0, "lon": -77.022455, "type": "electric_scooter", "fusion_lon": 0.0, "lat": 38.916389333333335}, {"rental_uris": {"android": "https://dc.lft.to/lastmile_qr_scan", "ios": "https://dc.lft.to/lastmile_qr_scan"}, "is_reserved": 0, "is_disabled": 0, "name": "b47ec1169baff7b76455b27e52f743df", "bike_id": "b47ec1169baff7b76455b27e52f743df", "fusion_lat": 0.0, "lon": -77.02977166666666, "type": "electric_scooter", "fusion_lon": 0.0, "lat": 38.89612616666667}, {"rental_uris": {"android": "https://dc.lft.to/lastmile_qr_scan", "ios": "https://dc.lft.to/lastmile_qr_scan"}, "is_reserved": 0, "is_disabled": 0, "name": "dc5dce81a5e7161e83602d08aa3edd0b", "bike_id": "dc5dce81a5e7161e83602d08aa3edd0b", "fusion_lat": 0.0, "lon": -77.05118266666666, "type": "electric_scooter", "fusion_lon": 0.0, "lat": 38.923425}, {"rental_uris": {"android": "https://dc.lft.to/lastmile_qr_scan", "ios": "https://dc.lft.to/lastmile_qr_scan"}, "is_reserved": 0, "is_disabled": 0, "name": "53d09a82482649ea57ea6e0a31609f30", "bike_id": "53d09a82482649ea57ea6e0a31609f30", "fusion_lat": 0.0, "lon": -76.977188, "type": "electric_scooter", "fusion_lon": 0.0, "lat": 38.88822166666667}, {"rental_uris": {"android": "https://dc.lft.to/lastmile_qr_scan", "ios": "https://dc.lft.to/lastmile_qr_scan"}, "is_reserved": 0, "is_disabled": 0, "name": "782a6bbb9ce74b76b6addbaa13134a38", "bike_id": "782a6bbb9ce74b76b6addbaa13134a38", "fusion_lat": 0.0, "lon": -76.98951133333334, "type": "electric_bike", "fusion_lon": 0.0, "lat": 38.834088666666666}, {"rental_uris": {"android": "https://dc.lft.to/lastmile_qr_scan", "ios": "https://dc.lft.to/lastmile_qr_scan"}, "is_reserved": 0, "is_disabled": 0, "name": "d8e4a7cfcfbce92a2eb55a9b21ecfcc4", "bike_id": "d8e4a7cfcfbce92a2eb55a9b21ecfcc4", "fusion_lat": 0.0, "lon": -77.02601183333333, "type": "electric_scooter", "fusion_lon": 0.0, "lat": 38.917100166666664}, {"rental_uris": {"android": "https://dc.lft.to/lastmile_qr_scan", "ios": "https://dc.lft.to/lastmile_qr_scan"}, "is_reserved": 0, "is_disabled": 0, "name": "7b66655e09a6f32a4459bd80ff960f38", "bike_id": "7b66655e09a6f32a4459bd80ff960f38", "fusion_lat": 0.0, "lon": -76.923734, "type": "electric_scooter", "fusion_lon": 0.0, "lat": 38.892489833333336}, {"rental_uris": {"android": "https://dc.lft.to/lastmile_qr_scan", "ios": "https://dc.lft.to/lastmile_qr_scan"}, "is_reserved": 0, "is_disabled": 0, "name": "c25fa2a0043875d7bfbd39f2f8ab8b04", "bike_id": "c25fa2a0043875d7bfbd39f2f8ab8b04", "fusion_lat": 0.0, "lon": -76.98791883333334, "type": "electric_scooter", "fusion_lon": 0.0, "lat": 38.900242166666665}, {"rental_uris": {"android": "https://dc.lft.to/lastmile_qr_scan", "ios": "https://dc.lft.to/lastmile_qr_scan"}, "is_reserved": 0, "is_disabled": 0, "name": "8a215d855f419fd828117a0073975e00", "bike_id": "8a215d855f419fd828117a0073975e00", "fusion_lat": 0.0, "lon": -77.05462816666666, "type": "electric_scooter", "fusion_lon": 0.0, "lat": 38.929116666666665}, {"rental_uris": {"android": "https://dc.lft.to/lastmile_qr_scan", "ios": "https://dc.lft.to/lastmile_qr_scan"}, "is_reserved": 0, "is_disabled": 0, "name": "35e9f05455e52a2de2451c81a347058b", "bike_id": "35e9f05455e52a2de2451c81a347058b", "fusion_lat": 0.0, "lon": -77.00725333333334, "type": "electric_scooter", "fusion_lon": 0.0, "lat": 38.90548}, {"rental_uris": {"android": "https://dc.lft.to/lastmile_qr_scan", "ios": "https://dc.lft.to/lastmile_qr_scan"}, "is_reserved": 0, "is_disabled": 0, "name": "bee8349a635639ef17950ac7275e04bd", "bike_id": "bee8349a635639ef17950ac7275e04bd", "fusion_lat": 0.0, "lon": -77.01738816666666, "type": "electric_scooter", "fusion_lon": 0.0, "lat": 38.8771095}, {"rental_uris": {"android": "https://dc.lft.to/lastmile_qr_scan", "ios": "https://dc.lft.to/lastmile_qr_scan"}, "is_reserved": 0, "is_disabled": 0, "name": "05538301b83cfa471be7cb6431d9588b", "bike_id": "05538301b83cfa471be7cb6431d9588b", "fusion_lat": 0.0, "lon": -77.04000816666667, "type": "electric_scooter", "fusion_lon": 0.0, "lat": 38.9342435}, {"rental_uris": {"android": "https://dc.lft.to/lastmile_qr_scan", "ios": "https://dc.lft.to/lastmile_qr_scan"}, "is_reserved": 0, "is_disabled": 0, "name": "915e1741d9913b1a07f579b624a9441e", "bike_id": "915e1741d9913b1a07f579b624a9441e", "fusion_lat": 0.0, "lon": -77.02934133333333, "type": "electric_scooter", "fusion_lon": 0.0, "lat": 38.932478}, {"rental_uris": {"android": "https://dc.lft.to/lastmile_qr_scan", "ios": "https://dc.lft.to/lastmile_qr_scan"}, "is_reserved": 0, "is_disabled": 0, "name": "7f1e84ee7225f4a152772a0ec8860fd5", "bike_id": "7f1e84ee7225f4a152772a0ec8860fd5", "fusion_lat": 0.0, "lon": -77.019612, "type": "electric_scooter", "fusion_lon": 0.0, "lat": 38.923356}, {"rental_uris": {"android": "https://dc.lft.to/lastmile_qr_scan", "ios": "https://dc.lft.to/lastmile_qr_scan"}, "is_reserved": 0, "is_disabled": 0, "name": "619d15ca14e52461c7c4e043f1f166b2", "bike_id": "619d15ca14e52461c7c4e043f1f166b2", "fusion_lat": 0.0, "lon": -77.01619916666667, "type": "electric_scooter", "fusion_lon": 0.0, "lat": 38.906086333333334}, {"rental_uris": {"android": "https://dc.lft.to/lastmile_qr_scan", "ios": "https://dc.lft.to/lastmile_qr_scan"}, "is_reserved": 0, "is_disabled": 0, "name": "54eff17c57218c51ae224009ec016db5", "bike_id": "54eff17c57218c51ae224009ec016db5", "fusion_lat": 0.0, "lon": -77.023758, "type": "electric_scooter", "fusion_lon": 0.0, "lat": 38.892194333333336}, {"rental_uris": {"android": "https://dc.lft.to/lastmile_qr_scan", "ios": "https://dc.lft.to/lastmile_qr_scan"}, "is_reserved": 0, "is_disabled": 0, "name": "9d5d348972f4901a6258c5b8a5b00df5", "bike_id": "9d5d348972f4901a6258c5b8a5b00df5", "fusion_lat": 0.0, "lon": -77.04677433333333, "type": "electric_scooter", "fusion_lon": 0.0, "lat": 38.90305933333333}, {"rental_uris": {"android": "https://dc.lft.to/lastmile_qr_scan", "ios": "https://dc.lft.to/lastmile_qr_scan"}, "is_reserved": 0, "is_disabled": 0, "name": "8581c1d5e70e2a0a2d1fe64b52f76d40", "bike_id": "8581c1d5e70e2a0a2d1fe64b52f76d40", "fusion_lat": 0.0, "lon": -77.04250333333333, "type": "electric_scooter", "fusion_lon": 0.0, "lat": 38.91778166666667}, {"rental_uris": {"android": "https://dc.lft.to/lastmile_qr_scan", "ios": "https://dc.lft.to/lastmile_qr_scan"}, "is_reserved": 0, "is_disabled": 0, "name": "6364967bd441e085c108f3457ec8ef2c", "bike_id": "6364967bd441e085c108f3457ec8ef2c", "fusion_lat": 0.0, "lon": -76.96889566666667, "type": "electric_bike", "fusion_lon": 0.0, "lat": 38.86987166666667}, {"rental_uris": {"android": "https://dc.lft.to/lastmile_qr_scan", "ios": "https://dc.lft.to/lastmile_qr_scan"}, "is_reserved": 0, "is_disabled": 0, "name": "4e1f67999c55575f30e9a0e69e46e568", "bike_id": "4e1f67999c55575f30e9a0e69e46e568", "fusion_lat": 0.0, "lon": -77.02300616666666, "type": "electric_scooter", "fusion_lon": 0.0, "lat": 38.91628466666667}, {"rental_uris": {"android": "https://dc.lft.to/lastmile_qr_scan", "ios": "https://dc.lft.to/lastmile_qr_scan"}, "is_reserved": 0, "is_disabled": 0, "name": "a78b0926c1961d60043b68477b37ce64", "bike_id": "a78b0926c1961d60043b68477b37ce64", "fusion_lat": 0.0, "lon": -76.9962345, "type": "electric_scooter", "fusion_lon": 0.0, "lat": 38.877341666666666}, {"rental_uris": {"android": "https://dc.lft.to/lastmile_qr_scan", "ios": "https://dc.lft.to/lastmile_qr_scan"}, "is_reserved": 0, "is_disabled": 0, "name": "f0ad9ba24ed2c00f98f7509a3f8ceec1", "bike_id": "f0ad9ba24ed2c00f98f7509a3f8ceec1", "fusion_lat": 0.0, "lon": -77.1289955, "type": "electric_bike", "fusion_lon": 0.0, "lat": 38.90615716666667}, {"rental_uris": {"android": "https://dc.lft.to/lastmile_qr_scan", "ios": "https://dc.lft.to/lastmile_qr_scan"}, "is_reserved": 0, "is_disabled": 0, "name": "b656f7d4ef1a89d82162351398f4124b", "bike_id": "b656f7d4ef1a89d82162351398f4124b", "fusion_lat": 0.0, "lon": -77.023222, "type": "electric_scooter", "fusion_lon": 0.0, "lat": 38.916754166666664}, {"rental_uris": {"android": "https://dc.lft.to/lastmile_qr_scan", "ios": "https://dc.lft.to/lastmile_qr_scan"}, "is_reserved": 0, "is_disabled": 0, "name": "19a0145e71a18438a208b8270f54b852", "bike_id": "19a0145e71a18438a208b8270f54b852", "fusion_lat": 0.0, "lon": -77.033178, "type": "electric_scooter", "fusion_lon": 0.0, "lat": 38.90021133333333}, {"rental_uris": {"android": "https://dc.lft.to/lastmile_qr_scan", "ios": "https://dc.lft.to/lastmile_qr_scan"}, "is_reserved": 0, "is_disabled": 0, "name": "89d6740595b91198308fd24a8159e86e", "bike_id": "89d6740595b91198308fd24a8159e86e", "fusion_lat": 0.0, "lon": -77.02147266666667, "type": "electric_scooter", "fusion_lon": 0.0, "lat": 38.90481716666667}, {"rental_uris": {"android": "https://dc.lft.to/lastmile_qr_scan", "ios": "https://dc.lft.to/lastmile_qr_scan"}, "is_reserved": 0, "is_disabled": 0, "name": "642d5262dd148192d74557b35f2af45e", "bike_id": "642d5262dd148192d74557b35f2af45e", "fusion_lat": 0.0, "lon": -77.0433975, "type": "electric_scooter", "fusion_lon": 0.0, "lat": 38.9130055}, {"rental_uris": {"android": "https://dc.lft.to/lastmile_qr_scan", "ios": "https://dc.lft.to/lastmile_qr_scan"}, "is_reserved": 0, "is_disabled": 0, "name": "1a64e66a347320633ec3f0fe024b488d", "bike_id": "1a64e66a347320633ec3f0fe024b488d", "fusion_lat": 0.0, "lon": -77.02660583333333, "type": "electric_scooter", "fusion_lon": 0.0, "lat": 38.92174283333333}, {"rental_uris": {"android": "https://dc.lft.to/lastmile_qr_scan", "ios": "https://dc.lft.to/lastmile_qr_scan"}, "is_reserved": 0, "is_disabled": 0, "name": "b883e5227b34d8b5ce79b176b99241fc", "bike_id": "b883e5227b34d8b5ce79b176b99241fc", "fusion_lat": 0.0, "lon": -77.02081216666667, "type": "electric_scooter", "fusion_lon": 0.0, "lat": 38.927050333333334}, {"rental_uris": {"android": "https://dc.lft.to/lastmile_qr_scan", "ios": "https://dc.lft.to/lastmile_qr_scan"}, "is_reserved": 0, "is_disabled": 0, "name": "cc708fd583d03f73bebf152823b34893", "bike_id": "cc708fd583d03f73bebf152823b34893", "fusion_lat": 0.0, "lon": -77.02697383333333, "type": "electric_scooter", "fusion_lon": 0.0, "lat": 38.949789333333335}, {"rental_uris": {"android": "https://dc.lft.to/lastmile_qr_scan", "ios": "https://dc.lft.to/lastmile_qr_scan"}, "is_reserved": 0, "is_disabled": 0, "name": "632f15f04ad79b30ce7a9f7f139224c3", "bike_id": "632f15f04ad79b30ce7a9f7f139224c3", "fusion_lat": 0.0, "lon": -76.9849905, "type": "electric_scooter", "fusion_lon": 0.0, "lat": 38.860632}, {"rental_uris": {"android": "https://dc.lft.to/lastmile_qr_scan", "ios": "https://dc.lft.to/lastmile_qr_scan"}, "is_reserved": 0, "is_disabled": 0, "name": "7771a34587a1c2f705409c75fa836863", "bike_id": "7771a34587a1c2f705409c75fa836863", "fusion_lat": 0.0, "lon": -77.0326595, "type": "electric_scooter", "fusion_lon": 0.0, "lat": 38.934148}, {"rental_uris": {"android": "https://dc.lft.to/lastmile_qr_scan", "ios": "https://dc.lft.to/lastmile_qr_scan"}, "is_reserved": 0, "is_disabled": 0, "name": "f8183d298be3c31c9cfac2f844dc39f6", "bike_id": "f8183d298be3c31c9cfac2f844dc39f6", "fusion_lat": 0.0, "lon": -77.033681, "type": "electric_scooter", "fusion_lon": 0.0, "lat": 38.902907166666665}, {"rental_uris": {"android": "https://dc.lft.to/lastmile_qr_scan", "ios": "https://dc.lft.to/lastmile_qr_scan"}, "is_reserved": 0, "is_disabled": 0, "name": "81beb0a1e668fa8e36da8e0ce8637604", "bike_id": "81beb0a1e668fa8e36da8e0ce8637604", "fusion_lat": 0.0, "lon": -77.03185683333334, "type": "electric_scooter", "fusion_lon": 0.0, "lat": 38.919304333333336}, {"rental_uris": {"android": "https://dc.lft.to/lastmile_qr_scan", "ios": "https://dc.lft.to/lastmile_qr_scan"}, "is_reserved": 0, "is_disabled": 0, "name": "b96c158d89abca057b7564c3aecfcc2e", "bike_id": "b96c158d89abca057b7564c3aecfcc2e", "fusion_lat": 0.0, "lon": -77.02604233333334, "type": "electric_scooter", "fusion_lon": 0.0, "lat": 38.920394333333334}, {"rental_uris": {"android": "https://dc.lft.to/lastmile_qr_scan", "ios": "https://dc.lft.to/lastmile_qr_scan"}, "is_reserved": 0, "is_disabled": 0, "name": "a195e503292e40a46cffdc4456731bfc", "bike_id": "a195e503292e40a46cffdc4456731bfc", "fusion_lat": 0.0, "lon": -77.02857216666666, "type": "electric_scooter", "fusion_lon": 0.0, "lat": 38.93532833333333}, {"rental_uris": {"android": "https://dc.lft.to/lastmile_qr_scan", "ios": "https://dc.lft.to/lastmile_qr_scan"}, "is_reserved": 0, "is_disabled": 0, "name": "5c20c60b98bb860e3dbe0b4dfbeb9f0f", "bike_id": "5c20c60b98bb860e3dbe0b4dfbeb9f0f", "fusion_lat": 0.0, "lon": -77.051368, "type": "electric_scooter", "fusion_lon": 0.0, "lat": 38.90642966666667}, {"rental_uris": {"android": "https://dc.lft.to/lastmile_qr_scan", "ios": "https://dc.lft.to/lastmile_qr_scan"}, "is_reserved": 0, "is_disabled": 0, "name": "b7ff6c5088ae2e248e3e2e53d376e6ae", "bike_id": "b7ff6c5088ae2e248e3e2e53d376e6ae", "fusion_lat": 0.0, "lon": -77.0062125, "type": "electric_scooter", "fusion_lon": 0.0, "lat": 38.87545333333333}, {"rental_uris": {"android": "https://dc.lft.to/lastmile_qr_scan", "ios": "https://dc.lft.to/lastmile_qr_scan"}, "is_reserved": 0, "is_disabled": 0, "name": "5711281e817164a00c46769de9e170c1", "bike_id": "5711281e817164a00c46769de9e170c1", "fusion_lat": 0.0, "lon": -77.031911, "type": "electric_scooter", "fusion_lon": 0.0, "lat": 38.916043}, {"rental_uris": {"android": "https://dc.lft.to/lastmile_qr_scan", "ios": "https://dc.lft.to/lastmile_qr_scan"}, "is_reserved": 0, "is_disabled": 0, "name": "4afc697681b48ef47df7086be3a69857", "bike_id": "4afc697681b48ef47df7086be3a69857", "fusion_lat": 0.0, "lon": -77.02107733333334, "type": "electric_scooter", "fusion_lon": 0.0, "lat": 38.905686333333335}, {"rental_uris": {"android": "https://dc.lft.to/lastmile_qr_scan", "ios": "https://dc.lft.to/lastmile_qr_scan"}, "is_reserved": 0, "is_disabled": 0, "name": "24f3c652431c733ca2759898b43a174b", "bike_id": "24f3c652431c733ca2759898b43a174b", "fusion_lat": 0.0, "lon": -77.02254533333333, "type": "electric_scooter", "fusion_lon": 0.0, "lat": 38.893629833333335}, {"rental_uris": {"android": "https://dc.lft.to/lastmile_qr_scan", "ios": "https://dc.lft.to/lastmile_qr_scan"}, "is_reserved": 0, "is_disabled": 0, "name": "3ae36e3d2956cb1aa39c1621a95fd08a", "bike_id": "3ae36e3d2956cb1aa39c1621a95fd08a", "fusion_lat": 0.0, "lon": -77.08319966666667, "type": "electric_bike", "fusion_lon": 0.0, "lat": 38.93348433333333}, {"rental_uris": {"android": "https://dc.lft.to/lastmile_qr_scan", "ios": "https://dc.lft.to/lastmile_qr_scan"}, "is_reserved": 0, "is_disabled": 0, "name": "645872b420e40784555aa3ff586cff08", "bike_id": "645872b420e40784555aa3ff586cff08", "fusion_lat": 0.0, "lon": -77.02605516666667, "type": "electric_scooter", "fusion_lon": 0.0, "lat": 38.92597283333333}, {"rental_uris": {"android": "https://dc.lft.to/lastmile_qr_scan", "ios": "https://dc.lft.to/lastmile_qr_scan"}, "is_reserved": 0, "is_disabled": 0, "name": "c2346b9d957892a0f529c514645facd9", "bike_id": "c2346b9d957892a0f529c514645facd9", "fusion_lat": 0.0, "lon": -76.98582983333333, "type": "electric_scooter", "fusion_lon": 0.0, "lat": 38.900338}, {"rental_uris": {"android": "https://dc.lft.to/lastmile_qr_scan", "ios": "https://dc.lft.to/lastmile_qr_scan"}, "is_reserved": 0, "is_disabled": 0, "name": "c977b6591a403b65bd91f2dc12493abf", "bike_id": "c977b6591a403b65bd91f2dc12493abf", "fusion_lat": 0.0, "lon": -77.03448266666666, "type": "electric_scooter", "fusion_lon": 0.0, "lat": 38.90952583333333}, {"rental_uris": {"android": "https://dc.lft.to/lastmile_qr_scan", "ios": "https://dc.lft.to/lastmile_qr_scan"}, "is_reserved": 0, "is_disabled": 0, "name": "7667980b6f4206701d6c283937c5fad6", "bike_id": "7667980b6f4206701d6c283937c5fad6", "fusion_lat": 0.0, "lon": -77.0248515, "type": "electric_scooter", "fusion_lon": 0.0, "lat": 38.92065783333334}, {"rental_uris": {"android": "https://dc.lft.to/lastmile_qr_scan", "ios": "https://dc.lft.to/lastmile_qr_scan"}, "is_reserved": 0, "is_disabled": 0, "name": "ee57f2208441520d81636bed94a21dc3", "bike_id": "ee57f2208441520d81636bed94a21dc3", "fusion_lat": 0.0, "lon": -77.05600383333334, "type": "electric_scooter", "fusion_lon": 0.0, "lat": 38.894246333333335}, {"rental_uris": {"android": "https://dc.lft.to/lastmile_qr_scan", "ios": "https://dc.lft.to/lastmile_qr_scan"}, "is_reserved": 0, "is_disabled": 0, "name": "82b13f760629f6d48ba6e6dde02fe425", "bike_id": "82b13f760629f6d48ba6e6dde02fe425", "fusion_lat": 0.0, "lon": -76.99518366666666, "type": "electric_scooter", "fusion_lon": 0.0, "lat": 38.90263366666667}, {"rental_uris": {"android": "https://dc.lft.to/lastmile_qr_scan", "ios": "https://dc.lft.to/lastmile_qr_scan"}, "is_reserved": 0, "is_disabled": 0, "name": "e05aacb7f4781dfcb7072753927158f0", "bike_id": "e05aacb7f4781dfcb7072753927158f0", "fusion_lat": 0.0, "lon": -77.02909633333333, "type": "electric_scooter", "fusion_lon": 0.0, "lat": 38.932927166666666}, {"rental_uris": {"android": "https://dc.lft.to/lastmile_qr_scan", "ios": "https://dc.lft.to/lastmile_qr_scan"}, "is_reserved": 0, "is_disabled": 0, "name": "138eeb84fb903d7dd8fc1d6f79264742", "bike_id": "138eeb84fb903d7dd8fc1d6f79264742", "fusion_lat": 0.0, "lon": -77.03436683333334, "type": "electric_scooter", "fusion_lon": 0.0, "lat": 38.91786616666667}, {"rental_uris": {"android": "https://dc.lft.to/lastmile_qr_scan", "ios": "https://dc.lft.to/lastmile_qr_scan"}, "is_reserved": 0, "is_disabled": 0, "name": "b97a34d4a90c3ca0c89a896f63af7db9", "bike_id": "b97a34d4a90c3ca0c89a896f63af7db9", "fusion_lat": 0.0, "lon": -77.013349, "type": "electric_scooter", "fusion_lon": 0.0, "lat": 38.881274166666664}, {"rental_uris": {"android": "https://dc.lft.to/lastmile_qr_scan", "ios": "https://dc.lft.to/lastmile_qr_scan"}, "is_reserved": 0, "is_disabled": 0, "name": "cba28d9b4a388a390f0a99f92bcbd421", "bike_id": "cba28d9b4a388a390f0a99f92bcbd421", "fusion_lat": 0.0, "lon": -77.03019983333333, "type": "electric_scooter", "fusion_lon": 0.0, "lat": 38.89527983333333}, {"rental_uris": {"android": "https://dc.lft.to/lastmile_qr_scan", "ios": "https://dc.lft.to/lastmile_qr_scan"}, "is_reserved": 0, "is_disabled": 0, "name": "d3e0345f23cbffefb9c689d53a22ef7d", "bike_id": "d3e0345f23cbffefb9c689d53a22ef7d", "fusion_lat": 0.0, "lon": -77.02140033333333, "type": "electric_scooter", "fusion_lon": 0.0, "lat": 38.894081666666665}, {"rental_uris": {"android": "https://dc.lft.to/lastmile_qr_scan", "ios": "https://dc.lft.to/lastmile_qr_scan"}, "is_reserved": 0, "is_disabled": 0, "name": "4e231ec4e6bb9c9c0d41ae20f5a11c7b", "bike_id": "4e231ec4e6bb9c9c0d41ae20f5a11c7b", "fusion_lat": 0.0, "lon": -77.039973, "type": "electric_scooter", "fusion_lon": 0.0, "lat": 38.91762416666667}, {"rental_uris": {"android": "https://dc.lft.to/lastmile_qr_scan", "ios": "https://dc.lft.to/lastmile_qr_scan"}, "is_reserved": 0, "is_disabled": 0, "name": "dea73efb0b51d0197937a6f993ea30a6", "bike_id": "dea73efb0b51d0197937a6f993ea30a6", "fusion_lat": 0.0, "lon": -77.03041783333333, "type": "electric_scooter", "fusion_lon": 0.0, "lat": 38.90985633333333}, {"rental_uris": {"android": "https://dc.lft.to/lastmile_qr_scan", "ios": "https://dc.lft.to/lastmile_qr_scan"}, "is_reserved": 0, "is_disabled": 0, "name": "37865134e66492688ae5d052d6807f99", "bike_id": "37865134e66492688ae5d052d6807f99", "fusion_lat": 0.0, "lon": -77.04514816666666, "type": "electric_scooter", "fusion_lon": 0.0, "lat": 38.907896666666666}, {"rental_uris": {"android": "https://dc.lft.to/lastmile_qr_scan", "ios": "https://dc.lft.to/lastmile_qr_scan"}, "is_reserved": 0, "is_disabled": 0, "name": "50447644977a08df505b89e7cb0c954b", "bike_id": "50447644977a08df505b89e7cb0c954b", "fusion_lat": 0.0, "lon": -77.0487915, "type": "electric_scooter", "fusion_lon": 0.0, "lat": 38.90084566666667}, {"rental_uris": {"android": "https://dc.lft.to/lastmile_qr_scan", "ios": "https://dc.lft.to/lastmile_qr_scan"}, "is_reserved": 0, "is_disabled": 0, "name": "d763e3e88f5f88028bed76db0b034237", "bike_id": "d763e3e88f5f88028bed76db0b034237", "fusion_lat": 0.0, "lon": -77.03183633333333, "type": "electric_scooter", "fusion_lon": 0.0, "lat": 38.89777933333333}, {"rental_uris": {"android": "https://dc.lft.to/lastmile_qr_scan", "ios": "https://dc.lft.to/lastmile_qr_scan"}, "is_reserved": 0, "is_disabled": 0, "name": "13e311c875ab9e5f6ec08c65f2228da0", "bike_id": "13e311c875ab9e5f6ec08c65f2228da0", "fusion_lat": 0.0, "lon": -77.03665033333333, "type": "electric_scooter", "fusion_lon": 0.0, "lat": 38.92271566666667}, {"rental_uris": {"android": "https://dc.lft.to/lastmile_qr_scan", "ios": "https://dc.lft.to/lastmile_qr_scan"}, "is_reserved": 0, "is_disabled": 0, "name": "27cc964bdeb0c65d990ea6ef9481698d", "bike_id": "27cc964bdeb0c65d990ea6ef9481698d", "fusion_lat": 0.0, "lon": -77.02695383333334, "type": "electric_scooter", "fusion_lon": 0.0, "lat": 38.9167355}, {"rental_uris": {"android": "https://dc.lft.to/lastmile_qr_scan", "ios": "https://dc.lft.to/lastmile_qr_scan"}, "is_reserved": 0, "is_disabled": 0, "name": "37ad587c5668f2d661cde195842f9225", "bike_id": "37ad587c5668f2d661cde195842f9225", "fusion_lat": 0.0, "lon": -77.03535316666667, "type": "electric_scooter", "fusion_lon": 0.0, "lat": 38.91698783333333}, {"rental_uris": {"android": "https://dc.lft.to/lastmile_qr_scan", "ios": "https://dc.lft.to/lastmile_qr_scan"}, "is_reserved": 0, "is_disabled": 0, "name": "9d2a02a0e952030b9a56d141cb4da979", "bike_id": "9d2a02a0e952030b9a56d141cb4da979", "fusion_lat": 0.0, "lon": -77.03789166666667, "type": "electric_scooter", "fusion_lon": 0.0, "lat": 38.925708}, {"rental_uris": {"android": "https://dc.lft.to/lastmile_qr_scan", "ios": "https://dc.lft.to/lastmile_qr_scan"}, "is_reserved": 0, "is_disabled": 0, "name": "2e51fb0bdd2890b94a952ee12827d6f2", "bike_id": "2e51fb0bdd2890b94a952ee12827d6f2", "fusion_lat": 0.0, "lon": -77.04427666666666, "type": "electric_scooter", "fusion_lon": 0.0, "lat": 38.896058333333336}, {"rental_uris": {"android": "https://dc.lft.to/lastmile_qr_scan", "ios": "https://dc.lft.to/lastmile_qr_scan"}, "is_reserved": 0, "is_disabled": 0, "name": "ba8cfae24023cd39882dae816d4055c6", "bike_id": "ba8cfae24023cd39882dae816d4055c6", "fusion_lat": 0.0, "lon": -77.02388016666667, "type": "electric_scooter", "fusion_lon": 0.0, "lat": 38.916583}, {"rental_uris": {"android": "https://dc.lft.to/lastmile_qr_scan", "ios": "https://dc.lft.to/lastmile_qr_scan"}, "is_reserved": 0, "is_disabled": 0, "name": "915b2e06037000e9e1384ee9de75abe9", "bike_id": "915b2e06037000e9e1384ee9de75abe9", "fusion_lat": 0.0, "lon": -77.06950466666666, "type": "electric_bike", "fusion_lon": 0.0, "lat": 38.83630383333333}, {"rental_uris": {"android": "https://dc.lft.to/lastmile_qr_scan", "ios": "https://dc.lft.to/lastmile_qr_scan"}, "is_reserved": 0, "is_disabled": 0, "name": "d2e00e77e07b72ef30adb454e7984eef", "bike_id": "d2e00e77e07b72ef30adb454e7984eef", "fusion_lat": 0.0, "lon": -77.024603, "type": "electric_scooter", "fusion_lon": 0.0, "lat": 38.95780966666667}, {"rental_uris": {"android": "https://dc.lft.to/lastmile_qr_scan", "ios": "https://dc.lft.to/lastmile_qr_scan"}, "is_reserved": 0, "is_disabled": 0, "name": "c2de985969fdcb53d3fead5e8c111b03", "bike_id": "c2de985969fdcb53d3fead5e8c111b03", "fusion_lat": 0.0, "lon": -77.05819383333333, "type": "electric_scooter", "fusion_lon": 0.0, "lat": 38.935306}, {"rental_uris": {"android": "https://dc.lft.to/lastmile_qr_scan", "ios": "https://dc.lft.to/lastmile_qr_scan"}, "is_reserved": 0, "is_disabled": 0, "name": "ead2cf58312783494f0021354c31d266", "bike_id": "ead2cf58312783494f0021354c31d266", "fusion_lat": 0.0, "lon": -77.02447283333333, "type": "electric_scooter", "fusion_lon": 0.0, "lat": 38.94975266666667}, {"rental_uris": {"android": "https://dc.lft.to/lastmile_qr_scan", "ios": "https://dc.lft.to/lastmile_qr_scan"}, "is_reserved": 0, "is_disabled": 0, "name": "9e5b8bd94a0ccb685e55dabab33fd028", "bike_id": "9e5b8bd94a0ccb685e55dabab33fd028", "fusion_lat": 0.0, "lon": -77.03819933333334, "type": "electric_scooter", "fusion_lon": 0.0, "lat": 38.90691283333334}, {"rental_uris": {"android": "https://dc.lft.to/lastmile_qr_scan", "ios": "https://dc.lft.to/lastmile_qr_scan"}, "is_reserved": 0, "is_disabled": 0, "name": "0ea4677c7a8ae6b7d6bfb42bf30af0e7", "bike_id": "0ea4677c7a8ae6b7d6bfb42bf30af0e7", "fusion_lat": 0.0, "lon": -77.00022533333333, "type": "electric_scooter", "fusion_lon": 0.0, "lat": 38.9197865}, {"rental_uris": {"android": "https://dc.lft.to/lastmile_qr_scan", "ios": "https://dc.lft.to/lastmile_qr_scan"}, "is_reserved": 0, "is_disabled": 0, "name": "65bf146d192521b106d765c408847980", "bike_id": "65bf146d192521b106d765c408847980", "fusion_lat": 0.0, "lon": -77.023996, "type": "electric_scooter", "fusion_lon": 0.0, "lat": 38.90976533333333}, {"rental_uris": {"android": "https://dc.lft.to/lastmile_qr_scan", "ios": "https://dc.lft.to/lastmile_qr_scan"}, "is_reserved": 0, "is_disabled": 0, "name": "10dbc4ed901f9bcfb1b1146b28ef81e5", "bike_id": "10dbc4ed901f9bcfb1b1146b28ef81e5", "fusion_lat": 0.0, "lon": -76.97328016666667, "type": "electric_scooter", "fusion_lon": 0.0, "lat": 38.9041}, {"rental_uris": {"android": "https://dc.lft.to/lastmile_qr_scan", "ios": "https://dc.lft.to/lastmile_qr_scan"}, "is_reserved": 0, "is_disabled": 0, "name": "ad02ed89a92853e52eaf3ece5e246fc4", "bike_id": "ad02ed89a92853e52eaf3ece5e246fc4", "fusion_lat": 0.0, "lon": -77.0271575, "type": "electric_bike", "fusion_lon": 0.0, "lat": 38.896237}, {"rental_uris": {"android": "https://dc.lft.to/lastmile_qr_scan", "ios": "https://dc.lft.to/lastmile_qr_scan"}, "is_reserved": 0, "is_disabled": 0, "name": "ed5e538684edf4da82b3ecaf8a2a37fa", "bike_id": "ed5e538684edf4da82b3ecaf8a2a37fa", "fusion_lat": 0.0, "lon": -77.03508983333333, "type": "electric_scooter", "fusion_lon": 0.0, "lat": 38.918851833333335}, {"rental_uris": {"android": "https://dc.lft.to/lastmile_qr_scan", "ios": "https://dc.lft.to/lastmile_qr_scan"}, "is_reserved": 0, "is_disabled": 0, "name": "6d78d2446723ab7fb462a41bc2cfdc58", "bike_id": "6d78d2446723ab7fb462a41bc2cfdc58", "fusion_lat": 0.0, "lon": -77.00343683333334, "type": "electric_scooter", "fusion_lon": 0.0, "lat": 38.89268083333333}, {"rental_uris": {"android": "https://dc.lft.to/lastmile_qr_scan", "ios": "https://dc.lft.to/lastmile_qr_scan"}, "is_reserved": 0, "is_disabled": 0, "name": "0798a256d9b7cfdcb37d74fc87dcabe1", "bike_id": "0798a256d9b7cfdcb37d74fc87dcabe1", "fusion_lat": 0.0, "lon": -76.99869699999999, "type": "electric_scooter", "fusion_lon": 0.0, "lat": 38.90008683333333}, {"rental_uris": {"android": "https://dc.lft.to/lastmile_qr_scan", "ios": "https://dc.lft.to/lastmile_qr_scan"}, "is_reserved": 0, "is_disabled": 0, "name": "7b1d86a30d8ed51f02342a05e10b7542", "bike_id": "7b1d86a30d8ed51f02342a05e10b7542", "fusion_lat": 0.0, "lon": -77.0199065, "type": "electric_scooter", "fusion_lon": 0.0, "lat": 38.91494933333333}, {"rental_uris": {"android": "https://dc.lft.to/lastmile_qr_scan", "ios": "https://dc.lft.to/lastmile_qr_scan"}, "is_reserved": 0, "is_disabled": 0, "name": "9cec34da8b33685beb3240e2892cd89f", "bike_id": "9cec34da8b33685beb3240e2892cd89f", "fusion_lat": 0.0, "lon": -77.00735333333333, "type": "electric_scooter", "fusion_lon": 0.0, "lat": 38.91193766666667}, {"rental_uris": {"android": "https://dc.lft.to/lastmile_qr_scan", "ios": "https://dc.lft.to/lastmile_qr_scan"}, "is_reserved": 0, "is_disabled": 0, "name": "92811b578a85a082de2ef6437db79512", "bike_id": "92811b578a85a082de2ef6437db79512", "fusion_lat": 0.0, "lon": -77.03169316666667, "type": "electric_scooter", "fusion_lon": 0.0, "lat": 38.915564}, {"rental_uris": {"android": "https://dc.lft.to/lastmile_qr_scan", "ios": "https://dc.lft.to/lastmile_qr_scan"}, "is_reserved": 0, "is_disabled": 0, "name": "9a688fc7e4a0bb503da2798c729e9349", "bike_id": "9a688fc7e4a0bb503da2798c729e9349", "fusion_lat": 0.0, "lon": -77.05057483333333, "type": "electric_scooter", "fusion_lon": 0.0, "lat": 38.90314766666667}, {"rental_uris": {"android": "https://dc.lft.to/lastmile_qr_scan", "ios": "https://dc.lft.to/lastmile_qr_scan"}, "is_reserved": 0, "is_disabled": 0, "name": "e79cfeba9d9d768fffa2c9cbe1bc1256", "bike_id": "e79cfeba9d9d768fffa2c9cbe1bc1256", "fusion_lat": 0.0, "lon": -77.02489916666667, "type": "electric_scooter", "fusion_lon": 0.0, "lat": 38.914094166666665}, {"rental_uris": {"android": "https://dc.lft.to/lastmile_qr_scan", "ios": "https://dc.lft.to/lastmile_qr_scan"}, "is_reserved": 0, "is_disabled": 0, "name": "a235441a8bd97f12b70668415b4e41d9", "bike_id": "a235441a8bd97f12b70668415b4e41d9", "fusion_lat": 0.0, "lon": -77.012226, "type": "electric_scooter", "fusion_lon": 0.0, "lat": 38.91516716666667}, {"rental_uris": {"android": "https://dc.lft.to/lastmile_qr_scan", "ios": "https://dc.lft.to/lastmile_qr_scan"}, "is_reserved": 0, "is_disabled": 0, "name": "3283e79d954627eefc8a1ff0bda4d9ff", "bike_id": "3283e79d954627eefc8a1ff0bda4d9ff", "fusion_lat": 0.0, "lon": -77.04002416666667, "type": "electric_scooter", "fusion_lon": 0.0, "lat": 38.934285833333334}, {"rental_uris": {"android": "https://dc.lft.to/lastmile_qr_scan", "ios": "https://dc.lft.to/lastmile_qr_scan"}, "is_reserved": 0, "is_disabled": 0, "name": "1b10cac2747680a410b24a08339bd805", "bike_id": "1b10cac2747680a410b24a08339bd805", "fusion_lat": 0.0, "lon": -77.04183116666667, "type": "electric_scooter", "fusion_lon": 0.0, "lat": 38.92045316666667}, {"rental_uris": {"android": "https://dc.lft.to/lastmile_qr_scan", "ios": "https://dc.lft.to/lastmile_qr_scan"}, "is_reserved": 0, "is_disabled": 0, "name": "1e23fc9a554c1164703699ae27e2cb84", "bike_id": "1e23fc9a554c1164703699ae27e2cb84", "fusion_lat": 0.0, "lon": -76.93630383333333, "type": "electric_scooter", "fusion_lon": 0.0, "lat": 38.88351433333333}, {"rental_uris": {"android": "https://dc.lft.to/lastmile_qr_scan", "ios": "https://dc.lft.to/lastmile_qr_scan"}, "is_reserved": 0, "is_disabled": 0, "name": "1e754c22ac51d7d249e38d638199db86", "bike_id": "1e754c22ac51d7d249e38d638199db86", "fusion_lat": 0.0, "lon": -77.02084333333333, "type": "electric_scooter", "fusion_lon": 0.0, "lat": 38.92240866666667}, {"rental_uris": {"android": "https://dc.lft.to/lastmile_qr_scan", "ios": "https://dc.lft.to/lastmile_qr_scan"}, "is_reserved": 0, "is_disabled": 0, "name": "0779550ffa9648d091d6b2adef288a34", "bike_id": "0779550ffa9648d091d6b2adef288a34", "fusion_lat": 0.0, "lon": -77.0074475, "type": "electric_scooter", "fusion_lon": 0.0, "lat": 38.8761245}, {"rental_uris": {"android": "https://dc.lft.to/lastmile_qr_scan", "ios": "https://dc.lft.to/lastmile_qr_scan"}, "is_reserved": 0, "is_disabled": 0, "name": "51d225069977d47bc9a6546a2f463bf7", "bike_id": "51d225069977d47bc9a6546a2f463bf7", "fusion_lat": 0.0, "lon": -77.01454716666667, "type": "electric_scooter", "fusion_lon": 0.0, "lat": 38.8743005}, {"rental_uris": {"android": "https://dc.lft.to/lastmile_qr_scan", "ios": "https://dc.lft.to/lastmile_qr_scan"}, "is_reserved": 0, "is_disabled": 0, "name": "345c8e10d972170bc1a7d2015fb6b10d", "bike_id": "345c8e10d972170bc1a7d2015fb6b10d", "fusion_lat": 0.0, "lon": -77.02486283333333, "type": "electric_scooter", "fusion_lon": 0.0, "lat": 38.8969715}, {"rental_uris": {"android": "https://dc.lft.to/lastmile_qr_scan", "ios": "https://dc.lft.to/lastmile_qr_scan"}, "is_reserved": 0, "is_disabled": 0, "name": "c82d8694694c850f3277da9a3e6012c4", "bike_id": "c82d8694694c850f3277da9a3e6012c4", "fusion_lat": 0.0, "lon": -77.0432465, "type": "electric_scooter", "fusion_lon": 0.0, "lat": 38.892249666666665}, {"rental_uris": {"android": "https://dc.lft.to/lastmile_qr_scan", "ios": "https://dc.lft.to/lastmile_qr_scan"}, "is_reserved": 0, "is_disabled": 0, "name": "cbfe119cc5059e99546bfe0315db1434", "bike_id": "cbfe119cc5059e99546bfe0315db1434", "fusion_lat": 0.0, "lon": -77.0405595, "type": "electric_scooter", "fusion_lon": 0.0, "lat": 38.908586666666665}, {"rental_uris": {"android": "https://dc.lft.to/lastmile_qr_scan", "ios": "https://dc.lft.to/lastmile_qr_scan"}, "is_reserved": 0, "is_disabled": 0, "name": "98332ebd972b7822485f98764009bcce", "bike_id": "98332ebd972b7822485f98764009bcce", "fusion_lat": 0.0, "lon": -76.99379433333333, "type": "electric_bike", "fusion_lon": 0.0, "lat": 38.991002333333334}, {"rental_uris": {"android": "https://dc.lft.to/lastmile_qr_scan", "ios": "https://dc.lft.to/lastmile_qr_scan"}, "is_reserved": 0, "is_disabled": 0, "name": "c53c66b741174bb549be351b416a2e7f", "bike_id": "c53c66b741174bb549be351b416a2e7f", "fusion_lat": 0.0, "lon": -77.03160383333334, "type": "electric_scooter", "fusion_lon": 0.0, "lat": 38.92098466666667}, {"rental_uris": {"android": "https://dc.lft.to/lastmile_qr_scan", "ios": "https://dc.lft.to/lastmile_qr_scan"}, "is_reserved": 0, "is_disabled": 0, "name": "7c5299df0db3971e4ecae920b75e8d85", "bike_id": "7c5299df0db3971e4ecae920b75e8d85", "fusion_lat": 0.0, "lon": -77.066989, "type": "electric_bike", "fusion_lon": 0.0, "lat": 38.83170416666667}, {"rental_uris": {"android": "https://dc.lft.to/lastmile_qr_scan", "ios": "https://dc.lft.to/lastmile_qr_scan"}, "is_reserved": 0, "is_disabled": 0, "name": "d4623e0c71cf384ccd96397dce8eba7d", "bike_id": "d4623e0c71cf384ccd96397dce8eba7d", "fusion_lat": 0.0, "lon": -77.03864833333333, "type": "electric_scooter", "fusion_lon": 0.0, "lat": 38.90990166666667}, {"rental_uris": {"android": "https://dc.lft.to/lastmile_qr_scan", "ios": "https://dc.lft.to/lastmile_qr_scan"}, "is_reserved": 0, "is_disabled": 0, "name": "b129c06479a965f9de1cf1b006b735af", "bike_id": "b129c06479a965f9de1cf1b006b735af", "fusion_lat": 0.0, "lon": -77.03730833333333, "type": "electric_scooter", "fusion_lon": 0.0, "lat": 38.917094666666664}, {"rental_uris": {"android": "https://dc.lft.to/lastmile_qr_scan", "ios": "https://dc.lft.to/lastmile_qr_scan"}, "is_reserved": 0, "is_disabled": 0, "name": "4215ea12550a01af97e73c9d76391420", "bike_id": "4215ea12550a01af97e73c9d76391420", "fusion_lat": 0.0, "lon": -77.00597933333333, "type": "electric_scooter", "fusion_lon": 0.0, "lat": 38.87638883333333}, {"rental_uris": {"android": "https://dc.lft.to/lastmile_qr_scan", "ios": "https://dc.lft.to/lastmile_qr_scan"}, "is_reserved": 0, "is_disabled": 0, "name": "81082704e9e1bed077a3c40974e0c77e", "bike_id": "81082704e9e1bed077a3c40974e0c77e", "fusion_lat": 0.0, "lon": -77.02527333333333, "type": "electric_scooter", "fusion_lon": 0.0, "lat": 38.9210055}, {"rental_uris": {"android": "https://dc.lft.to/lastmile_qr_scan", "ios": "https://dc.lft.to/lastmile_qr_scan"}, "is_reserved": 0, "is_disabled": 0, "name": "e33fedad700376544ace3f1c99978bf0", "bike_id": "e33fedad700376544ace3f1c99978bf0", "fusion_lat": 0.0, "lon": -76.9976505, "type": "electric_scooter", "fusion_lon": 0.0, "lat": 38.922705666666666}, {"rental_uris": {"android": "https://dc.lft.to/lastmile_qr_scan", "ios": "https://dc.lft.to/lastmile_qr_scan"}, "is_reserved": 0, "is_disabled": 0, "name": "115e89f0542ce1c0b682fcee0fa96323", "bike_id": "115e89f0542ce1c0b682fcee0fa96323", "fusion_lat": 0.0, "lon": -77.01877883333333, "type": "electric_scooter", "fusion_lon": 0.0, "lat": 38.90565133333333}, {"rental_uris": {"android": "https://dc.lft.to/lastmile_qr_scan", "ios": "https://dc.lft.to/lastmile_qr_scan"}, "is_reserved": 0, "is_disabled": 0, "name": "a2685d360c7ee7ff95ff761ccf15084e", "bike_id": "a2685d360c7ee7ff95ff761ccf15084e", "fusion_lat": 0.0, "lon": -77.03466416666667, "type": "electric_scooter", "fusion_lon": 0.0, "lat": 38.928709}, {"rental_uris": {"android": "https://dc.lft.to/lastmile_qr_scan", "ios": "https://dc.lft.to/lastmile_qr_scan"}, "is_reserved": 0, "is_disabled": 0, "name": "fb9cede3ec9d5318f9b3aaeccfbdef30", "bike_id": "fb9cede3ec9d5318f9b3aaeccfbdef30", "fusion_lat": 0.0, "lon": -77.01454466666667, "type": "electric_scooter", "fusion_lon": 0.0, "lat": 38.90721666666666}, {"rental_uris": {"android": "https://dc.lft.to/lastmile_qr_scan", "ios": "https://dc.lft.to/lastmile_qr_scan"}, "is_reserved": 0, "is_disabled": 0, "name": "538aa5080e625c2595e512684f7a77d4", "bike_id": "538aa5080e625c2595e512684f7a77d4", "fusion_lat": 0.0, "lon": -77.07280333333334, "type": "electric_scooter", "fusion_lon": 0.0, "lat": 38.93469066666667}, {"rental_uris": {"android": "https://dc.lft.to/lastmile_qr_scan", "ios": "https://dc.lft.to/lastmile_qr_scan"}, "is_reserved": 0, "is_disabled": 0, "name": "f3f00c4eb77a4be453dbe6ff037a6e9c", "bike_id": "f3f00c4eb77a4be453dbe6ff037a6e9c", "fusion_lat": 0.0, "lon": -76.998715, "type": "electric_scooter", "fusion_lon": 0.0, "lat": 38.900051}, {"rental_uris": {"android": "https://dc.lft.to/lastmile_qr_scan", "ios": "https://dc.lft.to/lastmile_qr_scan"}, "is_reserved": 0, "is_disabled": 0, "name": "dbd5fe2cb7255b7b4f8d150de74fa0fb", "bike_id": "dbd5fe2cb7255b7b4f8d150de74fa0fb", "fusion_lat": 0.0, "lon": -77.0238995, "type": "electric_scooter", "fusion_lon": 0.0, "lat": 38.909737666666665}, {"rental_uris": {"android": "https://dc.lft.to/lastmile_qr_scan", "ios": "https://dc.lft.to/lastmile_qr_scan"}, "is_reserved": 0, "is_disabled": 0, "name": "7f0c89994f56def82eac52dd4e9310a0", "bike_id": "7f0c89994f56def82eac52dd4e9310a0", "fusion_lat": 0.0, "lon": -77.02717216666667, "type": "electric_scooter", "fusion_lon": 0.0, "lat": 38.92466866666667}, {"rental_uris": {"android": "https://dc.lft.to/lastmile_qr_scan", "ios": "https://dc.lft.to/lastmile_qr_scan"}, "is_reserved": 0, "is_disabled": 0, "name": "b0bbc46aad924d14a5e67d2b1304dd8a", "bike_id": "b0bbc46aad924d14a5e67d2b1304dd8a", "fusion_lat": 0.0, "lon": -77.03860016666667, "type": "electric_scooter", "fusion_lon": 0.0, "lat": 38.91722516666667}, {"rental_uris": {"android": "https://dc.lft.to/lastmile_qr_scan", "ios": "https://dc.lft.to/lastmile_qr_scan"}, "is_reserved": 0, "is_disabled": 0, "name": "b821ed559479cead5dc9e63fc1efa7c2", "bike_id": "b821ed559479cead5dc9e63fc1efa7c2", "fusion_lat": 0.0, "lon": -77.00225083333333, "type": "electric_scooter", "fusion_lon": 0.0, "lat": 38.90875616666667}, {"rental_uris": {"android": "https://dc.lft.to/lastmile_qr_scan", "ios": "https://dc.lft.to/lastmile_qr_scan"}, "is_reserved": 0, "is_disabled": 0, "name": "c88d15ef8c134d1d9543a5d01f54d3b1", "bike_id": "c88d15ef8c134d1d9543a5d01f54d3b1", "fusion_lat": 0.0, "lon": -77.04558866666666, "type": "electric_scooter", "fusion_lon": 0.0, "lat": 38.9037665}, {"rental_uris": {"android": "https://dc.lft.to/lastmile_qr_scan", "ios": "https://dc.lft.to/lastmile_qr_scan"}, "is_reserved": 0, "is_disabled": 0, "name": "d75b869185b8f2910d8e692ed0c725fd", "bike_id": "d75b869185b8f2910d8e692ed0c725fd", "fusion_lat": 0.0, "lon": -77.0385595, "type": "electric_scooter", "fusion_lon": 0.0, "lat": 38.916645333333335}, {"rental_uris": {"android": "https://dc.lft.to/lastmile_qr_scan", "ios": "https://dc.lft.to/lastmile_qr_scan"}, "is_reserved": 0, "is_disabled": 0, "name": "6cb152c318a7c31617a84263016fc7c5", "bike_id": "6cb152c318a7c31617a84263016fc7c5", "fusion_lat": 0.0, "lon": -77.04361266666666, "type": "electric_scooter", "fusion_lon": 0.0, "lat": 38.90842383333333}, {"rental_uris": {"android": "https://dc.lft.to/lastmile_qr_scan", "ios": "https://dc.lft.to/lastmile_qr_scan"}, "is_reserved": 0, "is_disabled": 0, "name": "3fc7f48ed25f38f1e94417166a8ce105", "bike_id": "3fc7f48ed25f38f1e94417166a8ce105", "fusion_lat": 0.0, "lon": -77.0254875, "type": "electric_scooter", "fusion_lon": 0.0, "lat": 38.970064666666666}, {"rental_uris": {"android": "https://dc.lft.to/lastmile_qr_scan", "ios": "https://dc.lft.to/lastmile_qr_scan"}, "is_reserved": 0, "is_disabled": 0, "name": "146c2df752b91f74dd896a41f563a214", "bike_id": "146c2df752b91f74dd896a41f563a214", "fusion_lat": 0.0, "lon": -77.022266, "type": "electric_scooter", "fusion_lon": 0.0, "lat": 38.900652}, {"rental_uris": {"android": "https://dc.lft.to/lastmile_qr_scan", "ios": "https://dc.lft.to/lastmile_qr_scan"}, "is_reserved": 0, "is_disabled": 0, "name": "754b67e80dc05b177f7a05dc18da8ae0", "bike_id": "754b67e80dc05b177f7a05dc18da8ae0", "fusion_lat": 0.0, "lon": -77.05503616666667, "type": "electric_scooter", "fusion_lon": 0.0, "lat": 38.928352833333335}, {"rental_uris": {"android": "https://dc.lft.to/lastmile_qr_scan", "ios": "https://dc.lft.to/lastmile_qr_scan"}, "is_reserved": 0, "is_disabled": 0, "name": "def44f6ab731fad4324ba20934f9e136", "bike_id": "def44f6ab731fad4324ba20934f9e136", "fusion_lat": 0.0, "lon": -76.9671225, "type": "electric_scooter", "fusion_lon": 0.0, "lat": 38.85971116666666}, {"rental_uris": {"android": "https://dc.lft.to/lastmile_qr_scan", "ios": "https://dc.lft.to/lastmile_qr_scan"}, "is_reserved": 0, "is_disabled": 0, "name": "289193a28bb974df72e16ef1971e307c", "bike_id": "289193a28bb974df72e16ef1971e307c", "fusion_lat": 0.0, "lon": -77.03247083333333, "type": "electric_scooter", "fusion_lon": 0.0, "lat": 38.9170975}, {"rental_uris": {"android": "https://dc.lft.to/lastmile_qr_scan", "ios": "https://dc.lft.to/lastmile_qr_scan"}, "is_reserved": 0, "is_disabled": 0, "name": "d56114ff2911aa2e3286611444598808", "bike_id": "d56114ff2911aa2e3286611444598808", "fusion_lat": 0.0, "lon": -77.02171816666667, "type": "electric_scooter", "fusion_lon": 0.0, "lat": 38.94290766666667}, {"rental_uris": {"android": "https://dc.lft.to/lastmile_qr_scan", "ios": "https://dc.lft.to/lastmile_qr_scan"}, "is_reserved": 0, "is_disabled": 0, "name": "28c98ceb1e85c326def67c0c37b3e2a1", "bike_id": "28c98ceb1e85c326def67c0c37b3e2a1", "fusion_lat": 0.0, "lon": -77.03059316666666, "type": "electric_scooter", "fusion_lon": 0.0, "lat": 38.9237395}, {"rental_uris": {"android": "https://dc.lft.to/lastmile_qr_scan", "ios": "https://dc.lft.to/lastmile_qr_scan"}, "is_reserved": 0, "is_disabled": 0, "name": "a5d3e99d1db071fe820e9c47b54d59c1", "bike_id": "a5d3e99d1db071fe820e9c47b54d59c1", "fusion_lat": 0.0, "lon": -76.99539816666666, "type": "electric_bike", "fusion_lon": 0.0, "lat": 38.95631783333333}, {"rental_uris": {"android": "https://dc.lft.to/lastmile_qr_scan", "ios": "https://dc.lft.to/lastmile_qr_scan"}, "is_reserved": 0, "is_disabled": 0, "name": "efe0e0ba6d69a825099eaa1cf0b7b6c5", "bike_id": "efe0e0ba6d69a825099eaa1cf0b7b6c5", "fusion_lat": 0.0, "lon": -77.0423245, "type": "electric_scooter", "fusion_lon": 0.0, "lat": 38.9341245}, {"rental_uris": {"android": "https://dc.lft.to/lastmile_qr_scan", "ios": "https://dc.lft.to/lastmile_qr_scan"}, "is_reserved": 0, "is_disabled": 0, "name": "ac9b57781d92a127980e8c9277862402", "bike_id": "ac9b57781d92a127980e8c9277862402", "fusion_lat": 0.0, "lon": -77.0186695, "type": "electric_scooter", "fusion_lon": 0.0, "lat": 38.973672}, {"rental_uris": {"android": "https://dc.lft.to/lastmile_qr_scan", "ios": "https://dc.lft.to/lastmile_qr_scan"}, "is_reserved": 0, "is_disabled": 0, "name": "53ec4a151bbbb898f02c647ff6788514", "bike_id": "53ec4a151bbbb898f02c647ff6788514", "fusion_lat": 0.0, "lon": -77.02175833333334, "type": "electric_scooter", "fusion_lon": 0.0, "lat": 38.887171}, {"rental_uris": {"android": "https://dc.lft.to/lastmile_qr_scan", "ios": "https://dc.lft.to/lastmile_qr_scan"}, "is_reserved": 0, "is_disabled": 0, "name": "f94a7269c3783a66f73bb34a0aab1ba2", "bike_id": "f94a7269c3783a66f73bb34a0aab1ba2", "fusion_lat": 0.0, "lon": -77.003495, "type": "electric_scooter", "fusion_lon": 0.0, "lat": 38.876780833333335}, {"rental_uris": {"android": "https://dc.lft.to/lastmile_qr_scan", "ios": "https://dc.lft.to/lastmile_qr_scan"}, "is_reserved": 0, "is_disabled": 0, "name": "a1ec7dc33ce2292aed118dc7beb09f66", "bike_id": "a1ec7dc33ce2292aed118dc7beb09f66", "fusion_lat": 0.0, "lon": -77.0257035, "type": "electric_scooter", "fusion_lon": 0.0, "lat": 38.912600833333336}, {"rental_uris": {"android": "https://dc.lft.to/lastmile_qr_scan", "ios": "https://dc.lft.to/lastmile_qr_scan"}, "is_reserved": 0, "is_disabled": 0, "name": "31e4301ba6e1627e3a61ac5c7017c32a", "bike_id": "31e4301ba6e1627e3a61ac5c7017c32a", "fusion_lat": 0.0, "lon": -77.02772866666666, "type": "electric_scooter", "fusion_lon": 0.0, "lat": 38.9341765}, {"rental_uris": {"android": "https://dc.lft.to/lastmile_qr_scan", "ios": "https://dc.lft.to/lastmile_qr_scan"}, "is_reserved": 0, "is_disabled": 0, "name": "d3053dc47200e3fb6f47f2391b0e2994", "bike_id": "d3053dc47200e3fb6f47f2391b0e2994", "fusion_lat": 0.0, "lon": -76.93555166666667, "type": "electric_scooter", "fusion_lon": 0.0, "lat": 38.88279466666667}, {"rental_uris": {"android": "https://dc.lft.to/lastmile_qr_scan", "ios": "https://dc.lft.to/lastmile_qr_scan"}, "is_reserved": 0, "is_disabled": 0, "name": "8c5accc3ac75ceecd48273e79f63e7d8", "bike_id": "8c5accc3ac75ceecd48273e79f63e7d8", "fusion_lat": 0.0, "lon": -77.00655883333333, "type": "electric_scooter", "fusion_lon": 0.0, "lat": 38.90006733333333}, {"rental_uris": {"android": "https://dc.lft.to/lastmile_qr_scan", "ios": "https://dc.lft.to/lastmile_qr_scan"}, "is_reserved": 0, "is_disabled": 0, "name": "4c705988db8b664309ba1d63f882c3b8", "bike_id": "4c705988db8b664309ba1d63f882c3b8", "fusion_lat": 0.0, "lon": -76.9655365, "type": "electric_scooter", "fusion_lon": 0.0, "lat": 38.9185865}, {"rental_uris": {"android": "https://dc.lft.to/lastmile_qr_scan", "ios": "https://dc.lft.to/lastmile_qr_scan"}, "is_reserved": 0, "is_disabled": 0, "name": "765d41e5e19402a79fada6e3266f0d6d", "bike_id": "765d41e5e19402a79fada6e3266f0d6d", "fusion_lat": 0.0, "lon": -77.021287, "type": "electric_scooter", "fusion_lon": 0.0, "lat": 38.922799166666664}, {"rental_uris": {"android": "https://dc.lft.to/lastmile_qr_scan", "ios": "https://dc.lft.to/lastmile_qr_scan"}, "is_reserved": 0, "is_disabled": 0, "name": "c1c93e1ec197e882c11df0d3826215ae", "bike_id": "c1c93e1ec197e882c11df0d3826215ae", "fusion_lat": 0.0, "lon": -77.03166483333334, "type": "electric_scooter", "fusion_lon": 0.0, "lat": 38.929613833333335}, {"rental_uris": {"android": "https://dc.lft.to/lastmile_qr_scan", "ios": "https://dc.lft.to/lastmile_qr_scan"}, "is_reserved": 0, "is_disabled": 0, "name": "079f3b0cd2608181f31a1ce5ab331ded", "bike_id": "079f3b0cd2608181f31a1ce5ab331ded", "fusion_lat": 0.0, "lon": -77.01226266666667, "type": "electric_scooter", "fusion_lon": 0.0, "lat": 38.897991}, {"rental_uris": {"android": "https://dc.lft.to/lastmile_qr_scan", "ios": "https://dc.lft.to/lastmile_qr_scan"}, "is_reserved": 0, "is_disabled": 0, "name": "7ed13ce18175dff70337aa02960b8b80", "bike_id": "7ed13ce18175dff70337aa02960b8b80", "fusion_lat": 0.0, "lon": -77.0515035, "type": "electric_scooter", "fusion_lon": 0.0, "lat": 38.92377233333333}, {"rental_uris": {"android": "https://dc.lft.to/lastmile_qr_scan", "ios": "https://dc.lft.to/lastmile_qr_scan"}, "is_reserved": 0, "is_disabled": 0, "name": "041c398b724956860db00313402b2c04", "bike_id": "041c398b724956860db00313402b2c04", "fusion_lat": 0.0, "lon": -76.90305016666667, "type": "electric_bike", "fusion_lon": 0.0, "lat": 39.00295916666666}, {"rental_uris": {"android": "https://dc.lft.to/lastmile_qr_scan", "ios": "https://dc.lft.to/lastmile_qr_scan"}, "is_reserved": 0, "is_disabled": 0, "name": "212028a69148c4dbc5c5d53c7443f86e", "bike_id": "212028a69148c4dbc5c5d53c7443f86e", "fusion_lat": 0.0, "lon": -77.01814266666666, "type": "electric_scooter", "fusion_lon": 0.0, "lat": 38.9522635}, {"rental_uris": {"android": "https://dc.lft.to/lastmile_qr_scan", "ios": "https://dc.lft.to/lastmile_qr_scan"}, "is_reserved": 0, "is_disabled": 0, "name": "21cd4ca2abf109e029ead37fce052fd9", "bike_id": "21cd4ca2abf109e029ead37fce052fd9", "fusion_lat": 0.0, "lon": -77.04034783333333, "type": "electric_scooter", "fusion_lon": 0.0, "lat": 38.918076666666664}, {"rental_uris": {"android": "https://dc.lft.to/lastmile_qr_scan", "ios": "https://dc.lft.to/lastmile_qr_scan"}, "is_reserved": 0, "is_disabled": 0, "name": "19cd5279a218c185f3a90af0cc14d040", "bike_id": "19cd5279a218c185f3a90af0cc14d040", "fusion_lat": 0.0, "lon": -77.02968783333333, "type": "electric_scooter", "fusion_lon": 0.0, "lat": 38.89229666666667}, {"rental_uris": {"android": "https://dc.lft.to/lastmile_qr_scan", "ios": "https://dc.lft.to/lastmile_qr_scan"}, "is_reserved": 0, "is_disabled": 0, "name": "b9bcbe412027e604f73da7197f70ce18", "bike_id": "b9bcbe412027e604f73da7197f70ce18", "fusion_lat": 0.0, "lon": -77.0264525, "type": "electric_scooter", "fusion_lon": 0.0, "lat": 38.93101166666667}, {"rental_uris": {"android": "https://dc.lft.to/lastmile_qr_scan", "ios": "https://dc.lft.to/lastmile_qr_scan"}, "is_reserved": 0, "is_disabled": 0, "name": "6ab71080df5ebd0eee09a2f3e1d54b63", "bike_id": "6ab71080df5ebd0eee09a2f3e1d54b63", "fusion_lat": 0.0, "lon": -77.01016, "type": "electric_bike", "fusion_lon": 0.0, "lat": 38.956054333333334}, {"rental_uris": {"android": "https://dc.lft.to/lastmile_qr_scan", "ios": "https://dc.lft.to/lastmile_qr_scan"}, "is_reserved": 0, "is_disabled": 0, "name": "5e0f1165647c3d3174fff4b303a08887", "bike_id": "5e0f1165647c3d3174fff4b303a08887", "fusion_lat": 0.0, "lon": -77.0272435, "type": "electric_scooter", "fusion_lon": 0.0, "lat": 38.897835666666666}, {"rental_uris": {"android": "https://dc.lft.to/lastmile_qr_scan", "ios": "https://dc.lft.to/lastmile_qr_scan"}, "is_reserved": 0, "is_disabled": 0, "name": "2828beda51414da0688b3198f3d26bdb", "bike_id": "2828beda51414da0688b3198f3d26bdb", "fusion_lat": 0.0, "lon": -77.01290383333334, "type": "electric_scooter", "fusion_lon": 0.0, "lat": 38.898338833333334}, {"rental_uris": {"android": "https://dc.lft.to/lastmile_qr_scan", "ios": "https://dc.lft.to/lastmile_qr_scan"}, "is_reserved": 0, "is_disabled": 0, "name": "e6599a71a1b6fd9e243bf478f2d3ec05", "bike_id": "e6599a71a1b6fd9e243bf478f2d3ec05", "fusion_lat": 0.0, "lon": -77.029738, "type": "electric_scooter", "fusion_lon": 0.0, "lat": 38.90722616666667}, {"rental_uris": {"android": "https://dc.lft.to/lastmile_qr_scan", "ios": "https://dc.lft.to/lastmile_qr_scan"}, "is_reserved": 0, "is_disabled": 0, "name": "4345e6b92830fcea512755e50380499e", "bike_id": "4345e6b92830fcea512755e50380499e", "fusion_lat": 0.0, "lon": -77.0725835, "type": "electric_scooter", "fusion_lon": 0.0, "lat": 38.939553}, {"rental_uris": {"android": "https://dc.lft.to/lastmile_qr_scan", "ios": "https://dc.lft.to/lastmile_qr_scan"}, "is_reserved": 0, "is_disabled": 0, "name": "e7ecec9655de5cefc7fbdd16eda8e2b7", "bike_id": "e7ecec9655de5cefc7fbdd16eda8e2b7", "fusion_lat": 0.0, "lon": -77.025838, "type": "electric_scooter", "fusion_lon": 0.0, "lat": 38.95297683333333}, {"rental_uris": {"android": "https://dc.lft.to/lastmile_qr_scan", "ios": "https://dc.lft.to/lastmile_qr_scan"}, "is_reserved": 0, "is_disabled": 0, "name": "b522b03c43945894e9246183e8967aa4", "bike_id": "b522b03c43945894e9246183e8967aa4", "fusion_lat": 0.0, "lon": -77.0288085, "type": "electric_bike", "fusion_lon": 0.0, "lat": 38.994981833333334}, {"rental_uris": {"android": "https://dc.lft.to/lastmile_qr_scan", "ios": "https://dc.lft.to/lastmile_qr_scan"}, "is_reserved": 0, "is_disabled": 0, "name": "7f22526dc413336cf99fdba76b00660a", "bike_id": "7f22526dc413336cf99fdba76b00660a", "fusion_lat": 0.0, "lon": -77.03225433333333, "type": "electric_scooter", "fusion_lon": 0.0, "lat": 38.909682}, {"rental_uris": {"android": "https://dc.lft.to/lastmile_qr_scan", "ios": "https://dc.lft.to/lastmile_qr_scan"}, "is_reserved": 0, "is_disabled": 0, "name": "357ddc98e91f6a916d2fac17932dc5ae", "bike_id": "357ddc98e91f6a916d2fac17932dc5ae", "fusion_lat": 0.0, "lon": -77.00200066666666, "type": "electric_scooter", "fusion_lon": 0.0, "lat": 38.90036683333334}, {"rental_uris": {"android": "https://dc.lft.to/lastmile_qr_scan", "ios": "https://dc.lft.to/lastmile_qr_scan"}, "is_reserved": 0, "is_disabled": 0, "name": "e153d12285f39b96d1885399c134d1cc", "bike_id": "e153d12285f39b96d1885399c134d1cc", "fusion_lat": 0.0, "lon": -77.03469333333334, "type": "electric_scooter", "fusion_lon": 0.0, "lat": 38.9287015}, {"rental_uris": {"android": "https://dc.lft.to/lastmile_qr_scan", "ios": "https://dc.lft.to/lastmile_qr_scan"}, "is_reserved": 0, "is_disabled": 0, "name": "14dc5abf6a1d6d29f523cbb0d9508460", "bike_id": "14dc5abf6a1d6d29f523cbb0d9508460", "fusion_lat": 0.0, "lon": -77.07277066666667, "type": "electric_scooter", "fusion_lon": 0.0, "lat": 38.915858166666666}, {"rental_uris": {"android": "https://dc.lft.to/lastmile_qr_scan", "ios": "https://dc.lft.to/lastmile_qr_scan"}, "is_reserved": 0, "is_disabled": 0, "name": "faad3db07a0841eac4202b204faf6fc4", "bike_id": "faad3db07a0841eac4202b204faf6fc4", "fusion_lat": 0.0, "lon": -77.02185166666666, "type": "electric_scooter", "fusion_lon": 0.0, "lat": 38.90158666666667}, {"rental_uris": {"android": "https://dc.lft.to/lastmile_qr_scan", "ios": "https://dc.lft.to/lastmile_qr_scan"}, "is_reserved": 0, "is_disabled": 0, "name": "2ea272353c5aea7b7ff4a01e5cdb96c6", "bike_id": "2ea272353c5aea7b7ff4a01e5cdb96c6", "fusion_lat": 0.0, "lon": -77.03594133333333, "type": "electric_scooter", "fusion_lon": 0.0, "lat": 38.9176085}, {"rental_uris": {"android": "https://dc.lft.to/lastmile_qr_scan", "ios": "https://dc.lft.to/lastmile_qr_scan"}, "is_reserved": 0, "is_disabled": 0, "name": "6a09ecb59e1e0ae30891835747ac5e70", "bike_id": "6a09ecb59e1e0ae30891835747ac5e70", "fusion_lat": 0.0, "lon": -77.02710133333333, "type": "electric_scooter", "fusion_lon": 0.0, "lat": 38.906807666666666}, {"rental_uris": {"android": "https://dc.lft.to/lastmile_qr_scan", "ios": "https://dc.lft.to/lastmile_qr_scan"}, "is_reserved": 0, "is_disabled": 0, "name": "ec8676f2390ec822c696b8b734fa1ca3", "bike_id": "ec8676f2390ec822c696b8b734fa1ca3", "fusion_lat": 0.0, "lon": -77.01909816666667, "type": "electric_scooter", "fusion_lon": 0.0, "lat": 38.923606}, {"rental_uris": {"android": "https://dc.lft.to/lastmile_qr_scan", "ios": "https://dc.lft.to/lastmile_qr_scan"}, "is_reserved": 0, "is_disabled": 0, "name": "3b579495d2bc0637acf078c58ad18d34", "bike_id": "3b579495d2bc0637acf078c58ad18d34", "fusion_lat": 0.0, "lon": -77.013739, "type": "electric_scooter", "fusion_lon": 0.0, "lat": 38.8781855}, {"rental_uris": {"android": "https://dc.lft.to/lastmile_qr_scan", "ios": "https://dc.lft.to/lastmile_qr_scan"}, "is_reserved": 0, "is_disabled": 0, "name": "42b6d157dfb3a7c583ab4e1b677919f6", "bike_id": "42b6d157dfb3a7c583ab4e1b677919f6", "fusion_lat": 0.0, "lon": -77.02397183333333, "type": "electric_scooter", "fusion_lon": 0.0, "lat": 38.901768}, {"rental_uris": {"android": "https://dc.lft.to/lastmile_qr_scan", "ios": "https://dc.lft.to/lastmile_qr_scan"}, "is_reserved": 0, "is_disabled": 0, "name": "585d1c7260b63c6da3806e65e646babf", "bike_id": "585d1c7260b63c6da3806e65e646babf", "fusion_lat": 0.0, "lon": -77.00087133333334, "type": "electric_scooter", "fusion_lon": 0.0, "lat": 38.925507}, {"rental_uris": {"android": "https://dc.lft.to/lastmile_qr_scan", "ios": "https://dc.lft.to/lastmile_qr_scan"}, "is_reserved": 0, "is_disabled": 0, "name": "ecf87082e0b8013860061817c01d6969", "bike_id": "ecf87082e0b8013860061817c01d6969", "fusion_lat": 0.0, "lon": -77.04081266666667, "type": "electric_bike", "fusion_lon": 0.0, "lat": 38.8306795}, {"rental_uris": {"android": "https://dc.lft.to/lastmile_qr_scan", "ios": "https://dc.lft.to/lastmile_qr_scan"}, "is_reserved": 0, "is_disabled": 0, "name": "973fd18a05dcd24157687de206cfddc4", "bike_id": "973fd18a05dcd24157687de206cfddc4", "fusion_lat": 0.0, "lon": -77.0118965, "type": "electric_scooter", "fusion_lon": 0.0, "lat": 38.9001515}, {"rental_uris": {"android": "https://dc.lft.to/lastmile_qr_scan", "ios": "https://dc.lft.to/lastmile_qr_scan"}, "is_reserved": 0, "is_disabled": 0, "name": "2a1d329c0bfde959a02c03d988bcb4f6", "bike_id": "2a1d329c0bfde959a02c03d988bcb4f6", "fusion_lat": 0.0, "lon": -77.0255235, "type": "electric_scooter", "fusion_lon": 0.0, "lat": 38.8920075}, {"rental_uris": {"android": "https://dc.lft.to/lastmile_qr_scan", "ios": "https://dc.lft.to/lastmile_qr_scan"}, "is_reserved": 0, "is_disabled": 0, "name": "c09b753af5031916a124a74dc610002d", "bike_id": "c09b753af5031916a124a74dc610002d", "fusion_lat": 0.0, "lon": -77.018014, "type": "electric_scooter", "fusion_lon": 0.0, "lat": 38.900713333333336}, {"rental_uris": {"android": "https://dc.lft.to/lastmile_qr_scan", "ios": "https://dc.lft.to/lastmile_qr_scan"}, "is_reserved": 0, "is_disabled": 0, "name": "ded76df72d0fa86cd5a8f38d6b3cfda4", "bike_id": "ded76df72d0fa86cd5a8f38d6b3cfda4", "fusion_lat": 0.0, "lon": -77.03958983333334, "type": "electric_scooter", "fusion_lon": 0.0, "lat": 38.901925166666665}, {"rental_uris": {"android": "https://dc.lft.to/lastmile_qr_scan", "ios": "https://dc.lft.to/lastmile_qr_scan"}, "is_reserved": 0, "is_disabled": 0, "name": "beba8890f9ee3233fcd76199a6bcd43b", "bike_id": "beba8890f9ee3233fcd76199a6bcd43b", "fusion_lat": 0.0, "lon": -77.01768616666666, "type": "electric_scooter", "fusion_lon": 0.0, "lat": 38.9203725}, {"rental_uris": {"android": "https://dc.lft.to/lastmile_qr_scan", "ios": "https://dc.lft.to/lastmile_qr_scan"}, "is_reserved": 0, "is_disabled": 0, "name": "e987837b0959ef2dad85a15b700c1e4e", "bike_id": "e987837b0959ef2dad85a15b700c1e4e", "fusion_lat": 0.0, "lon": -77.03092833333334, "type": "electric_scooter", "fusion_lon": 0.0, "lat": 38.922523}, {"rental_uris": {"android": "https://dc.lft.to/lastmile_qr_scan", "ios": "https://dc.lft.to/lastmile_qr_scan"}, "is_reserved": 0, "is_disabled": 0, "name": "9b6dd89c27769a588ec8d88a529f20c0", "bike_id": "9b6dd89c27769a588ec8d88a529f20c0", "fusion_lat": 0.0, "lon": -77.033232, "type": "electric_scooter", "fusion_lon": 0.0, "lat": 38.898860166666665}, {"rental_uris": {"android": "https://dc.lft.to/lastmile_qr_scan", "ios": "https://dc.lft.to/lastmile_qr_scan"}, "is_reserved": 0, "is_disabled": 0, "name": "67ffce5faf191634e7f0c1f844d98ef5", "bike_id": "67ffce5faf191634e7f0c1f844d98ef5", "fusion_lat": 0.0, "lon": -77.034442, "type": "electric_scooter", "fusion_lon": 0.0, "lat": 38.9027595}, {"rental_uris": {"android": "https://dc.lft.to/lastmile_qr_scan", "ios": "https://dc.lft.to/lastmile_qr_scan"}, "is_reserved": 0, "is_disabled": 0, "name": "2f0b890fd3448ab08bcb98234f23255e", "bike_id": "2f0b890fd3448ab08bcb98234f23255e", "fusion_lat": 0.0, "lon": -77.063213, "type": "electric_scooter", "fusion_lon": 0.0, "lat": 38.9134365}, {"rental_uris": {"android": "https://dc.lft.to/lastmile_qr_scan", "ios": "https://dc.lft.to/lastmile_qr_scan"}, "is_reserved": 0, "is_disabled": 0, "name": "60065f1ce916da5fee1af161c23b1f03", "bike_id": "60065f1ce916da5fee1af161c23b1f03", "fusion_lat": 0.0, "lon": -77.04621516666667, "type": "electric_scooter", "fusion_lon": 0.0, "lat": 38.9157365}, {"rental_uris": {"android": "https://dc.lft.to/lastmile_qr_scan", "ios": "https://dc.lft.to/lastmile_qr_scan"}, "is_reserved": 0, "is_disabled": 0, "name": "413441badf93f30f424d498565e90beb", "bike_id": "413441badf93f30f424d498565e90beb", "fusion_lat": 0.0, "lon": -77.02334816666666, "type": "electric_scooter", "fusion_lon": 0.0, "lat": 38.93053916666667}, {"rental_uris": {"android": "https://dc.lft.to/lastmile_qr_scan", "ios": "https://dc.lft.to/lastmile_qr_scan"}, "is_reserved": 0, "is_disabled": 0, "name": "15a1312db920cae41513c80517f9ea70", "bike_id": "15a1312db920cae41513c80517f9ea70", "fusion_lat": 0.0, "lon": -76.99843566666667, "type": "electric_scooter", "fusion_lon": 0.0, "lat": 38.9007935}, {"rental_uris": {"android": "https://dc.lft.to/lastmile_qr_scan", "ios": "https://dc.lft.to/lastmile_qr_scan"}, "is_reserved": 0, "is_disabled": 0, "name": "6c1cd8e80a27f7346c6b32a8df4330f8", "bike_id": "6c1cd8e80a27f7346c6b32a8df4330f8", "fusion_lat": 0.0, "lon": -76.9985035, "type": "electric_scooter", "fusion_lon": 0.0, "lat": 38.900673}, {"rental_uris": {"android": "https://dc.lft.to/lastmile_qr_scan", "ios": "https://dc.lft.to/lastmile_qr_scan"}, "is_reserved": 0, "is_disabled": 0, "name": "6d2d143b38671e56f91e9a2dc92ba34f", "bike_id": "6d2d143b38671e56f91e9a2dc92ba34f", "fusion_lat": 0.0, "lon": -77.06360433333333, "type": "electric_scooter", "fusion_lon": 0.0, "lat": 38.9202065}, {"rental_uris": {"android": "https://dc.lft.to/lastmile_qr_scan", "ios": "https://dc.lft.to/lastmile_qr_scan"}, "is_reserved": 0, "is_disabled": 0, "name": "3413d6f310e0b69be1961941d82e64b0", "bike_id": "3413d6f310e0b69be1961941d82e64b0", "fusion_lat": 0.0, "lon": -77.04213283333333, "type": "electric_scooter", "fusion_lon": 0.0, "lat": 38.909295666666665}, {"rental_uris": {"android": "https://dc.lft.to/lastmile_qr_scan", "ios": "https://dc.lft.to/lastmile_qr_scan"}, "is_reserved": 0, "is_disabled": 0, "name": "161be6893e3c53a3143b5e267f34c0f1", "bike_id": "161be6893e3c53a3143b5e267f34c0f1", "fusion_lat": 0.0, "lon": -77.02354166666667, "type": "electric_scooter", "fusion_lon": 0.0, "lat": 38.94196516666667}, {"rental_uris": {"android": "https://dc.lft.to/lastmile_qr_scan", "ios": "https://dc.lft.to/lastmile_qr_scan"}, "is_reserved": 0, "is_disabled": 0, "name": "b2cdec12c442e53f2d755905d199267f", "bike_id": "b2cdec12c442e53f2d755905d199267f", "fusion_lat": 0.0, "lon": -76.98372383333333, "type": "electric_scooter", "fusion_lon": 0.0, "lat": 38.892668666666665}, {"rental_uris": {"android": "https://dc.lft.to/lastmile_qr_scan", "ios": "https://dc.lft.to/lastmile_qr_scan"}, "is_reserved": 0, "is_disabled": 0, "name": "4c0b1f954d4ed88aeac263e521c032c0", "bike_id": "4c0b1f954d4ed88aeac263e521c032c0", "fusion_lat": 0.0, "lon": -76.996996, "type": "electric_scooter", "fusion_lon": 0.0, "lat": 38.88439133333333}, {"rental_uris": {"android": "https://dc.lft.to/lastmile_qr_scan", "ios": "https://dc.lft.to/lastmile_qr_scan"}, "is_reserved": 0, "is_disabled": 0, "name": "ac172f64126ac080535c96b420b22ff5", "bike_id": "ac172f64126ac080535c96b420b22ff5", "fusion_lat": 0.0, "lon": -77.02286233333334, "type": "electric_scooter", "fusion_lon": 0.0, "lat": 38.916415666666666}, {"rental_uris": {"android": "https://dc.lft.to/lastmile_qr_scan", "ios": "https://dc.lft.to/lastmile_qr_scan"}, "is_reserved": 0, "is_disabled": 0, "name": "a447e78b5ebf3e46ecd6e319e7236919", "bike_id": "a447e78b5ebf3e46ecd6e319e7236919", "fusion_lat": 0.0, "lon": -77.02371683333334, "type": "electric_scooter", "fusion_lon": 0.0, "lat": 38.892171}, {"rental_uris": {"android": "https://dc.lft.to/lastmile_qr_scan", "ios": "https://dc.lft.to/lastmile_qr_scan"}, "is_reserved": 0, "is_disabled": 0, "name": "774ffa474282f307424b5b936f0aeb44", "bike_id": "774ffa474282f307424b5b936f0aeb44", "fusion_lat": 0.0, "lon": -77.04818183333333, "type": "electric_scooter", "fusion_lon": 0.0, "lat": 38.91636533333333}, {"rental_uris": {"android": "https://dc.lft.to/lastmile_qr_scan", "ios": "https://dc.lft.to/lastmile_qr_scan"}, "is_reserved": 0, "is_disabled": 0, "name": "ede0d4543e74a013f304b24d0ae27a85", "bike_id": "ede0d4543e74a013f304b24d0ae27a85", "fusion_lat": 0.0, "lon": -77.03072216666666, "type": "electric_scooter", "fusion_lon": 0.0, "lat": 38.89965616666667}, {"rental_uris": {"android": "https://dc.lft.to/lastmile_qr_scan", "ios": "https://dc.lft.to/lastmile_qr_scan"}, "is_reserved": 0, "is_disabled": 0, "name": "fe041fa4bd9c9b4c2b95d82a3dd2b09a", "bike_id": "fe041fa4bd9c9b4c2b95d82a3dd2b09a", "fusion_lat": 0.0, "lon": -76.99497483333333, "type": "electric_scooter", "fusion_lon": 0.0, "lat": 38.890175}, {"rental_uris": {"android": "https://dc.lft.to/lastmile_qr_scan", "ios": "https://dc.lft.to/lastmile_qr_scan"}, "is_reserved": 0, "is_disabled": 0, "name": "4b7f4fd248ac42a4acd7ff2ffdaeab9a", "bike_id": "4b7f4fd248ac42a4acd7ff2ffdaeab9a", "fusion_lat": 0.0, "lon": -76.983723, "type": "electric_scooter", "fusion_lon": 0.0, "lat": 38.86031966666667}, {"rental_uris": {"android": "https://dc.lft.to/lastmile_qr_scan", "ios": "https://dc.lft.to/lastmile_qr_scan"}, "is_reserved": 0, "is_disabled": 0, "name": "2e0027bd472371d50e62902317b948d6", "bike_id": "2e0027bd472371d50e62902317b948d6", "fusion_lat": 0.0, "lon": -77.03948766666667, "type": "electric_scooter", "fusion_lon": 0.0, "lat": 38.9022845}, {"rental_uris": {"android": "https://dc.lft.to/lastmile_qr_scan", "ios": "https://dc.lft.to/lastmile_qr_scan"}, "is_reserved": 0, "is_disabled": 0, "name": "72dbab5e6b1d5b6746c197b1049a35c1", "bike_id": "72dbab5e6b1d5b6746c197b1049a35c1", "fusion_lat": 0.0, "lon": -76.991055, "type": "electric_scooter", "fusion_lon": 0.0, "lat": 38.857332666666665}, {"rental_uris": {"android": "https://dc.lft.to/lastmile_qr_scan", "ios": "https://dc.lft.to/lastmile_qr_scan"}, "is_reserved": 0, "is_disabled": 0, "name": "fc658b1560434c6511ac664d44d6967a", "bike_id": "fc658b1560434c6511ac664d44d6967a", "fusion_lat": 0.0, "lon": -77.00159166666667, "type": "electric_bike", "fusion_lon": 0.0, "lat": 38.8992855}, {"rental_uris": {"android": "https://dc.lft.to/lastmile_qr_scan", "ios": "https://dc.lft.to/lastmile_qr_scan"}, "is_reserved": 0, "is_disabled": 0, "name": "542baa1db188cacd95ce99cac7a4701f", "bike_id": "542baa1db188cacd95ce99cac7a4701f", "fusion_lat": 0.0, "lon": -77.02491166666667, "type": "electric_scooter", "fusion_lon": 0.0, "lat": 38.9206965}, {"rental_uris": {"android": "https://dc.lft.to/lastmile_qr_scan", "ios": "https://dc.lft.to/lastmile_qr_scan"}, "is_reserved": 0, "is_disabled": 0, "name": "e63f4d137b839ff921b62fe734827376", "bike_id": "e63f4d137b839ff921b62fe734827376", "fusion_lat": 0.0, "lon": -77.04331366666666, "type": "electric_scooter", "fusion_lon": 0.0, "lat": 38.9222565}, {"rental_uris": {"android": "https://dc.lft.to/lastmile_qr_scan", "ios": "https://dc.lft.to/lastmile_qr_scan"}, "is_reserved": 0, "is_disabled": 0, "name": "852e269b971e29b52d9a34c4fffbc636", "bike_id": "852e269b971e29b52d9a34c4fffbc636", "fusion_lat": 0.0, "lon": -77.0425545, "type": "electric_scooter", "fusion_lon": 0.0, "lat": 38.91968083333333}, {"rental_uris": {"android": "https://dc.lft.to/lastmile_qr_scan", "ios": "https://dc.lft.to/lastmile_qr_scan"}, "is_reserved": 0, "is_disabled": 0, "name": "238e1d8637bbeb7015a01f187eae822c", "bike_id": "238e1d8637bbeb7015a01f187eae822c", "fusion_lat": 0.0, "lon": -77.05153383333334, "type": "electric_scooter", "fusion_lon": 0.0, "lat": 38.92380566666667}, {"rental_uris": {"android": "https://dc.lft.to/lastmile_qr_scan", "ios": "https://dc.lft.to/lastmile_qr_scan"}, "is_reserved": 0, "is_disabled": 0, "name": "3252fe6be1a0e5061e0ee625bc5b16f8", "bike_id": "3252fe6be1a0e5061e0ee625bc5b16f8", "fusion_lat": 0.0, "lon": -77.02004766666667, "type": "electric_bike", "fusion_lon": 0.0, "lat": 39.0262305}, {"rental_uris": {"android": "https://dc.lft.to/lastmile_qr_scan", "ios": "https://dc.lft.to/lastmile_qr_scan"}, "is_reserved": 0, "is_disabled": 0, "name": "8182293245e7799bd852ecf93f85ec17", "bike_id": "8182293245e7799bd852ecf93f85ec17", "fusion_lat": 0.0, "lon": -77.0296325, "type": "electric_scooter", "fusion_lon": 0.0, "lat": 38.922643666666666}, {"rental_uris": {"android": "https://dc.lft.to/lastmile_qr_scan", "ios": "https://dc.lft.to/lastmile_qr_scan"}, "is_reserved": 0, "is_disabled": 0, "name": "ad74694c7db796d12aaeefa310693917", "bike_id": "ad74694c7db796d12aaeefa310693917", "fusion_lat": 0.0, "lon": -77.11284466666666, "type": "electric_bike", "fusion_lon": 0.0, "lat": 38.83107366666667}, {"rental_uris": {"android": "https://dc.lft.to/lastmile_qr_scan", "ios": "https://dc.lft.to/lastmile_qr_scan"}, "is_reserved": 0, "is_disabled": 0, "name": "4783f5da0c295fe66275c7f37f4d3d45", "bike_id": "4783f5da0c295fe66275c7f37f4d3d45", "fusion_lat": 0.0, "lon": -77.034133, "type": "electric_scooter", "fusion_lon": 0.0, "lat": 38.9140775}, {"rental_uris": {"android": "https://dc.lft.to/lastmile_qr_scan", "ios": "https://dc.lft.to/lastmile_qr_scan"}, "is_reserved": 0, "is_disabled": 0, "name": "6164ee0cf5fb45fe7a9e8e90dca2af5a", "bike_id": "6164ee0cf5fb45fe7a9e8e90dca2af5a", "fusion_lat": 0.0, "lon": -77.0269265, "type": "electric_scooter", "fusion_lon": 0.0, "lat": 38.9308175}, {"rental_uris": {"android": "https://dc.lft.to/lastmile_qr_scan", "ios": "https://dc.lft.to/lastmile_qr_scan"}, "is_reserved": 0, "is_disabled": 0, "name": "1198dbefbc8e4d90119956e0989cf52e", "bike_id": "1198dbefbc8e4d90119956e0989cf52e", "fusion_lat": 0.0, "lon": -77.02316466666667, "type": "electric_scooter", "fusion_lon": 0.0, "lat": 38.89471833333333}, {"rental_uris": {"android": "https://dc.lft.to/lastmile_qr_scan", "ios": "https://dc.lft.to/lastmile_qr_scan"}, "is_reserved": 0, "is_disabled": 0, "name": "61d0f9fc36e48012eda1c4884e9b194a", "bike_id": "61d0f9fc36e48012eda1c4884e9b194a", "fusion_lat": 0.0, "lon": -77.05150366666666, "type": "electric_scooter", "fusion_lon": 0.0, "lat": 38.923843166666664}, {"rental_uris": {"android": "https://dc.lft.to/lastmile_qr_scan", "ios": "https://dc.lft.to/lastmile_qr_scan"}, "is_reserved": 0, "is_disabled": 0, "name": "abb4bc4e946247cf9fa57cf33609258d", "bike_id": "abb4bc4e946247cf9fa57cf33609258d", "fusion_lat": 0.0, "lon": -77.03860733333333, "type": "electric_scooter", "fusion_lon": 0.0, "lat": 38.917188}, {"rental_uris": {"android": "https://dc.lft.to/lastmile_qr_scan", "ios": "https://dc.lft.to/lastmile_qr_scan"}, "is_reserved": 0, "is_disabled": 0, "name": "ad8ef58854a3fdb90d91e1e2cf599397", "bike_id": "ad8ef58854a3fdb90d91e1e2cf599397", "fusion_lat": 0.0, "lon": -77.02834783333333, "type": "electric_scooter", "fusion_lon": 0.0, "lat": 38.93169966666667}, {"rental_uris": {"android": "https://dc.lft.to/lastmile_qr_scan", "ios": "https://dc.lft.to/lastmile_qr_scan"}, "is_reserved": 0, "is_disabled": 0, "name": "a7aa0ed264484e67841ddebe9f8924cb", "bike_id": "a7aa0ed264484e67841ddebe9f8924cb", "fusion_lat": 0.0, "lon": -77.00388866666667, "type": "electric_bike", "fusion_lon": 0.0, "lat": 38.83431016666667}, {"rental_uris": {"android": "https://dc.lft.to/lastmile_qr_scan", "ios": "https://dc.lft.to/lastmile_qr_scan"}, "is_reserved": 0, "is_disabled": 0, "name": "9bbac4d7fd2022346f08d867a6dcbcfa", "bike_id": "9bbac4d7fd2022346f08d867a6dcbcfa", "fusion_lat": 0.0, "lon": -77.02312466666666, "type": "electric_scooter", "fusion_lon": 0.0, "lat": 38.912923166666666}, {"rental_uris": {"android": "https://dc.lft.to/lastmile_qr_scan", "ios": "https://dc.lft.to/lastmile_qr_scan"}, "is_reserved": 0, "is_disabled": 0, "name": "3c49e952238396926de4785db1e3b076", "bike_id": "3c49e952238396926de4785db1e3b076", "fusion_lat": 0.0, "lon": -77.0321535, "type": "electric_bike", "fusion_lon": 0.0, "lat": 38.911569666666665}, {"rental_uris": {"android": "https://dc.lft.to/lastmile_qr_scan", "ios": "https://dc.lft.to/lastmile_qr_scan"}, "is_reserved": 0, "is_disabled": 0, "name": "3cb411eb0a35b60d77d6b56c6f79c9e5", "bike_id": "3cb411eb0a35b60d77d6b56c6f79c9e5", "fusion_lat": 0.0, "lon": -77.04870016666666, "type": "electric_scooter", "fusion_lon": 0.0, "lat": 38.919788833333335}, {"rental_uris": {"android": "https://dc.lft.to/lastmile_qr_scan", "ios": "https://dc.lft.to/lastmile_qr_scan"}, "is_reserved": 0, "is_disabled": 0, "name": "54f74ed8f78e2c615c85033caa18c4ab", "bike_id": "54f74ed8f78e2c615c85033caa18c4ab", "fusion_lat": 0.0, "lon": -77.02142816666667, "type": "electric_scooter", "fusion_lon": 0.0, "lat": 38.9273615}, {"rental_uris": {"android": "https://dc.lft.to/lastmile_qr_scan", "ios": "https://dc.lft.to/lastmile_qr_scan"}, "is_reserved": 0, "is_disabled": 0, "name": "58894309a72d43317c42137ef247434a", "bike_id": "58894309a72d43317c42137ef247434a", "fusion_lat": 0.0, "lon": -77.07629816666666, "type": "electric_scooter", "fusion_lon": 0.0, "lat": 38.925279833333335}, {"rental_uris": {"android": "https://dc.lft.to/lastmile_qr_scan", "ios": "https://dc.lft.to/lastmile_qr_scan"}, "is_reserved": 0, "is_disabled": 0, "name": "5f9549099086da8d0f101a1b96fe46e6", "bike_id": "5f9549099086da8d0f101a1b96fe46e6", "fusion_lat": 0.0, "lon": -77.09455266666667, "type": "electric_bike", "fusion_lon": 0.0, "lat": 38.807550666666664}, {"rental_uris": {"android": "https://dc.lft.to/lastmile_qr_scan", "ios": "https://dc.lft.to/lastmile_qr_scan"}, "is_reserved": 0, "is_disabled": 0, "name": "1e49ea53c5bad77a69b666c034eb4131", "bike_id": "1e49ea53c5bad77a69b666c034eb4131", "fusion_lat": 0.0, "lon": -76.9292515, "type": "electric_scooter", "fusion_lon": 0.0, "lat": 38.892081833333336}, {"rental_uris": {"android": "https://dc.lft.to/lastmile_qr_scan", "ios": "https://dc.lft.to/lastmile_qr_scan"}, "is_reserved": 0, "is_disabled": 0, "name": "f14f6988d7ed90dd08571f0a3cb1126c", "bike_id": "f14f6988d7ed90dd08571f0a3cb1126c", "fusion_lat": 0.0, "lon": -77.05149166666666, "type": "electric_scooter", "fusion_lon": 0.0, "lat": 38.906301166666665}, {"rental_uris": {"android": "https://dc.lft.to/lastmile_qr_scan", "ios": "https://dc.lft.to/lastmile_qr_scan"}, "is_reserved": 0, "is_disabled": 0, "name": "ce4bffc796ef340dc59ccc67f0821971", "bike_id": "ce4bffc796ef340dc59ccc67f0821971", "fusion_lat": 0.0, "lon": -77.0089165, "type": "electric_scooter", "fusion_lon": 0.0, "lat": 38.90981383333333}, {"rental_uris": {"android": "https://dc.lft.to/lastmile_qr_scan", "ios": "https://dc.lft.to/lastmile_qr_scan"}, "is_reserved": 0, "is_disabled": 0, "name": "54daf2b7466b6a1ff306d6c803833672", "bike_id": "54daf2b7466b6a1ff306d6c803833672", "fusion_lat": 0.0, "lon": -77.0226455, "type": "electric_scooter", "fusion_lon": 0.0, "lat": 38.899567}, {"rental_uris": {"android": "https://dc.lft.to/lastmile_qr_scan", "ios": "https://dc.lft.to/lastmile_qr_scan"}, "is_reserved": 0, "is_disabled": 0, "name": "b8d124a52743143956eccd1c322c3a41", "bike_id": "b8d124a52743143956eccd1c322c3a41", "fusion_lat": 0.0, "lon": -77.0344075, "type": "electric_scooter", "fusion_lon": 0.0, "lat": 38.91802416666667}, {"rental_uris": {"android": "https://dc.lft.to/lastmile_qr_scan", "ios": "https://dc.lft.to/lastmile_qr_scan"}, "is_reserved": 0, "is_disabled": 0, "name": "f10abd0374306bc69c3a38df616e0101", "bike_id": "f10abd0374306bc69c3a38df616e0101", "fusion_lat": 0.0, "lon": -76.96091966666667, "type": "electric_scooter", "fusion_lon": 0.0, "lat": 38.918631166666664}, {"rental_uris": {"android": "https://dc.lft.to/lastmile_qr_scan", "ios": "https://dc.lft.to/lastmile_qr_scan"}, "is_reserved": 0, "is_disabled": 0, "name": "0a4865822199cbf9032a8dc7f02f221c", "bike_id": "0a4865822199cbf9032a8dc7f02f221c", "fusion_lat": 0.0, "lon": -77.02282016666666, "type": "electric_scooter", "fusion_lon": 0.0, "lat": 38.917707666666665}, {"rental_uris": {"android": "https://dc.lft.to/lastmile_qr_scan", "ios": "https://dc.lft.to/lastmile_qr_scan"}, "is_reserved": 0, "is_disabled": 0, "name": "cf5c29a9c32cd6c7a94961bfa4d4b27c", "bike_id": "cf5c29a9c32cd6c7a94961bfa4d4b27c", "fusion_lat": 0.0, "lon": -77.04410816666666, "type": "electric_scooter", "fusion_lon": 0.0, "lat": 38.89591766666667}, {"rental_uris": {"android": "https://dc.lft.to/lastmile_qr_scan", "ios": "https://dc.lft.to/lastmile_qr_scan"}, "is_reserved": 0, "is_disabled": 0, "name": "d4d78ab9ac7d2777e5b9bbe0fdb47901", "bike_id": "d4d78ab9ac7d2777e5b9bbe0fdb47901", "fusion_lat": 0.0, "lon": -77.0297885, "type": "electric_scooter", "fusion_lon": 0.0, "lat": 38.9071145}, {"rental_uris": {"android": "https://dc.lft.to/lastmile_qr_scan", "ios": "https://dc.lft.to/lastmile_qr_scan"}, "is_reserved": 0, "is_disabled": 0, "name": "b8c7d460836ec7ad1afe2d32cf6dda45", "bike_id": "b8c7d460836ec7ad1afe2d32cf6dda45", "fusion_lat": 0.0, "lon": -76.98425733333333, "type": "electric_bike", "fusion_lon": 0.0, "lat": 38.855189833333334}, {"rental_uris": {"android": "https://dc.lft.to/lastmile_qr_scan", "ios": "https://dc.lft.to/lastmile_qr_scan"}, "is_reserved": 0, "is_disabled": 0, "name": "5b0d1efbd086f3e8f3fb868d6b18e938", "bike_id": "5b0d1efbd086f3e8f3fb868d6b18e938", "fusion_lat": 0.0, "lon": -77.03756083333333, "type": "electric_scooter", "fusion_lon": 0.0, "lat": 38.91276833333333}, {"rental_uris": {"android": "https://dc.lft.to/lastmile_qr_scan", "ios": "https://dc.lft.to/lastmile_qr_scan"}, "is_reserved": 0, "is_disabled": 0, "name": "fa19b8747bea77816930f2c7f9f0dd86", "bike_id": "fa19b8747bea77816930f2c7f9f0dd86", "fusion_lat": 0.0, "lon": -76.98508483333333, "type": "electric_scooter", "fusion_lon": 0.0, "lat": 38.90066566666667}, {"rental_uris": {"android": "https://dc.lft.to/lastmile_qr_scan", "ios": "https://dc.lft.to/lastmile_qr_scan"}, "is_reserved": 0, "is_disabled": 0, "name": "23a56a09daa51edb8099d31042ca148f", "bike_id": "23a56a09daa51edb8099d31042ca148f", "fusion_lat": 0.0, "lon": -76.94875766666667, "type": "electric_scooter", "fusion_lon": 0.0, "lat": 38.8950375}, {"rental_uris": {"android": "https://dc.lft.to/lastmile_qr_scan", "ios": "https://dc.lft.to/lastmile_qr_scan"}, "is_reserved": 0, "is_disabled": 0, "name": "10ea53d126f8138c542bc28b7ffa4117", "bike_id": "10ea53d126f8138c542bc28b7ffa4117", "fusion_lat": 0.0, "lon": -77.043572, "type": "electric_scooter", "fusion_lon": 0.0, "lat": 38.911328833333336}, {"rental_uris": {"android": "https://dc.lft.to/lastmile_qr_scan", "ios": "https://dc.lft.to/lastmile_qr_scan"}, "is_reserved": 0, "is_disabled": 0, "name": "b877ee47b83483fd7b43e650f51014f8", "bike_id": "b877ee47b83483fd7b43e650f51014f8", "fusion_lat": 0.0, "lon": -77.03681316666666, "type": "electric_scooter", "fusion_lon": 0.0, "lat": 38.9069215}, {"rental_uris": {"android": "https://dc.lft.to/lastmile_qr_scan", "ios": "https://dc.lft.to/lastmile_qr_scan"}, "is_reserved": 0, "is_disabled": 0, "name": "a244dfcf780f3d6ea01e2bac11012de0", "bike_id": "a244dfcf780f3d6ea01e2bac11012de0", "fusion_lat": 0.0, "lon": -77.2339385, "type": "electric_bike", "fusion_lon": 0.0, "lat": 38.871803666666665}, {"rental_uris": {"android": "https://dc.lft.to/lastmile_qr_scan", "ios": "https://dc.lft.to/lastmile_qr_scan"}, "is_reserved": 0, "is_disabled": 0, "name": "eff6320e9d976978bf40f11ff893f91d", "bike_id": "eff6320e9d976978bf40f11ff893f91d", "fusion_lat": 0.0, "lon": -77.03868016666667, "type": "electric_scooter", "fusion_lon": 0.0, "lat": 38.91709733333333}, {"rental_uris": {"android": "https://dc.lft.to/lastmile_qr_scan", "ios": "https://dc.lft.to/lastmile_qr_scan"}, "is_reserved": 0, "is_disabled": 0, "name": "e56b331dce11dbd0821fc2a491e98536", "bike_id": "e56b331dce11dbd0821fc2a491e98536", "fusion_lat": 0.0, "lon": -77.0172545, "type": "electric_scooter", "fusion_lon": 0.0, "lat": 38.974975666666666}, {"rental_uris": {"android": "https://dc.lft.to/lastmile_qr_scan", "ios": "https://dc.lft.to/lastmile_qr_scan"}, "is_reserved": 0, "is_disabled": 0, "name": "2a811e42d8d0e35a1256cf9821966089", "bike_id": "2a811e42d8d0e35a1256cf9821966089", "fusion_lat": 0.0, "lon": -77.04683733333333, "type": "electric_scooter", "fusion_lon": 0.0, "lat": 38.89224933333333}, {"rental_uris": {"android": "https://dc.lft.to/lastmile_qr_scan", "ios": "https://dc.lft.to/lastmile_qr_scan"}, "is_reserved": 0, "is_disabled": 0, "name": "843390174939e08c137f0c4732e7d42e", "bike_id": "843390174939e08c137f0c4732e7d42e", "fusion_lat": 0.0, "lon": -77.01946283333334, "type": "electric_scooter", "fusion_lon": 0.0, "lat": 38.924410333333334}, {"rental_uris": {"android": "https://dc.lft.to/lastmile_qr_scan", "ios": "https://dc.lft.to/lastmile_qr_scan"}, "is_reserved": 0, "is_disabled": 0, "name": "fd754687e7bff643ec232d21b142935a", "bike_id": "fd754687e7bff643ec232d21b142935a", "fusion_lat": 0.0, "lon": -77.00608983333333, "type": "electric_scooter", "fusion_lon": 0.0, "lat": 38.875484}, {"rental_uris": {"android": "https://dc.lft.to/lastmile_qr_scan", "ios": "https://dc.lft.to/lastmile_qr_scan"}, "is_reserved": 0, "is_disabled": 0, "name": "37db1c74dcdab15a3795fb19b30b6f8e", "bike_id": "37db1c74dcdab15a3795fb19b30b6f8e", "fusion_lat": 0.0, "lon": -77.0424065, "type": "electric_scooter", "fusion_lon": 0.0, "lat": 38.92058633333333}, {"rental_uris": {"android": "https://dc.lft.to/lastmile_qr_scan", "ios": "https://dc.lft.to/lastmile_qr_scan"}, "is_reserved": 0, "is_disabled": 0, "name": "8090f17b59555aa32137e2fb0f25176d", "bike_id": "8090f17b59555aa32137e2fb0f25176d", "fusion_lat": 0.0, "lon": -77.01516866666667, "type": "electric_scooter", "fusion_lon": 0.0, "lat": 38.872874833333334}, {"rental_uris": {"android": "https://dc.lft.to/lastmile_qr_scan", "ios": "https://dc.lft.to/lastmile_qr_scan"}, "is_reserved": 0, "is_disabled": 0, "name": "1cadab50c0c521bca31a693a0c3dd56f", "bike_id": "1cadab50c0c521bca31a693a0c3dd56f", "fusion_lat": 0.0, "lon": -77.04364633333333, "type": "electric_scooter", "fusion_lon": 0.0, "lat": 38.922461}, {"rental_uris": {"android": "https://dc.lft.to/lastmile_qr_scan", "ios": "https://dc.lft.to/lastmile_qr_scan"}, "is_reserved": 0, "is_disabled": 0, "name": "3f1c2bdc9b9771b9ff00b453a02c200f", "bike_id": "3f1c2bdc9b9771b9ff00b453a02c200f", "fusion_lat": 0.0, "lon": -77.096871, "type": "electric_bike", "fusion_lon": 0.0, "lat": 38.807432}, {"rental_uris": {"android": "https://dc.lft.to/lastmile_qr_scan", "ios": "https://dc.lft.to/lastmile_qr_scan"}, "is_reserved": 0, "is_disabled": 0, "name": "97770be8236083135fe74c54d94151a3", "bike_id": "97770be8236083135fe74c54d94151a3", "fusion_lat": 0.0, "lon": -77.00891066666667, "type": "electric_scooter", "fusion_lon": 0.0, "lat": 38.924664666666665}, {"rental_uris": {"android": "https://dc.lft.to/lastmile_qr_scan", "ios": "https://dc.lft.to/lastmile_qr_scan"}, "is_reserved": 0, "is_disabled": 0, "name": "43a4e121c115e89c9b854600e887f2a3", "bike_id": "43a4e121c115e89c9b854600e887f2a3", "fusion_lat": 0.0, "lon": -77.03188166666666, "type": "electric_scooter", "fusion_lon": 0.0, "lat": 38.910243}, {"rental_uris": {"android": "https://dc.lft.to/lastmile_qr_scan", "ios": "https://dc.lft.to/lastmile_qr_scan"}, "is_reserved": 0, "is_disabled": 0, "name": "37109fe7fbad90656d0fffb71aec03d7", "bike_id": "37109fe7fbad90656d0fffb71aec03d7", "fusion_lat": 0.0, "lon": -77.03502266666666, "type": "electric_scooter", "fusion_lon": 0.0, "lat": 38.9187505}, {"rental_uris": {"android": "https://dc.lft.to/lastmile_qr_scan", "ios": "https://dc.lft.to/lastmile_qr_scan"}, "is_reserved": 0, "is_disabled": 0, "name": "ee3b14ea48121a57aacf83a7b93d07c7", "bike_id": "ee3b14ea48121a57aacf83a7b93d07c7", "fusion_lat": 0.0, "lon": -77.030638, "type": "electric_scooter", "fusion_lon": 0.0, "lat": 38.89815566666667}, {"rental_uris": {"android": "https://dc.lft.to/lastmile_qr_scan", "ios": "https://dc.lft.to/lastmile_qr_scan"}, "is_reserved": 0, "is_disabled": 0, "name": "cb57f986728b6b1bc04415339900ab6c", "bike_id": "cb57f986728b6b1bc04415339900ab6c", "fusion_lat": 0.0, "lon": -77.00201333333334, "type": "electric_scooter", "fusion_lon": 0.0, "lat": 38.902378666666664}, {"rental_uris": {"android": "https://dc.lft.to/lastmile_qr_scan", "ios": "https://dc.lft.to/lastmile_qr_scan"}, "is_reserved": 0, "is_disabled": 0, "name": "bb0f53d59ee49f1103de607a41c00a7e", "bike_id": "bb0f53d59ee49f1103de607a41c00a7e", "fusion_lat": 0.0, "lon": -77.03208016666666, "type": "electric_scooter", "fusion_lon": 0.0, "lat": 38.907165166666665}, {"rental_uris": {"android": "https://dc.lft.to/lastmile_qr_scan", "ios": "https://dc.lft.to/lastmile_qr_scan"}, "is_reserved": 0, "is_disabled": 0, "name": "1cc20ffebf7613551326c313dfe3b658", "bike_id": "1cc20ffebf7613551326c313dfe3b658", "fusion_lat": 0.0, "lon": -77.02412416666667, "type": "electric_scooter", "fusion_lon": 0.0, "lat": 38.933743}, {"rental_uris": {"android": "https://dc.lft.to/lastmile_qr_scan", "ios": "https://dc.lft.to/lastmile_qr_scan"}, "is_reserved": 0, "is_disabled": 0, "name": "67762a7b91cd26984e90ec6dbcf91e39", "bike_id": "67762a7b91cd26984e90ec6dbcf91e39", "fusion_lat": 0.0, "lon": -77.021261, "type": "electric_bike", "fusion_lon": 0.0, "lat": 38.93575333333333}, {"rental_uris": {"android": "https://dc.lft.to/lastmile_qr_scan", "ios": "https://dc.lft.to/lastmile_qr_scan"}, "is_reserved": 0, "is_disabled": 0, "name": "1ab5ac1a1e0b4c673ffe2431d6797172", "bike_id": "1ab5ac1a1e0b4c673ffe2431d6797172", "fusion_lat": 0.0, "lon": -77.05039383333333, "type": "electric_scooter", "fusion_lon": 0.0, "lat": 38.9236475}, {"rental_uris": {"android": "https://dc.lft.to/lastmile_qr_scan", "ios": "https://dc.lft.to/lastmile_qr_scan"}, "is_reserved": 0, "is_disabled": 0, "name": "af1a072c21345866164ae7f6b257e18a", "bike_id": "af1a072c21345866164ae7f6b257e18a", "fusion_lat": 0.0, "lon": -77.02227616666667, "type": "electric_scooter", "fusion_lon": 0.0, "lat": 38.91266233333333}, {"rental_uris": {"android": "https://dc.lft.to/lastmile_qr_scan", "ios": "https://dc.lft.to/lastmile_qr_scan"}, "is_reserved": 0, "is_disabled": 0, "name": "35ee0cdd607f840771c54b7c166751c2", "bike_id": "35ee0cdd607f840771c54b7c166751c2", "fusion_lat": 0.0, "lon": -77.03984483333333, "type": "electric_scooter", "fusion_lon": 0.0, "lat": 38.933995833333334}, {"rental_uris": {"android": "https://dc.lft.to/lastmile_qr_scan", "ios": "https://dc.lft.to/lastmile_qr_scan"}, "is_reserved": 0, "is_disabled": 0, "name": "6ac1f2999a632457ee137d3d6d86e636", "bike_id": "6ac1f2999a632457ee137d3d6d86e636", "fusion_lat": 0.0, "lon": -77.00200116666667, "type": "electric_scooter", "fusion_lon": 0.0, "lat": 38.90021633333333}, {"rental_uris": {"android": "https://dc.lft.to/lastmile_qr_scan", "ios": "https://dc.lft.to/lastmile_qr_scan"}, "is_reserved": 0, "is_disabled": 0, "name": "d95bf3104863ad2f5ddbb52458b7b19c", "bike_id": "d95bf3104863ad2f5ddbb52458b7b19c", "fusion_lat": 0.0, "lon": -77.033047, "type": "electric_scooter", "fusion_lon": 0.0, "lat": 38.927420833333336}, {"rental_uris": {"android": "https://dc.lft.to/lastmile_qr_scan", "ios": "https://dc.lft.to/lastmile_qr_scan"}, "is_reserved": 0, "is_disabled": 0, "name": "e5f1007efd85886ee985c00ac302069c", "bike_id": "e5f1007efd85886ee985c00ac302069c", "fusion_lat": 0.0, "lon": -76.980585, "type": "electric_bike", "fusion_lon": 0.0, "lat": 38.972550166666664}, {"rental_uris": {"android": "https://dc.lft.to/lastmile_qr_scan", "ios": "https://dc.lft.to/lastmile_qr_scan"}, "is_reserved": 0, "is_disabled": 0, "name": "bd0dd8f00fea64da1d848fffb5f7b121", "bike_id": "bd0dd8f00fea64da1d848fffb5f7b121", "fusion_lat": 0.0, "lon": -77.02091866666666, "type": "electric_scooter", "fusion_lon": 0.0, "lat": 38.88524533333333}, {"rental_uris": {"android": "https://dc.lft.to/lastmile_qr_scan", "ios": "https://dc.lft.to/lastmile_qr_scan"}, "is_reserved": 0, "is_disabled": 0, "name": "cfb46d90996f0ce8d0a2ffdbe55b18bd", "bike_id": "cfb46d90996f0ce8d0a2ffdbe55b18bd", "fusion_lat": 0.0, "lon": -77.0483395, "type": "electric_scooter", "fusion_lon": 0.0, "lat": 38.90040183333333}, {"rental_uris": {"android": "https://dc.lft.to/lastmile_qr_scan", "ios": "https://dc.lft.to/lastmile_qr_scan"}, "is_reserved": 0, "is_disabled": 0, "name": "0d5f0329e99a40a1cc40d2ae5e0218a1", "bike_id": "0d5f0329e99a40a1cc40d2ae5e0218a1", "fusion_lat": 0.0, "lon": -77.0344255, "type": "electric_scooter", "fusion_lon": 0.0, "lat": 38.90651866666666}, {"rental_uris": {"android": "https://dc.lft.to/lastmile_qr_scan", "ios": "https://dc.lft.to/lastmile_qr_scan"}, "is_reserved": 0, "is_disabled": 0, "name": "ec0faedfed27302d531971849a467eaa", "bike_id": "ec0faedfed27302d531971849a467eaa", "fusion_lat": 0.0, "lon": -76.97969366666666, "type": "electric_bike", "fusion_lon": 0.0, "lat": 38.92046283333333}, {"rental_uris": {"android": "https://dc.lft.to/lastmile_qr_scan", "ios": "https://dc.lft.to/lastmile_qr_scan"}, "is_reserved": 0, "is_disabled": 0, "name": "7cad0183decef90674f9abf59a4efa48", "bike_id": "7cad0183decef90674f9abf59a4efa48", "fusion_lat": 0.0, "lon": -77.01802383333333, "type": "electric_scooter", "fusion_lon": 0.0, "lat": 38.921271833333336}, {"rental_uris": {"android": "https://dc.lft.to/lastmile_qr_scan", "ios": "https://dc.lft.to/lastmile_qr_scan"}, "is_reserved": 0, "is_disabled": 0, "name": "9cf29137b860e5ee289d140a7aeea7b5", "bike_id": "9cf29137b860e5ee289d140a7aeea7b5", "fusion_lat": 0.0, "lon": -77.02784433333333, "type": "electric_scooter", "fusion_lon": 0.0, "lat": 38.92767966666667}, {"rental_uris": {"android": "https://dc.lft.to/lastmile_qr_scan", "ios": "https://dc.lft.to/lastmile_qr_scan"}, "is_reserved": 0, "is_disabled": 0, "name": "15fd6c48a5fa555ca3ce900960a2ef3c", "bike_id": "15fd6c48a5fa555ca3ce900960a2ef3c", "fusion_lat": 0.0, "lon": -77.023241, "type": "electric_scooter", "fusion_lon": 0.0, "lat": 38.957424333333336}, {"rental_uris": {"android": "https://dc.lft.to/lastmile_qr_scan", "ios": "https://dc.lft.to/lastmile_qr_scan"}, "is_reserved": 0, "is_disabled": 0, "name": "cc6930c33949ea3b6c9158ce29197a09", "bike_id": "cc6930c33949ea3b6c9158ce29197a09", "fusion_lat": 0.0, "lon": -77.0454815, "type": "electric_scooter", "fusion_lon": 0.0, "lat": 38.91364383333333}, {"rental_uris": {"android": "https://dc.lft.to/lastmile_qr_scan", "ios": "https://dc.lft.to/lastmile_qr_scan"}, "is_reserved": 0, "is_disabled": 0, "name": "4841caa98b4560398693d15b36250561", "bike_id": "4841caa98b4560398693d15b36250561", "fusion_lat": 0.0, "lon": -77.040152, "type": "electric_scooter", "fusion_lon": 0.0, "lat": 38.90986483333333}, {"rental_uris": {"android": "https://dc.lft.to/lastmile_qr_scan", "ios": "https://dc.lft.to/lastmile_qr_scan"}, "is_reserved": 0, "is_disabled": 0, "name": "5599dfabd840c7f840e3b7c2a1fcacea", "bike_id": "5599dfabd840c7f840e3b7c2a1fcacea", "fusion_lat": 0.0, "lon": -77.03331733333333, "type": "electric_scooter", "fusion_lon": 0.0, "lat": 38.921512}, {"rental_uris": {"android": "https://dc.lft.to/lastmile_qr_scan", "ios": "https://dc.lft.to/lastmile_qr_scan"}, "is_reserved": 0, "is_disabled": 0, "name": "4821805da6461b9e9100f78a4acd5ce9", "bike_id": "4821805da6461b9e9100f78a4acd5ce9", "fusion_lat": 0.0, "lon": -77.03451266666667, "type": "electric_scooter", "fusion_lon": 0.0, "lat": 38.90636383333333},