{"data": {"bikes": [{"lat": 38.92324166666667, "fusion_lat": 0.0, "is_disabled": 0, "fusion_lon": 0.0, "type": "electric_scooter", "bike_id": "c0356bc69c30f9e0347a8d1fdca3ece6", "is_reserved": 0, "rental_uris": {"ios": "https://dc.lft.to/lastmile_qr_scan", "android": "https://dc.lft.to/lastmile_qr_scan"}, "name": "c0356bc69c30f9e0347a8d1fdca3ece6", "lon": -77.02112383333333}, {"lat": 38.903709666666664, "fusion_lat": 0.0, "is_disabled": 0, "fusion_lon": 0.0, "type": "electric_scooter", "bike_id": "02d3009cd0166db2365e37166ee8e127", "is_reserved": 0, "rental_uris": {"ios": "https://dc.lft.to/lastmile_qr_scan", "android": "https://dc.lft.to/lastmile_qr_scan"}, "name": "02d3009cd0166db2365e37166ee8e127", "lon": -77.04325166666666}, {"lat": 38.86080583333333, "fusion_lat": 0.0, "is_disabled": 0, "fusion_lon": 0.0, "type": "electric_scooter", "bike_id": "0b8dbabfe42f15be740e83e0d73fe41a", "is_reserved": 0, "rental_uris": {"ios": "https://dc.lft.to/lastmile_qr_scan", "android": "https://dc.lft.to/lastmile_qr_scan"}, "name": "0b8dbabfe42f15be740e83e0d73fe41a", "lon": -76.9837205}, {"lat": 38.924926, "fusion_lat": 0.0, "is_disabled": 0, "fusion_lon": 0.0, "type": "electric_scooter", "bike_id": "a90ebd429f22006704932c69cdf4672d", "is_reserved": 0, "rental_uris": {"ios": "https://dc.lft.to/lastmile_qr_scan", "android": "https://dc.lft.to/lastmile_qr_scan"}, "name": "a90ebd429f22006704932c69cdf4672d", "lon": -77.021778}, {"lat": 38.90513716666667, "fusion_lat": 0.0, "is_disabled": 0, "fusion_lon": 0.0, "type": "electric_scooter", "bike_id": "8a712b396b0b20703bda8ccb629c413f", "is_reserved": 0, "rental_uris": {"ios": "https://dc.lft.to/lastmile_qr_scan", "android": "https://dc.lft.to/lastmile_qr_scan"}, "name": "8a712b396b0b20703bda8ccb629c413f", "lon": -77.05003283333333}, {"lat": 38.91683916666667, "fusion_lat": 0.0, "is_disabled": 0, "fusion_lon": 0.0, "type": "electric_bike", "bike_id": "3721ad754669684f4b3a0dba37523e71", "is_reserved": 0, "rental_uris": {"ios": "https://dc.lft.to/lastmile_qr_scan", "android": "https://dc.lft.to/lastmile_qr_scan"}, "name": "3721ad754669684f4b3a0dba37523e71", "lon": -77.02285533333334}, {"lat": 38.9247825, "fusion_lat": 0.0, "is_disabled": 0, "fusion_lon": 0.0, "type": "electric_scooter", "bike_id": "07e045eb87077efe9af6fab2491ad0c9", "is_reserved": 0, "rental_uris": {"ios": "https://dc.lft.to/lastmile_qr_scan", "android": "https://dc.lft.to/lastmile_qr_scan"}, "name": "07e045eb87077efe9af6fab2491ad0c9", "lon": -77.02574083333333}, {"lat": 38.91441233333333, "fusion_lat": 0.0, "is_disabled": 0, "fusion_lon": 0.0, "type": "electric_scooter", "bike_id": "9d217acd39fe66e2b7da9f6bcfc745ba", "is_reserved": 0, "rental_uris": {"ios": "https://dc.lft.to/lastmile_qr_scan", "android": "https://dc.lft.to/lastmile_qr_scan"}, "name": "9d217acd39fe66e2b7da9f6bcfc745ba", "lon": -77.0229105}, {"lat": 38.87870983333333, "fusion_lat": 0.0, "is_disabled": 0, "fusion_lon": 0.0, "type": "electric_scooter", "bike_id": "e1f78200eb8ebc7052f0d1f10f16c77e", "is_reserved": 0, "rental_uris": {"ios": "https://dc.lft.to/lastmile_qr_scan", "android": "https://dc.lft.to/lastmile_qr_scan"}, "name": "e1f78200eb8ebc7052f0d1f10f16c77e", "lon": -77.0012125}, {"lat": 38.908329333333334, "fusion_lat": 0.0, "is_disabled": 0, "fusion_lon": 0.0, "type": "electric_scooter", "bike_id": "16b9dda606d54cbfa220737bbd4dd9c3", "is_reserved": 0, "rental_uris": {"ios": "https://dc.lft.to/lastmile_qr_scan", "android": "https://dc.lft.to/lastmile_qr_scan"}, "name": "16b9dda606d54cbfa220737bbd4dd9c3", "lon": -77.0550205}, {"lat": 38.9071335, "fusion_lat": 0.0, "is_disabled": 0, "fusion_lon": 0.0, "type": "electric_scooter", "bike_id": "d2cffa8dfd7f0e0b567e657d294b8053", "is_reserved": 0, "rental_uris": {"ios": "https://dc.lft.to/lastmile_qr_scan", "android": "https://dc.lft.to/lastmile_qr_scan"}, "name": "d2cffa8dfd7f0e0b567e657d294b8053", "lon": -77.032072}, {"lat": 38.88738266666667, "fusion_lat": 0.0, "is_disabled": 0, "fusion_lon": 0.0, "type": "electric_scooter", "bike_id": "9f37c27aec7370e429463f99775a3700", "is_reserved": 0, "rental_uris": {"ios": "https://dc.lft.to/lastmile_qr_scan", "android": "https://dc.lft.to/lastmile_qr_scan"}, "name": "9f37c27aec7370e429463f99775a3700", "lon": -77.00201433333334}, {"lat": 38.894964, "fusion_lat": 0.0, "is_disabled": 0, "fusion_lon": 0.0, "type": "electric_scooter", "bike_id": "c2a968cd6d920bdd2d3ae29f0cd1a83d", "is_reserved": 0, "rental_uris": {"ios": "https://dc.lft.to/lastmile_qr_scan", "android": "https://dc.lft.to/lastmile_qr_scan"}, "name": "c2a968cd6d920bdd2d3ae29f0cd1a83d", "lon": -77.022031}, {"lat": 38.92651016666667, "fusion_lat": 0.0, "is_disabled": 0, "fusion_lon": 0.0, "type": "electric_scooter", "bike_id": "5bdcf55333a1c287aa214e43a4a07722", "is_reserved": 0, "rental_uris": {"ios": "https://dc.lft.to/lastmile_qr_scan", "android": "https://dc.lft.to/lastmile_qr_scan"}, "name": "5bdcf55333a1c287aa214e43a4a07722", "lon": -77.03845866666667}, {"lat": 38.809753666666666, "fusion_lat": 0.0, "is_disabled": 0, "fusion_lon": 0.0, "type": "electric_bike", "bike_id": "230bfcef6046a95f4e27d8aa911fc7d2", "is_reserved": 0, "rental_uris": {"ios": "https://dc.lft.to/lastmile_qr_scan", "android": "https://dc.lft.to/lastmile_qr_scan"}, "name": "230bfcef6046a95f4e27d8aa911fc7d2", "lon": -77.0765635}, {"lat": 38.898149333333336, "fusion_lat": 0.0, "is_disabled": 0, "fusion_lon": 0.0, "type": "electric_scooter", "bike_id": "865c852c99820d411d9c838547461aef", "is_reserved": 0, "rental_uris": {"ios": "https://dc.lft.to/lastmile_qr_scan", "android": "https://dc.lft.to/lastmile_qr_scan"}, "name": "865c852c99820d411d9c838547461aef", "lon": -77.01269516666666}, {"lat": 38.900377166666665, "fusion_lat": 0.0, "is_disabled": 0, "fusion_lon": 0.0, "type": "electric_scooter", "bike_id": "48500c9ff9fec4ed0ec035f61f816283", "is_reserved": 0, "rental_uris": {"ios": "https://dc.lft.to/lastmile_qr_scan", "android": "https://dc.lft.to/lastmile_qr_scan"}, "name": "48500c9ff9fec4ed0ec035f61f816283", "lon": -76.991613}, {"lat": 38.876948, "fusion_lat": 0.0, "is_disabled": 0, "fusion_lon": 0.0, "type": "electric_scooter", "bike_id": "399dedf610986e81ac2604b915448e16", "is_reserved": 0, "rental_uris": {"ios": "https://dc.lft.to/lastmile_qr_scan", "android": "https://dc.lft.to/lastmile_qr_scan"}, "name": "399dedf610986e81ac2604b915448e16", "lon": -77.00206833333333}, {"lat": 38.92408616666667, "fusion_lat": 0.0, "is_disabled": 0, "fusion_lon": 0.0, "type": "electric_scooter", "bike_id": "ba5249bc4625bc99f4c27cf378401c3e", "is_reserved": 0, "rental_uris": {"ios": "https://dc.lft.to/lastmile_qr_scan", "android": "https://dc.lft.to/lastmile_qr_scan"}, "name": "ba5249bc4625bc99f4c27cf378401c3e", "lon": -77.021388}, {"lat": 38.91916966666667, "fusion_lat": 0.0, "is_disabled": 0, "fusion_lon": 0.0, "type": "electric_scooter", "bike_id": "8ed1e4bf70d610796e491d24fd6963c5", "is_reserved": 0, "rental_uris": {"ios": "https://dc.lft.to/lastmile_qr_scan", "android": "https://dc.lft.to/lastmile_qr_scan"}, "name": "8ed1e4bf70d610796e491d24fd6963c5", "lon": -77.033347}, {"lat": 38.91992233333333, "fusion_lat": 0.0, "is_disabled": 0, "fusion_lon": 0.0, "type": "electric_scooter", "bike_id": "0adaa94743fe3a4948212d1313f94dbb", "is_reserved": 0, "rental_uris": {"ios": "https://dc.lft.to/lastmile_qr_scan", "android": "https://dc.lft.to/lastmile_qr_scan"}, "name": "0adaa94743fe3a4948212d1313f94dbb", "lon": -77.032493}, {"lat": 38.903643833333334, "fusion_lat": 0.0, "is_disabled": 0, "fusion_lon": 0.0, "type": "electric_scooter", "bike_id": "0d5edcbe66bbaa5945667a1a4e0c098f", "is_reserved": 0, "rental_uris": {"ios": "https://dc.lft.to/lastmile_qr_scan", "android": "https://dc.lft.to/lastmile_qr_scan"}, "name": "0d5edcbe66bbaa5945667a1a4e0c098f", "lon": -77.060066}, {"lat": 38.924633666666665, "fusion_lat": 0.0, "is_disabled": 0, "fusion_lon": 0.0, "type": "electric_scooter", "bike_id": "20451923c9dcd64edb463b331602d2a4", "is_reserved": 0, "rental_uris": {"ios": "https://dc.lft.to/lastmile_qr_scan", "android": "https://dc.lft.to/lastmile_qr_scan"}, "name": "20451923c9dcd64edb463b331602d2a4", "lon": -77.02238}, {"lat": 38.89392616666667, "fusion_lat": 0.0, "is_disabled": 0, "fusion_lon": 0.0, "type": "electric_scooter", "bike_id": "2542b272f42930c459a5427f0eb96b4e", "is_reserved": 0, "rental_uris": {"ios": "https://dc.lft.to/lastmile_qr_scan", "android": "https://dc.lft.to/lastmile_qr_scan"}, "name": "2542b272f42930c459a5427f0eb96b4e", "lon": -76.97820666666667}, {"lat": 38.90053966666667, "fusion_lat": 0.0, "is_disabled": 0, "fusion_lon": 0.0, "type": "electric_scooter", "bike_id": "800051afb53cc51ee838494447f1fbf8", "is_reserved": 0, "rental_uris": {"ios": "https://dc.lft.to/lastmile_qr_scan", "android": "https://dc.lft.to/lastmile_qr_scan"}, "name": "800051afb53cc51ee838494447f1fbf8", "lon": -76.9870835}, {"lat": 38.917033, "fusion_lat": 0.0, "is_disabled": 0, "fusion_lon": 0.0, "type": "electric_scooter", "bike_id": "605ab1aae776878bb773c22b2ad895ba", "is_reserved": 0, "rental_uris": {"ios": "https://dc.lft.to/lastmile_qr_scan", "android": "https://dc.lft.to/lastmile_qr_scan"}, "name": "605ab1aae776878bb773c22b2ad895ba", "lon": -77.0240355}, {"lat": 38.929758666666665, "fusion_lat": 0.0, "is_disabled": 0, "fusion_lon": 0.0, "type": "electric_bike", "bike_id": "77ae776bef706cc4370220a7d8b11752", "is_reserved": 0, "rental_uris": {"ios": "https://dc.lft.to/lastmile_qr_scan", "android": "https://dc.lft.to/lastmile_qr_scan"}, "name": "77ae776bef706cc4370220a7d8b11752", "lon": -76.98603783333333}, {"lat": 38.905198666666664, "fusion_lat": 0.0, "is_disabled": 0, "fusion_lon": 0.0, "type": "electric_scooter", "bike_id": "d6f2072d3aa1a17b9c85967b34434b3a", "is_reserved": 0, "rental_uris": {"ios": "https://dc.lft.to/lastmile_qr_scan", "android": "https://dc.lft.to/lastmile_qr_scan"}, "name": "d6f2072d3aa1a17b9c85967b34434b3a", "lon": -77.02959016666667}, {"lat": 38.896244333333335, "fusion_lat": 0.0, "is_disabled": 0, "fusion_lon": 0.0, "type": "electric_scooter", "bike_id": "34e6c368b534bb5d69f09c61e072f601", "is_reserved": 0, "rental_uris": {"ios": "https://dc.lft.to/lastmile_qr_scan", "android": "https://dc.lft.to/lastmile_qr_scan"}, "name": "34e6c368b534bb5d69f09c61e072f601", "lon": -77.02839066666667}, {"lat": 38.877182833333336, "fusion_lat": 0.0, "is_disabled": 0, "fusion_lon": 0.0, "type": "electric_scooter", "bike_id": "1d16365e8724f21bd0b1dd758329edbd", "is_reserved": 0, "rental_uris": {"ios": "https://dc.lft.to/lastmile_qr_scan", "android": "https://dc.lft.to/lastmile_qr_scan"}, "name": "1d16365e8724f21bd0b1dd758329edbd", "lon": -77.01659683333334}, {"lat": 38.8972475, "fusion_lat": 0.0, "is_disabled": 0, "fusion_lon": 0.0, "type": "electric_scooter", "bike_id": "06caef890c9e94a2f0d8977e4a611784", "is_reserved": 0, "rental_uris": {"ios": "https://dc.lft.to/lastmile_qr_scan", "android": "https://dc.lft.to/lastmile_qr_scan"}, "name": "06caef890c9e94a2f0d8977e4a611784", "lon": -77.01913183333333}, {"lat": 38.922977333333336, "fusion_lat": 0.0, "is_disabled": 0, "fusion_lon": 0.0, "type": "electric_scooter", "bike_id": "aeb974112ed24b10f0900cb299c75135", "is_reserved": 0, "rental_uris": {"ios": "https://dc.lft.to/lastmile_qr_scan", "android": "https://dc.lft.to/lastmile_qr_scan"}, "name": "aeb974112ed24b10f0900cb299c75135", "lon": -77.04268366666666}, {"lat": 38.917764, "fusion_lat": 0.0, "is_disabled": 0, "fusion_lon": 0.0, "type": "electric_scooter", "bike_id": "c18fb76414e15519cd2df85ea596a964", "is_reserved": 0, "rental_uris": {"ios": "https://dc.lft.to/lastmile_qr_scan", "android": "https://dc.lft.to/lastmile_qr_scan"}, "name": "c18fb76414e15519cd2df85ea596a964", "lon": -77.02324833333333}, {"lat": 38.900569833333336, "fusion_lat": 0.0, "is_disabled": 0, "fusion_lon": 0.0, "type": "electric_scooter", "bike_id": "a5655224118557de8e9762a0b628e042", "is_reserved": 0, "rental_uris": {"ios": "https://dc.lft.to/lastmile_qr_scan", "android": "https://dc.lft.to/lastmile_qr_scan"}, "name": "a5655224118557de8e9762a0b628e042", "lon": -77.04550483333334}, {"lat": 38.903566, "fusion_lat": 0.0, "is_disabled": 0, "fusion_lon": 0.0, "type": "electric_scooter", "bike_id": "095d85f94f67ae8172e5745a73b73a41", "is_reserved": 0, "rental_uris": {"ios": "https://dc.lft.to/lastmile_qr_scan", "android": "https://dc.lft.to/lastmile_qr_scan"}, "name": "095d85f94f67ae8172e5745a73b73a41", "lon": -77.02617166666667}, {"lat": 38.930567833333335, "fusion_lat": 0.0, "is_disabled": 0, "fusion_lon": 0.0, "type": "electric_scooter", "bike_id": "a1fc07f4a9279f3bb11c2d9662617417", "is_reserved": 0, "rental_uris": {"ios": "https://dc.lft.to/lastmile_qr_scan", "android": "https://dc.lft.to/lastmile_qr_scan"}, "name": "a1fc07f4a9279f3bb11c2d9662617417", "lon": -77.02321333333333}, {"lat": 38.92425083333333, "fusion_lat": 0.0, "is_disabled": 0, "fusion_lon": 0.0, "type": "electric_scooter", "bike_id": "d8bfeaed7168b16ffc64df5875576e06", "is_reserved": 0, "rental_uris": {"ios": "https://dc.lft.to/lastmile_qr_scan", "android": "https://dc.lft.to/lastmile_qr_scan"}, "name": "d8bfeaed7168b16ffc64df5875576e06", "lon": -77.0226945}, {"lat": 38.899578166666664, "fusion_lat": 0.0, "is_disabled": 0, "fusion_lon": 0.0, "type": "electric_scooter", "bike_id": "dd429eafe1201fbcb6ab703e10508b1f", "is_reserved": 0, "rental_uris": {"ios": "https://dc.lft.to/lastmile_qr_scan", "android": "https://dc.lft.to/lastmile_qr_scan"}, "name": "dd429eafe1201fbcb6ab703e10508b1f", "lon": -77.01507}, {"lat": 38.920593833333335, "fusion_lat": 0.0, "is_disabled": 0, "fusion_lon": 0.0, "type": "electric_scooter", "bike_id": "558088e033d017a8f269d44bf3deca0a", "is_reserved": 0, "rental_uris": {"ios": "https://dc.lft.to/lastmile_qr_scan", "android": "https://dc.lft.to/lastmile_qr_scan"}, "name": "558088e033d017a8f269d44bf3deca0a", "lon": -77.02297133333333}, {"lat": 38.915512666666665, "fusion_lat": 0.0, "is_disabled": 0, "fusion_lon": 0.0, "type": "electric_scooter", "bike_id": "b2b7a4a205c5f8d215da5e8933de42ce", "is_reserved": 0, "rental_uris": {"ios": "https://dc.lft.to/lastmile_qr_scan", "android": "https://dc.lft.to/lastmile_qr_scan"}, "name": "b2b7a4a205c5f8d215da5e8933de42ce", "lon": -77.0243075}, {"lat": 38.956328, "fusion_lat": 0.0, "is_disabled": 0, "fusion_lon": 0.0, "type": "electric_scooter", "bike_id": "e4bc9a522860ca38e3ff6937c8d051a5", "is_reserved": 0, "rental_uris": {"ios": "https://dc.lft.to/lastmile_qr_scan", "android": "https://dc.lft.to/lastmile_qr_scan"}, "name": "e4bc9a522860ca38e3ff6937c8d051a5", "lon": -77.03632733333333}, {"lat": 38.92706583333333, "fusion_lat": 0.0, "is_disabled": 0, "fusion_lon": 0.0, "type": "electric_scooter", "bike_id": "3a45af92283b5e318d033ed78fe8a7a4", "is_reserved": 0, "rental_uris": {"ios": "https://dc.lft.to/lastmile_qr_scan", "android": "https://dc.lft.to/lastmile_qr_scan"}, "name": "3a45af92283b5e318d033ed78fe8a7a4", "lon": -77.060039}, {"lat": 38.91541566666667, "fusion_lat": 0.0, "is_disabled": 0, "fusion_lon": 0.0, "type": "electric_scooter", "bike_id": "1c2461a1c7cf319b6d1873125ab9f4b9", "is_reserved": 0, "rental_uris": {"ios": "https://dc.lft.to/lastmile_qr_scan", "android": "https://dc.lft.to/lastmile_qr_scan"}, "name": "1c2461a1c7cf319b6d1873125ab9f4b9", "lon": -77.04449983333333}, {"lat": 38.900340166666666, "fusion_lat": 0.0, "is_disabled": 0, "fusion_lon": 0.0, "type": "electric_scooter", "bike_id": "039eff1eebe22496eea4f95558f6a30b", "is_reserved": 0, "rental_uris": {"ios": "https://dc.lft.to/lastmile_qr_scan", "android": "https://dc.lft.to/lastmile_qr_scan"}, "name": "039eff1eebe22496eea4f95558f6a30b", "lon": -76.9883845}, {"lat": 38.919556666666665, "fusion_lat": 0.0, "is_disabled": 0, "fusion_lon": 0.0, "type": "electric_scooter", "bike_id": "60a560a04d1a0f13523cf1192e909994", "is_reserved": 0, "rental_uris": {"ios": "https://dc.lft.to/lastmile_qr_scan", "android": "https://dc.lft.to/lastmile_qr_scan"}, "name": "60a560a04d1a0f13523cf1192e909994", "lon": -77.07871133333333}, {"lat": 38.930983, "fusion_lat": 0.0, "is_disabled": 0, "fusion_lon": 0.0, "type": "electric_scooter", "bike_id": "dff9f8cc8d619e7270467d9cbdbd3aca", "is_reserved": 0, "rental_uris": {"ios": "https://dc.lft.to/lastmile_qr_scan", "android": "https://dc.lft.to/lastmile_qr_scan"}, "name": "dff9f8cc8d619e7270467d9cbdbd3aca", "lon": -77.02666433333333}, {"lat": 38.95584366666667, "fusion_lat": 0.0, "is_disabled": 0, "fusion_lon": 0.0, "type": "electric_scooter", "bike_id": "376dc703cc58ed40bfb35ce7da3e8262", "is_reserved": 0, "rental_uris": {"ios": "https://dc.lft.to/lastmile_qr_scan", "android": "https://dc.lft.to/lastmile_qr_scan"}, "name": "376dc703cc58ed40bfb35ce7da3e8262", "lon": -77.01786866666667}, {"lat": 38.9044865, "fusion_lat": 0.0, "is_disabled": 0, "fusion_lon": 0.0, "type": "electric_scooter", "bike_id": "43b774cb49604476ecb69540cbf99a64", "is_reserved": 0, "rental_uris": {"ios": "https://dc.lft.to/lastmile_qr_scan", "android": "https://dc.lft.to/lastmile_qr_scan"}, "name": "43b774cb49604476ecb69540cbf99a64", "lon": -77.03435366666666}, {"lat": 38.88504733333333, "fusion_lat": 0.0, "is_disabled": 0, "fusion_lon": 0.0, "type": "electric_scooter", "bike_id": "946b0157fecd3f038edca60835033234", "is_reserved": 0, "rental_uris": {"ios": "https://dc.lft.to/lastmile_qr_scan", "android": "https://dc.lft.to/lastmile_qr_scan"}, "name": "946b0157fecd3f038edca60835033234", "lon": -77.0208415}, {"lat": 38.9011835, "fusion_lat": 0.0, "is_disabled": 0, "fusion_lon": 0.0, "type": "electric_scooter", "bike_id": "db2229b418f5e8e07b41a37a698cc9e0", "is_reserved": 0, "rental_uris": {"ios": "https://dc.lft.to/lastmile_qr_scan", "android": "https://dc.lft.to/lastmile_qr_scan"}, "name": "db2229b418f5e8e07b41a37a698cc9e0", "lon": -76.99852266666667}, {"lat": 38.8950825, "fusion_lat": 0.0, "is_disabled": 0, "fusion_lon": 0.0, "type": "electric_scooter", "bike_id": "9ccaeed2289908109f7a3242caeba47d", "is_reserved": 0, "rental_uris": {"ios": "https://dc.lft.to/lastmile_qr_scan", "android": "https://dc.lft.to/lastmile_qr_scan"}, "name": "9ccaeed2289908109f7a3242caeba47d", "lon": -76.94882883333334}, {"lat": 38.9314155, "fusion_lat": 0.0, "is_disabled": 0, "fusion_lon": 0.0, "type": "electric_scooter", "bike_id": "18be0a0cdfafbb41d6704faef43424e8", "is_reserved": 0, "rental_uris": {"ios": "https://dc.lft.to/lastmile_qr_scan", "android": "https://dc.lft.to/lastmile_qr_scan"}, "name": "18be0a0cdfafbb41d6704faef43424e8", "lon": -77.02152033333333}, {"lat": 38.909729166666665, "fusion_lat": 0.0, "is_disabled": 0, "fusion_lon": 0.0, "type": "electric_scooter", "bike_id": "6bff7031b545b8b17a31da5f34bb787f", "is_reserved": 0, "rental_uris": {"ios": "https://dc.lft.to/lastmile_qr_scan", "android": "https://dc.lft.to/lastmile_qr_scan"}, "name": "6bff7031b545b8b17a31da5f34bb787f", "lon": -77.04873533333334}, {"lat": 38.88621966666667, "fusion_lat": 0.0, "is_disabled": 0, "fusion_lon": 0.0, "type": "electric_scooter", "bike_id": "a50bf8772735e9f7396cd7b34aa1eed7", "is_reserved": 0, "rental_uris": {"ios": "https://dc.lft.to/lastmile_qr_scan", "android": "https://dc.lft.to/lastmile_qr_scan"}, "name": "a50bf8772735e9f7396cd7b34aa1eed7", "lon": -76.926323}, {"lat": 39.0264725, "fusion_lat": 0.0, "is_disabled": 0, "fusion_lon": 0.0, "type": "electric_bike", "bike_id": "0b86ea3b4ec7c3810e3987880d2c5029", "is_reserved": 0, "rental_uris": {"ios": "https://dc.lft.to/lastmile_qr_scan", "android": "https://dc.lft.to/lastmile_qr_scan"}, "name": "0b86ea3b4ec7c3810e3987880d2c5029", "lon": -77.03685616666667}, {"lat": 38.914019833333334, "fusion_lat": 0.0, "is_disabled": 0, "fusion_lon": 0.0, "type": "electric_scooter", "bike_id": "0ce551c234e99d2a4d29e281fb045fe1", "is_reserved": 0, "rental_uris": {"ios": "https://dc.lft.to/lastmile_qr_scan", "android": "https://dc.lft.to/lastmile_qr_scan"}, "name": "0ce551c234e99d2a4d29e281fb045fe1", "lon": -77.00985883333334}, {"lat": 38.9312415, "fusion_lat": 0.0, "is_disabled": 0, "fusion_lon": 0.0, "type": "electric_scooter", "bike_id": "cb14a1f8ba584173ce2dd09bdb371522", "is_reserved": 0, "rental_uris": {"ios": "https://dc.lft.to/lastmile_qr_scan", "android": "https://dc.lft.to/lastmile_qr_scan"}, "name": "cb14a1f8ba584173ce2dd09bdb371522", "lon": -77.03880516666666}, {"lat": 38.9178495, "fusion_lat": 0.0, "is_disabled": 0, "fusion_lon": 0.0, "type": "electric_scooter", "bike_id": "f1417ed989117dd4c30d3ec1d27f8c94", "is_reserved": 0, "rental_uris": {"ios": "https://dc.lft.to/lastmile_qr_scan", "android": "https://dc.lft.to/lastmile_qr_scan"}, "name": "f1417ed989117dd4c30d3ec1d27f8c94", "lon": -77.0230815}, {"lat": 38.932529, "fusion_lat": 0.0, "is_disabled": 0, "fusion_lon": 0.0, "type": "electric_scooter", "bike_id": "337aaec5541497076204f8c70ef7fa9a", "is_reserved": 0, "rental_uris": {"ios": "https://dc.lft.to/lastmile_qr_scan", "android": "https://dc.lft.to/lastmile_qr_scan"}, "name": "337aaec5541497076204f8c70ef7fa9a", "lon": -77.03866833333333}, {"lat": 38.91560416666667, "fusion_lat": 0.0, "is_disabled": 0, "fusion_lon": 0.0, "type": "electric_scooter", "bike_id": "2086a9fa927b2a634f67ada6bf420c3b", "is_reserved": 0, "rental_uris": {"ios": "https://dc.lft.to/lastmile_qr_scan", "android": "https://dc.lft.to/lastmile_qr_scan"}, "name": "2086a9fa927b2a634f67ada6bf420c3b", "lon": -77.03663066666667}, {"lat": 38.900356333333335, "fusion_lat": 0.0, "is_disabled": 0, "fusion_lon": 0.0, "type": "electric_scooter", "bike_id": "006b7849b753d97374b4556386c577b1", "is_reserved": 0, "rental_uris": {"ios": "https://dc.lft.to/lastmile_qr_scan", "android": "https://dc.lft.to/lastmile_qr_scan"}, "name": "006b7849b753d97374b4556386c577b1", "lon": -76.98835616666666}, {"lat": 38.9395705, "fusion_lat": 0.0, "is_disabled": 0, "fusion_lon": 0.0, "type": "electric_scooter", "bike_id": "04fe82da6b327479caff9add24309248", "is_reserved": 0, "rental_uris": {"ios": "https://dc.lft.to/lastmile_qr_scan", "android": "https://dc.lft.to/lastmile_qr_scan"}, "name": "04fe82da6b327479caff9add24309248", "lon": -77.07240833333333}, {"lat": 38.87841, "fusion_lat": 0.0, "is_disabled": 0, "fusion_lon": 0.0, "type": "electric_scooter", "bike_id": "7be19982bc4ef810ce5f2cb2d428dd67", "is_reserved": 0, "rental_uris": {"ios": "https://dc.lft.to/lastmile_qr_scan", "android": "https://dc.lft.to/lastmile_qr_scan"}, "name": "7be19982bc4ef810ce5f2cb2d428dd67", "lon": -76.931291}, {"lat": 39.0106545, "fusion_lat": 0.0, "is_disabled": 0, "fusion_lon": 0.0, "type": "electric_bike", "bike_id": "cc19e32042ec2501d8fc205e6ef76049", "is_reserved": 0, "rental_uris": {"ios": "https://dc.lft.to/lastmile_qr_scan", "android": "https://dc.lft.to/lastmile_qr_scan"}, "name": "cc19e32042ec2501d8fc205e6ef76049", "lon": -76.92242516666667}, {"lat": 38.910324333333335, "fusion_lat": 0.0, "is_disabled": 0, "fusion_lon": 0.0, "type": "electric_scooter", "bike_id": "b6c68f73119f4da0250875b3f90a9b9a", "is_reserved": 0, "rental_uris": {"ios": "https://dc.lft.to/lastmile_qr_scan", "android": "https://dc.lft.to/lastmile_qr_scan"}, "name": "b6c68f73119f4da0250875b3f90a9b9a", "lon": -77.03469033333333}, {"lat": 38.926350166666666, "fusion_lat": 0.0, "is_disabled": 0, "fusion_lon": 0.0, "type": "electric_scooter", "bike_id": "3a5566469e15e876f05765673cf4e299", "is_reserved": 0, "rental_uris": {"ios": "https://dc.lft.to/lastmile_qr_scan", "android": "https://dc.lft.to/lastmile_qr_scan"}, "name": "3a5566469e15e876f05765673cf4e299", "lon": -77.02157683333333}, {"lat": 38.917418166666664, "fusion_lat": 0.0, "is_disabled": 0, "fusion_lon": 0.0, "type": "electric_scooter", "bike_id": "bbf1fed34dd6f5c5897727b38f5b44ec", "is_reserved": 0, "rental_uris": {"ios": "https://dc.lft.to/lastmile_qr_scan", "android": "https://dc.lft.to/lastmile_qr_scan"}, "name": "bbf1fed34dd6f5c5897727b38f5b44ec", "lon": -77.03187283333334}, {"lat": 38.90862383333333, "fusion_lat": 0.0, "is_disabled": 0, "fusion_lon": 0.0, "type": "electric_scooter", "bike_id": "293814ee4b33fa073a19038a9e6c7bf9", "is_reserved": 0, "rental_uris": {"ios": "https://dc.lft.to/lastmile_qr_scan", "android": "https://dc.lft.to/lastmile_qr_scan"}, "name": "293814ee4b33fa073a19038a9e6c7bf9", "lon": -77.03034433333333}, {"lat": 38.9206015, "fusion_lat": 0.0, "is_disabled": 0, "fusion_lon": 0.0, "type": "electric_scooter", "bike_id": "4e2657610bba7daa6b767e2aaf030609", "is_reserved": 0, "rental_uris": {"ios": "https://dc.lft.to/lastmile_qr_scan", "android": "https://dc.lft.to/lastmile_qr_scan"}, "name": "4e2657610bba7daa6b767e2aaf030609", "lon": -77.02559766666667}, {"lat": 38.90580766666667, "fusion_lat": 0.0, "is_disabled": 0, "fusion_lon": 0.0, "type": "electric_scooter", "bike_id": "02a6460142638b1a5c87141f14d5f9a5", "is_reserved": 0, "rental_uris": {"ios": "https://dc.lft.to/lastmile_qr_scan", "android": "https://dc.lft.to/lastmile_qr_scan"}, "name": "02a6460142638b1a5c87141f14d5f9a5", "lon": -77.00610266666666}, {"lat": 38.9312515, "fusion_lat": 0.0, "is_disabled": 0, "fusion_lon": 0.0, "type": "electric_scooter", "bike_id": "f939e0046806517af3c5cf7dfcf8ae05", "is_reserved": 0, "rental_uris": {"ios": "https://dc.lft.to/lastmile_qr_scan", "android": "https://dc.lft.to/lastmile_qr_scan"}, "name": "f939e0046806517af3c5cf7dfcf8ae05", "lon": -77.021982}, {"lat": 38.8960685, "fusion_lat": 0.0, "is_disabled": 0, "fusion_lon": 0.0, "type": "electric_scooter", "bike_id": "ab52964b6e3e39251224a39a7d55ed74", "is_reserved": 0, "rental_uris": {"ios": "https://dc.lft.to/lastmile_qr_scan", "android": "https://dc.lft.to/lastmile_qr_scan"}, "name": "ab52964b6e3e39251224a39a7d55ed74", "lon": -77.02779916666667}, {"lat": 38.88274716666667, "fusion_lat": 0.0, "is_disabled": 0, "fusion_lon": 0.0, "type": "electric_scooter", "bike_id": "ab710822a752e55a821802fb0522381f", "is_reserved": 0, "rental_uris": {"ios": "https://dc.lft.to/lastmile_qr_scan", "android": "https://dc.lft.to/lastmile_qr_scan"}, "name": "ab710822a752e55a821802fb0522381f", "lon": -77.005781}, {"lat": 38.875079, "fusion_lat": 0.0, "is_disabled": 0, "fusion_lon": 0.0, "type": "electric_scooter", "bike_id": "2cb6084e3ec34df8883ec1be3977bea2", "is_reserved": 0, "rental_uris": {"ios": "https://dc.lft.to/lastmile_qr_scan", "android": "https://dc.lft.to/lastmile_qr_scan"}, "name": "2cb6084e3ec34df8883ec1be3977bea2", "lon": -76.97653133333333}, {"lat": 38.9028075, "fusion_lat": 0.0, "is_disabled": 0, "fusion_lon": 0.0, "type": "electric_scooter", "bike_id": "09beee509217590b0fc12856f91aad28", "is_reserved": 0, "rental_uris": {"ios": "https://dc.lft.to/lastmile_qr_scan", "android": "https://dc.lft.to/lastmile_qr_scan"}, "name": "09beee509217590b0fc12856f91aad28", "lon": -77.02273416666667}, {"lat": 38.9086465, "fusion_lat": 0.0, "is_disabled": 0, "fusion_lon": 0.0, "type": "electric_scooter", "bike_id": "6b5749e9f286af8dd2c0e07755bdc513", "is_reserved": 0, "rental_uris": {"ios": "https://dc.lft.to/lastmile_qr_scan", "android": "https://dc.lft.to/lastmile_qr_scan"}, "name": "6b5749e9f286af8dd2c0e07755bdc513", "lon": -77.012454}, {"lat": 38.89868233333333, "fusion_lat": 0.0, "is_disabled": 0, "fusion_lon": 0.0, "type": "electric_scooter", "bike_id": "1040abb7734b5b84c58278f269b47f68", "is_reserved": 0, "rental_uris": {"ios": "https://dc.lft.to/lastmile_qr_scan", "android": "https://dc.lft.to/lastmile_qr_scan"}, "name": "1040abb7734b5b84c58278f269b47f68", "lon": -76.94643116666667}, {"lat": 38.9253655, "fusion_lat": 0.0, "is_disabled": 0, "fusion_lon": 0.0, "type": "electric_scooter", "bike_id": "74bc9014636f5f24f84648f1b2c17ae5", "is_reserved": 0, "rental_uris": {"ios": "https://dc.lft.to/lastmile_qr_scan", "android": "https://dc.lft.to/lastmile_qr_scan"}, "name": "74bc9014636f5f24f84648f1b2c17ae5", "lon": -77.04257833333334}, {"lat": 38.922074, "fusion_lat": 0.0, "is_disabled": 0, "fusion_lon": 0.0, "type": "electric_scooter", "bike_id": "34969526b3832968f4373ec28d6add0e", "is_reserved": 0, "rental_uris": {"ios": "https://dc.lft.to/lastmile_qr_scan", "android": "https://dc.lft.to/lastmile_qr_scan"}, "name": "34969526b3832968f4373ec28d6add0e", "lon": -77.03779183333333}, {"lat": 38.90895716666667, "fusion_lat": 0.0, "is_disabled": 0, "fusion_lon": 0.0, "type": "electric_scooter", "bike_id": "c797568c9079f34167a153c7f8a88a84", "is_reserved": 0, "rental_uris": {"ios": "https://dc.lft.to/lastmile_qr_scan", "android": "https://dc.lft.to/lastmile_qr_scan"}, "name": "c797568c9079f34167a153c7f8a88a84", "lon": -77.04304533333334}, {"lat": 38.92570466666667, "fusion_lat": 0.0, "is_disabled": 0, "fusion_lon": 0.0, "type": "electric_scooter", "bike_id": "91d45d43c31d07f7853ca43e145bec31", "is_reserved": 0, "rental_uris": {"ios": "https://dc.lft.to/lastmile_qr_scan", "android": "https://dc.lft.to/lastmile_qr_scan"}, "name": "91d45d43c31d07f7853ca43e145bec31", "lon": -77.02881183333334}, {"lat": 38.89969466666667, "fusion_lat": 0.0, "is_disabled": 0, "fusion_lon": 0.0, "type": "electric_scooter", "bike_id": "86f871f00e8d5de4e954c51f94ac720c", "is_reserved": 0, "rental_uris": {"ios": "https://dc.lft.to/lastmile_qr_scan", "android": "https://dc.lft.to/lastmile_qr_scan"}, "name": "86f871f00e8d5de4e954c51f94ac720c", "lon": -77.03945933333334}, {"lat": 38.870670833333335, "fusion_lat": 0.0, "is_disabled": 0, "fusion_lon": 0.0, "type": "electric_scooter", "bike_id": "a886e7e89ca20424248c99e925f67191", "is_reserved": 0, "rental_uris": {"ios": "https://dc.lft.to/lastmile_qr_scan", "android": "https://dc.lft.to/lastmile_qr_scan"}, "name": "a886e7e89ca20424248c99e925f67191", "lon": -76.97937266666666}, {"lat": 38.93091116666667, "fusion_lat": 0.0, "is_disabled": 0, "fusion_lon": 0.0, "type": "electric_scooter", "bike_id": "5c52bb38ddc4e714e957dd4a2d63986a", "is_reserved": 0, "rental_uris": {"ios": "https://dc.lft.to/lastmile_qr_scan", "android": "https://dc.lft.to/lastmile_qr_scan"}, "name": "5c52bb38ddc4e714e957dd4a2d63986a", "lon": -77.03443633333333}, {"lat": 38.83060583333334, "fusion_lat": 0.0, "is_disabled": 0, "fusion_lon": 0.0, "type": "electric_bike", "bike_id": "4a2524d5f9e5a722ded12e188de13056", "is_reserved": 0, "rental_uris": {"ios": "https://dc.lft.to/lastmile_qr_scan", "android": "https://dc.lft.to/lastmile_qr_scan"}, "name": "4a2524d5f9e5a722ded12e188de13056", "lon": -77.04076216666667}, {"lat": 38.90502433333333, "fusion_lat": 0.0, "is_disabled": 0, "fusion_lon": 0.0, "type": "electric_scooter", "bike_id": "f52273847e169595f66a15a6c2da98ae", "is_reserved": 0, "rental_uris": {"ios": "https://dc.lft.to/lastmile_qr_scan", "android": "https://dc.lft.to/lastmile_qr_scan"}, "name": "f52273847e169595f66a15a6c2da98ae", "lon": -77.02943033333334}, {"lat": 38.899575666666664, "fusion_lat": 0.0, "is_disabled": 0, "fusion_lon": 0.0, "type": "electric_scooter", "bike_id": "dc4967b3528739faaf1a8f3461030b22", "is_reserved": 0, "rental_uris": {"ios": "https://dc.lft.to/lastmile_qr_scan", "android": "https://dc.lft.to/lastmile_qr_scan"}, "name": "dc4967b3528739faaf1a8f3461030b22", "lon": -77.01504666666666}, {"lat": 38.89937916666667, "fusion_lat": 0.0, "is_disabled": 0, "fusion_lon": 0.0, "type": "electric_scooter", "bike_id": "9aa81b17d0f80a80e1ce2906a14ab7ec", "is_reserved": 0, "rental_uris": {"ios": "https://dc.lft.to/lastmile_qr_scan", "android": "https://dc.lft.to/lastmile_qr_scan"}, "name": "9aa81b17d0f80a80e1ce2906a14ab7ec", "lon": -77.02808216666666}, {"lat": 38.915723166666666, "fusion_lat": 0.0, "is_disabled": 0, "fusion_lon": 0.0, "type": "electric_scooter", "bike_id": "1f31dfaff96341a0ca0bcbf00bf4e9c9", "is_reserved": 0, "rental_uris": {"ios": "https://dc.lft.to/lastmile_qr_scan", "android": "https://dc.lft.to/lastmile_qr_scan"}, "name": "1f31dfaff96341a0ca0bcbf00bf4e9c9", "lon": -77.01990366666666}, {"lat": 38.892285333333334, "fusion_lat": 0.0, "is_disabled": 0, "fusion_lon": 0.0, "type": "electric_scooter", "bike_id": "71a50e1b61c6539495eb18a856434e87", "is_reserved": 0, "rental_uris": {"ios": "https://dc.lft.to/lastmile_qr_scan", "android": "https://dc.lft.to/lastmile_qr_scan"}, "name": "71a50e1b61c6539495eb18a856434e87", "lon": -77.02417066666666}, {"lat": 38.89733283333333, "fusion_lat": 0.0, "is_disabled": 0, "fusion_lon": 0.0, "type": "electric_scooter", "bike_id": "cb53b6e00e4289447ffef82b4fbb617e", "is_reserved": 0, "rental_uris": {"ios": "https://dc.lft.to/lastmile_qr_scan", "android": "https://dc.lft.to/lastmile_qr_scan"}, "name": "cb53b6e00e4289447ffef82b4fbb617e", "lon": -77.02450916666666}, {"lat": 38.91412166666667, "fusion_lat": 0.0, "is_disabled": 0, "fusion_lon": 0.0, "type": "electric_scooter", "bike_id": "4732b693a7f2e455412befd03b83d333", "is_reserved": 0, "rental_uris": {"ios": "https://dc.lft.to/lastmile_qr_scan", "android": "https://dc.lft.to/lastmile_qr_scan"}, "name": "4732b693a7f2e455412befd03b83d333", "lon": -77.0221185}, {"lat": 38.89737366666667, "fusion_lat": 0.0, "is_disabled": 0, "fusion_lon": 0.0, "type": "electric_scooter", "bike_id": "fb6db8613c92456e0b90db244afa1449", "is_reserved": 0, "rental_uris": {"ios": "https://dc.lft.to/lastmile_qr_scan", "android": "https://dc.lft.to/lastmile_qr_scan"}, "name": "fb6db8613c92456e0b90db244afa1449", "lon": -76.99218166666667}, {"lat": 38.907116333333335, "fusion_lat": 0.0, "is_disabled": 0, "fusion_lon": 0.0, "type": "electric_scooter", "bike_id": "f8e3d82d206d831fb0b74a9f6dc22ef3", "is_reserved": 0, "rental_uris": {"ios": "https://dc.lft.to/lastmile_qr_scan", "android": "https://dc.lft.to/lastmile_qr_scan"}, "name": "f8e3d82d206d831fb0b74a9f6dc22ef3", "lon": -77.05136666666667}, {"lat": 38.895081833333336, "fusion_lat": 0.0, "is_disabled": 0, "fusion_lon": 0.0, "type": "electric_scooter", "bike_id": "89c3ef4421bd37923f49dcf669799db8", "is_reserved": 0, "rental_uris": {"ios": "https://dc.lft.to/lastmile_qr_scan", "android": "https://dc.lft.to/lastmile_qr_scan"}, "name": "89c3ef4421bd37923f49dcf669799db8", "lon": -77.04675316666666}, {"lat": 38.89929083333333, "fusion_lat": 0.0, "is_disabled": 0, "fusion_lon": 0.0, "type": "electric_scooter", "bike_id": "ccd7c94a8282a9ec6ad339cf8af90a13", "is_reserved": 0, "rental_uris": {"ios": "https://dc.lft.to/lastmile_qr_scan", "android": "https://dc.lft.to/lastmile_qr_scan"}, "name": "ccd7c94a8282a9ec6ad339cf8af90a13", "lon": -77.032721}, {"lat": 38.917547166666665, "fusion_lat": 0.0, "is_disabled": 0, "fusion_lon": 0.0, "type": "electric_scooter", "bike_id": "5cdca237256d575c5d531350a233e63d", "is_reserved": 0, "rental_uris": {"ios": "https://dc.lft.to/lastmile_qr_scan", "android": "https://dc.lft.to/lastmile_qr_scan"}, "name": "5cdca237256d575c5d531350a233e63d", "lon": -77.03996116666667}, {"lat": 38.910243, "fusion_lat": 0.0, "is_disabled": 0, "fusion_lon": 0.0, "type": "electric_scooter", "bike_id": "5840d026ac3ba458eabcc6814e04449b", "is_reserved": 0, "rental_uris": {"ios": "https://dc.lft.to/lastmile_qr_scan", "android": "https://dc.lft.to/lastmile_qr_scan"}, "name": "5840d026ac3ba458eabcc6814e04449b", "lon": -77.02940066666666}, {"lat": 38.91882583333334, "fusion_lat": 0.0, "is_disabled": 0, "fusion_lon": 0.0, "type": "electric_scooter", "bike_id": "28dc4bda04e35a5c427efcf2cfb1b3d1", "is_reserved": 0, "rental_uris": {"ios": "https://dc.lft.to/lastmile_qr_scan", "android": "https://dc.lft.to/lastmile_qr_scan"}, "name": "28dc4bda04e35a5c427efcf2cfb1b3d1", "lon": -77.034999}, {"lat": 38.924262166666665, "fusion_lat": 0.0, "is_disabled": 0, "fusion_lon": 0.0, "type": "electric_scooter", "bike_id": "e7bf43882db49d9804131abb4e2adc3f", "is_reserved": 0, "rental_uris": {"ios": "https://dc.lft.to/lastmile_qr_scan", "android": "https://dc.lft.to/lastmile_qr_scan"}, "name": "e7bf43882db49d9804131abb4e2adc3f", "lon": -77.04046733333334}, {"lat": 38.92122716666667, "fusion_lat": 0.0, "is_disabled": 0, "fusion_lon": 0.0, "type": "electric_scooter", "bike_id": "4d412454deff18e53ff2f26c1ca825e4", "is_reserved": 0, "rental_uris": {"ios": "https://dc.lft.to/lastmile_qr_scan", "android": "https://dc.lft.to/lastmile_qr_scan"}, "name": "4d412454deff18e53ff2f26c1ca825e4", "lon": -77.02127666666667}, {"lat": 38.89913416666667, "fusion_lat": 0.0, "is_disabled": 0, "fusion_lon": 0.0, "type": "electric_scooter", "bike_id": "4876a17c2e7f38dabf8ff8e1a46ae531", "is_reserved": 0, "rental_uris": {"ios": "https://dc.lft.to/lastmile_qr_scan", "android": "https://dc.lft.to/lastmile_qr_scan"}, "name": "4876a17c2e7f38dabf8ff8e1a46ae531", "lon": -77.00356783333334}, {"lat": 38.9178245, "fusion_lat": 0.0, "is_disabled": 0, "fusion_lon": 0.0, "type": "electric_scooter", "bike_id": "b992e481b867b56b877cb4dffc290cde", "is_reserved": 0, "rental_uris": {"ios": "https://dc.lft.to/lastmile_qr_scan", "android": "https://dc.lft.to/lastmile_qr_scan"}, "name": "b992e481b867b56b877cb4dffc290cde", "lon": -77.023111}, {"lat": 38.927833166666666, "fusion_lat": 0.0, "is_disabled": 0, "fusion_lon": 0.0, "type": "electric_scooter", "bike_id": "3a2550111aec0bd52b35c47567c3d7ea", "is_reserved": 0, "rental_uris": {"ios": "https://dc.lft.to/lastmile_qr_scan", "android": "https://dc.lft.to/lastmile_qr_scan"}, "name": "3a2550111aec0bd52b35c47567c3d7ea", "lon": -77.0272095}, {"lat": 38.91538083333333, "fusion_lat": 0.0, "is_disabled": 0, "fusion_lon": 0.0, "type": "electric_scooter", "bike_id": "6b09ef193dbe459a4258cb110d550df3", "is_reserved": 0, "rental_uris": {"ios": "https://dc.lft.to/lastmile_qr_scan", "android": "https://dc.lft.to/lastmile_qr_scan"}, "name": "6b09ef193dbe459a4258cb110d550df3", "lon": -77.04453916666667}, {"lat": 38.909618333333334, "fusion_lat": 0.0, "is_disabled": 0, "fusion_lon": 0.0, "type": "electric_scooter", "bike_id": "d94c035c46a8e5d4443ba6c29627b1bb", "is_reserved": 0, "rental_uris": {"ios": "https://dc.lft.to/lastmile_qr_scan", "android": "https://dc.lft.to/lastmile_qr_scan"}, "name": "d94c035c46a8e5d4443ba6c29627b1bb", "lon": -77.02309216666667}, {"lat": 38.901647833333335, "fusion_lat": 0.0, "is_disabled": 0, "fusion_lon": 0.0, "type": "electric_scooter", "bike_id": "f6459d8600900fefe7a2024b0c840c6f", "is_reserved": 0, "rental_uris": {"ios": "https://dc.lft.to/lastmile_qr_scan", "android": "https://dc.lft.to/lastmile_qr_scan"}, "name": "f6459d8600900fefe7a2024b0c840c6f", "lon": -77.02212783333333}, {"lat": 38.8154225, "fusion_lat": 0.0, "is_disabled": 0, "fusion_lon": 0.0, "type": "electric_bike", "bike_id": "c90ee7336eede12dc0ef9838e816a26b", "is_reserved": 0, "rental_uris": {"ios": "https://dc.lft.to/lastmile_qr_scan", "android": "https://dc.lft.to/lastmile_qr_scan"}, "name": "c90ee7336eede12dc0ef9838e816a26b", "lon": -77.04644416666666}, {"lat": 38.8972505, "fusion_lat": 0.0, "is_disabled": 0, "fusion_lon": 0.0, "type": "electric_scooter", "bike_id": "86c775bdd4b0bb13fffdf0490610c1e6", "is_reserved": 0, "rental_uris": {"ios": "https://dc.lft.to/lastmile_qr_scan", "android": "https://dc.lft.to/lastmile_qr_scan"}, "name": "86c775bdd4b0bb13fffdf0490610c1e6", "lon": -76.97859233333334}, {"lat": 38.9324805, "fusion_lat": 0.0, "is_disabled": 0, "fusion_lon": 0.0, "type": "electric_scooter", "bike_id": "850cfc39b2755b7077375ade257f99a0", "is_reserved": 0, "rental_uris": {"ios": "https://dc.lft.to/lastmile_qr_scan", "android": "https://dc.lft.to/lastmile_qr_scan"}, "name": "850cfc39b2755b7077375ade257f99a0", "lon": -77.03281816666667}, {"lat": 38.925539666666666, "fusion_lat": 0.0, "is_disabled": 0, "fusion_lon": 0.0, "type": "electric_scooter", "bike_id": "9e899e96c90c806e74a578ca5050b518", "is_reserved": 0, "rental_uris": {"ios": "https://dc.lft.to/lastmile_qr_scan", "android": "https://dc.lft.to/lastmile_qr_scan"}, "name": "9e899e96c90c806e74a578ca5050b518", "lon": -77.041796}, {"lat": 38.913399, "fusion_lat": 0.0, "is_disabled": 0, "fusion_lon": 0.0, "type": "electric_scooter", "bike_id": "5d437c09a9409762089f592f203e8a0d", "is_reserved": 0, "rental_uris": {"ios": "https://dc.lft.to/lastmile_qr_scan", "android": "https://dc.lft.to/lastmile_qr_scan"}, "name": "5d437c09a9409762089f592f203e8a0d", "lon": -77.04173133333333}, {"lat": 38.90053433333333, "fusion_lat": 0.0, "is_disabled": 0, "fusion_lon": 0.0, "type": "electric_scooter", "bike_id": "98e25213b037d004aea691e119459dc3", "is_reserved": 0, "rental_uris": {"ios": "https://dc.lft.to/lastmile_qr_scan", "android": "https://dc.lft.to/lastmile_qr_scan"}, "name": "98e25213b037d004aea691e119459dc3", "lon": -77.04862666666666}, {"lat": 38.925339666666666, "fusion_lat": 0.0, "is_disabled": 0, "fusion_lon": 0.0, "type": "electric_scooter", "bike_id": "525f5326dad6b760a1d730b3af1caa7b", "is_reserved": 0, "rental_uris": {"ios": "https://dc.lft.to/lastmile_qr_scan", "android": "https://dc.lft.to/lastmile_qr_scan"}, "name": "525f5326dad6b760a1d730b3af1caa7b", "lon": -77.03244716666667}, {"lat": 38.90652433333333, "fusion_lat": 0.0, "is_disabled": 0, "fusion_lon": 0.0, "type": "electric_scooter", "bike_id": "15fd4f082e77cff1320f5d77d0e46629", "is_reserved": 0, "rental_uris": {"ios": "https://dc.lft.to/lastmile_qr_scan", "android": "https://dc.lft.to/lastmile_qr_scan"}, "name": "15fd4f082e77cff1320f5d77d0e46629", "lon": -77.01414866666667}, {"lat": 38.9001785, "fusion_lat": 0.0, "is_disabled": 0, "fusion_lon": 0.0, "type": "electric_scooter", "bike_id": "7ba1864fe7baa2e0cecc283184f4fc91", "is_reserved": 0, "rental_uris": {"ios": "https://dc.lft.to/lastmile_qr_scan", "android": "https://dc.lft.to/lastmile_qr_scan"}, "name": "7ba1864fe7baa2e0cecc283184f4fc91", "lon": -77.04474233333333}, {"lat": 38.89557416666667, "fusion_lat": 0.0, "is_disabled": 0, "fusion_lon": 0.0, "type": "electric_scooter", "bike_id": "0278b9a2f4fbf52ffe43aea2ad979ba3", "is_reserved": 0, "rental_uris": {"ios": "https://dc.lft.to/lastmile_qr_scan", "android": "https://dc.lft.to/lastmile_qr_scan"}, "name": "0278b9a2f4fbf52ffe43aea2ad979ba3", "lon": -77.0467325}, {"lat": 38.909600166666664, "fusion_lat": 0.0, "is_disabled": 0, "fusion_lon": 0.0, "type": "electric_scooter", "bike_id": "eee54f7375056b75d0608cac77440fc2", "is_reserved": 0, "rental_uris": {"ios": "https://dc.lft.to/lastmile_qr_scan", "android": "https://dc.lft.to/lastmile_qr_scan"}, "name": "eee54f7375056b75d0608cac77440fc2", "lon": -77.02414883333333}, {"lat": 38.9368965, "fusion_lat": 0.0, "is_disabled": 0, "fusion_lon": 0.0, "type": "electric_bike", "bike_id": "bd87e35b2a6f2908f04ab7473955584e", "is_reserved": 0, "rental_uris": {"ios": "https://dc.lft.to/lastmile_qr_scan", "android": "https://dc.lft.to/lastmile_qr_scan"}, "name": "bd87e35b2a6f2908f04ab7473955584e", "lon": -76.99055283333334}, {"lat": 38.93061, "fusion_lat": 0.0, "is_disabled": 0, "fusion_lon": 0.0, "type": "electric_scooter", "bike_id": "e09a0090599c880ffe10210a978dfd2e", "is_reserved": 0, "rental_uris": {"ios": "https://dc.lft.to/lastmile_qr_scan", "android": "https://dc.lft.to/lastmile_qr_scan"}, "name": "e09a0090599c880ffe10210a978dfd2e", "lon": -77.0320985}, {"lat": 38.91822716666667, "fusion_lat": 0.0, "is_disabled": 0, "fusion_lon": 0.0, "type": "electric_scooter", "bike_id": "1cc0c60fa6702de284b890350d25877a", "is_reserved": 0, "rental_uris": {"ios": "https://dc.lft.to/lastmile_qr_scan", "android": "https://dc.lft.to/lastmile_qr_scan"}, "name": "1cc0c60fa6702de284b890350d25877a", "lon": -77.04519733333333}, {"lat": 38.905097833333336, "fusion_lat": 0.0, "is_disabled": 0, "fusion_lon": 0.0, "type": "electric_scooter", "bike_id": "bba7b71b6aca39f58548a9585fa5571c", "is_reserved": 0, "rental_uris": {"ios": "https://dc.lft.to/lastmile_qr_scan", "android": "https://dc.lft.to/lastmile_qr_scan"}, "name": "bba7b71b6aca39f58548a9585fa5571c", "lon": -76.98486633333333}, {"lat": 38.90560283333333, "fusion_lat": 0.0, "is_disabled": 0, "fusion_lon": 0.0, "type": "electric_scooter", "bike_id": "98f8283020091efb51458c688079a6ff", "is_reserved": 0, "rental_uris": {"ios": "https://dc.lft.to/lastmile_qr_scan", "android": "https://dc.lft.to/lastmile_qr_scan"}, "name": "98f8283020091efb51458c688079a6ff", "lon": -77.05012666666667}, {"lat": 38.89801416666667, "fusion_lat": 0.0, "is_disabled": 0, "fusion_lon": 0.0, "type": "electric_scooter", "bike_id": "2a0163ffdc468d9963cb04872b6cd936", "is_reserved": 0, "rental_uris": {"ios": "https://dc.lft.to/lastmile_qr_scan", "android": "https://dc.lft.to/lastmile_qr_scan"}, "name": "2a0163ffdc468d9963cb04872b6cd936", "lon": -77.03163866666667}, {"lat": 38.90977866666667, "fusion_lat": 0.0, "is_disabled": 0, "fusion_lon": 0.0, "type": "electric_scooter", "bike_id": "814554da820eeed99e064a584e7a5106", "is_reserved": 0, "rental_uris": {"ios": "https://dc.lft.to/lastmile_qr_scan", "android": "https://dc.lft.to/lastmile_qr_scan"}, "name": "814554da820eeed99e064a584e7a5106", "lon": -77.03341316666666}, {"lat": 38.878448666666664, "fusion_lat": 0.0, "is_disabled": 0, "fusion_lon": 0.0, "type": "electric_scooter", "bike_id": "7f9dc415f4ebb23b457ef2c76e1a8fec", "is_reserved": 0, "rental_uris": {"ios": "https://dc.lft.to/lastmile_qr_scan", "android": "https://dc.lft.to/lastmile_qr_scan"}, "name": "7f9dc415f4ebb23b457ef2c76e1a8fec", "lon": -77.00701216666667}, {"lat": 38.864317666666665, "fusion_lat": 0.0, "is_disabled": 0, "fusion_lon": 0.0, "type": "electric_bike", "bike_id": "80d6f1a93f9823b62500ca91f564b619", "is_reserved": 0, "rental_uris": {"ios": "https://dc.lft.to/lastmile_qr_scan", "android": "https://dc.lft.to/lastmile_qr_scan"}, "name": "80d6f1a93f9823b62500ca91f564b619", "lon": -76.96991066666666}, {"lat": 38.921066333333336, "fusion_lat": 0.0, "is_disabled": 0, "fusion_lon": 0.0, "type": "electric_scooter", "bike_id": "638c0918d4831c04f2cb3122a5c5e706", "is_reserved": 0, "rental_uris": {"ios": "https://dc.lft.to/lastmile_qr_scan", "android": "https://dc.lft.to/lastmile_qr_scan"}, "name": "638c0918d4831c04f2cb3122a5c5e706", "lon": -77.0470135}, {"lat": 38.932727, "fusion_lat": 0.0, "is_disabled": 0, "fusion_lon": 0.0, "type": "electric_scooter", "bike_id": "869c6ba1762054668b10ce2fe386c835", "is_reserved": 0, "rental_uris": {"ios": "https://dc.lft.to/lastmile_qr_scan", "android": "https://dc.lft.to/lastmile_qr_scan"}, "name": "869c6ba1762054668b10ce2fe386c835", "lon": -77.03954583333334}, {"lat": 38.9236605, "fusion_lat": 0.0, "is_disabled": 0, "fusion_lon": 0.0, "type": "electric_scooter", "bike_id": "cb11e4cbbc106c7f8c6efe05f8f341fe", "is_reserved": 0, "rental_uris": {"ios": "https://dc.lft.to/lastmile_qr_scan", "android": "https://dc.lft.to/lastmile_qr_scan"}, "name": "cb11e4cbbc106c7f8c6efe05f8f341fe", "lon": -77.01955383333333}, {"lat": 38.899776, "fusion_lat": 0.0, "is_disabled": 0, "fusion_lon": 0.0, "type": "electric_scooter", "bike_id": "baa6bd271c810fb02d8bd18a0ce5a6a8", "is_reserved": 0, "rental_uris": {"ios": "https://dc.lft.to/lastmile_qr_scan", "android": "https://dc.lft.to/lastmile_qr_scan"}, "name": "baa6bd271c810fb02d8bd18a0ce5a6a8", "lon": -77.04190916666667}, {"lat": 38.91704416666666, "fusion_lat": 0.0, "is_disabled": 0, "fusion_lon": 0.0, "type": "electric_scooter", "bike_id": "68daa4c276a349e5d875bba0b4a6634e", "is_reserved": 0, "rental_uris": {"ios": "https://dc.lft.to/lastmile_qr_scan", "android": "https://dc.lft.to/lastmile_qr_scan"}, "name": "68daa4c276a349e5d875bba0b4a6634e", "lon": -77.02289866666666}, {"lat": 38.888496, "fusion_lat": 0.0, "is_disabled": 0, "fusion_lon": 0.0, "type": "electric_scooter", "bike_id": "5764f5ff62ae88c2167844eee22155f8", "is_reserved": 0, "rental_uris": {"ios": "https://dc.lft.to/lastmile_qr_scan", "android": "https://dc.lft.to/lastmile_qr_scan"}, "name": "5764f5ff62ae88c2167844eee22155f8", "lon": -76.9773475}, {"lat": 38.87790366666667, "fusion_lat": 0.0, "is_disabled": 0, "fusion_lon": 0.0, "type": "electric_scooter", "bike_id": "a1f3ba73aaf08c01e716c3087b8496b7", "is_reserved": 0, "rental_uris": {"ios": "https://dc.lft.to/lastmile_qr_scan", "android": "https://dc.lft.to/lastmile_qr_scan"}, "name": "a1f3ba73aaf08c01e716c3087b8496b7", "lon": -76.99607716666667}, {"lat": 38.92405083333333, "fusion_lat": 0.0, "is_disabled": 0, "fusion_lon": 0.0, "type": "electric_scooter", "bike_id": "fa40308b957a8b6b6b40abb99f2e4b3b", "is_reserved": 0, "rental_uris": {"ios": "https://dc.lft.to/lastmile_qr_scan", "android": "https://dc.lft.to/lastmile_qr_scan"}, "name": "fa40308b957a8b6b6b40abb99f2e4b3b", "lon": -77.04051433333333}, {"lat": 38.9189125, "fusion_lat": 0.0, "is_disabled": 0, "fusion_lon": 0.0, "type": "electric_scooter", "bike_id": "b2b3bd65c1dad2dc4a0db76053bf5636", "is_reserved": 0, "rental_uris": {"ios": "https://dc.lft.to/lastmile_qr_scan", "android": "https://dc.lft.to/lastmile_qr_scan"}, "name": "b2b3bd65c1dad2dc4a0db76053bf5636", "lon": -76.96898466666667}, {"lat": 38.919513, "fusion_lat": 0.0, "is_disabled": 0, "fusion_lon": 0.0, "type": "electric_scooter", "bike_id": "e9d4d1ef3f8c6bafd9c36bfc1e94d5ec", "is_reserved": 0, "rental_uris": {"ios": "https://dc.lft.to/lastmile_qr_scan", "android": "https://dc.lft.to/lastmile_qr_scan"}, "name": "e9d4d1ef3f8c6bafd9c36bfc1e94d5ec", "lon": -77.02514766666667}, {"lat": 38.89481983333334, "fusion_lat": 0.0, "is_disabled": 0, "fusion_lon": 0.0, "type": "electric_scooter", "bike_id": "25e40d90c26751badc3b5fd0863a4ef2", "is_reserved": 0, "rental_uris": {"ios": "https://dc.lft.to/lastmile_qr_scan", "android": "https://dc.lft.to/lastmile_qr_scan"}, "name": "25e40d90c26751badc3b5fd0863a4ef2", "lon": -76.995146}, {"lat": 38.906910833333335, "fusion_lat": 0.0, "is_disabled": 0, "fusion_lon": 0.0, "type": "electric_scooter", "bike_id": "02e8ee195df40b84ee545f16de8f5dba", "is_reserved": 0, "rental_uris": {"ios": "https://dc.lft.to/lastmile_qr_scan", "android": "https://dc.lft.to/lastmile_qr_scan"}, "name": "02e8ee195df40b84ee545f16de8f5dba", "lon": -77.02715383333333}, {"lat": 38.919848333333334, "fusion_lat": 0.0, "is_disabled": 0, "fusion_lon": 0.0, "type": "electric_scooter", "bike_id": "ee60522656ee32e0b83a2b5adcef79fb", "is_reserved": 0, "rental_uris": {"ios": "https://dc.lft.to/lastmile_qr_scan", "android": "https://dc.lft.to/lastmile_qr_scan"}, "name": "ee60522656ee32e0b83a2b5adcef79fb", "lon": -77.04165633333334}, {"lat": 38.924648, "fusion_lat": 0.0, "is_disabled": 0, "fusion_lon": 0.0, "type": "electric_scooter", "bike_id": "cee1001cb52bce858d188f49265f55da", "is_reserved": 0, "rental_uris": {"ios": "https://dc.lft.to/lastmile_qr_scan", "android": "https://dc.lft.to/lastmile_qr_scan"}, "name": "cee1001cb52bce858d188f49265f55da", "lon": -77.02240383333333}, {"lat": 38.88575766666666, "fusion_lat": 0.0, "is_disabled": 0, "fusion_lon": 0.0, "type": "electric_scooter", "bike_id": "4168a2a1291b7ccb76eb1d43b4744693", "is_reserved": 0, "rental_uris": {"ios": "https://dc.lft.to/lastmile_qr_scan", "android": "https://dc.lft.to/lastmile_qr_scan"}, "name": "4168a2a1291b7ccb76eb1d43b4744693", "lon": -76.95433133333333}, {"lat": 38.916187666666666, "fusion_lat": 0.0, "is_disabled": 0, "fusion_lon": 0.0, "type": "electric_scooter", "bike_id": "6f2b1bf31dec232f46c2277e590e88ef", "is_reserved": 0, "rental_uris": {"ios": "https://dc.lft.to/lastmile_qr_scan", "android": "https://dc.lft.to/lastmile_qr_scan"}, "name": "6f2b1bf31dec232f46c2277e590e88ef", "lon": -77.02803066666667}, {"lat": 38.90713983333333, "fusion_lat": 0.0, "is_disabled": 0, "fusion_lon": 0.0, "type": "electric_scooter", "bike_id": "fb81f7d4b99b60ccc0b6ec85de6dec45", "is_reserved": 0, "rental_uris": {"ios": "https://dc.lft.to/lastmile_qr_scan", "android": "https://dc.lft.to/lastmile_qr_scan"}, "name": "fb81f7d4b99b60ccc0b6ec85de6dec45", "lon": -77.03203133333334}, {"lat": 38.90863066666667, "fusion_lat": 0.0, "is_disabled": 0, "fusion_lon": 0.0, "type": "electric_scooter", "bike_id": "96292ceea3e214e2390f87d2c519fed8", "is_reserved": 0, "rental_uris": {"ios": "https://dc.lft.to/lastmile_qr_scan", "android": "https://dc.lft.to/lastmile_qr_scan"}, "name": "96292ceea3e214e2390f87d2c519fed8", "lon": -77.02268683333334}, {"lat": 38.884876, "fusion_lat": 0.0, "is_disabled": 0, "fusion_lon": 0.0, "type": "electric_scooter", "bike_id": "3f8cde7bc5acdc53164209e725fc6cba", "is_reserved": 0, "rental_uris": {"ios": "https://dc.lft.to/lastmile_qr_scan", "android": "https://dc.lft.to/lastmile_qr_scan"}, "name": "3f8cde7bc5acdc53164209e725fc6cba", "lon": -77.00707266666667}, {"lat": 38.90346383333333, "fusion_lat": 0.0, "is_disabled": 0, "fusion_lon": 0.0, "type": "electric_scooter", "bike_id": "a5f7414788b90ef90c1b9d09e82955b9", "is_reserved": 0, "rental_uris": {"ios": "https://dc.lft.to/lastmile_qr_scan", "android": "https://dc.lft.to/lastmile_qr_scan"}, "name": "a5f7414788b90ef90c1b9d09e82955b9", "lon": -77.0501175}, {"lat": 38.876656, "fusion_lat": 0.0, "is_disabled": 0, "fusion_lon": 0.0, "type": "electric_scooter", "bike_id": "3e0504b29bf76055d802c526e4951efc", "is_reserved": 0, "rental_uris": {"ios": "https://dc.lft.to/lastmile_qr_scan", "android": "https://dc.lft.to/lastmile_qr_scan"}, "name": "3e0504b29bf76055d802c526e4951efc", "lon": -77.00423266666667}, {"lat": 38.9205175, "fusion_lat": 0.0, "is_disabled": 0, "fusion_lon": 0.0, "type": "electric_scooter", "bike_id": "d322494d02f0b8dd64ecd3f53a7c6f4f", "is_reserved": 0, "rental_uris": {"ios": "https://dc.lft.to/lastmile_qr_scan", "android": "https://dc.lft.to/lastmile_qr_scan"}, "name": "d322494d02f0b8dd64ecd3f53a7c6f4f", "lon": -77.041913}, {"lat": 38.922829166666666, "fusion_lat": 0.0, "is_disabled": 0, "fusion_lon": 0.0, "type": "electric_scooter", "bike_id": "453a394129bd9836c0bbee6f13a1464c", "is_reserved": 0, "rental_uris": {"ios": "https://dc.lft.to/lastmile_qr_scan", "android": "https://dc.lft.to/lastmile_qr_scan"}, "name": "453a394129bd9836c0bbee6f13a1464c", "lon": -77.03658616666667}, {"lat": 38.904386, "fusion_lat": 0.0, "is_disabled": 0, "fusion_lon": 0.0, "type": "electric_scooter", "bike_id": "2a03a61d429251c6e19c2712a080fa91", "is_reserved": 0, "rental_uris": {"ios": "https://dc.lft.to/lastmile_qr_scan", "android": "https://dc.lft.to/lastmile_qr_scan"}, "name": "2a03a61d429251c6e19c2712a080fa91", "lon": -77.04825833333334}, {"lat": 38.94920166666667, "fusion_lat": 0.0, "is_disabled": 0, "fusion_lon": 0.0, "type": "electric_scooter", "bike_id": "f29d940ff37a4e1335200e4bbffc459e", "is_reserved": 0, "rental_uris": {"ios": "https://dc.lft.to/lastmile_qr_scan", "android": "https://dc.lft.to/lastmile_qr_scan"}, "name": "f29d940ff37a4e1335200e4bbffc459e", "lon": -77.01857316666667}, {"lat": 38.898241, "fusion_lat": 0.0, "is_disabled": 0, "fusion_lon": 0.0, "type": "electric_scooter", "bike_id": "deb1afa8d7f6471c77e0c1e84526522e", "is_reserved": 0, "rental_uris": {"ios": "https://dc.lft.to/lastmile_qr_scan", "android": "https://dc.lft.to/lastmile_qr_scan"}, "name": "deb1afa8d7f6471c77e0c1e84526522e", "lon": -76.94653783333334}, {"lat": 38.90236383333333, "fusion_lat": 0.0, "is_disabled": 0, "fusion_lon": 0.0, "type": "electric_scooter", "bike_id": "5be97d4b75b026fb12618bc4e1c3162b", "is_reserved": 0, "rental_uris": {"ios": "https://dc.lft.to/lastmile_qr_scan", "android": "https://dc.lft.to/lastmile_qr_scan"}, "name": "5be97d4b75b026fb12618bc4e1c3162b", "lon": -77.05328816666666}, {"lat": 38.915627666666666, "fusion_lat": 0.0, "is_disabled": 0, "fusion_lon": 0.0, "type": "electric_scooter", "bike_id": "b106f0e564140e290c7eba87042581bd", "is_reserved": 0, "rental_uris": {"ios": "https://dc.lft.to/lastmile_qr_scan", "android": "https://dc.lft.to/lastmile_qr_scan"}, "name": "b106f0e564140e290c7eba87042581bd", "lon": -77.03668033333334}, {"lat": 38.90961733333333, "fusion_lat": 0.0, "is_disabled": 0, "fusion_lon": 0.0, "type": "electric_scooter", "bike_id": "27eb5653cd56bfe28158e9173a89039f", "is_reserved": 0, "rental_uris": {"ios": "https://dc.lft.to/lastmile_qr_scan", "android": "https://dc.lft.to/lastmile_qr_scan"}, "name": "27eb5653cd56bfe28158e9173a89039f", "lon": -77.0333925}, {"lat": 38.922217833333335, "fusion_lat": 0.0, "is_disabled": 0, "fusion_lon": 0.0, "type": "electric_scooter", "bike_id": "7bad81dc629e378d0b7d1a6fb5e24a9c", "is_reserved": 0, "rental_uris": {"ios": "https://dc.lft.to/lastmile_qr_scan", "android": "https://dc.lft.to/lastmile_qr_scan"}, "name": "7bad81dc629e378d0b7d1a6fb5e24a9c", "lon": -77.02118916666667}, {"lat": 38.88133583333333, "fusion_lat": 0.0, "is_disabled": 0, "fusion_lon": 0.0, "type": "electric_scooter", "bike_id": "20f2e8bdc47cb4a73f70623f8fe5e4ed", "is_reserved": 0, "rental_uris": {"ios": "https://dc.lft.to/lastmile_qr_scan", "android": "https://dc.lft.to/lastmile_qr_scan"}, "name": "20f2e8bdc47cb4a73f70623f8fe5e4ed", "lon": -77.02710866666666}, {"lat": 38.92323483333333, "fusion_lat": 0.0, "is_disabled": 0, "fusion_lon": 0.0, "type": "electric_scooter", "bike_id": "887267e1a9f8635c9772ed9094e68dad", "is_reserved": 0, "rental_uris": {"ios": "https://dc.lft.to/lastmile_qr_scan", "android": "https://dc.lft.to/lastmile_qr_scan"}, "name": "887267e1a9f8635c9772ed9094e68dad", "lon": -77.01955066666666}, {"lat": 38.920720833333334, "fusion_lat": 0.0, "is_disabled": 0, "fusion_lon": 0.0, "type": "electric_scooter", "bike_id": "12cffff4d2c94eb63231a31ad562680b", "is_reserved": 0, "rental_uris": {"ios": "https://dc.lft.to/lastmile_qr_scan", "android": "https://dc.lft.to/lastmile_qr_scan"}, "name": "12cffff4d2c94eb63231a31ad562680b", "lon": -77.024941}, {"lat": 38.924632833333334, "fusion_lat": 0.0, "is_disabled": 0, "fusion_lon": 0.0, "type": "electric_scooter", "bike_id": "347fbff77a200ff9b58cf8f88c62420d", "is_reserved": 0, "rental_uris": {"ios": "https://dc.lft.to/lastmile_qr_scan", "android": "https://dc.lft.to/lastmile_qr_scan"}, "name": "347fbff77a200ff9b58cf8f88c62420d", "lon": -77.022422}, {"lat": 38.94273716666667, "fusion_lat": 0.0, "is_disabled": 0, "fusion_lon": 0.0, "type": "electric_scooter", "bike_id": "90e0ab1c9885cf271b832d04c56ea880", "is_reserved": 0, "rental_uris": {"ios": "https://dc.lft.to/lastmile_qr_scan", "android": "https://dc.lft.to/lastmile_qr_scan"}, "name": "90e0ab1c9885cf271b832d04c56ea880", "lon": -77.02929783333333}, {"lat": 38.94341266666667, "fusion_lat": 0.0, "is_disabled": 0, "fusion_lon": 0.0, "type": "electric_scooter", "bike_id": "64763f62cb4002b242e2505576a004e2", "is_reserved": 0, "rental_uris": {"ios": "https://dc.lft.to/lastmile_qr_scan", "android": "https://dc.lft.to/lastmile_qr_scan"}, "name": "64763f62cb4002b242e2505576a004e2", "lon": -77.02606183333333}, {"lat": 38.922270166666664, "fusion_lat": 0.0, "is_disabled": 0, "fusion_lon": 0.0, "type": "electric_scooter", "bike_id": "b4c92362f6cc392033e6d5ae82192d8e", "is_reserved": 0, "rental_uris": {"ios": "https://dc.lft.to/lastmile_qr_scan", "android": "https://dc.lft.to/lastmile_qr_scan"}, "name": "b4c92362f6cc392033e6d5ae82192d8e", "lon": -77.02825966666667}, {"lat": 38.912683, "fusion_lat": 0.0, "is_disabled": 0, "fusion_lon": 0.0, "type": "electric_scooter", "bike_id": "dcc276afd14d358b8ecff35f9ec6b8cb", "is_reserved": 0, "rental_uris": {"ios": "https://dc.lft.to/lastmile_qr_scan", "android": "https://dc.lft.to/lastmile_qr_scan"}, "name": "dcc276afd14d358b8ecff35f9ec6b8cb", "lon": -77.022293}, {"lat": 38.874822333333334, "fusion_lat": 0.0, "is_disabled": 0, "fusion_lon": 0.0, "type": "electric_scooter", "bike_id": "1dda2d41826545c4eacbf7d9d3412610", "is_reserved": 0, "rental_uris": {"ios": "https://dc.lft.to/lastmile_qr_scan", "android": "https://dc.lft.to/lastmile_qr_scan"}, "name": "1dda2d41826545c4eacbf7d9d3412610", "lon": -77.00237633333333}, {"lat": 38.882989333333335, "fusion_lat": 0.0, "is_disabled": 0, "fusion_lon": 0.0, "type": "electric_scooter", "bike_id": "e0d23b2e940ecfb10554569377fadebd", "is_reserved": 0, "rental_uris": {"ios": "https://dc.lft.to/lastmile_qr_scan", "android": "https://dc.lft.to/lastmile_qr_scan"}, "name": "e0d23b2e940ecfb10554569377fadebd", "lon": -76.934867}, {"lat": 38.93624783333333, "fusion_lat": 0.0, "is_disabled": 0, "fusion_lon": 0.0, "type": "electric_scooter", "bike_id": "e8b66f457328785e7400f665ec4b6999", "is_reserved": 0, "rental_uris": {"ios": "https://dc.lft.to/lastmile_qr_scan", "android": "https://dc.lft.to/lastmile_qr_scan"}, "name": "e8b66f457328785e7400f665ec4b6999", "lon": -77.03289733333334}, {"lat": 39.00642416666667, "fusion_lat": 0.0, "is_disabled": 0, "fusion_lon": 0.0, "type": "electric_bike", "bike_id": "081c64c23e8168332f85d927ed893333", "is_reserved": 0, "rental_uris": {"ios": "https://dc.lft.to/lastmile_qr_scan", "android": "https://dc.lft.to/lastmile_qr_scan"}, "name": "081c64c23e8168332f85d927ed893333", "lon": -76.90022666666667}, {"lat": 38.908341, "fusion_lat": 0.0, "is_disabled": 0, "fusion_lon": 0.0, "type": "electric_scooter", "bike_id": "7672d567a42edf2bcf9cb8af6663624a", "is_reserved": 0, "rental_uris": {"ios": "https://dc.lft.to/lastmile_qr_scan", "android": "https://dc.lft.to/lastmile_qr_scan"}, "name": "7672d567a42edf2bcf9cb8af6663624a", "lon": -76.93476016666666}, {"lat": 38.90136733333333, "fusion_lat": 0.0, "is_disabled": 0, "fusion_lon": 0.0, "type": "electric_scooter", "bike_id": "8d4195bbfaab572468ae1e381f5c13b6", "is_reserved": 0, "rental_uris": {"ios": "https://dc.lft.to/lastmile_qr_scan", "android": "https://dc.lft.to/lastmile_qr_scan"}, "name": "8d4195bbfaab572468ae1e381f5c13b6", "lon": -77.00256233333333}, {"lat": 38.9241405, "fusion_lat": 0.0, "is_disabled": 0, "fusion_lon": 0.0, "type": "electric_scooter", "bike_id": "ff08ec0f3e20e13dbe41fcb8a9cbfe15", "is_reserved": 0, "rental_uris": {"ios": "https://dc.lft.to/lastmile_qr_scan", "android": "https://dc.lft.to/lastmile_qr_scan"}, "name": "ff08ec0f3e20e13dbe41fcb8a9cbfe15", "lon": -77.02128433333333}, {"lat": 38.917387166666664, "fusion_lat": 0.0, "is_disabled": 0, "fusion_lon": 0.0, "type": "electric_scooter", "bike_id": "7d1b9c27cf021651b1e4e0f43431a0d7", "is_reserved": 0, "rental_uris": {"ios": "https://dc.lft.to/lastmile_qr_scan", "android": "https://dc.lft.to/lastmile_qr_scan"}, "name": "7d1b9c27cf021651b1e4e0f43431a0d7", "lon": -77.02114683333333}, {"lat": 38.927177, "fusion_lat": 0.0, "is_disabled": 0, "fusion_lon": 0.0, "type": "electric_scooter", "bike_id": "e7ecd42d14e936a8adc591ea434f55b0", "is_reserved": 0, "rental_uris": {"ios": "https://dc.lft.to/lastmile_qr_scan", "android": "https://dc.lft.to/lastmile_qr_scan"}, "name": "e7ecd42d14e936a8adc591ea434f55b0", "lon": -77.02302966666667}, {"lat": 38.8524295, "fusion_lat": 0.0, "is_disabled": 0, "fusion_lon": 0.0, "type": "electric_bike", "bike_id": "7015031c59fbe7df25390a3e4e327b61", "is_reserved": 0, "rental_uris": {"ios": "https://dc.lft.to/lastmile_qr_scan", "android": "https://dc.lft.to/lastmile_qr_scan"}, "name": "7015031c59fbe7df25390a3e4e327b61", "lon": -77.114085}, {"lat": 38.912679, "fusion_lat": 0.0, "is_disabled": 0, "fusion_lon": 0.0, "type": "electric_scooter", "bike_id": "13e6009323b752d74d81e7910c4a6f73", "is_reserved": 0, "rental_uris": {"ios": "https://dc.lft.to/lastmile_qr_scan", "android": "https://dc.lft.to/lastmile_qr_scan"}, "name": "13e6009323b752d74d81e7910c4a6f73", "lon": -77.0222705}, {"lat": 38.9223875, "fusion_lat": 0.0, "is_disabled": 0, "fusion_lon": 0.0, "type": "electric_scooter", "bike_id": "6d624b8d2dac324b6360e7d11f4ed71b", "is_reserved": 0, "rental_uris": {"ios": "https://dc.lft.to/lastmile_qr_scan", "android": "https://dc.lft.to/lastmile_qr_scan"}, "name": "6d624b8d2dac324b6360e7d11f4ed71b", "lon": -77.0366385}, {"lat": 38.88005116666667, "fusion_lat": 0.0, "is_disabled": 0, "fusion_lon": 0.0, "type": "electric_scooter", "bike_id": "89b54ea5005a569a86f98e1e61c341f6", "is_reserved": 0, "rental_uris": {"ios": "https://dc.lft.to/lastmile_qr_scan", "android": "https://dc.lft.to/lastmile_qr_scan"}, "name": "89b54ea5005a569a86f98e1e61c341f6", "lon": -76.99839316666667}, {"lat": 38.90517583333333, "fusion_lat": 0.0, "is_disabled": 0, "fusion_lon": 0.0, "type": "electric_scooter", "bike_id": "3ce0acef59299f091a95aa456e65d532", "is_reserved": 0, "rental_uris": {"ios": "https://dc.lft.to/lastmile_qr_scan", "android": "https://dc.lft.to/lastmile_qr_scan"}, "name": "3ce0acef59299f091a95aa456e65d532", "lon": -77.01708833333333}, {"lat": 38.926993833333334, "fusion_lat": 0.0, "is_disabled": 0, "fusion_lon": 0.0, "type": "electric_scooter", "bike_id": "fc77b07cb1423af7d4a7fcc09a64cf4b", "is_reserved": 0, "rental_uris": {"ios": "https://dc.lft.to/lastmile_qr_scan", "android": "https://dc.lft.to/lastmile_qr_scan"}, "name": "fc77b07cb1423af7d4a7fcc09a64cf4b", "lon": -76.9950385}, {"lat": 38.903992, "fusion_lat": 0.0, "is_disabled": 0, "fusion_lon": 0.0, "type": "electric_scooter", "bike_id": "1c519893d2bd97dd59a2a46b7c37182b", "is_reserved": 0, "rental_uris": {"ios": "https://dc.lft.to/lastmile_qr_scan", "android": "https://dc.lft.to/lastmile_qr_scan"}, "name": "1c519893d2bd97dd59a2a46b7c37182b", "lon": -77.0042955}, {"lat": 38.91645716666667, "fusion_lat": 0.0, "is_disabled": 0, "fusion_lon": 0.0, "type": "electric_scooter", "bike_id": "6ca4cae7bf04e2069a4aa7759cedc3f7", "is_reserved": 0, "rental_uris": {"ios": "https://dc.lft.to/lastmile_qr_scan", "android": "https://dc.lft.to/lastmile_qr_scan"}, "name": "6ca4cae7bf04e2069a4aa7759cedc3f7", "lon": -77.03199866666667}, {"lat": 38.896059, "fusion_lat": 0.0, "is_disabled": 0, "fusion_lon": 0.0, "type": "electric_scooter", "bike_id": "ecbe49b8695af37925992038a3d9811f", "is_reserved": 0, "rental_uris": {"ios": "https://dc.lft.to/lastmile_qr_scan", "android": "https://dc.lft.to/lastmile_qr_scan"}, "name": "ecbe49b8695af37925992038a3d9811f", "lon": -76.99960383333334}, {"lat": 38.887237999999996, "fusion_lat": 0.0, "is_disabled": 0, "fusion_lon": 0.0, "type": "electric_scooter", "bike_id": "324078a7f0db3793643d8b6d436c7810", "is_reserved": 0, "rental_uris": {"ios": "https://dc.lft.to/lastmile_qr_scan", "android": "https://dc.lft.to/lastmile_qr_scan"}, "name": "324078a7f0db3793643d8b6d436c7810", "lon": -76.99613266666667}, {"lat": 38.95257183333333, "fusion_lat": 0.0, "is_disabled": 0, "fusion_lon": 0.0, "type": "electric_scooter", "bike_id": "595a8eb9d6382796814270ae7b29c1dd", "is_reserved": 0, "rental_uris": {"ios": "https://dc.lft.to/lastmile_qr_scan", "android": "https://dc.lft.to/lastmile_qr_scan"}, "name": "595a8eb9d6382796814270ae7b29c1dd", "lon": -77.02074716666667}, {"lat": 38.9124955, "fusion_lat": 0.0, "is_disabled": 0, "fusion_lon": 0.0, "type": "electric_scooter", "bike_id": "5aaf6d5a55884d8211c1021e85382f7e", "is_reserved": 0, "rental_uris": {"ios": "https://dc.lft.to/lastmile_qr_scan", "android": "https://dc.lft.to/lastmile_qr_scan"}, "name": "5aaf6d5a55884d8211c1021e85382f7e", "lon": -77.02806733333334}, {"lat": 38.93623683333333, "fusion_lat": 0.0, "is_disabled": 0, "fusion_lon": 0.0, "type": "electric_scooter", "bike_id": "49045756e437e1bd57c1a5acc0083d45", "is_reserved": 0, "rental_uris": {"ios": "https://dc.lft.to/lastmile_qr_scan", "android": "https://dc.lft.to/lastmile_qr_scan"}, "name": "49045756e437e1bd57c1a5acc0083d45", "lon": -77.03290633333333}, {"lat": 38.930604, "fusion_lat": 0.0, "is_disabled": 0, "fusion_lon": 0.0, "type": "electric_scooter", "bike_id": "11ee376c6057513aa3ce794399a073a9", "is_reserved": 0, "rental_uris": {"ios": "https://dc.lft.to/lastmile_qr_scan", "android": "https://dc.lft.to/lastmile_qr_scan"}, "name": "11ee376c6057513aa3ce794399a073a9", "lon": -77.03942116666667}, {"lat": 38.917496666666665, "fusion_lat": 0.0, "is_disabled": 0, "fusion_lon": 0.0, "type": "electric_scooter", "bike_id": "84fee48d095a4120e38d466c88edf308", "is_reserved": 0, "rental_uris": {"ios": "https://dc.lft.to/lastmile_qr_scan", "android": "https://dc.lft.to/lastmile_qr_scan"}, "name": "84fee48d095a4120e38d466c88edf308", "lon": -77.02120066666667}, {"lat": 38.89328716666667, "fusion_lat": 0.0, "is_disabled": 0, "fusion_lon": 0.0, "type": "electric_scooter", "bike_id": "a907d39bccefb9cdaea9e43a22ca3ff7", "is_reserved": 0, "rental_uris": {"ios": "https://dc.lft.to/lastmile_qr_scan", "android": "https://dc.lft.to/lastmile_qr_scan"}, "name": "a907d39bccefb9cdaea9e43a22ca3ff7", "lon": -76.939278}, {"lat": 38.89906783333333, "fusion_lat": 0.0, "is_disabled": 0, "fusion_lon": 0.0, "type": "electric_scooter", "bike_id": "b9e41c6f974dc5c8c53f9aafabb4aad5", "is_reserved": 0, "rental_uris": {"ios": "https://dc.lft.to/lastmile_qr_scan", "android": "https://dc.lft.to/lastmile_qr_scan"}, "name": "b9e41c6f974dc5c8c53f9aafabb4aad5", "lon": -77.0230605}, {"lat": 38.89823616666666, "fusion_lat": 0.0, "is_disabled": 0, "fusion_lon": 0.0, "type": "electric_scooter", "bike_id": "05ec5c29f7376740fe90ca2ba10a48ba", "is_reserved": 0, "rental_uris": {"ios": "https://dc.lft.to/lastmile_qr_scan", "android": "https://dc.lft.to/lastmile_qr_scan"}, "name": "05ec5c29f7376740fe90ca2ba10a48ba", "lon": -77.04611516666667}, {"lat": 38.91074966666667, "fusion_lat": 0.0, "is_disabled": 0, "fusion_lon": 0.0, "type": "electric_scooter", "bike_id": "fa977525a2ba598746c753cae6080e43", "is_reserved": 0, "rental_uris": {"ios": "https://dc.lft.to/lastmile_qr_scan", "android": "https://dc.lft.to/lastmile_qr_scan"}, "name": "fa977525a2ba598746c753cae6080e43", "lon": -77.041235}, {"lat": 38.91285883333333, "fusion_lat": 0.0, "is_disabled": 0, "fusion_lon": 0.0, "type": "electric_scooter", "bike_id": "46870e1da96c712f2ec9b8b117c9f12b", "is_reserved": 0, "rental_uris": {"ios": "https://dc.lft.to/lastmile_qr_scan", "android": "https://dc.lft.to/lastmile_qr_scan"}, "name": "46870e1da96c712f2ec9b8b117c9f12b", "lon": -77.03202216666666}, {"lat": 38.90333116666667, "fusion_lat": 0.0, "is_disabled": 0, "fusion_lon": 0.0, "type": "electric_scooter", "bike_id": "f349bad3dbe55b8e1bfc4c5ae89044e6", "is_reserved": 0, "rental_uris": {"ios": "https://dc.lft.to/lastmile_qr_scan", "android": "https://dc.lft.to/lastmile_qr_scan"}, "name": "f349bad3dbe55b8e1bfc4c5ae89044e6", "lon": -77.03865516666667}, {"lat": 38.898924666666666, "fusion_lat": 0.0, "is_disabled": 0, "fusion_lon": 0.0, "type": "electric_scooter", "bike_id": "d2706b2bae28d0562586fd73eb9974a5", "is_reserved": 0, "rental_uris": {"ios": "https://dc.lft.to/lastmile_qr_scan", "android": "https://dc.lft.to/lastmile_qr_scan"}, "name": "d2706b2bae28d0562586fd73eb9974a5", "lon": -77.04025766666666}, {"lat": 38.90690683333333, "fusion_lat": 0.0, "is_disabled": 0, "fusion_lon": 0.0, "type": "electric_scooter", "bike_id": "012c34433e379fcfbf9a9f070911b8d6", "is_reserved": 0, "rental_uris": {"ios": "https://dc.lft.to/lastmile_qr_scan", "android": "https://dc.lft.to/lastmile_qr_scan"}, "name": "012c34433e379fcfbf9a9f070911b8d6", "lon": -77.02713533333333}, {"lat": 38.922303166666666, "fusion_lat": 0.0, "is_disabled": 0, "fusion_lon": 0.0, "type": "electric_scooter", "bike_id": "aeb80a7f3c214e55524e6f59036698da", "is_reserved": 0, "rental_uris": {"ios": "https://dc.lft.to/lastmile_qr_scan", "android": "https://dc.lft.to/lastmile_qr_scan"}, "name": "aeb80a7f3c214e55524e6f59036698da", "lon": -77.04248133333333}, {"lat": 38.93540816666667, "fusion_lat": 0.0, "is_disabled": 0, "fusion_lon": 0.0, "type": "electric_scooter", "bike_id": "bcdd6422aad7b12f411efc018256967b", "is_reserved": 0, "rental_uris": {"ios": "https://dc.lft.to/lastmile_qr_scan", "android": "https://dc.lft.to/lastmile_qr_scan"}, "name": "bcdd6422aad7b12f411efc018256967b", "lon": -77.03265233333333}, {"lat": 38.920563, "fusion_lat": 0.0, "is_disabled": 0, "fusion_lon": 0.0, "type": "electric_scooter", "bike_id": "d7bdbe125c772c81a0690839f9b14d49", "is_reserved": 0, "rental_uris": {"ios": "https://dc.lft.to/lastmile_qr_scan", "android": "https://dc.lft.to/lastmile_qr_scan"}, "name": "d7bdbe125c772c81a0690839f9b14d49", "lon": -77.04195666666666}, {"lat": 38.907203333333335, "fusion_lat": 0.0, "is_disabled": 0, "fusion_lon": 0.0, "type": "electric_scooter", "bike_id": "a814d85f027985121b4b30accaf86ea9", "is_reserved": 0, "rental_uris": {"ios": "https://dc.lft.to/lastmile_qr_scan", "android": "https://dc.lft.to/lastmile_qr_scan"}, "name": "a814d85f027985121b4b30accaf86ea9", "lon": -77.04861733333334}, {"lat": 38.911023166666666, "fusion_lat": 0.0, "is_disabled": 0, "fusion_lon": 0.0, "type": "electric_scooter", "bike_id": "65eed32f45274afcfcb86a4b9d8f5e0d", "is_reserved": 0, "rental_uris": {"ios": "https://dc.lft.to/lastmile_qr_scan", "android": "https://dc.lft.to/lastmile_qr_scan"}, "name": "65eed32f45274afcfcb86a4b9d8f5e0d", "lon": -77.01157383333333}, {"lat": 38.93042633333334, "fusion_lat": 0.0, "is_disabled": 0, "fusion_lon": 0.0, "type": "electric_scooter", "bike_id": "f8bd2246f335ccc40d2951c1b6c26b0e", "is_reserved": 0, "rental_uris": {"ios": "https://dc.lft.to/lastmile_qr_scan", "android": "https://dc.lft.to/lastmile_qr_scan"}, "name": "f8bd2246f335ccc40d2951c1b6c26b0e", "lon": -77.05567716666667}, {"lat": 38.915997833333336, "fusion_lat": 0.0, "is_disabled": 0, "fusion_lon": 0.0, "type": "electric_scooter", "bike_id": "1e75c80ad63fbe03f14ea29f3f8a920c", "is_reserved": 0, "rental_uris": {"ios": "https://dc.lft.to/lastmile_qr_scan", "android": "https://dc.lft.to/lastmile_qr_scan"}, "name": "1e75c80ad63fbe03f14ea29f3f8a920c", "lon": -77.02392766666667}, {"lat": 38.898313, "fusion_lat": 0.0, "is_disabled": 0, "fusion_lon": 0.0, "type": "electric_scooter", "bike_id": "d10c326ad95a14a60403d8433b6fa823", "is_reserved": 0, "rental_uris": {"ios": "https://dc.lft.to/lastmile_qr_scan", "android": "https://dc.lft.to/lastmile_qr_scan"}, "name": "d10c326ad95a14a60403d8433b6fa823", "lon": -77.05034316666666}, {"lat": 38.8681575, "fusion_lat": 0.0, "is_disabled": 0, "fusion_lon": 0.0, "type": "electric_bike", "bike_id": "f122b897c3ffa53b065d99cab01fc77c", "is_reserved": 0, "rental_uris": {"ios": "https://dc.lft.to/lastmile_qr_scan", "android": "https://dc.lft.to/lastmile_qr_scan"}, "name": "f122b897c3ffa53b065d99cab01fc77c", "lon": -76.98019716666667}, {"lat": 38.914028, "fusion_lat": 0.0, "is_disabled": 0, "fusion_lon": 0.0, "type": "electric_scooter", "bike_id": "acc48f6fe00985a79d77dfc71e2508c0", "is_reserved": 0, "rental_uris": {"ios": "https://dc.lft.to/lastmile_qr_scan", "android": "https://dc.lft.to/lastmile_qr_scan"}, "name": "acc48f6fe00985a79d77dfc71e2508c0", "lon": -77.03259633333333}, {"lat": 38.90034816666667, "fusion_lat": 0.0, "is_disabled": 0, "fusion_lon": 0.0, "type": "electric_scooter", "bike_id": "b06cc1ff771e3cc6ceb5fc0a664988d2", "is_reserved": 0, "rental_uris": {"ios": "https://dc.lft.to/lastmile_qr_scan", "android": "https://dc.lft.to/lastmile_qr_scan"}, "name": "b06cc1ff771e3cc6ceb5fc0a664988d2", "lon": -77.01227933333334}, {"lat": 38.9016405, "fusion_lat": 0.0, "is_disabled": 0, "fusion_lon": 0.0, "type": "electric_scooter", "bike_id": "44c219c39dea02f573d6d2dada8a900c", "is_reserved": 0, "rental_uris": {"ios": "https://dc.lft.to/lastmile_qr_scan", "android": "https://dc.lft.to/lastmile_qr_scan"}, "name": "44c219c39dea02f573d6d2dada8a900c", "lon": -77.02216283333334}, {"lat": 38.8996205, "fusion_lat": 0.0, "is_disabled": 0, "fusion_lon": 0.0, "type": "electric_scooter", "bike_id": "490f9e1ff7addf0df21ddbd56f640902", "is_reserved": 0, "rental_uris": {"ios": "https://dc.lft.to/lastmile_qr_scan", "android": "https://dc.lft.to/lastmile_qr_scan"}, "name": "490f9e1ff7addf0df21ddbd56f640902", "lon": -77.04518833333333}, {"lat": 38.8966825, "fusion_lat": 0.0, "is_disabled": 0, "fusion_lon": 0.0, "type": "electric_scooter", "bike_id": "b3cfb3351f7d5214b0023e353b03501d", "is_reserved": 0, "rental_uris": {"ios": "https://dc.lft.to/lastmile_qr_scan", "android": "https://dc.lft.to/lastmile_qr_scan"}, "name": "b3cfb3351f7d5214b0023e353b03501d", "lon": -76.93206983333333}, {"lat": 38.91837916666667, "fusion_lat": 0.0, "is_disabled": 0, "fusion_lon": 0.0, "type": "electric_scooter", "bike_id": "eb41d81d4539c7e5a8dd0532a77c6583", "is_reserved": 0, "rental_uris": {"ios": "https://dc.lft.to/lastmile_qr_scan", "android": "https://dc.lft.to/lastmile_qr_scan"}, "name": "eb41d81d4539c7e5a8dd0532a77c6583", "lon": -77.0417125}, {"lat": 38.902468166666665, "fusion_lat": 0.0, "is_disabled": 0, "fusion_lon": 0.0, "type": "electric_scooter", "bike_id": "4047118fc69fc79a1ffa95a8e315e355", "is_reserved": 0, "rental_uris": {"ios": "https://dc.lft.to/lastmile_qr_scan", "android": "https://dc.lft.to/lastmile_qr_scan"}, "name": "4047118fc69fc79a1ffa95a8e315e355", "lon": -77.02483883333333}, {"lat": 38.903598333333335, "fusion_lat": 0.0, "is_disabled": 0, "fusion_lon": 0.0, "type": "electric_scooter", "bike_id": "a3fe1ba739a0cd6a511be321ac2703ed", "is_reserved": 0, "rental_uris": {"ios": "https://dc.lft.to/lastmile_qr_scan", "android": "https://dc.lft.to/lastmile_qr_scan"}, "name": "a3fe1ba739a0cd6a511be321ac2703ed", "lon": -77.00230116666667}, {"lat": 38.874002833333336, "fusion_lat": 0.0, "is_disabled": 0, "fusion_lon": 0.0, "type": "electric_scooter", "bike_id": "a7340d0313ef57b099bd12f5cca2c02c", "is_reserved": 0, "rental_uris": {"ios": "https://dc.lft.to/lastmile_qr_scan", "android": "https://dc.lft.to/lastmile_qr_scan"}, "name": "a7340d0313ef57b099bd12f5cca2c02c", "lon": -77.0001795}, {"lat": 38.924654333333336, "fusion_lat": 0.0, "is_disabled": 0, "fusion_lon": 0.0, "type": "electric_scooter", "bike_id": "b456b5626983edf85a0104d1fc9b7914", "is_reserved": 0, "rental_uris": {"ios": "https://dc.lft.to/lastmile_qr_scan", "android": "https://dc.lft.to/lastmile_qr_scan"}, "name": "b456b5626983edf85a0104d1fc9b7914", "lon": -77.021953}, {"lat": 38.915641666666666, "fusion_lat": 0.0, "is_disabled": 0, "fusion_lon": 0.0, "type": "electric_scooter", "bike_id": "816cf62a02739ed8cc71cb2a7227c10f", "is_reserved": 0, "rental_uris": {"ios": "https://dc.lft.to/lastmile_qr_scan", "android": "https://dc.lft.to/lastmile_qr_scan"}, "name": "816cf62a02739ed8cc71cb2a7227c10f", "lon": -77.00699516666667}, {"lat": 38.91805216666667, "fusion_lat": 0.0, "is_disabled": 0, "fusion_lon": 0.0, "type": "electric_scooter", "bike_id": "202eb33480c5650e0e66ff07b2b57cdc", "is_reserved": 0, "rental_uris": {"ios": "https://dc.lft.to/lastmile_qr_scan", "android": "https://dc.lft.to/lastmile_qr_scan"}, "name": "202eb33480c5650e0e66ff07b2b57cdc", "lon": -77.0249315}, {"lat": 38.904396166666665, "fusion_lat": 0.0, "is_disabled": 0, "fusion_lon": 0.0, "type": "electric_scooter", "bike_id": "c8d6d7e593fd1e2e8a67efd6ce4da76c", "is_reserved": 0, "rental_uris": {"ios": "https://dc.lft.to/lastmile_qr_scan", "android": "https://dc.lft.to/lastmile_qr_scan"}, "name": "c8d6d7e593fd1e2e8a67efd6ce4da76c", "lon": -76.981596}, {"lat": 38.930289, "fusion_lat": 0.0, "is_disabled": 0, "fusion_lon": 0.0, "type": "electric_scooter", "bike_id": "1c52a675a06a000c02bb21eb13ff81b4", "is_reserved": 0, "rental_uris": {"ios": "https://dc.lft.to/lastmile_qr_scan", "android": "https://dc.lft.to/lastmile_qr_scan"}, "name": "1c52a675a06a000c02bb21eb13ff81b4", "lon": -77.03809233333334}, {"lat": 38.9054315, "fusion_lat": 0.0, "is_disabled": 0, "fusion_lon": 0.0, "type": "electric_scooter", "bike_id": "f68d24b58d4443bdb580195c6e199273", "is_reserved": 0, "rental_uris": {"ios": "https://dc.lft.to/lastmile_qr_scan", "android": "https://dc.lft.to/lastmile_qr_scan"}, "name": "f68d24b58d4443bdb580195c6e199273", "lon": -77.02185733333333}, {"lat": 38.92046533333333, "fusion_lat": 0.0, "is_disabled": 0, "fusion_lon": 0.0, "type": "electric_scooter", "bike_id": "e2b377ba493dabc503f131ffd3f46c70", "is_reserved": 0, "rental_uris": {"ios": "https://dc.lft.to/lastmile_qr_scan", "android": "https://dc.lft.to/lastmile_qr_scan"}, "name": "e2b377ba493dabc503f131ffd3f46c70", "lon": -77.016687}, {"lat": 38.89170083333333, "fusion_lat": 0.0, "is_disabled": 0, "fusion_lon": 0.0, "type": "electric_scooter", "bike_id": "531cd1b46eba62ef4435c54f8546700b", "is_reserved": 0, "rental_uris": {"ios": "https://dc.lft.to/lastmile_qr_scan", "android": "https://dc.lft.to/lastmile_qr_scan"}, "name": "531cd1b46eba62ef4435c54f8546700b", "lon": -77.01550766666666}, {"lat": 38.938607, "fusion_lat": 0.0, "is_disabled": 0, "fusion_lon": 0.0, "type": "electric_scooter", "bike_id": "585044736c653ae62e20d1a8149e6883", "is_reserved": 0, "rental_uris": {"ios": "https://dc.lft.to/lastmile_qr_scan", "android": "https://dc.lft.to/lastmile_qr_scan"}, "name": "585044736c653ae62e20d1a8149e6883", "lon": -77.07240383333334}, {"lat": 38.8326895, "fusion_lat": 0.0, "is_disabled": 0, "fusion_lon": 0.0, "type": "electric_bike", "bike_id": "5478189dd85bc9f568b62cb774bae38a", "is_reserved": 0, "rental_uris": {"ios": "https://dc.lft.to/lastmile_qr_scan", "android": "https://dc.lft.to/lastmile_qr_scan"}, "name": "5478189dd85bc9f568b62cb774bae38a", "lon": -77.083671}, {"lat": 38.90679566666667, "fusion_lat": 0.0, "is_disabled": 0, "fusion_lon": 0.0, "type": "electric_scooter", "bike_id": "a2a9b604bf768fa6a5e93cea2c13e68e", "is_reserved": 0, "rental_uris": {"ios": "https://dc.lft.to/lastmile_qr_scan", "android": "https://dc.lft.to/lastmile_qr_scan"}, "name": "a2a9b604bf768fa6a5e93cea2c13e68e", "lon": -77.03655816666667}, {"lat": 38.9244005, "fusion_lat": 0.0, "is_disabled": 0, "fusion_lon": 0.0, "type": "electric_scooter", "bike_id": "9b4f8f7df0af9294ecd801f09acaa813", "is_reserved": 0, "rental_uris": {"ios": "https://dc.lft.to/lastmile_qr_scan", "android": "https://dc.lft.to/lastmile_qr_scan"}, "name": "9b4f8f7df0af9294ecd801f09acaa813", "lon": -77.020303}, {"lat": 38.875347833333336, "fusion_lat": 0.0, "is_disabled": 0, "fusion_lon": 0.0, "type": "electric_scooter", "bike_id": "cd465ce71bcf40b79b5b34328269c8d6", "is_reserved": 0, "rental_uris": {"ios": "https://dc.lft.to/lastmile_qr_scan", "android": "https://dc.lft.to/lastmile_qr_scan"}, "name": "cd465ce71bcf40b79b5b34328269c8d6", "lon": -77.00883583333334}, {"lat": 38.921058333333335, "fusion_lat": 0.0, "is_disabled": 0, "fusion_lon": 0.0, "type": "electric_scooter", "bike_id": "15193bde988ad6c237642dfb1548a44d", "is_reserved": 0, "rental_uris": {"ios": "https://dc.lft.to/lastmile_qr_scan", "android": "https://dc.lft.to/lastmile_qr_scan"}, "name": "15193bde988ad6c237642dfb1548a44d", "lon": -77.03928833333333}, {"lat": 38.8738415, "fusion_lat": 0.0, "is_disabled": 0, "fusion_lon": 0.0, "type": "electric_scooter", "bike_id": "e21c5119c1e0421871fe3fc3380e470a", "is_reserved": 0, "rental_uris": {"ios": "https://dc.lft.to/lastmile_qr_scan", "android": "https://dc.lft.to/lastmile_qr_scan"}, "name": "e21c5119c1e0421871fe3fc3380e470a", "lon": -77.00126216666666}, {"lat": 38.898415166666666, "fusion_lat": 0.0, "is_disabled": 0, "fusion_lon": 0.0, "type": "electric_scooter", "bike_id": "35addcaa49a0342741574b5954074f68", "is_reserved": 0, "rental_uris": {"ios": "https://dc.lft.to/lastmile_qr_scan", "android": "https://dc.lft.to/lastmile_qr_scan"}, "name": "35addcaa49a0342741574b5954074f68", "lon": -77.02181783333333}, {"lat": 38.91021216666667, "fusion_lat": 0.0, "is_disabled": 0, "fusion_lon": 0.0, "type": "electric_scooter", "bike_id": "14e208fb7544b50e89cdae2da03d8fcf", "is_reserved": 0, "rental_uris": {"ios": "https://dc.lft.to/lastmile_qr_scan", "android": "https://dc.lft.to/lastmile_qr_scan"}, "name": "14e208fb7544b50e89cdae2da03d8fcf", "lon": -77.03469883333334}, {"lat": 38.92480533333333, "fusion_lat": 0.0, "is_disabled": 0, "fusion_lon": 0.0, "type": "electric_scooter", "bike_id": "79add19f072a48e0a576b46fe05d961a", "is_reserved": 0, "rental_uris": {"ios": "https://dc.lft.to/lastmile_qr_scan", "android": "https://dc.lft.to/lastmile_qr_scan"}, "name": "79add19f072a48e0a576b46fe05d961a", "lon": -76.99571183333333}, {"lat": 38.900361333333336, "fusion_lat": 0.0, "is_disabled": 0, "fusion_lon": 0.0, "type": "electric_scooter", "bike_id": "459030ed8e221ef292575b6a61e4bee6", "is_reserved": 0, "rental_uris": {"ios": "https://dc.lft.to/lastmile_qr_scan", "android": "https://dc.lft.to/lastmile_qr_scan"}, "name": "459030ed8e221ef292575b6a61e4bee6", "lon": -77.00196616666666}, {"lat": 38.90690383333333, "fusion_lat": 0.0, "is_disabled": 0, "fusion_lon": 0.0, "type": "electric_scooter", "bike_id": "6e8c542d192f872e695fb84ce908f454", "is_reserved": 0, "rental_uris": {"ios": "https://dc.lft.to/lastmile_qr_scan", "android": "https://dc.lft.to/lastmile_qr_scan"}, "name": "6e8c542d192f872e695fb84ce908f454", "lon": -77.02716066666666}, {"lat": 38.927133166666664, "fusion_lat": 0.0, "is_disabled": 0, "fusion_lon": 0.0, "type": "electric_scooter", "bike_id": "71332219e86dca33388ce7d6d0994400", "is_reserved": 0, "rental_uris": {"ios": "https://dc.lft.to/lastmile_qr_scan", "android": "https://dc.lft.to/lastmile_qr_scan"}, "name": "71332219e86dca33388ce7d6d0994400", "lon": -77.022899}, {"lat": 38.860044333333335, "fusion_lat": 0.0, "is_disabled": 0, "fusion_lon": 0.0, "type": "electric_scooter", "bike_id": "32bfde70c13e26fb720bd5f22266faf3", "is_reserved": 0, "rental_uris": {"ios": "https://dc.lft.to/lastmile_qr_scan", "android": "https://dc.lft.to/lastmile_qr_scan"}, "name": "32bfde70c13e26fb720bd5f22266faf3", "lon": -76.98520933333333}, {"lat": 38.92348233333333, "fusion_lat": 0.0, "is_disabled": 0, "fusion_lon": 0.0, "type": "electric_scooter", "bike_id": "70dabdafba1256770ff29476ba1586da", "is_reserved": 0, "rental_uris": {"ios": "https://dc.lft.to/lastmile_qr_scan", "android": "https://dc.lft.to/lastmile_qr_scan"}, "name": "70dabdafba1256770ff29476ba1586da", "lon": -77.02448533333333}, {"lat": 38.9246815, "fusion_lat": 0.0, "is_disabled": 0, "fusion_lon": 0.0, "type": "electric_scooter", "bike_id": "02506dad29fa455a710497c5db08ffcb", "is_reserved": 0, "rental_uris": {"ios": "https://dc.lft.to/lastmile_qr_scan", "android": "https://dc.lft.to/lastmile_qr_scan"}, "name": "02506dad29fa455a710497c5db08ffcb", "lon": -77.02185366666667}, {"lat": 38.918083833333334, "fusion_lat": 0.0, "is_disabled": 0, "fusion_lon": 0.0, "type": "electric_scooter", "bike_id": "dacd33e07ccd743dbadcd503b3b57387", "is_reserved": 0, "rental_uris": {"ios": "https://dc.lft.to/lastmile_qr_scan", "android": "https://dc.lft.to/lastmile_qr_scan"}, "name": "dacd33e07ccd743dbadcd503b3b57387", "lon": -77.026851}, {"lat": 38.90383116666667, "fusion_lat": 0.0, "is_disabled": 0, "fusion_lon": 0.0, "type": "electric_scooter", "bike_id": "104170d1b7e04c135efb164257311644", "is_reserved": 0, "rental_uris": {"ios": "https://dc.lft.to/lastmile_qr_scan", "android": "https://dc.lft.to/lastmile_qr_scan"}, "name": "104170d1b7e04c135efb164257311644", "lon": -77.06107316666667}, {"lat": 38.9074315, "fusion_lat": 0.0, "is_disabled": 0, "fusion_lon": 0.0, "type": "electric_scooter", "bike_id": "7af7cc5e83e53b1232c488a230ddd30d", "is_reserved": 0, "rental_uris": {"ios": "https://dc.lft.to/lastmile_qr_scan", "android": "https://dc.lft.to/lastmile_qr_scan"}, "name": "7af7cc5e83e53b1232c488a230ddd30d", "lon": -77.04161983333333}, {"lat": 38.94451016666667, "fusion_lat": 0.0, "is_disabled": 0, "fusion_lon": 0.0, "type": "electric_scooter", "bike_id": "d8a2f78785e3ce02f14e6ecca86a18c0", "is_reserved": 0, "rental_uris": {"ios": "https://dc.lft.to/lastmile_qr_scan", "android": "https://dc.lft.to/lastmile_qr_scan"}, "name": "d8a2f78785e3ce02f14e6ecca86a18c0", "lon": -77.02802866666667}, {"lat": 38.9011885, "fusion_lat": 0.0, "is_disabled": 0, "fusion_lon": 0.0, "type": "electric_scooter", "bike_id": "9ecfa10ff823b9d24614eb823956b9d9", "is_reserved": 0, "rental_uris": {"ios": "https://dc.lft.to/lastmile_qr_scan", "android": "https://dc.lft.to/lastmile_qr_scan"}, "name": "9ecfa10ff823b9d24614eb823956b9d9", "lon": -77.04336316666667}, {"lat": 38.90037266666667, "fusion_lat": 0.0, "is_disabled": 0, "fusion_lon": 0.0, "type": "electric_scooter", "bike_id": "0147398168d70291655171cc6a07fd15", "is_reserved": 0, "rental_uris": {"ios": "https://dc.lft.to/lastmile_qr_scan", "android": "https://dc.lft.to/lastmile_qr_scan"}, "name": "0147398168d70291655171cc6a07fd15", "lon": -77.04753416666667}, {"lat": 38.91280116666667, "fusion_lat": 0.0, "is_disabled": 0, "fusion_lon": 0.0, "type": "electric_scooter", "bike_id": "ef436e48f8b34dec591d450b3a2e5c2e", "is_reserved": 0, "rental_uris": {"ios": "https://dc.lft.to/lastmile_qr_scan", "android": "https://dc.lft.to/lastmile_qr_scan"}, "name": "ef436e48f8b34dec591d450b3a2e5c2e", "lon": -77.067927}, {"lat": 38.884723, "fusion_lat": 0.0, "is_disabled": 0, "fusion_lon": 0.0, "type": "electric_scooter", "bike_id": "4557252443264b78137d148ded0cf411", "is_reserved": 0, "rental_uris": {"ios": "https://dc.lft.to/lastmile_qr_scan", "android": "https://dc.lft.to/lastmile_qr_scan"}, "name": "4557252443264b78137d148ded0cf411", "lon": -77.03347066666667}, {"lat": 38.933428666666664, "fusion_lat": 0.0, "is_disabled": 0, "fusion_lon": 0.0, "type": "electric_scooter", "bike_id": "7d73e7db00d3fe8e573a2e047957ca62", "is_reserved": 0, "rental_uris": {"ios": "https://dc.lft.to/lastmile_qr_scan", "android": "https://dc.lft.to/lastmile_qr_scan"}, "name": "7d73e7db00d3fe8e573a2e047957ca62", "lon": -77.02748633333333}, {"lat": 38.9016475, "fusion_lat": 0.0, "is_disabled": 0, "fusion_lon": 0.0, "type": "electric_scooter", "bike_id": "c5da2b7e4fcf0c3733dabb29764d3e7f", "is_reserved": 0, "rental_uris": {"ios": "https://dc.lft.to/lastmile_qr_scan", "android": "https://dc.lft.to/lastmile_qr_scan"}, "name": "c5da2b7e4fcf0c3733dabb29764d3e7f", "lon": -77.02206366666667}, {"lat": 38.871682166666666, "fusion_lat": 0.0, "is_disabled": 0, "fusion_lon": 0.0, "type": "electric_scooter", "bike_id": "e3538aecdc1a3d9b1cb2d3f70dbf4a44", "is_reserved": 0, "rental_uris": {"ios": "https://dc.lft.to/lastmile_qr_scan", "android": "https://dc.lft.to/lastmile_qr_scan"}, "name": "e3538aecdc1a3d9b1cb2d3f70dbf4a44", "lon": -77.00634616666666}, {"lat": 38.88767, "fusion_lat": 0.0, "is_disabled": 0, "fusion_lon": 0.0, "type": "electric_scooter", "bike_id": "cbb93668b1c1853711545c66e77d8edb", "is_reserved": 0, "rental_uris": {"ios": "https://dc.lft.to/lastmile_qr_scan", "android": "https://dc.lft.to/lastmile_qr_scan"}, "name": "cbb93668b1c1853711545c66e77d8edb", "lon": -76.97730983333334}, {"lat": 38.87670083333333, "fusion_lat": 0.0, "is_disabled": 0, "fusion_lon": 0.0, "type": "electric_scooter", "bike_id": "388da5f9bea87bdee76c2fc5712ed469", "is_reserved": 0, "rental_uris": {"ios": "https://dc.lft.to/lastmile_qr_scan", "android": "https://dc.lft.to/lastmile_qr_scan"}, "name": "388da5f9bea87bdee76c2fc5712ed469", "lon": -77.0028755}, {"lat": 38.912648, "fusion_lat": 0.0, "is_disabled": 0, "fusion_lon": 0.0, "type": "electric_scooter", "bike_id": "2c13fab71848298b8474b1c2b17f653c", "is_reserved": 0, "rental_uris": {"ios": "https://dc.lft.to/lastmile_qr_scan", "android": "https://dc.lft.to/lastmile_qr_scan"}, "name": "2c13fab71848298b8474b1c2b17f653c", "lon": -77.0477045}, {"lat": 38.88767766666667, "fusion_lat": 0.0, "is_disabled": 0, "fusion_lon": 0.0, "type": "electric_scooter", "bike_id": "5faf2591cac1e46988781d8320dd6a0b", "is_reserved": 0, "rental_uris": {"ios": "https://dc.lft.to/lastmile_qr_scan", "android": "https://dc.lft.to/lastmile_qr_scan"}, "name": "5faf2591cac1e46988781d8320dd6a0b", "lon": -76.97734116666666}, {"lat": 38.91787166666667, "fusion_lat": 0.0, "is_disabled": 0, "fusion_lon": 0.0, "type": "electric_scooter", "bike_id": "b36a7565dc2c977692df42963ac507e2", "is_reserved": 0, "rental_uris": {"ios": "https://dc.lft.to/lastmile_qr_scan", "android": "https://dc.lft.to/lastmile_qr_scan"}, "name": "b36a7565dc2c977692df42963ac507e2", "lon": -77.0232895}, {"lat": 38.9150035, "fusion_lat": 0.0, "is_disabled": 0, "fusion_lon": 0.0, "type": "electric_scooter", "bike_id": "b6301b31dc1e27aecc527f3600926908", "is_reserved": 0, "rental_uris": {"ios": "https://dc.lft.to/lastmile_qr_scan", "android": "https://dc.lft.to/lastmile_qr_scan"}, "name": "b6301b31dc1e27aecc527f3600926908", "lon": -77.04536583333334}, {"lat": 38.886009666666666, "fusion_lat": 0.0, "is_disabled": 0, "fusion_lon": 0.0, "type": "electric_scooter", "bike_id": "89f647a4b16fcc1a8a1508fc8cb79493", "is_reserved": 0, "rental_uris": {"ios": "https://dc.lft.to/lastmile_qr_scan", "android": "https://dc.lft.to/lastmile_qr_scan"}, "name": "89f647a4b16fcc1a8a1508fc8cb79493", "lon": -76.92503783333333}, {"lat": 38.89390916666667, "fusion_lat": 0.0, "is_disabled": 0, "fusion_lon": 0.0, "type": "electric_scooter", "bike_id": "46ec88c65c5f5f5190cbb8d8ff0c8ee7", "is_reserved": 0, "rental_uris": {"ios": "https://dc.lft.to/lastmile_qr_scan", "android": "https://dc.lft.to/lastmile_qr_scan"}, "name": "46ec88c65c5f5f5190cbb8d8ff0c8ee7", "lon": -77.05473966666666}, {"lat": 38.956427, "fusion_lat": 0.0, "is_disabled": 0, "fusion_lon": 0.0, "type": "electric_scooter", "bike_id": "946e8ae17337d1d2621dd94230466f19", "is_reserved": 0, "rental_uris": {"ios": "https://dc.lft.to/lastmile_qr_scan", "android": "https://dc.lft.to/lastmile_qr_scan"}, "name": "946e8ae17337d1d2621dd94230466f19", "lon": -77.02815816666667}, {"lat": 38.90355483333333, "fusion_lat": 0.0, "is_disabled": 0, "fusion_lon": 0.0, "type": "electric_scooter", "bike_id": "e724170b27bb0c2bccc3dc1ac48fc79e", "is_reserved": 0, "rental_uris": {"ios": "https://dc.lft.to/lastmile_qr_scan", "android": "https://dc.lft.to/lastmile_qr_scan"}, "name": "e724170b27bb0c2bccc3dc1ac48fc79e", "lon": -77.02618633333333}, {"lat": 38.93089166666667, "fusion_lat": 0.0, "is_disabled": 0, "fusion_lon": 0.0, "type": "electric_scooter", "bike_id": "52b06580ab7466b0aaedacb745327660", "is_reserved": 0, "rental_uris": {"ios": "https://dc.lft.to/lastmile_qr_scan", "android": "https://dc.lft.to/lastmile_qr_scan"}, "name": "52b06580ab7466b0aaedacb745327660", "lon": -77.0235495}, {"lat": 38.90254566666667, "fusion_lat": 0.0, "is_disabled": 0, "fusion_lon": 0.0, "type": "electric_scooter", "bike_id": "00c183f17908bd3e871a925c09ddfaa9", "is_reserved": 0, "rental_uris": {"ios": "https://dc.lft.to/lastmile_qr_scan", "android": "https://dc.lft.to/lastmile_qr_scan"}, "name": "00c183f17908bd3e871a925c09ddfaa9", "lon": -77.0341455}, {"lat": 38.905590833333335, "fusion_lat": 0.0, "is_disabled": 0, "fusion_lon": 0.0, "type": "electric_scooter", "bike_id": "f3da38152924bfb73541b2e31b171942", "is_reserved": 0, "rental_uris": {"ios": "https://dc.lft.to/lastmile_qr_scan", "android": "https://dc.lft.to/lastmile_qr_scan"}, "name": "f3da38152924bfb73541b2e31b171942", "lon": -77.03466633333333}, {"lat": 38.900566166666664, "fusion_lat": 0.0, "is_disabled": 0, "fusion_lon": 0.0, "type": "electric_scooter", "bike_id": "2b84bc18126ba6e3d2fd75ce0fcebb3c", "is_reserved": 0, "rental_uris": {"ios": "https://dc.lft.to/lastmile_qr_scan", "android": "https://dc.lft.to/lastmile_qr_scan"}, "name": "2b84bc18126ba6e3d2fd75ce0fcebb3c", "lon": -76.99339033333334}, {"lat": 38.92159133333333, "fusion_lat": 0.0, "is_disabled": 0, "fusion_lon": 0.0, "type": "electric_scooter", "bike_id": "a045ab6f17da9f0e70cc6d18da1bc5bb", "is_reserved": 0, "rental_uris": {"ios": "https://dc.lft.to/lastmile_qr_scan", "android": "https://dc.lft.to/lastmile_qr_scan"}, "name": "a045ab6f17da9f0e70cc6d18da1bc5bb", "lon": -77.0208475}, {"lat": 38.958488833333334, "fusion_lat": 0.0, "is_disabled": 0, "fusion_lon": 0.0, "type": "electric_scooter", "bike_id": "3b1150fb084db0bcb72060dc1ecce9d1", "is_reserved": 0, "rental_uris": {"ios": "https://dc.lft.to/lastmile_qr_scan", "android": "https://dc.lft.to/lastmile_qr_scan"}, "name": "3b1150fb084db0bcb72060dc1ecce9d1", "lon": -77.07163516666667}, {"lat": 38.907604666666664, "fusion_lat": 0.0, "is_disabled": 0, "fusion_lon": 0.0, "type": "electric_scooter", "bike_id": "4ff7f9132243735df230a15e03c30194", "is_reserved": 0, "rental_uris": {"ios": "https://dc.lft.to/lastmile_qr_scan", "android": "https://dc.lft.to/lastmile_qr_scan"}, "name": "4ff7f9132243735df230a15e03c30194", "lon": -77.045249}, {"lat": 38.900155, "fusion_lat": 0.0, "is_disabled": 0, "fusion_lon": 0.0, "type": "electric_scooter", "bike_id": "8288ed776fb20004748697435338b296", "is_reserved": 0, "rental_uris": {"ios": "https://dc.lft.to/lastmile_qr_scan", "android": "https://dc.lft.to/lastmile_qr_scan"}, "name": "8288ed776fb20004748697435338b296", "lon": -77.04482833333333}, {"lat": 38.9051235, "fusion_lat": 0.0, "is_disabled": 0, "fusion_lon": 0.0, "type": "electric_scooter", "bike_id": "6cd63fda6dd21db0548f163c05bf776c", "is_reserved": 0, "rental_uris": {"ios": "https://dc.lft.to/lastmile_qr_scan", "android": "https://dc.lft.to/lastmile_qr_scan"}, "name": "6cd63fda6dd21db0548f163c05bf776c", "lon": -76.98394183333333}, {"lat": 38.91348683333333, "fusion_lat": 0.0, "is_disabled": 0, "fusion_lon": 0.0, "type": "electric_scooter", "bike_id": "8a963750a1bea1d9125c56a8c5a1d909", "is_reserved": 0, "rental_uris": {"ios": "https://dc.lft.to/lastmile_qr_scan", "android": "https://dc.lft.to/lastmile_qr_scan"}, "name": "8a963750a1bea1d9125c56a8c5a1d909", "lon": -77.03186683333334}, {"lat": 38.822078166666664, "fusion_lat": 0.0, "is_disabled": 0, "fusion_lon": 0.0, "type": "electric_bike", "bike_id": "99393e032185f42d5992b1d35de5b524", "is_reserved": 0, "rental_uris": {"ios": "https://dc.lft.to/lastmile_qr_scan", "android": "https://dc.lft.to/lastmile_qr_scan"}, "name": "99393e032185f42d5992b1d35de5b524", "lon": -76.97701133333334}, {"lat": 38.917496, "fusion_lat": 0.0, "is_disabled": 0, "fusion_lon": 0.0, "type": "electric_scooter", "bike_id": "5f0289a275749ca1cb9d1acb1ee6ccc2", "is_reserved": 0, "rental_uris": {"ios": "https://dc.lft.to/lastmile_qr_scan", "android": "https://dc.lft.to/lastmile_qr_scan"}, "name": "5f0289a275749ca1cb9d1acb1ee6ccc2", "lon": -77.02388183333333}, {"lat": 38.901286, "fusion_lat": 0.0, "is_disabled": 0, "fusion_lon": 0.0, "type": "electric_scooter", "bike_id": "99a7201783e33ad82dd0cb6617cc9995", "is_reserved": 0, "rental_uris": {"ios": "https://dc.lft.to/lastmile_qr_scan", "android": "https://dc.lft.to/lastmile_qr_scan"}, "name": "99a7201783e33ad82dd0cb6617cc9995", "lon": -77.0220245}, {"lat": 38.8995875, "fusion_lat": 0.0, "is_disabled": 0, "fusion_lon": 0.0, "type": "electric_bike", "bike_id": "e0e1ad90be3fa64e110a99b7cbe19b64", "is_reserved": 0, "rental_uris": {"ios": "https://dc.lft.to/lastmile_qr_scan", "android": "https://dc.lft.to/lastmile_qr_scan"}, "name": "e0e1ad90be3fa64e110a99b7cbe19b64", "lon": -76.98676233333333}, {"lat": 38.91113383333333, "fusion_lat": 0.0, "is_disabled": 0, "fusion_lon": 0.0, "type": "electric_scooter", "bike_id": "bc2a87aa01882a58ad81312f75a47139", "is_reserved": 0, "rental_uris": {"ios": "https://dc.lft.to/lastmile_qr_scan", "android": "https://dc.lft.to/lastmile_qr_scan"}, "name": "bc2a87aa01882a58ad81312f75a47139", "lon": -77.00601333333333}, {"lat": 38.876657333333334, "fusion_lat": 0.0, "is_disabled": 0, "fusion_lon": 0.0, "type": "electric_scooter", "bike_id": "19b8ceadca326d2db70980397a0c89ac", "is_reserved": 0, "rental_uris": {"ios": "https://dc.lft.to/lastmile_qr_scan", "android": "https://dc.lft.to/lastmile_qr_scan"}, "name": "19b8ceadca326d2db70980397a0c89ac", "lon": -77.0006325}, {"lat": 38.895438166666665, "fusion_lat": 0.0, "is_disabled": 0, "fusion_lon": 0.0, "type": "electric_scooter", "bike_id": "5d06441336f02f6c87d7b475becfba67", "is_reserved": 0, "rental_uris": {"ios": "https://dc.lft.to/lastmile_qr_scan", "android": "https://dc.lft.to/lastmile_qr_scan"}, "name": "5d06441336f02f6c87d7b475becfba67", "lon": -76.98336416666666}, {"lat": 38.89846283333333, "fusion_lat": 0.0, "is_disabled": 0, "fusion_lon": 0.0, "type": "electric_scooter", "bike_id": "f2713951adb933c060015541d507883b", "is_reserved": 0, "rental_uris": {"ios": "https://dc.lft.to/lastmile_qr_scan", "android": "https://dc.lft.to/lastmile_qr_scan"}, "name": "f2713951adb933c060015541d507883b", "lon": -77.02193133333333}, {"lat": 38.807372, "fusion_lat": 0.0, "is_disabled": 0, "fusion_lon": 0.0, "type": "electric_bike", "bike_id": "396f0f6e13d5289198c0450552676ddd", "is_reserved": 0, "rental_uris": {"ios": "https://dc.lft.to/lastmile_qr_scan", "android": "https://dc.lft.to/lastmile_qr_scan"}, "name": "396f0f6e13d5289198c0450552676ddd", "lon": -77.09685}, {"lat": 38.900261666666665, "fusion_lat": 0.0, "is_disabled": 0, "fusion_lon": 0.0, "type": "electric_scooter", "bike_id": "4be3f7f5c773d6b5f36c9b6a60cc7b47", "is_reserved": 0, "rental_uris": {"ios": "https://dc.lft.to/lastmile_qr_scan", "android": "https://dc.lft.to/lastmile_qr_scan"}, "name": "4be3f7f5c773d6b5f36c9b6a60cc7b47", "lon": -76.99869183333334}, {"lat": 38.87174666666667, "fusion_lat": 0.0, "is_disabled": 0, "fusion_lon": 0.0, "type": "electric_bike", "bike_id": "77823b5cff514019eca180afe90d109a", "is_reserved": 0, "rental_uris": {"ios": "https://dc.lft.to/lastmile_qr_scan", "android": "https://dc.lft.to/lastmile_qr_scan"}, "name": "77823b5cff514019eca180afe90d109a", "lon": -77.233867}, {"lat": 38.912640333333336, "fusion_lat": 0.0, "is_disabled": 0, "fusion_lon": 0.0, "type": "electric_scooter", "bike_id": "e1211f33e0c422cff75c2c24894619e3", "is_reserved": 0, "rental_uris": {"ios": "https://dc.lft.to/lastmile_qr_scan", "android": "https://dc.lft.to/lastmile_qr_scan"},