{"data": {"bikes": [{"is_disabled": 0, "fusion_lon": 0.0, "fusion_lat": 0.0, "lat": 38.94452866666666, "type": "electric_scooter", "lon": -77.06353016666667, "bike_id": "c1165a62838ff9df82a427520a9c4344", "rental_uris": {"android": "https://dc.lft.to/lastmile_qr_scan", "ios": "https://dc.lft.to/lastmile_qr_scan"}, "name": "c1165a62838ff9df82a427520a9c4344", "is_reserved": 0}, {"is_disabled": 0, "fusion_lon": 0.0, "fusion_lat": 0.0, "lat": 38.927640333333336, "type": "electric_scooter", "lon": -77.00588616666667, "bike_id": "651edfe05df7cfcb78960f878cede035", "rental_uris": {"android": "https://dc.lft.to/lastmile_qr_scan", "ios": "https://dc.lft.to/lastmile_qr_scan"}, "name": "651edfe05df7cfcb78960f878cede035", "is_reserved": 0}, {"is_disabled": 0, "fusion_lon": 0.0, "fusion_lat": 0.0, "lat": 38.85511266666666, "type": "electric_bike", "lon": -76.95845883333334, "bike_id": "66ba2f0ade3ff9d69297f70fd66329ad", "rental_uris": {"android": "https://dc.lft.to/lastmile_qr_scan", "ios": "https://dc.lft.to/lastmile_qr_scan"}, "name": "66ba2f0ade3ff9d69297f70fd66329ad", "is_reserved": 0}, {"is_disabled": 0, "fusion_lon": 0.0, "fusion_lat": 0.0, "lat": 38.91956533333333, "type": "electric_scooter", "lon": -77.02378733333333, "bike_id": "3ae20ffdb889e5241ceca72637c651ef", "rental_uris": {"android": "https://dc.lft.to/lastmile_qr_scan", "ios": "https://dc.lft.to/lastmile_qr_scan"}, "name": "3ae20ffdb889e5241ceca72637c651ef", "is_reserved": 0}, {"is_disabled": 0, "fusion_lon": 0.0, "fusion_lat": 0.0, "lat": 38.915690166666664, "type": "electric_scooter", "lon": -77.03270883333333, "bike_id": "bc1a44d2f61494abb61e29cff8677b6f", "rental_uris": {"android": "https://dc.lft.to/lastmile_qr_scan", "ios": "https://dc.lft.to/lastmile_qr_scan"}, "name": "bc1a44d2f61494abb61e29cff8677b6f", "is_reserved": 0}, {"is_disabled": 0, "fusion_lon": 0.0, "fusion_lat": 0.0, "lat": 38.91802533333333, "type": "electric_scooter", "lon": -77.040354, "bike_id": "5db895102f67bd5cc82b44fb634d59d2", "rental_uris": {"android": "https://dc.lft.to/lastmile_qr_scan", "ios": "https://dc.lft.to/lastmile_qr_scan"}, "name": "5db895102f67bd5cc82b44fb634d59d2", "is_reserved": 0}, {"is_disabled": 0, "fusion_lon": 0.0, "fusion_lat": 0.0, "lat": 38.913232, "type": "electric_scooter", "lon": -77.03183583333333, "bike_id": "cc721eb9529f24e64118fa69f392067f", "rental_uris": {"android": "https://dc.lft.to/lastmile_qr_scan", "ios": "https://dc.lft.to/lastmile_qr_scan"}, "name": "cc721eb9529f24e64118fa69f392067f", "is_reserved": 0}, {"is_disabled": 0, "fusion_lon": 0.0, "fusion_lat": 0.0, "lat": 38.90966866666667, "type": "electric_scooter", "lon": -77.0157145, "bike_id": "5d83e82a5751ebb424bbfe07ac278ace", "rental_uris": {"android": "https://dc.lft.to/lastmile_qr_scan", "ios": "https://dc.lft.to/lastmile_qr_scan"}, "name": "5d83e82a5751ebb424bbfe07ac278ace", "is_reserved": 0}, {"is_disabled": 0, "fusion_lon": 0.0, "fusion_lat": 0.0, "lat": 38.919367333333334, "type": "electric_scooter", "lon": -76.9807485, "bike_id": "613c54614b313c9abcb9bfdf95917fe1", "rental_uris": {"android": "https://dc.lft.to/lastmile_qr_scan", "ios": "https://dc.lft.to/lastmile_qr_scan"}, "name": "613c54614b313c9abcb9bfdf95917fe1", "is_reserved": 0}, {"is_disabled": 0, "fusion_lon": 0.0, "fusion_lat": 0.0, "lat": 38.900486666666666, "type": "electric_scooter", "lon": -77.00181366666666, "bike_id": "b85bba0136646bf300dfc1b2bd265534", "rental_uris": {"android": "https://dc.lft.to/lastmile_qr_scan", "ios": "https://dc.lft.to/lastmile_qr_scan"}, "name": "b85bba0136646bf300dfc1b2bd265534", "is_reserved": 0}, {"is_disabled": 0, "fusion_lon": 0.0, "fusion_lat": 0.0, "lat": 38.91327733333333, "type": "electric_scooter", "lon": -77.031823, "bike_id": "d68032cbc78fc7520209f0c011df2c28", "rental_uris": {"android": "https://dc.lft.to/lastmile_qr_scan", "ios": "https://dc.lft.to/lastmile_qr_scan"}, "name": "d68032cbc78fc7520209f0c011df2c28", "is_reserved": 0}, {"is_disabled": 0, "fusion_lon": 0.0, "fusion_lat": 0.0, "lat": 38.87649916666667, "type": "electric_scooter", "lon": -77.00592766666666, "bike_id": "7afa6e604ad76a0de2576fdbfaaab968", "rental_uris": {"android": "https://dc.lft.to/lastmile_qr_scan", "ios": "https://dc.lft.to/lastmile_qr_scan"}, "name": "7afa6e604ad76a0de2576fdbfaaab968", "is_reserved": 0}, {"is_disabled": 0, "fusion_lon": 0.0, "fusion_lat": 0.0, "lat": 38.94078733333333, "type": "electric_scooter", "lon": -77.02115766666667, "bike_id": "6d873128f688971852a82916f2c1f8ae", "rental_uris": {"android": "https://dc.lft.to/lastmile_qr_scan", "ios": "https://dc.lft.to/lastmile_qr_scan"}, "name": "6d873128f688971852a82916f2c1f8ae", "is_reserved": 0}, {"is_disabled": 0, "fusion_lon": 0.0, "fusion_lat": 0.0, "lat": 38.919969, "type": "electric_scooter", "lon": -77.0240645, "bike_id": "cfa445009cf9f6a2be5548c461b458a7", "rental_uris": {"android": "https://dc.lft.to/lastmile_qr_scan", "ios": "https://dc.lft.to/lastmile_qr_scan"}, "name": "cfa445009cf9f6a2be5548c461b458a7", "is_reserved": 0}, {"is_disabled": 0, "fusion_lon": 0.0, "fusion_lat": 0.0, "lat": 38.91922733333333, "type": "electric_scooter", "lon": -77.034188, "bike_id": "3dbd893204f1acb648fbb9f7584300d9", "rental_uris": {"android": "https://dc.lft.to/lastmile_qr_scan", "ios": "https://dc.lft.to/lastmile_qr_scan"}, "name": "3dbd893204f1acb648fbb9f7584300d9", "is_reserved": 0}, {"is_disabled": 0, "fusion_lon": 0.0, "fusion_lat": 0.0, "lat": 38.87903, "type": "electric_scooter", "lon": -77.0219365, "bike_id": "fa8cbb940ac7e7f93aac03078013f7fe", "rental_uris": {"android": "https://dc.lft.to/lastmile_qr_scan", "ios": "https://dc.lft.to/lastmile_qr_scan"}, "name": "fa8cbb940ac7e7f93aac03078013f7fe", "is_reserved": 0}, {"is_disabled": 0, "fusion_lon": 0.0, "fusion_lat": 0.0, "lat": 38.8650845, "type": "electric_scooter", "lon": -76.9900445, "bike_id": "c5972b59f921f8e6e68b6762f9bdc337", "rental_uris": {"android": "https://dc.lft.to/lastmile_qr_scan", "ios": "https://dc.lft.to/lastmile_qr_scan"}, "name": "c5972b59f921f8e6e68b6762f9bdc337", "is_reserved": 0}, {"is_disabled": 0, "fusion_lon": 0.0, "fusion_lat": 0.0, "lat": 38.949857, "type": "electric_scooter", "lon": -77.02702533333333, "bike_id": "69173bda9eb2e8cf276c91424adc3c9f", "rental_uris": {"android": "https://dc.lft.to/lastmile_qr_scan", "ios": "https://dc.lft.to/lastmile_qr_scan"}, "name": "69173bda9eb2e8cf276c91424adc3c9f", "is_reserved": 0}, {"is_disabled": 0, "fusion_lon": 0.0, "fusion_lat": 0.0, "lat": 38.9192835, "type": "electric_scooter", "lon": -77.03025183333334, "bike_id": "f354b1bd5d7b4ed78ef88ec33280f52a", "rental_uris": {"android": "https://dc.lft.to/lastmile_qr_scan", "ios": "https://dc.lft.to/lastmile_qr_scan"}, "name": "f354b1bd5d7b4ed78ef88ec33280f52a", "is_reserved": 0}, {"is_disabled": 0, "fusion_lon": 0.0, "fusion_lat": 0.0, "lat": 38.891672166666666, "type": "electric_scooter", "lon": -77.01540466666667, "bike_id": "9789facc6f1b4384cb9f4150aec88a10", "rental_uris": {"android": "https://dc.lft.to/lastmile_qr_scan", "ios": "https://dc.lft.to/lastmile_qr_scan"}, "name": "9789facc6f1b4384cb9f4150aec88a10", "is_reserved": 0}, {"is_disabled": 0, "fusion_lon": 0.0, "fusion_lat": 0.0, "lat": 38.91036116666667, "type": "electric_scooter", "lon": -77.01376016666667, "bike_id": "c9102d1c9081a5d25d956bcff0b6c79a", "rental_uris": {"android": "https://dc.lft.to/lastmile_qr_scan", "ios": "https://dc.lft.to/lastmile_qr_scan"}, "name": "c9102d1c9081a5d25d956bcff0b6c79a", "is_reserved": 0}, {"is_disabled": 0, "fusion_lon": 0.0, "fusion_lat": 0.0, "lat": 38.9310655, "type": "electric_scooter", "lon": -77.04124733333333, "bike_id": "7353ca377a699153d1fce1cfe85c08a3", "rental_uris": {"android": "https://dc.lft.to/lastmile_qr_scan", "ios": "https://dc.lft.to/lastmile_qr_scan"}, "name": "7353ca377a699153d1fce1cfe85c08a3", "is_reserved": 0}, {"is_disabled": 0, "fusion_lon": 0.0, "fusion_lat": 0.0, "lat": 38.89219, "type": "electric_scooter", "lon": -77.02260216666667, "bike_id": "2f78da7314952486e60090f3f77e07d3", "rental_uris": {"android": "https://dc.lft.to/lastmile_qr_scan", "ios": "https://dc.lft.to/lastmile_qr_scan"}, "name": "2f78da7314952486e60090f3f77e07d3", "is_reserved": 0}, {"is_disabled": 0, "fusion_lon": 0.0, "fusion_lat": 0.0, "lat": 38.87631316666667, "type": "electric_scooter", "lon": -76.9652715, "bike_id": "c11c2f45d256d065b093fadec7bb844b", "rental_uris": {"android": "https://dc.lft.to/lastmile_qr_scan", "ios": "https://dc.lft.to/lastmile_qr_scan"}, "name": "c11c2f45d256d065b093fadec7bb844b", "is_reserved": 0}, {"is_disabled": 0, "fusion_lon": 0.0, "fusion_lat": 0.0, "lat": 38.898366833333334, "type": "electric_scooter", "lon": -77.02950633333333, "bike_id": "f410f02799de30bb01952367ef40a8ef", "rental_uris": {"android": "https://dc.lft.to/lastmile_qr_scan", "ios": "https://dc.lft.to/lastmile_qr_scan"}, "name": "f410f02799de30bb01952367ef40a8ef", "is_reserved": 0}, {"is_disabled": 0, "fusion_lon": 0.0, "fusion_lat": 0.0, "lat": 38.95089883333333, "type": "electric_bike", "lon": -76.9656, "bike_id": "b01697894e5ae38094cf689c520f1a2e", "rental_uris": {"android": "https://dc.lft.to/lastmile_qr_scan", "ios": "https://dc.lft.to/lastmile_qr_scan"}, "name": "b01697894e5ae38094cf689c520f1a2e", "is_reserved": 0}, {"is_disabled": 0, "fusion_lon": 0.0, "fusion_lat": 0.0, "lat": 38.912688, "type": "electric_scooter", "lon": -77.02230616666667, "bike_id": "3501713725d766503c7a4ed159ab0534", "rental_uris": {"android": "https://dc.lft.to/lastmile_qr_scan", "ios": "https://dc.lft.to/lastmile_qr_scan"}, "name": "3501713725d766503c7a4ed159ab0534", "is_reserved": 0}, {"is_disabled": 0, "fusion_lon": 0.0, "fusion_lat": 0.0, "lat": 38.90800816666667, "type": "electric_scooter", "lon": -77.04099816666667, "bike_id": "375a1797d4f20c7d72ba2d2cb3ba29c2", "rental_uris": {"android": "https://dc.lft.to/lastmile_qr_scan", "ios": "https://dc.lft.to/lastmile_qr_scan"}, "name": "375a1797d4f20c7d72ba2d2cb3ba29c2", "is_reserved": 0}, {"is_disabled": 0, "fusion_lon": 0.0, "fusion_lat": 0.0, "lat": 38.90732333333333, "type": "electric_scooter", "lon": -77.0236955, "bike_id": "27a70d9f90479975b9ee05611ca22e6b", "rental_uris": {"android": "https://dc.lft.to/lastmile_qr_scan", "ios": "https://dc.lft.to/lastmile_qr_scan"}, "name": "27a70d9f90479975b9ee05611ca22e6b", "is_reserved": 0}, {"is_disabled": 0, "fusion_lon": 0.0, "fusion_lat": 0.0, "lat": 38.9003705, "type": "electric_scooter", "lon": -76.98840433333334, "bike_id": "6efa66d8c7eef5ef9dc272eac95e2fb5", "rental_uris": {"android": "https://dc.lft.to/lastmile_qr_scan", "ios": "https://dc.lft.to/lastmile_qr_scan"}, "name": "6efa66d8c7eef5ef9dc272eac95e2fb5", "is_reserved": 0}, {"is_disabled": 0, "fusion_lon": 0.0, "fusion_lat": 0.0, "lat": 38.87632133333334, "type": "electric_scooter", "lon": -76.96524916666667, "bike_id": "981966f2342f48b033e26a53330b1a5e", "rental_uris": {"android": "https://dc.lft.to/lastmile_qr_scan", "ios": "https://dc.lft.to/lastmile_qr_scan"}, "name": "981966f2342f48b033e26a53330b1a5e", "is_reserved": 0}, {"is_disabled": 0, "fusion_lon": 0.0, "fusion_lat": 0.0, "lat": 38.921381833333335, "type": "electric_bike", "lon": -76.97532, "bike_id": "805ab58c7df6211fcd5c199a1825dd95", "rental_uris": {"android": "https://dc.lft.to/lastmile_qr_scan", "ios": "https://dc.lft.to/lastmile_qr_scan"}, "name": "805ab58c7df6211fcd5c199a1825dd95", "is_reserved": 0}, {"is_disabled": 0, "fusion_lon": 0.0, "fusion_lat": 0.0, "lat": 38.892373666666664, "type": "electric_scooter", "lon": -77.025877, "bike_id": "675d6ea9008567ae1854fe517adc9816", "rental_uris": {"android": "https://dc.lft.to/lastmile_qr_scan", "ios": "https://dc.lft.to/lastmile_qr_scan"}, "name": "675d6ea9008567ae1854fe517adc9816", "is_reserved": 0}, {"is_disabled": 0, "fusion_lon": 0.0, "fusion_lat": 0.0, "lat": 38.91995083333333, "type": "electric_scooter", "lon": -77.032727, "bike_id": "8a4a9dd674e26f29e4851b6ebb80b14c", "rental_uris": {"android": "https://dc.lft.to/lastmile_qr_scan", "ios": "https://dc.lft.to/lastmile_qr_scan"}, "name": "8a4a9dd674e26f29e4851b6ebb80b14c", "is_reserved": 0}, {"is_disabled": 0, "fusion_lon": 0.0, "fusion_lat": 0.0, "lat": 38.90564766666667, "type": "electric_scooter", "lon": -77.03635333333334, "bike_id": "b5e671b281defae42c5be9264c0842a6", "rental_uris": {"android": "https://dc.lft.to/lastmile_qr_scan", "ios": "https://dc.lft.to/lastmile_qr_scan"}, "name": "b5e671b281defae42c5be9264c0842a6", "is_reserved": 0}, {"is_disabled": 0, "fusion_lon": 0.0, "fusion_lat": 0.0, "lat": 38.922217, "type": "electric_scooter", "lon": -77.03292016666667, "bike_id": "52ec315c81ea050e28a17150d064dc4a", "rental_uris": {"android": "https://dc.lft.to/lastmile_qr_scan", "ios": "https://dc.lft.to/lastmile_qr_scan"}, "name": "52ec315c81ea050e28a17150d064dc4a", "is_reserved": 0}, {"is_disabled": 0, "fusion_lon": 0.0, "fusion_lat": 0.0, "lat": 38.92260783333333, "type": "electric_scooter", "lon": -77.04134883333333, "bike_id": "a9353dc48088f645a10913148d0345bc", "rental_uris": {"android": "https://dc.lft.to/lastmile_qr_scan", "ios": "https://dc.lft.to/lastmile_qr_scan"}, "name": "a9353dc48088f645a10913148d0345bc", "is_reserved": 0}, {"is_disabled": 0, "fusion_lon": 0.0, "fusion_lat": 0.0, "lat": 38.925796166666665, "type": "electric_scooter", "lon": -76.99499183333333, "bike_id": "29d2e2d73484292e5064ff6dc1c3c1af", "rental_uris": {"android": "https://dc.lft.to/lastmile_qr_scan", "ios": "https://dc.lft.to/lastmile_qr_scan"}, "name": "29d2e2d73484292e5064ff6dc1c3c1af", "is_reserved": 0}, {"is_disabled": 0, "fusion_lon": 0.0, "fusion_lat": 0.0, "lat": 38.90795983333334, "type": "electric_scooter", "lon": -77.04984316666666, "bike_id": "424e2f7383e5ea25660e96860a75eb37", "rental_uris": {"android": "https://dc.lft.to/lastmile_qr_scan", "ios": "https://dc.lft.to/lastmile_qr_scan"}, "name": "424e2f7383e5ea25660e96860a75eb37", "is_reserved": 0}, {"is_disabled": 0, "fusion_lon": 0.0, "fusion_lat": 0.0, "lat": 38.92008516666667, "type": "electric_scooter", "lon": -77.025261, "bike_id": "3147841de1b297f44067155ff11d0908", "rental_uris": {"android": "https://dc.lft.to/lastmile_qr_scan", "ios": "https://dc.lft.to/lastmile_qr_scan"}, "name": "3147841de1b297f44067155ff11d0908", "is_reserved": 0}, {"is_disabled": 0, "fusion_lon": 0.0, "fusion_lat": 0.0, "lat": 38.907681333333336, "type": "electric_scooter", "lon": -77.02820666666666, "bike_id": "20ec1b197c9ff3603991fdb1b7b15120", "rental_uris": {"android": "https://dc.lft.to/lastmile_qr_scan", "ios": "https://dc.lft.to/lastmile_qr_scan"}, "name": "20ec1b197c9ff3603991fdb1b7b15120", "is_reserved": 0}, {"is_disabled": 0, "fusion_lon": 0.0, "fusion_lat": 0.0, "lat": 38.9428485, "type": "electric_scooter", "lon": -77.036342, "bike_id": "9ccf56f3739639f4380860354b971c61", "rental_uris": {"android": "https://dc.lft.to/lastmile_qr_scan", "ios": "https://dc.lft.to/lastmile_qr_scan"}, "name": "9ccf56f3739639f4380860354b971c61", "is_reserved": 0}, {"is_disabled": 0, "fusion_lon": 0.0, "fusion_lat": 0.0, "lat": 38.90576866666667, "type": "electric_scooter", "lon": -77.02199683333333, "bike_id": "db1a65e0616baf5eea7a5f24b2d574d9", "rental_uris": {"android": "https://dc.lft.to/lastmile_qr_scan", "ios": "https://dc.lft.to/lastmile_qr_scan"}, "name": "db1a65e0616baf5eea7a5f24b2d574d9", "is_reserved": 0}, {"is_disabled": 0, "fusion_lon": 0.0, "fusion_lat": 0.0, "lat": 38.94987066666667, "type": "electric_scooter", "lon": -77.02703316666667, "bike_id": "4b66e25d8496f86d10cbc196a0db3faa", "rental_uris": {"android": "https://dc.lft.to/lastmile_qr_scan", "ios": "https://dc.lft.to/lastmile_qr_scan"}, "name": "4b66e25d8496f86d10cbc196a0db3faa", "is_reserved": 0}, {"is_disabled": 0, "fusion_lon": 0.0, "fusion_lat": 0.0, "lat": 38.90956666666666, "type": "electric_scooter", "lon": -77.02393516666666, "bike_id": "33f5be463f191425be751cc8ec182867", "rental_uris": {"android": "https://dc.lft.to/lastmile_qr_scan", "ios": "https://dc.lft.to/lastmile_qr_scan"}, "name": "33f5be463f191425be751cc8ec182867", "is_reserved": 0}, {"is_disabled": 0, "fusion_lon": 0.0, "fusion_lat": 0.0, "lat": 38.85816116666667, "type": "electric_scooter", "lon": -76.9896765, "bike_id": "7a0465afcebf064f1eead233a6d79bc4", "rental_uris": {"android": "https://dc.lft.to/lastmile_qr_scan", "ios": "https://dc.lft.to/lastmile_qr_scan"}, "name": "7a0465afcebf064f1eead233a6d79bc4", "is_reserved": 0}, {"is_disabled": 0, "fusion_lon": 0.0, "fusion_lat": 0.0, "lat": 38.90028566666667, "type": "electric_scooter", "lon": -76.9963095, "bike_id": "cd1a2a28a3e0bdf9081fe57b21c6c722", "rental_uris": {"android": "https://dc.lft.to/lastmile_qr_scan", "ios": "https://dc.lft.to/lastmile_qr_scan"}, "name": "cd1a2a28a3e0bdf9081fe57b21c6c722", "is_reserved": 0}, {"is_disabled": 0, "fusion_lon": 0.0, "fusion_lat": 0.0, "lat": 38.879401333333334, "type": "electric_scooter", "lon": -77.010027, "bike_id": "de8e8b45ff4d74cc77e844403cc18022", "rental_uris": {"android": "https://dc.lft.to/lastmile_qr_scan", "ios": "https://dc.lft.to/lastmile_qr_scan"}, "name": "de8e8b45ff4d74cc77e844403cc18022", "is_reserved": 0}, {"is_disabled": 0, "fusion_lon": 0.0, "fusion_lat": 0.0, "lat": 38.92133116666667, "type": "electric_scooter", "lon": -77.02517433333334, "bike_id": "e3bd4e7b17cb3ae6f1ccadf7ab9592c1", "rental_uris": {"android": "https://dc.lft.to/lastmile_qr_scan", "ios": "https://dc.lft.to/lastmile_qr_scan"}, "name": "e3bd4e7b17cb3ae6f1ccadf7ab9592c1", "is_reserved": 0}, {"is_disabled": 0, "fusion_lon": 0.0, "fusion_lat": 0.0, "lat": 38.956144, "type": "electric_scooter", "lon": -77.027601, "bike_id": "c224582c4d739f3075e5ac7b40cc08ae", "rental_uris": {"android": "https://dc.lft.to/lastmile_qr_scan", "ios": "https://dc.lft.to/lastmile_qr_scan"}, "name": "c224582c4d739f3075e5ac7b40cc08ae", "is_reserved": 0}, {"is_disabled": 0, "fusion_lon": 0.0, "fusion_lat": 0.0, "lat": 38.8665735, "type": "electric_scooter", "lon": -76.98883833333333, "bike_id": "90c7961b4460a1e1f517f22923b025b0", "rental_uris": {"android": "https://dc.lft.to/lastmile_qr_scan", "ios": "https://dc.lft.to/lastmile_qr_scan"}, "name": "90c7961b4460a1e1f517f22923b025b0", "is_reserved": 0}, {"is_disabled": 0, "fusion_lon": 0.0, "fusion_lat": 0.0, "lat": 38.962159666666665, "type": "electric_scooter", "lon": -77.02805483333333, "bike_id": "08ac3de700d432d330a07a936e073ae2", "rental_uris": {"android": "https://dc.lft.to/lastmile_qr_scan", "ios": "https://dc.lft.to/lastmile_qr_scan"}, "name": "08ac3de700d432d330a07a936e073ae2", "is_reserved": 0}, {"is_disabled": 0, "fusion_lon": 0.0, "fusion_lat": 0.0, "lat": 38.937539, "type": "electric_scooter", "lon": -77.02476466666667, "bike_id": "5243105aabc7338b29e8b9af42e3f6d1", "rental_uris": {"android": "https://dc.lft.to/lastmile_qr_scan", "ios": "https://dc.lft.to/lastmile_qr_scan"}, "name": "5243105aabc7338b29e8b9af42e3f6d1", "is_reserved": 0}, {"is_disabled": 0, "fusion_lon": 0.0, "fusion_lat": 0.0, "lat": 38.892999833333334, "type": "electric_scooter", "lon": -77.02133416666666, "bike_id": "659a41814e91b4521c74b680dc397515", "rental_uris": {"android": "https://dc.lft.to/lastmile_qr_scan", "ios": "https://dc.lft.to/lastmile_qr_scan"}, "name": "659a41814e91b4521c74b680dc397515", "is_reserved": 0}, {"is_disabled": 0, "fusion_lon": 0.0, "fusion_lat": 0.0, "lat": 38.942293, "type": "electric_scooter", "lon": -77.02154066666667, "bike_id": "064938ec105c99bbb8c4c3a9936f5546", "rental_uris": {"android": "https://dc.lft.to/lastmile_qr_scan", "ios": "https://dc.lft.to/lastmile_qr_scan"}, "name": "064938ec105c99bbb8c4c3a9936f5546", "is_reserved": 0}, {"is_disabled": 0, "fusion_lon": 0.0, "fusion_lat": 0.0, "lat": 38.907981, "type": "electric_scooter", "lon": -76.9970015, "bike_id": "bc490d93343683c72ac7c96550a9bad7", "rental_uris": {"android": "https://dc.lft.to/lastmile_qr_scan", "ios": "https://dc.lft.to/lastmile_qr_scan"}, "name": "bc490d93343683c72ac7c96550a9bad7", "is_reserved": 0}, {"is_disabled": 0, "fusion_lon": 0.0, "fusion_lat": 0.0, "lat": 38.905041833333335, "type": "electric_scooter", "lon": -77.02950383333334, "bike_id": "1be60a8857bb5b97853f998bc0898be9", "rental_uris": {"android": "https://dc.lft.to/lastmile_qr_scan", "ios": "https://dc.lft.to/lastmile_qr_scan"}, "name": "1be60a8857bb5b97853f998bc0898be9", "is_reserved": 0}, {"is_disabled": 0, "fusion_lon": 0.0, "fusion_lat": 0.0, "lat": 38.89720283333333, "type": "electric_scooter", "lon": -77.00798583333334, "bike_id": "4a768f23cab5427b0fa33f290a5c4c5b", "rental_uris": {"android": "https://dc.lft.to/lastmile_qr_scan", "ios": "https://dc.lft.to/lastmile_qr_scan"}, "name": "4a768f23cab5427b0fa33f290a5c4c5b", "is_reserved": 0}, {"is_disabled": 0, "fusion_lon": 0.0, "fusion_lat": 0.0, "lat": 38.905033333333336, "type": "electric_scooter", "lon": -77.02942833333333, "bike_id": "578b124a61f95d2005036a667027e5cb", "rental_uris": {"android": "https://dc.lft.to/lastmile_qr_scan", "ios": "https://dc.lft.to/lastmile_qr_scan"}, "name": "578b124a61f95d2005036a667027e5cb", "is_reserved": 0}, {"is_disabled": 0, "fusion_lon": 0.0, "fusion_lat": 0.0, "lat": 38.92603066666667, "type": "electric_scooter", "lon": -77.02153266666667, "bike_id": "90de39b21cd12b3882ebdd4ab916c30d", "rental_uris": {"android": "https://dc.lft.to/lastmile_qr_scan", "ios": "https://dc.lft.to/lastmile_qr_scan"}, "name": "90de39b21cd12b3882ebdd4ab916c30d", "is_reserved": 0}, {"is_disabled": 0, "fusion_lon": 0.0, "fusion_lat": 0.0, "lat": 38.92082966666667, "type": "electric_scooter", "lon": -77.017859, "bike_id": "b1a3cd1d8ab13a2a123cfa6d833babc8", "rental_uris": {"android": "https://dc.lft.to/lastmile_qr_scan", "ios": "https://dc.lft.to/lastmile_qr_scan"}, "name": "b1a3cd1d8ab13a2a123cfa6d833babc8", "is_reserved": 0}, {"is_disabled": 0, "fusion_lon": 0.0, "fusion_lat": 0.0, "lat": 38.9119545, "type": "electric_scooter", "lon": -77.041727, "bike_id": "1e8b7e87630010bbc718c75d7e394387", "rental_uris": {"android": "https://dc.lft.to/lastmile_qr_scan", "ios": "https://dc.lft.to/lastmile_qr_scan"}, "name": "1e8b7e87630010bbc718c75d7e394387", "is_reserved": 0}, {"is_disabled": 0, "fusion_lon": 0.0, "fusion_lat": 0.0, "lat": 38.838147, "type": "electric_scooter", "lon": -77.00433766666667, "bike_id": "19c247a1131ddd54dc0f6165973df186", "rental_uris": {"android": "https://dc.lft.to/lastmile_qr_scan", "ios": "https://dc.lft.to/lastmile_qr_scan"}, "name": "19c247a1131ddd54dc0f6165973df186", "is_reserved": 0}, {"is_disabled": 0, "fusion_lon": 0.0, "fusion_lat": 0.0, "lat": 38.894290833333336, "type": "electric_scooter", "lon": -76.91218883333333, "bike_id": "747a72b89305ca736cee86fbd123bdea", "rental_uris": {"android": "https://dc.lft.to/lastmile_qr_scan", "ios": "https://dc.lft.to/lastmile_qr_scan"}, "name": "747a72b89305ca736cee86fbd123bdea", "is_reserved": 0}, {"is_disabled": 0, "fusion_lon": 0.0, "fusion_lat": 0.0, "lat": 38.9371055, "type": "electric_scooter", "lon": -77.0610315, "bike_id": "9263b12edbfe2ab966d287ae9944bf39", "rental_uris": {"android": "https://dc.lft.to/lastmile_qr_scan", "ios": "https://dc.lft.to/lastmile_qr_scan"}, "name": "9263b12edbfe2ab966d287ae9944bf39", "is_reserved": 0}, {"is_disabled": 0, "fusion_lon": 0.0, "fusion_lat": 0.0, "lat": 38.937196, "type": "electric_scooter", "lon": -77.02417, "bike_id": "444b40844b0ec2cd49adf53f99386205", "rental_uris": {"android": "https://dc.lft.to/lastmile_qr_scan", "ios": "https://dc.lft.to/lastmile_qr_scan"}, "name": "444b40844b0ec2cd49adf53f99386205", "is_reserved": 0}, {"is_disabled": 0, "fusion_lon": 0.0, "fusion_lat": 0.0, "lat": 38.8922675, "type": "electric_scooter", "lon": -77.04357966666667, "bike_id": "60f30c862c58bc633e81bfc1f7a0ec94", "rental_uris": {"android": "https://dc.lft.to/lastmile_qr_scan", "ios": "https://dc.lft.to/lastmile_qr_scan"}, "name": "60f30c862c58bc633e81bfc1f7a0ec94", "is_reserved": 0}, {"is_disabled": 0, "fusion_lon": 0.0, "fusion_lat": 0.0, "lat": 38.92444833333333, "type": "electric_scooter", "lon": -77.04030966666667, "bike_id": "01c87d7f196035fd7543079a41bdd6c6", "rental_uris": {"android": "https://dc.lft.to/lastmile_qr_scan", "ios": "https://dc.lft.to/lastmile_qr_scan"}, "name": "01c87d7f196035fd7543079a41bdd6c6", "is_reserved": 0}, {"is_disabled": 0, "fusion_lon": 0.0, "fusion_lat": 0.0, "lat": 38.88756266666667, "type": "electric_bike", "lon": -76.90087933333334, "bike_id": "8d2041249ebe0f13a3e6cefd49ea525d", "rental_uris": {"android": "https://dc.lft.to/lastmile_qr_scan", "ios": "https://dc.lft.to/lastmile_qr_scan"}, "name": "8d2041249ebe0f13a3e6cefd49ea525d", "is_reserved": 0}, {"is_disabled": 0, "fusion_lon": 0.0, "fusion_lat": 0.0, "lat": 39.1056595, "type": "electric_bike", "lon": -77.15268033333334, "bike_id": "7313db43cc97d419218e6f57b2e96b02", "rental_uris": {"android": "https://dc.lft.to/lastmile_qr_scan", "ios": "https://dc.lft.to/lastmile_qr_scan"}, "name": "7313db43cc97d419218e6f57b2e96b02", "is_reserved": 0}, {"is_disabled": 0, "fusion_lon": 0.0, "fusion_lat": 0.0, "lat": 38.904351, "type": "electric_scooter", "lon": -77.02573133333334, "bike_id": "9b7d9fc5f1915b24742606de0cebbfd5", "rental_uris": {"android": "https://dc.lft.to/lastmile_qr_scan", "ios": "https://dc.lft.to/lastmile_qr_scan"}, "name": "9b7d9fc5f1915b24742606de0cebbfd5", "is_reserved": 0}, {"is_disabled": 0, "fusion_lon": 0.0, "fusion_lat": 0.0, "lat": 38.924501166666666, "type": "electric_bike", "lon": -76.96832083333334, "bike_id": "d51a68c9277677a98b2ef790c9da1b0a", "rental_uris": {"android": "https://dc.lft.to/lastmile_qr_scan", "ios": "https://dc.lft.to/lastmile_qr_scan"}, "name": "d51a68c9277677a98b2ef790c9da1b0a", "is_reserved": 0}, {"is_disabled": 0, "fusion_lon": 0.0, "fusion_lat": 0.0, "lat": 38.90033483333333, "type": "electric_scooter", "lon": -77.00204383333333, "bike_id": "f25700756acdf4fd9f3fb6a2a6e17d85", "rental_uris": {"android": "https://dc.lft.to/lastmile_qr_scan", "ios": "https://dc.lft.to/lastmile_qr_scan"}, "name": "f25700756acdf4fd9f3fb6a2a6e17d85", "is_reserved": 0}, {"is_disabled": 0, "fusion_lon": 0.0, "fusion_lat": 0.0, "lat": 38.92381066666667, "type": "electric_scooter", "lon": -77.03131533333334, "bike_id": "b5f2ac7c4162a45a08bc5fdd6d801164", "rental_uris": {"android": "https://dc.lft.to/lastmile_qr_scan", "ios": "https://dc.lft.to/lastmile_qr_scan"}, "name": "b5f2ac7c4162a45a08bc5fdd6d801164", "is_reserved": 0}, {"is_disabled": 0, "fusion_lon": 0.0, "fusion_lat": 0.0, "lat": 38.909391166666666, "type": "electric_scooter", "lon": -77.03203983333333, "bike_id": "3db8788ba8b32ac66c6bffb40ad2a87b", "rental_uris": {"android": "https://dc.lft.to/lastmile_qr_scan", "ios": "https://dc.lft.to/lastmile_qr_scan"}, "name": "3db8788ba8b32ac66c6bffb40ad2a87b", "is_reserved": 0}, {"is_disabled": 0, "fusion_lon": 0.0, "fusion_lat": 0.0, "lat": 38.925543833333336, "type": "electric_scooter", "lon": -77.03312066666666, "bike_id": "368eb9de7725d0130e4e787e9e257543", "rental_uris": {"android": "https://dc.lft.to/lastmile_qr_scan", "ios": "https://dc.lft.to/lastmile_qr_scan"}, "name": "368eb9de7725d0130e4e787e9e257543", "is_reserved": 0}, {"is_disabled": 0, "fusion_lon": 0.0, "fusion_lat": 0.0, "lat": 38.893694833333335, "type": "electric_scooter", "lon": -76.94999683333333, "bike_id": "0928bcdc1fe8877f4fc4fb99c168e90b", "rental_uris": {"android": "https://dc.lft.to/lastmile_qr_scan", "ios": "https://dc.lft.to/lastmile_qr_scan"}, "name": "0928bcdc1fe8877f4fc4fb99c168e90b", "is_reserved": 0}, {"is_disabled": 0, "fusion_lon": 0.0, "fusion_lat": 0.0, "lat": 38.936340333333334, "type": "electric_scooter", "lon": -77.032637, "bike_id": "59b9c47325580f86cf0d9a9fa28ed5ac", "rental_uris": {"android": "https://dc.lft.to/lastmile_qr_scan", "ios": "https://dc.lft.to/lastmile_qr_scan"}, "name": "59b9c47325580f86cf0d9a9fa28ed5ac", "is_reserved": 0}, {"is_disabled": 0, "fusion_lon": 0.0, "fusion_lat": 0.0, "lat": 38.874767166666665, "type": "electric_bike", "lon": -76.9652905, "bike_id": "23aee6a3c6c0a77d5e285b40167b705d", "rental_uris": {"android": "https://dc.lft.to/lastmile_qr_scan", "ios": "https://dc.lft.to/lastmile_qr_scan"}, "name": "23aee6a3c6c0a77d5e285b40167b705d", "is_reserved": 0}, {"is_disabled": 0, "fusion_lon": 0.0, "fusion_lat": 0.0, "lat": 38.90104616666667, "type": "electric_scooter", "lon": -77.0316215, "bike_id": "7a3e7deb7933ab1d0aa2821068bcac57", "rental_uris": {"android": "https://dc.lft.to/lastmile_qr_scan", "ios": "https://dc.lft.to/lastmile_qr_scan"}, "name": "7a3e7deb7933ab1d0aa2821068bcac57", "is_reserved": 0}, {"is_disabled": 0, "fusion_lon": 0.0, "fusion_lat": 0.0, "lat": 38.92742466666667, "type": "electric_scooter", "lon": -77.0120225, "bike_id": "23dd3b58a7fa5f9aabd60c4a3e5853ee", "rental_uris": {"android": "https://dc.lft.to/lastmile_qr_scan", "ios": "https://dc.lft.to/lastmile_qr_scan"}, "name": "23dd3b58a7fa5f9aabd60c4a3e5853ee", "is_reserved": 0}, {"is_disabled": 0, "fusion_lon": 0.0, "fusion_lat": 0.0, "lat": 38.932537333333336, "type": "electric_scooter", "lon": -77.03275833333333, "bike_id": "890e94d439fd9cd5e1018d8a4058bed7", "rental_uris": {"android": "https://dc.lft.to/lastmile_qr_scan", "ios": "https://dc.lft.to/lastmile_qr_scan"}, "name": "890e94d439fd9cd5e1018d8a4058bed7", "is_reserved": 0}, {"is_disabled": 0, "fusion_lon": 0.0, "fusion_lat": 0.0, "lat": 38.844316166666665, "type": "electric_scooter", "lon": -76.99778733333333, "bike_id": "74faef92efb30274b4664d5fba4d6b7e", "rental_uris": {"android": "https://dc.lft.to/lastmile_qr_scan", "ios": "https://dc.lft.to/lastmile_qr_scan"}, "name": "74faef92efb30274b4664d5fba4d6b7e", "is_reserved": 0}, {"is_disabled": 0, "fusion_lon": 0.0, "fusion_lat": 0.0, "lat": 38.900591666666664, "type": "electric_scooter", "lon": -77.01299116666667, "bike_id": "47d9012f128f4bdb5b1afec94bc3af7c", "rental_uris": {"android": "https://dc.lft.to/lastmile_qr_scan", "ios": "https://dc.lft.to/lastmile_qr_scan"}, "name": "47d9012f128f4bdb5b1afec94bc3af7c", "is_reserved": 0}, {"is_disabled": 0, "fusion_lon": 0.0, "fusion_lat": 0.0, "lat": 38.90872366666667, "type": "electric_scooter", "lon": -77.02686416666667, "bike_id": "174d53048a81c0f77770ab886435e5bb", "rental_uris": {"android": "https://dc.lft.to/lastmile_qr_scan", "ios": "https://dc.lft.to/lastmile_qr_scan"}, "name": "174d53048a81c0f77770ab886435e5bb", "is_reserved": 0}, {"is_disabled": 0, "fusion_lon": 0.0, "fusion_lat": 0.0, "lat": 38.88584633333333, "type": "electric_scooter", "lon": -77.015379, "bike_id": "5c30cfaaf1e7a5cc3a1fa38d0eb2bb4c", "rental_uris": {"android": "https://dc.lft.to/lastmile_qr_scan", "ios": "https://dc.lft.to/lastmile_qr_scan"}, "name": "5c30cfaaf1e7a5cc3a1fa38d0eb2bb4c", "is_reserved": 0}, {"is_disabled": 0, "fusion_lon": 0.0, "fusion_lat": 0.0, "lat": 38.9195595, "type": "electric_scooter", "lon": -77.0007735, "bike_id": "2ba81a6c8b4c9e49f37c207cb4121515", "rental_uris": {"android": "https://dc.lft.to/lastmile_qr_scan", "ios": "https://dc.lft.to/lastmile_qr_scan"}, "name": "2ba81a6c8b4c9e49f37c207cb4121515", "is_reserved": 0}, {"is_disabled": 0, "fusion_lon": 0.0, "fusion_lat": 0.0, "lat": 38.92469883333333, "type": "electric_scooter", "lon": -77.03058333333334, "bike_id": "4a2775ad5e9012f6a90dd687cd9e29f9", "rental_uris": {"android": "https://dc.lft.to/lastmile_qr_scan", "ios": "https://dc.lft.to/lastmile_qr_scan"}, "name": "4a2775ad5e9012f6a90dd687cd9e29f9", "is_reserved": 0}, {"is_disabled": 0, "fusion_lon": 0.0, "fusion_lat": 0.0, "lat": 38.905375, "type": "electric_scooter", "lon": -77.05707983333333, "bike_id": "010f028e7d2eeaaa7ac93f1132e99302", "rental_uris": {"android": "https://dc.lft.to/lastmile_qr_scan", "ios": "https://dc.lft.to/lastmile_qr_scan"}, "name": "010f028e7d2eeaaa7ac93f1132e99302", "is_reserved": 0}, {"is_disabled": 0, "fusion_lon": 0.0, "fusion_lat": 0.0, "lat": 38.906885333333335, "type": "electric_bike", "lon": -76.95195333333334, "bike_id": "2732aac3cf6492f88c096c61bdb3e6f4", "rental_uris": {"android": "https://dc.lft.to/lastmile_qr_scan", "ios": "https://dc.lft.to/lastmile_qr_scan"}, "name": "2732aac3cf6492f88c096c61bdb3e6f4", "is_reserved": 0}, {"is_disabled": 0, "fusion_lon": 0.0, "fusion_lat": 0.0, "lat": 38.92112, "type": "electric_scooter", "lon": -77.04227083333333, "bike_id": "ec3558e7a6003a002db0caf49b3ae13f", "rental_uris": {"android": "https://dc.lft.to/lastmile_qr_scan", "ios": "https://dc.lft.to/lastmile_qr_scan"}, "name": "ec3558e7a6003a002db0caf49b3ae13f", "is_reserved": 0}, {"is_disabled": 0, "fusion_lon": 0.0, "fusion_lat": 0.0, "lat": 38.925818666666665, "type": "electric_scooter", "lon": -77.03213433333333, "bike_id": "71c1c63d64856ecd3a9e9c33775e44e1", "rental_uris": {"android": "https://dc.lft.to/lastmile_qr_scan", "ios": "https://dc.lft.to/lastmile_qr_scan"}, "name": "71c1c63d64856ecd3a9e9c33775e44e1", "is_reserved": 0}, {"is_disabled": 0, "fusion_lon": 0.0, "fusion_lat": 0.0, "lat": 38.91956033333334, "type": "electric_scooter", "lon": -77.01655, "bike_id": "63bcbdc95d79effc341eb554eecb2f46", "rental_uris": {"android": "https://dc.lft.to/lastmile_qr_scan", "ios": "https://dc.lft.to/lastmile_qr_scan"}, "name": "63bcbdc95d79effc341eb554eecb2f46", "is_reserved": 0}, {"is_disabled": 0, "fusion_lon": 0.0, "fusion_lat": 0.0, "lat": 38.937463, "type": "electric_scooter", "lon": -77.024906, "bike_id": "6b5b2609594c3c32173ed1f8fa56965a", "rental_uris": {"android": "https://dc.lft.to/lastmile_qr_scan", "ios": "https://dc.lft.to/lastmile_qr_scan"}, "name": "6b5b2609594c3c32173ed1f8fa56965a", "is_reserved": 0}, {"is_disabled": 0, "fusion_lon": 0.0, "fusion_lat": 0.0, "lat": 38.915163, "type": "electric_scooter", "lon": -77.0460725, "bike_id": "d118039ce8f8eb23bd092772c104bfc0", "rental_uris": {"android": "https://dc.lft.to/lastmile_qr_scan", "ios": "https://dc.lft.to/lastmile_qr_scan"}, "name": "d118039ce8f8eb23bd092772c104bfc0", "is_reserved": 0}, {"is_disabled": 0, "fusion_lon": 0.0, "fusion_lat": 0.0, "lat": 38.9578115, "type": "electric_bike", "lon": -76.94093083333334, "bike_id": "ce639f55980c7e40dfd5a61460271148", "rental_uris": {"android": "https://dc.lft.to/lastmile_qr_scan", "ios": "https://dc.lft.to/lastmile_qr_scan"}, "name": "ce639f55980c7e40dfd5a61460271148", "is_reserved": 0}, {"is_disabled": 0, "fusion_lon": 0.0, "fusion_lat": 0.0, "lat": 38.89364416666667, "type": "electric_scooter", "lon": -76.94018016666666, "bike_id": "427276fb1bcd531dff427a698b7610b8", "rental_uris": {"android": "https://dc.lft.to/lastmile_qr_scan", "ios": "https://dc.lft.to/lastmile_qr_scan"}, "name": "427276fb1bcd531dff427a698b7610b8", "is_reserved": 0}, {"is_disabled": 0, "fusion_lon": 0.0, "fusion_lat": 0.0, "lat": 38.91272433333334, "type": "electric_scooter", "lon": -77.03854283333334, "bike_id": "e9380903b85f7b04f5ab6936fff44ff2", "rental_uris": {"android": "https://dc.lft.to/lastmile_qr_scan", "ios": "https://dc.lft.to/lastmile_qr_scan"}, "name": "e9380903b85f7b04f5ab6936fff44ff2", "is_reserved": 0}, {"is_disabled": 0, "fusion_lon": 0.0, "fusion_lat": 0.0, "lat": 38.867150333333335, "type": "electric_scooter", "lon": -76.98729166666666, "bike_id": "cd987102a0943e1030301a57978ab553", "rental_uris": {"android": "https://dc.lft.to/lastmile_qr_scan", "ios": "https://dc.lft.to/lastmile_qr_scan"}, "name": "cd987102a0943e1030301a57978ab553", "is_reserved": 0}, {"is_disabled": 0, "fusion_lon": 0.0, "fusion_lat": 0.0, "lat": 38.893350833333336, "type": "electric_scooter", "lon": -77.050243, "bike_id": "bfcbc2111acbf84044b8381b7b85dc71", "rental_uris": {"android": "https://dc.lft.to/lastmile_qr_scan", "ios": "https://dc.lft.to/lastmile_qr_scan"}, "name": "bfcbc2111acbf84044b8381b7b85dc71", "is_reserved": 0}, {"is_disabled": 0, "fusion_lon": 0.0, "fusion_lat": 0.0, "lat": 38.898348166666665, "type": "electric_scooter", "lon": -76.946331, "bike_id": "38b39814b0b0a15f28aece5886ed8f13", "rental_uris": {"android": "https://dc.lft.to/lastmile_qr_scan", "ios": "https://dc.lft.to/lastmile_qr_scan"}, "name": "38b39814b0b0a15f28aece5886ed8f13", "is_reserved": 0}, {"is_disabled": 0, "fusion_lon": 0.0, "fusion_lat": 0.0, "lat": 38.866974, "type": "electric_scooter", "lon": -76.98714983333333, "bike_id": "4839b72ab53ae29b4d503f9335970d08", "rental_uris": {"android": "https://dc.lft.to/lastmile_qr_scan", "ios": "https://dc.lft.to/lastmile_qr_scan"}, "name": "4839b72ab53ae29b4d503f9335970d08", "is_reserved": 0}, {"is_disabled": 0, "fusion_lon": 0.0, "fusion_lat": 0.0, "lat": 38.941073333333335, "type": "electric_scooter", "lon": -77.06137816666667, "bike_id": "7f92b5621090401c9bdce6ef6069e961", "rental_uris": {"android": "https://dc.lft.to/lastmile_qr_scan", "ios": "https://dc.lft.to/lastmile_qr_scan"}, "name": "7f92b5621090401c9bdce6ef6069e961", "is_reserved": 0}, {"is_disabled": 0, "fusion_lon": 0.0, "fusion_lat": 0.0, "lat": 38.912697, "type": "electric_scooter", "lon": -77.02224833333334, "bike_id": "d07e03d9c5448aa72498cdcbc005f6a5", "rental_uris": {"android": "https://dc.lft.to/lastmile_qr_scan", "ios": "https://dc.lft.to/lastmile_qr_scan"}, "name": "d07e03d9c5448aa72498cdcbc005f6a5", "is_reserved": 0}, {"is_disabled": 0, "fusion_lon": 0.0, "fusion_lat": 0.0, "lat": 38.90682283333334, "type": "electric_scooter", "lon": -77.04333433333333, "bike_id": "a73af6e814f5c680ecfc998e9e7cd2b9", "rental_uris": {"android": "https://dc.lft.to/lastmile_qr_scan", "ios": "https://dc.lft.to/lastmile_qr_scan"}, "name": "a73af6e814f5c680ecfc998e9e7cd2b9", "is_reserved": 0}, {"is_disabled": 0, "fusion_lon": 0.0, "fusion_lat": 0.0, "lat": 38.907334166666665, "type": "electric_scooter", "lon": -77.03451933333334, "bike_id": "3aa8badefa00e46e87f474a7b809d96f", "rental_uris": {"android": "https://dc.lft.to/lastmile_qr_scan", "ios": "https://dc.lft.to/lastmile_qr_scan"}, "name": "3aa8badefa00e46e87f474a7b809d96f", "is_reserved": 0}, {"is_disabled": 0, "fusion_lon": 0.0, "fusion_lat": 0.0, "lat": 38.92570633333333, "type": "electric_scooter", "lon": -77.0374895, "bike_id": "f3f78aa30162689eed994f151c74a707", "rental_uris": {"android": "https://dc.lft.to/lastmile_qr_scan", "ios": "https://dc.lft.to/lastmile_qr_scan"}, "name": "f3f78aa30162689eed994f151c74a707", "is_reserved": 0}, {"is_disabled": 0, "fusion_lon": 0.0, "fusion_lat": 0.0, "lat": 38.91715216666667, "type": "electric_bike", "lon": -77.22113566666667, "bike_id": "e9551e8453dabdb4f5bdc420eefbeb34", "rental_uris": {"android": "https://dc.lft.to/lastmile_qr_scan", "ios": "https://dc.lft.to/lastmile_qr_scan"}, "name": "e9551e8453dabdb4f5bdc420eefbeb34", "is_reserved": 0}, {"is_disabled": 0, "fusion_lon": 0.0, "fusion_lat": 0.0, "lat": 38.93671466666667, "type": "electric_bike", "lon": -76.95204833333334, "bike_id": "e26312b2e9f9c30fcd376de38f8b8eae", "rental_uris": {"android": "https://dc.lft.to/lastmile_qr_scan", "ios": "https://dc.lft.to/lastmile_qr_scan"}, "name": "e26312b2e9f9c30fcd376de38f8b8eae", "is_reserved": 0}, {"is_disabled": 0, "fusion_lon": 0.0, "fusion_lat": 0.0, "lat": 39.038850833333335, "type": "electric_bike", "lon": -77.1090815, "bike_id": "d2ccdaddec056910154ec128da03a69d", "rental_uris": {"android": "https://dc.lft.to/lastmile_qr_scan", "ios": "https://dc.lft.to/lastmile_qr_scan"}, "name": "d2ccdaddec056910154ec128da03a69d", "is_reserved": 0}, {"is_disabled": 0, "fusion_lon": 0.0, "fusion_lat": 0.0, "lat": 38.93865683333333, "type": "electric_scooter", "lon": -77.0265275, "bike_id": "5fafc4060b2be0c5eb6b54e06e679380", "rental_uris": {"android": "https://dc.lft.to/lastmile_qr_scan", "ios": "https://dc.lft.to/lastmile_qr_scan"}, "name": "5fafc4060b2be0c5eb6b54e06e679380", "is_reserved": 0}, {"is_disabled": 0, "fusion_lon": 0.0, "fusion_lat": 0.0, "lat": 38.89729916666667, "type": "electric_scooter", "lon": -77.00375566666666, "bike_id": "d6fe060c83858d72777590a1bf2ed11b", "rental_uris": {"android": "https://dc.lft.to/lastmile_qr_scan", "ios": "https://dc.lft.to/lastmile_qr_scan"}, "name": "d6fe060c83858d72777590a1bf2ed11b", "is_reserved": 0}, {"is_disabled": 0, "fusion_lon": 0.0, "fusion_lat": 0.0, "lat": 38.9073445, "type": "electric_scooter", "lon": -77.02948866666667, "bike_id": "5e71137679714dc53c299a15396e13a3", "rental_uris": {"android": "https://dc.lft.to/lastmile_qr_scan", "ios": "https://dc.lft.to/lastmile_qr_scan"}, "name": "5e71137679714dc53c299a15396e13a3", "is_reserved": 0}, {"is_disabled": 0, "fusion_lon": 0.0, "fusion_lat": 0.0, "lat": 38.95606383333333, "type": "electric_scooter", "lon": -77.02788933333333, "bike_id": "a8c8f2a0de79ad6cd362f1e64d61403d", "rental_uris": {"android": "https://dc.lft.to/lastmile_qr_scan", "ios": "https://dc.lft.to/lastmile_qr_scan"}, "name": "a8c8f2a0de79ad6cd362f1e64d61403d", "is_reserved": 0}, {"is_disabled": 0, "fusion_lon": 0.0, "fusion_lat": 0.0, "lat": 38.8764705, "type": "electric_scooter", "lon": -77.00810616666666, "bike_id": "7e1a059ac09999f0ed958b5be544aa97", "rental_uris": {"android": "https://dc.lft.to/lastmile_qr_scan", "ios": "https://dc.lft.to/lastmile_qr_scan"}, "name": "7e1a059ac09999f0ed958b5be544aa97", "is_reserved": 0}, {"is_disabled": 0, "fusion_lon": 0.0, "fusion_lat": 0.0, "lat": 38.866650666666665, "type": "electric_scooter", "lon": -76.98887266666667, "bike_id": "0b447b6b6ab02d772c37515a5a0b41a1", "rental_uris": {"android": "https://dc.lft.to/lastmile_qr_scan", "ios": "https://dc.lft.to/lastmile_qr_scan"}, "name": "0b447b6b6ab02d772c37515a5a0b41a1", "is_reserved": 0}, {"is_disabled": 0, "fusion_lon": 0.0, "fusion_lat": 0.0, "lat": 38.89828283333333, "type": "electric_scooter", "lon": -77.02941716666666, "bike_id": "d0b8d001e5e06667576db0b23a4b78f8", "rental_uris": {"android": "https://dc.lft.to/lastmile_qr_scan", "ios": "https://dc.lft.to/lastmile_qr_scan"}, "name": "d0b8d001e5e06667576db0b23a4b78f8", "is_reserved": 0}, {"is_disabled": 0, "fusion_lon": 0.0, "fusion_lat": 0.0, "lat": 38.892131166666665, "type": "electric_bike", "lon": -76.98560216666667, "bike_id": "ff50338daf6394038d2507baf79de22d", "rental_uris": {"android": "https://dc.lft.to/lastmile_qr_scan", "ios": "https://dc.lft.to/lastmile_qr_scan"}, "name": "ff50338daf6394038d2507baf79de22d", "is_reserved": 0}, {"is_disabled": 0, "fusion_lon": 0.0, "fusion_lat": 0.0, "lat": 38.89847266666666, "type": "electric_scooter", "lon": -77.02185566666667, "bike_id": "37ae14e3859416dfe15d59b6db83735f", "rental_uris": {"android": "https://dc.lft.to/lastmile_qr_scan", "ios": "https://dc.lft.to/lastmile_qr_scan"}, "name": "37ae14e3859416dfe15d59b6db83735f", "is_reserved": 0}, {"is_disabled": 0, "fusion_lon": 0.0, "fusion_lat": 0.0, "lat": 38.909544333333336, "type": "electric_scooter", "lon": -77.02716066666666, "bike_id": "bb9eb670ff2ddf7263380a12083c0304", "rental_uris": {"android": "https://dc.lft.to/lastmile_qr_scan", "ios": "https://dc.lft.to/lastmile_qr_scan"}, "name": "bb9eb670ff2ddf7263380a12083c0304", "is_reserved": 0}, {"is_disabled": 0, "fusion_lon": 0.0, "fusion_lat": 0.0, "lat": 38.9019985, "type": "electric_scooter", "lon": -77.04801633333334, "bike_id": "b405cd048e7bb72fa43ed0890506b467", "rental_uris": {"android": "https://dc.lft.to/lastmile_qr_scan", "ios": "https://dc.lft.to/lastmile_qr_scan"}, "name": "b405cd048e7bb72fa43ed0890506b467", "is_reserved": 0}, {"is_disabled": 0, "fusion_lon": 0.0, "fusion_lat": 0.0, "lat": 38.99672116666667, "type": "electric_bike", "lon": -76.991443, "bike_id": "00617c0fc37237bdc7879c2c0f2cc2a8", "rental_uris": {"android": "https://dc.lft.to/lastmile_qr_scan", "ios": "https://dc.lft.to/lastmile_qr_scan"}, "name": "00617c0fc37237bdc7879c2c0f2cc2a8", "is_reserved": 0}, {"is_disabled": 0, "fusion_lon": 0.0, "fusion_lat": 0.0, "lat": 38.91704216666667, "type": "electric_scooter", "lon": -77.028991, "bike_id": "94b698793bcf2d2fab33b70ce778d372", "rental_uris": {"android": "https://dc.lft.to/lastmile_qr_scan", "ios": "https://dc.lft.to/lastmile_qr_scan"}, "name": "94b698793bcf2d2fab33b70ce778d372", "is_reserved": 0}, {"is_disabled": 0, "fusion_lon": 0.0, "fusion_lat": 0.0, "lat": 38.91682816666667, "type": "electric_scooter", "lon": -77.01562483333333, "bike_id": "db1cc2848e5d4ce85cd58f7a9ab66938", "rental_uris": {"android": "https://dc.lft.to/lastmile_qr_scan", "ios": "https://dc.lft.to/lastmile_qr_scan"}, "name": "db1cc2848e5d4ce85cd58f7a9ab66938", "is_reserved": 0}, {"is_disabled": 0, "fusion_lon": 0.0, "fusion_lat": 0.0, "lat": 38.9059275, "type": "electric_scooter", "lon": -77.02393216666667, "bike_id": "5911ec4387e397728fe3c8672eef30f4", "rental_uris": {"android": "https://dc.lft.to/lastmile_qr_scan", "ios": "https://dc.lft.to/lastmile_qr_scan"}, "name": "5911ec4387e397728fe3c8672eef30f4", "is_reserved": 0}, {"is_disabled": 0, "fusion_lon": 0.0, "fusion_lat": 0.0, "lat": 38.875765, "type": "electric_scooter", "lon": -77.020803, "bike_id": "d88d7a2331d5e6abeb2859215089d7bd", "rental_uris": {"android": "https://dc.lft.to/lastmile_qr_scan", "ios": "https://dc.lft.to/lastmile_qr_scan"}, "name": "d88d7a2331d5e6abeb2859215089d7bd", "is_reserved": 0}, {"is_disabled": 0, "fusion_lon": 0.0, "fusion_lat": 0.0, "lat": 38.9036445, "type": "electric_scooter", "lon": -77.01114566666666, "bike_id": "e64c41a91363b771df06f5003fe2c053", "rental_uris": {"android": "https://dc.lft.to/lastmile_qr_scan", "ios": "https://dc.lft.to/lastmile_qr_scan"}, "name": "e64c41a91363b771df06f5003fe2c053", "is_reserved": 0}, {"is_disabled": 0, "fusion_lon": 0.0, "fusion_lat": 0.0, "lat": 38.912553833333334, "type": "electric_scooter", "lon": -77.02224266666667, "bike_id": "5f1b970278075fcfc31e187ddefb280c", "rental_uris": {"android": "https://dc.lft.to/lastmile_qr_scan", "ios": "https://dc.lft.to/lastmile_qr_scan"}, "name": "5f1b970278075fcfc31e187ddefb280c", "is_reserved": 0}, {"is_disabled": 0, "fusion_lon": 0.0, "fusion_lat": 0.0, "lat": 38.8651235, "type": "electric_scooter", "lon": -76.990032, "bike_id": "b6154d557d4391922b8454248e7a7b0c", "rental_uris": {"android": "https://dc.lft.to/lastmile_qr_scan", "ios": "https://dc.lft.to/lastmile_qr_scan"}, "name": "b6154d557d4391922b8454248e7a7b0c", "is_reserved": 0}, {"is_disabled": 0, "fusion_lon": 0.0, "fusion_lat": 0.0, "lat": 38.89827116666667, "type": "electric_scooter", "lon": -77.03354216666666, "bike_id": "019b33ebd0985cd9f9b0e754d766495d", "rental_uris": {"android": "https://dc.lft.to/lastmile_qr_scan", "ios": "https://dc.lft.to/lastmile_qr_scan"}, "name": "019b33ebd0985cd9f9b0e754d766495d", "is_reserved": 0}, {"is_disabled": 0, "fusion_lon": 0.0, "fusion_lat": 0.0, "lat": 38.90550183333333, "type": "electric_scooter", "lon": -77.048822, "bike_id": "a3a3f620a4092b7e4388a1b12f150219", "rental_uris": {"android": "https://dc.lft.to/lastmile_qr_scan", "ios": "https://dc.lft.to/lastmile_qr_scan"}, "name": "a3a3f620a4092b7e4388a1b12f150219", "is_reserved": 0}, {"is_disabled": 0, "fusion_lon": 0.0, "fusion_lat": 0.0, "lat": 38.914237, "type": "electric_scooter", "lon": -77.039054, "bike_id": "05613ee9adb1ac064a4af0a9b05aba2f", "rental_uris": {"android": "https://dc.lft.to/lastmile_qr_scan", "ios": "https://dc.lft.to/lastmile_qr_scan"}, "name": "05613ee9adb1ac064a4af0a9b05aba2f", "is_reserved": 0}, {"is_disabled": 0, "fusion_lon": 0.0, "fusion_lat": 0.0, "lat": 38.914812, "type": "electric_scooter", "lon": -77.03468183333334, "bike_id": "c3074f647665a728c63dd69119cfdfb0", "rental_uris": {"android": "https://dc.lft.to/lastmile_qr_scan", "ios": "https://dc.lft.to/lastmile_qr_scan"}, "name": "c3074f647665a728c63dd69119cfdfb0", "is_reserved": 0}, {"is_disabled": 0, "fusion_lon": 0.0, "fusion_lat": 0.0, "lat": 39.088421833333335, "type": "electric_bike", "lon": -77.178035, "bike_id": "a891408c83e494b672df7ef786874776", "rental_uris": {"android": "https://dc.lft.to/lastmile_qr_scan", "ios": "https://dc.lft.to/lastmile_qr_scan"}, "name": "a891408c83e494b672df7ef786874776", "is_reserved": 0}, {"is_disabled": 0, "fusion_lon": 0.0, "fusion_lat": 0.0, "lat": 38.884133, "type": "electric_scooter", "lon": -76.95414633333333, "bike_id": "1bb2e752a1cc1e102196b7e27a39741e", "rental_uris": {"android": "https://dc.lft.to/lastmile_qr_scan", "ios": "https://dc.lft.to/lastmile_qr_scan"}, "name": "1bb2e752a1cc1e102196b7e27a39741e", "is_reserved": 0}, {"is_disabled": 0, "fusion_lon": 0.0, "fusion_lat": 0.0, "lat": 38.8667395, "type": "electric_scooter", "lon": -76.98889833333334, "bike_id": "5f6512c74c45256ebfdd7426f7c8e1f2", "rental_uris": {"android": "https://dc.lft.to/lastmile_qr_scan", "ios": "https://dc.lft.to/lastmile_qr_scan"}, "name": "5f6512c74c45256ebfdd7426f7c8e1f2", "is_reserved": 0}, {"is_disabled": 0, "fusion_lon": 0.0, "fusion_lat": 0.0, "lat": 38.918025, "type": "electric_scooter", "lon": -77.0345425, "bike_id": "512ee30f6bbae175023f1d57d14a53f5", "rental_uris": {"android": "https://dc.lft.to/lastmile_qr_scan", "ios": "https://dc.lft.to/lastmile_qr_scan"}, "name": "512ee30f6bbae175023f1d57d14a53f5", "is_reserved": 0}, {"is_disabled": 0, "fusion_lon": 0.0, "fusion_lat": 0.0, "lat": 38.91344466666666, "type": "electric_scooter", "lon": -77.03267183333334, "bike_id": "0cde471a2f3233c1ab1c02b2baee7f96", "rental_uris": {"android": "https://dc.lft.to/lastmile_qr_scan", "ios": "https://dc.lft.to/lastmile_qr_scan"}, "name": "0cde471a2f3233c1ab1c02b2baee7f96", "is_reserved": 0}, {"is_disabled": 0, "fusion_lon": 0.0, "fusion_lat": 0.0, "lat": 38.892095, "type": "electric_scooter", "lon": -76.98804666666666, "bike_id": "62cf402d750371e9f8d2652b4a593d35", "rental_uris": {"android": "https://dc.lft.to/lastmile_qr_scan", "ios": "https://dc.lft.to/lastmile_qr_scan"}, "name": "62cf402d750371e9f8d2652b4a593d35", "is_reserved": 0}, {"is_disabled": 0, "fusion_lon": 0.0, "fusion_lat": 0.0, "lat": 38.931921, "type": "electric_scooter", "lon": -77.02836633333334, "bike_id": "2dbe47bbb3eb8e3d59732dead871fb6a", "rental_uris": {"android": "https://dc.lft.to/lastmile_qr_scan", "ios": "https://dc.lft.to/lastmile_qr_scan"}, "name": "2dbe47bbb3eb8e3d59732dead871fb6a", "is_reserved": 0}, {"is_disabled": 0, "fusion_lon": 0.0, "fusion_lat": 0.0, "lat": 38.909539333333335, "type": "electric_scooter", "lon": -77.02382216666666, "bike_id": "e2aa097d7cb57e56ca76e544baeef1d7", "rental_uris": {"android": "https://dc.lft.to/lastmile_qr_scan", "ios": "https://dc.lft.to/lastmile_qr_scan"}, "name": "e2aa097d7cb57e56ca76e544baeef1d7", "is_reserved": 0}, {"is_disabled": 0, "fusion_lon": 0.0, "fusion_lat": 0.0, "lat": 38.911937333333334, "type": "electric_scooter", "lon": -77.0397265, "bike_id": "6231d99a713fd13cc549d1c67e25ea44", "rental_uris": {"android": "https://dc.lft.to/lastmile_qr_scan", "ios": "https://dc.lft.to/lastmile_qr_scan"}, "name": "6231d99a713fd13cc549d1c67e25ea44", "is_reserved": 0}, {"is_disabled": 0, "fusion_lon": 0.0, "fusion_lat": 0.0, "lat": 38.916757833333335, "type": "electric_scooter", "lon": -77.03164666666666, "bike_id": "d5218625010a7ff8de20d26b97b4d1e6", "rental_uris": {"android": "https://dc.lft.to/lastmile_qr_scan", "ios": "https://dc.lft.to/lastmile_qr_scan"}, "name": "d5218625010a7ff8de20d26b97b4d1e6", "is_reserved": 0}, {"is_disabled": 0, "fusion_lon": 0.0, "fusion_lat": 0.0, "lat": 38.89719916666667, "type": "electric_scooter", "lon": -77.02153133333333, "bike_id": "00a3c1d03f3a23db8fcca20cd1037a25", "rental_uris": {"android": "https://dc.lft.to/lastmile_qr_scan", "ios": "https://dc.lft.to/lastmile_qr_scan"}, "name": "00a3c1d03f3a23db8fcca20cd1037a25", "is_reserved": 0}, {"is_disabled": 0, "fusion_lon": 0.0, "fusion_lat": 0.0, "lat": 38.914264833333334, "type": "electric_scooter", "lon": -77.03908466666667, "bike_id": "f8ae17129b1558486546f5a1e65a8da5", "rental_uris": {"android": "https://dc.lft.to/lastmile_qr_scan", "ios": "https://dc.lft.to/lastmile_qr_scan"}, "name": "f8ae17129b1558486546f5a1e65a8da5", "is_reserved": 0}, {"is_disabled": 0, "fusion_lon": 0.0, "fusion_lat": 0.0, "lat": 38.877111166666666, "type": "electric_scooter", "lon": -77.01750683333333, "bike_id": "805603128a950ac766a97712b3e16e06", "rental_uris": {"android": "https://dc.lft.to/lastmile_qr_scan", "ios": "https://dc.lft.to/lastmile_qr_scan"}, "name": "805603128a950ac766a97712b3e16e06", "is_reserved": 0}, {"is_disabled": 0, "fusion_lon": 0.0, "fusion_lat": 0.0, "lat": 38.897454, "type": "electric_scooter", "lon": -77.03338716666667, "bike_id": "e731a62c2d120b6988c5cbb71894b8ed", "rental_uris": {"android": "https://dc.lft.to/lastmile_qr_scan", "ios": "https://dc.lft.to/lastmile_qr_scan"}, "name": "e731a62c2d120b6988c5cbb71894b8ed", "is_reserved": 0}, {"is_disabled": 0, "fusion_lon": 0.0, "fusion_lat": 0.0, "lat": 38.918177166666666, "type": "electric_scooter", "lon": -77.03464966666667, "bike_id": "4c2583cc4be7a2e0ab08343b7b42f107", "rental_uris": {"android": "https://dc.lft.to/lastmile_qr_scan", "ios": "https://dc.lft.to/lastmile_qr_scan"}, "name": "4c2583cc4be7a2e0ab08343b7b42f107", "is_reserved": 0}, {"is_disabled": 0, "fusion_lon": 0.0, "fusion_lat": 0.0, "lat": 38.9120495, "type": "electric_scooter", "lon": -77.00089116666666, "bike_id": "1de0d77acf13f4fed631f47a07440b98", "rental_uris": {"android": "https://dc.lft.to/lastmile_qr_scan", "ios": "https://dc.lft.to/lastmile_qr_scan"}, "name": "1de0d77acf13f4fed631f47a07440b98", "is_reserved": 0}, {"is_disabled": 0, "fusion_lon": 0.0, "fusion_lat": 0.0, "lat": 38.910462333333335, "type": "electric_scooter", "lon": -77.01491983333334, "bike_id": "de337d6445beb6bccda9cb3e3a7f9264", "rental_uris": {"android": "https://dc.lft.to/lastmile_qr_scan", "ios": "https://dc.lft.to/lastmile_qr_scan"}, "name": "de337d6445beb6bccda9cb3e3a7f9264", "is_reserved": 0}, {"is_disabled": 0, "fusion_lon": 0.0, "fusion_lat": 0.0, "lat": 38.9134835, "type": "electric_scooter", "lon": -77.03201616666666, "bike_id": "4ca32fcde2a9d65f7f3ebb243a7839fe", "rental_uris": {"android": "https://dc.lft.to/lastmile_qr_scan", "ios": "https://dc.lft.to/lastmile_qr_scan"}, "name": "4ca32fcde2a9d65f7f3ebb243a7839fe", "is_reserved": 0}, {"is_disabled": 0, "fusion_lon": 0.0, "fusion_lat": 0.0, "lat": 38.93700183333333, "type": "electric_bike", "lon": -77.0298425, "bike_id": "61f8b033d29b687a1077b12f50325537", "rental_uris": {"android": "https://dc.lft.to/lastmile_qr_scan", "ios": "https://dc.lft.to/lastmile_qr_scan"}, "name": "61f8b033d29b687a1077b12f50325537", "is_reserved": 0}, {"is_disabled": 0, "fusion_lon": 0.0, "fusion_lat": 0.0, "lat": 38.92226733333333, "type": "electric_scooter", "lon": -76.97530283333333, "bike_id": "56fdb428775c637331fe4fe338b50834", "rental_uris": {"android": "https://dc.lft.to/lastmile_qr_scan", "ios": "https://dc.lft.to/lastmile_qr_scan"}, "name": "56fdb428775c637331fe4fe338b50834", "is_reserved": 0}, {"is_disabled": 0, "fusion_lon": 0.0, "fusion_lat": 0.0, "lat": 38.9333905, "type": "electric_scooter", "lon": -77.041374, "bike_id": "1ed9787e10e4d34c702f2d1d1f4e5783", "rental_uris": {"android": "https://dc.lft.to/lastmile_qr_scan", "ios": "https://dc.lft.to/lastmile_qr_scan"}, "name": "1ed9787e10e4d34c702f2d1d1f4e5783", "is_reserved": 0}, {"is_disabled": 0, "fusion_lon": 0.0, "fusion_lat": 0.0, "lat": 38.9097675, "type": "electric_scooter", "lon": -77.02177066666667, "bike_id": "6306fbe9ebdbbbd275ffb2b98e8d15ec", "rental_uris": {"android": "https://dc.lft.to/lastmile_qr_scan", "ios": "https://dc.lft.to/lastmile_qr_scan"}, "name": "6306fbe9ebdbbbd275ffb2b98e8d15ec", "is_reserved": 0}, {"is_disabled": 0, "fusion_lon": 0.0, "fusion_lat": 0.0, "lat": 38.86737266666667, "type": "electric_scooter", "lon": -76.97939416666667, "bike_id": "9696836db614389069f069b1a48cf5c5", "rental_uris": {"android": "https://dc.lft.to/lastmile_qr_scan", "ios": "https://dc.lft.to/lastmile_qr_scan"}, "name": "9696836db614389069f069b1a48cf5c5", "is_reserved": 0}, {"is_disabled": 0, "fusion_lon": 0.0, "fusion_lat": 0.0, "lat": 38.923249166666665, "type": "electric_scooter", "lon": -77.04620683333333, "bike_id": "2f556e119c7610d12fd575c31b117495", "rental_uris": {"android": "https://dc.lft.to/lastmile_qr_scan", "ios": "https://dc.lft.to/lastmile_qr_scan"}, "name": "2f556e119c7610d12fd575c31b117495", "is_reserved": 0}, {"is_disabled": 0, "fusion_lon": 0.0, "fusion_lat": 0.0, "lat": 38.906834, "type": "electric_bike", "lon": -77.03642783333333, "bike_id": "f1ae3f6360edbdd4c3292d11dc4cb9f9", "rental_uris": {"android": "https://dc.lft.to/lastmile_qr_scan", "ios": "https://dc.lft.to/lastmile_qr_scan"}, "name": "f1ae3f6360edbdd4c3292d11dc4cb9f9", "is_reserved": 0}, {"is_disabled": 0, "fusion_lon": 0.0, "fusion_lat": 0.0, "lat": 38.924332666666665, "type": "electric_scooter", "lon": -77.035187, "bike_id": "d7e2f82c26cb0e05fcf3087da1ac62d7", "rental_uris": {"android": "https://dc.lft.to/lastmile_qr_scan", "ios": "https://dc.lft.to/lastmile_qr_scan"}, "name": "d7e2f82c26cb0e05fcf3087da1ac62d7", "is_reserved": 0}, {"is_disabled": 0, "fusion_lon": 0.0, "fusion_lat": 0.0, "lat": 38.931779666666664, "type": "electric_scooter", "lon": -77.02351433333334, "bike_id": "92002b086629982f42f5b071efc5ea69", "rental_uris": {"android": "https://dc.lft.to/lastmile_qr_scan", "ios": "https://dc.lft.to/lastmile_qr_scan"}, "name": "92002b086629982f42f5b071efc5ea69", "is_reserved": 0}, {"is_disabled": 0, "fusion_lon": 0.0, "fusion_lat": 0.0, "lat": 38.885371166666665, "type": "electric_scooter", "lon": -76.92702533333333, "bike_id": "7dc0493f15903cb8cad8d5c7902da050", "rental_uris": {"android": "https://dc.lft.to/lastmile_qr_scan", "ios": "https://dc.lft.to/lastmile_qr_scan"}, "name": "7dc0493f15903cb8cad8d5c7902da050", "is_reserved": 0}, {"is_disabled": 0, "fusion_lon": 0.0, "fusion_lat": 0.0, "lat": 38.921480833333334, "type": "electric_scooter", "lon": -77.029577, "bike_id": "7c4d135cc97090325ea4f5586812e2a7", "rental_uris": {"android": "https://dc.lft.to/lastmile_qr_scan", "ios": "https://dc.lft.to/lastmile_qr_scan"}, "name": "7c4d135cc97090325ea4f5586812e2a7", "is_reserved": 0}, {"is_disabled": 0, "fusion_lon": 0.0, "fusion_lat": 0.0, "lat": 38.9026535, "type": "electric_scooter", "lon": -77.017978, "bike_id": "4fe9ca1592989b86a87bdf848a75e781", "rental_uris": {"android": "https://dc.lft.to/lastmile_qr_scan", "ios": "https://dc.lft.to/lastmile_qr_scan"}, "name": "4fe9ca1592989b86a87bdf848a75e781", "is_reserved": 0}, {"is_disabled": 0, "fusion_lon": 0.0, "fusion_lat": 0.0, "lat": 38.90491183333334, "type": "electric_scooter", "lon": -77.02940516666666, "bike_id": "8f96aa992e0d9bbfdf225354722eb3f4", "rental_uris": {"android": "https://dc.lft.to/lastmile_qr_scan", "ios": "https://dc.lft.to/lastmile_qr_scan"}, "name": "8f96aa992e0d9bbfdf225354722eb3f4", "is_reserved": 0}, {"is_disabled": 0, "fusion_lon": 0.0, "fusion_lat": 0.0, "lat": 38.917462, "type": "electric_scooter", "lon": -77.0366225, "bike_id": "e292631fd5afb9a2b9534ae8c3b870c3", "rental_uris": {"android": "https://dc.lft.to/lastmile_qr_scan", "ios": "https://dc.lft.to/lastmile_qr_scan"}, "name": "e292631fd5afb9a2b9534ae8c3b870c3", "is_reserved": 0}, {"is_disabled": 0, "fusion_lon": 0.0, "fusion_lat": 0.0, "lat": 38.88708533333333, "type": "electric_scooter", "lon": -76.953641, "bike_id": "7a43529718b98523e2a85b41b65d3571", "rental_uris": {"android": "https://dc.lft.to/lastmile_qr_scan", "ios": "https://dc.lft.to/lastmile_qr_scan"}, "name": "7a43529718b98523e2a85b41b65d3571", "is_reserved": 0}, {"is_disabled": 0, "fusion_lon": 0.0, "fusion_lat": 0.0, "lat": 38.91675716666666, "type": "electric_scooter", "lon": -77.0269125, "bike_id": "635be13b0d331cab36b990703356219e", "rental_uris": {"android": "https://dc.lft.to/lastmile_qr_scan", "ios": "https://dc.lft.to/lastmile_qr_scan"}, "name": "635be13b0d331cab36b990703356219e", "is_reserved": 0}, {"is_disabled": 0, "fusion_lon": 0.0, "fusion_lat": 0.0, "lat": 38.862481333333335, "type": "electric_scooter", "lon": -76.99532183333334, "bike_id": "c2e3f6e3c03dfdbd480d429dcba55a1f", "rental_uris": {"android": "https://dc.lft.to/lastmile_qr_scan", "ios": "https://dc.lft.to/lastmile_qr_scan"}, "name": "c2e3f6e3c03dfdbd480d429dcba55a1f", "is_reserved": 0}, {"is_disabled": 0, "fusion_lon": 0.0, "fusion_lat": 0.0, "lat": 38.90433733333333, "type": "electric_scooter", "lon": -77.02608, "bike_id": "a98e316ef504d3d7eae1190524f7923f", "rental_uris": {"android": "https://dc.lft.to/lastmile_qr_scan", "ios": "https://dc.lft.to/lastmile_qr_scan"}, "name": "a98e316ef504d3d7eae1190524f7923f", "is_reserved": 0}, {"is_disabled": 0, "fusion_lon": 0.0, "fusion_lat": 0.0, "lat": 38.899908, "type": "electric_scooter", "lon": -77.006725, "bike_id": "178e0599b10d21ffcb2cb09315ea3a85", "rental_uris": {"android": "https://dc.lft.to/lastmile_qr_scan", "ios": "https://dc.lft.to/lastmile_qr_scan"}, "name": "178e0599b10d21ffcb2cb09315ea3a85", "is_reserved": 0}, {"is_disabled": 0, "fusion_lon": 0.0, "fusion_lat": 0.0, "lat": 38.8429465, "type": "electric_scooter", "lon": -76.99940683333334, "bike_id": "ffdf0e61df656783f9cbfe03cfc76808", "rental_uris": {"android": "https://dc.lft.to/lastmile_qr_scan", "ios": "https://dc.lft.to/lastmile_qr_scan"}, "name": "ffdf0e61df656783f9cbfe03cfc76808", "is_reserved": 0}, {"is_disabled": 0, "fusion_lon": 0.0, "fusion_lat": 0.0, "lat": 38.895277, "type": "electric_scooter", "lon": -76.94892866666666, "bike_id": "6d9e1692d6aef53c79ab134de6f4c479", "rental_uris": {"android": "https://dc.lft.to/lastmile_qr_scan", "ios": "https://dc.lft.to/lastmile_qr_scan"}, "name": "6d9e1692d6aef53c79ab134de6f4c479", "is_reserved": 0}, {"is_disabled": 0, "fusion_lon": 0.0, "fusion_lat": 0.0, "lat": 38.912712666666664, "type": "electric_scooter", "lon": -77.02229916666667, "bike_id": "ebfea7a02ce21e33b5c62cdd31f7100d", "rental_uris": {"android": "https://dc.lft.to/lastmile_qr_scan", "ios": "https://dc.lft.to/lastmile_qr_scan"}, "name": "ebfea7a02ce21e33b5c62cdd31f7100d", "is_reserved": 0}, {"is_disabled": 0, "fusion_lon": 0.0, "fusion_lat": 0.0, "lat": 38.91818933333333, "type": "electric_scooter", "lon": -77.02473883333333, "bike_id": "b89be0566e534bedcffe967025482a30", "rental_uris": {"android": "https://dc.lft.to/lastmile_qr_scan", "ios": "https://dc.lft.to/lastmile_qr_scan"}, "name": "b89be0566e534bedcffe967025482a30", "is_reserved": 0}, {"is_disabled": 0, "fusion_lon": 0.0, "fusion_lat": 0.0, "lat": 38.903125833333334, "type": "electric_scooter", "lon": -77.02364916666667, "bike_id": "dd9d87c8056b3360cdbcef4ec2b5dbb8", "rental_uris": {"android": "https://dc.lft.to/lastmile_qr_scan", "ios": "https://dc.lft.to/lastmile_qr_scan"}, "name": "dd9d87c8056b3360cdbcef4ec2b5dbb8", "is_reserved": 0}, {"is_disabled": 0, "fusion_lon": 0.0, "fusion_lat": 0.0, "lat": 38.917017333333334, "type": "electric_scooter", "lon": -77.0401125, "bike_id": "d50e155877f620ecfd780f5980a4d010", "rental_uris": {"android": "https://dc.lft.to/lastmile_qr_scan", "ios": "https://dc.lft.to/lastmile_qr_scan"}, "name": "d50e155877f620ecfd780f5980a4d010", "is_reserved": 0}, {"is_disabled": 0, "fusion_lon": 0.0, "fusion_lat": 0.0, "lat": 38.94620066666667, "type": "electric_bike", "lon": -76.93411466666667, "bike_id": "c5cfa18e8ab8972c333890657fcad35a", "rental_uris": {"android": "https://dc.lft.to/lastmile_qr_scan", "ios": "https://dc.lft.to/lastmile_qr_scan"}, "name": "c5cfa18e8ab8972c333890657fcad35a", "is_reserved": 0}, {"is_disabled": 0, "fusion_lon": 0.0, "fusion_lat": 0.0, "lat": 38.92307266666667, "type": "electric_scooter", "lon": -77.04036866666667, "bike_id": "bcfa87ebea66696236fa351f46a678b7", "rental_uris": {"android": "https://dc.lft.to/lastmile_qr_scan", "ios": "https://dc.lft.to/lastmile_qr_scan"}, "name": "bcfa87ebea66696236fa351f46a678b7", "is_reserved": 0}, {"is_disabled": 0, "fusion_lon": 0.0, "fusion_lat": 0.0, "lat": 38.93098483333333, "type": "electric_scooter", "lon": -77.02470133333334, "bike_id": "507aaa2b99402e0294a8b31e34ed9e2c", "rental_uris": {"android": "https://dc.lft.to/lastmile_qr_scan", "ios": "https://dc.lft.to/lastmile_qr_scan"}, "name": "507aaa2b99402e0294a8b31e34ed9e2c", "is_reserved": 0}, {"is_disabled": 0, "fusion_lon": 0.0, "fusion_lat": 0.0, "lat": 38.87633916666667, "type": "electric_scooter", "lon": -77.01258183333333, "bike_id": "9938a9e2eaa01b02487a9ee9f745e06c", "rental_uris": {"android": "https://dc.lft.to/lastmile_qr_scan", "ios": "https://dc.lft.to/lastmile_qr_scan"}, "name": "9938a9e2eaa01b02487a9ee9f745e06c", "is_reserved": 0}, {"is_disabled": 0, "fusion_lon": 0.0, "fusion_lat": 0.0, "lat": 38.93246166666667, "type": "electric_scooter", "lon": -77.03412283333333, "bike_id": "81912eb124776a46dfad7f2487706c5f", "rental_uris": {"android": "https://dc.lft.to/lastmile_qr_scan", "ios": "https://dc.lft.to/lastmile_qr_scan"}, "name": "81912eb124776a46dfad7f2487706c5f", "is_reserved": 0}, {"is_disabled": 0, "fusion_lon": 0.0, "fusion_lat": 0.0, "lat": 38.93153783333333, "type": "electric_scooter", "lon": -77.04370616666667, "bike_id": "8f5ef06dc83d432880ee57ee24f69859", "rental_uris": {"android": "https://dc.lft.to/lastmile_qr_scan", "ios": "https://dc.lft.to/lastmile_qr_scan"}, "name": "8f5ef06dc83d432880ee57ee24f69859", "is_reserved": 0}, {"is_disabled": 0, "fusion_lon": 0.0, "fusion_lat": 0.0, "lat": 38.918844166666666, "type": "electric_scooter", "lon": -77.04174216666667, "bike_id": "7f723cfaf24b1f8ee6921c960987e519", "rental_uris": {"android": "https://dc.lft.to/lastmile_qr_scan", "ios": "https://dc.lft.to/lastmile_qr_scan"}, "name": "7f723cfaf24b1f8ee6921c960987e519", "is_reserved": 0}, {"is_disabled": 0, "fusion_lon": 0.0, "fusion_lat": 0.0, "lat": 38.92596833333333, "type": "electric_bike", "lon": -76.88906933333334, "bike_id": "b1d99344cfd1c2be8a6cc497620a84e8", "rental_uris": {"android": "https://dc.lft.to/lastmile_qr_scan", "ios": "https://dc.lft.to/lastmile_qr_scan"}, "name": "b1d99344cfd1c2be8a6cc497620a84e8", "is_reserved": 0}, {"is_disabled": 0, "fusion_lon": 0.0, "fusion_lat": 0.0, "lat": 38.90735266666667, "type": "electric_scooter", "lon": -77.02951633333333, "bike_id": "66dfaedaaf80328a4622e1e61b04308d", "rental_uris": {"android": "https://dc.lft.to/lastmile_qr_scan", "ios": "https://dc.lft.to/lastmile_qr_scan"}, "name": "66dfaedaaf80328a4622e1e61b04308d", "is_reserved": 0}, {"is_disabled": 0, "fusion_lon": 0.0, "fusion_lat": 0.0, "lat": 38.954170500000004, "type": "electric_scooter", "lon": -77.02841466666666, "bike_id": "79634d75656e983ac015ad8098ef7fbc", "rental_uris": {"android": "https://dc.lft.to/lastmile_qr_scan", "ios": "https://dc.lft.to/lastmile_qr_scan"}, "name": "79634d75656e983ac015ad8098ef7fbc", "is_reserved": 0}, {"is_disabled": 0, "fusion_lon": 0.0, "fusion_lat": 0.0, "lat": 38.976787333333334, "type": "electric_bike", "lon": -76.97167383333333, "bike_id": "7bbe463409fe63610fa3af028d98d95b", "rental_uris": {"android": "https://dc.lft.to/lastmile_qr_scan", "ios": "https://dc.lft.to/lastmile_qr_scan"}, "name": "7bbe463409fe63610fa3af028d98d95b", "is_reserved": 0}, {"is_disabled": 0, "fusion_lon": 0.0, "fusion_lat": 0.0, "lat": 38.928672, "type": "electric_scooter", "lon": -77.01408116666667, "bike_id": "387c74d9f6ba53cb1553edf1e529995f", "rental_uris": {"android": "https://dc.lft.to/lastmile_qr_scan", "ios": "https://dc.lft.to/lastmile_qr_scan"}, "name": "387c74d9f6ba53cb1553edf1e529995f", "is_reserved": 0}, {"is_disabled": 0, "fusion_lon": 0.0, "fusion_lat": 0.0, "lat": 38.892386333333334, "type": "electric_bike", "lon": -76.952201, "bike_id": "ce804677507f79751adfbe914d2f906d", "rental_uris": {"android": "https://dc.lft.to/lastmile_qr_scan", "ios": "https://dc.lft.to/lastmile_qr_scan"}, "name": "ce804677507f79751adfbe914d2f906d", "is_reserved": 0}, {"is_disabled": 0, "fusion_lon": 0.0, "fusion_lat": 0.0, "lat": 38.9171185, "type": "electric_scooter", "lon": -77.010723, "bike_id": "bee9b40865bc02f42c4463738de953fc", "rental_uris": {"android": "https://dc.lft.to/lastmile_qr_scan", "ios": "https://dc.lft.to/lastmile_qr_scan"}, "name": "bee9b40865bc02f42c4463738de953fc", "is_reserved": 0}, {"is_disabled": 0, "fusion_lon": 0.0, "fusion_lat": 0.0, "lat": 38.9112325, "type": "electric_scooter", "lon": -77.04364816666667, "bike_id": "59e355a94344a170182db65252501788", "rental_uris": {"android": "https://dc.lft.to/lastmile_qr_scan", "ios": "https://dc.lft.to/lastmile_qr_scan"}, "name": "59e355a94344a170182db65252501788", "is_reserved": 0}, {"is_disabled": 0, "fusion_lon": 0.0, "fusion_lat": 0.0, "lat": 38.896067, "type": "electric_scooter", "lon": -77.00893866666667, "bike_id": "3cc850ad25370c5a3135f2e0f9a3eac2", "rental_uris": {"android": "https://dc.lft.to/lastmile_qr_scan", "ios": "https://dc.lft.to/lastmile_qr_scan"}, "name": "3cc850ad25370c5a3135f2e0f9a3eac2", "is_reserved": 0}, {"is_disabled": 0, "fusion_lon": 0.0, "fusion_lat": 0.0, "lat": 38.905512333333334, "type": "electric_scooter", "lon": -77.0465335, "bike_id": "cad23f2a79d3c237fe5006a5624661c0", "rental_uris": {"android": "https://dc.lft.to/lastmile_qr_scan", "ios": "https://dc.lft.to/lastmile_qr_scan"}, "name": "cad23f2a79d3c237fe5006a5624661c0", "is_reserved": 0}, {"is_disabled": 0, "fusion_lon": 0.0, "fusion_lat": 0.0, "lat": 38.90723466666667, "type": "electric_scooter", "lon": -77.03961066666666, "bike_id": "c3047b6bd91d6e33e25d0d53057a95cb", "rental_uris": {"android": "https://dc.lft.to/lastmile_qr_scan", "ios": "https://dc.lft.to/lastmile_qr_scan"}, "name": "c3047b6bd91d6e33e25d0d53057a95cb", "is_reserved": 0}, {"is_disabled": 0, "fusion_lon": 0.0, "fusion_lat": 0.0, "lat": 38.9067285, "type": "electric_scooter", "lon": -77.02722416666667, "bike_id": "6bbb8ae720a3f385e9b736f29e2474bf", "rental_uris": {"android": "https://dc.lft.to/lastmile_qr_scan", "ios": "https://dc.lft.to/lastmile_qr_scan"}, "name": "6bbb8ae720a3f385e9b736f29e2474bf", "is_reserved": 0}, {"is_disabled": 0, "fusion_lon": 0.0, "fusion_lat": 0.0, "lat": 38.85067566666667, "type": "electric_bike", "lon": -76.9733185, "bike_id": "01d23381171a7234dc9e922a08a2b580", "rental_uris": {"android": "https://dc.lft.to/lastmile_qr_scan", "ios": "https://dc.lft.to/lastmile_qr_scan"}, "name": "01d23381171a7234dc9e922a08a2b580", "is_reserved": 0}, {"is_disabled": 0, "fusion_lon": 0.0, "fusion_lat": 0.0, "lat": 38.88123133333333, "type": "electric_scooter", "lon": -76.99599316666666, "bike_id": "8315a690489b41e874241e4eb858845b", "rental_uris": {"android": "https://dc.lft.to/lastmile_qr_scan", "ios": "https://dc.lft.to/lastmile_qr_scan"}, "name": "8315a690489b41e874241e4eb858845b", "is_reserved": 0}, {"is_disabled": 0, "fusion_lon": 0.0, "fusion_lat": 0.0, "lat": 38.89604383333333, "type": "electric_scooter", "lon": -77.01116883333333, "bike_id": "0fa0606ace6c346b11b688469f386453", "rental_uris": {"android": "https://dc.lft.to/lastmile_qr_scan", "ios": "https://dc.lft.to/lastmile_qr_scan"}, "name": "0fa0606ace6c346b11b688469f386453", "is_reserved": 0}, {"is_disabled": 0, "fusion_lon": 0.0, "fusion_lat": 0.0, "lat": 38.92845483333333, "type": "electric_bike", "lon": -77.02066733333334, "bike_id": "5c632b54f5f0987b97e6f49af4edd4f5", "rental_uris": {"android": "https://dc.lft.to/lastmile_qr_scan", "ios": "https://dc.lft.to/lastmile_qr_scan"}, "name": "5c632b54f5f0987b97e6f49af4edd4f5", "is_reserved": 0}, {"is_disabled": 0, "fusion_lon": 0.0, "fusion_lat": 0.0, "lat": 38.9520385, "type": "electric_bike", "lon": -77.02372, "bike_id": "f125bf7c6fa295f09fbc7f6d7dd68da6", "rental_uris": {"android": "https://dc.lft.to/lastmile_qr_scan", "ios": "https://dc.lft.to/lastmile_qr_scan"}, "name": "f125bf7c6fa295f09fbc7f6d7dd68da6", "is_reserved": 0}, {"is_disabled": 0, "fusion_lon": 0.0, "fusion_lat": 0.0, "lat": 38.880746333333335, "type": "electric_scooter", "lon": -77.00650516666667, "bike_id": "c399365ef9fa9d26d27aca7370acfb93", "rental_uris": {"android": "https://dc.lft.to/lastmile_qr_scan", "ios": "https://dc.lft.to/lastmile_qr_scan"}, "name": "c399365ef9fa9d26d27aca7370acfb93", "is_reserved": 0}, {"is_disabled": 0, "fusion_lon": 0.0, "fusion_lat": 0.0, "lat": 38.907340166666664, "type": "electric_scooter", "lon": -77.03188183333333, "bike_id": "fd903b261aafd35346cc13ec5c14a580", "rental_uris": {"android": "https://dc.lft.to/lastmile_qr_scan", "ios": "https://dc.lft.to/lastmile_qr_scan"}, "name": "fd903b261aafd35346cc13ec5c14a580", "is_reserved": 0}, {"is_disabled": 0, "fusion_lon": 0.0, "fusion_lat": 0.0, "lat": 38.91613016666667, "type": "electric_scooter", "lon": -77.02481416666667, "bike_id": "a57ce8d314bd0ceb1919fbc7d47353a0", "rental_uris": {"android": "https://dc.lft.to/lastmile_qr_scan", "ios": "https://dc.lft.to/lastmile_qr_scan"}, "name": "a57ce8d314bd0ceb1919fbc7d47353a0", "is_reserved": 0}, {"is_disabled": 0, "fusion_lon": 0.0, "fusion_lat": 0.0, "lat": 38.94421033333333, "type": "electric_bike", "lon": -77.06394516666667, "bike_id": "826402a532eacd965cc84d304b37e4a2", "rental_uris": {"android": "https://dc.lft.to/lastmile_qr_scan", "ios": "https://dc.lft.to/lastmile_qr_scan"}, "name": "826402a532eacd965cc84d304b37e4a2", "is_reserved": 0}, {"is_disabled": 0, "fusion_lon": 0.0, "fusion_lat": 0.0, "lat": 38.924973666666666, "type": "electric_scooter", "lon": -77.03930916666667, "bike_id": "e0ad94d6c27e0f3c8495424cedb7aa6c", "rental_uris": {"android": "https://dc.lft.to/lastmile_qr_scan", "ios": "https://dc.lft.to/lastmile_qr_scan"}, "name": "e0ad94d6c27e0f3c8495424cedb7aa6c", "is_reserved": 0}, {"is_disabled": 0, "fusion_lon": 0.0, "fusion_lat": 0.0, "lat": 38.95634283333333, "type": "electric_scooter", "lon": -77.02978466666667, "bike_id": "ab9d939b9aee813dd6ff96bf00042b29", "rental_uris": {"android": "https://dc.lft.to/lastmile_qr_scan", "ios": "https://dc.lft.to/lastmile_qr_scan"}, "name": "ab9d939b9aee813dd6ff96bf00042b29", "is_reserved": 0}, {"is_disabled": 0, "fusion_lon": 0.0, "fusion_lat": 0.0, "lat": 38.909785666666664, "type": "electric_scooter", "lon": -77.03441083333334, "bike_id": "1491fe70bb0f0ecb69909cd4bbf411d8", "rental_uris": {"android": "https://dc.lft.to/lastmile_qr_scan", "ios": "https://dc.lft.to/lastmile_qr_scan"}, "name": "1491fe70bb0f0ecb69909cd4bbf411d8", "is_reserved": 0}, {"is_disabled": 0, "fusion_lon": 0.0, "fusion_lat": 0.0, "lat": 38.90597266666666, "type": "electric_scooter", "lon": -77.02376266666667, "bike_id": "71dd829e37886ab6e102d92b172e88d4", "rental_uris": {"android": "https://dc.lft.to/lastmile_qr_scan", "ios": "https://dc.lft.to/lastmile_qr_scan"}, "name": "71dd829e37886ab6e102d92b172e88d4", "is_reserved": 0}, {"is_disabled": 0, "fusion_lon": 0.0, "fusion_lat": 0.0, "lat": 38.902883333333335, "type": "electric_scooter", "lon": -77.0382585, "bike_id": "3d8a8dc050d972bd7c14dbf5d722343c", "rental_uris": {"android": "https://dc.lft.to/lastmile_qr_scan", "ios": "https://dc.lft.to/lastmile_qr_scan"}, "name": "3d8a8dc050d972bd7c14dbf5d722343c", "is_reserved": 0}, {"is_disabled": 0, "fusion_lon": 0.0, "fusion_lat": 0.0, "lat": 38.909567, "type": "electric_scooter", "lon": -77.04858133333333, "bike_id": "9dee27aa965af21697a9cd8f2600c69b", "rental_uris": {"android": "https://dc.lft.to/lastmile_qr_scan", "ios": "https://dc.lft.to/lastmile_qr_scan"}, "name": "9dee27aa965af21697a9cd8f2600c69b", "is_reserved": 0}, {"is_disabled": 0, "fusion_lon": 0.0, "fusion_lat": 0.0, "lat": 38.85716883333333, "type": "electric_bike", "lon": -76.98113383333333, "bike_id": "ebb1779239d86c61c9353c2608175ff3", "rental_uris": {"android": "https://dc.lft.to/lastmile_qr_scan", "ios": "https://dc.lft.to/lastmile_qr_scan"}, "name": "ebb1779239d86c61c9353c2608175ff3", "is_reserved": 0}, {"is_disabled": 0, "fusion_lon": 0.0, "fusion_lat": 0.0, "lat": 38.915640833333335, "type": "electric_scooter", "lon": -77.038724, "bike_id": "706eec7f6597098123c850ea8453962c", "rental_uris": {"android": "https://dc.lft.to/lastmile_qr_scan", "ios": "https://dc.lft.to/lastmile_qr_scan"}, "name": "706eec7f6597098123c850ea8453962c", "is_reserved": 0}, {"is_disabled": 0, "fusion_lon": 0.0, "fusion_lat": 0.0, "lat": 38.93047933333333, "type": "electric_scooter", "lon": -77.004192, "bike_id": "5638fb822cd8dcf8034cbde0309ea8be", "rental_uris": {"android": "https://dc.lft.to/lastmile_qr_scan", "ios": "https://dc.lft.to/lastmile_qr_scan"}, "name": "5638fb822cd8dcf8034cbde0309ea8be", "is_reserved": 0}, {"is_disabled": 0, "fusion_lon": 0.0, "fusion_lat": 0.0, "lat": 38.928583833333334, "type": "electric_scooter", "lon": -77.03438666666666, "bike_id": "8bddbf2afc20d9c663aff2fc708cd75a", "rental_uris": {"android": "https://dc.lft.to/lastmile_qr_scan", "ios": "https://dc.lft.to/lastmile_qr_scan"}, "name": "8bddbf2afc20d9c663aff2fc708cd75a", "is_reserved": 0}, {"is_disabled": 0, "fusion_lon": 0.0, "fusion_lat": 0.0, "lat": 38.8624485, "type": "electric_scooter", "lon": -76.99494733333333, "bike_id": "2c349661eda08c19709a308f50cfb4ed", "rental_uris": {"android": "https://dc.lft.to/lastmile_qr_scan", "ios": "https://dc.lft.to/lastmile_qr_scan"}, "name": "2c349661eda08c19709a308f50cfb4ed", "is_reserved": 0}, {"is_disabled": 0, "fusion_lon": 0.0, "fusion_lat": 0.0, "lat": 38.9428575, "type": "electric_scooter", "lon": -77.02347, "bike_id": "ee4f4faebbfc1a71a1b7e49646d7c8a3", "rental_uris": {"android": "https://dc.lft.to/lastmile_qr_scan", "ios": "https://dc.lft.to/lastmile_qr_scan"}, "name": "ee4f4faebbfc1a71a1b7e49646d7c8a3", "is_reserved": 0}, {"is_disabled": 0, "fusion_lon": 0.0, "fusion_lat": 0.0, "lat": 38.9925295, "type": "electric_bike", "lon": -77.050003, "bike_id": "94b9f7be0107ff881a38bf84fa8335fe", "rental_uris": {"android": "https://dc.lft.to/lastmile_qr_scan", "ios": "https://dc.lft.to/lastmile_qr_scan"}, "name": "94b9f7be0107ff881a38bf84fa8335fe", "is_reserved": 0}, {"is_disabled": 0, "fusion_lon": 0.0, "fusion_lat": 0.0, "lat": 39.11523733333333, "type": "electric_bike", "lon": -77.19543366666667, "bike_id": "c02bdd7761eef2fc71f3af64cb087a54", "rental_uris": {"android": "https://dc.lft.to/lastmile_qr_scan", "ios": "https://dc.lft.to/lastmile_qr_scan"}, "name": "c02bdd7761eef2fc71f3af64cb087a54", "is_reserved": 0}, {"is_disabled": 0, "fusion_lon": 0.0, "fusion_lat": 0.0, "lat": 38.83816266666667, "type": "electric_scooter", "lon": -77.00430166666666, "bike_id": "0e7bbf4ca4916fb12fbd72717635a85f", "rental_uris": {"android": "https://dc.lft.to/lastmile_qr_scan", "ios": "https://dc.lft.to/lastmile_qr_scan"}, "name": "0e7bbf4ca4916fb12fbd72717635a85f", "is_reserved": 0}, {"is_disabled": 0, "fusion_lon": 0.0, "fusion_lat": 0.0, "lat": 38.911237666666665, "type": "electric_scooter", "lon": -77.0382475, "bike_id": "ab9c6f1e1366334197c7b3fa6b8e4119", "rental_uris": {"android": "https://dc.lft.to/lastmile_qr_scan", "ios": "https://dc.lft.to/lastmile_qr_scan"}, "name": "ab9c6f1e1366334197c7b3fa6b8e4119", "is_reserved": 0}, {"is_disabled": 0, "fusion_lon": 0.0, "fusion_lat": 0.0, "lat": 39.100060166666665, "type": "electric_bike", "lon": -77.18647916666667, "bike_id": "866a8c40d6708d2e33e3051bb23dc70c", "rental_uris": {"android": "https://dc.lft.to/lastmile_qr_scan", "ios": "https://dc.lft.to/lastmile_qr_scan"}, "name": "866a8c40d6708d2e33e3051bb23dc70c", "is_reserved": 0}, {"is_disabled": 0, "fusion_lon": 0.0, "fusion_lat": 0.0, "lat": 38.91566733333333, "type": "electric_scooter", "lon": -77.04170716666667, "bike_id": "e1ba586ee633b11f2e4a6ac4fd773e4e", "rental_uris": {"android": "https://dc.lft.to/lastmile_qr_scan", "ios": "https://dc.lft.to/lastmile_qr_scan"}, "name": "e1ba586ee633b11f2e4a6ac4fd773e4e", "is_reserved": 0}, {"is_disabled": 0, "fusion_lon": 0.0, "fusion_lat": 0.0, "lat": 38.905778166666664, "type": "electric_scooter", "lon": -77.0260695, "bike_id": "38e1198ff08c067d16f5d2650bdc032c", "rental_uris": {"android": "https://dc.lft.to/lastmile_qr_scan", "ios": "https://dc.lft.to/lastmile_qr_scan"}, "name": "38e1198ff08c067d16f5d2650bdc032c", "is_reserved": 0}, {"is_disabled": 0, "fusion_lon": 0.0, "fusion_lat": 0.0, "lat": 38.91671483333333, "type": "electric_scooter", "lon": -77.02293533333334, "bike_id": "b6e9eff3b082d8d875780e380295cd99", "rental_uris": {"android": "https://dc.lft.to/lastmile_qr_scan", "ios": "https://dc.lft.to/lastmile_qr_scan"}, "name": "b6e9eff3b082d8d875780e380295cd99", "is_reserved": 0}, {"is_disabled": 0, "fusion_lon": 0.0, "fusion_lat": 0.0, "lat": 38.838142, "type": "electric_scooter", "lon": -77.0042965, "bike_id": "72a008ef3ee55779be3e762c84d1e044", "rental_uris": {"android": "https://dc.lft.to/lastmile_qr_scan", "ios": "https://dc.lft.to/lastmile_qr_scan"}, "name": "72a008ef3ee55779be3e762c84d1e044", "is_reserved": 0}, {"is_disabled": 0, "fusion_lon": 0.0, "fusion_lat": 0.0, "lat": 38.91677033333333, "type": "electric_scooter", "lon": -77.02978766666666, "bike_id": "bf3e322e8c3028e1a5e6b0352369541e", "rental_uris": {"android": "https://dc.lft.to/lastmile_qr_scan", "ios": "https://dc.lft.to/lastmile_qr_scan"}, "name": "bf3e322e8c3028e1a5e6b0352369541e", "is_reserved": 0}, {"is_disabled": 0, "fusion_lon": 0.0, "fusion_lat": 0.0, "lat": 38.90250116666667, "type": "electric_scooter", "lon": -76.98964666666667, "bike_id": "23b889ebc3301a829c472d0414194eaa", "rental_uris": {"android": "https://dc.lft.to/lastmile_qr_scan", "ios": "https://dc.lft.to/lastmile_qr_scan"}, "name": "23b889ebc3301a829c472d0414194eaa", "is_reserved": 0}, {"is_disabled": 0, "fusion_lon": 0.0, "fusion_lat": 0.0, "lat": 38.88610716666667, "type": "electric_scooter", "lon": -76.99503683333333, "bike_id": "d30582cf53b4e8d4959f3c798bfe70b6", "rental_uris": {"android": "https://dc.lft.to/lastmile_qr_scan", "ios": "https://dc.lft.to/lastmile_qr_scan"}, "name": "d30582cf53b4e8d4959f3c798bfe70b6", "is_reserved": 0}, {"is_disabled": 0, "fusion_lon": 0.0, "fusion_lat": 0.0, "lat": 38.84286616666667, "type": "electric_scooter", "lon": -76.999609, "bike_id": "128df142373a59bb27ba3ea0dba76b43", "rental_uris": {"android": "https://dc.lft.to/lastmile_qr_scan", "ios": "https://dc.lft.to/lastmile_qr_scan"}, "name": "128df142373a59bb27ba3ea0dba76b43", "is_reserved": 0}, {"is_disabled": 0, "fusion_lon": 0.0, "fusion_lat": 0.0, "lat": 38.935012, "type": "electric_bike", "lon": -76.9495715, "bike_id": "5a65b8c8933abddc72a28f51df9c0d01", "rental_uris": {"android": "https://dc.lft.to/lastmile_qr_scan", "ios": "https://dc.lft.to/lastmile_qr_scan"}, "name": "5a65b8c8933abddc72a28f51df9c0d01", "is_reserved": 0}, {"is_disabled": 0, "fusion_lon": 0.0, "fusion_lat": 0.0, "lat": 38.924312666666665, "type": "electric_scooter", "lon": -77.03549766666667, "bike_id": "2c34680d64f78558e2cecc99defd60ca", "rental_uris": {"android": "https://dc.lft.to/lastmile_qr_scan", "ios": "https://dc.lft.to/lastmile_qr_scan"}, "name": "2c34680d64f78558e2cecc99defd60ca", "is_reserved": 0}, {"is_disabled": 0, "fusion_lon": 0.0, "fusion_lat": 0.0, "lat": 38.919289, "type": "electric_scooter", "lon": -77.03427816666667, "bike_id": "2d8d3cea302894b8106b1c423b8804b8", "rental_uris": {"android": "https://dc.lft.to/lastmile_qr_scan", "ios": "https://dc.lft.to/lastmile_qr_scan"}, "name": "2d8d3cea302894b8106b1c423b8804b8", "is_reserved": 0}, {"is_disabled": 0, "fusion_lon": 0.0, "fusion_lat": 0.0, "lat": 38.908535666666666, "type": "electric_scooter", "lon": -77.06082283333333, "bike_id": "823ff7548277e4fbe8c91b91eb450dd8", "rental_uris": {"android": "https://dc.lft.to/lastmile_qr_scan", "ios": "https://dc.lft.to/lastmile_qr_scan"}, "name": "823ff7548277e4fbe8c91b91eb450dd8", "is_reserved": 0}, {"is_disabled": 0, "fusion_lon": 0.0, "fusion_lat": 0.0, "lat": 38.898990833333336, "type": "electric_scooter", "lon": -77.02168783333333, "bike_id": "a563b0ae419165fd377366590d941e7a", "rental_uris": {"android": "https://dc.lft.to/lastmile_qr_scan", "ios": "https://dc.lft.to/lastmile_qr_scan"}, "name": "a563b0ae419165fd377366590d941e7a", "is_reserved": 0}, {"is_disabled": 0, "fusion_lon": 0.0, "fusion_lat": 0.0, "lat": 38.8659005, "type": "electric_scooter", "lon": -77.01081283333333, "bike_id": "4ac47830d4ae9ce8f4079426e30aaad3", "rental_uris": {"android": "https://dc.lft.to/lastmile_qr_scan", "ios": "https://dc.lft.to/lastmile_qr_scan"}, "name": "4ac47830d4ae9ce8f4079426e30aaad3", "is_reserved": 0}, {"is_disabled": 0, "fusion_lon": 0.0, "fusion_lat": 0.0, "lat": 38.93525666666667, "type": "electric_scooter", "lon": -77.06638416666667, "bike_id": "1ebc3c51e0692073183841df439d879b", "rental_uris": {"android": "https://dc.lft.to/lastmile_qr_scan", "ios": "https://dc.lft.to/lastmile_qr_scan"}, "name": "1ebc3c51e0692073183841df439d879b", "is_reserved": 0}, {"is_disabled": 0, "fusion_lon": 0.0, "fusion_lat": 0.0, "lat": 38.908562333333336, "type": "electric_scooter", "lon": -77.047718, "bike_id": "e1a8c5684f2d2a6f0b380f65d381d109", "rental_uris": {"android": "https://dc.lft.to/lastmile_qr_scan", "ios": "https://dc.lft.to/lastmile_qr_scan"}, "name": "e1a8c5684f2d2a6f0b380f65d381d109", "is_reserved": 0}, {"is_disabled": 0, "fusion_lon": 0.0, "fusion_lat": 0.0, "lat": 38.844316, "type": "electric_scooter", "lon": -76.99778916666666, "bike_id": "7e5d11a0c6f7276d535fc9d077234f07", "rental_uris": {"android": "https://dc.lft.to/lastmile_qr_scan", "ios": "https://dc.lft.to/lastmile_qr_scan"}, "name": "7e5d11a0c6f7276d535fc9d077234f07", "is_reserved": 0}, {"is_disabled": 0, "fusion_lon": 0.0, "fusion_lat": 0.0, "lat": 38.92892616666666, "type": "electric_scooter", "lon": -77.03248633333334, "bike_id": "53a664ef57e14c0a3b1ac9ff9cf40e56", "rental_uris": {"android": "https://dc.lft.to/lastmile_qr_scan", "ios": "https://dc.lft.to/lastmile_qr_scan"}, "name": "53a664ef57e14c0a3b1ac9ff9cf40e56", "is_reserved": 0}, {"is_disabled": 0, "fusion_lon": 0.0, "fusion_lat": 0.0, "lat": 38.916995666666665, "type": "electric_scooter", "lon": -77.032895, "bike_id": "3d7524b7366ccfbbc8478cc5540f20d9", "rental_uris": {"android": "https://dc.lft.to/lastmile_qr_scan", "ios": "https://dc.lft.to/lastmile_qr_scan"}, "name": "3d7524b7366ccfbbc8478cc5540f20d9", "is_reserved": 0}, {"is_disabled": 0, "fusion_lon": 0.0, "fusion_lat": 0.0, "lat": 38.89653283333333, "type": "electric_scooter", "lon": -77.02725866666667, "bike_id": "ff5c84d31254ce2dd1c36bee4dd3cf66", "rental_uris": {"android": "https://dc.lft.to/lastmile_qr_scan", "ios": "https://dc.lft.to/lastmile_qr_scan"}, "name": "ff5c84d31254ce2dd1c36bee4dd3cf66", "is_reserved": 0}, {"is_disabled": 0, "fusion_lon": 0.0, "fusion_lat": 0.0, "lat": 38.93640216666667, "type": "electric_scooter", "lon": -77.02694633333333, "bike_id": "647aa91c552ef59581dad6f7a0540f81", "rental_uris": {"android": "https://dc.lft.to/lastmile_qr_scan", "ios": "https://dc.lft.to/lastmile_qr_scan"}, "name": "647aa91c552ef59581dad6f7a0540f81", "is_reserved": 0}, {"is_disabled": 0, "fusion_lon": 0.0, "fusion_lat": 0.0, "lat": 38.898471, "type": "electric_scooter", "lon": -76.94634366666666, "bike_id": "d868cbee3c397550056411602fd67530", "rental_uris": {"android": "https://dc.lft.to/lastmile_qr_scan", "ios": "https://dc.lft.to/lastmile_qr_scan"}, "name": "d868cbee3c397550056411602fd67530", "is_reserved": 0}, {"is_disabled": 0, "fusion_lon": 0.0, "fusion_lat": 0.0, "lat": 38.90483666666667, "type": "electric_scooter", "lon": -77.06221716666667, "bike_id": "4a669ceebfb68ea68d651dc24a9de3b7", "rental_uris": {"android": "https://dc.lft.to/lastmile_qr_scan", "ios": "https://dc.lft.to/lastmile_qr_scan"}, "name": "4a669ceebfb68ea68d651dc24a9de3b7", "is_reserved": 0}, {"is_disabled": 0, "fusion_lon": 0.0, "fusion_lat": 0.0, "lat": 38.91806, "type": "electric_scooter", "lon": -77.026892, "bike_id": "99e8b4cdcd8ab30675f444c3a5c32fe5", "rental_uris": {"android": "https://dc.lft.to/lastmile_qr_scan", "ios": "https://dc.lft.to/lastmile_qr_scan"}, "name": "99e8b4cdcd8ab30675f444c3a5c32fe5", "is_reserved": 0}, {"is_disabled": 0, "fusion_lon": 0.0, "fusion_lat": 0.0, "lat": 38.92564, "type": "electric_scooter", "lon": -77.04346683333333, "bike_id": "83939759c523f95c96ada8bd63be5f94", "rental_uris": {"android": "https://dc.lft.to/lastmile_qr_scan", "ios": "https://dc.lft.to/lastmile_qr_scan"}, "name": "83939759c523f95c96ada8bd63be5f94", "is_reserved": 0}, {"is_disabled": 0, "fusion_lon": 0.0, "fusion_lat": 0.0, "lat": 38.85507716666667, "type": "electric_bike", "lon": -76.98414016666666, "bike_id": "78cf468db7b9149ec6f60376e61b3490", "rental_uris": {"android": "https://dc.lft.to/lastmile_qr_scan", "ios": "https://dc.lft.to/lastmile_qr_scan"}, "name": "78cf468db7b9149ec6f60376e61b3490", "is_reserved": 0}, {"is_disabled": 0, "fusion_lon": 0.0, "fusion_lat": 0.0, "lat": 38.9174, "type": "electric_scooter", "lon": -77.036401, "bike_id": "d7a2d19476e1eb3a3f542fc181d03a8b", "rental_uris": {"android": "https://dc.lft.to/lastmile_qr_scan", "ios": "https://dc.lft.to/lastmile_qr_scan"}, "name": "d7a2d19476e1eb3a3f542fc181d03a8b", "is_reserved": 0}, {"is_disabled": 0, "fusion_lon": 0.0, "fusion_lat": 0.0, "lat": 38.9096065, "type": "electric_scooter", "lon": -77.0486345, "bike_id": "7a76bb587323527a4317b78143f5f646", "rental_uris": {"android": "https://dc.lft.to/lastmile_qr_scan", "ios": "https://dc.lft.to/lastmile_qr_scan"}, "name": "7a76bb587323527a4317b78143f5f646", "is_reserved": 0}, {"is_disabled": 0, "fusion_lon": 0.0, "fusion_lat": 0.0, "lat": 38.89226566666667, "type": "electric_scooter", "lon": -77.03178483333333, "bike_id": "4beef34cbdc84f5e62b059920a07a7a5", "rental_uris": {"android": "https://dc.lft.to/lastmile_qr_scan", "ios": "https://dc.lft.to/lastmile_qr_scan"}, "name": "4beef34cbdc84f5e62b059920a07a7a5", "is_reserved": 0}, {"is_disabled": 0, "fusion_lon": 0.0, "fusion_lat": 0.0, "lat": 38.993885, "type": "electric_bike", "lon": -77.02406383333333, "bike_id": "70e9c5559f0179cb3dbe3dc1c5ebf3c2", "rental_uris": {"android": "https://dc.lft.to/lastmile_qr_scan", "ios": "https://dc.lft.to/lastmile_qr_scan"}, "name": "70e9c5559f0179cb3dbe3dc1c5ebf3c2", "is_reserved": 0}, {"is_disabled": 0, "fusion_lon": 0.0, "fusion_lat": 0.0, "lat": 38.916183333333336, "type": "electric_scooter", "lon": -77.04869066666667, "bike_id": "f277c762ea01789eadd580c2ec73aa9b", "rental_uris": {"android": "https://dc.lft.to/lastmile_qr_scan", "ios": "https://dc.lft.to/lastmile_qr_scan"}, "name": "f277c762ea01789eadd580c2ec73aa9b", "is_reserved": 0}, {"is_disabled": 0, "fusion_lon": 0.0, "fusion_lat": 0.0, "lat": 38.919147333333335, "type": "electric_scooter", "lon": -77.01749816666667, "bike_id": "e15b9d05f0cc704dc7f3d2e390fbc84f", "rental_uris": {"android": "https://dc.lft.to/lastmile_qr_scan", "ios": "https://dc.lft.to/lastmile_qr_scan"}, "name": "e15b9d05f0cc704dc7f3d2e390fbc84f", "is_reserved": 0}, {"is_disabled": 0, "fusion_lon": 0.0, "fusion_lat": 0.0, "lat": 38.9260225, "type": "electric_scooter", "lon": -77.02424116666667, "bike_id": "aa6995751ea504ba35e5113abe4a4dd1", "rental_uris": {"android": "https://dc.lft.to/lastmile_qr_scan", "ios": "https://dc.lft.to/lastmile_qr_scan"}, "name": "aa6995751ea504ba35e5113abe4a4dd1", "is_reserved": 0}, {"is_disabled": 0, "fusion_lon": 0.0, "fusion_lat": 0.0, "lat": 38.91575816666667, "type": "electric_scooter", "lon": -77.04694166666667, "bike_id": "71beee8cca0a93a29b4fc4f520f94978", "rental_uris": {"android": "https://dc.lft.to/lastmile_qr_scan", "ios": "https://dc.lft.to/lastmile_qr_scan"}, "name": "71beee8cca0a93a29b4fc4f520f94978", "is_reserved": 0}, {"is_disabled": 0, "fusion_lon": 0.0, "fusion_lat": 0.0, "lat": 38.91263766666667, "type": "electric_scooter", "lon": -77.04155466666667, "bike_id": "d233758a3fa0702e69ed4758acbab2e1", "rental_uris": {"android": "https://dc.lft.to/lastmile_qr_scan", "ios": "https://dc.lft.to/lastmile_qr_scan"}, "name": "d233758a3fa0702e69ed4758acbab2e1", "is_reserved": 0}, {"is_disabled": 0, "fusion_lon": 0.0, "fusion_lat": 0.0, "lat": 38.833779666666665, "type": "electric_scooter", "lon": -76.99297666666666, "bike_id": "db74a0d4625cf4aafabb01b9f03126f1", "rental_uris": {"android": "https://dc.lft.to/lastmile_qr_scan", "ios": "https://dc.lft.to/lastmile_qr_scan"}, "name": "db74a0d4625cf4aafabb01b9f03126f1", "is_reserved": 0}, {"is_disabled": 0, "fusion_lon": 0.0, "fusion_lat": 0.0, "lat": 38.90582233333333, "type": "electric_scooter", "lon": -77.005692, "bike_id": "67c2f04ab1ef9ef0a83ea42f512426e7", "rental_uris": {"android": "https://dc.lft.to/lastmile_qr_scan", "ios": "https://dc.lft.to/lastmile_qr_scan"}, "name": "67c2f04ab1ef9ef0a83ea42f512426e7", "is_reserved": 0}, {"is_disabled": 0, "fusion_lon": 0.0, "fusion_lat": 0.0, "lat": 38.9001085, "type": "electric_scooter", "lon": -76.99634916666666, "bike_id": "c65734dba39cd738fe6ea30bbe577a76", "rental_uris": {"android": "https://dc.lft.to/lastmile_qr_scan", "ios": "https://dc.lft.to/lastmile_qr_scan"}, "name": "c65734dba39cd738fe6ea30bbe577a76", "is_reserved": 0}, {"is_disabled": 0, "fusion_lon": 0.0, "fusion_lat": 0.0, "lat": 38.91298916666667, "type": "electric_scooter", "lon": -77.03849133333334, "bike_id": "9a1a6e306c6be3abf7ae49b7d9fee3fa", "rental_uris": {"android": "https://dc.lft.to/lastmile_qr_scan", "ios": "https://dc.lft.to/lastmile_qr_scan"}, "name": "9a1a6e306c6be3abf7ae49b7d9fee3fa", "is_reserved": 0}, {"is_disabled": 0, "fusion_lon": 0.0, "fusion_lat": 0.0, "lat": 38.919242833333335, "type": "electric_scooter", "lon": -77.03131083333334, "bike_id": "d7abeb793bd4e1375a900914a219f787", "rental_uris": {"android": "https://dc.lft.to/lastmile_qr_scan", "ios": "https://dc.lft.to/lastmile_qr_scan"}, "name": "d7abeb793bd4e1375a900914a219f787", "is_reserved": 0}, {"is_disabled": 0, "fusion_lon": 0.0, "fusion_lat": 0.0, "lat": 38.918747833333335, "type": "electric_scooter", "lon": -77.03681633333333, "bike_id": "d54cdec57f3fcb7a9c1df4b021d9699a", "rental_uris": {"android": "https://dc.lft.to/lastmile_qr_scan", "ios": "https://dc.lft.to/lastmile_qr_scan"}, "name": "d54cdec57f3fcb7a9c1df4b021d9699a", "is_reserved": 0}, {"is_disabled": 0, "fusion_lon": 0.0, "fusion_lat": 0.0, "lat": 38.9065575, "type": "electric_scooter", "lon": -77.04537083333334, "bike_id": "f8c957c9b1342599654f335881af791d", "rental_uris": {"android": "https://dc.lft.to/lastmile_qr_scan", "ios": "https://dc.lft.to/lastmile_qr_scan"}, "name": "f8c957c9b1342599654f335881af791d", "is_reserved": 0}, {"is_disabled": 0, "fusion_lon": 0.0, "fusion_lat": 0.0, "lat": 38.912836166666665, "type": "electric_scooter", "lon": -77.0726085, "bike_id": "2c4fde5b19e240f495c8542e797056eb", "rental_uris": {"android": "https://dc.lft.to/lastmile_qr_scan", "ios": "https://dc.lft.to/lastmile_qr_scan"}, "name": "2c4fde5b19e240f495c8542e797056eb", "is_reserved": 0}, {"is_disabled": 0, "fusion_lon": 0.0, "fusion_lat": 0.0, "lat": 38.86692933333333, "type": "electric_scooter", "lon": -76.9871345, "bike_id": "5ce5bcd0f56a34f7a892b0e585bef958", "rental_uris": {"android": "https://dc.lft.to/lastmile_qr_scan", "ios": "https://dc.lft.to/lastmile_qr_scan"}, "name": "5ce5bcd0f56a34f7a892b0e585bef958", "is_reserved": 0}, {"is_disabled": 0, "fusion_lon": 0.0, "fusion_lat": 0.0, "lat": 38.925823, "type": "electric_scooter", "lon": -77.03210533333333, "bike_id": "c3407be22861d71cb0d6c912961694a0", "rental_uris": {"android": "https://dc.lft.to/lastmile_qr_scan", "ios": "https://dc.lft.to/lastmile_qr_scan"}, "name": "c3407be22861d71cb0d6c912961694a0", "is_reserved": 0}, {"is_disabled": 0, "fusion_lon": 0.0, "fusion_lat": 0.0, "lat": 38.91729016666667, "type": "electric_scooter", "lon": -77.00504166666667, "bike_id": "a8be8318238f639b28b6813b58ccad63", "rental_uris": {"android": "https://dc.lft.to/lastmile_qr_scan", "ios": "https://dc.lft.to/lastmile_qr_scan"}, "name": "a8be8318238f639b28b6813b58ccad63", "is_reserved": 0}, {"is_disabled": 0, "fusion_lon": 0.0, "fusion_lat": 0.0, "lat": 39.00785833333333, "type": "electric_bike", "lon": -76.995703, "bike_id": "b018395d30bcab9fb2f446c4bbc5fcfd", "rental_uris": {"android": "https://dc.lft.to/lastmile_qr_scan", "ios": "https://dc.lft.to/lastmile_qr_scan"}, "name": "b018395d30bcab9fb2f446c4bbc5fcfd", "is_reserved": 0}, {"is_disabled": 0, "fusion_lon": 0.0, "fusion_lat": 0.0, "lat": 38.90312316666667, "type": "electric_scooter", "lon": -77.023668, "bike_id": "639d49363b9f5ba96949b446b2021798", "rental_uris": {"android": "https://dc.lft.to/lastmile_qr_scan", "ios": "https://dc.lft.to/lastmile_qr_scan"}, "name": "639d49363b9f5ba96949b446b2021798", "is_reserved": 0}, {"is_disabled": 0, "fusion_lon": 0.0, "fusion_lat": 0.0, "lat": 38.917728833333335, "type": "electric_scooter", "lon": -77.02954016666666, "bike_id": "0c8524eb830d23e15908a909533b20b4", "rental_uris": {"android": "https://dc.lft.to/lastmile_qr_scan", "ios": "https://dc.lft.to/lastmile_qr_scan"}, "name": "0c8524eb830d23e15908a909533b20b4", "is_reserved": 0}, {"is_disabled": 0, "fusion_lon": 0.0, "fusion_lat": 0.0, "lat": 38.9196505, "type": "electric_scooter", "lon": -77.0321095, "bike_id": "5ca5b7d5fbe799505186417b3078ea0e", "rental_uris": {"android": "https://dc.lft.to/lastmile_qr_scan", "ios": "https://dc.lft.to/lastmile_qr_scan"}, "name": "5ca5b7d5fbe799505186417b3078ea0e", "is_reserved": 0}, {"is_disabled": 0, "fusion_lon": 0.0, "fusion_lat": 0.0, "lat": 38.896162, "type": "electric_scooter", "lon": -77.02675383333333, "bike_id": "5233ccbd144ac08c6d3a968db6d5a910", "rental_uris": {"android": "https://dc.lft.to/lastmile_qr_scan", "ios": "https://dc.lft.to/lastmile_qr_scan"}, "name": "5233ccbd144ac08c6d3a968db6d5a910", "is_reserved": 0}, {"is_disabled": 0, "fusion_lon": 0.0, "fusion_lat": 0.0, "lat": 38.942890166666665, "type": "electric_bike", "lon": -77.06920283333334, "bike_id": "b1315ceb022c1bdb505fc09f17aa5c44", "rental_uris": {"android": "https://dc.lft.to/lastmile_qr_scan", "ios": "https://dc.lft.to/lastmile_qr_scan"}, "name": "b1315ceb022c1bdb505fc09f17aa5c44", "is_reserved": 0}, {"is_disabled": 0, "fusion_lon": 0.0, "fusion_lat": 0.0, "lat": 38.919960833333334, "type": "electric_scooter", "lon": -77.03163583333334, "bike_id": "ab1f9379174141df90102ab26de202f6", "rental_uris": {"android": "https://dc.lft.to/lastmile_qr_scan", "ios": "https://dc.lft.to/lastmile_qr_scan"}, "name": "ab1f9379174141df90102ab26de202f6", "is_reserved": 0}, {"is_disabled": 0, "fusion_lon": 0.0, "fusion_lat": 0.0, "lat": 38.8738955, "type": "electric_scooter", "lon": -77.0019575, "bike_id": "d9caa00a6e7ab9b15065abedae703b8c", "rental_uris": {"android": "https://dc.lft.to/lastmile_qr_scan", "ios": "https://dc.lft.to/lastmile_qr_scan"}, "name": "d9caa00a6e7ab9b15065abedae703b8c", "is_reserved": 0}, {"is_disabled": 0, "fusion_lon": 0.0, "fusion_lat": 0.0, "lat": 38.93547316666667, "type": "electric_bike", "lon": -77.08201716666666, "bike_id": "84fa278129b75a4dfe5d071b2b3da265", "rental_uris": {"android": "https://dc.lft.to/lastmile_qr_scan", "ios": "https://dc.lft.to/lastmile_qr_scan"}, "name": "84fa278129b75a4dfe5d071b2b3da265", "is_reserved": 0}, {"is_disabled": 0, "fusion_lon": 0.0, "fusion_lat": 0.0, "lat": 38.893413, "type": "electric_scooter", "lon": -77.04660433333333, "bike_id": "b2ccfeca570742c3235729c69fce3c1c", "rental_uris": {"android": "https://dc.lft.to/lastmile_qr_scan", "ios": "https://dc.lft.to/lastmile_qr_scan"}, "name": "b2ccfeca570742c3235729c69fce3c1c", "is_reserved": 0}, {"is_disabled": 0, "fusion_lon": 0.0, "fusion_lat": 0.0, "lat": 38.914233, "type": "electric_scooter", "lon": -77.04157733333334, "bike_id": "507a3f0f2fbd21b780ee8736c71a0092", "rental_uris": {"android": "https://dc.lft.to/lastmile_qr_scan", "ios": "https://dc.lft.to/lastmile_qr_scan"}, "name": "507a3f0f2fbd21b780ee8736c71a0092", "is_reserved": 0}, {"is_disabled": 0, "fusion_lon": 0.0, "fusion_lat": 0.0, "lat": 38.89666716666667, "type": "electric_scooter", "lon": -76.94701516666666, "bike_id": "5562ba0774af25ef808125fcf3ae0b56", "rental_uris": {"android": "https://dc.lft.to/lastmile_qr_scan", "ios": "https://dc.lft.to/lastmile_qr_scan"}, "name": "5562ba0774af25ef808125fcf3ae0b56", "is_reserved": 0}, {"is_disabled": 0, "fusion_lon": 0.0, "fusion_lat": 0.0, "lat": 38.8484665, "type": "electric_bike", "lon": -77.08049866666667, "bike_id": "7257620eff992e5b202970e980eccb92", "rental_uris": {"android": "https://dc.lft.to/lastmile_qr_scan", "ios": "https://dc.lft.to/lastmile_qr_scan"}, "name": "7257620eff992e5b202970e980eccb92", "is_reserved": 0}, {"is_disabled": 0, "fusion_lon": 0.0, "fusion_lat": 0.0, "lat": 38.953560333333336, "type": "electric_bike", "lon": -76.98093516666667, "bike_id": "c852d87b7c6d6257dd1dd7b3b3308e9c", "rental_uris": {"android": "https://dc.lft.to/lastmile_qr_scan", "ios": "https://dc.lft.to/lastmile_qr_scan"}, "name": "c852d87b7c6d6257dd1dd7b3b3308e9c", "is_reserved": 0}, {"is_disabled": 0, "fusion_lon": 0.0, "fusion_lat": 0.0, "lat": 38.9142105, "type": "electric_scooter", "lon": -77.04152833333333, "bike_id": "b0592f0202a958283b33a99a031616d5", "rental_uris": {"android": "https://dc.lft.to/lastmile_qr_scan", "ios": "https://dc.lft.to/lastmile_qr_scan"}, "name": "b0592f0202a958283b33a99a031616d5", "is_reserved": 0},