{"data": {"bikes": [{"rental_uris": {"ios": "https://dc.lft.to/lastmile_qr_scan", "android": "https://dc.lft.to/lastmile_qr_scan"}, "lon": -77.053582, "type": "electric_scooter", "fusion_lat": 0.0, "lat": 38.902648166666665, "name": "9026a53b315cbc138711421410b820b6", "fusion_lon": 0.0, "bike_id": "9026a53b315cbc138711421410b820b6", "is_disabled": 0, "is_reserved": 0}, {"rental_uris": {"ios": "https://dc.lft.to/lastmile_qr_scan", "android": "https://dc.lft.to/lastmile_qr_scan"}, "lon": -76.93096133333333, "type": "electric_scooter", "fusion_lat": 0.0, "lat": 38.90137383333333, "name": "712a670d6268c812f1bb2b64f5e2eb93", "fusion_lon": 0.0, "bike_id": "712a670d6268c812f1bb2b64f5e2eb93", "is_disabled": 0, "is_reserved": 0}, {"rental_uris": {"ios": "https://dc.lft.to/lastmile_qr_scan", "android": "https://dc.lft.to/lastmile_qr_scan"}, "lon": -76.98545, "type": "electric_scooter", "fusion_lat": 0.0, "lat": 38.87855833333333, "name": "c56c94027132a903bd26e6fdf98785bb", "fusion_lon": 0.0, "bike_id": "c56c94027132a903bd26e6fdf98785bb", "is_disabled": 0, "is_reserved": 0}, {"rental_uris": {"ios": "https://dc.lft.to/lastmile_qr_scan", "android": "https://dc.lft.to/lastmile_qr_scan"}, "lon": -77.0300055, "type": "electric_bike", "fusion_lat": 0.0, "lat": 38.9045155, "name": "a21d10eaca3b35fb35542206e1e1ffd2", "fusion_lon": 0.0, "bike_id": "a21d10eaca3b35fb35542206e1e1ffd2", "is_disabled": 0, "is_reserved": 0}, {"rental_uris": {"ios": "https://dc.lft.to/lastmile_qr_scan", "android": "https://dc.lft.to/lastmile_qr_scan"}, "lon": -77.04904883333333, "type": "electric_scooter", "fusion_lat": 0.0, "lat": 38.88832883333333, "name": "bd7439c2be8207a8fee3afe8e864d23f", "fusion_lon": 0.0, "bike_id": "bd7439c2be8207a8fee3afe8e864d23f", "is_disabled": 0, "is_reserved": 0}, {"rental_uris": {"ios": "https://dc.lft.to/lastmile_qr_scan", "android": "https://dc.lft.to/lastmile_qr_scan"}, "lon": -77.17841266666667, "type": "electric_bike", "fusion_lat": 0.0, "lat": 39.0885655, "name": "d9e83e43e7258519aa7b02adae2b2f92", "fusion_lon": 0.0, "bike_id": "d9e83e43e7258519aa7b02adae2b2f92", "is_disabled": 0, "is_reserved": 0}, {"rental_uris": {"ios": "https://dc.lft.to/lastmile_qr_scan", "android": "https://dc.lft.to/lastmile_qr_scan"}, "lon": -77.04271216666666, "type": "electric_scooter", "fusion_lat": 0.0, "lat": 38.917783, "name": "0a5474a92a1475fa14c8ba728275d728", "fusion_lon": 0.0, "bike_id": "0a5474a92a1475fa14c8ba728275d728", "is_disabled": 0, "is_reserved": 0}, {"rental_uris": {"ios": "https://dc.lft.to/lastmile_qr_scan", "android": "https://dc.lft.to/lastmile_qr_scan"}, "lon": -77.04304466666666, "type": "electric_bike", "fusion_lat": 0.0, "lat": 39.054429, "name": "dce0e5b75860687a1cd2f46747154226", "fusion_lon": 0.0, "bike_id": "dce0e5b75860687a1cd2f46747154226", "is_disabled": 0, "is_reserved": 0}, {"rental_uris": {"ios": "https://dc.lft.to/lastmile_qr_scan", "android": "https://dc.lft.to/lastmile_qr_scan"}, "lon": -77.05148183333333, "type": "electric_scooter", "fusion_lat": 0.0, "lat": 38.923713166666666, "name": "27c2c82e482ff5fc76c337e8f30d2f3c", "fusion_lon": 0.0, "bike_id": "27c2c82e482ff5fc76c337e8f30d2f3c", "is_disabled": 0, "is_reserved": 0}, {"rental_uris": {"ios": "https://dc.lft.to/lastmile_qr_scan", "android": "https://dc.lft.to/lastmile_qr_scan"}, "lon": -77.0198955, "type": "electric_scooter", "fusion_lat": 0.0, "lat": 38.87739083333334, "name": "06865d35890e548b35dd8eec8582753c", "fusion_lon": 0.0, "bike_id": "06865d35890e548b35dd8eec8582753c", "is_disabled": 0, "is_reserved": 0}, {"rental_uris": {"ios": "https://dc.lft.to/lastmile_qr_scan", "android": "https://dc.lft.to/lastmile_qr_scan"}, "lon": -76.989005, "type": "electric_scooter", "fusion_lat": 0.0, "lat": 38.86692633333333, "name": "b0b05047f27864e5e91bf3d984893eb3", "fusion_lon": 0.0, "bike_id": "b0b05047f27864e5e91bf3d984893eb3", "is_disabled": 0, "is_reserved": 0}, {"rental_uris": {"ios": "https://dc.lft.to/lastmile_qr_scan", "android": "https://dc.lft.to/lastmile_qr_scan"}, "lon": -77.0260575, "type": "electric_scooter", "fusion_lat": 0.0, "lat": 38.89735916666667, "name": "856fda1f47bf33b09c5e13e47b56301b", "fusion_lon": 0.0, "bike_id": "856fda1f47bf33b09c5e13e47b56301b", "is_disabled": 0, "is_reserved": 0}, {"rental_uris": {"ios": "https://dc.lft.to/lastmile_qr_scan", "android": "https://dc.lft.to/lastmile_qr_scan"}, "lon": -77.05145666666667, "type": "electric_scooter", "fusion_lat": 0.0, "lat": 38.905233833333334, "name": "a2e85f09b9f82e0e430ddd29360ffe55", "fusion_lon": 0.0, "bike_id": "a2e85f09b9f82e0e430ddd29360ffe55", "is_disabled": 0, "is_reserved": 0}, {"rental_uris": {"ios": "https://dc.lft.to/lastmile_qr_scan", "android": "https://dc.lft.to/lastmile_qr_scan"}, "lon": -76.95357683333333, "type": "electric_bike", "fusion_lat": 0.0, "lat": 38.939541, "name": "65a03c0f5a0bee422da78c57cee12fe7", "fusion_lon": 0.0, "bike_id": "65a03c0f5a0bee422da78c57cee12fe7", "is_disabled": 0, "is_reserved": 0}, {"rental_uris": {"ios": "https://dc.lft.to/lastmile_qr_scan", "android": "https://dc.lft.to/lastmile_qr_scan"}, "lon": -77.04256633333334, "type": "electric_scooter", "fusion_lat": 0.0, "lat": 38.9205285, "name": "4c2245b77ae4ee045cc33073b64f3811", "fusion_lon": 0.0, "bike_id": "4c2245b77ae4ee045cc33073b64f3811", "is_disabled": 0, "is_reserved": 0}, {"rental_uris": {"ios": "https://dc.lft.to/lastmile_qr_scan", "android": "https://dc.lft.to/lastmile_qr_scan"}, "lon": -77.04124116666667, "type": "electric_scooter", "fusion_lat": 0.0, "lat": 38.92167716666667, "name": "7104cd86bdb4ed3f8f56ebd5fc49116a", "fusion_lon": 0.0, "bike_id": "7104cd86bdb4ed3f8f56ebd5fc49116a", "is_disabled": 0, "is_reserved": 0}, {"rental_uris": {"ios": "https://dc.lft.to/lastmile_qr_scan", "android": "https://dc.lft.to/lastmile_qr_scan"}, "lon": -76.985638, "type": "electric_scooter", "fusion_lat": 0.0, "lat": 38.899560666666666, "name": "059085cbf93a811bb7e7d2264e48c04c", "fusion_lon": 0.0, "bike_id": "059085cbf93a811bb7e7d2264e48c04c", "is_disabled": 0, "is_reserved": 0}, {"rental_uris": {"ios": "https://dc.lft.to/lastmile_qr_scan", "android": "https://dc.lft.to/lastmile_qr_scan"}, "lon": -77.0384805, "type": "electric_scooter", "fusion_lat": 0.0, "lat": 38.915617833333336, "name": "68b552872ff16fca013839c445a66eba", "fusion_lon": 0.0, "bike_id": "68b552872ff16fca013839c445a66eba", "is_disabled": 0, "is_reserved": 0}, {"rental_uris": {"ios": "https://dc.lft.to/lastmile_qr_scan", "android": "https://dc.lft.to/lastmile_qr_scan"}, "lon": -76.97703516666667, "type": "electric_scooter", "fusion_lat": 0.0, "lat": 38.90244933333334, "name": "681dc2021df08eb2c35536d77acf8641", "fusion_lon": 0.0, "bike_id": "681dc2021df08eb2c35536d77acf8641", "is_disabled": 0, "is_reserved": 0}, {"rental_uris": {"ios": "https://dc.lft.to/lastmile_qr_scan", "android": "https://dc.lft.to/lastmile_qr_scan"}, "lon": -76.98883316666667, "type": "electric_scooter", "fusion_lat": 0.0, "lat": 38.866546666666665, "name": "689de5d4d4659b36df9972f780ec0d42", "fusion_lon": 0.0, "bike_id": "689de5d4d4659b36df9972f780ec0d42", "is_disabled": 0, "is_reserved": 0}, {"rental_uris": {"ios": "https://dc.lft.to/lastmile_qr_scan", "android": "https://dc.lft.to/lastmile_qr_scan"}, "lon": -77.096732, "type": "electric_scooter", "fusion_lat": 0.0, "lat": 38.91769333333333, "name": "ac8adf8adbb96611d761d914ce9adddf", "fusion_lon": 0.0, "bike_id": "ac8adf8adbb96611d761d914ce9adddf", "is_disabled": 0, "is_reserved": 0}, {"rental_uris": {"ios": "https://dc.lft.to/lastmile_qr_scan", "android": "https://dc.lft.to/lastmile_qr_scan"}, "lon": -77.0275025, "type": "electric_scooter", "fusion_lat": 0.0, "lat": 38.8815375, "name": "99a6e6b82f171aa7b5b6191833d307ee", "fusion_lon": 0.0, "bike_id": "99a6e6b82f171aa7b5b6191833d307ee", "is_disabled": 0, "is_reserved": 0}, {"rental_uris": {"ios": "https://dc.lft.to/lastmile_qr_scan", "android": "https://dc.lft.to/lastmile_qr_scan"}, "lon": -77.02379683333334, "type": "electric_scooter", "fusion_lat": 0.0, "lat": 38.932002, "name": "9ea4150e44654477b3b75da94cffb521", "fusion_lon": 0.0, "bike_id": "9ea4150e44654477b3b75da94cffb521", "is_disabled": 0, "is_reserved": 0}, {"rental_uris": {"ios": "https://dc.lft.to/lastmile_qr_scan", "android": "https://dc.lft.to/lastmile_qr_scan"}, "lon": -77.00431133333333, "type": "electric_scooter", "fusion_lat": 0.0, "lat": 38.90394833333333, "name": "51bcf77909a9fefe0514dd7c73dddd20", "fusion_lon": 0.0, "bike_id": "51bcf77909a9fefe0514dd7c73dddd20", "is_disabled": 0, "is_reserved": 0}, {"rental_uris": {"ios": "https://dc.lft.to/lastmile_qr_scan", "android": "https://dc.lft.to/lastmile_qr_scan"}, "lon": -77.0578695, "type": "electric_scooter", "fusion_lat": 0.0, "lat": 38.90512716666667, "name": "f7f701c67cc2b777d4ac6d79a1db5784", "fusion_lon": 0.0, "bike_id": "f7f701c67cc2b777d4ac6d79a1db5784", "is_disabled": 0, "is_reserved": 0}, {"rental_uris": {"ios": "https://dc.lft.to/lastmile_qr_scan", "android": "https://dc.lft.to/lastmile_qr_scan"}, "lon": -77.03016916666667, "type": "electric_scooter", "fusion_lat": 0.0, "lat": 38.897166666666664, "name": "fa957b85e404c5ca1404e2744e62996c", "fusion_lon": 0.0, "bike_id": "fa957b85e404c5ca1404e2744e62996c", "is_disabled": 0, "is_reserved": 0}, {"rental_uris": {"ios": "https://dc.lft.to/lastmile_qr_scan", "android": "https://dc.lft.to/lastmile_qr_scan"}, "lon": -76.93825683333333, "type": "electric_scooter", "fusion_lat": 0.0, "lat": 38.897554, "name": "5fc0dd98b92c3d5d511587ea0a358983", "fusion_lon": 0.0, "bike_id": "5fc0dd98b92c3d5d511587ea0a358983", "is_disabled": 0, "is_reserved": 0}, {"rental_uris": {"ios": "https://dc.lft.to/lastmile_qr_scan", "android": "https://dc.lft.to/lastmile_qr_scan"}, "lon": -77.03197733333333, "type": "electric_scooter", "fusion_lat": 0.0, "lat": 38.914247333333336, "name": "2fc1b95b461c0e7c70f49cbf5ff5db55", "fusion_lon": 0.0, "bike_id": "2fc1b95b461c0e7c70f49cbf5ff5db55", "is_disabled": 0, "is_reserved": 0}, {"rental_uris": {"ios": "https://dc.lft.to/lastmile_qr_scan", "android": "https://dc.lft.to/lastmile_qr_scan"}, "lon": -77.03505716666666, "type": "electric_scooter", "fusion_lat": 0.0, "lat": 38.921472, "name": "3350df9215fb4412462fe4dde31e9073", "fusion_lon": 0.0, "bike_id": "3350df9215fb4412462fe4dde31e9073", "is_disabled": 0, "is_reserved": 0}, {"rental_uris": {"ios": "https://dc.lft.to/lastmile_qr_scan", "android": "https://dc.lft.to/lastmile_qr_scan"}, "lon": -77.00114066666667, "type": "electric_scooter", "fusion_lat": 0.0, "lat": 38.8943725, "name": "0fb65f93819df9bde550a2efeef4f304", "fusion_lon": 0.0, "bike_id": "0fb65f93819df9bde550a2efeef4f304", "is_disabled": 0, "is_reserved": 0}, {"rental_uris": {"ios": "https://dc.lft.to/lastmile_qr_scan", "android": "https://dc.lft.to/lastmile_qr_scan"}, "lon": -77.0442075, "type": "electric_scooter", "fusion_lat": 0.0, "lat": 38.92109633333333, "name": "26fb756be680913f69bcac8937dbaabb", "fusion_lon": 0.0, "bike_id": "26fb756be680913f69bcac8937dbaabb", "is_disabled": 0, "is_reserved": 0}, {"rental_uris": {"ios": "https://dc.lft.to/lastmile_qr_scan", "android": "https://dc.lft.to/lastmile_qr_scan"}, "lon": -76.96504683333333, "type": "electric_scooter", "fusion_lat": 0.0, "lat": 38.87648, "name": "9670ad11c99cf19e7dda8f48a2e0b8fc", "fusion_lon": 0.0, "bike_id": "9670ad11c99cf19e7dda8f48a2e0b8fc", "is_disabled": 0, "is_reserved": 0}, {"rental_uris": {"ios": "https://dc.lft.to/lastmile_qr_scan", "android": "https://dc.lft.to/lastmile_qr_scan"}, "lon": -77.02964283333333, "type": "electric_scooter", "fusion_lat": 0.0, "lat": 38.90485916666667, "name": "6107c1d929b552af25a745538afba68e", "fusion_lon": 0.0, "bike_id": "6107c1d929b552af25a745538afba68e", "is_disabled": 0, "is_reserved": 0}, {"rental_uris": {"ios": "https://dc.lft.to/lastmile_qr_scan", "android": "https://dc.lft.to/lastmile_qr_scan"}, "lon": -77.02794683333333, "type": "electric_scooter", "fusion_lat": 0.0, "lat": 38.92471183333333, "name": "e6664e6454dd446e88ad5f02bdab47eb", "fusion_lon": 0.0, "bike_id": "e6664e6454dd446e88ad5f02bdab47eb", "is_disabled": 0, "is_reserved": 0}, {"rental_uris": {"ios": "https://dc.lft.to/lastmile_qr_scan", "android": "https://dc.lft.to/lastmile_qr_scan"}, "lon": -77.007393, "type": "electric_scooter", "fusion_lat": 0.0, "lat": 38.955247166666666, "name": "94994de6eb34fbbb552620ae371e4e8b", "fusion_lon": 0.0, "bike_id": "94994de6eb34fbbb552620ae371e4e8b", "is_disabled": 0, "is_reserved": 0}, {"rental_uris": {"ios": "https://dc.lft.to/lastmile_qr_scan", "android": "https://dc.lft.to/lastmile_qr_scan"}, "lon": -77.042395, "type": "electric_scooter", "fusion_lat": 0.0, "lat": 38.921490666666664, "name": "09b7ca2bf86244a6940d6af4129cad9d", "fusion_lon": 0.0, "bike_id": "09b7ca2bf86244a6940d6af4129cad9d", "is_disabled": 0, "is_reserved": 0}, {"rental_uris": {"ios": "https://dc.lft.to/lastmile_qr_scan", "android": "https://dc.lft.to/lastmile_qr_scan"}, "lon": -77.03991733333334, "type": "electric_scooter", "fusion_lat": 0.0, "lat": 38.90038233333333, "name": "0ec08d0358e5db76d91484d95a1dbe22", "fusion_lon": 0.0, "bike_id": "0ec08d0358e5db76d91484d95a1dbe22", "is_disabled": 0, "is_reserved": 0}, {"rental_uris": {"ios": "https://dc.lft.to/lastmile_qr_scan", "android": "https://dc.lft.to/lastmile_qr_scan"}, "lon": -76.9900095, "type": "electric_scooter", "fusion_lat": 0.0, "lat": 38.865019, "name": "bd1a75ead24fdca188971f24a55df51f", "fusion_lon": 0.0, "bike_id": "bd1a75ead24fdca188971f24a55df51f", "is_disabled": 0, "is_reserved": 0}, {"rental_uris": {"ios": "https://dc.lft.to/lastmile_qr_scan", "android": "https://dc.lft.to/lastmile_qr_scan"}, "lon": -77.03246883333334, "type": "electric_scooter", "fusion_lat": 0.0, "lat": 38.912859166666664, "name": "d6d6734acc2828f247ae9552b903c903", "fusion_lon": 0.0, "bike_id": "d6d6734acc2828f247ae9552b903c903", "is_disabled": 0, "is_reserved": 0}, {"rental_uris": {"ios": "https://dc.lft.to/lastmile_qr_scan", "android": "https://dc.lft.to/lastmile_qr_scan"}, "lon": -77.0030505, "type": "electric_scooter", "fusion_lat": 0.0, "lat": 38.887663, "name": "4a80f23d80a3cdd5a1811786bf4132bd", "fusion_lon": 0.0, "bike_id": "4a80f23d80a3cdd5a1811786bf4132bd", "is_disabled": 0, "is_reserved": 0}, {"rental_uris": {"ios": "https://dc.lft.to/lastmile_qr_scan", "android": "https://dc.lft.to/lastmile_qr_scan"}, "lon": -77.06109233333333, "type": "electric_scooter", "fusion_lat": 0.0, "lat": 38.91286266666667, "name": "0ca099933eff0042c3d92273cb97cd29", "fusion_lon": 0.0, "bike_id": "0ca099933eff0042c3d92273cb97cd29", "is_disabled": 0, "is_reserved": 0}, {"rental_uris": {"ios": "https://dc.lft.to/lastmile_qr_scan", "android": "https://dc.lft.to/lastmile_qr_scan"}, "lon": -76.9830845, "type": "electric_scooter", "fusion_lat": 0.0, "lat": 38.89965016666667, "name": "fec4eedbce137eaf74c267bd519ca7fb", "fusion_lon": 0.0, "bike_id": "fec4eedbce137eaf74c267bd519ca7fb", "is_disabled": 0, "is_reserved": 0}, {"rental_uris": {"ios": "https://dc.lft.to/lastmile_qr_scan", "android": "https://dc.lft.to/lastmile_qr_scan"}, "lon": -77.0314865, "type": "electric_scooter", "fusion_lat": 0.0, "lat": 38.912742, "name": "7c585e5885f8e8e91cda19890d9b5780", "fusion_lon": 0.0, "bike_id": "7c585e5885f8e8e91cda19890d9b5780", "is_disabled": 0, "is_reserved": 0}, {"rental_uris": {"ios": "https://dc.lft.to/lastmile_qr_scan", "android": "https://dc.lft.to/lastmile_qr_scan"}, "lon": -77.0646485, "type": "electric_scooter", "fusion_lat": 0.0, "lat": 38.9050785, "name": "9ccd0838cd478d8e686f3bf03176e3c2", "fusion_lon": 0.0, "bike_id": "9ccd0838cd478d8e686f3bf03176e3c2", "is_disabled": 0, "is_reserved": 0}, {"rental_uris": {"ios": "https://dc.lft.to/lastmile_qr_scan", "android": "https://dc.lft.to/lastmile_qr_scan"}, "lon": -77.010114, "type": "electric_scooter", "fusion_lat": 0.0, "lat": 38.918046833333335, "name": "687b662867241a2bc7cd05bb31cd0978", "fusion_lon": 0.0, "bike_id": "687b662867241a2bc7cd05bb31cd0978", "is_disabled": 0, "is_reserved": 0}, {"rental_uris": {"ios": "https://dc.lft.to/lastmile_qr_scan", "android": "https://dc.lft.to/lastmile_qr_scan"}, "lon": -76.98995516666666, "type": "electric_scooter", "fusion_lat": 0.0, "lat": 38.90381983333333, "name": "e618032937173eb9c6528a47f2ea9035", "fusion_lon": 0.0, "bike_id": "e618032937173eb9c6528a47f2ea9035", "is_disabled": 0, "is_reserved": 0}, {"rental_uris": {"ios": "https://dc.lft.to/lastmile_qr_scan", "android": "https://dc.lft.to/lastmile_qr_scan"}, "lon": -77.034652, "type": "electric_scooter", "fusion_lat": 0.0, "lat": 38.9344195, "name": "5ed346e2103440e5be96ff62c9619cce", "fusion_lon": 0.0, "bike_id": "5ed346e2103440e5be96ff62c9619cce", "is_disabled": 0, "is_reserved": 0}, {"rental_uris": {"ios": "https://dc.lft.to/lastmile_qr_scan", "android": "https://dc.lft.to/lastmile_qr_scan"}, "lon": -77.0428665, "type": "electric_scooter", "fusion_lat": 0.0, "lat": 38.90656033333333, "name": "c77b67a8344428e02cc75488ecdd80f7", "fusion_lon": 0.0, "bike_id": "c77b67a8344428e02cc75488ecdd80f7", "is_disabled": 0, "is_reserved": 0}, {"rental_uris": {"ios": "https://dc.lft.to/lastmile_qr_scan", "android": "https://dc.lft.to/lastmile_qr_scan"}, "lon": -76.99553616666667, "type": "electric_scooter", "fusion_lat": 0.0, "lat": 38.86234233333333, "name": "beee668e4a3ee2ff777429c13a01793d", "fusion_lon": 0.0, "bike_id": "beee668e4a3ee2ff777429c13a01793d", "is_disabled": 0, "is_reserved": 0}, {"rental_uris": {"ios": "https://dc.lft.to/lastmile_qr_scan", "android": "https://dc.lft.to/lastmile_qr_scan"}, "lon": -77.03198516666667, "type": "electric_scooter", "fusion_lat": 0.0, "lat": 38.914543333333334, "name": "adebac4f49d0e6ad35ec57a18035cbd8", "fusion_lon": 0.0, "bike_id": "adebac4f49d0e6ad35ec57a18035cbd8", "is_disabled": 0, "is_reserved": 0}, {"rental_uris": {"ios": "https://dc.lft.to/lastmile_qr_scan", "android": "https://dc.lft.to/lastmile_qr_scan"}, "lon": -77.01988216666666, "type": "electric_scooter", "fusion_lat": 0.0, "lat": 38.9377585, "name": "79ced6f79112c537e015dad647afc4d7", "fusion_lon": 0.0, "bike_id": "79ced6f79112c537e015dad647afc4d7", "is_disabled": 0, "is_reserved": 0}, {"rental_uris": {"ios": "https://dc.lft.to/lastmile_qr_scan", "android": "https://dc.lft.to/lastmile_qr_scan"}, "lon": -77.048158, "type": "electric_scooter", "fusion_lat": 0.0, "lat": 38.92037366666667, "name": "c56ea496579c65c0e53b03d68b070d98", "fusion_lon": 0.0, "bike_id": "c56ea496579c65c0e53b03d68b070d98", "is_disabled": 0, "is_reserved": 0}, {"rental_uris": {"ios": "https://dc.lft.to/lastmile_qr_scan", "android": "https://dc.lft.to/lastmile_qr_scan"}, "lon": -76.99814383333333, "type": "electric_bike", "fusion_lat": 0.0, "lat": 38.84431566666667, "name": "e388a6f35f34a9582afb079e890c0f56", "fusion_lon": 0.0, "bike_id": "e388a6f35f34a9582afb079e890c0f56", "is_disabled": 0, "is_reserved": 0}, {"rental_uris": {"ios": "https://dc.lft.to/lastmile_qr_scan", "android": "https://dc.lft.to/lastmile_qr_scan"}, "lon": -77.03211433333334, "type": "electric_scooter", "fusion_lat": 0.0, "lat": 38.91602533333333, "name": "03312fc448eab8c9db80c1401e18826e", "fusion_lon": 0.0, "bike_id": "03312fc448eab8c9db80c1401e18826e", "is_disabled": 0, "is_reserved": 0}, {"rental_uris": {"ios": "https://dc.lft.to/lastmile_qr_scan", "android": "https://dc.lft.to/lastmile_qr_scan"}, "lon": -77.0431155, "type": "electric_bike", "fusion_lat": 0.0, "lat": 38.92793183333333, "name": "062261e9e3917cc217ed8c6814dba0f6", "fusion_lon": 0.0, "bike_id": "062261e9e3917cc217ed8c6814dba0f6", "is_disabled": 0, "is_reserved": 0}, {"rental_uris": {"ios": "https://dc.lft.to/lastmile_qr_scan", "android": "https://dc.lft.to/lastmile_qr_scan"}, "lon": -77.03671466666667, "type": "electric_scooter", "fusion_lat": 0.0, "lat": 38.918140333333334, "name": "bccfba95209a272463f1a252ab2213dc", "fusion_lon": 0.0, "bike_id": "bccfba95209a272463f1a252ab2213dc", "is_disabled": 0, "is_reserved": 0}, {"rental_uris": {"ios": "https://dc.lft.to/lastmile_qr_scan", "android": "https://dc.lft.to/lastmile_qr_scan"}, "lon": -77.00068166666667, "type": "electric_scooter", "fusion_lat": 0.0, "lat": 38.925479, "name": "90fbc17a81e3275bbda5533d378b382b", "fusion_lon": 0.0, "bike_id": "90fbc17a81e3275bbda5533d378b382b", "is_disabled": 0, "is_reserved": 0}, {"rental_uris": {"ios": "https://dc.lft.to/lastmile_qr_scan", "android": "https://dc.lft.to/lastmile_qr_scan"}, "lon": -77.03552033333334, "type": "electric_scooter", "fusion_lat": 0.0, "lat": 38.912689, "name": "4a4fa9dc086cce58ab330a8b61e854bd", "fusion_lon": 0.0, "bike_id": "4a4fa9dc086cce58ab330a8b61e854bd", "is_disabled": 0, "is_reserved": 0}, {"rental_uris": {"ios": "https://dc.lft.to/lastmile_qr_scan", "android": "https://dc.lft.to/lastmile_qr_scan"}, "lon": -77.00497683333333, "type": "electric_scooter", "fusion_lat": 0.0, "lat": 38.8967965, "name": "7c0742f0338fcd1768e0963df209c5e4", "fusion_lon": 0.0, "bike_id": "7c0742f0338fcd1768e0963df209c5e4", "is_disabled": 0, "is_reserved": 0}, {"rental_uris": {"ios": "https://dc.lft.to/lastmile_qr_scan", "android": "https://dc.lft.to/lastmile_qr_scan"}, "lon": -77.022891, "type": "electric_scooter", "fusion_lat": 0.0, "lat": 38.91565766666667, "name": "c13ab6647e9d97708fbd44eec28301d0", "fusion_lon": 0.0, "bike_id": "c13ab6647e9d97708fbd44eec28301d0", "is_disabled": 0, "is_reserved": 0}, {"rental_uris": {"ios": "https://dc.lft.to/lastmile_qr_scan", "android": "https://dc.lft.to/lastmile_qr_scan"}, "lon": -77.02309716666667, "type": "electric_scooter", "fusion_lat": 0.0, "lat": 38.909551666666665, "name": "a14013b8690d4ac108670edaf64d321b", "fusion_lon": 0.0, "bike_id": "a14013b8690d4ac108670edaf64d321b", "is_disabled": 0, "is_reserved": 0}, {"rental_uris": {"ios": "https://dc.lft.to/lastmile_qr_scan", "android": "https://dc.lft.to/lastmile_qr_scan"}, "lon": -76.988838, "type": "electric_scooter", "fusion_lat": 0.0, "lat": 38.86652016666667, "name": "ebeca202bbf65990cfe33e2f2619352f", "fusion_lon": 0.0, "bike_id": "ebeca202bbf65990cfe33e2f2619352f", "is_disabled": 0, "is_reserved": 0}, {"rental_uris": {"ios": "https://dc.lft.to/lastmile_qr_scan", "android": "https://dc.lft.to/lastmile_qr_scan"}, "lon": -76.94995633333333, "type": "electric_scooter", "fusion_lat": 0.0, "lat": 38.8936905, "name": "75bbd7818afe86bc7d4ba9432eb4e2a5", "fusion_lon": 0.0, "bike_id": "75bbd7818afe86bc7d4ba9432eb4e2a5", "is_disabled": 0, "is_reserved": 0}, {"rental_uris": {"ios": "https://dc.lft.to/lastmile_qr_scan", "android": "https://dc.lft.to/lastmile_qr_scan"}, "lon": -77.03217766666667, "type": "electric_scooter", "fusion_lat": 0.0, "lat": 38.91263266666667, "name": "4bd47580e2690466a766f705affe5e84", "fusion_lon": 0.0, "bike_id": "4bd47580e2690466a766f705affe5e84", "is_disabled": 0, "is_reserved": 0}, {"rental_uris": {"ios": "https://dc.lft.to/lastmile_qr_scan", "android": "https://dc.lft.to/lastmile_qr_scan"}, "lon": -77.020049, "type": "electric_scooter", "fusion_lat": 0.0, "lat": 38.91909583333333, "name": "f355553dd4f1f97d510b94228977e1b7", "fusion_lon": 0.0, "bike_id": "f355553dd4f1f97d510b94228977e1b7", "is_disabled": 0, "is_reserved": 0}, {"rental_uris": {"ios": "https://dc.lft.to/lastmile_qr_scan", "android": "https://dc.lft.to/lastmile_qr_scan"}, "lon": -77.0259875, "type": "electric_scooter", "fusion_lat": 0.0, "lat": 38.905619333333334, "name": "19421eab47a3fe9d1e432c21a108f539", "fusion_lon": 0.0, "bike_id": "19421eab47a3fe9d1e432c21a108f539", "is_disabled": 0, "is_reserved": 0}, {"rental_uris": {"ios": "https://dc.lft.to/lastmile_qr_scan", "android": "https://dc.lft.to/lastmile_qr_scan"}, "lon": -77.0321105, "type": "electric_scooter", "fusion_lat": 0.0, "lat": 38.91999883333333, "name": "0153c6c8da01635bf38cc98e05806b19", "fusion_lon": 0.0, "bike_id": "0153c6c8da01635bf38cc98e05806b19", "is_disabled": 0, "is_reserved": 0}, {"rental_uris": {"ios": "https://dc.lft.to/lastmile_qr_scan", "android": "https://dc.lft.to/lastmile_qr_scan"}, "lon": -77.032698, "type": "electric_scooter", "fusion_lat": 0.0, "lat": 38.930974666666664, "name": "ccf223dbaf0abe2337112ff24a8b0cb5", "fusion_lon": 0.0, "bike_id": "ccf223dbaf0abe2337112ff24a8b0cb5", "is_disabled": 0, "is_reserved": 0}, {"rental_uris": {"ios": "https://dc.lft.to/lastmile_qr_scan", "android": "https://dc.lft.to/lastmile_qr_scan"}, "lon": -77.0163355, "type": "electric_scooter", "fusion_lat": 0.0, "lat": 38.92946366666666, "name": "3cba6f45319854abfc540ea3b81eee56", "fusion_lon": 0.0, "bike_id": "3cba6f45319854abfc540ea3b81eee56", "is_disabled": 0, "is_reserved": 0}, {"rental_uris": {"ios": "https://dc.lft.to/lastmile_qr_scan", "android": "https://dc.lft.to/lastmile_qr_scan"}, "lon": -77.03319333333333, "type": "electric_scooter", "fusion_lat": 0.0, "lat": 38.898891, "name": "e2b443fc0cac05a3cd9b1e0fd43480e8", "fusion_lon": 0.0, "bike_id": "e2b443fc0cac05a3cd9b1e0fd43480e8", "is_disabled": 0, "is_reserved": 0}, {"rental_uris": {"ios": "https://dc.lft.to/lastmile_qr_scan", "android": "https://dc.lft.to/lastmile_qr_scan"}, "lon": -77.0412435, "type": "electric_scooter", "fusion_lat": 0.0, "lat": 38.918866, "name": "935b5977080120a2727a62c2d2c69d37", "fusion_lon": 0.0, "bike_id": "935b5977080120a2727a62c2d2c69d37", "is_disabled": 0, "is_reserved": 0}, {"rental_uris": {"ios": "https://dc.lft.to/lastmile_qr_scan", "android": "https://dc.lft.to/lastmile_qr_scan"}, "lon": -77.14994783333333, "type": "electric_bike", "fusion_lat": 0.0, "lat": 39.0945985, "name": "f040ad771e1abd563b61f721fc5f77be", "fusion_lon": 0.0, "bike_id": "f040ad771e1abd563b61f721fc5f77be", "is_disabled": 0, "is_reserved": 0}, {"rental_uris": {"ios": "https://dc.lft.to/lastmile_qr_scan", "android": "https://dc.lft.to/lastmile_qr_scan"}, "lon": -77.02942383333334, "type": "electric_scooter", "fusion_lat": 0.0, "lat": 38.90373, "name": "7fb3bdf9789e21d0877954764d594858", "fusion_lon": 0.0, "bike_id": "7fb3bdf9789e21d0877954764d594858", "is_disabled": 0, "is_reserved": 0}, {"rental_uris": {"ios": "https://dc.lft.to/lastmile_qr_scan", "android": "https://dc.lft.to/lastmile_qr_scan"}, "lon": -76.9337235, "type": "electric_scooter", "fusion_lat": 0.0, "lat": 38.899111, "name": "800d322ee82889ec872731f499e38540", "fusion_lon": 0.0, "bike_id": "800d322ee82889ec872731f499e38540", "is_disabled": 0, "is_reserved": 0}, {"rental_uris": {"ios": "https://dc.lft.to/lastmile_qr_scan", "android": "https://dc.lft.to/lastmile_qr_scan"}, "lon": -76.995976, "type": "electric_scooter", "fusion_lat": 0.0, "lat": 38.88424, "name": "a9290464b44ea3805b19944a635b630e", "fusion_lon": 0.0, "bike_id": "a9290464b44ea3805b19944a635b630e", "is_disabled": 0, "is_reserved": 0}, {"rental_uris": {"ios": "https://dc.lft.to/lastmile_qr_scan", "android": "https://dc.lft.to/lastmile_qr_scan"}, "lon": -77.02349616666666, "type": "electric_scooter", "fusion_lat": 0.0, "lat": 38.93533266666667, "name": "21698890259adb6e68d06092eeafd34e", "fusion_lon": 0.0, "bike_id": "21698890259adb6e68d06092eeafd34e", "is_disabled": 0, "is_reserved": 0}, {"rental_uris": {"ios": "https://dc.lft.to/lastmile_qr_scan", "android": "https://dc.lft.to/lastmile_qr_scan"}, "lon": -77.03174333333334, "type": "electric_scooter", "fusion_lat": 0.0, "lat": 38.90424683333333, "name": "e08a1932d8334de519ceb5f96e8cb635", "fusion_lon": 0.0, "bike_id": "e08a1932d8334de519ceb5f96e8cb635", "is_disabled": 0, "is_reserved": 0}, {"rental_uris": {"ios": "https://dc.lft.to/lastmile_qr_scan", "android": "https://dc.lft.to/lastmile_qr_scan"}, "lon": -76.98991316666667, "type": "electric_bike", "fusion_lat": 0.0, "lat": 38.912249, "name": "7f49fc8e9fb812a9eb18de34da158518", "fusion_lon": 0.0, "bike_id": "7f49fc8e9fb812a9eb18de34da158518", "is_disabled": 0, "is_reserved": 0}, {"rental_uris": {"ios": "https://dc.lft.to/lastmile_qr_scan", "android": "https://dc.lft.to/lastmile_qr_scan"}, "lon": -77.03569816666666, "type": "electric_scooter", "fusion_lat": 0.0, "lat": 38.9163165, "name": "cbb61978fe707fd9de54e821c8718491", "fusion_lon": 0.0, "bike_id": "cbb61978fe707fd9de54e821c8718491", "is_disabled": 0, "is_reserved": 0}, {"rental_uris": {"ios": "https://dc.lft.to/lastmile_qr_scan", "android": "https://dc.lft.to/lastmile_qr_scan"}, "lon": -77.19904983333333, "type": "electric_bike", "fusion_lat": 0.0, "lat": 38.875254, "name": "0445a70c1395fe8ef3f3f164bedecec9", "fusion_lon": 0.0, "bike_id": "0445a70c1395fe8ef3f3f164bedecec9", "is_disabled": 0, "is_reserved": 0}, {"rental_uris": {"ios": "https://dc.lft.to/lastmile_qr_scan", "android": "https://dc.lft.to/lastmile_qr_scan"}, "lon": -77.05857383333333, "type": "electric_scooter", "fusion_lat": 0.0, "lat": 38.936073666666665, "name": "dfca6812d66a77c5ff40dcbcc10d1a6f", "fusion_lon": 0.0, "bike_id": "dfca6812d66a77c5ff40dcbcc10d1a6f", "is_disabled": 0, "is_reserved": 0}, {"rental_uris": {"ios": "https://dc.lft.to/lastmile_qr_scan", "android": "https://dc.lft.to/lastmile_qr_scan"}, "lon": -77.08864833333334, "type": "electric_scooter", "fusion_lat": 0.0, "lat": 38.909862333333336, "name": "4647a91e9889e1770ef48bd63eadeab4", "fusion_lon": 0.0, "bike_id": "4647a91e9889e1770ef48bd63eadeab4", "is_disabled": 0, "is_reserved": 0}, {"rental_uris": {"ios": "https://dc.lft.to/lastmile_qr_scan", "android": "https://dc.lft.to/lastmile_qr_scan"}, "lon": -77.02942933333334, "type": "electric_scooter", "fusion_lat": 0.0, "lat": 38.8992815, "name": "8d0e6dbba64a2e89a51d8de602aad468", "fusion_lon": 0.0, "bike_id": "8d0e6dbba64a2e89a51d8de602aad468", "is_disabled": 0, "is_reserved": 0}, {"rental_uris": {"ios": "https://dc.lft.to/lastmile_qr_scan", "android": "https://dc.lft.to/lastmile_qr_scan"}, "lon": -77.004897, "type": "electric_scooter", "fusion_lat": 0.0, "lat": 38.878923666666665, "name": "9510048784b9f6df11b181dfc2e52cb7", "fusion_lon": 0.0, "bike_id": "9510048784b9f6df11b181dfc2e52cb7", "is_disabled": 0, "is_reserved": 0}, {"rental_uris": {"ios": "https://dc.lft.to/lastmile_qr_scan", "android": "https://dc.lft.to/lastmile_qr_scan"}, "lon": -76.9463095, "type": "electric_scooter", "fusion_lat": 0.0, "lat": 38.89841116666667, "name": "b6caa691e56c0dacd0c413d7f5a819b2", "fusion_lon": 0.0, "bike_id": "b6caa691e56c0dacd0c413d7f5a819b2", "is_disabled": 0, "is_reserved": 0}, {"rental_uris": {"ios": "https://dc.lft.to/lastmile_qr_scan", "android": "https://dc.lft.to/lastmile_qr_scan"}, "lon": -77.0482235, "type": "electric_scooter", "fusion_lat": 0.0, "lat": 38.90792916666667, "name": "65604272e011920e64c2d45934f50798", "fusion_lon": 0.0, "bike_id": "65604272e011920e64c2d45934f50798", "is_disabled": 0, "is_reserved": 0}, {"rental_uris": {"ios": "https://dc.lft.to/lastmile_qr_scan", "android": "https://dc.lft.to/lastmile_qr_scan"}, "lon": -77.04014383333333, "type": "electric_scooter", "fusion_lat": 0.0, "lat": 38.91798133333333, "name": "852588979a9010275da0533ba611b734", "fusion_lon": 0.0, "bike_id": "852588979a9010275da0533ba611b734", "is_disabled": 0, "is_reserved": 0}, {"rental_uris": {"ios": "https://dc.lft.to/lastmile_qr_scan", "android": "https://dc.lft.to/lastmile_qr_scan"}, "lon": -76.94737583333334, "type": "electric_scooter", "fusion_lat": 0.0, "lat": 38.896751333333334, "name": "1f7dc3bcfa625622581682dfe7a566b1", "fusion_lon": 0.0, "bike_id": "1f7dc3bcfa625622581682dfe7a566b1", "is_disabled": 0, "is_reserved": 0}, {"rental_uris": {"ios": "https://dc.lft.to/lastmile_qr_scan", "android": "https://dc.lft.to/lastmile_qr_scan"}, "lon": -77.01218883333334, "type": "electric_scooter", "fusion_lat": 0.0, "lat": 38.909771666666664, "name": "8a81133d69cac11ad123f6b6770212a2", "fusion_lon": 0.0, "bike_id": "8a81133d69cac11ad123f6b6770212a2", "is_disabled": 0, "is_reserved": 0}, {"rental_uris": {"ios": "https://dc.lft.to/lastmile_qr_scan", "android": "https://dc.lft.to/lastmile_qr_scan"}, "lon": -77.09560166666667, "type": "electric_scooter", "fusion_lat": 0.0, "lat": 38.916509166666664, "name": "2015e8aec93657d169009f76d9b47c8b", "fusion_lon": 0.0, "bike_id": "2015e8aec93657d169009f76d9b47c8b", "is_disabled": 0, "is_reserved": 0}, {"rental_uris": {"ios": "https://dc.lft.to/lastmile_qr_scan", "android": "https://dc.lft.to/lastmile_qr_scan"}, "lon": -77.03235783333334, "type": "electric_scooter", "fusion_lat": 0.0, "lat": 38.92862366666667, "name": "e8caadb5ccfeb17634dfa3f434c787a1", "fusion_lon": 0.0, "bike_id": "e8caadb5ccfeb17634dfa3f434c787a1", "is_disabled": 0, "is_reserved": 0}, {"rental_uris": {"ios": "https://dc.lft.to/lastmile_qr_scan", "android": "https://dc.lft.to/lastmile_qr_scan"}, "lon": -76.98849766666666, "type": "electric_scooter", "fusion_lat": 0.0, "lat": 38.90345033333333, "name": "56aded4c7fcabe88a0a57954ea0a0464", "fusion_lon": 0.0, "bike_id": "56aded4c7fcabe88a0a57954ea0a0464", "is_disabled": 0, "is_reserved": 0}, {"rental_uris": {"ios": "https://dc.lft.to/lastmile_qr_scan", "android": "https://dc.lft.to/lastmile_qr_scan"}, "lon": -77.01178033333333, "type": "electric_scooter", "fusion_lat": 0.0, "lat": 38.9065125, "name": "5abdb5f0bdd76eb740a764ce8e2e9f57", "fusion_lon": 0.0, "bike_id": "5abdb5f0bdd76eb740a764ce8e2e9f57", "is_disabled": 0, "is_reserved": 0}, {"rental_uris": {"ios": "https://dc.lft.to/lastmile_qr_scan", "android": "https://dc.lft.to/lastmile_qr_scan"}, "lon": -77.03994433333334, "type": "electric_scooter", "fusion_lat": 0.0, "lat": 38.907247166666664, "name": "a01baac2a73e549f31ea1d0029852cfd", "fusion_lon": 0.0, "bike_id": "a01baac2a73e549f31ea1d0029852cfd", "is_disabled": 0, "is_reserved": 0}, {"rental_uris": {"ios": "https://dc.lft.to/lastmile_qr_scan", "android": "https://dc.lft.to/lastmile_qr_scan"}, "lon": -76.948777, "type": "electric_scooter", "fusion_lat": 0.0, "lat": 38.895018666666665, "name": "139ee4305ad06279281d622d7079a577", "fusion_lon": 0.0, "bike_id": "139ee4305ad06279281d622d7079a577", "is_disabled": 0, "is_reserved": 0}, {"rental_uris": {"ios": "https://dc.lft.to/lastmile_qr_scan", "android": "https://dc.lft.to/lastmile_qr_scan"}, "lon": -77.033284, "type": "electric_scooter", "fusion_lat": 0.0, "lat": 38.90102316666667, "name": "45b1eb52e9b0415954e402c27cdf15ac", "fusion_lon": 0.0, "bike_id": "45b1eb52e9b0415954e402c27cdf15ac", "is_disabled": 0, "is_reserved": 0}, {"rental_uris": {"ios": "https://dc.lft.to/lastmile_qr_scan", "android": "https://dc.lft.to/lastmile_qr_scan"}, "lon": -77.02208733333333, "type": "electric_scooter", "fusion_lat": 0.0, "lat": 38.90969166666667, "name": "f52135346860a40db36919615b2bd71e", "fusion_lon": 0.0, "bike_id": "f52135346860a40db36919615b2bd71e", "is_disabled": 0, "is_reserved": 0}, {"rental_uris": {"ios": "https://dc.lft.to/lastmile_qr_scan", "android": "https://dc.lft.to/lastmile_qr_scan"}, "lon": -77.053241, "type": "electric_scooter", "fusion_lat": 0.0, "lat": 38.939638, "name": "91a9b6d8361dacb50e710572931401eb", "fusion_lon": 0.0, "bike_id": "91a9b6d8361dacb50e710572931401eb", "is_disabled": 0, "is_reserved": 0}, {"rental_uris": {"ios": "https://dc.lft.to/lastmile_qr_scan", "android": "https://dc.lft.to/lastmile_qr_scan"}, "lon": -77.02480116666666, "type": "electric_scooter", "fusion_lat": 0.0, "lat": 38.897112666666665, "name": "634b52c45d1613252db0b3a5cae55ad5", "fusion_lon": 0.0, "bike_id": "634b52c45d1613252db0b3a5cae55ad5", "is_disabled": 0, "is_reserved": 0}, {"rental_uris": {"ios": "https://dc.lft.to/lastmile_qr_scan", "android": "https://dc.lft.to/lastmile_qr_scan"}, "lon": -77.03912916666667, "type": "electric_scooter", "fusion_lat": 0.0, "lat": 38.923051, "name": "90b43abb7cbb418f1fa1664ac6f7fb64", "fusion_lon": 0.0, "bike_id": "90b43abb7cbb418f1fa1664ac6f7fb64", "is_disabled": 0, "is_reserved": 0}, {"rental_uris": {"ios": "https://dc.lft.to/lastmile_qr_scan", "android": "https://dc.lft.to/lastmile_qr_scan"}, "lon": -77.01073233333334, "type": "electric_scooter", "fusion_lat": 0.0, "lat": 38.91915266666667, "name": "1fa7d8c1585e0868643e1f387c19928c", "fusion_lon": 0.0, "bike_id": "1fa7d8c1585e0868643e1f387c19928c", "is_disabled": 0, "is_reserved": 0}, {"rental_uris": {"ios": "https://dc.lft.to/lastmile_qr_scan", "android": "https://dc.lft.to/lastmile_qr_scan"}, "lon": -77.03878016666667, "type": "electric_scooter", "fusion_lat": 0.0, "lat": 38.932421166666664, "name": "68665a058195617e50c80ff4be402947", "fusion_lon": 0.0, "bike_id": "68665a058195617e50c80ff4be402947", "is_disabled": 0, "is_reserved": 0}, {"rental_uris": {"ios": "https://dc.lft.to/lastmile_qr_scan", "android": "https://dc.lft.to/lastmile_qr_scan"}, "lon": -77.02671766666667, "type": "electric_scooter", "fusion_lat": 0.0, "lat": 38.89972916666667, "name": "e556219fbc9d3c6385c9127775db6dbd", "fusion_lon": 0.0, "bike_id": "e556219fbc9d3c6385c9127775db6dbd", "is_disabled": 0, "is_reserved": 0}, {"rental_uris": {"ios": "https://dc.lft.to/lastmile_qr_scan", "android": "https://dc.lft.to/lastmile_qr_scan"}, "lon": -77.04536416666667, "type": "electric_scooter", "fusion_lat": 0.0, "lat": 38.9194245, "name": "496f0ab30e487716569876a86b633cda", "fusion_lon": 0.0, "bike_id": "496f0ab30e487716569876a86b633cda", "is_disabled": 0, "is_reserved": 0}, {"rental_uris": {"ios": "https://dc.lft.to/lastmile_qr_scan", "android": "https://dc.lft.to/lastmile_qr_scan"}, "lon": -77.00891083333333, "type": "electric_scooter", "fusion_lat": 0.0, "lat": 38.923091666666664, "name": "eb07cf64f6636548f9467b87ce386be5", "fusion_lon": 0.0, "bike_id": "eb07cf64f6636548f9467b87ce386be5", "is_disabled": 0, "is_reserved": 0}, {"rental_uris": {"ios": "https://dc.lft.to/lastmile_qr_scan", "android": "https://dc.lft.to/lastmile_qr_scan"}, "lon": -77.022016, "type": "electric_scooter", "fusion_lat": 0.0, "lat": 38.88053933333333, "name": "2ce4018aa54d9d59b95de86a08cab122", "fusion_lon": 0.0, "bike_id": "2ce4018aa54d9d59b95de86a08cab122", "is_disabled": 0, "is_reserved": 0}, {"rental_uris": {"ios": "https://dc.lft.to/lastmile_qr_scan", "android": "https://dc.lft.to/lastmile_qr_scan"}, "lon": -76.9732735, "type": "electric_bike", "fusion_lat": 0.0, "lat": 38.850614, "name": "57defc4269d5671c2c6d7ea663bd570e", "fusion_lon": 0.0, "bike_id": "57defc4269d5671c2c6d7ea663bd570e", "is_disabled": 0, "is_reserved": 0}, {"rental_uris": {"ios": "https://dc.lft.to/lastmile_qr_scan", "android": "https://dc.lft.to/lastmile_qr_scan"}, "lon": -77.03962366666667, "type": "electric_scooter", "fusion_lat": 0.0, "lat": 38.902606166666665, "name": "f4418f1c722dd9a7c877a72ab748b46b", "fusion_lon": 0.0, "bike_id": "f4418f1c722dd9a7c877a72ab748b46b", "is_disabled": 0, "is_reserved": 0}, {"rental_uris": {"ios": "https://dc.lft.to/lastmile_qr_scan", "android": "https://dc.lft.to/lastmile_qr_scan"}, "lon": -77.005767, "type": "electric_scooter", "fusion_lat": 0.0, "lat": 38.903953666666666, "name": "250dad8ea56ab414953752182724903a", "fusion_lon": 0.0, "bike_id": "250dad8ea56ab414953752182724903a", "is_disabled": 0, "is_reserved": 0}, {"rental_uris": {"ios": "https://dc.lft.to/lastmile_qr_scan", "android": "https://dc.lft.to/lastmile_qr_scan"}, "lon": -77.05268583333333, "type": "electric_scooter", "fusion_lat": 0.0, "lat": 38.9100515, "name": "d3161c5f5c4647963a882adff3c979ba", "fusion_lon": 0.0, "bike_id": "d3161c5f5c4647963a882adff3c979ba", "is_disabled": 0, "is_reserved": 0}, {"rental_uris": {"ios": "https://dc.lft.to/lastmile_qr_scan", "android": "https://dc.lft.to/lastmile_qr_scan"}, "lon": -77.02578966666667, "type": "electric_scooter", "fusion_lat": 0.0, "lat": 38.918149166666666, "name": "d8c2c29b6dc0df4d8b3c9c8aa4448d5c", "fusion_lon": 0.0, "bike_id": "d8c2c29b6dc0df4d8b3c9c8aa4448d5c", "is_disabled": 0, "is_reserved": 0}, {"rental_uris": {"ios": "https://dc.lft.to/lastmile_qr_scan", "android": "https://dc.lft.to/lastmile_qr_scan"}, "lon": -77.04170666666667, "type": "electric_scooter", "fusion_lat": 0.0, "lat": 38.917677833333336, "name": "ef4f998762ef41491c77d905a833134a", "fusion_lon": 0.0, "bike_id": "ef4f998762ef41491c77d905a833134a", "is_disabled": 0, "is_reserved": 0}, {"rental_uris": {"ios": "https://dc.lft.to/lastmile_qr_scan", "android": "https://dc.lft.to/lastmile_qr_scan"}, "lon": -77.02451583333334, "type": "electric_scooter", "fusion_lat": 0.0, "lat": 38.9793615, "name": "3a0fa67c8a78f55016c2f1608f7db6a1", "fusion_lon": 0.0, "bike_id": "3a0fa67c8a78f55016c2f1608f7db6a1", "is_disabled": 0, "is_reserved": 0}, {"rental_uris": {"ios": "https://dc.lft.to/lastmile_qr_scan", "android": "https://dc.lft.to/lastmile_qr_scan"}, "lon": -77.03222433333333, "type": "electric_scooter", "fusion_lat": 0.0, "lat": 38.918137333333334, "name": "a5ba8e79acf19d57e107679677680907", "fusion_lon": 0.0, "bike_id": "a5ba8e79acf19d57e107679677680907", "is_disabled": 0, "is_reserved": 0}, {"rental_uris": {"ios": "https://dc.lft.to/lastmile_qr_scan", "android": "https://dc.lft.to/lastmile_qr_scan"}, "lon": -77.036283, "type": "electric_scooter", "fusion_lat": 0.0, "lat": 38.956387166666666, "name": "e603d3c3d9831f98d3ff1f8a487d3bb4", "fusion_lon": 0.0, "bike_id": "e603d3c3d9831f98d3ff1f8a487d3bb4", "is_disabled": 0, "is_reserved": 0}, {"rental_uris": {"ios": "https://dc.lft.to/lastmile_qr_scan", "android": "https://dc.lft.to/lastmile_qr_scan"}, "lon": -77.0468345, "type": "electric_scooter", "fusion_lat": 0.0, "lat": 38.9012805, "name": "8314cf6b5c8f786355b58842bb61510f", "fusion_lon": 0.0, "bike_id": "8314cf6b5c8f786355b58842bb61510f", "is_disabled": 0, "is_reserved": 0}, {"rental_uris": {"ios": "https://dc.lft.to/lastmile_qr_scan", "android": "https://dc.lft.to/lastmile_qr_scan"}, "lon": -76.981786, "type": "electric_scooter", "fusion_lat": 0.0, "lat": 38.895709333333336, "name": "ab2ed2f65e5b97ff8703812da057cf20", "fusion_lon": 0.0, "bike_id": "ab2ed2f65e5b97ff8703812da057cf20", "is_disabled": 0, "is_reserved": 0}, {"rental_uris": {"ios": "https://dc.lft.to/lastmile_qr_scan", "android": "https://dc.lft.to/lastmile_qr_scan"}, "lon": -77.0315045, "type": "electric_scooter", "fusion_lat": 0.0, "lat": 38.912622666666664, "name": "16dc174542ab26ae54150ddc7695e384", "fusion_lon": 0.0, "bike_id": "16dc174542ab26ae54150ddc7695e384", "is_disabled": 0, "is_reserved": 0}, {"rental_uris": {"ios": "https://dc.lft.to/lastmile_qr_scan", "android": "https://dc.lft.to/lastmile_qr_scan"}, "lon": -77.0294615, "type": "electric_scooter", "fusion_lat": 0.0, "lat": 38.9158145, "name": "f4be453fd1ea34a8e2f3bf7432995edf", "fusion_lon": 0.0, "bike_id": "f4be453fd1ea34a8e2f3bf7432995edf", "is_disabled": 0, "is_reserved": 0}, {"rental_uris": {"ios": "https://dc.lft.to/lastmile_qr_scan", "android": "https://dc.lft.to/lastmile_qr_scan"}, "lon": -77.031985, "type": "electric_scooter", "fusion_lat": 0.0, "lat": 38.9131185, "name": "dc5e419599995855c91b223c59956fe2", "fusion_lon": 0.0, "bike_id": "dc5e419599995855c91b223c59956fe2", "is_disabled": 0, "is_reserved": 0}, {"rental_uris": {"ios": "https://dc.lft.to/lastmile_qr_scan", "android": "https://dc.lft.to/lastmile_qr_scan"}, "lon": -77.02173816666667, "type": "electric_scooter", "fusion_lat": 0.0, "lat": 38.89974983333333, "name": "86072dafce5c63687c110c5f7e646f32", "fusion_lon": 0.0, "bike_id": "86072dafce5c63687c110c5f7e646f32", "is_disabled": 0, "is_reserved": 0}, {"rental_uris": {"ios": "https://dc.lft.to/lastmile_qr_scan", "android": "https://dc.lft.to/lastmile_qr_scan"}, "lon": -77.04099216666667, "type": "electric_scooter", "fusion_lat": 0.0, "lat": 38.917731833333335, "name": "48c14210252ad7fbeee5544d92e20fd1", "fusion_lon": 0.0, "bike_id": "48c14210252ad7fbeee5544d92e20fd1", "is_disabled": 0, "is_reserved": 0}, {"rental_uris": {"ios": "https://dc.lft.to/lastmile_qr_scan", "android": "https://dc.lft.to/lastmile_qr_scan"}, "lon": -77.021817, "type": "electric_scooter", "fusion_lat": 0.0, "lat": 38.93945016666667, "name": "a918f8f2be1981e7f191b7f109491fc7", "fusion_lon": 0.0, "bike_id": "a918f8f2be1981e7f191b7f109491fc7", "is_disabled": 0, "is_reserved": 0}, {"rental_uris": {"ios": "https://dc.lft.to/lastmile_qr_scan", "android": "https://dc.lft.to/lastmile_qr_scan"}, "lon": -76.9825435, "type": "electric_scooter", "fusion_lat": 0.0, "lat": 38.908688833333336, "name": "4a4be18e0da975e78b7b3cec58e56148", "fusion_lon": 0.0, "bike_id": "4a4be18e0da975e78b7b3cec58e56148", "is_disabled": 0, "is_reserved": 0}, {"rental_uris": {"ios": "https://dc.lft.to/lastmile_qr_scan", "android": "https://dc.lft.to/lastmile_qr_scan"}, "lon": -77.00975033333333, "type": "electric_scooter", "fusion_lat": 0.0, "lat": 38.919223, "name": "bb1e865ba1f2b6cbf1f3e6fd451d5c4f", "fusion_lon": 0.0, "bike_id": "bb1e865ba1f2b6cbf1f3e6fd451d5c4f", "is_disabled": 0, "is_reserved": 0}, {"rental_uris": {"ios": "https://dc.lft.to/lastmile_qr_scan", "android": "https://dc.lft.to/lastmile_qr_scan"}, "lon": -76.90949166666667, "type": "electric_bike", "fusion_lat": 0.0, "lat": 38.854188, "name": "4fd2d2c538df49c807b20b95e8f8d1eb", "fusion_lon": 0.0, "bike_id": "4fd2d2c538df49c807b20b95e8f8d1eb", "is_disabled": 0, "is_reserved": 0}, {"rental_uris": {"ios": "https://dc.lft.to/lastmile_qr_scan", "android": "https://dc.lft.to/lastmile_qr_scan"}, "lon": -76.9489015, "type": "electric_scooter", "fusion_lat": 0.0, "lat": 38.89526583333333, "name": "936ba254292b4a3b45318635c39aebe8", "fusion_lon": 0.0, "bike_id": "936ba254292b4a3b45318635c39aebe8", "is_disabled": 0, "is_reserved": 0}, {"rental_uris": {"ios": "https://dc.lft.to/lastmile_qr_scan", "android": "https://dc.lft.to/lastmile_qr_scan"}, "lon": -77.02495883333333, "type": "electric_scooter", "fusion_lat": 0.0, "lat": 38.901950666666664, "name": "bf9651625f7948048c10ca70d565f3d4", "fusion_lon": 0.0, "bike_id": "bf9651625f7948048c10ca70d565f3d4", "is_disabled": 0, "is_reserved": 0}, {"rental_uris": {"ios": "https://dc.lft.to/lastmile_qr_scan", "android": "https://dc.lft.to/lastmile_qr_scan"}, "lon": -76.99490283333333, "type": "electric_scooter", "fusion_lat": 0.0, "lat": 38.900506166666666, "name": "dddfa44114b5879ecb400c16fb2cb861", "fusion_lon": 0.0, "bike_id": "dddfa44114b5879ecb400c16fb2cb861", "is_disabled": 0, "is_reserved": 0}, {"rental_uris": {"ios": "https://dc.lft.to/lastmile_qr_scan", "android": "https://dc.lft.to/lastmile_qr_scan"}, "lon": -77.035139, "type": "electric_scooter", "fusion_lat": 0.0, "lat": 38.90669783333333, "name": "7167d6b7eba6a3c7a3579a9c43960686", "fusion_lon": 0.0, "bike_id": "7167d6b7eba6a3c7a3579a9c43960686", "is_disabled": 0, "is_reserved": 0}, {"rental_uris": {"ios": "https://dc.lft.to/lastmile_qr_scan", "android": "https://dc.lft.to/lastmile_qr_scan"}, "lon": -77.0278835, "type": "electric_scooter", "fusion_lat": 0.0, "lat": 38.896890166666665, "name": "03e9e1f0b4a942e200a21f6298f12e30", "fusion_lon": 0.0, "bike_id": "03e9e1f0b4a942e200a21f6298f12e30", "is_disabled": 0, "is_reserved": 0}, {"rental_uris": {"ios": "https://dc.lft.to/lastmile_qr_scan", "android": "https://dc.lft.to/lastmile_qr_scan"}, "lon": -77.05998783333334, "type": "electric_scooter", "fusion_lat": 0.0, "lat": 38.90532433333333, "name": "1b85e7dc5669d643ebe5716e8458f51f", "fusion_lon": 0.0, "bike_id": "1b85e7dc5669d643ebe5716e8458f51f", "is_disabled": 0, "is_reserved": 0}, {"rental_uris": {"ios": "https://dc.lft.to/lastmile_qr_scan", "android": "https://dc.lft.to/lastmile_qr_scan"}, "lon": -77.04274783333334, "type": "electric_scooter", "fusion_lat": 0.0, "lat": 38.90792366666667, "name": "0c417cf45bd02c77390340e1dc7425b6", "fusion_lon": 0.0, "bike_id": "0c417cf45bd02c77390340e1dc7425b6", "is_disabled": 0, "is_reserved": 0}, {"rental_uris": {"ios": "https://dc.lft.to/lastmile_qr_scan", "android": "https://dc.lft.to/lastmile_qr_scan"}, "lon": -77.0223055, "type": "electric_scooter", "fusion_lat": 0.0, "lat": 38.9165255, "name": "686d06e7d4386d7bdc7530954fcbe3e8", "fusion_lon": 0.0, "bike_id": "686d06e7d4386d7bdc7530954fcbe3e8", "is_disabled": 0, "is_reserved": 0}, {"rental_uris": {"ios": "https://dc.lft.to/lastmile_qr_scan", "android": "https://dc.lft.to/lastmile_qr_scan"}, "lon": -77.0163635, "type": "electric_scooter", "fusion_lat": 0.0, "lat": 38.92939416666667, "name": "e4fe7262339409f472676cfe73ef684e", "fusion_lon": 0.0, "bike_id": "e4fe7262339409f472676cfe73ef684e", "is_disabled": 0, "is_reserved": 0}, {"rental_uris": {"ios": "https://dc.lft.to/lastmile_qr_scan", "android": "https://dc.lft.to/lastmile_qr_scan"}, "lon": -77.051543, "type": "electric_scooter", "fusion_lat": 0.0, "lat": 38.92382166666667, "name": "f09eb91fd76268725974ed465381005f", "fusion_lon": 0.0, "bike_id": "f09eb91fd76268725974ed465381005f", "is_disabled": 0, "is_reserved": 0}, {"rental_uris": {"ios": "https://dc.lft.to/lastmile_qr_scan", "android": "https://dc.lft.to/lastmile_qr_scan"}, "lon": -77.06325916666667, "type": "electric_scooter", "fusion_lat": 0.0, "lat": 38.90515283333333, "name": "4991f5edc9e562afa38fd13a15d22cc0", "fusion_lon": 0.0, "bike_id": "4991f5edc9e562afa38fd13a15d22cc0", "is_disabled": 0, "is_reserved": 0}, {"rental_uris": {"ios": "https://dc.lft.to/lastmile_qr_scan", "android": "https://dc.lft.to/lastmile_qr_scan"}, "lon": -77.00912583333333, "type": "electric_scooter", "fusion_lat": 0.0, "lat": 38.9052135, "name": "e241b11e7ac6fb9bd8324f1eb1c434ad", "fusion_lon": 0.0, "bike_id": "e241b11e7ac6fb9bd8324f1eb1c434ad", "is_disabled": 0, "is_reserved": 0}, {"rental_uris": {"ios": "https://dc.lft.to/lastmile_qr_scan", "android": "https://dc.lft.to/lastmile_qr_scan"}, "lon": -76.9518645, "type": "electric_scooter", "fusion_lat": 0.0, "lat": 38.891315666666664, "name": "6d30f9c0bd10412b7e747d2dd58e3f5a", "fusion_lon": 0.0, "bike_id": "6d30f9c0bd10412b7e747d2dd58e3f5a", "is_disabled": 0, "is_reserved": 0}, {"rental_uris": {"ios": "https://dc.lft.to/lastmile_qr_scan", "android": "https://dc.lft.to/lastmile_qr_scan"}, "lon": -77.00371583333333, "type": "electric_bike", "fusion_lat": 0.0, "lat": 38.83600883333333, "name": "ee857651fde82ec28ccbd9040dc08214", "fusion_lon": 0.0, "bike_id": "ee857651fde82ec28ccbd9040dc08214", "is_disabled": 0, "is_reserved": 0}, {"rental_uris": {"ios": "https://dc.lft.to/lastmile_qr_scan", "android": "https://dc.lft.to/lastmile_qr_scan"}, "lon": -76.9906195, "type": "electric_scooter", "fusion_lat": 0.0, "lat": 38.86347883333333, "name": "e893b59b1105e869ad8eee9424cc5e40", "fusion_lon": 0.0, "bike_id": "e893b59b1105e869ad8eee9424cc5e40", "is_disabled": 0, "is_reserved": 0}, {"rental_uris": {"ios": "https://dc.lft.to/lastmile_qr_scan", "android": "https://dc.lft.to/lastmile_qr_scan"}, "lon": -77.018518, "type": "electric_bike", "fusion_lat": 0.0, "lat": 38.903605, "name": "f0aeb1024c1c29740aebf1bd9254d9c6", "fusion_lon": 0.0, "bike_id": "f0aeb1024c1c29740aebf1bd9254d9c6", "is_disabled": 0, "is_reserved": 0}, {"rental_uris": {"ios": "https://dc.lft.to/lastmile_qr_scan", "android": "https://dc.lft.to/lastmile_qr_scan"}, "lon": -77.02757966666667, "type": "electric_scooter", "fusion_lat": 0.0, "lat": 38.95611366666667, "name": "bc8d5673990d82c8ef1d9431ec0bb091", "fusion_lon": 0.0, "bike_id": "bc8d5673990d82c8ef1d9431ec0bb091", "is_disabled": 0, "is_reserved": 0}, {"rental_uris": {"ios": "https://dc.lft.to/lastmile_qr_scan", "android": "https://dc.lft.to/lastmile_qr_scan"}, "lon": -77.04372383333333, "type": "electric_scooter", "fusion_lat": 0.0, "lat": 38.89227666666667, "name": "0acf1eb58be18c6f7dfe45b0f92ac2df", "fusion_lon": 0.0, "bike_id": "0acf1eb58be18c6f7dfe45b0f92ac2df", "is_disabled": 0, "is_reserved": 0}, {"rental_uris": {"ios": "https://dc.lft.to/lastmile_qr_scan", "android": "https://dc.lft.to/lastmile_qr_scan"}, "lon": -77.00365166666667, "type": "electric_scooter", "fusion_lat": 0.0, "lat": 38.838021833333336, "name": "3b8fb6bc904a46834e96795098e2ffda", "fusion_lon": 0.0, "bike_id": "3b8fb6bc904a46834e96795098e2ffda", "is_disabled": 0, "is_reserved": 0}, {"rental_uris": {"ios": "https://dc.lft.to/lastmile_qr_scan", "android": "https://dc.lft.to/lastmile_qr_scan"}, "lon": -77.05195666666667, "type": "electric_scooter", "fusion_lat": 0.0, "lat": 38.924046, "name": "838546f01379ec41d5ad444110c29cbf", "fusion_lon": 0.0, "bike_id": "838546f01379ec41d5ad444110c29cbf", "is_disabled": 0, "is_reserved": 0}, {"rental_uris": {"ios": "https://dc.lft.to/lastmile_qr_scan", "android": "https://dc.lft.to/lastmile_qr_scan"}, "lon": -76.9463305, "type": "electric_scooter", "fusion_lat": 0.0, "lat": 38.898329333333336, "name": "a9fe3c22ff195bcf5da471f181b57eeb", "fusion_lon": 0.0, "bike_id": "a9fe3c22ff195bcf5da471f181b57eeb", "is_disabled": 0, "is_reserved": 0}, {"rental_uris": {"ios": "https://dc.lft.to/lastmile_qr_scan", "android": "https://dc.lft.to/lastmile_qr_scan"}, "lon": -77.02209233333333, "type": "electric_scooter", "fusion_lat": 0.0, "lat": 38.909705833333334, "name": "3f72448ada8eb8ccd64b73014cf4994c", "fusion_lon": 0.0, "bike_id": "3f72448ada8eb8ccd64b73014cf4994c", "is_disabled": 0, "is_reserved": 0}, {"rental_uris": {"ios": "https://dc.lft.to/lastmile_qr_scan", "android": "https://dc.lft.to/lastmile_qr_scan"}, "lon": -77.0955015, "type": "electric_bike", "fusion_lat": 0.0, "lat": 38.83730283333333, "name": "cf0c20040497357447f886b9946ffecb", "fusion_lon": 0.0, "bike_id": "cf0c20040497357447f886b9946ffecb", "is_disabled": 0, "is_reserved": 0}, {"rental_uris": {"ios": "https://dc.lft.to/lastmile_qr_scan", "android": "https://dc.lft.to/lastmile_qr_scan"}, "lon": -77.0343755, "type": "electric_scooter", "fusion_lat": 0.0, "lat": 38.928643666666666, "name": "d2dcad728154c71cec31c5592708cdf4", "fusion_lon": 0.0, "bike_id": "d2dcad728154c71cec31c5592708cdf4", "is_disabled": 0, "is_reserved": 0}, {"rental_uris": {"ios": "https://dc.lft.to/lastmile_qr_scan", "android": "https://dc.lft.to/lastmile_qr_scan"}, "lon": -77.01107816666666, "type": "electric_scooter", "fusion_lat": 0.0, "lat": 38.90366183333333, "name": "cfca30a82f9d9bf11b90dd660a911b72", "fusion_lon": 0.0, "bike_id": "cfca30a82f9d9bf11b90dd660a911b72", "is_disabled": 0, "is_reserved": 0}, {"rental_uris": {"ios": "https://dc.lft.to/lastmile_qr_scan", "android": "https://dc.lft.to/lastmile_qr_scan"}, "lon": -77.0134115, "type": "electric_bike", "fusion_lat": 0.0, "lat": 38.999991, "name": "da6dd00b197ee1610f799cdfeed952f4", "fusion_lon": 0.0, "bike_id": "da6dd00b197ee1610f799cdfeed952f4", "is_disabled": 0, "is_reserved": 0}, {"rental_uris": {"ios": "https://dc.lft.to/lastmile_qr_scan", "android": "https://dc.lft.to/lastmile_qr_scan"}, "lon": -77.00805066666666, "type": "electric_scooter", "fusion_lat": 0.0, "lat": 38.88325616666667, "name": "83108ea91713f268c8b1a11d5d7f2296", "fusion_lon": 0.0, "bike_id": "83108ea91713f268c8b1a11d5d7f2296", "is_disabled": 0, "is_reserved": 0}, {"rental_uris": {"ios": "https://dc.lft.to/lastmile_qr_scan", "android": "https://dc.lft.to/lastmile_qr_scan"}, "lon": -77.023878, "type": "electric_scooter", "fusion_lat": 0.0, "lat": 38.897065, "name": "569dae68d0b7121d7c05b30f4cf253de", "fusion_lon": 0.0, "bike_id": "569dae68d0b7121d7c05b30f4cf253de", "is_disabled": 0, "is_reserved": 0}, {"rental_uris": {"ios": "https://dc.lft.to/lastmile_qr_scan", "android": "https://dc.lft.to/lastmile_qr_scan"}, "lon": -77.00056666666667, "type": "electric_scooter", "fusion_lat": 0.0, "lat": 38.88892166666667, "name": "dab8ffa36d1b1c17f1d44010fd6c33b1", "fusion_lon": 0.0, "bike_id": "dab8ffa36d1b1c17f1d44010fd6c33b1", "is_disabled": 0, "is_reserved": 0}, {"rental_uris": {"ios": "https://dc.lft.to/lastmile_qr_scan", "android": "https://dc.lft.to/lastmile_qr_scan"}, "lon": -77.02186966666666, "type": "electric_scooter", "fusion_lat": 0.0, "lat": 38.89700283333333, "name": "e6f57ab373b8803aaa5c3d498c631ed2", "fusion_lon": 0.0, "bike_id": "e6f57ab373b8803aaa5c3d498c631ed2", "is_disabled": 0, "is_reserved": 0}, {"rental_uris": {"ios": "https://dc.lft.to/lastmile_qr_scan", "android": "https://dc.lft.to/lastmile_qr_scan"}, "lon": -77.0212655, "type": "electric_scooter", "fusion_lat": 0.0, "lat": 38.93109883333333, "name": "b7a8c925aa6e2b1a48c0d9f43f34fb96", "fusion_lon": 0.0, "bike_id": "b7a8c925aa6e2b1a48c0d9f43f34fb96", "is_disabled": 0, "is_reserved": 0}, {"rental_uris": {"ios": "https://dc.lft.to/lastmile_qr_scan", "android": "https://dc.lft.to/lastmile_qr_scan"}, "lon": -77.06299333333334, "type": "electric_scooter", "fusion_lat": 0.0, "lat": 38.913295833333336, "name": "7187b83cbb3d1f9ffccb6c874ea83553", "fusion_lon": 0.0, "bike_id": "7187b83cbb3d1f9ffccb6c874ea83553", "is_disabled": 0, "is_reserved": 0}, {"rental_uris": {"ios": "https://dc.lft.to/lastmile_qr_scan", "android": "https://dc.lft.to/lastmile_qr_scan"}, "lon": -77.0588385, "type": "electric_scooter", "fusion_lat": 0.0, "lat": 38.9362915, "name": "a32aa703d1624a38553f9b1aa608ff99", "fusion_lon": 0.0, "bike_id": "a32aa703d1624a38553f9b1aa608ff99", "is_disabled": 0, "is_reserved": 0}, {"rental_uris": {"ios": "https://dc.lft.to/lastmile_qr_scan", "android": "https://dc.lft.to/lastmile_qr_scan"}, "lon": -77.04730933333333, "type": "electric_scooter", "fusion_lat": 0.0, "lat": 38.91286516666667, "name": "a6b66aed0fb1ed2b7346846db12499cf", "fusion_lon": 0.0, "bike_id": "a6b66aed0fb1ed2b7346846db12499cf", "is_disabled": 0, "is_reserved": 0}, {"rental_uris": {"ios": "https://dc.lft.to/lastmile_qr_scan", "android": "https://dc.lft.to/lastmile_qr_scan"}, "lon": -76.986838, "type": "electric_scooter", "fusion_lat": 0.0, "lat": 38.881977, "name": "256a8000dc81a0d1dd89a2a72be7894d", "fusion_lon": 0.0, "bike_id": "256a8000dc81a0d1dd89a2a72be7894d", "is_disabled": 0, "is_reserved": 0}, {"rental_uris": {"ios": "https://dc.lft.to/lastmile_qr_scan", "android": "https://dc.lft.to/lastmile_qr_scan"}, "lon": -76.979563, "type": "electric_scooter", "fusion_lat": 0.0, "lat": 38.903840333333335, "name": "b4590063488c09fd0d4e6e9f16cd7047", "fusion_lon": 0.0, "bike_id": "b4590063488c09fd0d4e6e9f16cd7047", "is_disabled": 0, "is_reserved": 0}, {"rental_uris": {"ios": "https://dc.lft.to/lastmile_qr_scan", "android": "https://dc.lft.to/lastmile_qr_scan"}, "lon": -77.03124166666667, "type": "electric_scooter", "fusion_lat": 0.0, "lat": 38.91332, "name": "3984883e5510dd56ca0282dcadc00d04", "fusion_lon": 0.0, "bike_id": "3984883e5510dd56ca0282dcadc00d04", "is_disabled": 0, "is_reserved": 0}, {"rental_uris": {"ios": "https://dc.lft.to/lastmile_qr_scan", "android": "https://dc.lft.to/lastmile_qr_scan"}, "lon": -76.97622616666666, "type": "electric_scooter", "fusion_lat": 0.0, "lat": 38.905703333333335, "name": "dab79b804a8f8fb801b89f01f618be96", "fusion_lon": 0.0, "bike_id": "dab79b804a8f8fb801b89f01f618be96", "is_disabled": 0, "is_reserved": 0}, {"rental_uris": {"ios": "https://dc.lft.to/lastmile_qr_scan", "android": "https://dc.lft.to/lastmile_qr_scan"}, "lon": -77.01212233333334, "type": "electric_scooter", "fusion_lat": 0.0, "lat": 38.9182285, "name": "ecf815218250839851416eb1e1396ab3", "fusion_lon": 0.0, "bike_id": "ecf815218250839851416eb1e1396ab3", "is_disabled": 0, "is_reserved": 0}, {"rental_uris": {"ios": "https://dc.lft.to/lastmile_qr_scan", "android": "https://dc.lft.to/lastmile_qr_scan"}, "lon": -77.043184, "type": "electric_scooter", "fusion_lat": 0.0, "lat": 38.92359733333333, "name": "e5a26923942e572bd9ca414ec6fcdbe5", "fusion_lon": 0.0, "bike_id": "e5a26923942e572bd9ca414ec6fcdbe5", "is_disabled": 0, "is_reserved": 0}, {"rental_uris": {"ios": "https://dc.lft.to/lastmile_qr_scan", "android": "https://dc.lft.to/lastmile_qr_scan"}, "lon": -77.03444916666666, "type": "electric_scooter", "fusion_lat": 0.0, "lat": 38.9180415, "name": "54688bd831c103aee461b7ce07a34e31", "fusion_lon": 0.0, "bike_id": "54688bd831c103aee461b7ce07a34e31", "is_disabled": 0, "is_reserved": 0}, {"rental_uris": {"ios": "https://dc.lft.to/lastmile_qr_scan", "android": "https://dc.lft.to/lastmile_qr_scan"}, "lon": -77.04090533333333, "type": "electric_scooter", "fusion_lat": 0.0, "lat": 38.91728833333333, "name": "d484c44ae82cf686ccaf878a28797b11", "fusion_lon": 0.0, "bike_id": "d484c44ae82cf686ccaf878a28797b11", "is_disabled": 0, "is_reserved": 0}, {"rental_uris": {"ios": "https://dc.lft.to/lastmile_qr_scan", "android": "https://dc.lft.to/lastmile_qr_scan"}, "lon": -76.99823483333333, "type": "electric_scooter", "fusion_lat": 0.0, "lat": 38.885289, "name": "dd951ed598195d6d69c03a1c6105aa96", "fusion_lon": 0.0, "bike_id": "dd951ed598195d6d69c03a1c6105aa96", "is_disabled": 0, "is_reserved": 0}, {"rental_uris": {"ios": "https://dc.lft.to/lastmile_qr_scan", "android": "https://dc.lft.to/lastmile_qr_scan"}, "lon": -77.13594516666667, "type": "electric_bike", "fusion_lat": 0.0, "lat": 39.053454, "name": "c150f9cd51bb783ded9fb80682fa29b0", "fusion_lon": 0.0, "bike_id": "c150f9cd51bb783ded9fb80682fa29b0", "is_disabled": 0, "is_reserved": 0}, {"rental_uris": {"ios": "https://dc.lft.to/lastmile_qr_scan", "android": "https://dc.lft.to/lastmile_qr_scan"}, "lon": -77.033339, "type": "electric_scooter", "fusion_lat": 0.0, "lat": 38.919157166666665, "name": "c52762693cfbcdfd2a522e15d53e7b7c", "fusion_lon": 0.0, "bike_id": "c52762693cfbcdfd2a522e15d53e7b7c", "is_disabled": 0, "is_reserved": 0}, {"rental_uris": {"ios": "https://dc.lft.to/lastmile_qr_scan", "android": "https://dc.lft.to/lastmile_qr_scan"}, "lon": -76.993729, "type": "electric_scooter", "fusion_lat": 0.0, "lat": 38.86308183333333, "name": "f46c1333e35cbc793d8d488125495a25", "fusion_lon": 0.0, "bike_id": "f46c1333e35cbc793d8d488125495a25", "is_disabled": 0, "is_reserved": 0}, {"rental_uris": {"ios": "https://dc.lft.to/lastmile_qr_scan", "android": "https://dc.lft.to/lastmile_qr_scan"}, "lon": -77.04188, "type": "electric_scooter", "fusion_lat": 0.0, "lat": 38.900428, "name": "95c8c896f0c709b7a698a842a3e9efde", "fusion_lon": 0.0, "bike_id": "95c8c896f0c709b7a698a842a3e9efde", "is_disabled": 0, "is_reserved": 0}, {"rental_uris": {"ios": "https://dc.lft.to/lastmile_qr_scan", "android": "https://dc.lft.to/lastmile_qr_scan"}, "lon": -77.01251333333333, "type": "electric_scooter", "fusion_lat": 0.0, "lat": 38.8996675, "name": "c4fdcedbf52b5942d51b25ed785aeeeb", "fusion_lon": 0.0, "bike_id": "c4fdcedbf52b5942d51b25ed785aeeeb", "is_disabled": 0, "is_reserved": 0}, {"rental_uris": {"ios": "https://dc.lft.to/lastmile_qr_scan", "android": "https://dc.lft.to/lastmile_qr_scan"}, "lon": -76.99001383333334, "type": "electric_scooter", "fusion_lat": 0.0, "lat": 38.8650695, "name": "091ba088b6f59450970aad43facbf406", "fusion_lon": 0.0, "bike_id": "091ba088b6f59450970aad43facbf406", "is_disabled": 0, "is_reserved": 0}, {"rental_uris": {"ios": "https://dc.lft.to/lastmile_qr_scan", "android": "https://dc.lft.to/lastmile_qr_scan"}, "lon": -77.06922466666667, "type": "electric_bike", "fusion_lat": 0.0, "lat": 38.909777, "name": "80ded81c61cae679e72d4ea8c02c46c8", "fusion_lon": 0.0, "bike_id": "80ded81c61cae679e72d4ea8c02c46c8", "is_disabled": 0, "is_reserved": 0}, {"rental_uris": {"ios": "https://dc.lft.to/lastmile_qr_scan", "android": "https://dc.lft.to/lastmile_qr_scan"}, "lon": -77.02900516666666, "type": "electric_scooter", "fusion_lat": 0.0, "lat": 38.9045095, "name": "baca51df5e93b6c825af92b1a205e310", "fusion_lon": 0.0, "bike_id": "baca51df5e93b6c825af92b1a205e310", "is_disabled": 0, "is_reserved": 0}, {"rental_uris": {"ios": "https://dc.lft.to/lastmile_qr_scan", "android": "https://dc.lft.to/lastmile_qr_scan"}, "lon": -77.0365465, "type": "electric_scooter", "fusion_lat": 0.0, "lat": 38.90779083333334, "name": "5f33ab21b3939a5ee4f73ec997c095ea", "fusion_lon": 0.0, "bike_id": "5f33ab21b3939a5ee4f73ec997c095ea", "is_disabled": 0, "is_reserved": 0}, {"rental_uris": {"ios": "https://dc.lft.to/lastmile_qr_scan", "android": "https://dc.lft.to/lastmile_qr_scan"}, "lon": -76.98838233333333, "type": "electric_scooter", "fusion_lat": 0.0, "lat": 38.89288, "name": "609c67068043c7af450da6026f16b064", "fusion_lon": 0.0, "bike_id": "609c67068043c7af450da6026f16b064", "is_disabled": 0, "is_reserved": 0}, {"rental_uris": {"ios": "https://dc.lft.to/lastmile_qr_scan", "android": "https://dc.lft.to/lastmile_qr_scan"}, "lon": -76.99725983333333, "type": "electric_scooter", "fusion_lat": 0.0, "lat": 38.900193333333334, "name": "0aae3d552f16a922ad922725d390ddc0", "fusion_lon": 0.0, "bike_id": "0aae3d552f16a922ad922725d390ddc0", "is_disabled": 0, "is_reserved": 0}, {"rental_uris": {"ios": "https://dc.lft.to/lastmile_qr_scan", "android": "https://dc.lft.to/lastmile_qr_scan"}, "lon": -77.10698416666666, "type": "electric_bike", "fusion_lat": 0.0, "lat": 38.855362166666666, "name": "fdcb2a86b4c5ee719e65b0d6e06f97d3", "fusion_lon": 0.0, "bike_id": "fdcb2a86b4c5ee719e65b0d6e06f97d3", "is_disabled": 0, "is_reserved": 0}, {"rental_uris": {"ios": "https://dc.lft.to/lastmile_qr_scan", "android": "https://dc.lft.to/lastmile_qr_scan"}, "lon": -77.06755083333333, "type": "electric_bike", "fusion_lat": 0.0, "lat": 38.91557533333334, "name": "61b6d35f01fa3d59f3b890e3db73fa4a", "fusion_lon": 0.0, "bike_id": "61b6d35f01fa3d59f3b890e3db73fa4a", "is_disabled": 0, "is_reserved": 0}, {"rental_uris": {"ios": "https://dc.lft.to/lastmile_qr_scan", "android": "https://dc.lft.to/lastmile_qr_scan"}, "lon": -76.95413216666667, "type": "electric_scooter", "fusion_lat": 0.0, "lat": 38.89000433333333, "name": "950bd840e902165a50afe37e3e68d248", "fusion_lon": 0.0, "bike_id": "950bd840e902165a50afe37e3e68d248", "is_disabled": 0, "is_reserved": 0}, {"rental_uris": {"ios": "https://dc.lft.to/lastmile_qr_scan", "android": "https://dc.lft.to/lastmile_qr_scan"}, "lon": -77.063825, "type": "electric_scooter", "fusion_lat": 0.0, "lat": 38.90523116666667, "name": "5da4f967308200239cf32ef9999f19f1", "fusion_lon": 0.0, "bike_id": "5da4f967308200239cf32ef9999f19f1", "is_disabled": 0, "is_reserved": 0}, {"rental_uris": {"ios": "https://dc.lft.to/lastmile_qr_scan", "android": "https://dc.lft.to/lastmile_qr_scan"}, "lon": -77.01170583333334, "type": "electric_scooter", "fusion_lat": 0.0, "lat": 38.90029766666667, "name": "e5eef4a6ea7e224a59e441547bd7c64e", "fusion_lon": 0.0, "bike_id": "e5eef4a6ea7e224a59e441547bd7c64e", "is_disabled": 0, "is_reserved": 0}, {"rental_uris": {"ios": "https://dc.lft.to/lastmile_qr_scan", "android": "https://dc.lft.to/lastmile_qr_scan"}, "lon": -77.02352183333333, "type": "electric_scooter", "fusion_lat": 0.0, "lat": 38.93161383333333, "name": "4e49ff74dd7721e2436886c40ccd1867", "fusion_lon": 0.0, "bike_id": "4e49ff74dd7721e2436886c40ccd1867", "is_disabled": 0, "is_reserved": 0}, {"rental_uris": {"ios": "https://dc.lft.to/lastmile_qr_scan", "android": "https://dc.lft.to/lastmile_qr_scan"}, "lon": -77.024073, "type": "electric_scooter", "fusion_lat": 0.0, "lat": 38.905910166666665, "name": "1dca99323b7de14ac37895c9bc4b3f63", "fusion_lon": 0.0, "bike_id": "1dca99323b7de14ac37895c9bc4b3f63", "is_disabled": 0, "is_reserved": 0}, {"rental_uris": {"ios": "https://dc.lft.to/lastmile_qr_scan", "android": "https://dc.lft.to/lastmile_qr_scan"}, "lon": -77.04128866666667, "type": "electric_scooter", "fusion_lat": 0.0, "lat": 38.92156833333333, "name": "974af73538dadca1f399496e43e111a8", "fusion_lon": 0.0, "bike_id": "974af73538dadca1f399496e43e111a8", "is_disabled": 0, "is_reserved": 0}, {"rental_uris": {"ios": "https://dc.lft.to/lastmile_qr_scan", "android": "https://dc.lft.to/lastmile_qr_scan"}, "lon": -76.9861615, "type": "electric_scooter", "fusion_lat": 0.0, "lat": 38.86815283333333, "name": "9050a4d5095fc8658d9e464f75acad86", "fusion_lon": 0.0, "bike_id": "9050a4d5095fc8658d9e464f75acad86", "is_disabled": 0, "is_reserved": 0}, {"rental_uris": {"ios": "https://dc.lft.to/lastmile_qr_scan", "android": "https://dc.lft.to/lastmile_qr_scan"}, "lon": -77.04310916666667, "type": "electric_scooter", "fusion_lat": 0.0, "lat": 38.90945716666667, "name": "75bcfbf937b74fe481b5b62882580b91", "fusion_lon": 0.0, "bike_id": "75bcfbf937b74fe481b5b62882580b91", "is_disabled": 0, "is_reserved": 0}, {"rental_uris": {"ios": "https://dc.lft.to/lastmile_qr_scan", "android": "https://dc.lft.to/lastmile_qr_scan"}, "lon": -76.9581815, "type": "electric_scooter", "fusion_lat": 0.0, "lat": 38.8905375, "name": "3d275699ee7a80fb956e31323c7cc264", "fusion_lon": 0.0, "bike_id": "3d275699ee7a80fb956e31323c7cc264", "is_disabled": 0, "is_reserved": 0}, {"rental_uris": {"ios": "https://dc.lft.to/lastmile_qr_scan", "android": "https://dc.lft.to/lastmile_qr_scan"}, "lon": -77.031901, "type": "electric_scooter", "fusion_lat": 0.0, "lat": 38.91736383333333, "name": "3b8cb91c01bf7c13c9511f8beca0f6cc", "fusion_lon": 0.0, "bike_id": "3b8cb91c01bf7c13c9511f8beca0f6cc", "is_disabled": 0, "is_reserved": 0}, {"rental_uris": {"ios": "https://dc.lft.to/lastmile_qr_scan", "android": "https://dc.lft.to/lastmile_qr_scan"}, "lon": -77.02881, "type": "electric_scooter", "fusion_lat": 0.0, "lat": 38.916805, "name": "cbfafb8f7dc5db782670a2e12f7d19cf", "fusion_lon": 0.0, "bike_id": "cbfafb8f7dc5db782670a2e12f7d19cf", "is_disabled": 0, "is_reserved": 0}, {"rental_uris": {"ios": "https://dc.lft.to/lastmile_qr_scan", "android": "https://dc.lft.to/lastmile_qr_scan"}, "lon": -77.05590916666667, "type": "electric_scooter", "fusion_lat": 0.0, "lat": 38.927775, "name": "a4aeb362318a00af56fb5fcce6f9c5bb", "fusion_lon": 0.0, "bike_id": "a4aeb362318a00af56fb5fcce6f9c5bb", "is_disabled": 0, "is_reserved": 0}, {"rental_uris": {"ios": "https://dc.lft.to/lastmile_qr_scan", "android": "https://dc.lft.to/lastmile_qr_scan"}, "lon": -77.0372965, "type": "electric_scooter", "fusion_lat": 0.0, "lat": 38.925877666666665, "name": "9d4fcfb9665549c53fa2bea32e60ed1e", "fusion_lon": 0.0, "bike_id": "9d4fcfb9665549c53fa2bea32e60ed1e", "is_disabled": 0, "is_reserved": 0}, {"rental_uris": {"ios": "https://dc.lft.to/lastmile_qr_scan", "android": "https://dc.lft.to/lastmile_qr_scan"}, "lon": -77.02149483333334, "type": "electric_scooter", "fusion_lat": 0.0, "lat": 38.896047, "name": "48a453d6b85ecc0670a1f72fa033e08c", "fusion_lon": 0.0, "bike_id": "48a453d6b85ecc0670a1f72fa033e08c", "is_disabled": 0, "is_reserved": 0}, {"rental_uris": {"ios": "https://dc.lft.to/lastmile_qr_scan", "android": "https://dc.lft.to/lastmile_qr_scan"}, "lon": -77.03102016666666, "type": "electric_scooter", "fusion_lat": 0.0, "lat": 38.91806616666667, "name": "ef01e835645844aa5c81c8df1044885a", "fusion_lon": 0.0, "bike_id": "ef01e835645844aa5c81c8df1044885a", "is_disabled": 0, "is_reserved": 0}, {"rental_uris": {"ios": "https://dc.lft.to/lastmile_qr_scan", "android": "https://dc.lft.to/lastmile_qr_scan"}, "lon": -77.09522383333334, "type": "electric_bike", "fusion_lat": 0.0, "lat": 38.83806966666667, "name": "a2c65b95f0293bd7d2049972d11e0582", "fusion_lon": 0.0, "bike_id": "a2c65b95f0293bd7d2049972d11e0582", "is_disabled": 0, "is_reserved": 0}, {"rental_uris": {"ios": "https://dc.lft.to/lastmile_qr_scan", "android": "https://dc.lft.to/lastmile_qr_scan"}, "lon": -77.03253783333334, "type": "electric_scooter", "fusion_lat": 0.0, "lat": 38.91819016666667, "name": "e4f45edb966e12eba7015770dd5b3d58", "fusion_lon": 0.0, "bike_id": "e4f45edb966e12eba7015770dd5b3d58", "is_disabled": 0, "is_reserved": 0}, {"rental_uris": {"ios": "https://dc.lft.to/lastmile_qr_scan", "android": "https://dc.lft.to/lastmile_qr_scan"}, "lon": -77.02803533333334, "type": "electric_scooter", "fusion_lat": 0.0, "lat": 38.91753816666667, "name": "f521a4879da6373be3b703457f82c480", "fusion_lon": 0.0, "bike_id": "f521a4879da6373be3b703457f82c480", "is_disabled": 0, "is_reserved": 0}, {"rental_uris": {"ios": "https://dc.lft.to/lastmile_qr_scan", "android": "https://dc.lft.to/lastmile_qr_scan"}, "lon": -76.9380235, "type": "electric_scooter", "fusion_lat": 0.0, "lat": 38.88233733333333, "name": "fa503e25d1516e9a1e87742ac963efa6", "fusion_lon": 0.0, "bike_id": "fa503e25d1516e9a1e87742ac963efa6", "is_disabled": 0, "is_reserved": 0}, {"rental_uris": {"ios": "https://dc.lft.to/lastmile_qr_scan", "android": "https://dc.lft.to/lastmile_qr_scan"}, "lon": -77.0098135, "type": "electric_scooter", "fusion_lat": 0.0, "lat": 38.91492866666667, "name": "c696c004282d9254d46b8b2836232c34", "fusion_lon": 0.0, "bike_id": "c696c004282d9254d46b8b2836232c34", "is_disabled": 0, "is_reserved": 0}, {"rental_uris": {"ios": "https://dc.lft.to/lastmile_qr_scan", "android": "https://dc.lft.to/lastmile_qr_scan"}, "lon": -77.0269725, "type": "electric_scooter", "fusion_lat": 0.0, "lat": 38.949797333333336, "name": "631bda8358aaff724b9ec563dd0ecdab", "fusion_lon": 0.0, "bike_id": "631bda8358aaff724b9ec563dd0ecdab", "is_disabled": 0, "is_reserved": 0}, {"rental_uris": {"ios": "https://dc.lft.to/lastmile_qr_scan", "android": "https://dc.lft.to/lastmile_qr_scan"}, "lon": -77.01053516666667, "type": "electric_scooter", "fusion_lat": 0.0, "lat": 38.879334166666666, "name": "c5df759036dfeec2c20732356a6e88ed", "fusion_lon": 0.0, "bike_id": "c5df759036dfeec2c20732356a6e88ed", "is_disabled": 0, "is_reserved": 0}, {"rental_uris": {"ios": "https://dc.lft.to/lastmile_qr_scan", "android": "https://dc.lft.to/lastmile_qr_scan"}, "lon": -76.96625683333333, "type": "electric_bike", "fusion_lat": 0.0, "lat": 38.9419885, "name": "ade96a91269afa28fe5654bff5d7ac60", "fusion_lon": 0.0, "bike_id": "ade96a91269afa28fe5654bff5d7ac60", "is_disabled": 0, "is_reserved": 0}, {"rental_uris": {"ios": "https://dc.lft.to/lastmile_qr_scan", "android": "https://dc.lft.to/lastmile_qr_scan"}, "lon": -77.022984, "type": "electric_scooter", "fusion_lat": 0.0, "lat": 38.93298083333333, "name": "75d7c992c2d70f572d2f25f149d11c48", "fusion_lon": 0.0, "bike_id": "75d7c992c2d70f572d2f25f149d11c48", "is_disabled": 0, "is_reserved": 0}, {"rental_uris": {"ios": "https://dc.lft.to/lastmile_qr_scan", "android": "https://dc.lft.to/lastmile_qr_scan"}, "lon": -77.030036, "type": "electric_scooter", "fusion_lat": 0.0, "lat": 38.90505233333333, "name": "489ee861cebe496211bcc22fbef1c364", "fusion_lon": 0.0, "bike_id": "489ee861cebe496211bcc22fbef1c364", "is_disabled": 0, "is_reserved": 0}, {"rental_uris": {"ios": "https://dc.lft.to/lastmile_qr_scan", "android": "https://dc.lft.to/lastmile_qr_scan"}, "lon": -77.01785083333333, "type": "electric_scooter", "fusion_lat": 0.0, "lat": 38.904173166666666, "name": "c9f85550437359fe09f2b90b3caae79b", "fusion_lon": 0.0, "bike_id": "c9f85550437359fe09f2b90b3caae79b", "is_disabled": 0, "is_reserved": 0}, {"rental_uris": {"ios": "https://dc.lft.to/lastmile_qr_scan", "android": "https://dc.lft.to/lastmile_qr_scan"}, "lon": -77.0018955, "type": "electric_bike", "fusion_lat": 0.0, "lat": 38.905469833333335, "name": "ba9bfe2e3e59acd1488853eb552a4f0d", "fusion_lon": 0.0, "bike_id": "ba9bfe2e3e59acd1488853eb552a4f0d", "is_disabled": 0, "is_reserved": 0}, {"rental_uris": {"ios": "https://dc.lft.to/lastmile_qr_scan", "android": "https://dc.lft.to/lastmile_qr_scan"}, "lon": -77.02108583333333, "type": "electric_scooter", "fusion_lat": 0.0, "lat": 38.913105, "name": "12eb28062b3156c6667d56421e592fe9", "fusion_lon": 0.0, "bike_id": "12eb28062b3156c6667d56421e592fe9", "is_disabled": 0, "is_reserved": 0}, {"rental_uris": {"ios": "https://dc.lft.to/lastmile_qr_scan", "android": "https://dc.lft.to/lastmile_qr_scan"}, "lon": -77.0418405, "type": "electric_scooter", "fusion_lat": 0.0, "lat": 38.919844, "name": "ff38f6ef3b2431d5f75fde1ec15f540c", "fusion_lon": 0.0, "bike_id": "ff38f6ef3b2431d5f75fde1ec15f540c", "is_disabled": 0, "is_reserved": 0}, {"rental_uris": {"ios": "https://dc.lft.to/lastmile_qr_scan", "android": "https://dc.lft.to/lastmile_qr_scan"}, "lon": -77.046561, "type": "electric_scooter", "fusion_lat": 0.0, "lat": 38.8924645, "name": "9133cd7ee6bd6281800bb0a33d56e62f", "fusion_lon": 0.0, "bike_id": "9133cd7ee6bd6281800bb0a33d56e62f", "is_disabled": 0, "is_reserved": 0}, {"rental_uris": {"ios": "https://dc.lft.to/lastmile_qr_scan", "android": "https://dc.lft.to/lastmile_qr_scan"}, "lon": -77.03850033333333, "type": "electric_scooter", "fusion_lat": 0.0, "lat": 38.910133333333334, "name": "79da073366259d785d6e4c553542880d", "fusion_lon": 0.0, "bike_id": "79da073366259d785d6e4c553542880d", "is_disabled": 0, "is_reserved": 0}, {"rental_uris": {"ios": "https://dc.lft.to/lastmile_qr_scan", "android": "https://dc.lft.to/lastmile_qr_scan"}, "lon": -77.13094433333333, "type": "electric_bike", "fusion_lat": 0.0, "lat": 38.861625833333335, "name": "076be7d52f59ce83db8e7dca3c626a02", "fusion_lon": 0.0, "bike_id": "076be7d52f59ce83db8e7dca3c626a02", "is_disabled": 0, "is_reserved": 0}, {"rental_uris": {"ios": "https://dc.lft.to/lastmile_qr_scan", "android": "https://dc.lft.to/lastmile_qr_scan"}, "lon": -77.02322416666667, "type": "electric_scooter", "fusion_lat": 0.0, "lat": 38.88314833333333, "name": "11313c5b542de8f183479dbb2a6e490a", "fusion_lon": 0.0, "bike_id": "11313c5b542de8f183479dbb2a6e490a", "is_disabled": 0, "is_reserved": 0}, {"rental_uris": {"ios": "https://dc.lft.to/lastmile_qr_scan", "android": "https://dc.lft.to/lastmile_qr_scan"}, "lon": -77.02148166666667, "type": "electric_scooter", "fusion_lat": 0.0, "lat": 38.9096555, "name": "2dea3e88f278e1118a7779fb54750eaa", "fusion_lon": 0.0, "bike_id": "2dea3e88f278e1118a7779fb54750eaa", "is_disabled": 0, "is_reserved": 0}, {"rental_uris": {"ios": "https://dc.lft.to/lastmile_qr_scan", "android": "https://dc.lft.to/lastmile_qr_scan"}, "lon": -77.0916, "type": "electric_bike", "fusion_lat": 0.0, "lat": 38.96755983333333, "name": "f41a99f7ccaed9b1f8fbef0608cd94a9", "fusion_lon": 0.0, "bike_id": "f41a99f7ccaed9b1f8fbef0608cd94a9", "is_disabled": 0, "is_reserved": 0}, {"rental_uris": {"ios": "https://dc.lft.to/lastmile_qr_scan", "android": "https://dc.lft.to/lastmile_qr_scan"}, "lon": -77.029282, "type": "electric_scooter", "fusion_lat": 0.0, "lat": 38.903659, "name": "c7925fe3da42f26aa872f9eb8051bc51", "fusion_lon": 0.0, "bike_id": "c7925fe3da42f26aa872f9eb8051bc51", "is_disabled": 0, "is_reserved": 0}, {"rental_uris": {"ios": "https://dc.lft.to/lastmile_qr_scan", "android": "https://dc.lft.to/lastmile_qr_scan"}, "lon": -77.04164066666667, "type": "electric_scooter", "fusion_lat": 0.0, "lat": 38.9185825, "name": "453edae8bd80768fae42e90deed63e43", "fusion_lon": 0.0, "bike_id": "453edae8bd80768fae42e90deed63e43", "is_disabled": 0, "is_reserved": 0}, {"rental_uris": {"ios": "https://dc.lft.to/lastmile_qr_scan", "android": "https://dc.lft.to/lastmile_qr_scan"}, "lon": -77.04543366666667, "type": "electric_scooter", "fusion_lat": 0.0, "lat": 38.91323533333333, "name": "101e762d3d41e4f124cac07c5fe9e32f", "fusion_lon": 0.0, "bike_id": "101e762d3d41e4f124cac07c5fe9e32f", "is_disabled": 0, "is_reserved": 0}, {"rental_uris": {"ios": "https://dc.lft.to/lastmile_qr_scan", "android": "https://dc.lft.to/lastmile_qr_scan"}, "lon": -77.01229933333333, "type": "electric_scooter", "fusion_lat": 0.0, "lat": 38.91551316666666, "name": "c40b68b97d185bc529cce0ae817071ea", "fusion_lon": 0.0, "bike_id": "c40b68b97d185bc529cce0ae817071ea", "is_disabled": 0, "is_reserved": 0}, {"rental_uris": {"ios": "https://dc.lft.to/lastmile_qr_scan", "android": "https://dc.lft.to/lastmile_qr_scan"}, "lon": -77.04142366666666, "type": "electric_scooter", "fusion_lat": 0.0, "lat": 38.91703616666667, "name": "809cb62b3fc5b55bdfe746b34985c3f5", "fusion_lon": 0.0, "bike_id": "809cb62b3fc5b55bdfe746b34985c3f5", "is_disabled": 0, "is_reserved": 0}, {"rental_uris": {"ios": "https://dc.lft.to/lastmile_qr_scan", "android": "https://dc.lft.to/lastmile_qr_scan"}, "lon": -76.99504883333333, "type": "electric_bike", "fusion_lat": 0.0, "lat": 39.0000005, "name": "f0b562434309a0c039cfb216e1a704e9", "fusion_lon": 0.0, "bike_id": "f0b562434309a0c039cfb216e1a704e9", "is_disabled": 0, "is_reserved": 0}, {"rental_uris": {"ios": "https://dc.lft.to/lastmile_qr_scan", "android": "https://dc.lft.to/lastmile_qr_scan"}, "lon": -77.02645466666667, "type": "electric_scooter", "fusion_lat": 0.0, "lat": 38.91564566666667, "name": "341b0fdda647c80f48806105a4e63378", "fusion_lon": 0.0, "bike_id": "341b0fdda647c80f48806105a4e63378", "is_disabled": 0, "is_reserved": 0}, {"rental_uris": {"ios": "https://dc.lft.to/lastmile_qr_scan", "android": "https://dc.lft.to/lastmile_qr_scan"}, "lon": -77.00515833333333, "type": "electric_scooter", "fusion_lat": 0.0, "lat": 38.916976166666664, "name": "4d48f1e255ec2dc79487292b3cc03193", "fusion_lon": 0.0, "bike_id": "4d48f1e255ec2dc79487292b3cc03193", "is_disabled": 0, "is_reserved": 0}, {"rental_uris": {"ios": "https://dc.lft.to/lastmile_qr_scan", "android": "https://dc.lft.to/lastmile_qr_scan"}, "lon": -77.06374966666667, "type": "electric_scooter", "fusion_lat": 0.0, "lat": 38.944183833333334, "name": "430fa2456f6cef721329f894284cacbb", "fusion_lon": 0.0, "bike_id": "430fa2456f6cef721329f894284cacbb", "is_disabled": 0, "is_reserved": 0}, {"rental_uris": {"ios": "https://dc.lft.to/lastmile_qr_scan", "android": "https://dc.lft.to/lastmile_qr_scan"}, "lon": -77.007427, "type": "electric_scooter", "fusion_lat": 0.0, "lat": 38.90342616666667, "name": "0668094e1e77fbdc4a97da6b5ad16fb9", "fusion_lon": 0.0, "bike_id": "0668094e1e77fbdc4a97da6b5ad16fb9", "is_disabled": 0, "is_reserved": 0}, {"rental_uris": {"ios": "https://dc.lft.to/lastmile_qr_scan", "android": "https://dc.lft.to/lastmile_qr_scan"}, "lon": -77.05336766666667, "type": "electric_scooter", "fusion_lat": 0.0, "lat": 38.905952666666664, "name": "5893f9e054f8b4b8d03863423c7df810", "fusion_lon": 0.0, "bike_id": "5893f9e054f8b4b8d03863423c7df810", "is_disabled": 0, "is_reserved": 0}, {"rental_uris": {"ios": "https://dc.lft.to/lastmile_qr_scan", "android": "https://dc.lft.to/lastmile_qr_scan"}, "lon": -77.02620583333334, "type": "electric_scooter", "fusion_lat": 0.0, "lat": 38.93402483333333, "name": "84c7a3255f72f85899f3458dfdb78118", "fusion_lon": 0.0, "bike_id": "84c7a3255f72f85899f3458dfdb78118", "is_disabled": 0, "is_reserved": 0}, {"rental_uris": {"ios": "https://dc.lft.to/lastmile_qr_scan", "android": "https://dc.lft.to/lastmile_qr_scan"}, "lon": -77.0317765, "type": "electric_scooter", "fusion_lat": 0.0, "lat": 38.91253916666667, "name": "0a7592d213962bf5ae268dc12b498413", "fusion_lon": 0.0, "bike_id": "0a7592d213962bf5ae268dc12b498413", "is_disabled": 0, "is_reserved": 0}, {"rental_uris": {"ios": "https://dc.lft.to/lastmile_qr_scan", "android": "https://dc.lft.to/lastmile_qr_scan"}, "lon": -76.99973666666666, "type": "electric_scooter", "fusion_lat": 0.0, "lat": 38.838324166666666, "name": "450c0b14d7599901e2cd27a585758a4b", "fusion_lon": 0.0, "bike_id": "450c0b14d7599901e2cd27a585758a4b", "is_disabled": 0, "is_reserved": 0}, {"rental_uris": {"ios": "https://dc.lft.to/lastmile_qr_scan", "android": "https://dc.lft.to/lastmile_qr_scan"}, "lon": -77.03552466666666, "type": "electric_scooter", "fusion_lat": 0.0, "lat": 38.90385966666667, "name": "ae05719ee4d80a1774856c82ba99b10f", "fusion_lon": 0.0, "bike_id": "ae05719ee4d80a1774856c82ba99b10f", "is_disabled": 0, "is_reserved": 0}, {"rental_uris": {"ios": "https://dc.lft.to/lastmile_qr_scan", "android": "https://dc.lft.to/lastmile_qr_scan"}, "lon": -77.06354483333334, "type": "electric_scooter", "fusion_lat": 0.0, "lat": 38.902772666666664, "name": "13dbc73f06d417bf52bc13ccbf3be900", "fusion_lon": 0.0, "bike_id": "13dbc73f06d417bf52bc13ccbf3be900", "is_disabled": 0, "is_reserved": 0}, {"rental_uris": {"ios": "https://dc.lft.to/lastmile_qr_scan", "android": "https://dc.lft.to/lastmile_qr_scan"}, "lon": -76.99546133333334, "type": "electric_scooter", "fusion_lat": 0.0, "lat": 38.90029966666667, "name": "da494e1e694c6dc4eef6b339b8cba09a", "fusion_lon": 0.0, "bike_id": "da494e1e694c6dc4eef6b339b8cba09a", "is_disabled": 0, "is_reserved": 0}, {"rental_uris": {"ios": "https://dc.lft.to/lastmile_qr_scan", "android": "https://dc.lft.to/lastmile_qr_scan"}, "lon": -77.02235733333333, "type": "electric_scooter", "fusion_lat": 0.0, "lat": 38.915495, "name": "69d1ec327d419fcf50c9d475468d18d6", "fusion_lon": 0.0, "bike_id": "69d1ec327d419fcf50c9d475468d18d6", "is_disabled": 0, "is_reserved": 0}, {"rental_uris": {"ios": "https://dc.lft.to/lastmile_qr_scan", "android": "https://dc.lft.to/lastmile_qr_scan"}, "lon": -77.04102466666667, "type": "electric_scooter", "fusion_lat": 0.0, "lat": 38.918532666666664, "name": "319ca4290a02a7d50772db692289e3b8", "fusion_lon": 0.0, "bike_id": "319ca4290a02a7d50772db692289e3b8", "is_disabled": 0, "is_reserved": 0}, {"rental_uris": {"ios": "https://dc.lft.to/lastmile_qr_scan", "android": "https://dc.lft.to/lastmile_qr_scan"}, "lon": -77.08540333333333, "type": "electric_bike", "fusion_lat": 0.0, "lat": 38.856206, "name": "06ff56d778597f6cf64c236dedcc66cb", "fusion_lon": 0.0, "bike_id": "06ff56d778597f6cf64c236dedcc66cb", "is_disabled": 0, "is_reserved": 0}, {"rental_uris": {"ios": "https://dc.lft.to/lastmile_qr_scan", "android": "https://dc.lft.to/lastmile_qr_scan"}, "lon": -77.00667466666667, "type": "electric_scooter", "fusion_lat": 0.0, "lat": 38.87480216666667, "name": "5c1030c11c43257238efbb67f44a7387", "fusion_lon": 0.0, "bike_id": "5c1030c11c43257238efbb67f44a7387", "is_disabled": 0, "is_reserved": 0}, {"rental_uris": {"ios": "https://dc.lft.to/lastmile_qr_scan", "android": "https://dc.lft.to/lastmile_qr_scan"}, "lon": -77.02978366666666, "type": "electric_scooter", "fusion_lat": 0.0, "lat": 38.96228466666667, "name": "1985bbab69772b4d2988b42d5bb69652", "fusion_lon": 0.0, "bike_id": "1985bbab69772b4d2988b42d5bb69652", "is_disabled": 0, "is_reserved": 0}, {"rental_uris": {"ios": "https://dc.lft.to/lastmile_qr_scan", "android": "https://dc.lft.to/lastmile_qr_scan"}, "lon": -77.0409775, "type": "electric_scooter", "fusion_lat": 0.0, "lat": 38.917644, "name": "84c1adaf58cd9f9cefce5cb8ff73e329", "fusion_lon": 0.0, "bike_id": "84c1adaf58cd9f9cefce5cb8ff73e329", "is_disabled": 0, "is_reserved": 0}, {"rental_uris": {"ios": "https://dc.lft.to/lastmile_qr_scan", "android": "https://dc.lft.to/lastmile_qr_scan"}, "lon": -77.02194583333333, "type": "electric_scooter", "fusion_lat": 0.0, "lat": 38.89480783333333, "name": "647f6e88f40f1c1830792ce5177ceb3c", "fusion_lon": 0.0, "bike_id": "647f6e88f40f1c1830792ce5177ceb3c", "is_disabled": 0, "is_reserved": 0}, {"rental_uris": {"ios": "https://dc.lft.to/lastmile_qr_scan", "android": "https://dc.lft.to/lastmile_qr_scan"}, "lon": -77.0425235, "type": "electric_scooter", "fusion_lat": 0.0, "lat": 38.90755883333333, "name": "87af2edd26c58ff9a47e7d526087942e", "fusion_lon": 0.0, "bike_id": "87af2edd26c58ff9a47e7d526087942e", "is_disabled": 0, "is_reserved": 0}, {"rental_uris": {"ios": "https://dc.lft.to/lastmile_qr_scan", "android": "https://dc.lft.to/lastmile_qr_scan"}, "lon": -77.02099983333333, "type": "electric_scooter", "fusion_lat": 0.0, "lat": 38.88742216666667, "name": "45cfe7e5976af5d2e877a388688d56f6", "fusion_lon": 0.0, "bike_id": "45cfe7e5976af5d2e877a388688d56f6", "is_disabled": 0, "is_reserved": 0}, {"rental_uris": {"ios": "https://dc.lft.to/lastmile_qr_scan", "android": "https://dc.lft.to/lastmile_qr_scan"}, "lon": -77.02307, "type": "electric_scooter", "fusion_lat": 0.0, "lat": 38.918329, "name": "d9abd65d72b8eaa4e433d72e4db7c44f", "fusion_lon": 0.0, "bike_id": "d9abd65d72b8eaa4e433d72e4db7c44f", "is_disabled": 0, "is_reserved": 0}, {"rental_uris": {"ios": "https://dc.lft.to/lastmile_qr_scan", "android": "https://dc.lft.to/lastmile_qr_scan"}, "lon": -76.98833283333333, "type": "electric_scooter", "fusion_lat": 0.0, "lat": 38.894614833333335, "name": "c50aeff7776d8235a5036682bcfe9b2d", "fusion_lon": 0.0, "bike_id": "c50aeff7776d8235a5036682bcfe9b2d", "is_disabled": 0, "is_reserved": 0}, {"rental_uris": {"ios": "https://dc.lft.to/lastmile_qr_scan", "android": "https://dc.lft.to/lastmile_qr_scan"}, "lon": -77.02651033333333, "type": "electric_scooter", "fusion_lat": 0.0, "lat": 38.938656, "name": "ddc27c437df014a97646ffefe2a3b1a8", "fusion_lon": 0.0, "bike_id": "ddc27c437df014a97646ffefe2a3b1a8", "is_disabled": 0, "is_reserved": 0}, {"rental_uris": {"ios": "https://dc.lft.to/lastmile_qr_scan", "android": "https://dc.lft.to/lastmile_qr_scan"}, "lon": -77.01699516666666, "type": "electric_scooter", "fusion_lat": 0.0, "lat": 38.920006666666666, "name": "b2cc564324a6899e93fc3c72769ccb29", "fusion_lon": 0.0, "bike_id": "b2cc564324a6899e93fc3c72769ccb29", "is_disabled": 0, "is_reserved": 0}, {"rental_uris": {"ios": "https://dc.lft.to/lastmile_qr_scan", "android": "https://dc.lft.to/lastmile_qr_scan"}, "lon": -77.03130816666666, "type": "electric_scooter", "fusion_lat": 0.0, "lat": 38.923661333333335, "name": "76ec6fc76afa59719855edc148bf9c0f", "fusion_lon": 0.0, "bike_id": "76ec6fc76afa59719855edc148bf9c0f", "is_disabled": 0, "is_reserved": 0}, {"rental_uris": {"ios": "https://dc.lft.to/lastmile_qr_scan", "android": "https://dc.lft.to/lastmile_qr_scan"}, "lon": -77.01280033333333, "type": "electric_scooter", "fusion_lat": 0.0, "lat": 38.900476833333336, "name": "f3894c8138ebc3d7e0c456a1236dc292", "fusion_lon": 0.0, "bike_id": "f3894c8138ebc3d7e0c456a1236dc292", "is_disabled": 0, "is_reserved": 0}, {"rental_uris": {"ios": "https://dc.lft.to/lastmile_qr_scan", "android": "https://dc.lft.to/lastmile_qr_scan"}, "lon": -76.99985333333333, "type": "electric_scooter", "fusion_lat": 0.0, "lat": 38.90817933333334, "name": "7538022a041d8013ebebf5d7d9e45e53", "fusion_lon": 0.0, "bike_id": "7538022a041d8013ebebf5d7d9e45e53", "is_disabled": 0, "is_reserved": 0}, {"rental_uris": {"ios": "https://dc.lft.to/lastmile_qr_scan", "android": "https://dc.lft.to/lastmile_qr_scan"}, "lon": -77.03347216666667, "type": "electric_scooter", "fusion_lat": 0.0, "lat": 38.9288405, "name": "0e54673a44f81ea60e677ff5665f7d27", "fusion_lon": 0.0, "bike_id": "0e54673a44f81ea60e677ff5665f7d27", "is_disabled": 0, "is_reserved": 0}, {"rental_uris": {"ios": "https://dc.lft.to/lastmile_qr_scan", "android": "https://dc.lft.to/lastmile_qr_scan"}, "lon": -77.0249565, "type": "electric_scooter", "fusion_lat": 0.0, "lat": 38.91805633333333, "name": "45f63dbabcefb75d93aaa8ce9b85068e", "fusion_lon": 0.0, "bike_id": "45f63dbabcefb75d93aaa8ce9b85068e", "is_disabled": 0, "is_reserved": 0}, {"rental_uris": {"ios": "https://dc.lft.to/lastmile_qr_scan", "android": "https://dc.lft.to/lastmile_qr_scan"}, "lon": -77.04870816666667, "type": "electric_scooter", "fusion_lat": 0.0, "lat": 38.90977133333333, "name": "32f7b7a24e697c5ff874c79de322a438", "fusion_lon": 0.0, "bike_id": "32f7b7a24e697c5ff874c79de322a438", "is_disabled": 0, "is_reserved": 0}, {"rental_uris": {"ios": "https://dc.lft.to/lastmile_qr_scan", "android": "https://dc.lft.to/lastmile_qr_scan"}, "lon": -77.02270466666667, "type": "electric_scooter", "fusion_lat": 0.0, "lat": 38.89843366666667, "name": "3f0bbb7a6ffee7b02453a1fc0a6456dd", "fusion_lon": 0.0, "bike_id": "3f0bbb7a6ffee7b02453a1fc0a6456dd", "is_disabled": 0, "is_reserved": 0}, {"rental_uris": {"ios": "https://dc.lft.to/lastmile_qr_scan", "android": "https://dc.lft.to/lastmile_qr_scan"}, "lon": -76.931747, "type": "electric_scooter", "fusion_lat": 0.0, "lat": 38.898824166666664, "name": "25a82ba600a6e697e0b8032701b1779a", "fusion_lon": 0.0, "bike_id": "25a82ba600a6e697e0b8032701b1779a", "is_disabled": 0, "is_reserved": 0}, {"rental_uris": {"ios": "https://dc.lft.to/lastmile_qr_scan", "android": "https://dc.lft.to/lastmile_qr_scan"}, "lon": -77.0220475, "type": "electric_scooter", "fusion_lat": 0.0, "lat": 38.9215735, "name": "af49255f0f4e93cb8134ff00007adf0c", "fusion_lon": 0.0, "bike_id": "af49255f0f4e93cb8134ff00007adf0c", "is_disabled": 0, "is_reserved": 0}, {"rental_uris": {"ios": "https://dc.lft.to/lastmile_qr_scan", "android": "https://dc.lft.to/lastmile_qr_scan"}, "lon": -77.00333616666667, "type": "electric_scooter", "fusion_lat": 0.0, "lat": 38.874946666666666, "name": "943ec0aa420d6bb127544054393a5083", "fusion_lon": 0.0, "bike_id": "943ec0aa420d6bb127544054393a5083", "is_disabled": 0, "is_reserved": 0}, {"rental_uris": {"ios": "https://dc.lft.to/lastmile_qr_scan", "android": "https://dc.lft.to/lastmile_qr_scan"}, "lon": -77.03315933333333, "type": "electric_scooter", "fusion_lat": 0.0, "lat": 38.90153083333333, "name": "ab262ea409a9d8d60cddcecb7b348d4f", "fusion_lon": 0.0, "bike_id": "ab262ea409a9d8d60cddcecb7b348d4f", "is_disabled": 0, "is_reserved": 0}, {"rental_uris": {"ios": "https://dc.lft.to/lastmile_qr_scan", "android": "https://dc.lft.to/lastmile_qr_scan"}, "lon": -77.098714, "type": "electric_bike", "fusion_lat": 0.0, "lat": 38.947896, "name": "73ed22364d360465709fdf4030fabd70", "fusion_lon": 0.0, "bike_id": "73ed22364d360465709fdf4030fabd70", "is_disabled": 0, "is_reserved": 0}, {"rental_uris": {"ios": "https://dc.lft.to/lastmile_qr_scan", "android": "https://dc.lft.to/lastmile_qr_scan"}, "lon": -77.02145866666666, "type": "electric_scooter", "fusion_lat": 0.0, "lat": 38.903049, "name": "513f9449b060a6b2d15f2a9cd56f0213", "fusion_lon": 0.0, "bike_id": "513f9449b060a6b2d15f2a9cd56f0213", "is_disabled": 0, "is_reserved": 0}, {"rental_uris": {"ios": "https://dc.lft.to/lastmile_qr_scan", "android": "https://dc.lft.to/lastmile_qr_scan"}, "lon": -76.92371, "type": "electric_bike", "fusion_lat": 0.0, "lat": 38.8837555, "name": "7c8b53d5bc63c97f954b9a68e1b25ad6", "fusion_lon": 0.0, "bike_id": "7c8b53d5bc63c97f954b9a68e1b25ad6", "is_disabled": 0, "is_reserved": 0}, {"rental_uris": {"ios": "https://dc.lft.to/lastmile_qr_scan", "android": "https://dc.lft.to/lastmile_qr_scan"}, "lon": -76.9904205, "type": "electric_bike", "fusion_lat": 0.0, "lat": 38.924782666666665, "name": "6ad6604d37aa97b2182989a268c6117f", "fusion_lon": 0.0, "bike_id": "6ad6604d37aa97b2182989a268c6117f", "is_disabled": 0, "is_reserved": 0}, {"rental_uris": {"ios": "https://dc.lft.to/lastmile_qr_scan", "android": "https://dc.lft.to/lastmile_qr_scan"}, "lon": -77.03484966666667, "type": "electric_scooter", "fusion_lat": 0.0, "lat": 38.9025365, "name": "a492fbc6e630314d608b94c31dee3a2c", "fusion_lon": 0.0, "bike_id": "a492fbc6e630314d608b94c31dee3a2c", "is_disabled": 0, "is_reserved": 0}, {"rental_uris": {"ios": "https://dc.lft.to/lastmile_qr_scan", "android": "https://dc.lft.to/lastmile_qr_scan"}, "lon": -77.07088616666667, "type": "electric_bike", "fusion_lat": 0.0, "lat": 38.955576, "name": "01d12cbaca6c142c9ead4dca5e8ca773", "fusion_lon": 0.0, "bike_id": "01d12cbaca6c142c9ead4dca5e8ca773", "is_disabled": 0, "is_reserved": 0}, {"rental_uris": {"ios": "https://dc.lft.to/lastmile_qr_scan", "android": "https://dc.lft.to/lastmile_qr_scan"}, "lon": -77.02396933333333, "type": "electric_scooter", "fusion_lat": 0.0, "lat": 38.916752333333335, "name": "4395c97e658d9a7b0a680cff35bda619", "fusion_lon": 0.0, "bike_id": "4395c97e658d9a7b0a680cff35bda619", "is_disabled": 0, "is_reserved": 0}, {"rental_uris": {"ios": "https://dc.lft.to/lastmile_qr_scan", "android": "https://dc.lft.to/lastmile_qr_scan"}, "lon": -77.04059516666666, "type": "electric_scooter", "fusion_lat": 0.0, "lat": 38.923902166666664, "name": "b3b08b8dd90ce49bace722534def111c", "fusion_lon": 0.0, "bike_id": "b3b08b8dd90ce49bace722534def111c", "is_disabled": 0, "is_reserved": 0}, {"rental_uris": {"ios": "https://dc.lft.to/lastmile_qr_scan", "android": "https://dc.lft.to/lastmile_qr_scan"}, "lon": -77.023527, "type": "electric_scooter", "fusion_lat": 0.0, "lat": 38.9317975, "name": "789cba0bdd420aa491a3e55b9a73ab24", "fusion_lon": 0.0, "bike_id": "789cba0bdd420aa491a3e55b9a73ab24", "is_disabled": 0, "is_reserved": 0}, {"rental_uris": {"ios": "https://dc.lft.to/lastmile_qr_scan", "android": "https://dc.lft.to/lastmile_qr_scan"}, "lon": -77.0588275, "type": "electric_scooter", "fusion_lat": 0.0, "lat": 38.93636016666667, "name": "0aadc3f5f36396f8d62c1dde2b93aea9", "fusion_lon": 0.0, "bike_id": "0aadc3f5f36396f8d62c1dde2b93aea9", "is_disabled": 0, "is_reserved": 0}, {"rental_uris": {"ios": "https://dc.lft.to/lastmile_qr_scan", "android": "https://dc.lft.to/lastmile_qr_scan"}, "lon": -77.0179095, "type": "electric_scooter", "fusion_lat": 0.0, "lat": 38.9042915, "name": "bb9a0f8931d850051aabc439d1ffacc0", "fusion_lon": 0.0, "bike_id": "bb9a0f8931d850051aabc439d1ffacc0", "is_disabled": 0, "is_reserved": 0}, {"rental_uris": {"ios": "https://dc.lft.to/lastmile_qr_scan", "android": "https://dc.lft.to/lastmile_qr_scan"}, "lon": -76.9465195, "type": "electric_scooter", "fusion_lat": 0.0, "lat": 38.898252166666666, "name": "e3513faef9d7cb3d9ac31b223a8c4940", "fusion_lon": 0.0, "bike_id": "e3513faef9d7cb3d9ac31b223a8c4940", "is_disabled": 0, "is_reserved": 0}, {"rental_uris": {"ios": "https://dc.lft.to/lastmile_qr_scan", "android": "https://dc.lft.to/lastmile_qr_scan"}, "lon": -77.04254716666667, "type": "electric_scooter", "fusion_lat": 0.0, "lat": 38.90779416666667, "name": "4c5a72cd497f8440dd6cce4ee5d7ca55", "fusion_lon": 0.0, "bike_id": "4c5a72cd497f8440dd6cce4ee5d7ca55", "is_disabled": 0, "is_reserved": 0}, {"rental_uris": {"ios": "https://dc.lft.to/lastmile_qr_scan", "android": "https://dc.lft.to/lastmile_qr_scan"}, "lon": -77.03357716666666, "type": "electric_scooter", "fusion_lat": 0.0, "lat": 38.906319, "name": "f65e429abe297bff5dfb0dd1777c3bd5", "fusion_lon": 0.0, "bike_id": "f65e429abe297bff5dfb0dd1777c3bd5", "is_disabled": 0, "is_reserved": 0}, {"rental_uris": {"ios": "https://dc.lft.to/lastmile_qr_scan", "android": "https://dc.lft.to/lastmile_qr_scan"}, "lon": -77.01113983333333, "type": "electric_scooter", "fusion_lat": 0.0, "lat": 38.89537516666667, "name": "fb1132a44651d407373a1943b28832ff", "fusion_lon": 0.0, "bike_id": "fb1132a44651d407373a1943b28832ff", "is_disabled": 0, "is_reserved": 0}, {"rental_uris": {"ios": "https://dc.lft.to/lastmile_qr_scan", "android": "https://dc.lft.to/lastmile_qr_scan"}, "lon": -77.02689733333334, "type": "electric_scooter", "fusion_lat": 0.0, "lat": 38.916924, "name": "bb046c2d0fde7dbe2a05f61e9df7ea69", "fusion_lon": 0.0, "bike_id": "bb046c2d0fde7dbe2a05f61e9df7ea69", "is_disabled": 0, "is_reserved": 0}, {"rental_uris": {"ios": "https://dc.lft.to/lastmile_qr_scan", "android": "https://dc.lft.to/lastmile_qr_scan"}, "lon": -77.02402666666667, "type": "electric_scooter", "fusion_lat": 0.0, "lat": 38.91606516666667, "name": "feb3967d8bf3fc703aa0cdadefbc2e85", "fusion_lon": 0.0, "bike_id": "feb3967d8bf3fc703aa0cdadefbc2e85", "is_disabled": 0, "is_reserved": 0}, {"rental_uris": {"ios": "https://dc.lft.to/lastmile_qr_scan", "android": "https://dc.lft.to/lastmile_qr_scan"}, "lon": -77.002386, "type": "electric_bike", "fusion_lat": 0.0, "lat": 38.87345766666667, "name": "caf0bd1b7f7b1ae7e7a5b8e41fe22f3e", "fusion_lon": 0.0, "bike_id": "caf0bd1b7f7b1ae7e7a5b8e41fe22f3e", "is_disabled": 0, "is_reserved": 0}, {"rental_uris": {"ios": "https://dc.lft.to/lastmile_qr_scan", "android": "https://dc.lft.to/lastmile_qr_scan"}, "lon": -77.048786, "type": "electric_scooter", "fusion_lat": 0.0, "lat": 38.906395, "name": "da33bcef0cfd9858df3d464454307e72", "fusion_lon": 0.0, "bike_id": "da33bcef0cfd9858df3d464454307e72", "is_disabled": 0, "is_reserved": 0}, {"rental_uris": {"ios": "https://dc.lft.to/lastmile_qr_scan", "android": "https://dc.lft.to/lastmile_qr_scan"}, "lon": -77.0320805, "type": "electric_scooter", "fusion_lat": 0.0, "lat": 38.9375435, "name": "c329d9c1832823a31864ece412fd9917", "fusion_lon": 0.0, "bike_id": "c329d9c1832823a31864ece412fd9917", "is_disabled": 0, "is_reserved": 0}, {"rental_uris": {"ios": "https://dc.lft.to/lastmile_qr_scan", "android": "https://dc.lft.to/lastmile_qr_scan"}, "lon": -77.00484916666667, "type": "electric_scooter", "fusion_lat": 0.0, "lat": 38.9125525, "name": "aec7338b1480d7643004187173cc0ead", "fusion_lon": 0.0, "bike_id": "aec7338b1480d7643004187173cc0ead", "is_disabled": 0, "is_reserved": 0}, {"rental_uris": {"ios": "https://dc.lft.to/lastmile_qr_scan", "android": "https://dc.lft.to/lastmile_qr_scan"}, "lon": -77.002914, "type": "electric_scooter", "fusion_lat": 0.0, "lat": 38.909034, "name": "86f75924124fd8aecd007e6eaa68618a", "fusion_lon": 0.0, "bike_id": "86f75924124fd8aecd007e6eaa68618a", "is_disabled": 0, "is_reserved": 0}, {"rental_uris": {"ios": "https://dc.lft.to/lastmile_qr_scan", "android": "https://dc.lft.to/lastmile_qr_scan"}, "lon": -76.972501, "type": "electric_bike", "fusion_lat": 0.0, "lat": 38.9573975, "name": "9e311aa217e6c35584a7d51f084e7e91", "fusion_lon": 0.0, "bike_id": "9e311aa217e6c35584a7d51f084e7e91", "is_disabled": 0, "is_reserved": 0}, {"rental_uris": {"ios": "https://dc.lft.to/lastmile_qr_scan", "android": "https://dc.lft.to/lastmile_qr_scan"}, "lon": -77.02527433333333, "type": "electric_scooter", "fusion_lat": 0.0, "lat": 38.943002666666665, "name": "93ae5436492cdf6ef4bdb9f07d82a65f", "fusion_lon": 0.0, "bike_id": "93ae5436492cdf6ef4bdb9f07d82a65f", "is_disabled": 0, "is_reserved": 0}, {"rental_uris": {"ios": "https://dc.lft.to/lastmile_qr_scan", "android": "https://dc.lft.to/lastmile_qr_scan"},