{"data": {"bikes": [{"is_reserved": 0, "type": "electric_scooter", "fusion_lat": 0.0, "is_disabled": 0, "rental_uris": {"ios": "https://dc.lft.to/lastmile_qr_scan", "android": "https://dc.lft.to/lastmile_qr_scan"}, "bike_id": "6e5a21d3c7b9355780ab3dea36d06f22", "lat": 38.92040216666667, "name": "6e5a21d3c7b9355780ab3dea36d06f22", "lon": -77.0259445, "fusion_lon": 0.0}, {"is_reserved": 0, "type": "electric_scooter", "fusion_lat": 0.0, "is_disabled": 0, "rental_uris": {"ios": "https://dc.lft.to/lastmile_qr_scan", "android": "https://dc.lft.to/lastmile_qr_scan"}, "bike_id": "72a13a1e49006e36955cb373e884d4a6", "lat": 38.8858305, "name": "72a13a1e49006e36955cb373e884d4a6", "lon": -77.01226366666667, "fusion_lon": 0.0}, {"is_reserved": 0, "type": "electric_scooter", "fusion_lat": 0.0, "is_disabled": 0, "rental_uris": {"ios": "https://dc.lft.to/lastmile_qr_scan", "android": "https://dc.lft.to/lastmile_qr_scan"}, "bike_id": "892ee69182c5be2e37af701ee9d3f1fe", "lat": 38.923640666666664, "name": "892ee69182c5be2e37af701ee9d3f1fe", "lon": -77.0513005, "fusion_lon": 0.0}, {"is_reserved": 0, "type": "electric_scooter", "fusion_lat": 0.0, "is_disabled": 0, "rental_uris": {"ios": "https://dc.lft.to/lastmile_qr_scan", "android": "https://dc.lft.to/lastmile_qr_scan"}, "bike_id": "022bb0db8bbd89b34f3d0fc5952ecf1f", "lat": 38.9525695, "name": "022bb0db8bbd89b34f3d0fc5952ecf1f", "lon": -77.020722, "fusion_lon": 0.0}, {"is_reserved": 0, "type": "electric_scooter", "fusion_lat": 0.0, "is_disabled": 0, "rental_uris": {"ios": "https://dc.lft.to/lastmile_qr_scan", "android": "https://dc.lft.to/lastmile_qr_scan"}, "bike_id": "29214f9fc8efbb086d2547572bbe3d59", "lat": 38.8922125, "name": "29214f9fc8efbb086d2547572bbe3d59", "lon": -77.03219933333334, "fusion_lon": 0.0}, {"is_reserved": 0, "type": "electric_bike", "fusion_lat": 0.0, "is_disabled": 0, "rental_uris": {"ios": "https://dc.lft.to/lastmile_qr_scan", "android": "https://dc.lft.to/lastmile_qr_scan"}, "bike_id": "0b4e6481c6b7bda9bb5c40b1c2f68797", "lat": 38.90932166666666, "name": "0b4e6481c6b7bda9bb5c40b1c2f68797", "lon": -77.03208116666667, "fusion_lon": 0.0}, {"is_reserved": 0, "type": "electric_scooter", "fusion_lat": 0.0, "is_disabled": 0, "rental_uris": {"ios": "https://dc.lft.to/lastmile_qr_scan", "android": "https://dc.lft.to/lastmile_qr_scan"}, "bike_id": "6c8ded5f01a1665cb28c1fbec57340b7", "lat": 38.89912916666667, "name": "6c8ded5f01a1665cb28c1fbec57340b7", "lon": -77.02319983333334, "fusion_lon": 0.0}, {"is_reserved": 0, "type": "electric_scooter", "fusion_lat": 0.0, "is_disabled": 0, "rental_uris": {"ios": "https://dc.lft.to/lastmile_qr_scan", "android": "https://dc.lft.to/lastmile_qr_scan"}, "bike_id": "b96deab2f98d5dda0029479791666200", "lat": 38.943240333333335, "name": "b96deab2f98d5dda0029479791666200", "lon": -77.01314916666666, "fusion_lon": 0.0}, {"is_reserved": 0, "type": "electric_scooter", "fusion_lat": 0.0, "is_disabled": 0, "rental_uris": {"ios": "https://dc.lft.to/lastmile_qr_scan", "android": "https://dc.lft.to/lastmile_qr_scan"}, "bike_id": "8d45b4f578f85fd6abee1ec7a7a6c87f", "lat": 38.920772666666664, "name": "8d45b4f578f85fd6abee1ec7a7a6c87f", "lon": -77.02422816666666, "fusion_lon": 0.0}, {"is_reserved": 0, "type": "electric_scooter", "fusion_lat": 0.0, "is_disabled": 0, "rental_uris": {"ios": "https://dc.lft.to/lastmile_qr_scan", "android": "https://dc.lft.to/lastmile_qr_scan"}, "bike_id": "714337e434dd5f8018b4387c074e906e", "lat": 38.89326783333333, "name": "714337e434dd5f8018b4387c074e906e", "lon": -76.9392465, "fusion_lon": 0.0}, {"is_reserved": 0, "type": "electric_scooter", "fusion_lat": 0.0, "is_disabled": 0, "rental_uris": {"ios": "https://dc.lft.to/lastmile_qr_scan", "android": "https://dc.lft.to/lastmile_qr_scan"}, "bike_id": "a34a20801134ff9df912e32fd1c00a07", "lat": 38.912615833333334, "name": "a34a20801134ff9df912e32fd1c00a07", "lon": -77.01024266666667, "fusion_lon": 0.0}, {"is_reserved": 0, "type": "electric_scooter", "fusion_lat": 0.0, "is_disabled": 0, "rental_uris": {"ios": "https://dc.lft.to/lastmile_qr_scan", "android": "https://dc.lft.to/lastmile_qr_scan"}, "bike_id": "1065270b32fb8bd7c5ed653aef2b2d99", "lat": 38.936979666666666, "name": "1065270b32fb8bd7c5ed653aef2b2d99", "lon": -77.055982, "fusion_lon": 0.0}, {"is_reserved": 0, "type": "electric_bike", "fusion_lat": 0.0, "is_disabled": 0, "rental_uris": {"ios": "https://dc.lft.to/lastmile_qr_scan", "android": "https://dc.lft.to/lastmile_qr_scan"}, "bike_id": "b9cd4f1deb6b1cf9a08d4fa6ad939b0a", "lat": 38.97343866666667, "name": "b9cd4f1deb6b1cf9a08d4fa6ad939b0a", "lon": -77.01793983333333, "fusion_lon": 0.0}, {"is_reserved": 0, "type": "electric_scooter", "fusion_lat": 0.0, "is_disabled": 0, "rental_uris": {"ios": "https://dc.lft.to/lastmile_qr_scan", "android": "https://dc.lft.to/lastmile_qr_scan"}, "bike_id": "5899e9dcff7161c895ba4658516640e6", "lat": 38.87664133333333, "name": "5899e9dcff7161c895ba4658516640e6", "lon": -77.00811266666666, "fusion_lon": 0.0}, {"is_reserved": 0, "type": "electric_scooter", "fusion_lat": 0.0, "is_disabled": 0, "rental_uris": {"ios": "https://dc.lft.to/lastmile_qr_scan", "android": "https://dc.lft.to/lastmile_qr_scan"}, "bike_id": "19c11c7af619976a74ffefdee99cf0e4", "lat": 38.91912166666667, "name": "19c11c7af619976a74ffefdee99cf0e4", "lon": -77.04808133333333, "fusion_lon": 0.0}, {"is_reserved": 0, "type": "electric_scooter", "fusion_lat": 0.0, "is_disabled": 0, "rental_uris": {"ios": "https://dc.lft.to/lastmile_qr_scan", "android": "https://dc.lft.to/lastmile_qr_scan"}, "bike_id": "242f8776ee80a9af9dd95cf4a57bee89", "lat": 38.92913983333333, "name": "242f8776ee80a9af9dd95cf4a57bee89", "lon": -77.02332966666667, "fusion_lon": 0.0}, {"is_reserved": 0, "type": "electric_scooter", "fusion_lat": 0.0, "is_disabled": 0, "rental_uris": {"ios": "https://dc.lft.to/lastmile_qr_scan", "android": "https://dc.lft.to/lastmile_qr_scan"}, "bike_id": "f09fb3a4ea72f4a9e924d4bfae0a3064", "lat": 38.91648983333333, "name": "f09fb3a4ea72f4a9e924d4bfae0a3064", "lon": -77.02174366666667, "fusion_lon": 0.0}, {"is_reserved": 0, "type": "electric_scooter", "fusion_lat": 0.0, "is_disabled": 0, "rental_uris": {"ios": "https://dc.lft.to/lastmile_qr_scan", "android": "https://dc.lft.to/lastmile_qr_scan"}, "bike_id": "65fb802171259b765b99ac6e9842892c", "lat": 38.924845166666664, "name": "65fb802171259b765b99ac6e9842892c", "lon": -77.02529033333333, "fusion_lon": 0.0}, {"is_reserved": 0, "type": "electric_scooter", "fusion_lat": 0.0, "is_disabled": 0, "rental_uris": {"ios": "https://dc.lft.to/lastmile_qr_scan", "android": "https://dc.lft.to/lastmile_qr_scan"}, "bike_id": "9a523b5941a9e27bf4cf9580b3a81ebb", "lat": 38.89835883333333, "name": "9a523b5941a9e27bf4cf9580b3a81ebb", "lon": -77.05016, "fusion_lon": 0.0}, {"is_reserved": 0, "type": "electric_scooter", "fusion_lat": 0.0, "is_disabled": 0, "rental_uris": {"ios": "https://dc.lft.to/lastmile_qr_scan", "android": "https://dc.lft.to/lastmile_qr_scan"}, "bike_id": "ed49ca59cddf72e1c44b16be4bbcf367", "lat": 38.90187616666667, "name": "ed49ca59cddf72e1c44b16be4bbcf367", "lon": -76.93464183333333, "fusion_lon": 0.0}, {"is_reserved": 0, "type": "electric_scooter", "fusion_lat": 0.0, "is_disabled": 0, "rental_uris": {"ios": "https://dc.lft.to/lastmile_qr_scan", "android": "https://dc.lft.to/lastmile_qr_scan"}, "bike_id": "1e297fd764fd9baf716cfda7ee78c12c", "lat": 38.930790333333334, "name": "1e297fd764fd9baf716cfda7ee78c12c", "lon": -77.07760583333334, "fusion_lon": 0.0}, {"is_reserved": 0, "type": "electric_bike", "fusion_lat": 0.0, "is_disabled": 0, "rental_uris": {"ios": "https://dc.lft.to/lastmile_qr_scan", "android": "https://dc.lft.to/lastmile_qr_scan"}, "bike_id": "627e38a1e4f4fa5cac2dea2c59e90aa0", "lat": 38.94735516666667, "name": "627e38a1e4f4fa5cac2dea2c59e90aa0", "lon": -76.99579933333334, "fusion_lon": 0.0}, {"is_reserved": 0, "type": "electric_scooter", "fusion_lat": 0.0, "is_disabled": 0, "rental_uris": {"ios": "https://dc.lft.to/lastmile_qr_scan", "android": "https://dc.lft.to/lastmile_qr_scan"}, "bike_id": "4a539dfb5d029741ab697d3aa4254115", "lat": 38.8835875, "name": "4a539dfb5d029741ab697d3aa4254115", "lon": -76.92790883333333, "fusion_lon": 0.0}, {"is_reserved": 0, "type": "electric_bike", "fusion_lat": 0.0, "is_disabled": 0, "rental_uris": {"ios": "https://dc.lft.to/lastmile_qr_scan", "android": "https://dc.lft.to/lastmile_qr_scan"}, "bike_id": "fa48f45fee497ce2ab39a9b2e61106e4", "lat": 38.82429916666667, "name": "fa48f45fee497ce2ab39a9b2e61106e4", "lon": -77.1204005, "fusion_lon": 0.0}, {"is_reserved": 0, "type": "electric_scooter", "fusion_lat": 0.0, "is_disabled": 0, "rental_uris": {"ios": "https://dc.lft.to/lastmile_qr_scan", "android": "https://dc.lft.to/lastmile_qr_scan"}, "bike_id": "1ea8c7e90c04248e642866c4fc0a1b62", "lat": 38.876078, "name": "1ea8c7e90c04248e642866c4fc0a1b62", "lon": -77.00600533333333, "fusion_lon": 0.0}, {"is_reserved": 0, "type": "electric_scooter", "fusion_lat": 0.0, "is_disabled": 0, "rental_uris": {"ios": "https://dc.lft.to/lastmile_qr_scan", "android": "https://dc.lft.to/lastmile_qr_scan"}, "bike_id": "3e10b728680c7d43dec7b5baea844ab8", "lat": 38.93058633333333, "name": "3e10b728680c7d43dec7b5baea844ab8", "lon": -77.03668266666666, "fusion_lon": 0.0}, {"is_reserved": 0, "type": "electric_scooter", "fusion_lat": 0.0, "is_disabled": 0, "rental_uris": {"ios": "https://dc.lft.to/lastmile_qr_scan", "android": "https://dc.lft.to/lastmile_qr_scan"}, "bike_id": "3db3f2d12cc8d6e6ad0afb2cebbb2f05", "lat": 38.922618666666665, "name": "3db3f2d12cc8d6e6ad0afb2cebbb2f05", "lon": -77.03663833333333, "fusion_lon": 0.0}, {"is_reserved": 0, "type": "electric_scooter", "fusion_lat": 0.0, "is_disabled": 0, "rental_uris": {"ios": "https://dc.lft.to/lastmile_qr_scan", "android": "https://dc.lft.to/lastmile_qr_scan"}, "bike_id": "85fad8c8136c45c685f10e35fb3174db", "lat": 38.91157233333333, "name": "85fad8c8136c45c685f10e35fb3174db", "lon": -77.04474233333333, "fusion_lon": 0.0}, {"is_reserved": 0, "type": "electric_scooter", "fusion_lat": 0.0, "is_disabled": 0, "rental_uris": {"ios": "https://dc.lft.to/lastmile_qr_scan", "android": "https://dc.lft.to/lastmile_qr_scan"}, "bike_id": "1c574a26d5e22831a5909d07226f1fee", "lat": 38.88735666666667, "name": "1c574a26d5e22831a5909d07226f1fee", "lon": -77.00204416666666, "fusion_lon": 0.0}, {"is_reserved": 0, "type": "electric_bike", "fusion_lat": 0.0, "is_disabled": 0, "rental_uris": {"ios": "https://dc.lft.to/lastmile_qr_scan", "android": "https://dc.lft.to/lastmile_qr_scan"}, "bike_id": "0029cac106d519bbe9a602cda388b5f1", "lat": 38.865610333333336, "name": "0029cac106d519bbe9a602cda388b5f1", "lon": -76.97477883333333, "fusion_lon": 0.0}, {"is_reserved": 0, "type": "electric_scooter", "fusion_lat": 0.0, "is_disabled": 0, "rental_uris": {"ios": "https://dc.lft.to/lastmile_qr_scan", "android": "https://dc.lft.to/lastmile_qr_scan"}, "bike_id": "27af8bb5b755a9029167239dc32f1a71", "lat": 38.900267666666664, "name": "27af8bb5b755a9029167239dc32f1a71", "lon": -77.023825, "fusion_lon": 0.0}, {"is_reserved": 0, "type": "electric_scooter", "fusion_lat": 0.0, "is_disabled": 0, "rental_uris": {"ios": "https://dc.lft.to/lastmile_qr_scan", "android": "https://dc.lft.to/lastmile_qr_scan"}, "bike_id": "87f925f9e7c92d9ec544912a655ef479", "lat": 38.885817333333335, "name": "87f925f9e7c92d9ec544912a655ef479", "lon": -77.01226616666666, "fusion_lon": 0.0}, {"is_reserved": 0, "type": "electric_scooter", "fusion_lat": 0.0, "is_disabled": 0, "rental_uris": {"ios": "https://dc.lft.to/lastmile_qr_scan", "android": "https://dc.lft.to/lastmile_qr_scan"}, "bike_id": "34c5c5f0b0e7eced8355444870fc350f", "lat": 38.900607, "name": "34c5c5f0b0e7eced8355444870fc350f", "lon": -77.0133045, "fusion_lon": 0.0}, {"is_reserved": 0, "type": "electric_scooter", "fusion_lat": 0.0, "is_disabled": 0, "rental_uris": {"ios": "https://dc.lft.to/lastmile_qr_scan", "android": "https://dc.lft.to/lastmile_qr_scan"}, "bike_id": "04f548989114732ca29f2c69291a9cda", "lat": 38.919253166666664, "name": "04f548989114732ca29f2c69291a9cda", "lon": -77.04488833333333, "fusion_lon": 0.0}, {"is_reserved": 0, "type": "electric_scooter", "fusion_lat": 0.0, "is_disabled": 0, "rental_uris": {"ios": "https://dc.lft.to/lastmile_qr_scan", "android": "https://dc.lft.to/lastmile_qr_scan"}, "bike_id": "b134868e0fc972fde773e3f2c817d1df", "lat": 38.891729833333336, "name": "b134868e0fc972fde773e3f2c817d1df", "lon": -77.01553, "fusion_lon": 0.0}, {"is_reserved": 0, "type": "electric_scooter", "fusion_lat": 0.0, "is_disabled": 0, "rental_uris": {"ios": "https://dc.lft.to/lastmile_qr_scan", "android": "https://dc.lft.to/lastmile_qr_scan"}, "bike_id": "0d183cffddc353af3ddf040dc01d2e9b", "lat": 38.93954866666667, "name": "0d183cffddc353af3ddf040dc01d2e9b", "lon": -77.07238766666667, "fusion_lon": 0.0}, {"is_reserved": 0, "type": "electric_scooter", "fusion_lat": 0.0, "is_disabled": 0, "rental_uris": {"ios": "https://dc.lft.to/lastmile_qr_scan", "android": "https://dc.lft.to/lastmile_qr_scan"}, "bike_id": "ad82631475072a7ae8b4549009c07d5b", "lat": 38.894220833333335, "name": "ad82631475072a7ae8b4549009c07d5b", "lon": -77.02128733333333, "fusion_lon": 0.0}, {"is_reserved": 0, "type": "electric_scooter", "fusion_lat": 0.0, "is_disabled": 0, "rental_uris": {"ios": "https://dc.lft.to/lastmile_qr_scan", "android": "https://dc.lft.to/lastmile_qr_scan"}, "bike_id": "29c029702d4027835d4d2a5f9cf8b371", "lat": 38.895298333333336, "name": "29c029702d4027835d4d2a5f9cf8b371", "lon": -76.94892966666667, "fusion_lon": 0.0}, {"is_reserved": 0, "type": "electric_scooter", "fusion_lat": 0.0, "is_disabled": 0, "rental_uris": {"ios": "https://dc.lft.to/lastmile_qr_scan", "android": "https://dc.lft.to/lastmile_qr_scan"}, "bike_id": "0ffb17544855d1aaf40cdc815d713049", "lat": 38.90621216666667, "name": "0ffb17544855d1aaf40cdc815d713049", "lon": -77.04879666666666, "fusion_lon": 0.0}, {"is_reserved": 0, "type": "electric_scooter", "fusion_lat": 0.0, "is_disabled": 0, "rental_uris": {"ios": "https://dc.lft.to/lastmile_qr_scan", "android": "https://dc.lft.to/lastmile_qr_scan"}, "bike_id": "c54ce8ae8d01a9192ffde9d413f9a42d", "lat": 38.91800083333333, "name": "c54ce8ae8d01a9192ffde9d413f9a42d", "lon": -77.0344935, "fusion_lon": 0.0}, {"is_reserved": 0, "type": "electric_scooter", "fusion_lat": 0.0, "is_disabled": 0, "rental_uris": {"ios": "https://dc.lft.to/lastmile_qr_scan", "android": "https://dc.lft.to/lastmile_qr_scan"}, "bike_id": "c63c91c1a398baf9271c2397a6de2393", "lat": 38.92534666666667, "name": "c63c91c1a398baf9271c2397a6de2393", "lon": -77.03535466666666, "fusion_lon": 0.0}, {"is_reserved": 0, "type": "electric_scooter", "fusion_lat": 0.0, "is_disabled": 0, "rental_uris": {"ios": "https://dc.lft.to/lastmile_qr_scan", "android": "https://dc.lft.to/lastmile_qr_scan"}, "bike_id": "4c1b8a7b471b2ad994dd2a8388b4dce6", "lat": 38.91489383333333, "name": "4c1b8a7b471b2ad994dd2a8388b4dce6", "lon": -77.0494755, "fusion_lon": 0.0}, {"is_reserved": 0, "type": "electric_bike", "fusion_lat": 0.0, "is_disabled": 0, "rental_uris": {"ios": "https://dc.lft.to/lastmile_qr_scan", "android": "https://dc.lft.to/lastmile_qr_scan"}, "bike_id": "05542b5ba7008491b75b2411b4726875", "lat": 38.967808166666664, "name": "05542b5ba7008491b75b2411b4726875", "lon": -76.99647683333333, "fusion_lon": 0.0}, {"is_reserved": 0, "type": "electric_bike", "fusion_lat": 0.0, "is_disabled": 0, "rental_uris": {"ios": "https://dc.lft.to/lastmile_qr_scan", "android": "https://dc.lft.to/lastmile_qr_scan"}, "bike_id": "27db647cba0fe0fa0eb52fb7710ce2e9", "lat": 38.896871, "name": "27db647cba0fe0fa0eb52fb7710ce2e9", "lon": -77.00744933333333, "fusion_lon": 0.0}, {"is_reserved": 0, "type": "electric_scooter", "fusion_lat": 0.0, "is_disabled": 0, "rental_uris": {"ios": "https://dc.lft.to/lastmile_qr_scan", "android": "https://dc.lft.to/lastmile_qr_scan"}, "bike_id": "d158444d5f3550c583f6340db27f25d4", "lat": 38.8869225, "name": "d158444d5f3550c583f6340db27f25d4", "lon": -77.00053583333333, "fusion_lon": 0.0}, {"is_reserved": 0, "type": "electric_scooter", "fusion_lat": 0.0, "is_disabled": 0, "rental_uris": {"ios": "https://dc.lft.to/lastmile_qr_scan", "android": "https://dc.lft.to/lastmile_qr_scan"}, "bike_id": "1d0b068db62696b7430834c54ac5a86e", "lat": 38.8794375, "name": "1d0b068db62696b7430834c54ac5a86e", "lon": -77.012753, "fusion_lon": 0.0}, {"is_reserved": 0, "type": "electric_scooter", "fusion_lat": 0.0, "is_disabled": 0, "rental_uris": {"ios": "https://dc.lft.to/lastmile_qr_scan", "android": "https://dc.lft.to/lastmile_qr_scan"}, "bike_id": "14003ed70f645aa3f3bcfbb30ad143c1", "lat": 38.895936, "name": "14003ed70f645aa3f3bcfbb30ad143c1", "lon": -77.0228185, "fusion_lon": 0.0}, {"is_reserved": 0, "type": "electric_scooter", "fusion_lat": 0.0, "is_disabled": 0, "rental_uris": {"ios": "https://dc.lft.to/lastmile_qr_scan", "android": "https://dc.lft.to/lastmile_qr_scan"}, "bike_id": "6dc010780e9254ede290f1bc980df2c3", "lat": 38.928458, "name": "6dc010780e9254ede290f1bc980df2c3", "lon": -77.03269233333333, "fusion_lon": 0.0}, {"is_reserved": 0, "type": "electric_scooter", "fusion_lat": 0.0, "is_disabled": 0, "rental_uris": {"ios": "https://dc.lft.to/lastmile_qr_scan", "android": "https://dc.lft.to/lastmile_qr_scan"}, "bike_id": "e79fdd617380f0133ffa342077e44f74", "lat": 38.900244666666666, "name": "e79fdd617380f0133ffa342077e44f74", "lon": -77.01188766666667, "fusion_lon": 0.0}, {"is_reserved": 0, "type": "electric_scooter", "fusion_lat": 0.0, "is_disabled": 0, "rental_uris": {"ios": "https://dc.lft.to/lastmile_qr_scan", "android": "https://dc.lft.to/lastmile_qr_scan"}, "bike_id": "820386251b44d9408a232b24c9db340f", "lat": 38.93540216666667, "name": "820386251b44d9408a232b24c9db340f", "lon": -77.0574735, "fusion_lon": 0.0}, {"is_reserved": 0, "type": "electric_scooter", "fusion_lat": 0.0, "is_disabled": 0, "rental_uris": {"ios": "https://dc.lft.to/lastmile_qr_scan", "android": "https://dc.lft.to/lastmile_qr_scan"}, "bike_id": "907528c85c8230d28e723669f8d5151e", "lat": 38.933738166666664, "name": "907528c85c8230d28e723669f8d5151e", "lon": -77.07247666666666, "fusion_lon": 0.0}, {"is_reserved": 0, "type": "electric_scooter", "fusion_lat": 0.0, "is_disabled": 0, "rental_uris": {"ios": "https://dc.lft.to/lastmile_qr_scan", "android": "https://dc.lft.to/lastmile_qr_scan"}, "bike_id": "29fa3576486b3e705845940641622b4d", "lat": 38.944645666666666, "name": "29fa3576486b3e705845940641622b4d", "lon": -77.006586, "fusion_lon": 0.0}, {"is_reserved": 0, "type": "electric_scooter", "fusion_lat": 0.0, "is_disabled": 0, "rental_uris": {"ios": "https://dc.lft.to/lastmile_qr_scan", "android": "https://dc.lft.to/lastmile_qr_scan"}, "bike_id": "94f79e05b8b346222687c044c18282d2", "lat": 38.902653, "name": "94f79e05b8b346222687c044c18282d2", "lon": -76.989813, "fusion_lon": 0.0}, {"is_reserved": 0, "type": "electric_scooter", "fusion_lat": 0.0, "is_disabled": 0, "rental_uris": {"ios": "https://dc.lft.to/lastmile_qr_scan", "android": "https://dc.lft.to/lastmile_qr_scan"}, "bike_id": "0e132e9db7740e2e028a88cbe2c80ab6", "lat": 38.920728833333335, "name": "0e132e9db7740e2e028a88cbe2c80ab6", "lon": -77.02508566666667, "fusion_lon": 0.0}, {"is_reserved": 0, "type": "electric_scooter", "fusion_lat": 0.0, "is_disabled": 0, "rental_uris": {"ios": "https://dc.lft.to/lastmile_qr_scan", "android": "https://dc.lft.to/lastmile_qr_scan"}, "bike_id": "754f964f4201bc04863147c76e6961ae", "lat": 38.89845183333333, "name": "754f964f4201bc04863147c76e6961ae", "lon": -77.04360483333333, "fusion_lon": 0.0}, {"is_reserved": 0, "type": "electric_scooter", "fusion_lat": 0.0, "is_disabled": 0, "rental_uris": {"ios": "https://dc.lft.to/lastmile_qr_scan", "android": "https://dc.lft.to/lastmile_qr_scan"}, "bike_id": "3fc9fa6ee7c132c1223424fa1b36e7a1", "lat": 38.912167833333335, "name": "3fc9fa6ee7c132c1223424fa1b36e7a1", "lon": -77.0066345, "fusion_lon": 0.0}, {"is_reserved": 0, "type": "electric_scooter", "fusion_lat": 0.0, "is_disabled": 0, "rental_uris": {"ios": "https://dc.lft.to/lastmile_qr_scan", "android": "https://dc.lft.to/lastmile_qr_scan"}, "bike_id": "e901752ee1980b379381862ddac684dc", "lat": 38.91783216666666, "name": "e901752ee1980b379381862ddac684dc", "lon": -77.02395383333334, "fusion_lon": 0.0}, {"is_reserved": 0, "type": "electric_scooter", "fusion_lat": 0.0, "is_disabled": 0, "rental_uris": {"ios": "https://dc.lft.to/lastmile_qr_scan", "android": "https://dc.lft.to/lastmile_qr_scan"}, "bike_id": "91c72faa2ef6af7f4e02aea47e90b48c", "lat": 38.91543166666666, "name": "91c72faa2ef6af7f4e02aea47e90b48c", "lon": -77.029685, "fusion_lon": 0.0}, {"is_reserved": 0, "type": "electric_scooter", "fusion_lat": 0.0, "is_disabled": 0, "rental_uris": {"ios": "https://dc.lft.to/lastmile_qr_scan", "android": "https://dc.lft.to/lastmile_qr_scan"}, "bike_id": "7e1fb3e8e492b50063cb32333d54bbe8", "lat": 38.915629333333335, "name": "7e1fb3e8e492b50063cb32333d54bbe8", "lon": -77.0317755, "fusion_lon": 0.0}, {"is_reserved": 0, "type": "electric_scooter", "fusion_lat": 0.0, "is_disabled": 0, "rental_uris": {"ios": "https://dc.lft.to/lastmile_qr_scan", "android": "https://dc.lft.to/lastmile_qr_scan"}, "bike_id": "9d9ff32d14b5aaf82256b6c6728b228d", "lat": 38.87375983333333, "name": "9d9ff32d14b5aaf82256b6c6728b228d", "lon": -77.00119183333334, "fusion_lon": 0.0}, {"is_reserved": 0, "type": "electric_scooter", "fusion_lat": 0.0, "is_disabled": 0, "rental_uris": {"ios": "https://dc.lft.to/lastmile_qr_scan", "android": "https://dc.lft.to/lastmile_qr_scan"}, "bike_id": "9374b818b24854594960d9b1f6ec7872", "lat": 38.924409, "name": "9374b818b24854594960d9b1f6ec7872", "lon": -77.03404566666667, "fusion_lon": 0.0}, {"is_reserved": 0, "type": "electric_scooter", "fusion_lat": 0.0, "is_disabled": 0, "rental_uris": {"ios": "https://dc.lft.to/lastmile_qr_scan", "android": "https://dc.lft.to/lastmile_qr_scan"}, "bike_id": "9591531ee82c31f5cc3b510bd40dcef5", "lat": 38.9103625, "name": "9591531ee82c31f5cc3b510bd40dcef5", "lon": -76.93830833333334, "fusion_lon": 0.0}, {"is_reserved": 0, "type": "electric_scooter", "fusion_lat": 0.0, "is_disabled": 0, "rental_uris": {"ios": "https://dc.lft.to/lastmile_qr_scan", "android": "https://dc.lft.to/lastmile_qr_scan"}, "bike_id": "e84149032f0545b8047788d46121a2a3", "lat": 38.90771733333333, "name": "e84149032f0545b8047788d46121a2a3", "lon": -77.02404716666666, "fusion_lon": 0.0}, {"is_reserved": 0, "type": "electric_scooter", "fusion_lat": 0.0, "is_disabled": 0, "rental_uris": {"ios": "https://dc.lft.to/lastmile_qr_scan", "android": "https://dc.lft.to/lastmile_qr_scan"}, "bike_id": "a1dece0c91d59d4baa72febc3d2e66e9", "lat": 38.92486933333333, "name": "a1dece0c91d59d4baa72febc3d2e66e9", "lon": -77.02546516666666, "fusion_lon": 0.0}, {"is_reserved": 0, "type": "electric_scooter", "fusion_lat": 0.0, "is_disabled": 0, "rental_uris": {"ios": "https://dc.lft.to/lastmile_qr_scan", "android": "https://dc.lft.to/lastmile_qr_scan"}, "bike_id": "232f5f0cbcf3be349de6202b3a7718cb", "lat": 38.89701616666667, "name": "232f5f0cbcf3be349de6202b3a7718cb", "lon": -76.92999566666667, "fusion_lon": 0.0}, {"is_reserved": 0, "type": "electric_bike", "fusion_lat": 0.0, "is_disabled": 0, "rental_uris": {"ios": "https://dc.lft.to/lastmile_qr_scan", "android": "https://dc.lft.to/lastmile_qr_scan"}, "bike_id": "6993706aa1af5280b889bbd83210b66c", "lat": 39.03474416666667, "name": "6993706aa1af5280b889bbd83210b66c", "lon": -77.04105333333334, "fusion_lon": 0.0}, {"is_reserved": 0, "type": "electric_scooter", "fusion_lat": 0.0, "is_disabled": 0, "rental_uris": {"ios": "https://dc.lft.to/lastmile_qr_scan", "android": "https://dc.lft.to/lastmile_qr_scan"}, "bike_id": "c6e8ec3903120f1ec324ba062f663dd2", "lat": 38.940235666666666, "name": "c6e8ec3903120f1ec324ba062f663dd2", "lon": -77.07734633333334, "fusion_lon": 0.0}, {"is_reserved": 0, "type": "electric_scooter", "fusion_lat": 0.0, "is_disabled": 0, "rental_uris": {"ios": "https://dc.lft.to/lastmile_qr_scan", "android": "https://dc.lft.to/lastmile_qr_scan"}, "bike_id": "71620eab7204cb92ab3cc5544d21bee1", "lat": 38.903018, "name": "71620eab7204cb92ab3cc5544d21bee1", "lon": -76.998378, "fusion_lon": 0.0}, {"is_reserved": 0, "type": "electric_scooter", "fusion_lat": 0.0, "is_disabled": 0, "rental_uris": {"ios": "https://dc.lft.to/lastmile_qr_scan", "android": "https://dc.lft.to/lastmile_qr_scan"}, "bike_id": "ad8f0be614a8fd61938db231c9874d25", "lat": 38.903659833333336, "name": "ad8f0be614a8fd61938db231c9874d25", "lon": -76.9781475, "fusion_lon": 0.0}, {"is_reserved": 0, "type": "electric_scooter", "fusion_lat": 0.0, "is_disabled": 0, "rental_uris": {"ios": "https://dc.lft.to/lastmile_qr_scan", "android": "https://dc.lft.to/lastmile_qr_scan"}, "bike_id": "3b041e64f00807619e827f761ea4df17", "lat": 38.8788305, "name": "3b041e64f00807619e827f761ea4df17", "lon": -76.96538333333334, "fusion_lon": 0.0}, {"is_reserved": 0, "type": "electric_scooter", "fusion_lat": 0.0, "is_disabled": 0, "rental_uris": {"ios": "https://dc.lft.to/lastmile_qr_scan", "android": "https://dc.lft.to/lastmile_qr_scan"}, "bike_id": "ce54a31e7079c49e874a485549683d11", "lat": 38.90718583333334, "name": "ce54a31e7079c49e874a485549683d11", "lon": -77.02375216666667, "fusion_lon": 0.0}, {"is_reserved": 0, "type": "electric_scooter", "fusion_lat": 0.0, "is_disabled": 0, "rental_uris": {"ios": "https://dc.lft.to/lastmile_qr_scan", "android": "https://dc.lft.to/lastmile_qr_scan"}, "bike_id": "a2ce29653e214b53684dec198b354204", "lat": 38.89938633333333, "name": "a2ce29653e214b53684dec198b354204", "lon": -76.9377375, "fusion_lon": 0.0}, {"is_reserved": 0, "type": "electric_scooter", "fusion_lat": 0.0, "is_disabled": 0, "rental_uris": {"ios": "https://dc.lft.to/lastmile_qr_scan", "android": "https://dc.lft.to/lastmile_qr_scan"}, "bike_id": "65bb5d923fb1a58d0a6d27b984bef2e7", "lat": 38.93007866666667, "name": "65bb5d923fb1a58d0a6d27b984bef2e7", "lon": -77.021159, "fusion_lon": 0.0}, {"is_reserved": 0, "type": "electric_scooter", "fusion_lat": 0.0, "is_disabled": 0, "rental_uris": {"ios": "https://dc.lft.to/lastmile_qr_scan", "android": "https://dc.lft.to/lastmile_qr_scan"}, "bike_id": "8ce1dc9cf7257e776a7ae5e31b2b15c5", "lat": 38.95207216666667, "name": "8ce1dc9cf7257e776a7ae5e31b2b15c5", "lon": -77.06885266666667, "fusion_lon": 0.0}, {"is_reserved": 0, "type": "electric_scooter", "fusion_lat": 0.0, "is_disabled": 0, "rental_uris": {"ios": "https://dc.lft.to/lastmile_qr_scan", "android": "https://dc.lft.to/lastmile_qr_scan"}, "bike_id": "e487065811af3afdbda4c5c765063798", "lat": 38.9285355, "name": "e487065811af3afdbda4c5c765063798", "lon": -77.01413783333334, "fusion_lon": 0.0}, {"is_reserved": 0, "type": "electric_scooter", "fusion_lat": 0.0, "is_disabled": 0, "rental_uris": {"ios": "https://dc.lft.to/lastmile_qr_scan", "android": "https://dc.lft.to/lastmile_qr_scan"}, "bike_id": "df82c8621a8f21b216edb69c63f4635f", "lat": 38.910052666666665, "name": "df82c8621a8f21b216edb69c63f4635f", "lon": -77.04422183333334, "fusion_lon": 0.0}, {"is_reserved": 0, "type": "electric_scooter", "fusion_lat": 0.0, "is_disabled": 0, "rental_uris": {"ios": "https://dc.lft.to/lastmile_qr_scan", "android": "https://dc.lft.to/lastmile_qr_scan"}, "bike_id": "57739962cc23dab49ae5c481931b1c45", "lat": 38.90182633333333, "name": "57739962cc23dab49ae5c481931b1c45", "lon": -76.97670266666667, "fusion_lon": 0.0}, {"is_reserved": 0, "type": "electric_scooter", "fusion_lat": 0.0, "is_disabled": 0, "rental_uris": {"ios": "https://dc.lft.to/lastmile_qr_scan", "android": "https://dc.lft.to/lastmile_qr_scan"}, "bike_id": "3ac5a464a4c0957adcd8695cfa56aabf", "lat": 38.920539166666664, "name": "3ac5a464a4c0957adcd8695cfa56aabf", "lon": -77.04396816666667, "fusion_lon": 0.0}, {"is_reserved": 0, "type": "electric_bike", "fusion_lat": 0.0, "is_disabled": 0, "rental_uris": {"ios": "https://dc.lft.to/lastmile_qr_scan", "android": "https://dc.lft.to/lastmile_qr_scan"}, "bike_id": "0e9c46a07c67447c022cc64b009c72eb", "lat": 38.87765316666667, "name": "0e9c46a07c67447c022cc64b009c72eb", "lon": -77.0105055, "fusion_lon": 0.0}, {"is_reserved": 0, "type": "electric_scooter", "fusion_lat": 0.0, "is_disabled": 0, "rental_uris": {"ios": "https://dc.lft.to/lastmile_qr_scan", "android": "https://dc.lft.to/lastmile_qr_scan"}, "bike_id": "35dd71c1697d41482f8d1e55f4627331", "lat": 38.92015966666666, "name": "35dd71c1697d41482f8d1e55f4627331", "lon": -77.071321, "fusion_lon": 0.0}, {"is_reserved": 0, "type": "electric_scooter", "fusion_lat": 0.0, "is_disabled": 0, "rental_uris": {"ios": "https://dc.lft.to/lastmile_qr_scan", "android": "https://dc.lft.to/lastmile_qr_scan"}, "bike_id": "4232eb82c13c0034960e4cfb3969f7f9", "lat": 38.920689333333335, "name": "4232eb82c13c0034960e4cfb3969f7f9", "lon": -77.02513483333334, "fusion_lon": 0.0}, {"is_reserved": 0, "type": "electric_scooter", "fusion_lat": 0.0, "is_disabled": 0, "rental_uris": {"ios": "https://dc.lft.to/lastmile_qr_scan", "android": "https://dc.lft.to/lastmile_qr_scan"}, "bike_id": "0e304fa3275630e5d7123a2b527febf5", "lat": 38.92107166666667, "name": "0e304fa3275630e5d7123a2b527febf5", "lon": -77.04564383333333, "fusion_lon": 0.0}, {"is_reserved": 0, "type": "electric_scooter", "fusion_lat": 0.0, "is_disabled": 0, "rental_uris": {"ios": "https://dc.lft.to/lastmile_qr_scan", "android": "https://dc.lft.to/lastmile_qr_scan"}, "bike_id": "c5f2d9118dd40ed714e1c06f9918ac2a", "lat": 38.897282833333335, "name": "c5f2d9118dd40ed714e1c06f9918ac2a", "lon": -77.04151933333333, "fusion_lon": 0.0}, {"is_reserved": 0, "type": "electric_scooter", "fusion_lat": 0.0, "is_disabled": 0, "rental_uris": {"ios": "https://dc.lft.to/lastmile_qr_scan", "android": "https://dc.lft.to/lastmile_qr_scan"}, "bike_id": "effa641bf864ffd673c4e419cf8ceab2", "lat": 38.878537333333334, "name": "effa641bf864ffd673c4e419cf8ceab2", "lon": -77.00599333333334, "fusion_lon": 0.0}, {"is_reserved": 0, "type": "electric_bike", "fusion_lat": 0.0, "is_disabled": 0, "rental_uris": {"ios": "https://dc.lft.to/lastmile_qr_scan", "android": "https://dc.lft.to/lastmile_qr_scan"}, "bike_id": "593031dabf2f22e9bb92fddc8620c669", "lat": 38.83604066666667, "name": "593031dabf2f22e9bb92fddc8620c669", "lon": -77.00377033333334, "fusion_lon": 0.0}, {"is_reserved": 0, "type": "electric_scooter", "fusion_lat": 0.0, "is_disabled": 0, "rental_uris": {"ios": "https://dc.lft.to/lastmile_qr_scan", "android": "https://dc.lft.to/lastmile_qr_scan"}, "bike_id": "bd157f6ff209ede633aba2afbeb51021", "lat": 38.882275, "name": "bd157f6ff209ede633aba2afbeb51021", "lon": -76.99094733333334, "fusion_lon": 0.0}, {"is_reserved": 0, "type": "electric_bike", "fusion_lat": 0.0, "is_disabled": 0, "rental_uris": {"ios": "https://dc.lft.to/lastmile_qr_scan", "android": "https://dc.lft.to/lastmile_qr_scan"}, "bike_id": "8cfe5adbde604d6948f7278e355e5359", "lat": 38.93631, "name": "8cfe5adbde604d6948f7278e355e5359", "lon": -77.063522, "fusion_lon": 0.0}, {"is_reserved": 0, "type": "electric_scooter", "fusion_lat": 0.0, "is_disabled": 0, "rental_uris": {"ios": "https://dc.lft.to/lastmile_qr_scan", "android": "https://dc.lft.to/lastmile_qr_scan"}, "bike_id": "86208a8a33f90c344ae827509351ec2d", "lat": 38.9241615, "name": "86208a8a33f90c344ae827509351ec2d", "lon": -77.02005566666666, "fusion_lon": 0.0}, {"is_reserved": 0, "type": "electric_scooter", "fusion_lat": 0.0, "is_disabled": 0, "rental_uris": {"ios": "https://dc.lft.to/lastmile_qr_scan", "android": "https://dc.lft.to/lastmile_qr_scan"}, "bike_id": "52cc254681de6af50b5ca17d019434d5", "lat": 38.833809, "name": "52cc254681de6af50b5ca17d019434d5", "lon": -77.00299066666666, "fusion_lon": 0.0}, {"is_reserved": 0, "type": "electric_bike", "fusion_lat": 0.0, "is_disabled": 0, "rental_uris": {"ios": "https://dc.lft.to/lastmile_qr_scan", "android": "https://dc.lft.to/lastmile_qr_scan"}, "bike_id": "61b53f530cc5d2bb028f6d76c055963a", "lat": 38.857819166666665, "name": "61b53f530cc5d2bb028f6d76c055963a", "lon": -76.98743116666667, "fusion_lon": 0.0}, {"is_reserved": 0, "type": "electric_scooter", "fusion_lat": 0.0, "is_disabled": 0, "rental_uris": {"ios": "https://dc.lft.to/lastmile_qr_scan", "android": "https://dc.lft.to/lastmile_qr_scan"}, "bike_id": "84c6cc5c2e370690ff2ed77694a9adda", "lat": 38.90413616666667, "name": "84c6cc5c2e370690ff2ed77694a9adda", "lon": -77.05114983333333, "fusion_lon": 0.0}, {"is_reserved": 0, "type": "electric_scooter", "fusion_lat": 0.0, "is_disabled": 0, "rental_uris": {"ios": "https://dc.lft.to/lastmile_qr_scan", "android": "https://dc.lft.to/lastmile_qr_scan"}, "bike_id": "3e8917b2701d956c1223f3017dc83c00", "lat": 38.93127366666667, "name": "3e8917b2701d956c1223f3017dc83c00", "lon": -77.0218805, "fusion_lon": 0.0}, {"is_reserved": 0, "type": "electric_scooter", "fusion_lat": 0.0, "is_disabled": 0, "rental_uris": {"ios": "https://dc.lft.to/lastmile_qr_scan", "android": "https://dc.lft.to/lastmile_qr_scan"}, "bike_id": "f6c7879743cdd120b0fcafa49551900f", "lat": 38.921360666666665, "name": "f6c7879743cdd120b0fcafa49551900f", "lon": -77.00399133333333, "fusion_lon": 0.0}, {"is_reserved": 0, "type": "electric_scooter", "fusion_lat": 0.0, "is_disabled": 0, "rental_uris": {"ios": "https://dc.lft.to/lastmile_qr_scan", "android": "https://dc.lft.to/lastmile_qr_scan"}, "bike_id": "e9f276be3278689f2ea952b0743612a9", "lat": 38.91537233333333, "name": "e9f276be3278689f2ea952b0743612a9", "lon": -77.0753965, "fusion_lon": 0.0}, {"is_reserved": 0, "type": "electric_bike", "fusion_lat": 0.0, "is_disabled": 0, "rental_uris": {"ios": "https://dc.lft.to/lastmile_qr_scan", "android": "https://dc.lft.to/lastmile_qr_scan"}, "bike_id": "2eab97390d603fc8ade9a6daeec5d8ee", "lat": 38.93242333333333, "name": "2eab97390d603fc8ade9a6daeec5d8ee", "lon": -76.99502916666667, "fusion_lon": 0.0}, {"is_reserved": 0, "type": "electric_scooter", "fusion_lat": 0.0, "is_disabled": 0, "rental_uris": {"ios": "https://dc.lft.to/lastmile_qr_scan", "android": "https://dc.lft.to/lastmile_qr_scan"}, "bike_id": "028928e018d165f3339ce0a9350c4c97", "lat": 38.893629, "name": "028928e018d165f3339ce0a9350c4c97", "lon": -77.0447365, "fusion_lon": 0.0}, {"is_reserved": 0, "type": "electric_scooter", "fusion_lat": 0.0, "is_disabled": 0, "rental_uris": {"ios": "https://dc.lft.to/lastmile_qr_scan", "android": "https://dc.lft.to/lastmile_qr_scan"}, "bike_id": "a3729d026add9b1a55ca38192396232f", "lat": 38.875690666666664, "name": "a3729d026add9b1a55ca38192396232f", "lon": -77.00598583333333, "fusion_lon": 0.0}, {"is_reserved": 0, "type": "electric_scooter", "fusion_lat": 0.0, "is_disabled": 0, "rental_uris": {"ios": "https://dc.lft.to/lastmile_qr_scan", "android": "https://dc.lft.to/lastmile_qr_scan"}, "bike_id": "c72dcecf1fd912e440eee1ede23686ff", "lat": 38.91259566666667, "name": "c72dcecf1fd912e440eee1ede23686ff", "lon": -77.047945, "fusion_lon": 0.0}, {"is_reserved": 0, "type": "electric_scooter", "fusion_lat": 0.0, "is_disabled": 0, "rental_uris": {"ios": "https://dc.lft.to/lastmile_qr_scan", "android": "https://dc.lft.to/lastmile_qr_scan"}, "bike_id": "adc1d4dd31edb4d01ed7737ac0ff91a2", "lat": 38.926101333333335, "name": "adc1d4dd31edb4d01ed7737ac0ff91a2", "lon": -77.00649133333333, "fusion_lon": 0.0}, {"is_reserved": 0, "type": "electric_scooter", "fusion_lat": 0.0, "is_disabled": 0, "rental_uris": {"ios": "https://dc.lft.to/lastmile_qr_scan", "android": "https://dc.lft.to/lastmile_qr_scan"}, "bike_id": "e10cfb925d5e4a078b7919637417f530", "lat": 38.9363915, "name": "e10cfb925d5e4a078b7919637417f530", "lon": -77.021317, "fusion_lon": 0.0}, {"is_reserved": 0, "type": "electric_scooter", "fusion_lat": 0.0, "is_disabled": 0, "rental_uris": {"ios": "https://dc.lft.to/lastmile_qr_scan", "android": "https://dc.lft.to/lastmile_qr_scan"}, "bike_id": "123e23d8d180cc75c7a9238e14123f93", "lat": 38.939816666666665, "name": "123e23d8d180cc75c7a9238e14123f93", "lon": -77.0191255, "fusion_lon": 0.0}, {"is_reserved": 0, "type": "electric_bike", "fusion_lat": 0.0, "is_disabled": 0, "rental_uris": {"ios": "https://dc.lft.to/lastmile_qr_scan", "android": "https://dc.lft.to/lastmile_qr_scan"}, "bike_id": "7f32be1fbd664e142b3ecce71ffda07f", "lat": 39.00446983333333, "name": "7f32be1fbd664e142b3ecce71ffda07f", "lon": -76.90119083333333, "fusion_lon": 0.0}, {"is_reserved": 0, "type": "electric_scooter", "fusion_lat": 0.0, "is_disabled": 0, "rental_uris": {"ios": "https://dc.lft.to/lastmile_qr_scan", "android": "https://dc.lft.to/lastmile_qr_scan"}, "bike_id": "dce072aec595975afe7d690d5506cc60", "lat": 38.90009666666667, "name": "dce072aec595975afe7d690d5506cc60", "lon": -76.98236, "fusion_lon": 0.0}, {"is_reserved": 0, "type": "electric_scooter", "fusion_lat": 0.0, "is_disabled": 0, "rental_uris": {"ios": "https://dc.lft.to/lastmile_qr_scan", "android": "https://dc.lft.to/lastmile_qr_scan"}, "bike_id": "9c10e97cf9ab92aede8f654712f7d56e", "lat": 38.9397355, "name": "9c10e97cf9ab92aede8f654712f7d56e", "lon": -77.03252583333334, "fusion_lon": 0.0}, {"is_reserved": 0, "type": "electric_scooter", "fusion_lat": 0.0, "is_disabled": 0, "rental_uris": {"ios": "https://dc.lft.to/lastmile_qr_scan", "android": "https://dc.lft.to/lastmile_qr_scan"}, "bike_id": "e8a8f54fe89d81ce33732f8f12dfaa33", "lat": 38.926126833333335, "name": "e8a8f54fe89d81ce33732f8f12dfaa33", "lon": -77.02159266666666, "fusion_lon": 0.0}, {"is_reserved": 0, "type": "electric_bike", "fusion_lat": 0.0, "is_disabled": 0, "rental_uris": {"ios": "https://dc.lft.to/lastmile_qr_scan", "android": "https://dc.lft.to/lastmile_qr_scan"}, "bike_id": "e783c8d71bcdb6ae58c146e5a17ff5d8", "lat": 38.90395316666667, "name": "e783c8d71bcdb6ae58c146e5a17ff5d8", "lon": -77.05123783333333, "fusion_lon": 0.0}, {"is_reserved": 0, "type": "electric_scooter", "fusion_lat": 0.0, "is_disabled": 0, "rental_uris": {"ios": "https://dc.lft.to/lastmile_qr_scan", "android": "https://dc.lft.to/lastmile_qr_scan"}, "bike_id": "76d63afa1c16735c75e9ffbf01270d79", "lat": 38.898440666666666, "name": "76d63afa1c16735c75e9ffbf01270d79", "lon": -77.02186633333334, "fusion_lon": 0.0}, {"is_reserved": 0, "type": "electric_scooter", "fusion_lat": 0.0, "is_disabled": 0, "rental_uris": {"ios": "https://dc.lft.to/lastmile_qr_scan", "android": "https://dc.lft.to/lastmile_qr_scan"}, "bike_id": "26282e9b5cb2e8eb94624cbb1de8ebeb", "lat": 38.9573825, "name": "26282e9b5cb2e8eb94624cbb1de8ebeb", "lon": -77.02322833333334, "fusion_lon": 0.0}, {"is_reserved": 0, "type": "electric_scooter", "fusion_lat": 0.0, "is_disabled": 0, "rental_uris": {"ios": "https://dc.lft.to/lastmile_qr_scan", "android": "https://dc.lft.to/lastmile_qr_scan"}, "bike_id": "9e7adcf668bb1bae65cd97a1caccf3de", "lat": 38.9171565, "name": "9e7adcf668bb1bae65cd97a1caccf3de", "lon": -77.04156633333334, "fusion_lon": 0.0}, {"is_reserved": 0, "type": "electric_bike", "fusion_lat": 0.0, "is_disabled": 0, "rental_uris": {"ios": "https://dc.lft.to/lastmile_qr_scan", "android": "https://dc.lft.to/lastmile_qr_scan"}, "bike_id": "3f2ae5e93d7eec219de49f1f964420dc", "lat": 38.9416575, "name": "3f2ae5e93d7eec219de49f1f964420dc", "lon": -76.9940675, "fusion_lon": 0.0}, {"is_reserved": 0, "type": "electric_scooter", "fusion_lat": 0.0, "is_disabled": 0, "rental_uris": {"ios": "https://dc.lft.to/lastmile_qr_scan", "android": "https://dc.lft.to/lastmile_qr_scan"}, "bike_id": "6624a0c0b3c8dd22b5550f31b317f2ba", "lat": 38.873507000000004, "name": "6624a0c0b3c8dd22b5550f31b317f2ba", "lon": -77.00204583333333, "fusion_lon": 0.0}, {"is_reserved": 0, "type": "electric_scooter", "fusion_lat": 0.0, "is_disabled": 0, "rental_uris": {"ios": "https://dc.lft.to/lastmile_qr_scan", "android": "https://dc.lft.to/lastmile_qr_scan"}, "bike_id": "75bc92ca2231aa5e69f359f9bad8e861", "lat": 38.89937166666667, "name": "75bc92ca2231aa5e69f359f9bad8e861", "lon": -76.93760233333333, "fusion_lon": 0.0}, {"is_reserved": 0, "type": "electric_scooter", "fusion_lat": 0.0, "is_disabled": 0, "rental_uris": {"ios": "https://dc.lft.to/lastmile_qr_scan", "android": "https://dc.lft.to/lastmile_qr_scan"}, "bike_id": "edc9710ff7b1c0419c2a6fc27ade3694", "lat": 38.917452833333336, "name": "edc9710ff7b1c0419c2a6fc27ade3694", "lon": -77.0108435, "fusion_lon": 0.0}, {"is_reserved": 0, "type": "electric_scooter", "fusion_lat": 0.0, "is_disabled": 0, "rental_uris": {"ios": "https://dc.lft.to/lastmile_qr_scan", "android": "https://dc.lft.to/lastmile_qr_scan"}, "bike_id": "c8de4e5f83a3c35d876bf25d5b1ff062", "lat": 38.90918716666667, "name": "c8de4e5f83a3c35d876bf25d5b1ff062", "lon": -77.049379, "fusion_lon": 0.0}, {"is_reserved": 0, "type": "electric_scooter", "fusion_lat": 0.0, "is_disabled": 0, "rental_uris": {"ios": "https://dc.lft.to/lastmile_qr_scan", "android": "https://dc.lft.to/lastmile_qr_scan"}, "bike_id": "e1fc927ac8e743f24f5fb1d81dbb373e", "lat": 38.88767816666667, "name": "e1fc927ac8e743f24f5fb1d81dbb373e", "lon": -76.9773305, "fusion_lon": 0.0}, {"is_reserved": 0, "type": "electric_scooter", "fusion_lat": 0.0, "is_disabled": 0, "rental_uris": {"ios": "https://dc.lft.to/lastmile_qr_scan", "android": "https://dc.lft.to/lastmile_qr_scan"}, "bike_id": "e76229a58dac7120b78a47d1f4b0c4ab", "lat": 38.920724666666665, "name": "e76229a58dac7120b78a47d1f4b0c4ab", "lon": -77.04391583333333, "fusion_lon": 0.0}, {"is_reserved": 0, "type": "electric_scooter", "fusion_lat": 0.0, "is_disabled": 0, "rental_uris": {"ios": "https://dc.lft.to/lastmile_qr_scan", "android": "https://dc.lft.to/lastmile_qr_scan"}, "bike_id": "e0b1a69e9b003253a53ef7ff947703ab", "lat": 38.87624516666666, "name": "e0b1a69e9b003253a53ef7ff947703ab", "lon": -77.00213016666666, "fusion_lon": 0.0}, {"is_reserved": 0, "type": "electric_scooter", "fusion_lat": 0.0, "is_disabled": 0, "rental_uris": {"ios": "https://dc.lft.to/lastmile_qr_scan", "android": "https://dc.lft.to/lastmile_qr_scan"}, "bike_id": "7aa43cf0982660ce5b9eeb93a9839c7b", "lat": 38.91883166666667, "name": "7aa43cf0982660ce5b9eeb93a9839c7b", "lon": -77.07308066666667, "fusion_lon": 0.0}, {"is_reserved": 0, "type": "electric_scooter", "fusion_lat": 0.0, "is_disabled": 0, "rental_uris": {"ios": "https://dc.lft.to/lastmile_qr_scan", "android": "https://dc.lft.to/lastmile_qr_scan"}, "bike_id": "65140b919c742ec28749f4dd13bcbb89", "lat": 38.91412966666667, "name": "65140b919c742ec28749f4dd13bcbb89", "lon": -77.06924366666667, "fusion_lon": 0.0}, {"is_reserved": 0, "type": "electric_scooter", "fusion_lat": 0.0, "is_disabled": 0, "rental_uris": {"ios": "https://dc.lft.to/lastmile_qr_scan", "android": "https://dc.lft.to/lastmile_qr_scan"}, "bike_id": "d3a56783d5e08d0b5d6201579ceae57a", "lat": 38.92427333333333, "name": "d3a56783d5e08d0b5d6201579ceae57a", "lon": -77.0194955, "fusion_lon": 0.0}, {"is_reserved": 0, "type": "electric_scooter", "fusion_lat": 0.0, "is_disabled": 0, "rental_uris": {"ios": "https://dc.lft.to/lastmile_qr_scan", "android": "https://dc.lft.to/lastmile_qr_scan"}, "bike_id": "bc722f443ab8227a42d8adba72315c1e", "lat": 38.887688, "name": "bc722f443ab8227a42d8adba72315c1e", "lon": -76.97732566666667, "fusion_lon": 0.0}, {"is_reserved": 0, "type": "electric_scooter", "fusion_lat": 0.0, "is_disabled": 0, "rental_uris": {"ios": "https://dc.lft.to/lastmile_qr_scan", "android": "https://dc.lft.to/lastmile_qr_scan"}, "bike_id": "71310a25a0a8e408225571a365fa168e", "lat": 38.9038135, "name": "71310a25a0a8e408225571a365fa168e", "lon": -77.0507125, "fusion_lon": 0.0}, {"is_reserved": 0, "type": "electric_scooter", "fusion_lat": 0.0, "is_disabled": 0, "rental_uris": {"ios": "https://dc.lft.to/lastmile_qr_scan", "android": "https://dc.lft.to/lastmile_qr_scan"}, "bike_id": "c47cf9e1ea27f3d22ca304fa22138695", "lat": 38.88637166666667, "name": "c47cf9e1ea27f3d22ca304fa22138695", "lon": -77.02209533333334, "fusion_lon": 0.0}, {"is_reserved": 0, "type": "electric_scooter", "fusion_lat": 0.0, "is_disabled": 0, "rental_uris": {"ios": "https://dc.lft.to/lastmile_qr_scan", "android": "https://dc.lft.to/lastmile_qr_scan"}, "bike_id": "3fa5b024ecae0395091710a9bfb3c6cc", "lat": 38.91294033333333, "name": "3fa5b024ecae0395091710a9bfb3c6cc", "lon": -77.045482, "fusion_lon": 0.0}, {"is_reserved": 0, "type": "electric_scooter", "fusion_lat": 0.0, "is_disabled": 0, "rental_uris": {"ios": "https://dc.lft.to/lastmile_qr_scan", "android": "https://dc.lft.to/lastmile_qr_scan"}, "bike_id": "a907a00ab77c452482e21afca41b45bc", "lat": 38.88109166666667, "name": "a907a00ab77c452482e21afca41b45bc", "lon": -77.0265245, "fusion_lon": 0.0}, {"is_reserved": 0, "type": "electric_scooter", "fusion_lat": 0.0, "is_disabled": 0, "rental_uris": {"ios": "https://dc.lft.to/lastmile_qr_scan", "android": "https://dc.lft.to/lastmile_qr_scan"}, "bike_id": "191d608aa8e2aa23d9b744fa57b00489", "lat": 38.9613685, "name": "191d608aa8e2aa23d9b744fa57b00489", "lon": -77.02804733333333, "fusion_lon": 0.0}, {"is_reserved": 0, "type": "electric_scooter", "fusion_lat": 0.0, "is_disabled": 0, "rental_uris": {"ios": "https://dc.lft.to/lastmile_qr_scan", "android": "https://dc.lft.to/lastmile_qr_scan"}, "bike_id": "9f0240234226efbe7c054d970a80a402", "lat": 38.918996666666665, "name": "9f0240234226efbe7c054d970a80a402", "lon": -77.02304883333333, "fusion_lon": 0.0}, {"is_reserved": 0, "type": "electric_scooter", "fusion_lat": 0.0, "is_disabled": 0, "rental_uris": {"ios": "https://dc.lft.to/lastmile_qr_scan", "android": "https://dc.lft.to/lastmile_qr_scan"}, "bike_id": "905153d43cb4980086010ca0e7d56381", "lat": 38.91038016666667, "name": "905153d43cb4980086010ca0e7d56381", "lon": -77.02691433333334, "fusion_lon": 0.0}, {"is_reserved": 0, "type": "electric_scooter", "fusion_lat": 0.0, "is_disabled": 0, "rental_uris": {"ios": "https://dc.lft.to/lastmile_qr_scan", "android": "https://dc.lft.to/lastmile_qr_scan"}, "bike_id": "c103bbe924d94cf0f4f70edeb26a25ff", "lat": 38.91773833333333, "name": "c103bbe924d94cf0f4f70edeb26a25ff", "lon": -77.02409983333334, "fusion_lon": 0.0}, {"is_reserved": 0, "type": "electric_scooter", "fusion_lat": 0.0, "is_disabled": 0, "rental_uris": {"ios": "https://dc.lft.to/lastmile_qr_scan", "android": "https://dc.lft.to/lastmile_qr_scan"}, "bike_id": "37718fab5ad65848e3fc3041e8426f89", "lat": 38.900399, "name": "37718fab5ad65848e3fc3041e8426f89", "lon": -77.01232366666666, "fusion_lon": 0.0}, {"is_reserved": 0, "type": "electric_scooter", "fusion_lat": 0.0, "is_disabled": 0, "rental_uris": {"ios": "https://dc.lft.to/lastmile_qr_scan", "android": "https://dc.lft.to/lastmile_qr_scan"}, "bike_id": "81a61d0a7abf399c7dc56dd18ed601bd", "lat": 38.944605333333335, "name": "81a61d0a7abf399c7dc56dd18ed601bd", "lon": -77.00656983333333, "fusion_lon": 0.0}, {"is_reserved": 0, "type": "electric_scooter", "fusion_lat": 0.0, "is_disabled": 0, "rental_uris": {"ios": "https://dc.lft.to/lastmile_qr_scan", "android": "https://dc.lft.to/lastmile_qr_scan"}, "bike_id": "3a78b3c74f0d98e34ae5217f806c5896", "lat": 38.9206175, "name": "3a78b3c74f0d98e34ae5217f806c5896", "lon": -77.00062916666667, "fusion_lon": 0.0}, {"is_reserved": 0, "type": "electric_scooter", "fusion_lat": 0.0, "is_disabled": 0, "rental_uris": {"ios": "https://dc.lft.to/lastmile_qr_scan", "android": "https://dc.lft.to/lastmile_qr_scan"}, "bike_id": "1d5c3e99d408f701a02b0ef43f3d6566", "lat": 38.91331483333333, "name": "1d5c3e99d408f701a02b0ef43f3d6566", "lon": -77.0458185, "fusion_lon": 0.0}, {"is_reserved": 0, "type": "electric_scooter", "fusion_lat": 0.0, "is_disabled": 0, "rental_uris": {"ios": "https://dc.lft.to/lastmile_qr_scan", "android": "https://dc.lft.to/lastmile_qr_scan"}, "bike_id": "c068926ae797765cb652621ccdce4c0d", "lat": 38.8813935, "name": "c068926ae797765cb652621ccdce4c0d", "lon": -76.996219, "fusion_lon": 0.0}, {"is_reserved": 0, "type": "electric_scooter", "fusion_lat": 0.0, "is_disabled": 0, "rental_uris": {"ios": "https://dc.lft.to/lastmile_qr_scan", "android": "https://dc.lft.to/lastmile_qr_scan"}, "bike_id": "b191f349403433286d112290406a5d46", "lat": 38.921344500000004, "name": "b191f349403433286d112290406a5d46", "lon": -77.01802983333333, "fusion_lon": 0.0}, {"is_reserved": 0, "type": "electric_scooter", "fusion_lat": 0.0, "is_disabled": 0, "rental_uris": {"ios": "https://dc.lft.to/lastmile_qr_scan", "android": "https://dc.lft.to/lastmile_qr_scan"}, "bike_id": "5fb1ba22b8b1710fe07f0d0eef6a6540", "lat": 38.8981825, "name": "5fb1ba22b8b1710fe07f0d0eef6a6540", "lon": -76.99834466666667, "fusion_lon": 0.0}, {"is_reserved": 0, "type": "electric_scooter", "fusion_lat": 0.0, "is_disabled": 0, "rental_uris": {"ios": "https://dc.lft.to/lastmile_qr_scan", "android": "https://dc.lft.to/lastmile_qr_scan"}, "bike_id": "21e2bf6369c81b6dd5ebb0d9eab6dd4a", "lat": 38.87846166666667, "name": "21e2bf6369c81b6dd5ebb0d9eab6dd4a", "lon": -77.00898316666667, "fusion_lon": 0.0}, {"is_reserved": 0, "type": "electric_scooter", "fusion_lat": 0.0, "is_disabled": 0, "rental_uris": {"ios": "https://dc.lft.to/lastmile_qr_scan", "android": "https://dc.lft.to/lastmile_qr_scan"}, "bike_id": "bbe1aec76fe62c3ead30a26ba7f037d1", "lat": 38.908586166666666, "name": "bbe1aec76fe62c3ead30a26ba7f037d1", "lon": -76.99803883333334, "fusion_lon": 0.0}, {"is_reserved": 0, "type": "electric_scooter", "fusion_lat": 0.0, "is_disabled": 0, "rental_uris": {"ios": "https://dc.lft.to/lastmile_qr_scan", "android": "https://dc.lft.to/lastmile_qr_scan"}, "bike_id": "b0dddb2be4c734943e88ce1f856f45a9", "lat": 38.92449533333333, "name": "b0dddb2be4c734943e88ce1f856f45a9", "lon": -77.02032, "fusion_lon": 0.0}, {"is_reserved": 0, "type": "electric_bike", "fusion_lat": 0.0, "is_disabled": 0, "rental_uris": {"ios": "https://dc.lft.to/lastmile_qr_scan", "android": "https://dc.lft.to/lastmile_qr_scan"}, "bike_id": "3a88db548f565fd13c7af75f7872f5af", "lat": 38.819382833333336, "name": "3a88db548f565fd13c7af75f7872f5af", "lon": -77.0020185, "fusion_lon": 0.0}, {"is_reserved": 0, "type": "electric_scooter", "fusion_lat": 0.0, "is_disabled": 0, "rental_uris": {"ios": "https://dc.lft.to/lastmile_qr_scan", "android": "https://dc.lft.to/lastmile_qr_scan"}, "bike_id": "cd26b5e27021595820fad297d63c9468", "lat": 38.922139333333334, "name": "cd26b5e27021595820fad297d63c9468", "lon": -77.03296983333334, "fusion_lon": 0.0}, {"is_reserved": 0, "type": "electric_scooter", "fusion_lat": 0.0, "is_disabled": 0, "rental_uris": {"ios": "https://dc.lft.to/lastmile_qr_scan", "android": "https://dc.lft.to/lastmile_qr_scan"}, "bike_id": "8976bbb1e2dea609fd40e7e435e4276d", "lat": 38.894739, "name": "8976bbb1e2dea609fd40e7e435e4276d", "lon": -76.99357433333333, "fusion_lon": 0.0}, {"is_reserved": 0, "type": "electric_scooter", "fusion_lat": 0.0, "is_disabled": 0, "rental_uris": {"ios": "https://dc.lft.to/lastmile_qr_scan", "android": "https://dc.lft.to/lastmile_qr_scan"}, "bike_id": "50c0e2e55f7565d25cddc8d216fb5bda", "lat": 38.920800166666666, "name": "50c0e2e55f7565d25cddc8d216fb5bda", "lon": -77.03646866666666, "fusion_lon": 0.0}, {"is_reserved": 0, "type": "electric_scooter", "fusion_lat": 0.0, "is_disabled": 0, "rental_uris": {"ios": "https://dc.lft.to/lastmile_qr_scan", "android": "https://dc.lft.to/lastmile_qr_scan"}, "bike_id": "f2f851e4c3432fa7a57816874174735f", "lat": 38.928318, "name": "f2f851e4c3432fa7a57816874174735f", "lon": -77.037044, "fusion_lon": 0.0}, {"is_reserved": 0, "type": "electric_scooter", "fusion_lat": 0.0, "is_disabled": 0, "rental_uris": {"ios": "https://dc.lft.to/lastmile_qr_scan", "android": "https://dc.lft.to/lastmile_qr_scan"}, "bike_id": "7d7304f61ea91ffffac3010fb5b067e6", "lat": 38.9228425, "name": "7d7304f61ea91ffffac3010fb5b067e6", "lon": -77.01990733333334, "fusion_lon": 0.0}, {"is_reserved": 0, "type": "electric_scooter", "fusion_lat": 0.0, "is_disabled": 0, "rental_uris": {"ios": "https://dc.lft.to/lastmile_qr_scan", "android": "https://dc.lft.to/lastmile_qr_scan"}, "bike_id": "be3f9ee6f19ec523822aa41baf498614", "lat": 38.87716983333333, "name": "be3f9ee6f19ec523822aa41baf498614", "lon": -77.017367, "fusion_lon": 0.0}, {"is_reserved": 0, "type": "electric_scooter", "fusion_lat": 0.0, "is_disabled": 0, "rental_uris": {"ios": "https://dc.lft.to/lastmile_qr_scan", "android": "https://dc.lft.to/lastmile_qr_scan"}, "bike_id": "8e2293b4b73987d2cdc9ed291dd837a8", "lat": 38.918201, "name": "8e2293b4b73987d2cdc9ed291dd837a8", "lon": -77.04175566666666, "fusion_lon": 0.0}, {"is_reserved": 0, "type": "electric_scooter", "fusion_lat": 0.0, "is_disabled": 0, "rental_uris": {"ios": "https://dc.lft.to/lastmile_qr_scan", "android": "https://dc.lft.to/lastmile_qr_scan"}, "bike_id": "cdba4009fd207e14ddffb9a8c8e1a9fd", "lat": 38.85517016666667, "name": "cdba4009fd207e14ddffb9a8c8e1a9fd", "lon": -76.99148466666666, "fusion_lon": 0.0}, {"is_reserved": 0, "type": "electric_scooter", "fusion_lat": 0.0, "is_disabled": 0, "rental_uris": {"ios": "https://dc.lft.to/lastmile_qr_scan", "android": "https://dc.lft.to/lastmile_qr_scan"}, "bike_id": "1556586de97683dc842504cb578dc6da", "lat": 38.902033333333335, "name": "1556586de97683dc842504cb578dc6da", "lon": -77.0237495, "fusion_lon": 0.0}, {"is_reserved": 0, "type": "electric_scooter", "fusion_lat": 0.0, "is_disabled": 0, "rental_uris": {"ios": "https://dc.lft.to/lastmile_qr_scan", "android": "https://dc.lft.to/lastmile_qr_scan"}, "bike_id": "98c2aa1622571a536dfbf8b1f3e1d93c", "lat": 38.90602533333333, "name": "98c2aa1622571a536dfbf8b1f3e1d93c", "lon": -77.0211225, "fusion_lon": 0.0}, {"is_reserved": 0, "type": "electric_scooter", "fusion_lat": 0.0, "is_disabled": 0, "rental_uris": {"ios": "https://dc.lft.to/lastmile_qr_scan", "android": "https://dc.lft.to/lastmile_qr_scan"}, "bike_id": "b0547432b4c72266f3ae75b5107c6494", "lat": 38.88660333333333, "name": "b0547432b4c72266f3ae75b5107c6494", "lon": -76.98562183333334, "fusion_lon": 0.0}, {"is_reserved": 0, "type": "electric_scooter", "fusion_lat": 0.0, "is_disabled": 0, "rental_uris": {"ios": "https://dc.lft.to/lastmile_qr_scan", "android": "https://dc.lft.to/lastmile_qr_scan"}, "bike_id": "252f0a2153a95c7a75678ba9c075867b", "lat": 38.88999916666667, "name": "252f0a2153a95c7a75678ba9c075867b", "lon": -77.04899866666666, "fusion_lon": 0.0}, {"is_reserved": 0, "type": "electric_scooter", "fusion_lat": 0.0, "is_disabled": 0, "rental_uris": {"ios": "https://dc.lft.to/lastmile_qr_scan", "android": "https://dc.lft.to/lastmile_qr_scan"}, "bike_id": "56010d005d8eb5f37872b7a0a2861a55", "lat": 38.898275, "name": "56010d005d8eb5f37872b7a0a2861a55", "lon": -76.94648983333333, "fusion_lon": 0.0}, {"is_reserved": 0, "type": "electric_scooter", "fusion_lat": 0.0, "is_disabled": 0, "rental_uris": {"ios": "https://dc.lft.to/lastmile_qr_scan", "android": "https://dc.lft.to/lastmile_qr_scan"}, "bike_id": "8f56310f56456e73139ac01692dc4bdb", "lat": 38.9048785, "name": "8f56310f56456e73139ac01692dc4bdb", "lon": -77.02805816666667, "fusion_lon": 0.0}, {"is_reserved": 0, "type": "electric_bike", "fusion_lat": 0.0, "is_disabled": 0, "rental_uris": {"ios": "https://dc.lft.to/lastmile_qr_scan", "android": "https://dc.lft.to/lastmile_qr_scan"}, "bike_id": "ce18d8435116d985687a5f53cf33742a", "lat": 38.8766725, "name": "ce18d8435116d985687a5f53cf33742a", "lon": -77.020815, "fusion_lon": 0.0}, {"is_reserved": 0, "type": "electric_bike", "fusion_lat": 0.0, "is_disabled": 0, "rental_uris": {"ios": "https://dc.lft.to/lastmile_qr_scan", "android": "https://dc.lft.to/lastmile_qr_scan"}, "bike_id": "069163f8c2ac0115fad675bf0fc2191a", "lat": 38.875801333333335, "name": "069163f8c2ac0115fad675bf0fc2191a", "lon": -77.23408833333333, "fusion_lon": 0.0}, {"is_reserved": 0, "type": "electric_scooter", "fusion_lat": 0.0, "is_disabled": 0, "rental_uris": {"ios": "https://dc.lft.to/lastmile_qr_scan", "android": "https://dc.lft.to/lastmile_qr_scan"}, "bike_id": "ee5437e5269ca8e7bdf26e0cb85d6d20", "lat": 38.92437666666667, "name": "ee5437e5269ca8e7bdf26e0cb85d6d20", "lon": -77.04238633333334, "fusion_lon": 0.0}, {"is_reserved": 0, "type": "electric_scooter", "fusion_lat": 0.0, "is_disabled": 0, "rental_uris": {"ios": "https://dc.lft.to/lastmile_qr_scan", "android": "https://dc.lft.to/lastmile_qr_scan"}, "bike_id": "13b83d7eebf0f0e8351d27a9a31274ce", "lat": 38.915937166666666, "name": "13b83d7eebf0f0e8351d27a9a31274ce", "lon": -77.0230395, "fusion_lon": 0.0}, {"is_reserved": 0, "type": "electric_scooter", "fusion_lat": 0.0, "is_disabled": 0, "rental_uris": {"ios": "https://dc.lft.to/lastmile_qr_scan", "android": "https://dc.lft.to/lastmile_qr_scan"}, "bike_id": "64f1fddd045d4d243663c8fd4c44eea5", "lat": 38.893316166666665, "name": "64f1fddd045d4d243663c8fd4c44eea5", "lon": -76.93928116666666, "fusion_lon": 0.0}, {"is_reserved": 0, "type": "electric_scooter", "fusion_lat": 0.0, "is_disabled": 0, "rental_uris": {"ios": "https://dc.lft.to/lastmile_qr_scan", "android": "https://dc.lft.to/lastmile_qr_scan"}, "bike_id": "ad840291f5a0d6bcce5b0dba51f73515", "lat": 38.892189333333334, "name": "ad840291f5a0d6bcce5b0dba51f73515", "lon": -77.031606, "fusion_lon": 0.0}, {"is_reserved": 0, "type": "electric_scooter", "fusion_lat": 0.0, "is_disabled": 0, "rental_uris": {"ios": "https://dc.lft.to/lastmile_qr_scan", "android": "https://dc.lft.to/lastmile_qr_scan"}, "bike_id": "2e49e47d3477cfccdaf45f639c8aaf2a", "lat": 38.87068516666667, "name": "2e49e47d3477cfccdaf45f639c8aaf2a", "lon": -76.98127583333333, "fusion_lon": 0.0}, {"is_reserved": 0, "type": "electric_scooter", "fusion_lat": 0.0, "is_disabled": 0, "rental_uris": {"ios": "https://dc.lft.to/lastmile_qr_scan", "android": "https://dc.lft.to/lastmile_qr_scan"}, "bike_id": "9c13e2a5aa8b25ae5980a86dbfc84311", "lat": 38.908477500000004, "name": "9c13e2a5aa8b25ae5980a86dbfc84311", "lon": -77.0246055, "fusion_lon": 0.0}, {"is_reserved": 0, "type": "electric_scooter", "fusion_lat": 0.0, "is_disabled": 0, "rental_uris": {"ios": "https://dc.lft.to/lastmile_qr_scan", "android": "https://dc.lft.to/lastmile_qr_scan"}, "bike_id": "853b1e9516c6c8a23225e1268a1d2d67", "lat": 38.8948135, "name": "853b1e9516c6c8a23225e1268a1d2d67", "lon": -76.948684, "fusion_lon": 0.0}, {"is_reserved": 0, "type": "electric_scooter", "fusion_lat": 0.0, "is_disabled": 0, "rental_uris": {"ios": "https://dc.lft.to/lastmile_qr_scan", "android": "https://dc.lft.to/lastmile_qr_scan"}, "bike_id": "978649ddbe9ea23f6a5f456abdda1e0c", "lat": 38.917608333333334, "name": "978649ddbe9ea23f6a5f456abdda1e0c", "lon": -77.0045, "fusion_lon": 0.0}, {"is_reserved": 0, "type": "electric_bike", "fusion_lat": 0.0, "is_disabled": 0, "rental_uris": {"ios": "https://dc.lft.to/lastmile_qr_scan", "android": "https://dc.lft.to/lastmile_qr_scan"}, "bike_id": "35e9aa7d4e0ef2d15019568bc9efb1bd", "lat": 38.8863315, "name": "35e9aa7d4e0ef2d15019568bc9efb1bd", "lon": -77.0579395, "fusion_lon": 0.0}, {"is_reserved": 0, "type": "electric_bike", "fusion_lat": 0.0, "is_disabled": 0, "rental_uris": {"ios": "https://dc.lft.to/lastmile_qr_scan", "android": "https://dc.lft.to/lastmile_qr_scan"}, "bike_id": "401775811f7e3fc8bd2824247d89d0f3", "lat": 38.95184316666667, "name": "401775811f7e3fc8bd2824247d89d0f3", "lon": -76.935457, "fusion_lon": 0.0}, {"is_reserved": 0, "type": "electric_scooter", "fusion_lat": 0.0, "is_disabled": 0, "rental_uris": {"ios": "https://dc.lft.to/lastmile_qr_scan", "android": "https://dc.lft.to/lastmile_qr_scan"}, "bike_id": "4c8c88dca08b0f2b30fea7fd1c370bb1", "lat": 38.924446833333334, "name": "4c8c88dca08b0f2b30fea7fd1c370bb1", "lon": -77.02977033333333, "fusion_lon": 0.0}, {"is_reserved": 0, "type": "electric_scooter", "fusion_lat": 0.0, "is_disabled": 0, "rental_uris": {"ios": "https://dc.lft.to/lastmile_qr_scan", "android": "https://dc.lft.to/lastmile_qr_scan"}, "bike_id": "66e08965f6eb478e02c01bc69c982366", "lat": 38.89543916666667, "name": "66e08965f6eb478e02c01bc69c982366", "lon": -76.98336133333333, "fusion_lon": 0.0}, {"is_reserved": 0, "type": "electric_bike", "fusion_lat": 0.0, "is_disabled": 0, "rental_uris": {"ios": "https://dc.lft.to/lastmile_qr_scan", "android": "https://dc.lft.to/lastmile_qr_scan"}, "bike_id": "e9d0c8cb06f903d4664afeb44ff57cba", "lat": 38.9638195, "name": "e9d0c8cb06f903d4664afeb44ff57cba", "lon": -77.0197595, "fusion_lon": 0.0}, {"is_reserved": 0, "type": "electric_scooter", "fusion_lat": 0.0, "is_disabled": 0, "rental_uris": {"ios": "https://dc.lft.to/lastmile_qr_scan", "android": "https://dc.lft.to/lastmile_qr_scan"}, "bike_id": "1f650faa28ecf2e8b156f696724309f7", "lat": 38.92997366666667, "name": "1f650faa28ecf2e8b156f696724309f7", "lon": -77.055353, "fusion_lon": 0.0}, {"is_reserved": 0, "type": "electric_scooter", "fusion_lat": 0.0, "is_disabled": 0, "rental_uris": {"ios": "https://dc.lft.to/lastmile_qr_scan", "android": "https://dc.lft.to/lastmile_qr_scan"}, "bike_id": "15a907161aaf62f974942767674b7fba", "lat": 38.9208185, "name": "15a907161aaf62f974942767674b7fba", "lon": -77.023981, "fusion_lon": 0.0}, {"is_reserved": 0, "type": "electric_scooter", "fusion_lat": 0.0, "is_disabled": 0, "rental_uris": {"ios": "https://dc.lft.to/lastmile_qr_scan", "android": "https://dc.lft.to/lastmile_qr_scan"}, "bike_id": "ee75250f6b0863f57de33b4154ef8ec4", "lat": 38.92339833333333, "name": "ee75250f6b0863f57de33b4154ef8ec4", "lon": -77.0402815, "fusion_lon": 0.0}, {"is_reserved": 0, "type": "electric_scooter", "fusion_lat": 0.0, "is_disabled": 0, "rental_uris": {"ios": "https://dc.lft.to/lastmile_qr_scan", "android": "https://dc.lft.to/lastmile_qr_scan"}, "bike_id": "7810b39f0eea8ed67da36082322c6275", "lat": 38.93332516666667, "name": "7810b39f0eea8ed67da36082322c6275", "lon": -77.03875316666667, "fusion_lon": 0.0}, {"is_reserved": 0, "type": "electric_scooter", "fusion_lat": 0.0, "is_disabled": 0, "rental_uris": {"ios": "https://dc.lft.to/lastmile_qr_scan", "android": "https://dc.lft.to/lastmile_qr_scan"}, "bike_id": "77b3ca13c4ef782acd9601d3df7e692c", "lat": 38.928810166666665, "name": "77b3ca13c4ef782acd9601d3df7e692c", "lon": -77.032511, "fusion_lon": 0.0}, {"is_reserved": 0, "type": "electric_bike", "fusion_lat": 0.0, "is_disabled": 0, "rental_uris": {"ios": "https://dc.lft.to/lastmile_qr_scan", "android": "https://dc.lft.to/lastmile_qr_scan"}, "bike_id": "8696249089e03c2a331da94c3ed04f59", "lat": 38.95507083333333, "name": "8696249089e03c2a331da94c3ed04f59", "lon": -77.02770716666667, "fusion_lon": 0.0}, {"is_reserved": 0, "type": "electric_bike", "fusion_lat": 0.0, "is_disabled": 0, "rental_uris": {"ios": "https://dc.lft.to/lastmile_qr_scan", "android": "https://dc.lft.to/lastmile_qr_scan"}, "bike_id": "75682e02ba62718b1c98e0c0686f07e8", "lat": 38.967312, "name": "75682e02ba62718b1c98e0c0686f07e8", "lon": -77.08909416666667, "fusion_lon": 0.0}, {"is_reserved": 0, "type": "electric_scooter", "fusion_lat": 0.0, "is_disabled": 0, "rental_uris": {"ios": "https://dc.lft.to/lastmile_qr_scan", "android": "https://dc.lft.to/lastmile_qr_scan"}, "bike_id": "3fb50d42d5d3bce819550404014a7192", "lat": 38.94094783333333, "name": "3fb50d42d5d3bce819550404014a7192", "lon": -77.024944, "fusion_lon": 0.0}, {"is_reserved": 0, "type": "electric_scooter", "fusion_lat": 0.0, "is_disabled": 0, "rental_uris": {"ios": "https://dc.lft.to/lastmile_qr_scan", "android": "https://dc.lft.to/lastmile_qr_scan"}, "bike_id": "c8040f4f8fc5a8d0ac384bb86c8c5af8", "lat": 38.92953516666667, "name": "c8040f4f8fc5a8d0ac384bb86c8c5af8", "lon": -77.04404766666667, "fusion_lon": 0.0}, {"is_reserved": 0, "type": "electric_scooter", "fusion_lat": 0.0, "is_disabled": 0, "rental_uris": {"ios": "https://dc.lft.to/lastmile_qr_scan", "android": "https://dc.lft.to/lastmile_qr_scan"}, "bike_id": "6c9a2a8361793767f555b1b8733f9f08", "lat": 38.89493866666667, "name": "6c9a2a8361793767f555b1b8733f9f08", "lon": -77.02291283333334, "fusion_lon": 0.0}, {"is_reserved": 0, "type": "electric_scooter", "fusion_lat": 0.0, "is_disabled": 0, "rental_uris": {"ios": "https://dc.lft.to/lastmile_qr_scan", "android": "https://dc.lft.to/lastmile_qr_scan"}, "bike_id": "d79b555424b6fbbfe76abd99793493a3", "lat": 38.90995216666666, "name": "d79b555424b6fbbfe76abd99793493a3", "lon": -77.026933, "fusion_lon": 0.0}, {"is_reserved": 0, "type": "electric_scooter", "fusion_lat": 0.0, "is_disabled": 0, "rental_uris": {"ios": "https://dc.lft.to/lastmile_qr_scan", "android": "https://dc.lft.to/lastmile_qr_scan"}, "bike_id": "997e52929dc41b6cf291de8f58a175bd", "lat": 38.92214, "name": "997e52929dc41b6cf291de8f58a175bd", "lon": -77.02029316666666, "fusion_lon": 0.0}, {"is_reserved": 0, "type": "electric_bike", "fusion_lat": 0.0, "is_disabled": 0, "rental_uris": {"ios": "https://dc.lft.to/lastmile_qr_scan", "android": "https://dc.lft.to/lastmile_qr_scan"}, "bike_id": "cefd05b31fc6c0656ba9f59fb0e061af", "lat": 38.83583983333333, "name": "cefd05b31fc6c0656ba9f59fb0e061af", "lon": -76.99018766666667, "fusion_lon": 0.0}, {"is_reserved": 0, "type": "electric_bike", "fusion_lat": 0.0, "is_disabled": 0, "rental_uris": {"ios": "https://dc.lft.to/lastmile_qr_scan", "android": "https://dc.lft.to/lastmile_qr_scan"}, "bike_id": "0ba7fdb0af9758bf892ed3c49ccd38eb", "lat": 38.9145025, "name": "0ba7fdb0af9758bf892ed3c49ccd38eb", "lon": -76.97276966666666, "fusion_lon": 0.0}, {"is_reserved": 0, "type": "electric_bike", "fusion_lat": 0.0, "is_disabled": 0, "rental_uris": {"ios": "https://dc.lft.to/lastmile_qr_scan", "android": "https://dc.lft.to/lastmile_qr_scan"}, "bike_id": "5da60eb3f92fdc28633a69210e426cbb", "lat": 38.85083433333333, "name": "5da60eb3f92fdc28633a69210e426cbb", "lon": -76.98156066666667, "fusion_lon": 0.0}, {"is_reserved": 0, "type": "electric_scooter", "fusion_lat": 0.0, "is_disabled": 0, "rental_uris": {"ios": "https://dc.lft.to/lastmile_qr_scan", "android": "https://dc.lft.to/lastmile_qr_scan"}, "bike_id": "e8877b36badc4136e7dafe545ad2706b", "lat": 38.933292333333334, "name": "e8877b36badc4136e7dafe545ad2706b", "lon": -77.02913283333334, "fusion_lon": 0.0}, {"is_reserved": 0, "type": "electric_bike", "fusion_lat": 0.0, "is_disabled": 0, "rental_uris": {"ios": "https://dc.lft.to/lastmile_qr_scan", "android": "https://dc.lft.to/lastmile_qr_scan"}, "bike_id": "1c14866c175f1d59b3576bbc26df0467", "lat": 38.90011583333333, "name": "1c14866c175f1d59b3576bbc26df0467", "lon": -76.99043116666667, "fusion_lon": 0.0}, {"is_reserved": 0, "type": "electric_scooter", "fusion_lat": 0.0, "is_disabled": 0, "rental_uris": {"ios": "https://dc.lft.to/lastmile_qr_scan", "android": "https://dc.lft.to/lastmile_qr_scan"}, "bike_id": "af56b711655b7fcd9798b16520a0b7f3", "lat": 38.917451, "name": "af56b711655b7fcd9798b16520a0b7f3", "lon": -77.01083216666666, "fusion_lon": 0.0}, {"is_reserved": 0, "type": "electric_scooter", "fusion_lat": 0.0, "is_disabled": 0, "rental_uris": {"ios": "https://dc.lft.to/lastmile_qr_scan", "android": "https://dc.lft.to/lastmile_qr_scan"}, "bike_id": "6399792de0b0db1a3ec22faabce2a40c", "lat": 38.888397166666664, "name": "6399792de0b0db1a3ec22faabce2a40c", "lon": -76.97734816666667, "fusion_lon": 0.0}, {"is_reserved": 0, "type": "electric_bike", "fusion_lat": 0.0, "is_disabled": 0, "rental_uris": {"ios": "https://dc.lft.to/lastmile_qr_scan", "android": "https://dc.lft.to/lastmile_qr_scan"}, "bike_id": "b23ec93be1c502c9e099414cf89b3882", "lat": 38.900771166666665, "name": "b23ec93be1c502c9e099414cf89b3882", "lon": -77.04676666666667, "fusion_lon": 0.0}, {"is_reserved": 0, "type": "electric_scooter", "fusion_lat": 0.0, "is_disabled": 0, "rental_uris": {"ios": "https://dc.lft.to/lastmile_qr_scan", "android": "https://dc.lft.to/lastmile_qr_scan"}, "bike_id": "df81731681a3f4134c722cf02010e06d", "lat": 38.887703333333334, "name": "df81731681a3f4134c722cf02010e06d", "lon": -77.00047, "fusion_lon": 0.0}, {"is_reserved": 0, "type": "electric_scooter", "fusion_lat": 0.0, "is_disabled": 0, "rental_uris": {"ios": "https://dc.lft.to/lastmile_qr_scan", "android": "https://dc.lft.to/lastmile_qr_scan"}, "bike_id": "1292fba8bf18dd4cea086dda70595a66", "lat": 38.9034265, "name": "1292fba8bf18dd4cea086dda70595a66", "lon": -77.01106616666667, "fusion_lon": 0.0}, {"is_reserved": 0, "type": "electric_bike", "fusion_lat": 0.0, "is_disabled": 0, "rental_uris": {"ios": "https://dc.lft.to/lastmile_qr_scan", "android": "https://dc.lft.to/lastmile_qr_scan"}, "bike_id": "c2f2f2ffed756e5da1ab18e45b9487aa", "lat": 38.84631783333333, "name": "c2f2f2ffed756e5da1ab18e45b9487aa", "lon": -77.06936, "fusion_lon": 0.0}, {"is_reserved": 0, "type": "electric_scooter", "fusion_lat": 0.0, "is_disabled": 0, "rental_uris": {"ios": "https://dc.lft.to/lastmile_qr_scan", "android": "https://dc.lft.to/lastmile_qr_scan"}, "bike_id": "d139db812fb3c8d696ee0e7b84e3c863", "lat": 38.920827, "name": "d139db812fb3c8d696ee0e7b84e3c863", "lon": -77.03646683333334, "fusion_lon": 0.0}, {"is_reserved": 0, "type": "electric_scooter", "fusion_lat": 0.0, "is_disabled": 0, "rental_uris": {"ios": "https://dc.lft.to/lastmile_qr_scan", "android": "https://dc.lft.to/lastmile_qr_scan"}, "bike_id": "c2b8d8dcce283b328234f3c53bb525bc", "lat": 38.89195633333333, "name": "c2b8d8dcce283b328234f3c53bb525bc", "lon": -77.02219916666667, "fusion_lon": 0.0}, {"is_reserved": 0, "type": "electric_scooter", "fusion_lat": 0.0, "is_disabled": 0, "rental_uris": {"ios": "https://dc.lft.to/lastmile_qr_scan", "android": "https://dc.lft.to/lastmile_qr_scan"}, "bike_id": "f16585be8e370395f6ac486d9d93340d", "lat": 38.930777, "name": "f16585be8e370395f6ac486d9d93340d", "lon": -77.03659616666667, "fusion_lon": 0.0}, {"is_reserved": 0, "type": "electric_scooter", "fusion_lat": 0.0, "is_disabled": 0, "rental_uris": {"ios": "https://dc.lft.to/lastmile_qr_scan", "android": "https://dc.lft.to/lastmile_qr_scan"}, "bike_id": "9c3661d4e4fc7835ddab00184e2dced9", "lat": 38.899684666666666, "name": "9c3661d4e4fc7835ddab00184e2dced9", "lon": -76.93763533333333, "fusion_lon": 0.0}, {"is_reserved": 0, "type": "electric_scooter", "fusion_lat": 0.0, "is_disabled": 0, "rental_uris": {"ios": "https://dc.lft.to/lastmile_qr_scan", "android": "https://dc.lft.to/lastmile_qr_scan"}, "bike_id": "78c2838ddd68451fe201ccc364723695", "lat": 38.899563, "name": "78c2838ddd68451fe201ccc364723695", "lon": -77.04722016666666, "fusion_lon": 0.0}, {"is_reserved": 0, "type": "electric_scooter", "fusion_lat": 0.0, "is_disabled": 0, "rental_uris": {"ios": "https://dc.lft.to/lastmile_qr_scan", "android": "https://dc.lft.to/lastmile_qr_scan"}, "bike_id": "4c6027efc760d19a0d0768fb104eb441", "lat": 38.91609583333333, "name": "4c6027efc760d19a0d0768fb104eb441", "lon": -77.032079, "fusion_lon": 0.0}, {"is_reserved": 0, "type": "electric_scooter", "fusion_lat": 0.0, "is_disabled": 0, "rental_uris": {"ios": "https://dc.lft.to/lastmile_qr_scan", "android": "https://dc.lft.to/lastmile_qr_scan"}, "bike_id": "711b2d59160b0cb4514eb24ad3d67e10", "lat": 38.88643033333334, "name": "711b2d59160b0cb4514eb24ad3d67e10", "lon": -77.01224566666667, "fusion_lon": 0.0}, {"is_reserved": 0, "type": "electric_scooter", "fusion_lat": 0.0, "is_disabled": 0, "rental_uris": {"ios": "https://dc.lft.to/lastmile_qr_scan", "android": "https://dc.lft.to/lastmile_qr_scan"}, "bike_id": "04bf7aca199bf2dd41bf1878d29e772c", "lat": 38.894778333333335, "name": "04bf7aca199bf2dd41bf1878d29e772c", "lon": -77.021862, "fusion_lon": 0.0}, {"is_reserved": 0, "type": "electric_scooter", "fusion_lat": 0.0, "is_disabled": 0, "rental_uris": {"ios": "https://dc.lft.to/lastmile_qr_scan", "android": "https://dc.lft.to/lastmile_qr_scan"}, "bike_id": "82db2dab784312ab7c6b5b00b89f5288", "lat": 38.88319366666666, "name": "82db2dab784312ab7c6b5b00b89f5288", "lon": -76.931512, "fusion_lon": 0.0}, {"is_reserved": 0, "type": "electric_scooter", "fusion_lat": 0.0, "is_disabled": 0, "rental_uris": {"ios": "https://dc.lft.to/lastmile_qr_scan", "android": "https://dc.lft.to/lastmile_qr_scan"}, "bike_id": "d3b6c408b7a5c62f49f89e18963b11ea", "lat": 38.898309166666664, "name": "d3b6c408b7a5c62f49f89e18963b11ea", "lon": -77.02854316666667, "fusion_lon": 0.0}, {"is_reserved": 0, "type": "electric_scooter", "fusion_lat": 0.0, "is_disabled": 0, "rental_uris": {"ios": "https://dc.lft.to/lastmile_qr_scan", "android": "https://dc.lft.to/lastmile_qr_scan"}, "bike_id": "3763f64d1053e649fd810b46b286a065", "lat": 38.9052325, "name": "3763f64d1053e649fd810b46b286a065", "lon": -77.06787366666667, "fusion_lon": 0.0}, {"is_reserved": 0, "type": "electric_scooter", "fusion_lat": 0.0, "is_disabled": 0, "rental_uris": {"ios": "https://dc.lft.to/lastmile_qr_scan", "android": "https://dc.lft.to/lastmile_qr_scan"}, "bike_id": "861360fe348c9a09b6f878c443b341b5", "lat": 38.9353205, "name": "861360fe348c9a09b6f878c443b341b5", "lon": -77.02348583333334, "fusion_lon": 0.0}, {"is_reserved": 0, "type": "electric_bike", "fusion_lat": 0.0, "is_disabled": 0, "rental_uris": {"ios": "https://dc.lft.to/lastmile_qr_scan", "android": "https://dc.lft.to/lastmile_qr_scan"}, "bike_id": "0705510c21b2ec22173694524986e78a", "lat": 38.83028633333333, "name": "0705510c21b2ec22173694524986e78a", "lon": -77.00828983333334, "fusion_lon": 0.0}, {"is_reserved": 0, "type": "electric_scooter", "fusion_lat": 0.0, "is_disabled": 0, "rental_uris": {"ios": "https://dc.lft.to/lastmile_qr_scan", "android": "https://dc.lft.to/lastmile_qr_scan"}, "bike_id": "49e5ed3ea90b5d1796f023a788a7e691", "lat": 38.900986833333334, "name": "49e5ed3ea90b5d1796f023a788a7e691", "lon": -77.04495216666666, "fusion_lon": 0.0}, {"is_reserved": 0, "type": "electric_scooter", "fusion_lat": 0.0, "is_disabled": 0, "rental_uris": {"ios": "https://dc.lft.to/lastmile_qr_scan", "android": "https://dc.lft.to/lastmile_qr_scan"}, "bike_id": "70c0554c2a09bc3a5394f26923c2b850", "lat": 38.88150133333333, "name": "70c0554c2a09bc3a5394f26923c2b850", "lon": -77.0129305, "fusion_lon": 0.0}, {"is_reserved": 0, "type": "electric_scooter", "fusion_lat": 0.0, "is_disabled": 0, "rental_uris": {"ios": "https://dc.lft.to/lastmile_qr_scan", "android": "https://dc.lft.to/lastmile_qr_scan"}, "bike_id": "8290920eb48deb30c3631823046c45b7", "lat": 38.916732833333334, "name": "8290920eb48deb30c3631823046c45b7", "lon": -77.0158095, "fusion_lon": 0.0}, {"is_reserved": 0, "type": "electric_scooter", "fusion_lat": 0.0, "is_disabled": 0, "rental_uris": {"ios": "https://dc.lft.to/lastmile_qr_scan", "android": "https://dc.lft.to/lastmile_qr_scan"}, "bike_id": "1cf9252d3d61ebb91fb4606fc2ff8443", "lat": 38.917739, "name": "1cf9252d3d61ebb91fb4606fc2ff8443", "lon": -77.0241065, "fusion_lon": 0.0}, {"is_reserved": 0, "type": "electric_scooter", "fusion_lat": 0.0, "is_disabled": 0, "rental_uris": {"ios": "https://dc.lft.to/lastmile_qr_scan", "android": "https://dc.lft.to/lastmile_qr_scan"}, "bike_id": "a7f3e8202af91d1a318d43664726bc57", "lat": 38.924626833333335, "name": "a7f3e8202af91d1a318d43664726bc57", "lon": -77.02243683333333, "fusion_lon": 0.0}, {"is_reserved": 0, "type": "electric_scooter", "fusion_lat": 0.0, "is_disabled": 0, "rental_uris": {"ios": "https://dc.lft.to/lastmile_qr_scan", "android": "https://dc.lft.to/lastmile_qr_scan"}, "bike_id": "acf3a749c6e3ac0606b22f13939d7e52", "lat": 38.91792016666667, "name": "acf3a749c6e3ac0606b22f13939d7e52", "lon": -77.0344085, "fusion_lon": 0.0}, {"is_reserved": 0, "type": "electric_scooter", "fusion_lat": 0.0, "is_disabled": 0, "rental_uris": {"ios": "https://dc.lft.to/lastmile_qr_scan", "android": "https://dc.lft.to/lastmile_qr_scan"}, "bike_id": "8660d47d6c8b5415c8d2dfaa6b4ce4de", "lat": 38.90377866666667, "name": "8660d47d6c8b5415c8d2dfaa6b4ce4de", "lon": -77.02937966666667, "fusion_lon": 0.0}, {"is_reserved": 0, "type": "electric_bike", "fusion_lat": 0.0, "is_disabled": 0, "rental_uris": {"ios": "https://dc.lft.to/lastmile_qr_scan", "android": "https://dc.lft.to/lastmile_qr_scan"}, "bike_id": "805c1c9a62e1c8fb4c230edb678f326f", "lat": 38.94261216666666, "name": "805c1c9a62e1c8fb4c230edb678f326f", "lon": -76.99071683333334, "fusion_lon": 0.0}, {"is_reserved": 0, "type": "electric_bike", "fusion_lat": 0.0, "is_disabled": 0, "rental_uris": {"ios": "https://dc.lft.to/lastmile_qr_scan", "android": "https://dc.lft.to/lastmile_qr_scan"}, "bike_id": "357d6155d43d9bbd46d757bec3658679", "lat": 38.95415783333333, "name": "357d6155d43d9bbd46d757bec3658679", "lon": -76.981257, "fusion_lon": 0.0}, {"is_reserved": 0, "type": "electric_scooter", "fusion_lat": 0.0, "is_disabled": 0, "rental_uris": {"ios": "https://dc.lft.to/lastmile_qr_scan", "android": "https://dc.lft.to/lastmile_qr_scan"}, "bike_id": "25f3f0961e5228e3977852c6f975326f", "lat": 38.90390283333333, "name": "25f3f0961e5228e3977852c6f975326f", "lon": -77.04206883333333, "fusion_lon": 0.0}, {"is_reserved": 0, "type": "electric_scooter", "fusion_lat": 0.0, "is_disabled": 0, "rental_uris": {"ios": "https://dc.lft.to/lastmile_qr_scan", "android": "https://dc.lft.to/lastmile_qr_scan"}, "bike_id": "0754791e02fe10f987b16239bdadac91", "lat": 38.8853105, "name": "0754791e02fe10f987b16239bdadac91", "lon": -76.98054333333333, "fusion_lon": 0.0}, {"is_reserved": 0, "type": "electric_bike", "fusion_lat": 0.0, "is_disabled": 0, "rental_uris": {"ios": "https://dc.lft.to/lastmile_qr_scan", "android": "https://dc.lft.to/lastmile_qr_scan"}, "bike_id": "99c3e4999b179af5e3cd13773d2ef4ed", "lat": 38.896172166666666, "name": "99c3e4999b179af5e3cd13773d2ef4ed", "lon": -76.90741766666666, "fusion_lon": 0.0}, {"is_reserved": 0, "type": "electric_scooter", "fusion_lat": 0.0, "is_disabled": 0, "rental_uris": {"ios": "https://dc.lft.to/lastmile_qr_scan", "android": "https://dc.lft.to/lastmile_qr_scan"}, "bike_id": "afa144f3e023dc0e7f876a67dc595242", "lat": 38.95685683333333, "name": "afa144f3e023dc0e7f876a67dc595242", "lon": -77.0222815, "fusion_lon": 0.0}, {"is_reserved": 0, "type": "electric_scooter", "fusion_lat": 0.0, "is_disabled": 0, "rental_uris": {"ios": "https://dc.lft.to/lastmile_qr_scan", "android": "https://dc.lft.to/lastmile_qr_scan"}, "bike_id": "06aa52ab8d06a1e8c7721aafa5803465", "lat": 38.92167716666667, "name": "06aa52ab8d06a1e8c7721aafa5803465", "lon": -77.040213, "fusion_lon": 0.0}, {"is_reserved": 0, "type": "electric_scooter", "fusion_lat": 0.0, "is_disabled": 0, "rental_uris": {"ios": "https://dc.lft.to/lastmile_qr_scan", "android": "https://dc.lft.to/lastmile_qr_scan"}, "bike_id": "8320cc82719aa87e488a154ccb542d02", "lat": 38.92408416666667, "name": "8320cc82719aa87e488a154ccb542d02", "lon": -77.0200435, "fusion_lon": 0.0}, {"is_reserved": 0, "type": "electric_scooter", "fusion_lat": 0.0, "is_disabled": 0, "rental_uris": {"ios": "https://dc.lft.to/lastmile_qr_scan", "android": "https://dc.lft.to/lastmile_qr_scan"}, "bike_id": "8abb0434972155af464d75ac343362e0", "lat": 38.9026735, "name": "8abb0434972155af464d75ac343362e0", "lon": -77.03450933333333, "fusion_lon": 0.0}, {"is_reserved": 0, "type": "electric_scooter", "fusion_lat": 0.0, "is_disabled": 0, "rental_uris": {"ios": "https://dc.lft.to/lastmile_qr_scan", "android": "https://dc.lft.to/lastmile_qr_scan"}, "bike_id": "1a550aa23cb39c826d91be6723812f37", "lat": 38.90467983333333, "name": "1a550aa23cb39c826d91be6723812f37", "lon": -77.05340316666667, "fusion_lon": 0.0}, {"is_reserved": 0, "type": "electric_scooter", "fusion_lat": 0.0, "is_disabled": 0, "rental_uris": {"ios": "https://dc.lft.to/lastmile_qr_scan", "android": "https://dc.lft.to/lastmile_qr_scan"}, "bike_id": "efad39a9522df800e2f48559d135ee71", "lat": 38.8851275, "name": "efad39a9522df800e2f48559d135ee71", "lon": -76.924405, "fusion_lon": 0.0}, {"is_reserved": 0, "type": "electric_scooter", "fusion_lat": 0.0, "is_disabled": 0, "rental_uris": {"ios": "https://dc.lft.to/lastmile_qr_scan", "android": "https://dc.lft.to/lastmile_qr_scan"}, "bike_id": "24ec3ae92963cf43f542a66e3dce3f68", "lat": 38.957534333333335, "name": "24ec3ae92963cf43f542a66e3dce3f68", "lon": -77.0220775, "fusion_lon": 0.0}, {"is_reserved": 0, "type": "electric_scooter", "fusion_lat": 0.0, "is_disabled": 0, "rental_uris": {"ios": "https://dc.lft.to/lastmile_qr_scan", "android": "https://dc.lft.to/lastmile_qr_scan"}, "bike_id": "b429b55b39add91884e267e9ac4540da", "lat": 38.96766366666667, "name": "b429b55b39add91884e267e9ac4540da", "lon": -77.03424166666667, "fusion_lon": 0.0}, {"is_reserved": 0, "type": "electric_scooter", "fusion_lat": 0.0, "is_disabled": 0, "rental_uris": {"ios": "https://dc.lft.to/lastmile_qr_scan", "android": "https://dc.lft.to/lastmile_qr_scan"}, "bike_id": "0f18822957678de0659406bc04e6ac78", "lat": 38.91691683333333, "name": "0f18822957678de0659406bc04e6ac78", "lon": -77.027151, "fusion_lon": 0.0}, {"is_reserved": 0, "type": "electric_scooter", "fusion_lat": 0.0, "is_disabled": 0, "rental_uris": {"ios": "https://dc.lft.to/lastmile_qr_scan", "android": "https://dc.lft.to/lastmile_qr_scan"}, "bike_id": "8392f7fadd6a8d6465727237af523d9e", "lat": 38.92748683333333, "name": "8392f7fadd6a8d6465727237af523d9e", "lon": -77.02370983333333, "fusion_lon": 0.0}, {"is_reserved": 0, "type": "electric_scooter", "fusion_lat": 0.0, "is_disabled": 0, "rental_uris": {"ios": "https://dc.lft.to/lastmile_qr_scan", "android": "https://dc.lft.to/lastmile_qr_scan"}, "bike_id": "4ccabdb1decb6a5f9cd592060bd8976a", "lat": 38.9008505, "name": "4ccabdb1decb6a5f9cd592060bd8976a", "lon": -77.05018533333333, "fusion_lon": 0.0}, {"is_reserved": 0, "type": "electric_scooter", "fusion_lat": 0.0, "is_disabled": 0, "rental_uris": {"ios": "https://dc.lft.to/lastmile_qr_scan", "android": "https://dc.lft.to/lastmile_qr_scan"}, "bike_id": "e4d3a1541504ed69e26089f89f609033", "lat": 38.907192333333334, "name": "e4d3a1541504ed69e26089f89f609033", "lon": -77.02581183333334, "fusion_lon": 0.0}, {"is_reserved": 0, "type": "electric_scooter", "fusion_lat": 0.0, "is_disabled": 0, "rental_uris": {"ios": "https://dc.lft.to/lastmile_qr_scan", "android": "https://dc.lft.to/lastmile_qr_scan"}, "bike_id": "46d55cb5f81c98cf8dab3402beb4efa6", "lat": 38.904104333333336, "name": "46d55cb5f81c98cf8dab3402beb4efa6", "lon": -76.97325216666667, "fusion_lon": 0.0}, {"is_reserved": 0, "type": "electric_scooter", "fusion_lat": 0.0, "is_disabled": 0, "rental_uris": {"ios": "https://dc.lft.to/lastmile_qr_scan", "android": "https://dc.lft.to/lastmile_qr_scan"}, "bike_id": "a25bc980829552f9d6288d82c59a138d", "lat": 38.916932333333335, "name": "a25bc980829552f9d6288d82c59a138d", "lon": -77.02714433333334, "fusion_lon": 0.0}, {"is_reserved": 0, "type": "electric_bike", "fusion_lat": 0.0, "is_disabled": 0, "rental_uris": {"ios": "https://dc.lft.to/lastmile_qr_scan", "android": "https://dc.lft.to/lastmile_qr_scan"}, "bike_id": "55f2a510d48be514eed7d599548d5bb8", "lat": 38.87176066666667, "name": "55f2a510d48be514eed7d599548d5bb8", "lon": -77.23391066666667, "fusion_lon": 0.0}, {"is_reserved": 0, "type": "electric_scooter", "fusion_lat": 0.0, "is_disabled": 0, "rental_uris": {"ios": "https://dc.lft.to/lastmile_qr_scan", "android": "https://dc.lft.to/lastmile_qr_scan"}, "bike_id": "17bf162b3ab801daf64f2de1f36814b2", "lat": 38.901461833333336, "name": "17bf162b3ab801daf64f2de1f36814b2", "lon": -77.0416795, "fusion_lon": 0.0}, {"is_reserved": 0, "type": "electric_scooter", "fusion_lat": 0.0, "is_disabled": 0, "rental_uris": {"ios": "https://dc.lft.to/lastmile_qr_scan", "android": "https://dc.lft.to/lastmile_qr_scan"}, "bike_id": "a58c3994a83789677d9e8002cedd2399", "lat": 38.89364316666666, "name": "a58c3994a83789677d9e8002cedd2399", "lon": -76.9410625, "fusion_lon": 0.0}, {"is_reserved": 0, "type": "electric_bike", "fusion_lat": 0.0, "is_disabled": 0, "rental_uris": {"ios": "https://dc.lft.to/lastmile_qr_scan", "android": "https://dc.lft.to/lastmile_qr_scan"}, "bike_id": "9fa4d4b3234ac5ab514b078ada71e3d7", "lat": 39.000021833333335, "name": "9fa4d4b3234ac5ab514b078ada71e3d7", "lon": -76.9180295, "fusion_lon": 0.0}, {"is_reserved": 0, "type": "electric_scooter", "fusion_lat": 0.0, "is_disabled": 0, "rental_uris": {"ios": "https://dc.lft.to/lastmile_qr_scan", "android": "https://dc.lft.to/lastmile_qr_scan"}, "bike_id": "ddc6eb755fa7cd14bff898f71cff46d2", "lat": 38.904193666666664, "name": "ddc6eb755fa7cd14bff898f71cff46d2", "lon": -77.0329095, "fusion_lon": 0.0}, {"is_reserved": 0, "type": "electric_scooter", "fusion_lat": 0.0, "is_disabled": 0, "rental_uris": {"ios": "https://dc.lft.to/lastmile_qr_scan", "android": "https://dc.lft.to/lastmile_qr_scan"}, "bike_id": "97b8791fb23b9555754d0b2ea9767a0c", "lat": 38.9216775, "name": "97b8791fb23b9555754d0b2ea9767a0c", "lon": -77.043521, "fusion_lon": 0.0}, {"is_reserved": 0, "type": "electric_bike", "fusion_lat": 0.0, "is_disabled": 0, "rental_uris": {"ios": "https://dc.lft.to/lastmile_qr_scan", "android": "https://dc.lft.to/lastmile_qr_scan"}, "bike_id": "8502fab26d0b698a844d0f877d5759a5", "lat": 38.915875, "name": "8502fab26d0b698a844d0f877d5759a5", "lon": -77.06633383333333, "fusion_lon": 0.0}, {"is_reserved": 0, "type": "electric_scooter", "fusion_lat": 0.0, "is_disabled": 0, "rental_uris": {"ios": "https://dc.lft.to/lastmile_qr_scan", "android": "https://dc.lft.to/lastmile_qr_scan"}, "bike_id": "856875e565e224939470f779027915da", "lat": 38.91931366666667, "name": "856875e565e224939470f779027915da", "lon": -77.04491866666666, "fusion_lon": 0.0}, {"is_reserved": 0, "type": "electric_scooter", "fusion_lat": 0.0, "is_disabled": 0, "rental_uris": {"ios": "https://dc.lft.to/lastmile_qr_scan", "android": "https://dc.lft.to/lastmile_qr_scan"}, "bike_id": "15ee352b183b02ecf120f7fd99950774", "lat": 38.92261166666667, "name": "15ee352b183b02ecf120f7fd99950774", "lon": -77.03687316666667, "fusion_lon": 0.0}, {"is_reserved": 0, "type": "electric_scooter", "fusion_lat": 0.0, "is_disabled": 0, "rental_uris": {"ios": "https://dc.lft.to/lastmile_qr_scan", "android": "https://dc.lft.to/lastmile_qr_scan"}, "bike_id": "4451cfd1a937dff200e904ddb5a0629e", "lat": 38.90192966666667, "name": "4451cfd1a937dff200e904ddb5a0629e", "lon": -76.9884355, "fusion_lon": 0.0}, {"is_reserved": 0, "type": "electric_scooter", "fusion_lat": 0.0, "is_disabled": 0, "rental_uris": {"ios": "https://dc.lft.to/lastmile_qr_scan", "android": "https://dc.lft.to/lastmile_qr_scan"}, "bike_id": "299b4c6f289117373976a033d43fdbe3", "lat": 38.9059985, "name": "299b4c6f289117373976a033d43fdbe3", "lon": -77.05837116666666, "fusion_lon": 0.0}, {"is_reserved": 0, "type": "electric_scooter", "fusion_lat": 0.0, "is_disabled": 0, "rental_uris": {"ios": "https://dc.lft.to/lastmile_qr_scan", "android": "https://dc.lft.to/lastmile_qr_scan"}, "bike_id": "0f383a71d222800e9a04dd0a34c05ab9", "lat": 38.8954425, "name": "0f383a71d222800e9a04dd0a34c05ab9", "lon": -76.9833415, "fusion_lon": 0.0}, {"is_reserved": 0, "type": "electric_bike", "fusion_lat": 0.0, "is_disabled": 0, "rental_uris": {"ios": "https://dc.lft.to/lastmile_qr_scan", "android": "https://dc.lft.to/lastmile_qr_scan"}, "bike_id": "d5fd6fc314688065297480a38cff9c54", "lat": 38.807385, "name": "d5fd6fc314688065297480a38cff9c54", "lon": -77.096842, "fusion_lon": 0.0}, {"is_reserved": 0, "type": "electric_scooter", "fusion_lat": 0.0, "is_disabled": 0, "rental_uris": {"ios": "https://dc.lft.to/lastmile_qr_scan", "android": "https://dc.lft.to/lastmile_qr_scan"}, "bike_id": "38726cda3970f4db4be8e66f85fb657e", "lat": 38.9235945, "name": "38726cda3970f4db4be8e66f85fb657e", "lon": -77.0507025, "fusion_lon": 0.0}, {"is_reserved": 0, "type": "electric_scooter", "fusion_lat": 0.0, "is_disabled": 0, "rental_uris": {"ios": "https://dc.lft.to/lastmile_qr_scan", "android": "https://dc.lft.to/lastmile_qr_scan"}, "bike_id": "47bc1940f9b648e33f295c781ef88329", "lat": 38.930599, "name": "47bc1940f9b648e33f295c781ef88329", "lon": -77.03184583333334, "fusion_lon": 0.0}, {"is_reserved": 0, "type": "electric_scooter", "fusion_lat": 0.0, "is_disabled": 0, "rental_uris": {"ios": "https://dc.lft.to/lastmile_qr_scan", "android": "https://dc.lft.to/lastmile_qr_scan"}, "bike_id": "73982e10b2007712b22565d25595d5ec", "lat": 38.91818216666667, "name": "73982e10b2007712b22565d25595d5ec", "lon": -77.0319815, "fusion_lon": 0.0}, {"is_reserved": 0, "type": "electric_scooter", "fusion_lat": 0.0, "is_disabled": 0, "rental_uris": {"ios": "https://dc.lft.to/lastmile_qr_scan", "android": "https://dc.lft.to/lastmile_qr_scan"}, "bike_id": "2b4fda671379ebef0588d9776d4497d8", "lat": 38.91287233333333, "name": "2b4fda671379ebef0588d9776d4497d8", "lon": -77.0319885, "fusion_lon": 0.0}, {"is_reserved": 0, "type": "electric_scooter", "fusion_lat": 0.0, "is_disabled": 0, "rental_uris": {"ios": "https://dc.lft.to/lastmile_qr_scan", "android": "https://dc.lft.to/lastmile_qr_scan"}, "bike_id": "5de3672de4176723277ab4d6371e42c3", "lat": 38.91264183333333, "name": "5de3672de4176723277ab4d6371e42c3", "lon": -77.0143425, "fusion_lon": 0.0}, {"is_reserved": 0, "type": "electric_scooter", "fusion_lat": 0.0, "is_disabled": 0, "rental_uris": {"ios": "https://dc.lft.to/lastmile_qr_scan", "android": "https://dc.lft.to/lastmile_qr_scan"}, "bike_id": "ff6805626567c876d916939842a6f556", "lat": 38.919519333333334, "name": "ff6805626567c876d916939842a6f556", "lon": -77.0230705, "fusion_lon": 0.0}, {"is_reserved": 0, "type": "electric_scooter", "fusion_lat": 0.0, "is_disabled": 0, "rental_uris": {"ios": "https://dc.lft.to/lastmile_qr_scan", "android": "https://dc.lft.to/lastmile_qr_scan"}, "bike_id": "f305b7ea41d1a6d034446911df39ad76", "lat": 38.907567666666665, "name": "f305b7ea41d1a6d034446911df39ad76", "lon": -77.01900733333333, "fusion_lon": 0.0}, {"is_reserved": 0, "type": "electric_scooter", "fusion_lat": 0.0, "is_disabled": 0, "rental_uris": {"ios": "https://dc.lft.to/lastmile_qr_scan", "android": "https://dc.lft.to/lastmile_qr_scan"}, "bike_id": "d5200b39b20ad137fc9119b9c46bc8ea", "lat": 38.892299333333334, "name": "d5200b39b20ad137fc9119b9c46bc8ea", "lon": -77.050034, "fusion_lon": 0.0}, {"is_reserved": 0, "type": "electric_scooter", "fusion_lat": 0.0, "is_disabled": 0, "rental_uris": {"ios": "https://dc.lft.to/lastmile_qr_scan", "android": "https://dc.lft.to/lastmile_qr_scan"}, "bike_id": "19c33743200db199c6cad4340dc6a576", "lat": 38.92082933333333, "name": "19c33743200db199c6cad4340dc6a576", "lon": -77.0239675, "fusion_lon": 0.0}, {"is_reserved": 0, "type": "electric_bike", "fusion_lat": 0.0, "is_disabled": 0, "rental_uris": {"ios": "https://dc.lft.to/lastmile_qr_scan", "android": "https://dc.lft.to/lastmile_qr_scan"}, "bike_id": "56eb69c18eef53deb0412e1f9621132c", "lat": 38.8682365, "name": "56eb69c18eef53deb0412e1f9621132c", "lon": -76.98021766666666, "fusion_lon": 0.0}, {"is_reserved": 0, "type": "electric_scooter", "fusion_lat": 0.0, "is_disabled": 0, "rental_uris": {"ios": "https://dc.lft.to/lastmile_qr_scan", "android": "https://dc.lft.to/lastmile_qr_scan"}, "bike_id": "7c33d023a2fcbd3cec2b908052b07d14", "lat": 38.9537905, "name": "7c33d023a2fcbd3cec2b908052b07d14", "lon": -77.0018455, "fusion_lon": 0.0}, {"is_reserved": 0, "type": "electric_scooter", "fusion_lat": 0.0, "is_disabled": 0, "rental_uris": {"ios": "https://dc.lft.to/lastmile_qr_scan", "android": "https://dc.lft.to/lastmile_qr_scan"}, "bike_id": "7605981d1b006eb9f51ac9eebac72a00", "lat": 38.91775466666667, "name": "7605981d1b006eb9f51ac9eebac72a00", "lon": -77.047547, "fusion_lon": 0.0}, {"is_reserved": 0, "type": "electric_scooter", "fusion_lat": 0.0, "is_disabled": 0, "rental_uris": {"ios": "https://dc.lft.to/lastmile_qr_scan", "android": "https://dc.lft.to/lastmile_qr_scan"}, "bike_id": "aeae64f992849a30b91c59fe9079886d", "lat": 38.944496666666666, "name": "aeae64f992849a30b91c59fe9079886d", "lon": -77.03279666666667, "fusion_lon": 0.0}, {"is_reserved": 0, "type": "electric_scooter", "fusion_lat": 0.0, "is_disabled": 0, "rental_uris": {"ios": "https://dc.lft.to/lastmile_qr_scan", "android": "https://dc.lft.to/lastmile_qr_scan"}, "bike_id": "78dac81c08ef338a40d7943be216b2c5", "lat": 38.92878183333333, "name": "78dac81c08ef338a40d7943be216b2c5", "lon": -77.039912, "fusion_lon": 0.0}, {"is_reserved": 0, "type": "electric_scooter", "fusion_lat": 0.0, "is_disabled": 0, "rental_uris": {"ios": "https://dc.lft.to/lastmile_qr_scan", "android": "https://dc.lft.to/lastmile_qr_scan"}, "bike_id": "318ddc61b4579dda47c533e0425c3ee1", "lat": 38.9561535, "name": "318ddc61b4579dda47c533e0425c3ee1", "lon": -77.03311566666666, "fusion_lon": 0.0}, {"is_reserved": 0, "type": "electric_scooter", "fusion_lat": 0.0, "is_disabled": 0, "rental_uris": {"ios": "https://dc.lft.to/lastmile_qr_scan", "android": "https://dc.lft.to/lastmile_qr_scan"}, "bike_id": "8210385273b5b3c9b3ef0e06b5dde5a5", "lat": 38.897262833333336, "name": "8210385273b5b3c9b3ef0e06b5dde5a5", "lon": -77.04620616666666, "fusion_lon": 0.0}, {"is_reserved": 0, "type": "electric_scooter", "fusion_lat": 0.0, "is_disabled": 0, "rental_uris": {"ios": "https://dc.lft.to/lastmile_qr_scan", "android": "https://dc.lft.to/lastmile_qr_scan"}, "bike_id": "d2a7e92042db621a810b515040301a52", "lat": 38.892799, "name": "d2a7e92042db621a810b515040301a52", "lon": -77.05041266666667, "fusion_lon": 0.0}, {"is_reserved": 0, "type": "electric_scooter", "fusion_lat": 0.0, "is_disabled": 0, "rental_uris": {"ios": "https://dc.lft.to/lastmile_qr_scan", "android": "https://dc.lft.to/lastmile_qr_scan"}, "bike_id": "2c183be279c20b16d0d01c68996b36d0", "lat": 38.911967833333335, "name": "2c183be279c20b16d0d01c68996b36d0", "lon": -77.02985683333333, "fusion_lon": 0.0}, {"is_reserved": 0, "type": "electric_scooter", "fusion_lat": 0.0, "is_disabled": 0, "rental_uris": {"ios": "https://dc.lft.to/lastmile_qr_scan", "android": "https://dc.lft.to/lastmile_qr_scan"}, "bike_id": "c27496ba5b0f5e96d03b385abc9190a8", "lat": 38.9177575, "name": "c27496ba5b0f5e96d03b385abc9190a8", "lon": -77.023141, "fusion_lon": 0.0}, {"is_reserved": 0, "type": "electric_scooter", "fusion_lat": 0.0, "is_disabled": 0, "rental_uris": {"ios": "https://dc.lft.to/lastmile_qr_scan", "android": "https://dc.lft.to/lastmile_qr_scan"}, "bike_id": "ed16860eea67d8871b7094911caab759", "lat": 38.914951333333335, "name": "ed16860eea67d8871b7094911caab759", "lon": -76.98376516666667, "fusion_lon": 0.0}, {"is_reserved": 0, "type": "electric_scooter", "fusion_lat": 0.0, "is_disabled": 0, "rental_uris": {"ios": "https://dc.lft.to/lastmile_qr_scan", "android": "https://dc.lft.to/lastmile_qr_scan"}, "bike_id": "f0dfa706e67df876940c9222a4839f97", "lat": 38.899036833333334, "name": "f0dfa706e67df876940c9222a4839f97", "lon": -77.00329633333334, "fusion_lon": 0.0}, {"is_reserved": 0, "type": "electric_scooter", "fusion_lat": 0.0, "is_disabled": 0, "rental_uris": {"ios": "https://dc.lft.to/lastmile_qr_scan", "android": "https://dc.lft.to/lastmile_qr_scan"}, "bike_id": "6b99171b018196805f24aa6067ad4da7", "lat": 38.89246933333333, "name": "6b99171b018196805f24aa6067ad4da7", "lon": -77.01819183333333, "fusion_lon": 0.0}, {"is_reserved": 0, "type": "electric_scooter", "fusion_lat": 0.0, "is_disabled": 0, "rental_uris": {"ios": "https://dc.lft.to/lastmile_qr_scan", "android": "https://dc.lft.to/lastmile_qr_scan"}, "bike_id": "6b16c12f4824befd95ecee9d1a268675", "lat": 38.9207385, "name": "6b16c12f4824befd95ecee9d1a268675", "lon": -77.0250635, "fusion_lon": 0.0}, {"is_reserved": 0, "type": "electric_scooter", "fusion_lat": 0.0, "is_disabled": 0, "rental_uris": {"ios": "https://dc.lft.to/lastmile_qr_scan", "android": "https://dc.lft.to/lastmile_qr_scan"}, "bike_id": "976ee4450111c43b5a7e3f0044f99b45", "lat": 38.90334166666667, "name": "976ee4450111c43b5a7e3f0044f99b45", "lon": -76.975888, "fusion_lon": 0.0}, {"is_reserved": 0, "type": "electric_scooter", "fusion_lat": 0.0, "is_disabled": 0, "rental_uris": {"ios": "https://dc.lft.to/lastmile_qr_scan", "android": "https://dc.lft.to/lastmile_qr_scan"}, "bike_id": "4188c20840d13cb5400a37693c2ca80d", "lat": 38.909589, "name": "4188c20840d13cb5400a37693c2ca80d", "lon": -77.01388166666666, "fusion_lon": 0.0}, {"is_reserved": 0, "type": "electric_scooter", "fusion_lat": 0.0, "is_disabled": 0, "rental_uris": {"ios": "https://dc.lft.to/lastmile_qr_scan", "android": "https://dc.lft.to/lastmile_qr_scan"}, "bike_id": "0273c5adf8b211957cab5db3f033e49c", "lat": 38.933452333333335, "name": "0273c5adf8b211957cab5db3f033e49c", "lon": -76.994335, "fusion_lon": 0.0}, {"is_reserved": 0, "type": "electric_scooter", "fusion_lat": 0.0, "is_disabled": 0, "rental_uris": {"ios": "https://dc.lft.to/lastmile_qr_scan", "android": "https://dc.lft.to/lastmile_qr_scan"}, "bike_id": "dcca1e68fe0ff846f6e1f9efd9fb6ed7", "lat": 38.89927183333333, "name": "dcca1e68fe0ff846f6e1f9efd9fb6ed7", "lon": -77.0401175, "fusion_lon": 0.0}, {"is_reserved": 0, "type": "electric_scooter", "fusion_lat": 0.0, "is_disabled": 0, "rental_uris": {"ios": "https://dc.lft.to/lastmile_qr_scan", "android": "https://dc.lft.to/lastmile_qr_scan"}, "bike_id": "311f7ae114b9840199d0e05a9e9f2d9d", "lat": 38.89928116666667, "name": "311f7ae114b9840199d0e05a9e9f2d9d", "lon": -77.03216316666666, "fusion_lon": 0.0}, {"is_reserved": 0, "type": "electric_scooter", "fusion_lat": 0.0, "is_disabled": 0, "rental_uris": {"ios": "https://dc.lft.to/lastmile_qr_scan", "android": "https://dc.lft.to/lastmile_qr_scan"}, "bike_id": "d2c0bdc8200ef217faf24c1ce0202052", "lat": 38.88265083333334, "name": "d2c0bdc8200ef217faf24c1ce0202052", "lon": -76.995203, "fusion_lon": 0.0}, {"is_reserved": 0, "type": "electric_bike", "fusion_lat": 0.0, "is_disabled": 0, "rental_uris": {"ios": "https://dc.lft.to/lastmile_qr_scan", "android": "https://dc.lft.to/lastmile_qr_scan"}, "bike_id": "ce61eb432a8cf16a4ae8eb2e88efa66b", "lat": 38.90529333333333, "name": "ce61eb432a8cf16a4ae8eb2e88efa66b", "lon": -77.05014916666667, "fusion_lon": 0.0}, {"is_reserved": 0, "type": "electric_scooter", "fusion_lat": 0.0, "is_disabled": 0, "rental_uris": {"ios": "https://dc.lft.to/lastmile_qr_scan", "android": "https://dc.lft.to/lastmile_qr_scan"}, "bike_id": "bc14de1628950f28b724180ed31c00d7", "lat": 38.923371, "name": "bc14de1628950f28b724180ed31c00d7", "lon": -77.0361325, "fusion_lon": 0.0}, {"is_reserved": 0, "type": "electric_scooter", "fusion_lat": 0.0, "is_disabled": 0, "rental_uris": {"ios": "https://dc.lft.to/lastmile_qr_scan", "android": "https://dc.lft.to/lastmile_qr_scan"}, "bike_id": "ef95b663df11b16540fb3d3b7e1e2183", "lat": 38.919145, "name": "ef95b663df11b16540fb3d3b7e1e2183", "lon": -77.03428366666667, "fusion_lon": 0.0}, {"is_reserved": 0, "type": "electric_scooter", "fusion_lat": 0.0, "is_disabled": 0, "rental_uris": {"ios": "https://dc.lft.to/lastmile_qr_scan", "android": "https://dc.lft.to/lastmile_qr_scan"}, "bike_id": "a93a84f5f435984048910bb3b475b756", "lat": 38.90605566666667, "name": "a93a84f5f435984048910bb3b475b756", "lon": -77.05662316666667, "fusion_lon": 0.0}, {"is_reserved": 0, "type": "electric_scooter", "fusion_lat": 0.0, "is_disabled": 0, "rental_uris": {"ios": "https://dc.lft.to/lastmile_qr_scan", "android": "https://dc.lft.to/lastmile_qr_scan"}, "bike_id": "da08be5e4132a1c20c4ada9ba1a8269a", "lat": 38.92054983333333, "name": "da08be5e4132a1c20c4ada9ba1a8269a", "lon": -77.033982, "fusion_lon": 0.0}, {"is_reserved": 0, "type": "electric_scooter", "fusion_lat": 0.0, "is_disabled": 0, "rental_uris": {"ios": "https://dc.lft.to/lastmile_qr_scan", "android": "https://dc.lft.to/lastmile_qr_scan"}, "bike_id": "cb5ae20115ff5a88066387684dae2cdf", "lat": 38.952691, "name": "cb5ae20115ff5a88066387684dae2cdf", "lon": -76.99899983333333, "fusion_lon": 0.0}, {"is_reserved": 0, "type": "electric_scooter", "fusion_lat": 0.0, "is_disabled": 0, "rental_uris": {"ios": "https://dc.lft.to/lastmile_qr_scan", "android": "https://dc.lft.to/lastmile_qr_scan"}, "bike_id": "7b53d2fff4966499822216c013dad618", "lat": 38.9170985, "name": "7b53d2fff4966499822216c013dad618", "lon": -77.00888433333333, "fusion_lon": 0.0}, {"is_reserved": 0, "type": "electric_scooter", "fusion_lat": 0.0, "is_disabled": 0, "rental_uris": {"ios": "https://dc.lft.to/lastmile_qr_scan", "android": "https://dc.lft.to/lastmile_qr_scan"}, "bike_id": "2002f4b9f362f8633c4cdfa87902d607", "lat": 38.90221483333333, "name": "2002f4b9f362f8633c4cdfa87902d607", "lon": -77.01380433333334, "fusion_lon": 0.0}, {"is_reserved": 0, "type": "electric_scooter", "fusion_lat": 0.0, "is_disabled": 0, "rental_uris": {"ios": "https://dc.lft.to/lastmile_qr_scan", "android": "https://dc.lft.to/lastmile_qr_scan"}, "bike_id": "9f872c98a7e529a2e514fe0c9c559a80", "lat": 38.900041333333334, "name": "9f872c98a7e529a2e514fe0c9c559a80", "lon": -77.021667, "fusion_lon": 0.0},