{"data": {"bikes": [{"lat": 38.899941, "fusion_lat": 0.0, "type": "electric_scooter", "name": "09eb696b8982c8a422bdcc9e70c7fb62", "is_disabled": 0, "bike_id": "09eb696b8982c8a422bdcc9e70c7fb62", "lon": -77.043801, "rental_uris": {"android": "https://dc.lft.to/lastmile_qr_scan", "ios": "https://dc.lft.to/lastmile_qr_scan"}, "fusion_lon": 0.0, "is_reserved": 0}, {"lat": 38.91671766666666, "fusion_lat": 0.0, "type": "electric_scooter", "name": "223c0157f0dce7e1b67c1c4089ccc81a", "is_disabled": 0, "bike_id": "223c0157f0dce7e1b67c1c4089ccc81a", "lon": -77.02379166666667, "rental_uris": {"android": "https://dc.lft.to/lastmile_qr_scan", "ios": "https://dc.lft.to/lastmile_qr_scan"}, "fusion_lon": 0.0, "is_reserved": 0}, {"lat": 38.857587, "fusion_lat": 0.0, "type": "electric_scooter", "name": "1df2b93f9b2335ade06979854abb6d68", "is_disabled": 0, "bike_id": "1df2b93f9b2335ade06979854abb6d68", "lon": -76.99300133333334, "rental_uris": {"android": "https://dc.lft.to/lastmile_qr_scan", "ios": "https://dc.lft.to/lastmile_qr_scan"}, "fusion_lon": 0.0, "is_reserved": 0}, {"lat": 38.92763333333333, "fusion_lat": 0.0, "type": "electric_scooter", "name": "7dbc4f6967f68d3fb97025a213a7ab6c", "is_disabled": 0, "bike_id": "7dbc4f6967f68d3fb97025a213a7ab6c", "lon": -77.028957, "rental_uris": {"android": "https://dc.lft.to/lastmile_qr_scan", "ios": "https://dc.lft.to/lastmile_qr_scan"}, "fusion_lon": 0.0, "is_reserved": 0}, {"lat": 38.956165, "fusion_lat": 0.0, "type": "electric_scooter", "name": "10b126b48928656efa7d0a55e861ba54", "is_disabled": 0, "bike_id": "10b126b48928656efa7d0a55e861ba54", "lon": -77.02844, "rental_uris": {"android": "https://dc.lft.to/lastmile_qr_scan", "ios": "https://dc.lft.to/lastmile_qr_scan"}, "fusion_lon": 0.0, "is_reserved": 0}, {"lat": 38.9271775, "fusion_lat": 0.0, "type": "electric_scooter", "name": "10af490dae2af9c9c302026c0768cbdf", "is_disabled": 0, "bike_id": "10af490dae2af9c9c302026c0768cbdf", "lon": -77.05367633333333, "rental_uris": {"android": "https://dc.lft.to/lastmile_qr_scan", "ios": "https://dc.lft.to/lastmile_qr_scan"}, "fusion_lon": 0.0, "is_reserved": 0}, {"lat": 38.84434866666667, "fusion_lat": 0.0, "type": "electric_scooter", "name": "ad59eb75e1bb104307c85aadfea4feed", "is_disabled": 0, "bike_id": "ad59eb75e1bb104307c85aadfea4feed", "lon": -76.997783, "rental_uris": {"android": "https://dc.lft.to/lastmile_qr_scan", "ios": "https://dc.lft.to/lastmile_qr_scan"}, "fusion_lon": 0.0, "is_reserved": 0}, {"lat": 39.084444833333336, "fusion_lat": 0.0, "type": "electric_bike", "name": "08fcf647c380746895e0e2657b5d2ba7", "is_disabled": 0, "bike_id": "08fcf647c380746895e0e2657b5d2ba7", "lon": -76.95186366666667, "rental_uris": {"android": "https://dc.lft.to/lastmile_qr_scan", "ios": "https://dc.lft.to/lastmile_qr_scan"}, "fusion_lon": 0.0, "is_reserved": 0}, {"lat": 38.92509366666667, "fusion_lat": 0.0, "type": "electric_scooter", "name": "a2a827ad65420aecb83e9ec69affa4b4", "is_disabled": 0, "bike_id": "a2a827ad65420aecb83e9ec69affa4b4", "lon": -77.02310266666667, "rental_uris": {"android": "https://dc.lft.to/lastmile_qr_scan", "ios": "https://dc.lft.to/lastmile_qr_scan"}, "fusion_lon": 0.0, "is_reserved": 0}, {"lat": 38.892321, "fusion_lat": 0.0, "type": "electric_scooter", "name": "56504345fac017379a1834275da91dcf", "is_disabled": 0, "bike_id": "56504345fac017379a1834275da91dcf", "lon": -77.0499995, "rental_uris": {"android": "https://dc.lft.to/lastmile_qr_scan", "ios": "https://dc.lft.to/lastmile_qr_scan"}, "fusion_lon": 0.0, "is_reserved": 0}, {"lat": 38.922151166666666, "fusion_lat": 0.0, "type": "electric_scooter", "name": "a504c4eb78a15b2f79c72a3cbcf4dba5", "is_disabled": 0, "bike_id": "a504c4eb78a15b2f79c72a3cbcf4dba5", "lon": -77.04250266666666, "rental_uris": {"android": "https://dc.lft.to/lastmile_qr_scan", "ios": "https://dc.lft.to/lastmile_qr_scan"}, "fusion_lon": 0.0, "is_reserved": 0}, {"lat": 38.943604666666666, "fusion_lat": 0.0, "type": "electric_scooter", "name": "9d9643207976cc04983d7f8a629e1547", "is_disabled": 0, "bike_id": "9d9643207976cc04983d7f8a629e1547", "lon": -77.063391, "rental_uris": {"android": "https://dc.lft.to/lastmile_qr_scan", "ios": "https://dc.lft.to/lastmile_qr_scan"}, "fusion_lon": 0.0, "is_reserved": 0}, {"lat": 38.926464833333334, "fusion_lat": 0.0, "type": "electric_scooter", "name": "0abe1f661b2b6ac6b3d01fe66c437309", "is_disabled": 0, "bike_id": "0abe1f661b2b6ac6b3d01fe66c437309", "lon": -77.043181, "rental_uris": {"android": "https://dc.lft.to/lastmile_qr_scan", "ios": "https://dc.lft.to/lastmile_qr_scan"}, "fusion_lon": 0.0, "is_reserved": 0}, {"lat": 38.91711883333333, "fusion_lat": 0.0, "type": "electric_scooter", "name": "52e7e6e02cf831cd6f9d3a4975ecc900", "is_disabled": 0, "bike_id": "52e7e6e02cf831cd6f9d3a4975ecc900", "lon": -77.0260355, "rental_uris": {"android": "https://dc.lft.to/lastmile_qr_scan", "ios": "https://dc.lft.to/lastmile_qr_scan"}, "fusion_lon": 0.0, "is_reserved": 0}, {"lat": 38.901747666666665, "fusion_lat": 0.0, "type": "electric_scooter", "name": "6e51ce499c6b5cfef7cd2e4d02348c8c", "is_disabled": 0, "bike_id": "6e51ce499c6b5cfef7cd2e4d02348c8c", "lon": -77.0248955, "rental_uris": {"android": "https://dc.lft.to/lastmile_qr_scan", "ios": "https://dc.lft.to/lastmile_qr_scan"}, "fusion_lon": 0.0, "is_reserved": 0}, {"lat": 38.918170333333336, "fusion_lat": 0.0, "type": "electric_scooter", "name": "6a28afc13e1cc97b69c5e906536c0a44", "is_disabled": 0, "bike_id": "6a28afc13e1cc97b69c5e906536c0a44", "lon": -77.04177483333333, "rental_uris": {"android": "https://dc.lft.to/lastmile_qr_scan", "ios": "https://dc.lft.to/lastmile_qr_scan"}, "fusion_lon": 0.0, "is_reserved": 0}, {"lat": 38.89448333333333, "fusion_lat": 0.0, "type": "electric_scooter", "name": "d673e034014ce7a659077343ec38a8fc", "is_disabled": 0, "bike_id": "d673e034014ce7a659077343ec38a8fc", "lon": -77.045003, "rental_uris": {"android": "https://dc.lft.to/lastmile_qr_scan", "ios": "https://dc.lft.to/lastmile_qr_scan"}, "fusion_lon": 0.0, "is_reserved": 0}, {"lat": 38.86508966666667, "fusion_lat": 0.0, "type": "electric_scooter", "name": "6ea5e93ca2dc9f6520fa6f08b9a58609", "is_disabled": 0, "bike_id": "6ea5e93ca2dc9f6520fa6f08b9a58609", "lon": -76.9900615, "rental_uris": {"android": "https://dc.lft.to/lastmile_qr_scan", "ios": "https://dc.lft.to/lastmile_qr_scan"}, "fusion_lon": 0.0, "is_reserved": 0}, {"lat": 38.915291, "fusion_lat": 0.0, "type": "electric_scooter", "name": "9cc5d1a5d8594fcc1d773092db2cd453", "is_disabled": 0, "bike_id": "9cc5d1a5d8594fcc1d773092db2cd453", "lon": -77.0551145, "rental_uris": {"android": "https://dc.lft.to/lastmile_qr_scan", "ios": "https://dc.lft.to/lastmile_qr_scan"}, "fusion_lon": 0.0, "is_reserved": 0}, {"lat": 38.89889733333333, "fusion_lat": 0.0, "type": "electric_scooter", "name": "d20c14ecc04a0d00840e358844f6a57d", "is_disabled": 0, "bike_id": "d20c14ecc04a0d00840e358844f6a57d", "lon": -77.01952683333333, "rental_uris": {"android": "https://dc.lft.to/lastmile_qr_scan", "ios": "https://dc.lft.to/lastmile_qr_scan"}, "fusion_lon": 0.0, "is_reserved": 0}, {"lat": 38.881180666666666, "fusion_lat": 0.0, "type": "electric_scooter", "name": "7f743da547c7d21776db327dde4b5311", "is_disabled": 0, "bike_id": "7f743da547c7d21776db327dde4b5311", "lon": -77.01408766666667, "rental_uris": {"android": "https://dc.lft.to/lastmile_qr_scan", "ios": "https://dc.lft.to/lastmile_qr_scan"}, "fusion_lon": 0.0, "is_reserved": 0}, {"lat": 38.9001985, "fusion_lat": 0.0, "type": "electric_scooter", "name": "d48d2522cd2ecaff36df247f2172d6e0", "is_disabled": 0, "bike_id": "d48d2522cd2ecaff36df247f2172d6e0", "lon": -77.00212066666667, "rental_uris": {"android": "https://dc.lft.to/lastmile_qr_scan", "ios": "https://dc.lft.to/lastmile_qr_scan"}, "fusion_lon": 0.0, "is_reserved": 0}, {"lat": 38.923400666666666, "fusion_lat": 0.0, "type": "electric_scooter", "name": "7f1df32e96b8f77b66b621e5a4b0c6a6", "is_disabled": 0, "bike_id": "7f1df32e96b8f77b66b621e5a4b0c6a6", "lon": -77.01903466666667, "rental_uris": {"android": "https://dc.lft.to/lastmile_qr_scan", "ios": "https://dc.lft.to/lastmile_qr_scan"}, "fusion_lon": 0.0, "is_reserved": 0}, {"lat": 38.9012955, "fusion_lat": 0.0, "type": "electric_scooter", "name": "5335cac633fd0fb557e7599fb2c89f45", "is_disabled": 0, "bike_id": "5335cac633fd0fb557e7599fb2c89f45", "lon": -77.02713233333333, "rental_uris": {"android": "https://dc.lft.to/lastmile_qr_scan", "ios": "https://dc.lft.to/lastmile_qr_scan"}, "fusion_lon": 0.0, "is_reserved": 0}, {"lat": 38.907279, "fusion_lat": 0.0, "type": "electric_scooter", "name": "341d68ea31c4b30279292e3bc529219d", "is_disabled": 0, "bike_id": "341d68ea31c4b30279292e3bc529219d", "lon": -77.02372166666666, "rental_uris": {"android": "https://dc.lft.to/lastmile_qr_scan", "ios": "https://dc.lft.to/lastmile_qr_scan"}, "fusion_lon": 0.0, "is_reserved": 0}, {"lat": 38.90372933333333, "fusion_lat": 0.0, "type": "electric_scooter", "name": "618fc4396934d521a99c2cc217a69e21", "is_disabled": 0, "bike_id": "618fc4396934d521a99c2cc217a69e21", "lon": -77.04534816666667, "rental_uris": {"android": "https://dc.lft.to/lastmile_qr_scan", "ios": "https://dc.lft.to/lastmile_qr_scan"}, "fusion_lon": 0.0, "is_reserved": 0}, {"lat": 38.90153433333333, "fusion_lat": 0.0, "type": "electric_scooter", "name": "54c35f2a97679248ade964e0d17e810f", "is_disabled": 0, "bike_id": "54c35f2a97679248ade964e0d17e810f", "lon": -76.98063133333333, "rental_uris": {"android": "https://dc.lft.to/lastmile_qr_scan", "ios": "https://dc.lft.to/lastmile_qr_scan"}, "fusion_lon": 0.0, "is_reserved": 0}, {"lat": 38.91273483333333, "fusion_lat": 0.0, "type": "electric_scooter", "name": "e1bd50025a813583c107ab9cb748b5ee", "is_disabled": 0, "bike_id": "e1bd50025a813583c107ab9cb748b5ee", "lon": -77.04471833333334, "rental_uris": {"android": "https://dc.lft.to/lastmile_qr_scan", "ios": "https://dc.lft.to/lastmile_qr_scan"}, "fusion_lon": 0.0, "is_reserved": 0}, {"lat": 38.941602833333334, "fusion_lat": 0.0, "type": "electric_scooter", "name": "29d86810e4781a3cd82c9c81bde49a18", "is_disabled": 0, "bike_id": "29d86810e4781a3cd82c9c81bde49a18", "lon": -77.02556333333334, "rental_uris": {"android": "https://dc.lft.to/lastmile_qr_scan", "ios": "https://dc.lft.to/lastmile_qr_scan"}, "fusion_lon": 0.0, "is_reserved": 0}, {"lat": 38.8638585, "fusion_lat": 0.0, "type": "electric_scooter", "name": "f2517a91fbefa8f5bd2359528a8acc76", "is_disabled": 0, "bike_id": "f2517a91fbefa8f5bd2359528a8acc76", "lon": -76.99039716666667, "rental_uris": {"android": "https://dc.lft.to/lastmile_qr_scan", "ios": "https://dc.lft.to/lastmile_qr_scan"}, "fusion_lon": 0.0, "is_reserved": 0}, {"lat": 38.8623895, "fusion_lat": 0.0, "type": "electric_scooter", "name": "45674c0301a12b731b90dfb5dcdf735f", "is_disabled": 0, "bike_id": "45674c0301a12b731b90dfb5dcdf735f", "lon": -76.99483833333333, "rental_uris": {"android": "https://dc.lft.to/lastmile_qr_scan", "ios": "https://dc.lft.to/lastmile_qr_scan"}, "fusion_lon": 0.0, "is_reserved": 0}, {"lat": 38.9235585, "fusion_lat": 0.0, "type": "electric_scooter", "name": "7bd5211cb4f80c56ce67314ba3b3c12b", "is_disabled": 0, "bike_id": "7bd5211cb4f80c56ce67314ba3b3c12b", "lon": -77.00048733333334, "rental_uris": {"android": "https://dc.lft.to/lastmile_qr_scan", "ios": "https://dc.lft.to/lastmile_qr_scan"}, "fusion_lon": 0.0, "is_reserved": 0}, {"lat": 38.89807733333333, "fusion_lat": 0.0, "type": "electric_scooter", "name": "c05eb6d93f04858f98e8860baff5540a", "is_disabled": 0, "bike_id": "c05eb6d93f04858f98e8860baff5540a", "lon": -76.992538, "rental_uris": {"android": "https://dc.lft.to/lastmile_qr_scan", "ios": "https://dc.lft.to/lastmile_qr_scan"}, "fusion_lon": 0.0, "is_reserved": 0}, {"lat": 38.9064535, "fusion_lat": 0.0, "type": "electric_scooter", "name": "bc2b5abfe52df32c0a1d0b410f110126", "is_disabled": 0, "bike_id": "bc2b5abfe52df32c0a1d0b410f110126", "lon": -77.0488045, "rental_uris": {"android": "https://dc.lft.to/lastmile_qr_scan", "ios": "https://dc.lft.to/lastmile_qr_scan"}, "fusion_lon": 0.0, "is_reserved": 0}, {"lat": 38.924644, "fusion_lat": 0.0, "type": "electric_scooter", "name": "7ba4b44f11792e8056ef18dee1b5e11d", "is_disabled": 0, "bike_id": "7ba4b44f11792e8056ef18dee1b5e11d", "lon": -77.02277766666667, "rental_uris": {"android": "https://dc.lft.to/lastmile_qr_scan", "ios": "https://dc.lft.to/lastmile_qr_scan"}, "fusion_lon": 0.0, "is_reserved": 0}, {"lat": 38.90244116666667, "fusion_lat": 0.0, "type": "electric_scooter", "name": "6b1774764ecf200e7d21f23278438ea2", "is_disabled": 0, "bike_id": "6b1774764ecf200e7d21f23278438ea2", "lon": -77.04704466666666, "rental_uris": {"android": "https://dc.lft.to/lastmile_qr_scan", "ios": "https://dc.lft.to/lastmile_qr_scan"}, "fusion_lon": 0.0, "is_reserved": 0}, {"lat": 38.91117033333333, "fusion_lat": 0.0, "type": "electric_scooter", "name": "14b543e017bcc0a17b31679af92a117e", "is_disabled": 0, "bike_id": "14b543e017bcc0a17b31679af92a117e", "lon": -77.02013183333334, "rental_uris": {"android": "https://dc.lft.to/lastmile_qr_scan", "ios": "https://dc.lft.to/lastmile_qr_scan"}, "fusion_lon": 0.0, "is_reserved": 0}, {"lat": 38.95636866666667, "fusion_lat": 0.0, "type": "electric_scooter", "name": "fa67c6f091c1a6266ceb0d55bfb4149c", "is_disabled": 0, "bike_id": "fa67c6f091c1a6266ceb0d55bfb4149c", "lon": -77.0330585, "rental_uris": {"android": "https://dc.lft.to/lastmile_qr_scan", "ios": "https://dc.lft.to/lastmile_qr_scan"}, "fusion_lon": 0.0, "is_reserved": 0}, {"lat": 38.89630866666667, "fusion_lat": 0.0, "type": "electric_scooter", "name": "19f8d6ad506e0833ad7c1355be93221b", "is_disabled": 0, "bike_id": "19f8d6ad506e0833ad7c1355be93221b", "lon": -77.04018166666667, "rental_uris": {"android": "https://dc.lft.to/lastmile_qr_scan", "ios": "https://dc.lft.to/lastmile_qr_scan"}, "fusion_lon": 0.0, "is_reserved": 0}, {"lat": 38.90043516666667, "fusion_lat": 0.0, "type": "electric_scooter", "name": "2affb000caa26053d79f363cf23dca77", "is_disabled": 0, "bike_id": "2affb000caa26053d79f363cf23dca77", "lon": -76.988216, "rental_uris": {"android": "https://dc.lft.to/lastmile_qr_scan", "ios": "https://dc.lft.to/lastmile_qr_scan"}, "fusion_lon": 0.0, "is_reserved": 0}, {"lat": 38.91417716666667, "fusion_lat": 0.0, "type": "electric_scooter", "name": "43dbeaf21d4d67626dc39bfd5773b726", "is_disabled": 0, "bike_id": "43dbeaf21d4d67626dc39bfd5773b726", "lon": -77.0199815, "rental_uris": {"android": "https://dc.lft.to/lastmile_qr_scan", "ios": "https://dc.lft.to/lastmile_qr_scan"}, "fusion_lon": 0.0, "is_reserved": 0}, {"lat": 38.9096825, "fusion_lat": 0.0, "type": "electric_scooter", "name": "8f43a30ab30cb828df1a867f29ab5890", "is_disabled": 0, "bike_id": "8f43a30ab30cb828df1a867f29ab5890", "lon": -77.03489516666667, "rental_uris": {"android": "https://dc.lft.to/lastmile_qr_scan", "ios": "https://dc.lft.to/lastmile_qr_scan"}, "fusion_lon": 0.0, "is_reserved": 0}, {"lat": 38.9139605, "fusion_lat": 0.0, "type": "electric_scooter", "name": "d9d3367f1d57773f65bfd34dca614ffa", "is_disabled": 0, "bike_id": "d9d3367f1d57773f65bfd34dca614ffa", "lon": -77.017978, "rental_uris": {"android": "https://dc.lft.to/lastmile_qr_scan", "ios": "https://dc.lft.to/lastmile_qr_scan"}, "fusion_lon": 0.0, "is_reserved": 0}, {"lat": 38.900117333333334, "fusion_lat": 0.0, "type": "electric_scooter", "name": "3ce3e165f5f8d434e1ade1a44032a90a", "is_disabled": 0, "bike_id": "3ce3e165f5f8d434e1ade1a44032a90a", "lon": -77.0070095, "rental_uris": {"android": "https://dc.lft.to/lastmile_qr_scan", "ios": "https://dc.lft.to/lastmile_qr_scan"}, "fusion_lon": 0.0, "is_reserved": 0}, {"lat": 38.91869916666667, "fusion_lat": 0.0, "type": "electric_scooter", "name": "c8e652b0a4a442310131aca232a65562", "is_disabled": 0, "bike_id": "c8e652b0a4a442310131aca232a65562", "lon": -77.02196416666666, "rental_uris": {"android": "https://dc.lft.to/lastmile_qr_scan", "ios": "https://dc.lft.to/lastmile_qr_scan"}, "fusion_lon": 0.0, "is_reserved": 0}, {"lat": 38.87478266666667, "fusion_lat": 0.0, "type": "electric_scooter", "name": "dfd9ca509675d435063be7695a6ea132", "is_disabled": 0, "bike_id": "dfd9ca509675d435063be7695a6ea132", "lon": -76.99991716666666, "rental_uris": {"android": "https://dc.lft.to/lastmile_qr_scan", "ios": "https://dc.lft.to/lastmile_qr_scan"}, "fusion_lon": 0.0, "is_reserved": 0}, {"lat": 38.902652833333335, "fusion_lat": 0.0, "type": "electric_scooter", "name": "4210aefe29fb54194d19847b1f56c553", "is_disabled": 0, "bike_id": "4210aefe29fb54194d19847b1f56c553", "lon": -77.038385, "rental_uris": {"android": "https://dc.lft.to/lastmile_qr_scan", "ios": "https://dc.lft.to/lastmile_qr_scan"}, "fusion_lon": 0.0, "is_reserved": 0}, {"lat": 38.920356166666664, "fusion_lat": 0.0, "type": "electric_scooter", "name": "ccd79839a781c4b09c6aac1fc5393751", "is_disabled": 0, "bike_id": "ccd79839a781c4b09c6aac1fc5393751", "lon": -77.0167155, "rental_uris": {"android": "https://dc.lft.to/lastmile_qr_scan", "ios": "https://dc.lft.to/lastmile_qr_scan"}, "fusion_lon": 0.0, "is_reserved": 0}, {"lat": 38.94380016666667, "fusion_lat": 0.0, "type": "electric_scooter", "name": "ee475b206e94548c188b5e7cdd07fd56", "is_disabled": 0, "bike_id": "ee475b206e94548c188b5e7cdd07fd56", "lon": -77.07701666666667, "rental_uris": {"android": "https://dc.lft.to/lastmile_qr_scan", "ios": "https://dc.lft.to/lastmile_qr_scan"}, "fusion_lon": 0.0, "is_reserved": 0}, {"lat": 38.922165166666666, "fusion_lat": 0.0, "type": "electric_bike", "name": "bce9f0ad7e26c01df9a0085ae54b9ab6", "is_disabled": 0, "bike_id": "bce9f0ad7e26c01df9a0085ae54b9ab6", "lon": -77.20138866666667, "rental_uris": {"android": "https://dc.lft.to/lastmile_qr_scan", "ios": "https://dc.lft.to/lastmile_qr_scan"}, "fusion_lon": 0.0, "is_reserved": 0}, {"lat": 38.91595733333333, "fusion_lat": 0.0, "type": "electric_scooter", "name": "b311bf3f934ebbcb7a77ebac18b9d0a7", "is_disabled": 0, "bike_id": "b311bf3f934ebbcb7a77ebac18b9d0a7", "lon": -77.0230005, "rental_uris": {"android": "https://dc.lft.to/lastmile_qr_scan", "ios": "https://dc.lft.to/lastmile_qr_scan"}, "fusion_lon": 0.0, "is_reserved": 0}, {"lat": 38.922626, "fusion_lat": 0.0, "type": "electric_scooter", "name": "56fdf015117095ca08af7af18746d303", "is_disabled": 0, "bike_id": "56fdf015117095ca08af7af18746d303", "lon": -77.03284233333333, "rental_uris": {"android": "https://dc.lft.to/lastmile_qr_scan", "ios": "https://dc.lft.to/lastmile_qr_scan"}, "fusion_lon": 0.0, "is_reserved": 0}, {"lat": 38.898237333333334, "fusion_lat": 0.0, "type": "electric_scooter", "name": "fecb48d6bd1240c56dbfb0fd01a63a52", "is_disabled": 0, "bike_id": "fecb48d6bd1240c56dbfb0fd01a63a52", "lon": -76.9312185, "rental_uris": {"android": "https://dc.lft.to/lastmile_qr_scan", "ios": "https://dc.lft.to/lastmile_qr_scan"}, "fusion_lon": 0.0, "is_reserved": 0}, {"lat": 38.90688316666667, "fusion_lat": 0.0, "type": "electric_bike", "name": "0933533bf48c41043ed7b0f276d8ba19", "is_disabled": 0, "bike_id": "0933533bf48c41043ed7b0f276d8ba19", "lon": -76.9525445, "rental_uris": {"android": "https://dc.lft.to/lastmile_qr_scan", "ios": "https://dc.lft.to/lastmile_qr_scan"}, "fusion_lon": 0.0, "is_reserved": 0}, {"lat": 38.91817566666667, "fusion_lat": 0.0, "type": "electric_scooter", "name": "b904be42de20b29e4a187fa16a0bb43e", "is_disabled": 0, "bike_id": "b904be42de20b29e4a187fa16a0bb43e", "lon": -77.02532283333333, "rental_uris": {"android": "https://dc.lft.to/lastmile_qr_scan", "ios": "https://dc.lft.to/lastmile_qr_scan"}, "fusion_lon": 0.0, "is_reserved": 0}, {"lat": 38.901096, "fusion_lat": 0.0, "type": "electric_scooter", "name": "7b17f5c55730e442119ae14610ae3138", "is_disabled": 0, "bike_id": "7b17f5c55730e442119ae14610ae3138", "lon": -77.04986883333333, "rental_uris": {"android": "https://dc.lft.to/lastmile_qr_scan", "ios": "https://dc.lft.to/lastmile_qr_scan"}, "fusion_lon": 0.0, "is_reserved": 0}, {"lat": 38.92209883333334, "fusion_lat": 0.0, "type": "electric_scooter", "name": "b5d83d4768f41c4e8c4c665c4a5176db", "is_disabled": 0, "bike_id": "b5d83d4768f41c4e8c4c665c4a5176db", "lon": -77.04244566666667, "rental_uris": {"android": "https://dc.lft.to/lastmile_qr_scan", "ios": "https://dc.lft.to/lastmile_qr_scan"}, "fusion_lon": 0.0, "is_reserved": 0}, {"lat": 38.91764633333333, "fusion_lat": 0.0, "type": "electric_scooter", "name": "65d2fd6a8ef9c2cdf4d8bfae21ec34a8", "is_disabled": 0, "bike_id": "65d2fd6a8ef9c2cdf4d8bfae21ec34a8", "lon": -77.02308, "rental_uris": {"android": "https://dc.lft.to/lastmile_qr_scan", "ios": "https://dc.lft.to/lastmile_qr_scan"}, "fusion_lon": 0.0, "is_reserved": 0}, {"lat": 38.90783316666667, "fusion_lat": 0.0, "type": "electric_scooter", "name": "254369dd5bb75ee64b4b20b3bd7f3232", "is_disabled": 0, "bike_id": "254369dd5bb75ee64b4b20b3bd7f3232", "lon": -77.072467, "rental_uris": {"android": "https://dc.lft.to/lastmile_qr_scan", "ios": "https://dc.lft.to/lastmile_qr_scan"}, "fusion_lon": 0.0, "is_reserved": 0}, {"lat": 38.87306616666667, "fusion_lat": 0.0, "type": "electric_scooter", "name": "0d1a8c7b0569ebf8538ec18d323e311a", "is_disabled": 0, "bike_id": "0d1a8c7b0569ebf8538ec18d323e311a", "lon": -77.001478, "rental_uris": {"android": "https://dc.lft.to/lastmile_qr_scan", "ios": "https://dc.lft.to/lastmile_qr_scan"}, "fusion_lon": 0.0, "is_reserved": 0}, {"lat": 38.92847183333333, "fusion_lat": 0.0, "type": "electric_scooter", "name": "acd0d1d46566e7b68f0c47665831eef4", "is_disabled": 0, "bike_id": "acd0d1d46566e7b68f0c47665831eef4", "lon": -77.08312766666667, "rental_uris": {"android": "https://dc.lft.to/lastmile_qr_scan", "ios": "https://dc.lft.to/lastmile_qr_scan"}, "fusion_lon": 0.0, "is_reserved": 0}, {"lat": 38.9631, "fusion_lat": 0.0, "type": "electric_bike", "name": "e3330b965e64e5a49082750dd715c96a", "is_disabled": 0, "bike_id": "e3330b965e64e5a49082750dd715c96a", "lon": -76.97370466666666, "rental_uris": {"android": "https://dc.lft.to/lastmile_qr_scan", "ios": "https://dc.lft.to/lastmile_qr_scan"}, "fusion_lon": 0.0, "is_reserved": 0}, {"lat": 38.9574485, "fusion_lat": 0.0, "type": "electric_bike", "name": "7b3ce54af06ab8e0eda021e133ade1df", "is_disabled": 0, "bike_id": "7b3ce54af06ab8e0eda021e133ade1df", "lon": -76.9725505, "rental_uris": {"android": "https://dc.lft.to/lastmile_qr_scan", "ios": "https://dc.lft.to/lastmile_qr_scan"}, "fusion_lon": 0.0, "is_reserved": 0}, {"lat": 38.90959333333333, "fusion_lat": 0.0, "type": "electric_scooter", "name": "5beb1cd0f1166fb17125a7c9336273b0", "is_disabled": 0, "bike_id": "5beb1cd0f1166fb17125a7c9336273b0", "lon": -77.01073583333333, "rental_uris": {"android": "https://dc.lft.to/lastmile_qr_scan", "ios": "https://dc.lft.to/lastmile_qr_scan"}, "fusion_lon": 0.0, "is_reserved": 0}, {"lat": 38.90657433333333, "fusion_lat": 0.0, "type": "electric_scooter", "name": "cb9ca73eaca0d122a2af18da07a99f74", "is_disabled": 0, "bike_id": "cb9ca73eaca0d122a2af18da07a99f74", "lon": -77.04167866666667, "rental_uris": {"android": "https://dc.lft.to/lastmile_qr_scan", "ios": "https://dc.lft.to/lastmile_qr_scan"}, "fusion_lon": 0.0, "is_reserved": 0}, {"lat": 38.94220633333333, "fusion_lat": 0.0, "type": "electric_scooter", "name": "e5c2ebcdec93a50cc08d7495bea5e1f8", "is_disabled": 0, "bike_id": "e5c2ebcdec93a50cc08d7495bea5e1f8", "lon": -77.01404733333334, "rental_uris": {"android": "https://dc.lft.to/lastmile_qr_scan", "ios": "https://dc.lft.to/lastmile_qr_scan"}, "fusion_lon": 0.0, "is_reserved": 0}, {"lat": 38.89432866666667, "fusion_lat": 0.0, "type": "electric_scooter", "name": "6db42d10b68570b7932e387a61773cdd", "is_disabled": 0, "bike_id": "6db42d10b68570b7932e387a61773cdd", "lon": -77.02631266666667, "rental_uris": {"android": "https://dc.lft.to/lastmile_qr_scan", "ios": "https://dc.lft.to/lastmile_qr_scan"}, "fusion_lon": 0.0, "is_reserved": 0}, {"lat": 38.92579083333333, "fusion_lat": 0.0, "type": "electric_scooter", "name": "9c375bb17aefd1c1ffb4e8c2cb7af0ba", "is_disabled": 0, "bike_id": "9c375bb17aefd1c1ffb4e8c2cb7af0ba", "lon": -77.03224516666667, "rental_uris": {"android": "https://dc.lft.to/lastmile_qr_scan", "ios": "https://dc.lft.to/lastmile_qr_scan"}, "fusion_lon": 0.0, "is_reserved": 0}, {"lat": 38.90237533333333, "fusion_lat": 0.0, "type": "electric_scooter", "name": "ebb28ed244cd70e0b886fc23d5f40d73", "is_disabled": 0, "bike_id": "ebb28ed244cd70e0b886fc23d5f40d73", "lon": -77.00199766666667, "rental_uris": {"android": "https://dc.lft.to/lastmile_qr_scan", "ios": "https://dc.lft.to/lastmile_qr_scan"}, "fusion_lon": 0.0, "is_reserved": 0}, {"lat": 38.90164683333333, "fusion_lat": 0.0, "type": "electric_scooter", "name": "76a1e968eb9d0eab30998fdf41d6cbb9", "is_disabled": 0, "bike_id": "76a1e968eb9d0eab30998fdf41d6cbb9", "lon": -76.93022833333333, "rental_uris": {"android": "https://dc.lft.to/lastmile_qr_scan", "ios": "https://dc.lft.to/lastmile_qr_scan"}, "fusion_lon": 0.0, "is_reserved": 0}, {"lat": 38.887133666666664, "fusion_lat": 0.0, "type": "electric_scooter", "name": "e2bb437b8490273933843ac85e5c65c1", "is_disabled": 0, "bike_id": "e2bb437b8490273933843ac85e5c65c1", "lon": -77.0197965, "rental_uris": {"android": "https://dc.lft.to/lastmile_qr_scan", "ios": "https://dc.lft.to/lastmile_qr_scan"}, "fusion_lon": 0.0, "is_reserved": 0}, {"lat": 38.903858, "fusion_lat": 0.0, "type": "electric_scooter", "name": "784341fe2d4fdde60c1cba33c7c99a4b", "is_disabled": 0, "bike_id": "784341fe2d4fdde60c1cba33c7c99a4b", "lon": -77.035945, "rental_uris": {"android": "https://dc.lft.to/lastmile_qr_scan", "ios": "https://dc.lft.to/lastmile_qr_scan"}, "fusion_lon": 0.0, "is_reserved": 0}, {"lat": 38.86503883333334, "fusion_lat": 0.0, "type": "electric_scooter", "name": "01058a8e89dea75a154d1bc5d14bbfea", "is_disabled": 0, "bike_id": "01058a8e89dea75a154d1bc5d14bbfea", "lon": -76.99000316666667, "rental_uris": {"android": "https://dc.lft.to/lastmile_qr_scan", "ios": "https://dc.lft.to/lastmile_qr_scan"}, "fusion_lon": 0.0, "is_reserved": 0}, {"lat": 38.9737265, "fusion_lat": 0.0, "type": "electric_scooter", "name": "3314e408be4536c2a5e6324b85ea9d90", "is_disabled": 0, "bike_id": "3314e408be4536c2a5e6324b85ea9d90", "lon": -77.01810216666667, "rental_uris": {"android": "https://dc.lft.to/lastmile_qr_scan", "ios": "https://dc.lft.to/lastmile_qr_scan"}, "fusion_lon": 0.0, "is_reserved": 0}, {"lat": 38.912343, "fusion_lat": 0.0, "type": "electric_scooter", "name": "36faad6bca66d746a1dc663c478a9086", "is_disabled": 0, "bike_id": "36faad6bca66d746a1dc663c478a9086", "lon": -76.98793316666666, "rental_uris": {"android": "https://dc.lft.to/lastmile_qr_scan", "ios": "https://dc.lft.to/lastmile_qr_scan"}, "fusion_lon": 0.0, "is_reserved": 0}, {"lat": 38.901391, "fusion_lat": 0.0, "type": "electric_scooter", "name": "59de8ce171b04eae8873d4a81c216f00", "is_disabled": 0, "bike_id": "59de8ce171b04eae8873d4a81c216f00", "lon": -77.03821416666666, "rental_uris": {"android": "https://dc.lft.to/lastmile_qr_scan", "ios": "https://dc.lft.to/lastmile_qr_scan"}, "fusion_lon": 0.0, "is_reserved": 0}, {"lat": 38.907038166666666, "fusion_lat": 0.0, "type": "electric_scooter", "name": "32d9424987978b32a147c198654d3f8e", "is_disabled": 0, "bike_id": "32d9424987978b32a147c198654d3f8e", "lon": -77.0238525, "rental_uris": {"android": "https://dc.lft.to/lastmile_qr_scan", "ios": "https://dc.lft.to/lastmile_qr_scan"}, "fusion_lon": 0.0, "is_reserved": 0}, {"lat": 38.901692833333335, "fusion_lat": 0.0, "type": "electric_scooter", "name": "b98ff8417747fe6517bacdab792895cb", "is_disabled": 0, "bike_id": "b98ff8417747fe6517bacdab792895cb", "lon": -77.041514, "rental_uris": {"android": "https://dc.lft.to/lastmile_qr_scan", "ios": "https://dc.lft.to/lastmile_qr_scan"}, "fusion_lon": 0.0, "is_reserved": 0}, {"lat": 38.9158945, "fusion_lat": 0.0, "type": "electric_scooter", "name": "eacc83fdb4a5654b21457f5e5e7bf55a", "is_disabled": 0, "bike_id": "eacc83fdb4a5654b21457f5e5e7bf55a", "lon": -77.02308633333334, "rental_uris": {"android": "https://dc.lft.to/lastmile_qr_scan", "ios": "https://dc.lft.to/lastmile_qr_scan"}, "fusion_lon": 0.0, "is_reserved": 0}, {"lat": 38.89219683333334, "fusion_lat": 0.0, "type": "electric_scooter", "name": "973db9a82929cba9cb05a6553dd7ef8d", "is_disabled": 0, "bike_id": "973db9a82929cba9cb05a6553dd7ef8d", "lon": -77.043768, "rental_uris": {"android": "https://dc.lft.to/lastmile_qr_scan", "ios": "https://dc.lft.to/lastmile_qr_scan"}, "fusion_lon": 0.0, "is_reserved": 0}, {"lat": 38.899687, "fusion_lat": 0.0, "type": "electric_scooter", "name": "2813acc1d765c34d6611daa9bf190c8c", "is_disabled": 0, "bike_id": "2813acc1d765c34d6611daa9bf190c8c", "lon": -77.03078266666667, "rental_uris": {"android": "https://dc.lft.to/lastmile_qr_scan", "ios": "https://dc.lft.to/lastmile_qr_scan"}, "fusion_lon": 0.0, "is_reserved": 0}, {"lat": 38.9027975, "fusion_lat": 0.0, "type": "electric_scooter", "name": "58eca4f14f2f19124a97db351d28c99a", "is_disabled": 0, "bike_id": "58eca4f14f2f19124a97db351d28c99a", "lon": -77.03295216666666, "rental_uris": {"android": "https://dc.lft.to/lastmile_qr_scan", "ios": "https://dc.lft.to/lastmile_qr_scan"}, "fusion_lon": 0.0, "is_reserved": 0}, {"lat": 38.938526333333336, "fusion_lat": 0.0, "type": "electric_bike", "name": "69eb19b7031ff19fc18c5a3e0ac6d774", "is_disabled": 0, "bike_id": "69eb19b7031ff19fc18c5a3e0ac6d774", "lon": -77.024671, "rental_uris": {"android": "https://dc.lft.to/lastmile_qr_scan", "ios": "https://dc.lft.to/lastmile_qr_scan"}, "fusion_lon": 0.0, "is_reserved": 0}, {"lat": 38.92481383333333, "fusion_lat": 0.0, "type": "electric_scooter", "name": "93fddba7a1daa07013cbd2516ae4ec3c", "is_disabled": 0, "bike_id": "93fddba7a1daa07013cbd2516ae4ec3c", "lon": -77.02193483333333, "rental_uris": {"android": "https://dc.lft.to/lastmile_qr_scan", "ios": "https://dc.lft.to/lastmile_qr_scan"}, "fusion_lon": 0.0, "is_reserved": 0}, {"lat": 38.8978535, "fusion_lat": 0.0, "type": "electric_scooter", "name": "ddf8b989111865dc3e6a2536f35afb2b", "is_disabled": 0, "bike_id": "ddf8b989111865dc3e6a2536f35afb2b", "lon": -76.93120433333333, "rental_uris": {"android": "https://dc.lft.to/lastmile_qr_scan", "ios": "https://dc.lft.to/lastmile_qr_scan"}, "fusion_lon": 0.0, "is_reserved": 0}, {"lat": 38.894675166666666, "fusion_lat": 0.0, "type": "electric_scooter", "name": "399feb3536be98cdd0c1d8ff84529e11", "is_disabled": 0, "bike_id": "399feb3536be98cdd0c1d8ff84529e11", "lon": -77.01753233333334, "rental_uris": {"android": "https://dc.lft.to/lastmile_qr_scan", "ios": "https://dc.lft.to/lastmile_qr_scan"}, "fusion_lon": 0.0, "is_reserved": 0}, {"lat": 38.94413633333333, "fusion_lat": 0.0, "type": "electric_scooter", "name": "89a2588dfe7600d7dabe13514f5ec45f", "is_disabled": 0, "bike_id": "89a2588dfe7600d7dabe13514f5ec45f", "lon": -77.06388733333333, "rental_uris": {"android": "https://dc.lft.to/lastmile_qr_scan", "ios": "https://dc.lft.to/lastmile_qr_scan"}, "fusion_lon": 0.0, "is_reserved": 0}, {"lat": 38.9181145, "fusion_lat": 0.0, "type": "electric_scooter", "name": "395835964d7d31c31ab207c9921d720e", "is_disabled": 0, "bike_id": "395835964d7d31c31ab207c9921d720e", "lon": -77.0318935, "rental_uris": {"android": "https://dc.lft.to/lastmile_qr_scan", "ios": "https://dc.lft.to/lastmile_qr_scan"}, "fusion_lon": 0.0, "is_reserved": 0}, {"lat": 38.99093283333333, "fusion_lat": 0.0, "type": "electric_bike", "name": "fbe50d5296e6fd2a224bf7c880d6565b", "is_disabled": 0, "bike_id": "fbe50d5296e6fd2a224bf7c880d6565b", "lon": -76.993698, "rental_uris": {"android": "https://dc.lft.to/lastmile_qr_scan", "ios": "https://dc.lft.to/lastmile_qr_scan"}, "fusion_lon": 0.0, "is_reserved": 0}, {"lat": 38.97501316666666, "fusion_lat": 0.0, "type": "electric_scooter", "name": "a7caeb94fc8751653c595e448609656b", "is_disabled": 0, "bike_id": "a7caeb94fc8751653c595e448609656b", "lon": -77.01443283333333, "rental_uris": {"android": "https://dc.lft.to/lastmile_qr_scan", "ios": "https://dc.lft.to/lastmile_qr_scan"}, "fusion_lon": 0.0, "is_reserved": 0}, {"lat": 38.89434416666667, "fusion_lat": 0.0, "type": "electric_scooter", "name": "0d2884b93ecc1d824905ff0d69253096", "is_disabled": 0, "bike_id": "0d2884b93ecc1d824905ff0d69253096", "lon": -77.00054533333333, "rental_uris": {"android": "https://dc.lft.to/lastmile_qr_scan", "ios": "https://dc.lft.to/lastmile_qr_scan"}, "fusion_lon": 0.0, "is_reserved": 0}, {"lat": 38.920606666666664, "fusion_lat": 0.0, "type": "electric_scooter", "name": "963e2bbee91d7efa0700bb3b62d944f4", "is_disabled": 0, "bike_id": "963e2bbee91d7efa0700bb3b62d944f4", "lon": -76.98196233333333, "rental_uris": {"android": "https://dc.lft.to/lastmile_qr_scan", "ios": "https://dc.lft.to/lastmile_qr_scan"}, "fusion_lon": 0.0, "is_reserved": 0}, {"lat": 38.9165605, "fusion_lat": 0.0, "type": "electric_scooter", "name": "f206aa7ccced3dc63ef041016019ae5d", "is_disabled": 0, "bike_id": "f206aa7ccced3dc63ef041016019ae5d", "lon": -77.04386233333334, "rental_uris": {"android": "https://dc.lft.to/lastmile_qr_scan", "ios": "https://dc.lft.to/lastmile_qr_scan"}, "fusion_lon": 0.0, "is_reserved": 0}, {"lat": 38.88744066666667, "fusion_lat": 0.0, "type": "electric_scooter", "name": "0f9b3dd4b79ea18f859fed4f6c40d863", "is_disabled": 0, "bike_id": "0f9b3dd4b79ea18f859fed4f6c40d863", "lon": -76.983606, "rental_uris": {"android": "https://dc.lft.to/lastmile_qr_scan", "ios": "https://dc.lft.to/lastmile_qr_scan"}, "fusion_lon": 0.0, "is_reserved": 0}, {"lat": 38.89841666666667, "fusion_lat": 0.0, "type": "electric_scooter", "name": "81b89f369aa330e25e3e83d6c7b48f8a", "is_disabled": 0, "bike_id": "81b89f369aa330e25e3e83d6c7b48f8a", "lon": -77.03331333333334, "rental_uris": {"android": "https://dc.lft.to/lastmile_qr_scan", "ios": "https://dc.lft.to/lastmile_qr_scan"}, "fusion_lon": 0.0, "is_reserved": 0}, {"lat": 38.89197133333333, "fusion_lat": 0.0, "type": "electric_scooter", "name": "020a43980f4364f64a9f9f17d47bf3f4", "is_disabled": 0, "bike_id": "020a43980f4364f64a9f9f17d47bf3f4", "lon": -77.00298383333333, "rental_uris": {"android": "https://dc.lft.to/lastmile_qr_scan", "ios": "https://dc.lft.to/lastmile_qr_scan"}, "fusion_lon": 0.0, "is_reserved": 0}, {"lat": 38.89484566666667, "fusion_lat": 0.0, "type": "electric_scooter", "name": "e77611c16a0ea7eab06a469956915b50", "is_disabled": 0, "bike_id": "e77611c16a0ea7eab06a469956915b50", "lon": -76.948835, "rental_uris": {"android": "https://dc.lft.to/lastmile_qr_scan", "ios": "https://dc.lft.to/lastmile_qr_scan"}, "fusion_lon": 0.0, "is_reserved": 0}, {"lat": 38.86676383333333, "fusion_lat": 0.0, "type": "electric_scooter", "name": "28ea9cd6c63fb5119211e57bb439d953", "is_disabled": 0, "bike_id": "28ea9cd6c63fb5119211e57bb439d953", "lon": -76.98561933333333, "rental_uris": {"android": "https://dc.lft.to/lastmile_qr_scan", "ios": "https://dc.lft.to/lastmile_qr_scan"}, "fusion_lon": 0.0, "is_reserved": 0}, {"lat": 38.903715166666665, "fusion_lat": 0.0, "type": "electric_bike", "name": "1fa8b8d9424e7ec8fd210eaeb9141da5", "is_disabled": 0, "bike_id": "1fa8b8d9424e7ec8fd210eaeb9141da5", "lon": -77.04269416666666, "rental_uris": {"android": "https://dc.lft.to/lastmile_qr_scan", "ios": "https://dc.lft.to/lastmile_qr_scan"}, "fusion_lon": 0.0, "is_reserved": 0}, {"lat": 38.896127666666665, "fusion_lat": 0.0, "type": "electric_scooter", "name": "af1abe2012729bc99162eb4ed186443b", "is_disabled": 0, "bike_id": "af1abe2012729bc99162eb4ed186443b", "lon": -77.02207983333334, "rental_uris": {"android": "https://dc.lft.to/lastmile_qr_scan", "ios": "https://dc.lft.to/lastmile_qr_scan"}, "fusion_lon": 0.0, "is_reserved": 0}, {"lat": 38.913667833333335, "fusion_lat": 0.0, "type": "electric_scooter", "name": "041103fa7b8e9481abef96a2647a1103", "is_disabled": 0, "bike_id": "041103fa7b8e9481abef96a2647a1103", "lon": -77.03211483333334, "rental_uris": {"android": "https://dc.lft.to/lastmile_qr_scan", "ios": "https://dc.lft.to/lastmile_qr_scan"}, "fusion_lon": 0.0, "is_reserved": 0}, {"lat": 38.915704166666664, "fusion_lat": 0.0, "type": "electric_scooter", "name": "2dc698c57e7281223684c46b51bbd42a", "is_disabled": 0, "bike_id": "2dc698c57e7281223684c46b51bbd42a", "lon": -77.020004, "rental_uris": {"android": "https://dc.lft.to/lastmile_qr_scan", "ios": "https://dc.lft.to/lastmile_qr_scan"}, "fusion_lon": 0.0, "is_reserved": 0}, {"lat": 38.898287833333335, "fusion_lat": 0.0, "type": "electric_scooter", "name": "d17705bb79c785e81129216329a81178", "is_disabled": 0, "bike_id": "d17705bb79c785e81129216329a81178", "lon": -77.046855, "rental_uris": {"android": "https://dc.lft.to/lastmile_qr_scan", "ios": "https://dc.lft.to/lastmile_qr_scan"}, "fusion_lon": 0.0, "is_reserved": 0}, {"lat": 38.9005885, "fusion_lat": 0.0, "type": "electric_scooter", "name": "66c3d64261e9596680cfe1ff82eb9cfa", "is_disabled": 0, "bike_id": "66c3d64261e9596680cfe1ff82eb9cfa", "lon": -77.05326216666667, "rental_uris": {"android": "https://dc.lft.to/lastmile_qr_scan", "ios": "https://dc.lft.to/lastmile_qr_scan"}, "fusion_lon": 0.0, "is_reserved": 0}, {"lat": 38.920619, "fusion_lat": 0.0, "type": "electric_bike", "name": "5d685242c9e4e9d413578348180cfdf7", "is_disabled": 0, "bike_id": "5d685242c9e4e9d413578348180cfdf7", "lon": -77.03317083333333, "rental_uris": {"android": "https://dc.lft.to/lastmile_qr_scan", "ios": "https://dc.lft.to/lastmile_qr_scan"}, "fusion_lon": 0.0, "is_reserved": 0}, {"lat": 38.911136666666664, "fusion_lat": 0.0, "type": "electric_scooter", "name": "b378b694b1663ce7b4aad50fffb5c921", "is_disabled": 0, "bike_id": "b378b694b1663ce7b4aad50fffb5c921", "lon": -77.01887383333333, "rental_uris": {"android": "https://dc.lft.to/lastmile_qr_scan", "ios": "https://dc.lft.to/lastmile_qr_scan"}, "fusion_lon": 0.0, "is_reserved": 0}, {"lat": 38.915015833333335, "fusion_lat": 0.0, "type": "electric_scooter", "name": "c56594140b38dbee49a8b9a247c0a09b", "is_disabled": 0, "bike_id": "c56594140b38dbee49a8b9a247c0a09b", "lon": -77.0461855, "rental_uris": {"android": "https://dc.lft.to/lastmile_qr_scan", "ios": "https://dc.lft.to/lastmile_qr_scan"}, "fusion_lon": 0.0, "is_reserved": 0}, {"lat": 38.9068015, "fusion_lat": 0.0, "type": "electric_scooter", "name": "d2858524d5d5a6a197467ff98e7026ae", "is_disabled": 0, "bike_id": "d2858524d5d5a6a197467ff98e7026ae", "lon": -77.02387383333334, "rental_uris": {"android": "https://dc.lft.to/lastmile_qr_scan", "ios": "https://dc.lft.to/lastmile_qr_scan"}, "fusion_lon": 0.0, "is_reserved": 0}, {"lat": 38.936361833333336, "fusion_lat": 0.0, "type": "electric_scooter", "name": "dbc9068e711f07342744ab36443f0c94", "is_disabled": 0, "bike_id": "dbc9068e711f07342744ab36443f0c94", "lon": -77.03644833333334, "rental_uris": {"android": "https://dc.lft.to/lastmile_qr_scan", "ios": "https://dc.lft.to/lastmile_qr_scan"}, "fusion_lon": 0.0, "is_reserved": 0}, {"lat": 38.901964166666666, "fusion_lat": 0.0, "type": "electric_scooter", "name": "77697396d3919d25cd1579a3dcc6ec16", "is_disabled": 0, "bike_id": "77697396d3919d25cd1579a3dcc6ec16", "lon": -77.048632, "rental_uris": {"android": "https://dc.lft.to/lastmile_qr_scan", "ios": "https://dc.lft.to/lastmile_qr_scan"}, "fusion_lon": 0.0, "is_reserved": 0}, {"lat": 38.923753, "fusion_lat": 0.0, "type": "electric_scooter", "name": "c8add57c31e700a2f1cd000ca96c4989", "is_disabled": 0, "bike_id": "c8add57c31e700a2f1cd000ca96c4989", "lon": -77.01915583333333, "rental_uris": {"android": "https://dc.lft.to/lastmile_qr_scan", "ios": "https://dc.lft.to/lastmile_qr_scan"}, "fusion_lon": 0.0, "is_reserved": 0}, {"lat": 38.90775466666667, "fusion_lat": 0.0, "type": "electric_scooter", "name": "4aad113d72e12cedba3ac5054182024f", "is_disabled": 0, "bike_id": "4aad113d72e12cedba3ac5054182024f", "lon": -77.07163066666666, "rental_uris": {"android": "https://dc.lft.to/lastmile_qr_scan", "ios": "https://dc.lft.to/lastmile_qr_scan"}, "fusion_lon": 0.0, "is_reserved": 0}, {"lat": 38.923559833333336, "fusion_lat": 0.0, "type": "electric_scooter", "name": "6f81141763939cf89d7323eed7f38506", "is_disabled": 0, "bike_id": "6f81141763939cf89d7323eed7f38506", "lon": -77.0504265, "rental_uris": {"android": "https://dc.lft.to/lastmile_qr_scan", "ios": "https://dc.lft.to/lastmile_qr_scan"}, "fusion_lon": 0.0, "is_reserved": 0}, {"lat": 38.876369, "fusion_lat": 0.0, "type": "electric_scooter", "name": "548a3b0877c10daa572ed29abbe0d5fb", "is_disabled": 0, "bike_id": "548a3b0877c10daa572ed29abbe0d5fb", "lon": -77.0037525, "rental_uris": {"android": "https://dc.lft.to/lastmile_qr_scan", "ios": "https://dc.lft.to/lastmile_qr_scan"}, "fusion_lon": 0.0, "is_reserved": 0}, {"lat": 38.950994, "fusion_lat": 0.0, "type": "electric_scooter", "name": "0fd4f95689610916d7e4e81787a17b9e", "is_disabled": 0, "bike_id": "0fd4f95689610916d7e4e81787a17b9e", "lon": -77.09717683333334, "rental_uris": {"android": "https://dc.lft.to/lastmile_qr_scan", "ios": "https://dc.lft.to/lastmile_qr_scan"}, "fusion_lon": 0.0, "is_reserved": 0}, {"lat": 38.90667583333333, "fusion_lat": 0.0, "type": "electric_scooter", "name": "1ac30d493ae9839446652786568928f6", "is_disabled": 0, "bike_id": "1ac30d493ae9839446652786568928f6", "lon": -77.0701765, "rental_uris": {"android": "https://dc.lft.to/lastmile_qr_scan", "ios": "https://dc.lft.to/lastmile_qr_scan"}, "fusion_lon": 0.0, "is_reserved": 0}, {"lat": 38.984986166666665, "fusion_lat": 0.0, "type": "electric_bike", "name": "c60eb8df219bcc1e9fd0c1d52835ded6", "is_disabled": 0, "bike_id": "c60eb8df219bcc1e9fd0c1d52835ded6", "lon": -76.98197383333333, "rental_uris": {"android": "https://dc.lft.to/lastmile_qr_scan", "ios": "https://dc.lft.to/lastmile_qr_scan"}, "fusion_lon": 0.0, "is_reserved": 0}, {"lat": 38.9077715, "fusion_lat": 0.0, "type": "electric_scooter", "name": "29bcfcc711388ba6835fe537f46a35d1", "is_disabled": 0, "bike_id": "29bcfcc711388ba6835fe537f46a35d1", "lon": -77.02715566666667, "rental_uris": {"android": "https://dc.lft.to/lastmile_qr_scan", "ios": "https://dc.lft.to/lastmile_qr_scan"}, "fusion_lon": 0.0, "is_reserved": 0}, {"lat": 38.9171655, "fusion_lat": 0.0, "type": "electric_scooter", "name": "6250fb46ff2617fd979006b4a8d5c74f", "is_disabled": 0, "bike_id": "6250fb46ff2617fd979006b4a8d5c74f", "lon": -77.0385785, "rental_uris": {"android": "https://dc.lft.to/lastmile_qr_scan", "ios": "https://dc.lft.to/lastmile_qr_scan"}, "fusion_lon": 0.0, "is_reserved": 0}, {"lat": 38.884896166666664, "fusion_lat": 0.0, "type": "electric_scooter", "name": "632ac9f9d209241bfb786281d2ebc6f3", "is_disabled": 0, "bike_id": "632ac9f9d209241bfb786281d2ebc6f3", "lon": -77.00708966666667, "rental_uris": {"android": "https://dc.lft.to/lastmile_qr_scan", "ios": "https://dc.lft.to/lastmile_qr_scan"}, "fusion_lon": 0.0, "is_reserved": 0}, {"lat": 38.91756433333333, "fusion_lat": 0.0, "type": "electric_scooter", "name": "a4b54500b3d2465347467e0264045843", "is_disabled": 0, "bike_id": "a4b54500b3d2465347467e0264045843", "lon": -77.02486366666666, "rental_uris": {"android": "https://dc.lft.to/lastmile_qr_scan", "ios": "https://dc.lft.to/lastmile_qr_scan"}, "fusion_lon": 0.0, "is_reserved": 0}, {"lat": 38.922709166666664, "fusion_lat": 0.0, "type": "electric_scooter", "name": "bee20d9e20fe8a1eed7f73cc78af31a4", "is_disabled": 0, "bike_id": "bee20d9e20fe8a1eed7f73cc78af31a4", "lon": -77.04237366666666, "rental_uris": {"android": "https://dc.lft.to/lastmile_qr_scan", "ios": "https://dc.lft.to/lastmile_qr_scan"}, "fusion_lon": 0.0, "is_reserved": 0}, {"lat": 38.86029383333333, "fusion_lat": 0.0, "type": "electric_scooter", "name": "56395beffbe3e00f1f6a33086dc6d9b6", "is_disabled": 0, "bike_id": "56395beffbe3e00f1f6a33086dc6d9b6", "lon": -76.96708883333334, "rental_uris": {"android": "https://dc.lft.to/lastmile_qr_scan", "ios": "https://dc.lft.to/lastmile_qr_scan"}, "fusion_lon": 0.0, "is_reserved": 0}, {"lat": 38.89892183333333, "fusion_lat": 0.0, "type": "electric_scooter", "name": "65a74bf42b14d543e0c4b1460b513b41", "is_disabled": 0, "bike_id": "65a74bf42b14d543e0c4b1460b513b41", "lon": -77.04670816666666, "rental_uris": {"android": "https://dc.lft.to/lastmile_qr_scan", "ios": "https://dc.lft.to/lastmile_qr_scan"}, "fusion_lon": 0.0, "is_reserved": 0}, {"lat": 38.9141025, "fusion_lat": 0.0, "type": "electric_scooter", "name": "5d0dc654febd4cb6d06a1f479dd1cb23", "is_disabled": 0, "bike_id": "5d0dc654febd4cb6d06a1f479dd1cb23", "lon": -77.02213133333333, "rental_uris": {"android": "https://dc.lft.to/lastmile_qr_scan", "ios": "https://dc.lft.to/lastmile_qr_scan"}, "fusion_lon": 0.0, "is_reserved": 0}, {"lat": 38.91713283333333, "fusion_lat": 0.0, "type": "electric_scooter", "name": "2770dbaf45337685024e1de74ad6deb0", "is_disabled": 0, "bike_id": "2770dbaf45337685024e1de74ad6deb0", "lon": -77.0284345, "rental_uris": {"android": "https://dc.lft.to/lastmile_qr_scan", "ios": "https://dc.lft.to/lastmile_qr_scan"}, "fusion_lon": 0.0, "is_reserved": 0}, {"lat": 38.901616, "fusion_lat": 0.0, "type": "electric_scooter", "name": "4dc5d9fa8f4fd78fb62fd3468f48930a", "is_disabled": 0, "bike_id": "4dc5d9fa8f4fd78fb62fd3468f48930a", "lon": -76.93072616666667, "rental_uris": {"android": "https://dc.lft.to/lastmile_qr_scan", "ios": "https://dc.lft.to/lastmile_qr_scan"}, "fusion_lon": 0.0, "is_reserved": 0}, {"lat": 38.900630666666665, "fusion_lat": 0.0, "type": "electric_scooter", "name": "77f4b988b492778efdd4397cb26a7fbc", "is_disabled": 0, "bike_id": "77f4b988b492778efdd4397cb26a7fbc", "lon": -77.01312466666667, "rental_uris": {"android": "https://dc.lft.to/lastmile_qr_scan", "ios": "https://dc.lft.to/lastmile_qr_scan"}, "fusion_lon": 0.0, "is_reserved": 0}, {"lat": 38.837631333333334, "fusion_lat": 0.0, "type": "electric_bike", "name": "1316db13d88325b400d4810caba88ff0", "is_disabled": 0, "bike_id": "1316db13d88325b400d4810caba88ff0", "lon": -77.05000083333333, "rental_uris": {"android": "https://dc.lft.to/lastmile_qr_scan", "ios": "https://dc.lft.to/lastmile_qr_scan"}, "fusion_lon": 0.0, "is_reserved": 0}, {"lat": 38.94979383333333, "fusion_lat": 0.0, "type": "electric_scooter", "name": "a8065b91b6420cb823797559a9da02fa", "is_disabled": 0, "bike_id": "a8065b91b6420cb823797559a9da02fa", "lon": -77.02695333333334, "rental_uris": {"android": "https://dc.lft.to/lastmile_qr_scan", "ios": "https://dc.lft.to/lastmile_qr_scan"}, "fusion_lon": 0.0, "is_reserved": 0}, {"lat": 38.906692666666665, "fusion_lat": 0.0, "type": "electric_scooter", "name": "817d435442d383a1f77d0f122667198c", "is_disabled": 0, "bike_id": "817d435442d383a1f77d0f122667198c", "lon": -77.05153416666667, "rental_uris": {"android": "https://dc.lft.to/lastmile_qr_scan", "ios": "https://dc.lft.to/lastmile_qr_scan"}, "fusion_lon": 0.0, "is_reserved": 0}, {"lat": 38.90512983333333, "fusion_lat": 0.0, "type": "electric_scooter", "name": "4788d76cc73fa8b31068365d4268a6c3", "is_disabled": 0, "bike_id": "4788d76cc73fa8b31068365d4268a6c3", "lon": -77.06385416666667, "rental_uris": {"android": "https://dc.lft.to/lastmile_qr_scan", "ios": "https://dc.lft.to/lastmile_qr_scan"}, "fusion_lon": 0.0, "is_reserved": 0}, {"lat": 38.902669, "fusion_lat": 0.0, "type": "electric_scooter", "name": "86720d6f2c76cb6158dce9c05d7a22db", "is_disabled": 0, "bike_id": "86720d6f2c76cb6158dce9c05d7a22db", "lon": -77.017718, "rental_uris": {"android": "https://dc.lft.to/lastmile_qr_scan", "ios": "https://dc.lft.to/lastmile_qr_scan"}, "fusion_lon": 0.0, "is_reserved": 0}, {"lat": 38.89892016666667, "fusion_lat": 0.0, "type": "electric_scooter", "name": "f282e479883977aed0a6b37e2871a37d", "is_disabled": 0, "bike_id": "f282e479883977aed0a6b37e2871a37d", "lon": -77.0467285, "rental_uris": {"android": "https://dc.lft.to/lastmile_qr_scan", "ios": "https://dc.lft.to/lastmile_qr_scan"}, "fusion_lon": 0.0, "is_reserved": 0}, {"lat": 38.94979166666667, "fusion_lat": 0.0, "type": "electric_bike", "name": "c6900584f5ff1bb56614343c97586a40", "is_disabled": 0, "bike_id": "c6900584f5ff1bb56614343c97586a40", "lon": -77.08019866666666, "rental_uris": {"android": "https://dc.lft.to/lastmile_qr_scan", "ios": "https://dc.lft.to/lastmile_qr_scan"}, "fusion_lon": 0.0, "is_reserved": 0}, {"lat": 38.9456265, "fusion_lat": 0.0, "type": "electric_scooter", "name": "1cd3b0d57307b2e052fc5972097a2258", "is_disabled": 0, "bike_id": "1cd3b0d57307b2e052fc5972097a2258", "lon": -77.0796295, "rental_uris": {"android": "https://dc.lft.to/lastmile_qr_scan", "ios": "https://dc.lft.to/lastmile_qr_scan"}, "fusion_lon": 0.0, "is_reserved": 0}, {"lat": 38.919153666666666, "fusion_lat": 0.0, "type": "electric_scooter", "name": "63b816be8d6b6737b81a569ff4804496", "is_disabled": 0, "bike_id": "63b816be8d6b6737b81a569ff4804496", "lon": -77.0121205, "rental_uris": {"android": "https://dc.lft.to/lastmile_qr_scan", "ios": "https://dc.lft.to/lastmile_qr_scan"}, "fusion_lon": 0.0, "is_reserved": 0}, {"lat": 38.897827666666664, "fusion_lat": 0.0, "type": "electric_bike", "name": "d315bbed78a2ab9a4747070da0b609f4", "is_disabled": 0, "bike_id": "d315bbed78a2ab9a4747070da0b609f4", "lon": -77.00763183333333, "rental_uris": {"android": "https://dc.lft.to/lastmile_qr_scan", "ios": "https://dc.lft.to/lastmile_qr_scan"}, "fusion_lon": 0.0, "is_reserved": 0}, {"lat": 38.906737, "fusion_lat": 0.0, "type": "electric_scooter", "name": "3ab0ba7db62cf1ca04aa2ec2be0eaebd", "is_disabled": 0, "bike_id": "3ab0ba7db62cf1ca04aa2ec2be0eaebd", "lon": -77.02692383333333, "rental_uris": {"android": "https://dc.lft.to/lastmile_qr_scan", "ios": "https://dc.lft.to/lastmile_qr_scan"}, "fusion_lon": 0.0, "is_reserved": 0}, {"lat": 38.8998645, "fusion_lat": 0.0, "type": "electric_scooter", "name": "774626f9b21ff0e84a46136b83ddffc2", "is_disabled": 0, "bike_id": "774626f9b21ff0e84a46136b83ddffc2", "lon": -76.98134416666667, "rental_uris": {"android": "https://dc.lft.to/lastmile_qr_scan", "ios": "https://dc.lft.to/lastmile_qr_scan"}, "fusion_lon": 0.0, "is_reserved": 0}, {"lat": 38.86644, "fusion_lat": 0.0, "type": "electric_scooter", "name": "a1c61eb0e2045da867131df9d69884f2", "is_disabled": 0, "bike_id": "a1c61eb0e2045da867131df9d69884f2", "lon": -76.9888825, "rental_uris": {"android": "https://dc.lft.to/lastmile_qr_scan", "ios": "https://dc.lft.to/lastmile_qr_scan"}, "fusion_lon": 0.0, "is_reserved": 0}, {"lat": 38.89861483333333, "fusion_lat": 0.0, "type": "electric_scooter", "name": "2a0ef9eb8138cb5acf8046e1cb3a08a6", "is_disabled": 0, "bike_id": "2a0ef9eb8138cb5acf8046e1cb3a08a6", "lon": -77.03265083333334, "rental_uris": {"android": "https://dc.lft.to/lastmile_qr_scan", "ios": "https://dc.lft.to/lastmile_qr_scan"}, "fusion_lon": 0.0, "is_reserved": 0}, {"lat": 38.902408333333334, "fusion_lat": 0.0, "type": "electric_scooter", "name": "11867f92afa848a8a9a2d4213a9659b7", "is_disabled": 0, "bike_id": "11867f92afa848a8a9a2d4213a9659b7", "lon": -77.03447533333333, "rental_uris": {"android": "https://dc.lft.to/lastmile_qr_scan", "ios": "https://dc.lft.to/lastmile_qr_scan"}, "fusion_lon": 0.0, "is_reserved": 0}, {"lat": 38.8904525, "fusion_lat": 0.0, "type": "electric_scooter", "name": "825456bb06b6bb84bc659f03100261af", "is_disabled": 0, "bike_id": "825456bb06b6bb84bc659f03100261af", "lon": -76.952488, "rental_uris": {"android": "https://dc.lft.to/lastmile_qr_scan", "ios": "https://dc.lft.to/lastmile_qr_scan"}, "fusion_lon": 0.0, "is_reserved": 0}, {"lat": 38.901661, "fusion_lat": 0.0, "type": "electric_scooter", "name": "a434b903bafccc9316754d91617f8795", "is_disabled": 0, "bike_id": "a434b903bafccc9316754d91617f8795", "lon": -76.92652466666667, "rental_uris": {"android": "https://dc.lft.to/lastmile_qr_scan", "ios": "https://dc.lft.to/lastmile_qr_scan"}, "fusion_lon": 0.0, "is_reserved": 0}, {"lat": 38.923072833333336, "fusion_lat": 0.0, "type": "electric_scooter", "name": "8bce1aac225c311acff555b383e26e04", "is_disabled": 0, "bike_id": "8bce1aac225c311acff555b383e26e04", "lon": -77.022536, "rental_uris": {"android": "https://dc.lft.to/lastmile_qr_scan", "ios": "https://dc.lft.to/lastmile_qr_scan"}, "fusion_lon": 0.0, "is_reserved": 0}, {"lat": 38.909811, "fusion_lat": 0.0, "type": "electric_scooter", "name": "314abd9942e5829f6c39a75edf5c47f5", "is_disabled": 0, "bike_id": "314abd9942e5829f6c39a75edf5c47f5", "lon": -77.03643716666667, "rental_uris": {"android": "https://dc.lft.to/lastmile_qr_scan", "ios": "https://dc.lft.to/lastmile_qr_scan"}, "fusion_lon": 0.0, "is_reserved": 0}, {"lat": 38.89995066666667, "fusion_lat": 0.0, "type": "electric_scooter", "name": "43a266737649220de5b3ad953f0e5719", "is_disabled": 0, "bike_id": "43a266737649220de5b3ad953f0e5719", "lon": -77.02918383333333, "rental_uris": {"android": "https://dc.lft.to/lastmile_qr_scan", "ios": "https://dc.lft.to/lastmile_qr_scan"}, "fusion_lon": 0.0, "is_reserved": 0}, {"lat": 38.9194715, "fusion_lat": 0.0, "type": "electric_scooter", "name": "75270cad6e2f07da595716510ea179e1", "is_disabled": 0, "bike_id": "75270cad6e2f07da595716510ea179e1", "lon": -77.02377383333334, "rental_uris": {"android": "https://dc.lft.to/lastmile_qr_scan", "ios": "https://dc.lft.to/lastmile_qr_scan"}, "fusion_lon": 0.0, "is_reserved": 0}, {"lat": 38.937502333333335, "fusion_lat": 0.0, "type": "electric_scooter", "name": "01ef8fc5001ef3a63dacaee53846d9ea", "is_disabled": 0, "bike_id": "01ef8fc5001ef3a63dacaee53846d9ea", "lon": -77.02529116666666, "rental_uris": {"android": "https://dc.lft.to/lastmile_qr_scan", "ios": "https://dc.lft.to/lastmile_qr_scan"}, "fusion_lon": 0.0, "is_reserved": 0}, {"lat": 38.907964666666665, "fusion_lat": 0.0, "type": "electric_scooter", "name": "584f16bb3656960d6b15c753c9fd1897", "is_disabled": 0, "bike_id": "584f16bb3656960d6b15c753c9fd1897", "lon": -77.027144, "rental_uris": {"android": "https://dc.lft.to/lastmile_qr_scan", "ios": "https://dc.lft.to/lastmile_qr_scan"}, "fusion_lon": 0.0, "is_reserved": 0}, {"lat": 38.899129, "fusion_lat": 0.0, "type": "electric_scooter", "name": "96df80d7fd18d5286469c8d2de0201f7", "is_disabled": 0, "bike_id": "96df80d7fd18d5286469c8d2de0201f7", "lon": -77.02795, "rental_uris": {"android": "https://dc.lft.to/lastmile_qr_scan", "ios": "https://dc.lft.to/lastmile_qr_scan"}, "fusion_lon": 0.0, "is_reserved": 0}, {"lat": 38.920244333333336, "fusion_lat": 0.0, "type": "electric_scooter", "name": "5fd41899c4ca41cf79c31d735dd61ed8", "is_disabled": 0, "bike_id": "5fd41899c4ca41cf79c31d735dd61ed8", "lon": -77.0102495, "rental_uris": {"android": "https://dc.lft.to/lastmile_qr_scan", "ios": "https://dc.lft.to/lastmile_qr_scan"}, "fusion_lon": 0.0, "is_reserved": 0}, {"lat": 38.93188416666667, "fusion_lat": 0.0, "type": "electric_scooter", "name": "52094066a1a5242529fe66cdb2e59d5d", "is_disabled": 0, "bike_id": "52094066a1a5242529fe66cdb2e59d5d", "lon": -77.02828466666666, "rental_uris": {"android": "https://dc.lft.to/lastmile_qr_scan", "ios": "https://dc.lft.to/lastmile_qr_scan"}, "fusion_lon": 0.0, "is_reserved": 0}, {"lat": 38.904075, "fusion_lat": 0.0, "type": "electric_scooter", "name": "56530b5008f2e7dabf1c64ff5073f58d", "is_disabled": 0, "bike_id": "56530b5008f2e7dabf1c64ff5073f58d", "lon": -77.02646666666666, "rental_uris": {"android": "https://dc.lft.to/lastmile_qr_scan", "ios": "https://dc.lft.to/lastmile_qr_scan"}, "fusion_lon": 0.0, "is_reserved": 0}, {"lat": 38.89880483333334, "fusion_lat": 0.0, "type": "electric_scooter", "name": "bbae6e29b67fea628cba17d95e98055a", "is_disabled": 0, "bike_id": "bbae6e29b67fea628cba17d95e98055a", "lon": -77.02819633333333, "rental_uris": {"android": "https://dc.lft.to/lastmile_qr_scan", "ios": "https://dc.lft.to/lastmile_qr_scan"}, "fusion_lon": 0.0, "is_reserved": 0}, {"lat": 38.9111385, "fusion_lat": 0.0, "type": "electric_scooter", "name": "b654606bebadd18027a174a92ca56b35", "is_disabled": 0, "bike_id": "b654606bebadd18027a174a92ca56b35", "lon": -77.01365166666666, "rental_uris": {"android": "https://dc.lft.to/lastmile_qr_scan", "ios": "https://dc.lft.to/lastmile_qr_scan"}, "fusion_lon": 0.0, "is_reserved": 0}, {"lat": 38.9198715, "fusion_lat": 0.0, "type": "electric_scooter", "name": "c2963ede59dea5eb62fac5ddb9d19827", "is_disabled": 0, "bike_id": "c2963ede59dea5eb62fac5ddb9d19827", "lon": -77.02392583333334, "rental_uris": {"android": "https://dc.lft.to/lastmile_qr_scan", "ios": "https://dc.lft.to/lastmile_qr_scan"}, "fusion_lon": 0.0, "is_reserved": 0}, {"lat": 38.90632333333333, "fusion_lat": 0.0, "type": "electric_scooter", "name": "7a01dedbebb954078ce980604b6f6663", "is_disabled": 0, "bike_id": "7a01dedbebb954078ce980604b6f6663", "lon": -77.00590833333334, "rental_uris": {"android": "https://dc.lft.to/lastmile_qr_scan", "ios": "https://dc.lft.to/lastmile_qr_scan"}, "fusion_lon": 0.0, "is_reserved": 0}, {"lat": 38.9286865, "fusion_lat": 0.0, "type": "electric_scooter", "name": "0804d225857656c18c692f776cd0b73d", "is_disabled": 0, "bike_id": "0804d225857656c18c692f776cd0b73d", "lon": -77.023296, "rental_uris": {"android": "https://dc.lft.to/lastmile_qr_scan", "ios": "https://dc.lft.to/lastmile_qr_scan"}, "fusion_lon": 0.0, "is_reserved": 0}, {"lat": 38.94731733333333, "fusion_lat": 0.0, "type": "electric_scooter", "name": "c35160897b19f20f1cac9fcef3b91251", "is_disabled": 0, "bike_id": "c35160897b19f20f1cac9fcef3b91251", "lon": -77.06525433333333, "rental_uris": {"android": "https://dc.lft.to/lastmile_qr_scan", "ios": "https://dc.lft.to/lastmile_qr_scan"}, "fusion_lon": 0.0, "is_reserved": 0}, {"lat": 38.884636, "fusion_lat": 0.0, "type": "electric_scooter", "name": "9b703b7a3d5fbd68cb273035a3647473", "is_disabled": 0, "bike_id": "9b703b7a3d5fbd68cb273035a3647473", "lon": -76.949813, "rental_uris": {"android": "https://dc.lft.to/lastmile_qr_scan", "ios": "https://dc.lft.to/lastmile_qr_scan"}, "fusion_lon": 0.0, "is_reserved": 0}, {"lat": 38.93227816666667, "fusion_lat": 0.0, "type": "electric_scooter", "name": "4214e6b50d3971e6c074649ffc7a9c9e", "is_disabled": 0, "bike_id": "4214e6b50d3971e6c074649ffc7a9c9e", "lon": -76.99803966666667, "rental_uris": {"android": "https://dc.lft.to/lastmile_qr_scan", "ios": "https://dc.lft.to/lastmile_qr_scan"}, "fusion_lon": 0.0, "is_reserved": 0}, {"lat": 38.91360933333333, "fusion_lat": 0.0, "type": "electric_scooter", "name": "499f589b2f230f6247c2e4275fae7c37", "is_disabled": 0, "bike_id": "499f589b2f230f6247c2e4275fae7c37", "lon": -77.0722765, "rental_uris": {"android": "https://dc.lft.to/lastmile_qr_scan", "ios": "https://dc.lft.to/lastmile_qr_scan"}, "fusion_lon": 0.0, "is_reserved": 0}, {"lat": 38.917342833333336, "fusion_lat": 0.0, "type": "electric_scooter", "name": "f1c3bfce96fa3af20ebf4c651f6c4440", "is_disabled": 0, "bike_id": "f1c3bfce96fa3af20ebf4c651f6c4440", "lon": -77.028223, "rental_uris": {"android": "https://dc.lft.to/lastmile_qr_scan", "ios": "https://dc.lft.to/lastmile_qr_scan"}, "fusion_lon": 0.0, "is_reserved": 0}, {"lat": 38.930061, "fusion_lat": 0.0, "type": "electric_scooter", "name": "d2cd4708a8bb02225149f01eb3ef52a1", "is_disabled": 0, "bike_id": "d2cd4708a8bb02225149f01eb3ef52a1", "lon": -77.02336666666666, "rental_uris": {"android": "https://dc.lft.to/lastmile_qr_scan", "ios": "https://dc.lft.to/lastmile_qr_scan"}, "fusion_lon": 0.0, "is_reserved": 0}, {"lat": 38.91270883333333, "fusion_lat": 0.0, "type": "electric_scooter", "name": "13343b5eb5b0f45b8919c0ca70ede169", "is_disabled": 0, "bike_id": "13343b5eb5b0f45b8919c0ca70ede169", "lon": -77.0455665, "rental_uris": {"android": "https://dc.lft.to/lastmile_qr_scan", "ios": "https://dc.lft.to/lastmile_qr_scan"}, "fusion_lon": 0.0, "is_reserved": 0}, {"lat": 38.919896666666666, "fusion_lat": 0.0, "type": "electric_scooter", "name": "624f48cf8a5adc9173093f2f9c5fd304", "is_disabled": 0, "bike_id": "624f48cf8a5adc9173093f2f9c5fd304", "lon": -77.0379865, "rental_uris": {"android": "https://dc.lft.to/lastmile_qr_scan", "ios": "https://dc.lft.to/lastmile_qr_scan"}, "fusion_lon": 0.0, "is_reserved": 0}, {"lat": 38.8953635, "fusion_lat": 0.0, "type": "electric_scooter", "name": "2ee0733c14f957f3d3abea052d68e3b6", "is_disabled": 0, "bike_id": "2ee0733c14f957f3d3abea052d68e3b6", "lon": -77.0110705, "rental_uris": {"android": "https://dc.lft.to/lastmile_qr_scan", "ios": "https://dc.lft.to/lastmile_qr_scan"}, "fusion_lon": 0.0, "is_reserved": 0}, {"lat": 38.90570366666667, "fusion_lat": 0.0, "type": "electric_scooter", "name": "a8a57826a559494f0ce1e360ba4a806e", "is_disabled": 0, "bike_id": "a8a57826a559494f0ce1e360ba4a806e", "lon": -77.00900116666666, "rental_uris": {"android": "https://dc.lft.to/lastmile_qr_scan", "ios": "https://dc.lft.to/lastmile_qr_scan"}, "fusion_lon": 0.0, "is_reserved": 0}, {"lat": 38.911150166666665, "fusion_lat": 0.0, "type": "electric_scooter", "name": "3788227704cb17203b561208091ad265", "is_disabled": 0, "bike_id": "3788227704cb17203b561208091ad265", "lon": -77.02185983333334, "rental_uris": {"android": "https://dc.lft.to/lastmile_qr_scan", "ios": "https://dc.lft.to/lastmile_qr_scan"}, "fusion_lon": 0.0, "is_reserved": 0}, {"lat": 38.909647166666666, "fusion_lat": 0.0, "type": "electric_scooter", "name": "27ac7e8e22152634aa1222617b9d996d", "is_disabled": 0, "bike_id": "27ac7e8e22152634aa1222617b9d996d", "lon": -77.02176316666667, "rental_uris": {"android": "https://dc.lft.to/lastmile_qr_scan", "ios": "https://dc.lft.to/lastmile_qr_scan"}, "fusion_lon": 0.0, "is_reserved": 0}, {"lat": 38.898875833333335, "fusion_lat": 0.0, "type": "electric_scooter", "name": "d95d27f35a3af83dae65a0cff51b1899", "is_disabled": 0, "bike_id": "d95d27f35a3af83dae65a0cff51b1899", "lon": -77.032831, "rental_uris": {"android": "https://dc.lft.to/lastmile_qr_scan", "ios": "https://dc.lft.to/lastmile_qr_scan"}, "fusion_lon": 0.0, "is_reserved": 0}, {"lat": 38.84294416666667, "fusion_lat": 0.0, "type": "electric_scooter", "name": "765aeaa36ef6cbdfa2cc1932d58dbb34", "is_disabled": 0, "bike_id": "765aeaa36ef6cbdfa2cc1932d58dbb34", "lon": -76.99947183333333, "rental_uris": {"android": "https://dc.lft.to/lastmile_qr_scan", "ios": "https://dc.lft.to/lastmile_qr_scan"}, "fusion_lon": 0.0, "is_reserved": 0}, {"lat": 38.905204833333336, "fusion_lat": 0.0, "type": "electric_scooter", "name": "b592cc07efde02d09212075df0e4eadd", "is_disabled": 0, "bike_id": "b592cc07efde02d09212075df0e4eadd", "lon": -77.06423583333333, "rental_uris": {"android": "https://dc.lft.to/lastmile_qr_scan", "ios": "https://dc.lft.to/lastmile_qr_scan"}, "fusion_lon": 0.0, "is_reserved": 0}, {"lat": 38.915693166666664, "fusion_lat": 0.0, "type": "electric_scooter", "name": "99c9b25a2bdf8146d110c54212a68b6a", "is_disabled": 0, "bike_id": "99c9b25a2bdf8146d110c54212a68b6a", "lon": -77.01998666666667, "rental_uris": {"android": "https://dc.lft.to/lastmile_qr_scan", "ios": "https://dc.lft.to/lastmile_qr_scan"}, "fusion_lon": 0.0, "is_reserved": 0}, {"lat": 38.90974466666667, "fusion_lat": 0.0, "type": "electric_scooter", "name": "ffb35cf7b46a76edd96069105df258b7", "is_disabled": 0, "bike_id": "ffb35cf7b46a76edd96069105df258b7", "lon": -77.03188666666667, "rental_uris": {"android": "https://dc.lft.to/lastmile_qr_scan", "ios": "https://dc.lft.to/lastmile_qr_scan"}, "fusion_lon": 0.0, "is_reserved": 0}, {"lat": 38.907947166666666, "fusion_lat": 0.0, "type": "electric_scooter", "name": "92a8d3b40da9df729f43e6171defc476", "is_disabled": 0, "bike_id": "92a8d3b40da9df729f43e6171defc476", "lon": -77.0449, "rental_uris": {"android": "https://dc.lft.to/lastmile_qr_scan", "ios": "https://dc.lft.to/lastmile_qr_scan"}, "fusion_lon": 0.0, "is_reserved": 0}, {"lat": 38.89698166666667, "fusion_lat": 0.0, "type": "electric_scooter", "name": "9689e07b5785d2031d5f09e88d3e8e4a", "is_disabled": 0, "bike_id": "9689e07b5785d2031d5f09e88d3e8e4a", "lon": -77.04654733333334, "rental_uris": {"android": "https://dc.lft.to/lastmile_qr_scan", "ios": "https://dc.lft.to/lastmile_qr_scan"}, "fusion_lon": 0.0, "is_reserved": 0}, {"lat": 38.896135, "fusion_lat": 0.0, "type": "electric_scooter", "name": "da8413e77b3f644fa483290960eaa118", "is_disabled": 0, "bike_id": "da8413e77b3f644fa483290960eaa118", "lon": -77.0445545, "rental_uris": {"android": "https://dc.lft.to/lastmile_qr_scan", "ios": "https://dc.lft.to/lastmile_qr_scan"}, "fusion_lon": 0.0, "is_reserved": 0}, {"lat": 38.9217235, "fusion_lat": 0.0, "type": "electric_scooter", "name": "c456fd06700082864cd1874c41d4f269", "is_disabled": 0, "bike_id": "c456fd06700082864cd1874c41d4f269", "lon": -77.04227266666666, "rental_uris": {"android": "https://dc.lft.to/lastmile_qr_scan", "ios": "https://dc.lft.to/lastmile_qr_scan"}, "fusion_lon": 0.0, "is_reserved": 0}, {"lat": 38.9306545, "fusion_lat": 0.0, "type": "electric_scooter", "name": "8aa550abf18a729a6a8ecc2e22d6bf03", "is_disabled": 0, "bike_id": "8aa550abf18a729a6a8ecc2e22d6bf03", "lon": -77.02798, "rental_uris": {"android": "https://dc.lft.to/lastmile_qr_scan", "ios": "https://dc.lft.to/lastmile_qr_scan"}, "fusion_lon": 0.0, "is_reserved": 0}, {"lat": 38.90571966666667, "fusion_lat": 0.0, "type": "electric_scooter", "name": "23c3a815273daa7b31da91754fd93883", "is_disabled": 0, "bike_id": "23c3a815273daa7b31da91754fd93883", "lon": -77.04359666666667, "rental_uris": {"android": "https://dc.lft.to/lastmile_qr_scan", "ios": "https://dc.lft.to/lastmile_qr_scan"}, "fusion_lon": 0.0, "is_reserved": 0}, {"lat": 38.876504833333335, "fusion_lat": 0.0, "type": "electric_scooter", "name": "6390ec35e310b40b16506bdc75aaaf7a", "is_disabled": 0, "bike_id": "6390ec35e310b40b16506bdc75aaaf7a", "lon": -77.00568516666667, "rental_uris": {"android": "https://dc.lft.to/lastmile_qr_scan", "ios": "https://dc.lft.to/lastmile_qr_scan"}, "fusion_lon": 0.0, "is_reserved": 0}, {"lat": 38.84290283333333, "fusion_lat": 0.0, "type": "electric_scooter", "name": "3a82dccbfaffecf108713258ed0086af", "is_disabled": 0, "bike_id": "3a82dccbfaffecf108713258ed0086af", "lon": -76.9994585, "rental_uris": {"android": "https://dc.lft.to/lastmile_qr_scan", "ios": "https://dc.lft.to/lastmile_qr_scan"}, "fusion_lon": 0.0, "is_reserved": 0}, {"lat": 38.91376016666667, "fusion_lat": 0.0, "type": "electric_scooter", "name": "9bf30e79be869ceda3e8246c5b37fb35", "is_disabled": 0, "bike_id": "9bf30e79be869ceda3e8246c5b37fb35", "lon": -76.98195483333333, "rental_uris": {"android": "https://dc.lft.to/lastmile_qr_scan", "ios": "https://dc.lft.to/lastmile_qr_scan"}, "fusion_lon": 0.0, "is_reserved": 0}, {"lat": 38.90240583333333, "fusion_lat": 0.0, "type": "electric_scooter", "name": "ed6f1ae95f1b970154c9a60b0d611424", "is_disabled": 0, "bike_id": "ed6f1ae95f1b970154c9a60b0d611424", "lon": -76.97447916666667, "rental_uris": {"android": "https://dc.lft.to/lastmile_qr_scan", "ios": "https://dc.lft.to/lastmile_qr_scan"}, "fusion_lon": 0.0, "is_reserved": 0}, {"lat": 38.86681516666667, "fusion_lat": 0.0, "type": "electric_scooter", "name": "900ed75237fd4a3711abae6240d687ca", "is_disabled": 0, "bike_id": "900ed75237fd4a3711abae6240d687ca", "lon": -76.98566166666667, "rental_uris": {"android": "https://dc.lft.to/lastmile_qr_scan", "ios": "https://dc.lft.to/lastmile_qr_scan"}, "fusion_lon": 0.0, "is_reserved": 0}, {"lat": 38.90621866666667, "fusion_lat": 0.0, "type": "electric_scooter", "name": "3c166e7a5a98566fa0cb03d3778efca7", "is_disabled": 0, "bike_id": "3c166e7a5a98566fa0cb03d3778efca7", "lon": -77.0006515, "rental_uris": {"android": "https://dc.lft.to/lastmile_qr_scan", "ios": "https://dc.lft.to/lastmile_qr_scan"}, "fusion_lon": 0.0, "is_reserved": 0}, {"lat": 38.902395166666665, "fusion_lat": 0.0, "type": "electric_scooter", "name": "ef6f09c27faa318456b6642ad7683613", "is_disabled": 0, "bike_id": "ef6f09c27faa318456b6642ad7683613", "lon": -77.01710866666667, "rental_uris": {"android": "https://dc.lft.to/lastmile_qr_scan", "ios": "https://dc.lft.to/lastmile_qr_scan"}, "fusion_lon": 0.0, "is_reserved": 0}, {"lat": 38.924349666666664, "fusion_lat": 0.0, "type": "electric_scooter", "name": "08b6fa74c15e0362677895e563d88f54", "is_disabled": 0, "bike_id": "08b6fa74c15e0362677895e563d88f54", "lon": -77.03401883333333, "rental_uris": {"android": "https://dc.lft.to/lastmile_qr_scan", "ios": "https://dc.lft.to/lastmile_qr_scan"}, "fusion_lon": 0.0, "is_reserved": 0}, {"lat": 38.8973, "fusion_lat": 0.0, "type": "electric_scooter", "name": "07dc0d5cb7526ba31578ce9d03fb73f1", "is_disabled": 0, "bike_id": "07dc0d5cb7526ba31578ce9d03fb73f1", "lon": -77.047859, "rental_uris": {"android": "https://dc.lft.to/lastmile_qr_scan", "ios": "https://dc.lft.to/lastmile_qr_scan"}, "fusion_lon": 0.0, "is_reserved": 0}, {"lat": 38.80444883333333, "fusion_lat": 0.0, "type": "electric_bike", "name": "b6b03c866850dd2d4dea8d3e2fe7b625", "is_disabled": 0, "bike_id": "b6b03c866850dd2d4dea8d3e2fe7b625", "lon": -77.053913, "rental_uris": {"android": "https://dc.lft.to/lastmile_qr_scan", "ios": "https://dc.lft.to/lastmile_qr_scan"}, "fusion_lon": 0.0, "is_reserved": 0}, {"lat": 38.9073035, "fusion_lat": 0.0, "type": "electric_scooter", "name": "40d6347839e4a74101bd7a682802d172", "is_disabled": 0, "bike_id": "40d6347839e4a74101bd7a682802d172", "lon": -77.01093666666667, "rental_uris": {"android": "https://dc.lft.to/lastmile_qr_scan", "ios": "https://dc.lft.to/lastmile_qr_scan"}, "fusion_lon": 0.0, "is_reserved": 0}, {"lat": 38.92672183333333, "fusion_lat": 0.0, "type": "electric_scooter", "name": "e7046e371e2889b60fac316c5b2899c3", "is_disabled": 0, "bike_id": "e7046e371e2889b60fac316c5b2899c3", "lon": -77.01491383333334, "rental_uris": {"android": "https://dc.lft.to/lastmile_qr_scan", "ios": "https://dc.lft.to/lastmile_qr_scan"}, "fusion_lon": 0.0, "is_reserved": 0}, {"lat": 38.89846166666667, "fusion_lat": 0.0, "type": "electric_scooter", "name": "47d034d26d8df901ee07e6108eaa2717", "is_disabled": 0, "bike_id": "47d034d26d8df901ee07e6108eaa2717", "lon": -77.0415755, "rental_uris": {"android": "https://dc.lft.to/lastmile_qr_scan", "ios": "https://dc.lft.to/lastmile_qr_scan"}, "fusion_lon": 0.0, "is_reserved": 0}, {"lat": 38.900041333333334, "fusion_lat": 0.0, "type": "electric_scooter", "name": "d6c31abb42db25e2b98bafb20430fe30", "is_disabled": 0, "bike_id": "d6c31abb42db25e2b98bafb20430fe30", "lon": -76.98091516666666, "rental_uris": {"android": "https://dc.lft.to/lastmile_qr_scan", "ios": "https://dc.lft.to/lastmile_qr_scan"}, "fusion_lon": 0.0, "is_reserved": 0}, {"lat": 38.91570766666667, "fusion_lat": 0.0, "type": "electric_scooter", "name": "068c66607dcebd66be15ed2ff8336e93", "is_disabled": 0, "bike_id": "068c66607dcebd66be15ed2ff8336e93", "lon": -77.04511133333334, "rental_uris": {"android": "https://dc.lft.to/lastmile_qr_scan", "ios": "https://dc.lft.to/lastmile_qr_scan"}, "fusion_lon": 0.0, "is_reserved": 0}, {"lat": 38.891627166666666, "fusion_lat": 0.0, "type": "electric_scooter", "name": "ff37c8ea784fb6e526ef78b341d258bf", "is_disabled": 0, "bike_id": "ff37c8ea784fb6e526ef78b341d258bf", "lon": -77.0154115, "rental_uris": {"android": "https://dc.lft.to/lastmile_qr_scan", "ios": "https://dc.lft.to/lastmile_qr_scan"}, "fusion_lon": 0.0, "is_reserved": 0}, {"lat": 38.892308, "fusion_lat": 0.0, "type": "electric_scooter", "name": "33a411f2580cded21130ae260861bfad", "is_disabled": 0, "bike_id": "33a411f2580cded21130ae260861bfad", "lon": -77.05001866666667, "rental_uris": {"android": "https://dc.lft.to/lastmile_qr_scan", "ios": "https://dc.lft.to/lastmile_qr_scan"}, "fusion_lon": 0.0, "is_reserved": 0}, {"lat": 38.926618166666664, "fusion_lat": 0.0, "type": "electric_scooter", "name": "addacd7688eebc5a0af346c68ac609e1", "is_disabled": 0, "bike_id": "addacd7688eebc5a0af346c68ac609e1", "lon": -76.99538, "rental_uris": {"android": "https://dc.lft.to/lastmile_qr_scan", "ios": "https://dc.lft.to/lastmile_qr_scan"}, "fusion_lon": 0.0, "is_reserved": 0}, {"lat": 38.918086333333335, "fusion_lat": 0.0, "type": "electric_scooter", "name": "a6f7e818675ef1332c288109e62f6705", "is_disabled": 0, "bike_id": "a6f7e818675ef1332c288109e62f6705", "lon": -77.02512133333333, "rental_uris": {"android": "https://dc.lft.to/lastmile_qr_scan", "ios": "https://dc.lft.to/lastmile_qr_scan"}, "fusion_lon": 0.0, "is_reserved": 0}, {"lat": 38.87710916666666, "fusion_lat": 0.0, "type": "electric_scooter", "name": "b146a430cc1f8945e6ce855aa4e09fb5", "is_disabled": 0, "bike_id": "b146a430cc1f8945e6ce855aa4e09fb5", "lon": -77.01757516666666, "rental_uris": {"android": "https://dc.lft.to/lastmile_qr_scan", "ios": "https://dc.lft.to/lastmile_qr_scan"}, "fusion_lon": 0.0, "is_reserved": 0}, {"lat": 38.92874533333333, "fusion_lat": 0.0, "type": "electric_scooter", "name": "9d4282f0a9528f95003976d9d9750fbd", "is_disabled": 0, "bike_id": "9d4282f0a9528f95003976d9d9750fbd", "lon": -77.03322283333334, "rental_uris": {"android": "https://dc.lft.to/lastmile_qr_scan", "ios": "https://dc.lft.to/lastmile_qr_scan"}, "fusion_lon": 0.0, "is_reserved": 0}, {"lat": 38.924667666666664, "fusion_lat": 0.0, "type": "electric_scooter", "name": "7a21ab2084a2843c676c3ceb6ce45d3a", "is_disabled": 0, "bike_id": "7a21ab2084a2843c676c3ceb6ce45d3a", "lon": -77.02203083333333, "rental_uris": {"android": "https://dc.lft.to/lastmile_qr_scan", "ios": "https://dc.lft.to/lastmile_qr_scan"}, "fusion_lon": 0.0, "is_reserved": 0}, {"lat": 38.890885, "fusion_lat": 0.0, "type": "electric_scooter", "name": "7ea6a09ca45b2b53be550618f91e4285", "is_disabled": 0, "bike_id": "7ea6a09ca45b2b53be550618f91e4285", "lon": -76.99602933333334, "rental_uris": {"android": "https://dc.lft.to/lastmile_qr_scan", "ios": "https://dc.lft.to/lastmile_qr_scan"}, "fusion_lon": 0.0, "is_reserved": 0}, {"lat": 38.895148, "fusion_lat": 0.0, "type": "electric_scooter", "name": "584c1ed70ffd52980b02ef6476f22232", "is_disabled": 0, "bike_id": "584c1ed70ffd52980b02ef6476f22232", "lon": -77.0447795, "rental_uris": {"android": "https://dc.lft.to/lastmile_qr_scan", "ios": "https://dc.lft.to/lastmile_qr_scan"}, "fusion_lon": 0.0, "is_reserved": 0}, {"lat": 38.919904833333334, "fusion_lat": 0.0, "type": "electric_scooter", "name": "bfe1cd0a808714294330da577285755c", "is_disabled": 0, "bike_id": "bfe1cd0a808714294330da577285755c", "lon": -77.02398016666666, "rental_uris": {"android": "https://dc.lft.to/lastmile_qr_scan", "ios": "https://dc.lft.to/lastmile_qr_scan"}, "fusion_lon": 0.0, "is_reserved": 0}, {"lat": 38.94813283333333, "fusion_lat": 0.0, "type": "electric_scooter", "name": "3a6d4be2f5e59c0fa2b5132500601caf", "is_disabled": 0, "bike_id": "3a6d4be2f5e59c0fa2b5132500601caf", "lon": -77.0328215, "rental_uris": {"android": "https://dc.lft.to/lastmile_qr_scan", "ios": "https://dc.lft.to/lastmile_qr_scan"}, "fusion_lon": 0.0, "is_reserved": 0}, {"lat": 38.892242333333336, "fusion_lat": 0.0, "type": "electric_scooter", "name": "885051901d1ba7f65b8808cefa12aaa1", "is_disabled": 0, "bike_id": "885051901d1ba7f65b8808cefa12aaa1", "lon": -77.046958, "rental_uris": {"android": "https://dc.lft.to/lastmile_qr_scan", "ios": "https://dc.lft.to/lastmile_qr_scan"}, "fusion_lon": 0.0, "is_reserved": 0}, {"lat": 38.886138833333334, "fusion_lat": 0.0, "type": "electric_scooter", "name": "86c5f0eca60795de03f2e4664b34db74", "is_disabled": 0, "bike_id": "86c5f0eca60795de03f2e4664b34db74", "lon": -76.955856, "rental_uris": {"android": "https://dc.lft.to/lastmile_qr_scan", "ios": "https://dc.lft.to/lastmile_qr_scan"}, "fusion_lon": 0.0, "is_reserved": 0}, {"lat": 38.884242, "fusion_lat": 0.0, "type": "electric_scooter", "name": "2cf38e43757ad8aa615d0ee9632374dc", "is_disabled": 0, "bike_id": "2cf38e43757ad8aa615d0ee9632374dc", "lon": -76.95755233333334, "rental_uris": {"android": "https://dc.lft.to/lastmile_qr_scan", "ios": "https://dc.lft.to/lastmile_qr_scan"}, "fusion_lon": 0.0, "is_reserved": 0}, {"lat": 38.928517166666666, "fusion_lat": 0.0, "type": "electric_scooter", "name": "c264651cdd857cd617af2e93ee5b81b5", "is_disabled": 0, "bike_id": "c264651cdd857cd617af2e93ee5b81b5", "lon": -77.03317833333334, "rental_uris": {"android": "https://dc.lft.to/lastmile_qr_scan", "ios": "https://dc.lft.to/lastmile_qr_scan"}, "fusion_lon": 0.0, "is_reserved": 0}, {"lat": 38.857731333333334, "fusion_lat": 0.0, "type": "electric_scooter", "name": "04bf5e5e1d8adea311f67fa40961a865", "is_disabled": 0, "bike_id": "04bf5e5e1d8adea311f67fa40961a865", "lon": -76.98869966666666, "rental_uris": {"android": "https://dc.lft.to/lastmile_qr_scan", "ios": "https://dc.lft.to/lastmile_qr_scan"}, "fusion_lon": 0.0, "is_reserved": 0}, {"lat": 38.904264, "fusion_lat": 0.0, "type": "electric_scooter", "name": "5d90b052b2fb03bbd208d69d1938c025", "is_disabled": 0, "bike_id": "5d90b052b2fb03bbd208d69d1938c025", "lon": -77.0435, "rental_uris": {"android": "https://dc.lft.to/lastmile_qr_scan", "ios": "https://dc.lft.to/lastmile_qr_scan"}, "fusion_lon": 0.0, "is_reserved": 0}, {"lat": 38.90138783333333, "fusion_lat": 0.0, "type": "electric_scooter", "name": "0afc0dd28f502a5208e0556823810936", "is_disabled": 0, "bike_id": "0afc0dd28f502a5208e0556823810936", "lon": -76.99800533333334, "rental_uris": {"android": "https://dc.lft.to/lastmile_qr_scan", "ios": "https://dc.lft.to/lastmile_qr_scan"}, "fusion_lon": 0.0, "is_reserved": 0}, {"lat": 38.927610666666666, "fusion_lat": 0.0, "type": "electric_scooter", "name": "e8d87f9a4c35a383f5560b6ca6399999", "is_disabled": 0, "bike_id": "e8d87f9a4c35a383f5560b6ca6399999", "lon": -77.0119715, "rental_uris": {"android": "https://dc.lft.to/lastmile_qr_scan", "ios": "https://dc.lft.to/lastmile_qr_scan"}, "fusion_lon": 0.0, "is_reserved": 0}, {"lat": 38.90553883333333, "fusion_lat": 0.0, "type": "electric_scooter", "name": "13d65e7101faf7d65ed5b7535c1c19dd", "is_disabled": 0, "bike_id": "13d65e7101faf7d65ed5b7535c1c19dd", "lon": -77.04960816666667, "rental_uris": {"android": "https://dc.lft.to/lastmile_qr_scan", "ios": "https://dc.lft.to/lastmile_qr_scan"}, "fusion_lon": 0.0, "is_reserved": 0}, {"lat": 38.88297683333333, "fusion_lat": 0.0, "type": "electric_scooter", "name": "cd2cac2c4e9f8c0454aa3ab8193e9d0c", "is_disabled": 0, "bike_id": "cd2cac2c4e9f8c0454aa3ab8193e9d0c", "lon": -77.02477616666667, "rental_uris": {"android": "https://dc.lft.to/lastmile_qr_scan", "ios": "https://dc.lft.to/lastmile_qr_scan"}, "fusion_lon": 0.0, "is_reserved": 0}, {"lat": 38.905579, "fusion_lat": 0.0, "type": "electric_scooter", "name": "0cefd6e990b23bec8e96dbcea2a499b1", "is_disabled": 0, "bike_id": "0cefd6e990b23bec8e96dbcea2a499b1", "lon": -77.0057545, "rental_uris": {"android": "https://dc.lft.to/lastmile_qr_scan", "ios": "https://dc.lft.to/lastmile_qr_scan"}, "fusion_lon": 0.0, "is_reserved": 0}, {"lat": 38.892520833333336, "fusion_lat": 0.0, "type": "electric_scooter", "name": "3877934eff4b9ea086a70e57aa0d3bb3", "is_disabled": 0, "bike_id": "3877934eff4b9ea086a70e57aa0d3bb3", "lon": -77.03346266666667, "rental_uris": {"android": "https://dc.lft.to/lastmile_qr_scan", "ios": "https://dc.lft.to/lastmile_qr_scan"}, "fusion_lon": 0.0, "is_reserved": 0}, {"lat": 38.955043333333336, "fusion_lat": 0.0, "type": "electric_scooter", "name": "1ba8ecc8b7175bec24c881ebca6ff107", "is_disabled": 0, "bike_id": "1ba8ecc8b7175bec24c881ebca6ff107", "lon": -77.02677633333333, "rental_uris": {"android": "https://dc.lft.to/lastmile_qr_scan", "ios": "https://dc.lft.to/lastmile_qr_scan"}, "fusion_lon": 0.0, "is_reserved": 0}, {"lat": 38.92767033333333, "fusion_lat": 0.0, "type": "electric_scooter", "name": "48b770a0a2876a291b54c91116f0415e", "is_disabled": 0, "bike_id": "48b770a0a2876a291b54c91116f0415e", "lon": -77.0274605, "rental_uris": {"android": "https://dc.lft.to/lastmile_qr_scan", "ios": "https://dc.lft.to/lastmile_qr_scan"}, "fusion_lon": 0.0, "is_reserved": 0}, {"lat": 38.912821, "fusion_lat": 0.0, "type": "electric_scooter", "name": "a0346f25523e660c3efcf98c7fbcbafc", "is_disabled": 0, "bike_id": "a0346f25523e660c3efcf98c7fbcbafc", "lon": -77.03208266666667, "rental_uris": {"android": "https://dc.lft.to/lastmile_qr_scan", "ios": "https://dc.lft.to/lastmile_qr_scan"}, "fusion_lon": 0.0, "is_reserved": 0}, {"lat": 38.89664766666667, "fusion_lat": 0.0, "type": "electric_scooter", "name": "a0c9020753c9ac28055f7ac9990a83b0", "is_disabled": 0, "bike_id": "a0c9020753c9ac28055f7ac9990a83b0", "lon": -77.05135233333333, "rental_uris": {"android": "https://dc.lft.to/lastmile_qr_scan", "ios": "https://dc.lft.to/lastmile_qr_scan"}, "fusion_lon": 0.0, "is_reserved": 0}, {"lat": 38.931903, "fusion_lat": 0.0, "type": "electric_bike", "name": "3744a1946d220da9f010256b1bc870e7", "is_disabled": 0, "bike_id": "3744a1946d220da9f010256b1bc870e7", "lon": -77.22924783333333, "rental_uris": {"android": "https://dc.lft.to/lastmile_qr_scan", "ios": "https://dc.lft.to/lastmile_qr_scan"}, "fusion_lon": 0.0, "is_reserved": 0}, {"lat": 38.91861316666667, "fusion_lat": 0.0, "type": "electric_scooter", "name": "ce17b130f5933d57a11441f0f2aa6d2c", "is_disabled": 0, "bike_id": "ce17b130f5933d57a11441f0f2aa6d2c", "lon": -77.0355365, "rental_uris": {"android": "https://dc.lft.to/lastmile_qr_scan", "ios": "https://dc.lft.to/lastmile_qr_scan"}, "fusion_lon": 0.0, "is_reserved": 0}, {"lat": 38.86929166666667, "fusion_lat": 0.0, "type": "electric_scooter", "name": "c498b0403b05dac5f6d33f7e470ea7c0", "is_disabled": 0, "bike_id": "c498b0403b05dac5f6d33f7e470ea7c0", "lon": -76.96014516666666, "rental_uris": {"android": "https://dc.lft.to/lastmile_qr_scan", "ios": "https://dc.lft.to/lastmile_qr_scan"}, "fusion_lon": 0.0, "is_reserved": 0}, {"lat": 38.94050216666667, "fusion_lat": 0.0, "type": "electric_bike", "name": "88b0d7164c72e5d47f61a84ebb5e2a5e", "is_disabled": 0, "bike_id": "88b0d7164c72e5d47f61a84ebb5e2a5e", "lon": -76.9041905, "rental_uris": {"android": "https://dc.lft.to/lastmile_qr_scan", "ios": "https://dc.lft.to/lastmile_qr_scan"}, "fusion_lon": 0.0, "is_reserved": 0}, {"lat": 38.903865, "fusion_lat": 0.0, "type": "electric_scooter", "name": "71781b8c01dabaf15e67b37b2fc48a45", "is_disabled": 0, "bike_id": "71781b8c01dabaf15e67b37b2fc48a45", "lon": -77.04350333333333, "rental_uris": {"android": "https://dc.lft.to/lastmile_qr_scan", "ios": "https://dc.lft.to/lastmile_qr_scan"}, "fusion_lon": 0.0, "is_reserved": 0}, {"lat": 38.886099333333334, "fusion_lat": 0.0, "type": "electric_scooter", "name": "a96a882eb3efe842522fb06d691f7ce2", "is_disabled": 0, "bike_id": "a96a882eb3efe842522fb06d691f7ce2", "lon": -76.95586533333334, "rental_uris": {"android": "https://dc.lft.to/lastmile_qr_scan", "ios": "https://dc.lft.to/lastmile_qr_scan"}, "fusion_lon": 0.0, "is_reserved": 0}, {"lat": 38.89473016666667, "fusion_lat": 0.0, "type": "electric_scooter", "name": "f4d7c97bde3154c150a3bb62422a6118", "is_disabled": 0, "bike_id": "f4d7c97bde3154c150a3bb62422a6118", "lon": -77.04532416666666, "rental_uris": {"android": "https://dc.lft.to/lastmile_qr_scan", "ios": "https://dc.lft.to/lastmile_qr_scan"}, "fusion_lon": 0.0, "is_reserved": 0}, {"lat": 38.9172085, "fusion_lat": 0.0, "type": "electric_scooter", "name": "acb01a9dbd3d887fe8d720dccce72ca0", "is_disabled": 0, "bike_id": "acb01a9dbd3d887fe8d720dccce72ca0", "lon": -77.02712583333333, "rental_uris": {"android": "https://dc.lft.to/lastmile_qr_scan", "ios": "https://dc.lft.to/lastmile_qr_scan"}, "fusion_lon": 0.0, "is_reserved": 0}, {"lat": 38.89220733333333, "fusion_lat": 0.0, "type": "electric_scooter", "name": "feda7d26efb157e079d45933c3da7e05", "is_disabled": 0, "bike_id": "feda7d26efb157e079d45933c3da7e05", "lon": -77.0241355, "rental_uris": {"android": "https://dc.lft.to/lastmile_qr_scan", "ios": "https://dc.lft.to/lastmile_qr_scan"}, "fusion_lon": 0.0, "is_reserved": 0}, {"lat": 38.91805816666667, "fusion_lat": 0.0, "type": "electric_scooter", "name": "2e6b6bbc0550c4b9fb5ab55e5c8e6148", "is_disabled": 0, "bike_id": "2e6b6bbc0550c4b9fb5ab55e5c8e6148", "lon": -77.02511516666667, "rental_uris": {"android": "https://dc.lft.to/lastmile_qr_scan", "ios": "https://dc.lft.to/lastmile_qr_scan"}, "fusion_lon": 0.0, "is_reserved": 0}, {"lat": 38.90299616666667, "fusion_lat": 0.0, "type": "electric_scooter", "name": "88eb4d492aa325b318e60d670dcd4908", "is_disabled": 0, "bike_id": "88eb4d492aa325b318e60d670dcd4908", "lon": -77.03831566666666, "rental_uris": {"android": "https://dc.lft.to/lastmile_qr_scan", "ios": "https://dc.lft.to/lastmile_qr_scan"}, "fusion_lon": 0.0, "is_reserved": 0}, {"lat": 38.906097333333335, "fusion_lat": 0.0, "type": "electric_scooter", "name": "7006f88d395b014b1ddb8959d8255cb9", "is_disabled": 0, "bike_id": "7006f88d395b014b1ddb8959d8255cb9", "lon": -77.0433545, "rental_uris": {"android": "https://dc.lft.to/lastmile_qr_scan", "ios": "https://dc.lft.to/lastmile_qr_scan"}, "fusion_lon": 0.0, "is_reserved": 0}, {"lat": 38.921420166666664, "fusion_lat": 0.0, "type": "electric_scooter", "name": "b6020209924aa171a3924ab9f57a569e", "is_disabled": 0, "bike_id": "b6020209924aa171a3924ab9f57a569e", "lon": -77.04595883333333, "rental_uris": {"android": "https://dc.lft.to/lastmile_qr_scan", "ios": "https://dc.lft.to/lastmile_qr_scan"}, "fusion_lon": 0.0, "is_reserved": 0}, {"lat": 38.926967166666664, "fusion_lat": 0.0, "type": "electric_scooter", "name": "7f13cf4fdff642701f79ec8beda2dfbf", "is_disabled": 0, "bike_id": "7f13cf4fdff642701f79ec8beda2dfbf", "lon": -77.0228185, "rental_uris": {"android": "https://dc.lft.to/lastmile_qr_scan", "ios": "https://dc.lft.to/lastmile_qr_scan"}, "fusion_lon": 0.0, "is_reserved": 0}, {"lat": 38.9095505, "fusion_lat": 0.0, "type": "electric_scooter", "name": "6d197fe8d97e29e4aae547ef495c14c6", "is_disabled": 0, "bike_id": "6d197fe8d97e29e4aae547ef495c14c6", "lon": -77.03680466666667, "rental_uris": {"android": "https://dc.lft.to/lastmile_qr_scan", "ios": "https://dc.lft.to/lastmile_qr_scan"}, "fusion_lon": 0.0, "is_reserved": 0}, {"lat": 38.897452, "fusion_lat": 0.0, "type": "electric_scooter", "name": "9a078c260dcd7dad4d4fd27cc2c6ac6b", "is_disabled": 0, "bike_id": "9a078c260dcd7dad4d4fd27cc2c6ac6b", "lon": -77.02500933333333, "rental_uris": {"android": "https://dc.lft.to/lastmile_qr_scan", "ios": "https://dc.lft.to/lastmile_qr_scan"}, "fusion_lon": 0.0, "is_reserved": 0}, {"lat": 38.9262865, "fusion_lat": 0.0, "type": "electric_scooter", "name": "2e63911211ac21c38c14ebcda1f6de03", "is_disabled": 0, "bike_id": "2e63911211ac21c38c14ebcda1f6de03", "lon": -77.0218045, "rental_uris": {"android": "https://dc.lft.to/lastmile_qr_scan", "ios": "https://dc.lft.to/lastmile_qr_scan"}, "fusion_lon": 0.0, "is_reserved": 0}, {"lat": 38.87454566666667, "fusion_lat": 0.0, "type": "electric_scooter", "name": "ab35b0e0717481c3c07520039020832c", "is_disabled": 0, "bike_id": "ab35b0e0717481c3c07520039020832c", "lon": -77.01780983333333, "rental_uris": {"android": "https://dc.lft.to/lastmile_qr_scan", "ios": "https://dc.lft.to/lastmile_qr_scan"}, "fusion_lon": 0.0, "is_reserved": 0}, {"lat": 38.92274166666667, "fusion_lat": 0.0, "type": "electric_scooter", "name": "89826f757fb68174637abb04539674b0", "is_disabled": 0, "bike_id": "89826f757fb68174637abb04539674b0", "lon": -77.03214916666667, "rental_uris": {"android": "https://dc.lft.to/lastmile_qr_scan", "ios": "https://dc.lft.to/lastmile_qr_scan"}, "fusion_lon": 0.0, "is_reserved": 0}, {"lat": 38.902674833333336, "fusion_lat": 0.0, "type": "electric_scooter", "name": "92792ea076345c015b16ef3b0c8c8563", "is_disabled": 0, "bike_id": "92792ea076345c015b16ef3b0c8c8563", "lon": -77.0346195, "rental_uris": {"android": "https://dc.lft.to/lastmile_qr_scan", "ios": "https://dc.lft.to/lastmile_qr_scan"}, "fusion_lon": 0.0, "is_reserved": 0}, {"lat": 38.83160066666667, "fusion_lat": 0.0, "type": "electric_scooter", "name": "8921a59fafb26c389742622653e19716", "is_disabled": 0, "bike_id": "8921a59fafb26c389742622653e19716", "lon": -77.0081145, "rental_uris": {"android": "https://dc.lft.to/lastmile_qr_scan", "ios": "https://dc.lft.to/lastmile_qr_scan"}, "fusion_lon": 0.0, "is_reserved": 0}, {"lat": 38.90299566666667, "fusion_lat": 0.0, "type": "electric_scooter", "name": "46653244c691623d2a09ba8c6d552844", "is_disabled": 0, "bike_id": "46653244c691623d2a09ba8c6d552844", "lon": -77.0382595, "rental_uris": {"android": "https://dc.lft.to/lastmile_qr_scan", "ios": "https://dc.lft.to/lastmile_qr_scan"}, "fusion_lon": 0.0, "is_reserved": 0}, {"lat": 38.89768766666667, "fusion_lat": 0.0, "type": "electric_scooter", "name": "a7d329becc0a5e01229674387dc1bf60", "is_disabled": 0, "bike_id": "a7d329becc0a5e01229674387dc1bf60", "lon": -77.0122135, "rental_uris": {"android": "https://dc.lft.to/lastmile_qr_scan", "ios": "https://dc.lft.to/lastmile_qr_scan"}, "fusion_lon": 0.0, "is_reserved": 0}, {"lat": 38.895166, "fusion_lat": 0.0, "type": "electric_scooter", "name": "805fc8385cc19c4d8ce360ef40ccaa75", "is_disabled": 0, "bike_id": "805fc8385cc19c4d8ce360ef40ccaa75", "lon": -77.002158, "rental_uris": {"android": "https://dc.lft.to/lastmile_qr_scan", "ios": "https://dc.lft.to/lastmile_qr_scan"}, "fusion_lon": 0.0, "is_reserved": 0}, {"lat": 38.902195666666664, "fusion_lat": 0.0, "type": "electric_scooter", "name": "5226f4fcc8cf8c4e2795118708cc9c10", "is_disabled": 0, "bike_id": "5226f4fcc8cf8c4e2795118708cc9c10", "lon": -77.01683583333333, "rental_uris": {"android": "https://dc.lft.to/lastmile_qr_scan", "ios": "https://dc.lft.to/lastmile_qr_scan"}, "fusion_lon": 0.0, "is_reserved": 0}, {"lat": 38.91699933333334, "fusion_lat": 0.0, "type": "electric_scooter", "name": "06da64bc1d3f2aa9e96b0c8a6dca1436", "is_disabled": 0, "bike_id": "06da64bc1d3f2aa9e96b0c8a6dca1436", "lon": -77.03470016666667, "rental_uris": {"android": "https://dc.lft.to/lastmile_qr_scan", "ios": "https://dc.lft.to/lastmile_qr_scan"}, "fusion_lon": 0.0, "is_reserved": 0}, {"lat": 38.902560666666666, "fusion_lat": 0.0, "type": "electric_scooter", "name": "1b62f66f139e7c761a0ad3eb4e6b2bbf", "is_disabled": 0, "bike_id": "1b62f66f139e7c761a0ad3eb4e6b2bbf", "lon": -77.0417575, "rental_uris": {"android": "https://dc.lft.to/lastmile_qr_scan", "ios": "https://dc.lft.to/lastmile_qr_scan"}, "fusion_lon": 0.0, "is_reserved": 0}, {"lat": 38.887690166666665, "fusion_lat": 0.0, "type": "electric_scooter", "name": "57410fdceb80aebe77e1ce055feac0b3", "is_disabled": 0, "bike_id": "57410fdceb80aebe77e1ce055feac0b3", "lon": -77.02629916666666, "rental_uris": {"android": "https://dc.lft.to/lastmile_qr_scan", "ios": "https://dc.lft.to/lastmile_qr_scan"}, "fusion_lon": 0.0, "is_reserved": 0}, {"lat": 38.9251655, "fusion_lat": 0.0, "type": "electric_scooter", "name": "4fc2555b5391ab690a1d302e545fc1c8", "is_disabled": 0, "bike_id": "4fc2555b5391ab690a1d302e545fc1c8", "lon": -77.051312, "rental_uris": {"android": "https://dc.lft.to/lastmile_qr_scan", "ios": "https://dc.lft.to/lastmile_qr_scan"}, "fusion_lon": 0.0, "is_reserved": 0}, {"lat": 38.90083216666667, "fusion_lat": 0.0, "type": "electric_scooter", "name": "2ddc42043315e260f026834d7a38adb1", "is_disabled": 0, "bike_id": "2ddc42043315e260f026834d7a38adb1", "lon": -77.050715, "rental_uris": {"android": "https://dc.lft.to/lastmile_qr_scan", "ios": "https://dc.lft.to/lastmile_qr_scan"}, "fusion_lon": 0.0, "is_reserved": 0}, {"lat": 38.941612666666664, "fusion_lat": 0.0, "type": "electric_scooter", "name": "7b9e15e874187e75abe26d2b12370812", "is_disabled": 0, "bike_id": "7b9e15e874187e75abe26d2b12370812", "lon": -77.02555833333334, "rental_uris": {"android": "https://dc.lft.to/lastmile_qr_scan", "ios": "https://dc.lft.to/lastmile_qr_scan"}, "fusion_lon": 0.0, "is_reserved": 0}, {"lat": 38.94107233333333, "fusion_lat": 0.0, "type": "electric_scooter", "name": "3671d6c44ce79f6dfb90faa7e45ec98e", "is_disabled": 0, "bike_id": "3671d6c44ce79f6dfb90faa7e45ec98e", "lon": -77.0773585, "rental_uris": {"android": "https://dc.lft.to/lastmile_qr_scan", "ios": "https://dc.lft.to/lastmile_qr_scan"}, "fusion_lon": 0.0, "is_reserved": 0}, {"lat": 38.894608833333336, "fusion_lat": 0.0, "type": "electric_scooter", "name": "360f80db387bf021546cbe129ab84d4a", "is_disabled": 0, "bike_id": "360f80db387bf021546cbe129ab84d4a", "lon": -77.0034715, "rental_uris": {"android": "https://dc.lft.to/lastmile_qr_scan", "ios": "https://dc.lft.to/lastmile_qr_scan"}, "fusion_lon": 0.0, "is_reserved": 0}, {"lat": 38.92355933333333, "fusion_lat": 0.0, "type": "electric_scooter", "name": "be86cb00b37d1cf201b988d29e3c2798", "is_disabled": 0, "bike_id": "be86cb00b37d1cf201b988d29e3c2798", "lon": -77.0510885, "rental_uris": {"android": "https://dc.lft.to/lastmile_qr_scan", "ios": "https://dc.lft.to/lastmile_qr_scan"}, "fusion_lon": 0.0, "is_reserved": 0}, {"lat": 38.9141605, "fusion_lat": 0.0, "type": "electric_scooter", "name": "3d26ce6318db622ae99f9aa8e5be2412", "is_disabled": 0, "bike_id": "3d26ce6318db622ae99f9aa8e5be2412", "lon": -77.02278483333333, "rental_uris": {"android": "https://dc.lft.to/lastmile_qr_scan", "ios": "https://dc.lft.to/lastmile_qr_scan"}, "fusion_lon": 0.0, "is_reserved": 0}, {"lat": 38.904381, "fusion_lat": 0.0, "type": "electric_scooter", "name": "389eba8e61ade7084b7bb839cdd1944c", "is_disabled": 0, "bike_id": "389eba8e61ade7084b7bb839cdd1944c", "lon": -76.98319033333334, "rental_uris": {"android": "https://dc.lft.to/lastmile_qr_scan", "ios": "https://dc.lft.to/lastmile_qr_scan"}, "fusion_lon": 0.0, "is_reserved": 0}, {"lat": 38.938409, "fusion_lat": 0.0, "type": "electric_scooter", "name": "eebc95355df496ec494e2a446faae852", "is_disabled": 0, "bike_id": "eebc95355df496ec494e2a446faae852", "lon": -77.02480233333333, "rental_uris": {"android": "https://dc.lft.to/lastmile_qr_scan", "ios": "https://dc.lft.to/lastmile_qr_scan"}, "fusion_lon": 0.0, "is_reserved": 0}, {"lat": 38.917066, "fusion_lat": 0.0, "type": "electric_scooter", "name": "8e546e70573c34312cd2d34e4df97253", "is_disabled": 0, "bike_id": "8e546e70573c34312cd2d34e4df97253", "lon": -77.0417475, "rental_uris": {"android": "https://dc.lft.to/lastmile_qr_scan", "ios": "https://dc.lft.to/lastmile_qr_scan"}, "fusion_lon": 0.0, "is_reserved": 0}, {"lat": 38.90719216666667, "fusion_lat": 0.0, "type": "electric_scooter", "name": "ce8dec311de802a4562358505ec03218", "is_disabled": 0, "bike_id": "ce8dec311de802a4562358505ec03218", "lon": -77.00775583333333, "rental_uris": {"android": "https://dc.lft.to/lastmile_qr_scan", "ios": "https://dc.lft.to/lastmile_qr_scan"}, "fusion_lon": 0.0, "is_reserved": 0}, {"lat": 38.89750033333333, "fusion_lat": 0.0, "type": "electric_scooter", "name": "153a6050e6529ad81a39107db01076b5", "is_disabled": 0, "bike_id": "153a6050e6529ad81a39107db01076b5", "lon": -77.04893766666666, "rental_uris": {"android": "https://dc.lft.to/lastmile_qr_scan", "ios": "https://dc.lft.to/lastmile_qr_scan"}, "fusion_lon": 0.0, "is_reserved": 0}, {"lat": 38.90151733333333, "fusion_lat": 0.0, "type": "electric_scooter", "name": "3b0cbf973c4bd0672441b1b83370d06e", "is_disabled": 0, "bike_id": "3b0cbf973c4bd0672441b1b83370d06e", "lon": -77.03265033333334, "rental_uris": {"android": "https://dc.lft.to/lastmile_qr_scan", "ios": "https://dc.lft.to/lastmile_qr_scan"}, "fusion_lon": 0.0, "is_reserved": 0}, {"lat": 38.9224625, "fusion_lat": 0.0, "type": "electric_scooter", "name": "bceda0c587cd71a3e7e5a41a244458cc", "is_disabled": 0, "bike_id": "bceda0c587cd71a3e7e5a41a244458cc", "lon": -76.98092583333333, "rental_uris": {"android": "https://dc.lft.to/lastmile_qr_scan", "ios": "https://dc.lft.to/lastmile_qr_scan"}, "fusion_lon": 0.0, "is_reserved": 0}, {"lat": 38.90977, "fusion_lat": 0.0, "type": "electric_scooter", "name": "197a104ab5b9a9ba1a2cfaedc20af98c", "is_disabled": 0, "bike_id": "197a104ab5b9a9ba1a2cfaedc20af98c", "lon": -76.99500683333333, "rental_uris": {"android": "https://dc.lft.to/lastmile_qr_scan", "ios": "https://dc.lft.to/lastmile_qr_scan"}, "fusion_lon": 0.0, "is_reserved": 0}, {"lat": 38.856889833333334, "fusion_lat": 0.0, "type": "electric_scooter", "name": "603a3fc06d58cdc43600af581754b140", "is_disabled": 0, "bike_id": "603a3fc06d58cdc43600af581754b140", "lon": -76.9959505, "rental_uris": {"android": "https://dc.lft.to/lastmile_qr_scan", "ios": "https://dc.lft.to/lastmile_qr_scan"}, "fusion_lon": 0.0, "is_reserved": 0}, {"lat": 38.89391216666667, "fusion_lat": 0.0, "type": "electric_scooter", "name": "6d6e44d3e18bb57d2636b5ebdececab4", "is_disabled": 0, "bike_id": "6d6e44d3e18bb57d2636b5ebdececab4", "lon": -77.02347383333333, "rental_uris": {"android": "https://dc.lft.to/lastmile_qr_scan", "ios": "https://dc.lft.to/lastmile_qr_scan"}, "fusion_lon": 0.0, "is_reserved": 0}, {"lat": 38.928085, "fusion_lat": 0.0, "type": "electric_scooter", "name": "44a45078371ae8916e00479dcffd1dbc", "is_disabled": 0, "bike_id": "44a45078371ae8916e00479dcffd1dbc", "lon": -77.043407, "rental_uris": {"android": "https://dc.lft.to/lastmile_qr_scan", "ios": "https://dc.lft.to/lastmile_qr_scan"}, "fusion_lon": 0.0, "is_reserved": 0}, {"lat": 38.899391, "fusion_lat": 0.0, "type": "electric_scooter", "name": "f1fe1c8ae463054381e1d84bb91088e8", "is_disabled": 0, "bike_id": "f1fe1c8ae463054381e1d84bb91088e8", "lon": -77.04489016666666, "rental_uris": {"android": "https://dc.lft.to/lastmile_qr_scan", "ios": "https://dc.lft.to/lastmile_qr_scan"}, "fusion_lon": 0.0, "is_reserved": 0}, {"lat": 38.8982875, "fusion_lat": 0.0, "type": "electric_scooter", "name": "1e330afb17f8dd85ba150f0c8d441298", "is_disabled": 0, "bike_id": "1e330afb17f8dd85ba150f0c8d441298", "lon": -77.02729016666666, "rental_uris": {"android": "https://dc.lft.to/lastmile_qr_scan", "ios": "https://dc.lft.to/lastmile_qr_scan"}, "fusion_lon": 0.0, "is_reserved": 0}, {"lat": 38.902534, "fusion_lat": 0.0, "type": "electric_scooter", "name": "de8415411b19cdf610df3d1f7b4865e0", "is_disabled": 0, "bike_id": "de8415411b19cdf610df3d1f7b4865e0", "lon": -77.01230783333334, "rental_uris": {"android": "https://dc.lft.to/lastmile_qr_scan", "ios": "https://dc.lft.to/lastmile_qr_scan"}, "fusion_lon": 0.0, "is_reserved": 0}, {"lat": 38.902405333333334, "fusion_lat": 0.0, "type": "electric_scooter", "name": "3781f3b226aac6054d46f3a60454b2ed", "is_disabled": 0, "bike_id": "3781f3b226aac6054d46f3a60454b2ed", "lon": -77.04720683333333, "rental_uris": {"android": "https://dc.lft.to/lastmile_qr_scan", "ios": "https://dc.lft.to/lastmile_qr_scan"}, "fusion_lon": 0.0, "is_reserved": 0}, {"lat": 38.90867166666666, "fusion_lat": 0.0, "type": "electric_scooter", "name": "ecdf2ecf463311f0040e377afefaa2fe", "is_disabled": 0, "bike_id": "ecdf2ecf463311f0040e377afefaa2fe", "lon": -77.0715225, "rental_uris": {"android": "https://dc.lft.to/lastmile_qr_scan", "ios": "https://dc.lft.to/lastmile_qr_scan"}, "fusion_lon": 0.0, "is_reserved": 0}, {"lat": 38.87686083333333, "fusion_lat": 0.0, "type": "electric_scooter", "name": "bdcf155238cae49211bb1df0352e4e33", "is_disabled": 0, "bike_id": "bdcf155238cae49211bb1df0352e4e33", "lon": -77.00408366666667, "rental_uris": {"android": "https://dc.lft.to/lastmile_qr_scan", "ios": "https://dc.lft.to/lastmile_qr_scan"}, "fusion_lon": 0.0, "is_reserved": 0}, {"lat": 38.8452285, "fusion_lat": 0.0, "type": "electric_bike", "name": "ab94e8e3c73e69732f01345adaaeff7d", "is_disabled": 0, "bike_id": "ab94e8e3c73e69732f01345adaaeff7d", "lon": -76.97398166666666, "rental_uris": {"android": "https://dc.lft.to/lastmile_qr_scan", "ios": "https://dc.lft.to/lastmile_qr_scan"}, "fusion_lon": 0.0, "is_reserved": 0}, {"lat": 38.90031233333333, "fusion_lat": 0.0, "type": "electric_scooter", "name": "893e1dc02c5a83d5e063df1e5eb31331", "is_disabled": 0, "bike_id": "893e1dc02c5a83d5e063df1e5eb31331", "lon": -77.02594716666667, "rental_uris": {"android": "https://dc.lft.to/lastmile_qr_scan", "ios": "https://dc.lft.to/lastmile_qr_scan"}, "fusion_lon": 0.0, "is_reserved": 0}, {"lat": 38.89749783333333, "fusion_lat": 0.0, "type": "electric_scooter", "name": "149e022c8efb18c3002c1252afdf26dc", "is_disabled": 0, "bike_id": "149e022c8efb18c3002c1252afdf26dc", "lon": -77.04885033333333, "rental_uris": {"android": "https://dc.lft.to/lastmile_qr_scan", "ios": "https://dc.lft.to/lastmile_qr_scan"}, "fusion_lon": 0.0, "is_reserved": 0}, {"lat": 38.900308333333335, "fusion_lat": 0.0, "type": "electric_bike", "name": "33ffc2f43f08d9cec3e5d581715a0bbc", "is_disabled": 0, "bike_id": "33ffc2f43f08d9cec3e5d581715a0bbc", "lon": -76.9722665, "rental_uris": {"android": "https://dc.lft.to/lastmile_qr_scan", "ios": "https://dc.lft.to/lastmile_qr_scan"}, "fusion_lon": 0.0, "is_reserved": 0}, {"lat": 38.898290333333335, "fusion_lat": 0.0, "type": "electric_scooter", "name": "abf6a2d89f1e499848ec5b5ddb746098", "is_disabled": 0, "bike_id": "abf6a2d89f1e499848ec5b5ddb746098", "lon": -76.94653733333334, "rental_uris": {"android": "https://dc.lft.to/lastmile_qr_scan", "ios": "https://dc.lft.to/lastmile_qr_scan"}, "fusion_lon": 0.0, "is_reserved": 0},