{"data": {"bikes": [{"rental_uris": {"ios": "https://dc.lft.to/lastmile_qr_scan", "android": "https://dc.lft.to/lastmile_qr_scan"}, "type": "electric_scooter", "name": "353044f5d2cf9421ab6e23de06014f8a", "is_reserved": 0, "lon": -77.02505316666667, "is_disabled": 0, "fusion_lat": 0.0, "lat": 38.91789133333333, "bike_id": "353044f5d2cf9421ab6e23de06014f8a", "fusion_lon": 0.0}, {"rental_uris": {"ios": "https://dc.lft.to/lastmile_qr_scan", "android": "https://dc.lft.to/lastmile_qr_scan"}, "type": "electric_scooter", "name": "18536cc50da39c41c9b18709ec8d6303", "is_reserved": 0, "lon": -77.0384315, "is_disabled": 0, "fusion_lat": 0.0, "lat": 38.91313666666667, "bike_id": "18536cc50da39c41c9b18709ec8d6303", "fusion_lon": 0.0}, {"rental_uris": {"ios": "https://dc.lft.to/lastmile_qr_scan", "android": "https://dc.lft.to/lastmile_qr_scan"}, "type": "electric_scooter", "name": "c8a30b6b8f35fc88673f38aef7dd8ef9", "is_reserved": 0, "lon": -76.99420366666666, "is_disabled": 0, "fusion_lat": 0.0, "lat": 38.916886166666664, "bike_id": "c8a30b6b8f35fc88673f38aef7dd8ef9", "fusion_lon": 0.0}, {"rental_uris": {"ios": "https://dc.lft.to/lastmile_qr_scan", "android": "https://dc.lft.to/lastmile_qr_scan"}, "type": "electric_scooter", "name": "7cbbaaa368010056121fb62e2100ef8e", "is_reserved": 0, "lon": -77.04734466666666, "is_disabled": 0, "fusion_lat": 0.0, "lat": 38.89552966666667, "bike_id": "7cbbaaa368010056121fb62e2100ef8e", "fusion_lon": 0.0}, {"rental_uris": {"ios": "https://dc.lft.to/lastmile_qr_scan", "android": "https://dc.lft.to/lastmile_qr_scan"}, "type": "electric_scooter", "name": "f29326becf3f0c793e3d976d845644dd", "is_reserved": 0, "lon": -77.03827833333334, "is_disabled": 0, "fusion_lat": 0.0, "lat": 38.9626115, "bike_id": "f29326becf3f0c793e3d976d845644dd", "fusion_lon": 0.0}, {"rental_uris": {"ios": "https://dc.lft.to/lastmile_qr_scan", "android": "https://dc.lft.to/lastmile_qr_scan"}, "type": "electric_scooter", "name": "52d1f7c71e1eaba3409842415c348975", "is_reserved": 0, "lon": -77.0258845, "is_disabled": 0, "fusion_lat": 0.0, "lat": 38.96396033333333, "bike_id": "52d1f7c71e1eaba3409842415c348975", "fusion_lon": 0.0}, {"rental_uris": {"ios": "https://dc.lft.to/lastmile_qr_scan", "android": "https://dc.lft.to/lastmile_qr_scan"}, "type": "electric_bike", "name": "c543dde76a6a57ca869fe4f0ea3db801", "is_reserved": 0, "lon": -76.9180395, "is_disabled": 0, "fusion_lat": 0.0, "lat": 39.000047, "bike_id": "c543dde76a6a57ca869fe4f0ea3db801", "fusion_lon": 0.0}, {"rental_uris": {"ios": "https://dc.lft.to/lastmile_qr_scan", "android": "https://dc.lft.to/lastmile_qr_scan"}, "type": "electric_scooter", "name": "9077a06a83a865de959142892c9312c0", "is_reserved": 0, "lon": -77.01447483333334, "is_disabled": 0, "fusion_lat": 0.0, "lat": 38.899425, "bike_id": "9077a06a83a865de959142892c9312c0", "fusion_lon": 0.0}, {"rental_uris": {"ios": "https://dc.lft.to/lastmile_qr_scan", "android": "https://dc.lft.to/lastmile_qr_scan"}, "type": "electric_scooter", "name": "4c758d74160c3e3112fd8745fa2d6132", "is_reserved": 0, "lon": -77.028119, "is_disabled": 0, "fusion_lat": 0.0, "lat": 38.905692333333334, "bike_id": "4c758d74160c3e3112fd8745fa2d6132", "fusion_lon": 0.0}, {"rental_uris": {"ios": "https://dc.lft.to/lastmile_qr_scan", "android": "https://dc.lft.to/lastmile_qr_scan"}, "type": "electric_scooter", "name": "e3187771b325fe5d67092d190d4ff4e9", "is_reserved": 0, "lon": -77.00550183333333, "is_disabled": 0, "fusion_lat": 0.0, "lat": 38.875335166666666, "bike_id": "e3187771b325fe5d67092d190d4ff4e9", "fusion_lon": 0.0}, {"rental_uris": {"ios": "https://dc.lft.to/lastmile_qr_scan", "android": "https://dc.lft.to/lastmile_qr_scan"}, "type": "electric_scooter", "name": "b834d8ee09aa7a17865e2a24574ee12c", "is_reserved": 0, "lon": -77.0376485, "is_disabled": 0, "fusion_lat": 0.0, "lat": 38.90138133333333, "bike_id": "b834d8ee09aa7a17865e2a24574ee12c", "fusion_lon": 0.0}, {"rental_uris": {"ios": "https://dc.lft.to/lastmile_qr_scan", "android": "https://dc.lft.to/lastmile_qr_scan"}, "type": "electric_scooter", "name": "664906067fa491145bf4c4079891a158", "is_reserved": 0, "lon": -77.03474183333333, "is_disabled": 0, "fusion_lat": 0.0, "lat": 38.929581666666664, "bike_id": "664906067fa491145bf4c4079891a158", "fusion_lon": 0.0}, {"rental_uris": {"ios": "https://dc.lft.to/lastmile_qr_scan", "android": "https://dc.lft.to/lastmile_qr_scan"}, "type": "electric_scooter", "name": "10dea549df53e1532472a204f877e312", "is_reserved": 0, "lon": -77.05920633333334, "is_disabled": 0, "fusion_lat": 0.0, "lat": 38.902614166666666, "bike_id": "10dea549df53e1532472a204f877e312", "fusion_lon": 0.0}, {"rental_uris": {"ios": "https://dc.lft.to/lastmile_qr_scan", "android": "https://dc.lft.to/lastmile_qr_scan"}, "type": "electric_scooter", "name": "d13a6e93240375de827baf4ce95b1517", "is_reserved": 0, "lon": -77.01796266666666, "is_disabled": 0, "fusion_lat": 0.0, "lat": 38.88606683333333, "bike_id": "d13a6e93240375de827baf4ce95b1517", "fusion_lon": 0.0}, {"rental_uris": {"ios": "https://dc.lft.to/lastmile_qr_scan", "android": "https://dc.lft.to/lastmile_qr_scan"}, "type": "electric_scooter", "name": "f47ec3157c7a8c850c2537a131b5ade7", "is_reserved": 0, "lon": -77.04194866666667, "is_disabled": 0, "fusion_lat": 0.0, "lat": 38.916664833333336, "bike_id": "f47ec3157c7a8c850c2537a131b5ade7", "fusion_lon": 0.0}, {"rental_uris": {"ios": "https://dc.lft.to/lastmile_qr_scan", "android": "https://dc.lft.to/lastmile_qr_scan"}, "type": "electric_bike", "name": "84cdb97cff44793204f104c799a9316b", "is_reserved": 0, "lon": -77.12978816666667, "is_disabled": 0, "fusion_lat": 0.0, "lat": 38.79986983333333, "bike_id": "84cdb97cff44793204f104c799a9316b", "fusion_lon": 0.0}, {"rental_uris": {"ios": "https://dc.lft.to/lastmile_qr_scan", "android": "https://dc.lft.to/lastmile_qr_scan"}, "type": "electric_scooter", "name": "90275580a45bf3576b04bddef6962431", "is_reserved": 0, "lon": -77.061197, "is_disabled": 0, "fusion_lat": 0.0, "lat": 38.9060575, "bike_id": "90275580a45bf3576b04bddef6962431", "fusion_lon": 0.0}, {"rental_uris": {"ios": "https://dc.lft.to/lastmile_qr_scan", "android": "https://dc.lft.to/lastmile_qr_scan"}, "type": "electric_scooter", "name": "ed3410dc959c304dc66248fd58ebed6a", "is_reserved": 0, "lon": -77.04862316666667, "is_disabled": 0, "fusion_lat": 0.0, "lat": 38.89222733333333, "bike_id": "ed3410dc959c304dc66248fd58ebed6a", "fusion_lon": 0.0}, {"rental_uris": {"ios": "https://dc.lft.to/lastmile_qr_scan", "android": "https://dc.lft.to/lastmile_qr_scan"}, "type": "electric_bike", "name": "cf1649144a0b30ab98cb767580b04d2d", "is_reserved": 0, "lon": -76.98348716666666, "is_disabled": 0, "fusion_lat": 0.0, "lat": 38.86265983333333, "bike_id": "cf1649144a0b30ab98cb767580b04d2d", "fusion_lon": 0.0}, {"rental_uris": {"ios": "https://dc.lft.to/lastmile_qr_scan", "android": "https://dc.lft.to/lastmile_qr_scan"}, "type": "electric_scooter", "name": "17c8a4b9c0638403228468fa5c8c1986", "is_reserved": 0, "lon": -77.0348175, "is_disabled": 0, "fusion_lat": 0.0, "lat": 38.90264616666666, "bike_id": "17c8a4b9c0638403228468fa5c8c1986", "fusion_lon": 0.0}, {"rental_uris": {"ios": "https://dc.lft.to/lastmile_qr_scan", "android": "https://dc.lft.to/lastmile_qr_scan"}, "type": "electric_scooter", "name": "3fbb0d6253b0fe0bd724e1cad35e2418", "is_reserved": 0, "lon": -77.01821283333334, "is_disabled": 0, "fusion_lat": 0.0, "lat": 38.91969916666667, "bike_id": "3fbb0d6253b0fe0bd724e1cad35e2418", "fusion_lon": 0.0}, {"rental_uris": {"ios": "https://dc.lft.to/lastmile_qr_scan", "android": "https://dc.lft.to/lastmile_qr_scan"}, "type": "electric_scooter", "name": "49f7923573a7e3c7f0971a828b2ec312", "is_reserved": 0, "lon": -77.00292666666667, "is_disabled": 0, "fusion_lat": 0.0, "lat": 38.901344, "bike_id": "49f7923573a7e3c7f0971a828b2ec312", "fusion_lon": 0.0}, {"rental_uris": {"ios": "https://dc.lft.to/lastmile_qr_scan", "android": "https://dc.lft.to/lastmile_qr_scan"}, "type": "electric_scooter", "name": "40f883e26efe68fd8bb6ba83f08acf21", "is_reserved": 0, "lon": -77.04913266666667, "is_disabled": 0, "fusion_lat": 0.0, "lat": 38.91040533333333, "bike_id": "40f883e26efe68fd8bb6ba83f08acf21", "fusion_lon": 0.0}, {"rental_uris": {"ios": "https://dc.lft.to/lastmile_qr_scan", "android": "https://dc.lft.to/lastmile_qr_scan"}, "type": "electric_scooter", "name": "3d446ba8a6470fd14fe4395235a4b271", "is_reserved": 0, "lon": -77.04411083333333, "is_disabled": 0, "fusion_lat": 0.0, "lat": 38.89603483333333, "bike_id": "3d446ba8a6470fd14fe4395235a4b271", "fusion_lon": 0.0}, {"rental_uris": {"ios": "https://dc.lft.to/lastmile_qr_scan", "android": "https://dc.lft.to/lastmile_qr_scan"}, "type": "electric_scooter", "name": "c6643bd1f789d17dd9ed7786f9a397ba", "is_reserved": 0, "lon": -76.9966445, "is_disabled": 0, "fusion_lat": 0.0, "lat": 38.927181833333336, "bike_id": "c6643bd1f789d17dd9ed7786f9a397ba", "fusion_lon": 0.0}, {"rental_uris": {"ios": "https://dc.lft.to/lastmile_qr_scan", "android": "https://dc.lft.to/lastmile_qr_scan"}, "type": "electric_scooter", "name": "11669677e3bdaabe89e2a1fa321a4d4e", "is_reserved": 0, "lon": -77.00219266666667, "is_disabled": 0, "fusion_lat": 0.0, "lat": 38.894551, "bike_id": "11669677e3bdaabe89e2a1fa321a4d4e", "fusion_lon": 0.0}, {"rental_uris": {"ios": "https://dc.lft.to/lastmile_qr_scan", "android": "https://dc.lft.to/lastmile_qr_scan"}, "type": "electric_scooter", "name": "8c645f55e50baed59ccd7d7948912fed", "is_reserved": 0, "lon": -77.0314695, "is_disabled": 0, "fusion_lat": 0.0, "lat": 38.92009433333333, "bike_id": "8c645f55e50baed59ccd7d7948912fed", "fusion_lon": 0.0}, {"rental_uris": {"ios": "https://dc.lft.to/lastmile_qr_scan", "android": "https://dc.lft.to/lastmile_qr_scan"}, "type": "electric_bike", "name": "e312e121687e2f09d6d2f00057f61afe", "is_reserved": 0, "lon": -76.973309, "is_disabled": 0, "fusion_lat": 0.0, "lat": 38.865219833333335, "bike_id": "e312e121687e2f09d6d2f00057f61afe", "fusion_lon": 0.0}, {"rental_uris": {"ios": "https://dc.lft.to/lastmile_qr_scan", "android": "https://dc.lft.to/lastmile_qr_scan"}, "type": "electric_scooter", "name": "45cd8bd1fbe0c8fd170bb4e5c35304f4", "is_reserved": 0, "lon": -77.04504916666667, "is_disabled": 0, "fusion_lat": 0.0, "lat": 38.90095316666667, "bike_id": "45cd8bd1fbe0c8fd170bb4e5c35304f4", "fusion_lon": 0.0}, {"rental_uris": {"ios": "https://dc.lft.to/lastmile_qr_scan", "android": "https://dc.lft.to/lastmile_qr_scan"}, "type": "electric_scooter", "name": "bec8e37629fd88a858362f00bfd29528", "is_reserved": 0, "lon": -77.0074205, "is_disabled": 0, "fusion_lat": 0.0, "lat": 38.8983315, "bike_id": "bec8e37629fd88a858362f00bfd29528", "fusion_lon": 0.0}, {"rental_uris": {"ios": "https://dc.lft.to/lastmile_qr_scan", "android": "https://dc.lft.to/lastmile_qr_scan"}, "type": "electric_scooter", "name": "f728e8c421d11f558abe132333533c2c", "is_reserved": 0, "lon": -77.04342633333333, "is_disabled": 0, "fusion_lat": 0.0, "lat": 38.90787, "bike_id": "f728e8c421d11f558abe132333533c2c", "fusion_lon": 0.0}, {"rental_uris": {"ios": "https://dc.lft.to/lastmile_qr_scan", "android": "https://dc.lft.to/lastmile_qr_scan"}, "type": "electric_scooter", "name": "effa25d8462fcaac2f3a651cc3842ab8", "is_reserved": 0, "lon": -76.9948365, "is_disabled": 0, "fusion_lat": 0.0, "lat": 38.862191833333334, "bike_id": "effa25d8462fcaac2f3a651cc3842ab8", "fusion_lon": 0.0}, {"rental_uris": {"ios": "https://dc.lft.to/lastmile_qr_scan", "android": "https://dc.lft.to/lastmile_qr_scan"}, "type": "electric_scooter", "name": "05d7b851d46d70337890154e9097df58", "is_reserved": 0, "lon": -76.99160483333333, "is_disabled": 0, "fusion_lat": 0.0, "lat": 38.90035983333333, "bike_id": "05d7b851d46d70337890154e9097df58", "fusion_lon": 0.0}, {"rental_uris": {"ios": "https://dc.lft.to/lastmile_qr_scan", "android": "https://dc.lft.to/lastmile_qr_scan"}, "type": "electric_scooter", "name": "2b4dda863cef5b5762f7f39a31f40a0f", "is_reserved": 0, "lon": -77.072855, "is_disabled": 0, "fusion_lat": 0.0, "lat": 38.935222833333334, "bike_id": "2b4dda863cef5b5762f7f39a31f40a0f", "fusion_lon": 0.0}, {"rental_uris": {"ios": "https://dc.lft.to/lastmile_qr_scan", "android": "https://dc.lft.to/lastmile_qr_scan"}, "type": "electric_scooter", "name": "6710986c7182b590d1091922c28fe3bf", "is_reserved": 0, "lon": -77.032567, "is_disabled": 0, "fusion_lat": 0.0, "lat": 38.9371975, "bike_id": "6710986c7182b590d1091922c28fe3bf", "fusion_lon": 0.0}, {"rental_uris": {"ios": "https://dc.lft.to/lastmile_qr_scan", "android": "https://dc.lft.to/lastmile_qr_scan"}, "type": "electric_scooter", "name": "83232221c2d23830db139a606e4938ed", "is_reserved": 0, "lon": -77.033668, "is_disabled": 0, "fusion_lat": 0.0, "lat": 38.938589666666665, "bike_id": "83232221c2d23830db139a606e4938ed", "fusion_lon": 0.0}, {"rental_uris": {"ios": "https://dc.lft.to/lastmile_qr_scan", "android": "https://dc.lft.to/lastmile_qr_scan"}, "type": "electric_scooter", "name": "9a573fbe4e138d1f36c7802567131acf", "is_reserved": 0, "lon": -77.03173866666667, "is_disabled": 0, "fusion_lat": 0.0, "lat": 38.92102333333333, "bike_id": "9a573fbe4e138d1f36c7802567131acf", "fusion_lon": 0.0}, {"rental_uris": {"ios": "https://dc.lft.to/lastmile_qr_scan", "android": "https://dc.lft.to/lastmile_qr_scan"}, "type": "electric_scooter", "name": "80f3e7c65b860b2c3446d9b279cbec84", "is_reserved": 0, "lon": -77.04780916666667, "is_disabled": 0, "fusion_lat": 0.0, "lat": 38.908646833333336, "bike_id": "80f3e7c65b860b2c3446d9b279cbec84", "fusion_lon": 0.0}, {"rental_uris": {"ios": "https://dc.lft.to/lastmile_qr_scan", "android": "https://dc.lft.to/lastmile_qr_scan"}, "type": "electric_scooter", "name": "e6d4275e39d4d3f1fdf5ba201f3b55c9", "is_reserved": 0, "lon": -77.05506783333334, "is_disabled": 0, "fusion_lat": 0.0, "lat": 38.929746, "bike_id": "e6d4275e39d4d3f1fdf5ba201f3b55c9", "fusion_lon": 0.0}, {"rental_uris": {"ios": "https://dc.lft.to/lastmile_qr_scan", "android": "https://dc.lft.to/lastmile_qr_scan"}, "type": "electric_scooter", "name": "5deb683922e9cf3111959e4272ab442f", "is_reserved": 0, "lon": -77.045975, "is_disabled": 0, "fusion_lat": 0.0, "lat": 38.919198, "bike_id": "5deb683922e9cf3111959e4272ab442f", "fusion_lon": 0.0}, {"rental_uris": {"ios": "https://dc.lft.to/lastmile_qr_scan", "android": "https://dc.lft.to/lastmile_qr_scan"}, "type": "electric_scooter", "name": "b8088edbfe117832470fcb416d065143", "is_reserved": 0, "lon": -77.02150483333334, "is_disabled": 0, "fusion_lat": 0.0, "lat": 38.9243355, "bike_id": "b8088edbfe117832470fcb416d065143", "fusion_lon": 0.0}, {"rental_uris": {"ios": "https://dc.lft.to/lastmile_qr_scan", "android": "https://dc.lft.to/lastmile_qr_scan"}, "type": "electric_scooter", "name": "fb9291aacfc351bed6ec9ae365cff307", "is_reserved": 0, "lon": -77.019552, "is_disabled": 0, "fusion_lat": 0.0, "lat": 38.929140333333336, "bike_id": "fb9291aacfc351bed6ec9ae365cff307", "fusion_lon": 0.0}, {"rental_uris": {"ios": "https://dc.lft.to/lastmile_qr_scan", "android": "https://dc.lft.to/lastmile_qr_scan"}, "type": "electric_scooter", "name": "73feb35f45f368a3cfdc500583d844b6", "is_reserved": 0, "lon": -77.0058425, "is_disabled": 0, "fusion_lat": 0.0, "lat": 38.90034833333333, "bike_id": "73feb35f45f368a3cfdc500583d844b6", "fusion_lon": 0.0}, {"rental_uris": {"ios": "https://dc.lft.to/lastmile_qr_scan", "android": "https://dc.lft.to/lastmile_qr_scan"}, "type": "electric_bike", "name": "553c3506445ea2df78ae1da0ebfa4c4d", "is_reserved": 0, "lon": -76.99501016666666, "is_disabled": 0, "fusion_lat": 0.0, "lat": 38.88176216666667, "bike_id": "553c3506445ea2df78ae1da0ebfa4c4d", "fusion_lon": 0.0}, {"rental_uris": {"ios": "https://dc.lft.to/lastmile_qr_scan", "android": "https://dc.lft.to/lastmile_qr_scan"}, "type": "electric_scooter", "name": "2e867d04e176b3aec185afb9aacd86bd", "is_reserved": 0, "lon": -77.02572366666666, "is_disabled": 0, "fusion_lat": 0.0, "lat": 38.9352425, "bike_id": "2e867d04e176b3aec185afb9aacd86bd", "fusion_lon": 0.0}, {"rental_uris": {"ios": "https://dc.lft.to/lastmile_qr_scan", "android": "https://dc.lft.to/lastmile_qr_scan"}, "type": "electric_scooter", "name": "4e18bf30b71ad9461154e5d5ed61c1b5", "is_reserved": 0, "lon": -76.9902765, "is_disabled": 0, "fusion_lat": 0.0, "lat": 38.863710833333336, "bike_id": "4e18bf30b71ad9461154e5d5ed61c1b5", "fusion_lon": 0.0}, {"rental_uris": {"ios": "https://dc.lft.to/lastmile_qr_scan", "android": "https://dc.lft.to/lastmile_qr_scan"}, "type": "electric_scooter", "name": "34a16681edbb35234f3db496b8bfd9b6", "is_reserved": 0, "lon": -77.02155666666667, "is_disabled": 0, "fusion_lat": 0.0, "lat": 38.92601166666667, "bike_id": "34a16681edbb35234f3db496b8bfd9b6", "fusion_lon": 0.0}, {"rental_uris": {"ios": "https://dc.lft.to/lastmile_qr_scan", "android": "https://dc.lft.to/lastmile_qr_scan"}, "type": "electric_scooter", "name": "c70985c71e3633703db4842ca4c6fb4b", "is_reserved": 0, "lon": -77.062834, "is_disabled": 0, "fusion_lat": 0.0, "lat": 38.91240633333334, "bike_id": "c70985c71e3633703db4842ca4c6fb4b", "fusion_lon": 0.0}, {"rental_uris": {"ios": "https://dc.lft.to/lastmile_qr_scan", "android": "https://dc.lft.to/lastmile_qr_scan"}, "type": "electric_scooter", "name": "bc51dd06f3b8c09e437857e70957b501", "is_reserved": 0, "lon": -77.013768, "is_disabled": 0, "fusion_lat": 0.0, "lat": 38.86961933333333, "bike_id": "bc51dd06f3b8c09e437857e70957b501", "fusion_lon": 0.0}, {"rental_uris": {"ios": "https://dc.lft.to/lastmile_qr_scan", "android": "https://dc.lft.to/lastmile_qr_scan"}, "type": "electric_scooter", "name": "7255fd9e385f8381a7e453dc2fea6e62", "is_reserved": 0, "lon": -77.0660625, "is_disabled": 0, "fusion_lat": 0.0, "lat": 38.90610933333333, "bike_id": "7255fd9e385f8381a7e453dc2fea6e62", "fusion_lon": 0.0}, {"rental_uris": {"ios": "https://dc.lft.to/lastmile_qr_scan", "android": "https://dc.lft.to/lastmile_qr_scan"}, "type": "electric_scooter", "name": "8b3143ae0648c16f1b6adbffc9b48f63", "is_reserved": 0, "lon": -77.01212583333333, "is_disabled": 0, "fusion_lat": 0.0, "lat": 38.917173166666664, "bike_id": "8b3143ae0648c16f1b6adbffc9b48f63", "fusion_lon": 0.0}, {"rental_uris": {"ios": "https://dc.lft.to/lastmile_qr_scan", "android": "https://dc.lft.to/lastmile_qr_scan"}, "type": "electric_scooter", "name": "a694e2dc14ee10bb3d80a4ff7bb10fec", "is_reserved": 0, "lon": -77.02237616666666, "is_disabled": 0, "fusion_lat": 0.0, "lat": 38.91113766666667, "bike_id": "a694e2dc14ee10bb3d80a4ff7bb10fec", "fusion_lon": 0.0}, {"rental_uris": {"ios": "https://dc.lft.to/lastmile_qr_scan", "android": "https://dc.lft.to/lastmile_qr_scan"}, "type": "electric_scooter", "name": "4b383e15ff858b9261fe9a7e4d6298c5", "is_reserved": 0, "lon": -77.05523333333333, "is_disabled": 0, "fusion_lat": 0.0, "lat": 38.89732983333333, "bike_id": "4b383e15ff858b9261fe9a7e4d6298c5", "fusion_lon": 0.0}, {"rental_uris": {"ios": "https://dc.lft.to/lastmile_qr_scan", "android": "https://dc.lft.to/lastmile_qr_scan"}, "type": "electric_scooter", "name": "099cbb20e95891ca3f574554cc44cedf", "is_reserved": 0, "lon": -77.006082, "is_disabled": 0, "fusion_lat": 0.0, "lat": 38.871809, "bike_id": "099cbb20e95891ca3f574554cc44cedf", "fusion_lon": 0.0}, {"rental_uris": {"ios": "https://dc.lft.to/lastmile_qr_scan", "android": "https://dc.lft.to/lastmile_qr_scan"}, "type": "electric_scooter", "name": "a0c3beb4fc17ed1db105ac59d2f9e551", "is_reserved": 0, "lon": -76.99214383333333, "is_disabled": 0, "fusion_lat": 0.0, "lat": 38.8896595, "bike_id": "a0c3beb4fc17ed1db105ac59d2f9e551", "fusion_lon": 0.0}, {"rental_uris": {"ios": "https://dc.lft.to/lastmile_qr_scan", "android": "https://dc.lft.to/lastmile_qr_scan"}, "type": "electric_scooter", "name": "49dc568a2d46779c8131a271d939a17c", "is_reserved": 0, "lon": -77.06146133333333, "is_disabled": 0, "fusion_lat": 0.0, "lat": 38.9129795, "bike_id": "49dc568a2d46779c8131a271d939a17c", "fusion_lon": 0.0}, {"rental_uris": {"ios": "https://dc.lft.to/lastmile_qr_scan", "android": "https://dc.lft.to/lastmile_qr_scan"}, "type": "electric_scooter", "name": "ac4ea31f6a50cbb6887ece2712290f62", "is_reserved": 0, "lon": -76.99480383333334, "is_disabled": 0, "fusion_lat": 0.0, "lat": 38.8621325, "bike_id": "ac4ea31f6a50cbb6887ece2712290f62", "fusion_lon": 0.0}, {"rental_uris": {"ios": "https://dc.lft.to/lastmile_qr_scan", "android": "https://dc.lft.to/lastmile_qr_scan"}, "type": "electric_scooter", "name": "4a5ca4f7d68ab0f4eec1b9343ec3d5af", "is_reserved": 0, "lon": -77.03045783333333, "is_disabled": 0, "fusion_lat": 0.0, "lat": 38.908235, "bike_id": "4a5ca4f7d68ab0f4eec1b9343ec3d5af", "fusion_lon": 0.0}, {"rental_uris": {"ios": "https://dc.lft.to/lastmile_qr_scan", "android": "https://dc.lft.to/lastmile_qr_scan"}, "type": "electric_bike", "name": "bb991d3b3c273cda283bffdf8a93280b", "is_reserved": 0, "lon": -77.02374333333333, "is_disabled": 0, "fusion_lat": 0.0, "lat": 38.884934, "bike_id": "bb991d3b3c273cda283bffdf8a93280b", "fusion_lon": 0.0}, {"rental_uris": {"ios": "https://dc.lft.to/lastmile_qr_scan", "android": "https://dc.lft.to/lastmile_qr_scan"}, "type": "electric_scooter", "name": "1850055e54066dbfddda84ac79f86b19", "is_reserved": 0, "lon": -77.0436685, "is_disabled": 0, "fusion_lat": 0.0, "lat": 38.907849166666665, "bike_id": "1850055e54066dbfddda84ac79f86b19", "fusion_lon": 0.0}, {"rental_uris": {"ios": "https://dc.lft.to/lastmile_qr_scan", "android": "https://dc.lft.to/lastmile_qr_scan"}, "type": "electric_scooter", "name": "d56196c999181fc1b058b54468f72565", "is_reserved": 0, "lon": -77.046296, "is_disabled": 0, "fusion_lat": 0.0, "lat": 38.91622233333333, "bike_id": "d56196c999181fc1b058b54468f72565", "fusion_lon": 0.0}, {"rental_uris": {"ios": "https://dc.lft.to/lastmile_qr_scan", "android": "https://dc.lft.to/lastmile_qr_scan"}, "type": "electric_bike", "name": "cafc463b545cff5101f42e5b14887118", "is_reserved": 0, "lon": -77.00193316666666, "is_disabled": 0, "fusion_lat": 0.0, "lat": 38.941536, "bike_id": "cafc463b545cff5101f42e5b14887118", "fusion_lon": 0.0}, {"rental_uris": {"ios": "https://dc.lft.to/lastmile_qr_scan", "android": "https://dc.lft.to/lastmile_qr_scan"}, "type": "electric_scooter", "name": "384661fc40422451221955cbae8f6b64", "is_reserved": 0, "lon": -76.95204883333334, "is_disabled": 0, "fusion_lat": 0.0, "lat": 38.905120333333336, "bike_id": "384661fc40422451221955cbae8f6b64", "fusion_lon": 0.0}, {"rental_uris": {"ios": "https://dc.lft.to/lastmile_qr_scan", "android": "https://dc.lft.to/lastmile_qr_scan"}, "type": "electric_scooter", "name": "8e586434ace4da798ffa5e61dfa3ee52", "is_reserved": 0, "lon": -77.04005566666666, "is_disabled": 0, "fusion_lat": 0.0, "lat": 38.9038135, "bike_id": "8e586434ace4da798ffa5e61dfa3ee52", "fusion_lon": 0.0}, {"rental_uris": {"ios": "https://dc.lft.to/lastmile_qr_scan", "android": "https://dc.lft.to/lastmile_qr_scan"}, "type": "electric_scooter", "name": "d58ccd55b8af6b133da953f70d4e6467", "is_reserved": 0, "lon": -77.032597, "is_disabled": 0, "fusion_lat": 0.0, "lat": 38.939758, "bike_id": "d58ccd55b8af6b133da953f70d4e6467", "fusion_lon": 0.0}, {"rental_uris": {"ios": "https://dc.lft.to/lastmile_qr_scan", "android": "https://dc.lft.to/lastmile_qr_scan"}, "type": "electric_scooter", "name": "89db05c58b4bcc75e73b13f798c4ae2d", "is_reserved": 0, "lon": -77.02630733333334, "is_disabled": 0, "fusion_lat": 0.0, "lat": 38.883790166666664, "bike_id": "89db05c58b4bcc75e73b13f798c4ae2d", "fusion_lon": 0.0}, {"rental_uris": {"ios": "https://dc.lft.to/lastmile_qr_scan", "android": "https://dc.lft.to/lastmile_qr_scan"}, "type": "electric_scooter", "name": "e12067cb91f018af51f9f9bffa13e688", "is_reserved": 0, "lon": -76.92634383333333, "is_disabled": 0, "fusion_lat": 0.0, "lat": 38.901928833333336, "bike_id": "e12067cb91f018af51f9f9bffa13e688", "fusion_lon": 0.0}, {"rental_uris": {"ios": "https://dc.lft.to/lastmile_qr_scan", "android": "https://dc.lft.to/lastmile_qr_scan"}, "type": "electric_scooter", "name": "d632247b946feb2a649c316a3c2d823d", "is_reserved": 0, "lon": -77.04385983333333, "is_disabled": 0, "fusion_lat": 0.0, "lat": 38.934236166666665, "bike_id": "d632247b946feb2a649c316a3c2d823d", "fusion_lon": 0.0}, {"rental_uris": {"ios": "https://dc.lft.to/lastmile_qr_scan", "android": "https://dc.lft.to/lastmile_qr_scan"}, "type": "electric_scooter", "name": "d152ba5d099916c71faabca05831590c", "is_reserved": 0, "lon": -76.98333533333333, "is_disabled": 0, "fusion_lat": 0.0, "lat": 38.90083166666667, "bike_id": "d152ba5d099916c71faabca05831590c", "fusion_lon": 0.0}, {"rental_uris": {"ios": "https://dc.lft.to/lastmile_qr_scan", "android": "https://dc.lft.to/lastmile_qr_scan"}, "type": "electric_scooter", "name": "1c3da5eee7ff1ded67805634d3e5c17f", "is_reserved": 0, "lon": -77.04988283333333, "is_disabled": 0, "fusion_lat": 0.0, "lat": 38.907967666666664, "bike_id": "1c3da5eee7ff1ded67805634d3e5c17f", "fusion_lon": 0.0}, {"rental_uris": {"ios": "https://dc.lft.to/lastmile_qr_scan", "android": "https://dc.lft.to/lastmile_qr_scan"}, "type": "electric_scooter", "name": "5eaf6b1fcf5e92e3190e7e6c997c589b", "is_reserved": 0, "lon": -77.0320195, "is_disabled": 0, "fusion_lat": 0.0, "lat": 38.91352666666667, "bike_id": "5eaf6b1fcf5e92e3190e7e6c997c589b", "fusion_lon": 0.0}, {"rental_uris": {"ios": "https://dc.lft.to/lastmile_qr_scan", "android": "https://dc.lft.to/lastmile_qr_scan"}, "type": "electric_scooter", "name": "b83c48792c1d89cc0856ff5e2b88b264", "is_reserved": 0, "lon": -77.02774533333333, "is_disabled": 0, "fusion_lat": 0.0, "lat": 38.962923, "bike_id": "b83c48792c1d89cc0856ff5e2b88b264", "fusion_lon": 0.0}, {"rental_uris": {"ios": "https://dc.lft.to/lastmile_qr_scan", "android": "https://dc.lft.to/lastmile_qr_scan"}, "type": "electric_scooter", "name": "8cc6d0da5e68976de6561880bb9ff6f9", "is_reserved": 0, "lon": -77.02041983333334, "is_disabled": 0, "fusion_lat": 0.0, "lat": 38.893065166666666, "bike_id": "8cc6d0da5e68976de6561880bb9ff6f9", "fusion_lon": 0.0}, {"rental_uris": {"ios": "https://dc.lft.to/lastmile_qr_scan", "android": "https://dc.lft.to/lastmile_qr_scan"}, "type": "electric_scooter", "name": "67c55b1d661bf3f6a35eb6fa4a2d7ae5", "is_reserved": 0, "lon": -77.02490033333333, "is_disabled": 0, "fusion_lat": 0.0, "lat": 38.91808, "bike_id": "67c55b1d661bf3f6a35eb6fa4a2d7ae5", "fusion_lon": 0.0}, {"rental_uris": {"ios": "https://dc.lft.to/lastmile_qr_scan", "android": "https://dc.lft.to/lastmile_qr_scan"}, "type": "electric_bike", "name": "bf0bf39cd6ea30695bad23cd2f4f36c5", "is_reserved": 0, "lon": -76.994859, "is_disabled": 0, "fusion_lat": 0.0, "lat": 38.931441166666666, "bike_id": "bf0bf39cd6ea30695bad23cd2f4f36c5", "fusion_lon": 0.0}, {"rental_uris": {"ios": "https://dc.lft.to/lastmile_qr_scan", "android": "https://dc.lft.to/lastmile_qr_scan"}, "type": "electric_scooter", "name": "c08ec649021aac69fc0f8e93bffb7b4f", "is_reserved": 0, "lon": -77.017678, "is_disabled": 0, "fusion_lat": 0.0, "lat": 38.9050315, "bike_id": "c08ec649021aac69fc0f8e93bffb7b4f", "fusion_lon": 0.0}, {"rental_uris": {"ios": "https://dc.lft.to/lastmile_qr_scan", "android": "https://dc.lft.to/lastmile_qr_scan"}, "type": "electric_scooter", "name": "6195ba176a6d771ec1441b71b8075255", "is_reserved": 0, "lon": -77.04439466666666, "is_disabled": 0, "fusion_lat": 0.0, "lat": 38.91121666666667, "bike_id": "6195ba176a6d771ec1441b71b8075255", "fusion_lon": 0.0}, {"rental_uris": {"ios": "https://dc.lft.to/lastmile_qr_scan", "android": "https://dc.lft.to/lastmile_qr_scan"}, "type": "electric_scooter", "name": "e510b2785935932c82c236f4df8294b7", "is_reserved": 0, "lon": -77.01984, "is_disabled": 0, "fusion_lat": 0.0, "lat": 38.892856, "bike_id": "e510b2785935932c82c236f4df8294b7", "fusion_lon": 0.0}, {"rental_uris": {"ios": "https://dc.lft.to/lastmile_qr_scan", "android": "https://dc.lft.to/lastmile_qr_scan"}, "type": "electric_scooter", "name": "4207135449668f8c8ac34abace6b7004", "is_reserved": 0, "lon": -77.02056033333334, "is_disabled": 0, "fusion_lat": 0.0, "lat": 38.897046, "bike_id": "4207135449668f8c8ac34abace6b7004", "fusion_lon": 0.0}, {"rental_uris": {"ios": "https://dc.lft.to/lastmile_qr_scan", "android": "https://dc.lft.to/lastmile_qr_scan"}, "type": "electric_scooter", "name": "559ac2765fd5c5452f2aeca16abd65b6", "is_reserved": 0, "lon": -77.02409966666667, "is_disabled": 0, "fusion_lat": 0.0, "lat": 38.945079, "bike_id": "559ac2765fd5c5452f2aeca16abd65b6", "fusion_lon": 0.0}, {"rental_uris": {"ios": "https://dc.lft.to/lastmile_qr_scan", "android": "https://dc.lft.to/lastmile_qr_scan"}, "type": "electric_bike", "name": "764f16d79ec5ba021b430b6d7c295756", "is_reserved": 0, "lon": -76.98057933333334, "is_disabled": 0, "fusion_lat": 0.0, "lat": 38.97249733333334, "bike_id": "764f16d79ec5ba021b430b6d7c295756", "fusion_lon": 0.0}, {"rental_uris": {"ios": "https://dc.lft.to/lastmile_qr_scan", "android": "https://dc.lft.to/lastmile_qr_scan"}, "type": "electric_scooter", "name": "df11f41d658185871edc97620417c93c", "is_reserved": 0, "lon": -77.03967016666667, "is_disabled": 0, "fusion_lat": 0.0, "lat": 38.90150533333333, "bike_id": "df11f41d658185871edc97620417c93c", "fusion_lon": 0.0}, {"rental_uris": {"ios": "https://dc.lft.to/lastmile_qr_scan", "android": "https://dc.lft.to/lastmile_qr_scan"}, "type": "electric_scooter", "name": "8fc206c327d2cd861ec10ddba9097a80", "is_reserved": 0, "lon": -77.04356816666666, "is_disabled": 0, "fusion_lat": 0.0, "lat": 38.91574133333334, "bike_id": "8fc206c327d2cd861ec10ddba9097a80", "fusion_lon": 0.0}, {"rental_uris": {"ios": "https://dc.lft.to/lastmile_qr_scan", "android": "https://dc.lft.to/lastmile_qr_scan"}, "type": "electric_scooter", "name": "66fba8e8957624bece9dacb2e3d55e58", "is_reserved": 0, "lon": -77.0593045, "is_disabled": 0, "fusion_lat": 0.0, "lat": 38.943031166666664, "bike_id": "66fba8e8957624bece9dacb2e3d55e58", "fusion_lon": 0.0}, {"rental_uris": {"ios": "https://dc.lft.to/lastmile_qr_scan", "android": "https://dc.lft.to/lastmile_qr_scan"}, "type": "electric_bike", "name": "19583cd855f6b47c4b2fbbb4a8045741", "is_reserved": 0, "lon": -77.23409466666666, "is_disabled": 0, "fusion_lat": 0.0, "lat": 38.87583866666667, "bike_id": "19583cd855f6b47c4b2fbbb4a8045741", "fusion_lon": 0.0}, {"rental_uris": {"ios": "https://dc.lft.to/lastmile_qr_scan", "android": "https://dc.lft.to/lastmile_qr_scan"}, "type": "electric_scooter", "name": "f6c261bb1fd24c47df44625824d1913e", "is_reserved": 0, "lon": -76.9762975, "is_disabled": 0, "fusion_lat": 0.0, "lat": 38.905702, "bike_id": "f6c261bb1fd24c47df44625824d1913e", "fusion_lon": 0.0}, {"rental_uris": {"ios": "https://dc.lft.to/lastmile_qr_scan", "android": "https://dc.lft.to/lastmile_qr_scan"}, "type": "electric_scooter", "name": "539edc61cb284b067c16f37d73fc83f9", "is_reserved": 0, "lon": -77.07299166666667, "is_disabled": 0, "fusion_lat": 0.0, "lat": 38.93026116666667, "bike_id": "539edc61cb284b067c16f37d73fc83f9", "fusion_lon": 0.0}, {"rental_uris": {"ios": "https://dc.lft.to/lastmile_qr_scan", "android": "https://dc.lft.to/lastmile_qr_scan"}, "type": "electric_scooter", "name": "b9a898ccff97f060422a8c1e3d3a80a4", "is_reserved": 0, "lon": -77.05821983333334, "is_disabled": 0, "fusion_lat": 0.0, "lat": 38.905159166666664, "bike_id": "b9a898ccff97f060422a8c1e3d3a80a4", "fusion_lon": 0.0}, {"rental_uris": {"ios": "https://dc.lft.to/lastmile_qr_scan", "android": "https://dc.lft.to/lastmile_qr_scan"}, "type": "electric_scooter", "name": "18a04a2ef0d39620ff4af9581a712c59", "is_reserved": 0, "lon": -77.04947583333333, "is_disabled": 0, "fusion_lat": 0.0, "lat": 38.920213, "bike_id": "18a04a2ef0d39620ff4af9581a712c59", "fusion_lon": 0.0}, {"rental_uris": {"ios": "https://dc.lft.to/lastmile_qr_scan", "android": "https://dc.lft.to/lastmile_qr_scan"}, "type": "electric_scooter", "name": "eda41df479418a887e704894e37d8bbc", "is_reserved": 0, "lon": -77.026009, "is_disabled": 0, "fusion_lat": 0.0, "lat": 38.898225833333335, "bike_id": "eda41df479418a887e704894e37d8bbc", "fusion_lon": 0.0}, {"rental_uris": {"ios": "https://dc.lft.to/lastmile_qr_scan", "android": "https://dc.lft.to/lastmile_qr_scan"}, "type": "electric_scooter", "name": "68e52c74f45e2cffccdb4993df5cf923", "is_reserved": 0, "lon": -77.04690983333333, "is_disabled": 0, "fusion_lat": 0.0, "lat": 38.916794833333334, "bike_id": "68e52c74f45e2cffccdb4993df5cf923", "fusion_lon": 0.0}, {"rental_uris": {"ios": "https://dc.lft.to/lastmile_qr_scan", "android": "https://dc.lft.to/lastmile_qr_scan"}, "type": "electric_scooter", "name": "c2f5339749b525a3dc675fbf4d3a6358", "is_reserved": 0, "lon": -77.04043583333333, "is_disabled": 0, "fusion_lat": 0.0, "lat": 38.8973345, "bike_id": "c2f5339749b525a3dc675fbf4d3a6358", "fusion_lon": 0.0}, {"rental_uris": {"ios": "https://dc.lft.to/lastmile_qr_scan", "android": "https://dc.lft.to/lastmile_qr_scan"}, "type": "electric_scooter", "name": "d922b40a82d92b3d09c108a3fa7b6fb9", "is_reserved": 0, "lon": -77.05002033333334, "is_disabled": 0, "fusion_lat": 0.0, "lat": 38.89231566666667, "bike_id": "d922b40a82d92b3d09c108a3fa7b6fb9", "fusion_lon": 0.0}, {"rental_uris": {"ios": "https://dc.lft.to/lastmile_qr_scan", "android": "https://dc.lft.to/lastmile_qr_scan"}, "type": "electric_scooter", "name": "220c9072a66a5d6b915d9cd91d172e11", "is_reserved": 0, "lon": -77.01508233333334, "is_disabled": 0, "fusion_lat": 0.0, "lat": 38.9014235, "bike_id": "220c9072a66a5d6b915d9cd91d172e11", "fusion_lon": 0.0}, {"rental_uris": {"ios": "https://dc.lft.to/lastmile_qr_scan", "android": "https://dc.lft.to/lastmile_qr_scan"}, "type": "electric_scooter", "name": "afd134d664c03e67a9a5531c7082a338", "is_reserved": 0, "lon": -77.02758266666666, "is_disabled": 0, "fusion_lat": 0.0, "lat": 38.913454, "bike_id": "afd134d664c03e67a9a5531c7082a338", "fusion_lon": 0.0}, {"rental_uris": {"ios": "https://dc.lft.to/lastmile_qr_scan", "android": "https://dc.lft.to/lastmile_qr_scan"}, "type": "electric_scooter", "name": "ad3c91eb8346b2fd7fbf29cc2b4b0c18", "is_reserved": 0, "lon": -77.04045933333333, "is_disabled": 0, "fusion_lat": 0.0, "lat": 38.924515166666666, "bike_id": "ad3c91eb8346b2fd7fbf29cc2b4b0c18", "fusion_lon": 0.0}, {"rental_uris": {"ios": "https://dc.lft.to/lastmile_qr_scan", "android": "https://dc.lft.to/lastmile_qr_scan"}, "type": "electric_scooter", "name": "9c0442521b4d5f529cfe085b306da685", "is_reserved": 0, "lon": -77.04814166666667, "is_disabled": 0, "fusion_lat": 0.0, "lat": 38.909613, "bike_id": "9c0442521b4d5f529cfe085b306da685", "fusion_lon": 0.0}, {"rental_uris": {"ios": "https://dc.lft.to/lastmile_qr_scan", "android": "https://dc.lft.to/lastmile_qr_scan"}, "type": "electric_scooter", "name": "1131acd5a2435de6d701cd51bb296bb9", "is_reserved": 0, "lon": -76.94327416666667, "is_disabled": 0, "fusion_lat": 0.0, "lat": 38.87921466666667, "bike_id": "1131acd5a2435de6d701cd51bb296bb9", "fusion_lon": 0.0}, {"rental_uris": {"ios": "https://dc.lft.to/lastmile_qr_scan", "android": "https://dc.lft.to/lastmile_qr_scan"}, "type": "electric_scooter", "name": "f2c10b0051165a5cca06c2580baebd72", "is_reserved": 0, "lon": -77.04234, "is_disabled": 0, "fusion_lat": 0.0, "lat": 38.909673166666664, "bike_id": "f2c10b0051165a5cca06c2580baebd72", "fusion_lon": 0.0}, {"rental_uris": {"ios": "https://dc.lft.to/lastmile_qr_scan", "android": "https://dc.lft.to/lastmile_qr_scan"}, "type": "electric_bike", "name": "b9074059484d10f148e370259231ea37", "is_reserved": 0, "lon": -77.072411, "is_disabled": 0, "fusion_lat": 0.0, "lat": 38.8136315, "bike_id": "b9074059484d10f148e370259231ea37", "fusion_lon": 0.0}, {"rental_uris": {"ios": "https://dc.lft.to/lastmile_qr_scan", "android": "https://dc.lft.to/lastmile_qr_scan"}, "type": "electric_scooter", "name": "d7d00461038e3f5c15e79af908d062d6", "is_reserved": 0, "lon": -77.027628, "is_disabled": 0, "fusion_lat": 0.0, "lat": 38.897499, "bike_id": "d7d00461038e3f5c15e79af908d062d6", "fusion_lon": 0.0}, {"rental_uris": {"ios": "https://dc.lft.to/lastmile_qr_scan", "android": "https://dc.lft.to/lastmile_qr_scan"}, "type": "electric_scooter", "name": "4f7a8e8fb2e3fa755be0cc42a8781e38", "is_reserved": 0, "lon": -77.04412483333333, "is_disabled": 0, "fusion_lat": 0.0, "lat": 38.925915, "bike_id": "4f7a8e8fb2e3fa755be0cc42a8781e38", "fusion_lon": 0.0}, {"rental_uris": {"ios": "https://dc.lft.to/lastmile_qr_scan", "android": "https://dc.lft.to/lastmile_qr_scan"}, "type": "electric_scooter", "name": "8b72ebace0c8b54ca5c94ca716fad9ce", "is_reserved": 0, "lon": -77.04740816666667, "is_disabled": 0, "fusion_lat": 0.0, "lat": 38.90162316666667, "bike_id": "8b72ebace0c8b54ca5c94ca716fad9ce", "fusion_lon": 0.0}, {"rental_uris": {"ios": "https://dc.lft.to/lastmile_qr_scan", "android": "https://dc.lft.to/lastmile_qr_scan"}, "type": "electric_scooter", "name": "503c6a872c950283f9c89f9c8cafd01f", "is_reserved": 0, "lon": -76.98568216666666, "is_disabled": 0, "fusion_lat": 0.0, "lat": 38.89618166666666, "bike_id": "503c6a872c950283f9c89f9c8cafd01f", "fusion_lon": 0.0}, {"rental_uris": {"ios": "https://dc.lft.to/lastmile_qr_scan", "android": "https://dc.lft.to/lastmile_qr_scan"}, "type": "electric_bike", "name": "0791d7530712e0c3c310d9e7312a5d85", "is_reserved": 0, "lon": -76.9876635, "is_disabled": 0, "fusion_lat": 0.0, "lat": 38.857742, "bike_id": "0791d7530712e0c3c310d9e7312a5d85", "fusion_lon": 0.0}, {"rental_uris": {"ios": "https://dc.lft.to/lastmile_qr_scan", "android": "https://dc.lft.to/lastmile_qr_scan"}, "type": "electric_scooter", "name": "a797d15de93b8252d12f82593248824b", "is_reserved": 0, "lon": -76.99997733333333, "is_disabled": 0, "fusion_lat": 0.0, "lat": 38.90752533333333, "bike_id": "a797d15de93b8252d12f82593248824b", "fusion_lon": 0.0}, {"rental_uris": {"ios": "https://dc.lft.to/lastmile_qr_scan", "android": "https://dc.lft.to/lastmile_qr_scan"}, "type": "electric_scooter", "name": "99fd1376b5fe9337dd962ad0e31cb7f2", "is_reserved": 0, "lon": -77.0242385, "is_disabled": 0, "fusion_lat": 0.0, "lat": 38.899002833333334, "bike_id": "99fd1376b5fe9337dd962ad0e31cb7f2", "fusion_lon": 0.0}, {"rental_uris": {"ios": "https://dc.lft.to/lastmile_qr_scan", "android": "https://dc.lft.to/lastmile_qr_scan"}, "type": "electric_scooter", "name": "ea563edf60c3dc05bdb82a66cd60cf15", "is_reserved": 0, "lon": -77.04609383333333, "is_disabled": 0, "fusion_lat": 0.0, "lat": 38.909635, "bike_id": "ea563edf60c3dc05bdb82a66cd60cf15", "fusion_lon": 0.0}, {"rental_uris": {"ios": "https://dc.lft.to/lastmile_qr_scan", "android": "https://dc.lft.to/lastmile_qr_scan"}, "type": "electric_scooter", "name": "80ae976a12614ca97c49e9b03389a14b", "is_reserved": 0, "lon": -77.039466, "is_disabled": 0, "fusion_lat": 0.0, "lat": 38.90260683333333, "bike_id": "80ae976a12614ca97c49e9b03389a14b", "fusion_lon": 0.0}, {"rental_uris": {"ios": "https://dc.lft.to/lastmile_qr_scan", "android": "https://dc.lft.to/lastmile_qr_scan"}, "type": "electric_scooter", "name": "a563a9bc34a284a5168144712b61c181", "is_reserved": 0, "lon": -76.98833866666666, "is_disabled": 0, "fusion_lat": 0.0, "lat": 38.894928666666665, "bike_id": "a563a9bc34a284a5168144712b61c181", "fusion_lon": 0.0}, {"rental_uris": {"ios": "https://dc.lft.to/lastmile_qr_scan", "android": "https://dc.lft.to/lastmile_qr_scan"}, "type": "electric_scooter", "name": "86b761f8c6997b334c29a2962bfaaa75", "is_reserved": 0, "lon": -77.045037, "is_disabled": 0, "fusion_lat": 0.0, "lat": 38.89224083333333, "bike_id": "86b761f8c6997b334c29a2962bfaaa75", "fusion_lon": 0.0}, {"rental_uris": {"ios": "https://dc.lft.to/lastmile_qr_scan", "android": "https://dc.lft.to/lastmile_qr_scan"}, "type": "electric_bike", "name": "dd0f3c75173cbc7ca2ad5b8bf6134b72", "is_reserved": 0, "lon": -76.9901575, "is_disabled": 0, "fusion_lat": 0.0, "lat": 38.9547425, "bike_id": "dd0f3c75173cbc7ca2ad5b8bf6134b72", "fusion_lon": 0.0}, {"rental_uris": {"ios": "https://dc.lft.to/lastmile_qr_scan", "android": "https://dc.lft.to/lastmile_qr_scan"}, "type": "electric_scooter", "name": "9691939a9d18ed693793e3f2e38a8e80", "is_reserved": 0, "lon": -77.024241, "is_disabled": 0, "fusion_lat": 0.0, "lat": 38.894106, "bike_id": "9691939a9d18ed693793e3f2e38a8e80", "fusion_lon": 0.0}, {"rental_uris": {"ios": "https://dc.lft.to/lastmile_qr_scan", "android": "https://dc.lft.to/lastmile_qr_scan"}, "type": "electric_scooter", "name": "1cd5ce49461e38f8c8d4b38d6b77460d", "is_reserved": 0, "lon": -77.03366083333333, "is_disabled": 0, "fusion_lat": 0.0, "lat": 38.916327833333334, "bike_id": "1cd5ce49461e38f8c8d4b38d6b77460d", "fusion_lon": 0.0}, {"rental_uris": {"ios": "https://dc.lft.to/lastmile_qr_scan", "android": "https://dc.lft.to/lastmile_qr_scan"}, "type": "electric_scooter", "name": "2961049d121a15d7a82a78974ee411c7", "is_reserved": 0, "lon": -77.02415216666667, "is_disabled": 0, "fusion_lat": 0.0, "lat": 38.917062666666666, "bike_id": "2961049d121a15d7a82a78974ee411c7", "fusion_lon": 0.0}, {"rental_uris": {"ios": "https://dc.lft.to/lastmile_qr_scan", "android": "https://dc.lft.to/lastmile_qr_scan"}, "type": "electric_scooter", "name": "bdf02fcf9cba610d9e79bb35fbd1201c", "is_reserved": 0, "lon": -77.05198166666666, "is_disabled": 0, "fusion_lat": 0.0, "lat": 38.902333666666664, "bike_id": "bdf02fcf9cba610d9e79bb35fbd1201c", "fusion_lon": 0.0}, {"rental_uris": {"ios": "https://dc.lft.to/lastmile_qr_scan", "android": "https://dc.lft.to/lastmile_qr_scan"}, "type": "electric_bike", "name": "51f56d756c07fa57b69fb11d4b7130b8", "is_reserved": 0, "lon": -76.98018783333333, "is_disabled": 0, "fusion_lat": 0.0, "lat": 38.853125666666664, "bike_id": "51f56d756c07fa57b69fb11d4b7130b8", "fusion_lon": 0.0}, {"rental_uris": {"ios": "https://dc.lft.to/lastmile_qr_scan", "android": "https://dc.lft.to/lastmile_qr_scan"}, "type": "electric_scooter", "name": "a3d32fd0f01cefa4fd15fc67732a8358", "is_reserved": 0, "lon": -77.04082933333333, "is_disabled": 0, "fusion_lat": 0.0, "lat": 38.94790366666667, "bike_id": "a3d32fd0f01cefa4fd15fc67732a8358", "fusion_lon": 0.0}, {"rental_uris": {"ios": "https://dc.lft.to/lastmile_qr_scan", "android": "https://dc.lft.to/lastmile_qr_scan"}, "type": "electric_scooter", "name": "c3710f3c858e004ebd095bf288dd34c9", "is_reserved": 0, "lon": -77.032553, "is_disabled": 0, "fusion_lat": 0.0, "lat": 38.91555983333333, "bike_id": "c3710f3c858e004ebd095bf288dd34c9", "fusion_lon": 0.0}, {"rental_uris": {"ios": "https://dc.lft.to/lastmile_qr_scan", "android": "https://dc.lft.to/lastmile_qr_scan"}, "type": "electric_scooter", "name": "178df825f23668e48e1427eb365bf02b", "is_reserved": 0, "lon": -77.0449745, "is_disabled": 0, "fusion_lat": 0.0, "lat": 38.8961915, "bike_id": "178df825f23668e48e1427eb365bf02b", "fusion_lon": 0.0}, {"rental_uris": {"ios": "https://dc.lft.to/lastmile_qr_scan", "android": "https://dc.lft.to/lastmile_qr_scan"}, "type": "electric_scooter", "name": "60f1454ebc5c72d0424a80813b0b8ffb", "is_reserved": 0, "lon": -77.02470033333333, "is_disabled": 0, "fusion_lat": 0.0, "lat": 38.91709266666667, "bike_id": "60f1454ebc5c72d0424a80813b0b8ffb", "fusion_lon": 0.0}, {"rental_uris": {"ios": "https://dc.lft.to/lastmile_qr_scan", "android": "https://dc.lft.to/lastmile_qr_scan"}, "type": "electric_scooter", "name": "18fe18ad661b2065632a073284f2ba3e", "is_reserved": 0, "lon": -77.0370505, "is_disabled": 0, "fusion_lat": 0.0, "lat": 38.926522166666665, "bike_id": "18fe18ad661b2065632a073284f2ba3e", "fusion_lon": 0.0}, {"rental_uris": {"ios": "https://dc.lft.to/lastmile_qr_scan", "android": "https://dc.lft.to/lastmile_qr_scan"}, "type": "electric_scooter", "name": "d4a6e978b4d1fd47e24314c3adc6882e", "is_reserved": 0, "lon": -76.98031833333333, "is_disabled": 0, "fusion_lat": 0.0, "lat": 38.9001775, "bike_id": "d4a6e978b4d1fd47e24314c3adc6882e", "fusion_lon": 0.0}, {"rental_uris": {"ios": "https://dc.lft.to/lastmile_qr_scan", "android": "https://dc.lft.to/lastmile_qr_scan"}, "type": "electric_scooter", "name": "4a3f4bfe74b825a47a3e0eb68b8e81b1", "is_reserved": 0, "lon": -77.03893366666667, "is_disabled": 0, "fusion_lat": 0.0, "lat": 38.90350733333333, "bike_id": "4a3f4bfe74b825a47a3e0eb68b8e81b1", "fusion_lon": 0.0}, {"rental_uris": {"ios": "https://dc.lft.to/lastmile_qr_scan", "android": "https://dc.lft.to/lastmile_qr_scan"}, "type": "electric_scooter", "name": "76bcd36d9a0cd26d67eb2dcdbb60b748", "is_reserved": 0, "lon": -77.019583, "is_disabled": 0, "fusion_lat": 0.0, "lat": 38.92326933333333, "bike_id": "76bcd36d9a0cd26d67eb2dcdbb60b748", "fusion_lon": 0.0}, {"rental_uris": {"ios": "https://dc.lft.to/lastmile_qr_scan", "android": "https://dc.lft.to/lastmile_qr_scan"}, "type": "electric_scooter", "name": "2105def2bc5d6d3b594a373b621c6057", "is_reserved": 0, "lon": -77.05391116666667, "is_disabled": 0, "fusion_lat": 0.0, "lat": 38.923424, "bike_id": "2105def2bc5d6d3b594a373b621c6057", "fusion_lon": 0.0}, {"rental_uris": {"ios": "https://dc.lft.to/lastmile_qr_scan", "android": "https://dc.lft.to/lastmile_qr_scan"}, "type": "electric_bike", "name": "334386283960d4ebf7e8090b5c675f3d", "is_reserved": 0, "lon": -76.98245316666667, "is_disabled": 0, "fusion_lat": 0.0, "lat": 38.952395333333335, "bike_id": "334386283960d4ebf7e8090b5c675f3d", "fusion_lon": 0.0}, {"rental_uris": {"ios": "https://dc.lft.to/lastmile_qr_scan", "android": "https://dc.lft.to/lastmile_qr_scan"}, "type": "electric_scooter", "name": "ae90dd1d940a89ea18a8f89bd3ca0f82", "is_reserved": 0, "lon": -77.0191615, "is_disabled": 0, "fusion_lat": 0.0, "lat": 38.897293, "bike_id": "ae90dd1d940a89ea18a8f89bd3ca0f82", "fusion_lon": 0.0}, {"rental_uris": {"ios": "https://dc.lft.to/lastmile_qr_scan", "android": "https://dc.lft.to/lastmile_qr_scan"}, "type": "electric_scooter", "name": "bc09379009de1d0cbef134f7280e8a12", "is_reserved": 0, "lon": -77.02675016666667, "is_disabled": 0, "fusion_lat": 0.0, "lat": 38.98429566666667, "bike_id": "bc09379009de1d0cbef134f7280e8a12", "fusion_lon": 0.0}, {"rental_uris": {"ios": "https://dc.lft.to/lastmile_qr_scan", "android": "https://dc.lft.to/lastmile_qr_scan"}, "type": "electric_scooter", "name": "fab4210d139c3de48f848b66c26885df", "is_reserved": 0, "lon": -77.03468816666667, "is_disabled": 0, "fusion_lat": 0.0, "lat": 38.92012533333333, "bike_id": "fab4210d139c3de48f848b66c26885df", "fusion_lon": 0.0}, {"rental_uris": {"ios": "https://dc.lft.to/lastmile_qr_scan", "android": "https://dc.lft.to/lastmile_qr_scan"}, "type": "electric_scooter", "name": "79476cd1e75d77f7f45eec8ffbffad86", "is_reserved": 0, "lon": -76.99967733333334, "is_disabled": 0, "fusion_lat": 0.0, "lat": 38.8865765, "bike_id": "79476cd1e75d77f7f45eec8ffbffad86", "fusion_lon": 0.0}, {"rental_uris": {"ios": "https://dc.lft.to/lastmile_qr_scan", "android": "https://dc.lft.to/lastmile_qr_scan"}, "type": "electric_scooter", "name": "ad7bb3db8d617828a7a506dc55a448c2", "is_reserved": 0, "lon": -77.03172116666667, "is_disabled": 0, "fusion_lat": 0.0, "lat": 38.90819883333333, "bike_id": "ad7bb3db8d617828a7a506dc55a448c2", "fusion_lon": 0.0}, {"rental_uris": {"ios": "https://dc.lft.to/lastmile_qr_scan", "android": "https://dc.lft.to/lastmile_qr_scan"}, "type": "electric_scooter", "name": "07c084cc2db5ddb0747c1fd74cbeeada", "is_reserved": 0, "lon": -77.04248266666667, "is_disabled": 0, "fusion_lat": 0.0, "lat": 38.92290833333333, "bike_id": "07c084cc2db5ddb0747c1fd74cbeeada", "fusion_lon": 0.0}, {"rental_uris": {"ios": "https://dc.lft.to/lastmile_qr_scan", "android": "https://dc.lft.to/lastmile_qr_scan"}, "type": "electric_scooter", "name": "4f666fdc988a237da56143a48dff7939", "is_reserved": 0, "lon": -77.06774266666666, "is_disabled": 0, "fusion_lat": 0.0, "lat": 38.9088285, "bike_id": "4f666fdc988a237da56143a48dff7939", "fusion_lon": 0.0}, {"rental_uris": {"ios": "https://dc.lft.to/lastmile_qr_scan", "android": "https://dc.lft.to/lastmile_qr_scan"}, "type": "electric_scooter", "name": "a89f0cdf4b14d53b1279b5e208f3066b", "is_reserved": 0, "lon": -77.02144116666666, "is_disabled": 0, "fusion_lat": 0.0, "lat": 38.91557366666667, "bike_id": "a89f0cdf4b14d53b1279b5e208f3066b", "fusion_lon": 0.0}, {"rental_uris": {"ios": "https://dc.lft.to/lastmile_qr_scan", "android": "https://dc.lft.to/lastmile_qr_scan"}, "type": "electric_scooter", "name": "4c7b3e9b12aae9eaf2d3835e652371ef", "is_reserved": 0, "lon": -77.06448066666667, "is_disabled": 0, "fusion_lat": 0.0, "lat": 38.90878583333333, "bike_id": "4c7b3e9b12aae9eaf2d3835e652371ef", "fusion_lon": 0.0}, {"rental_uris": {"ios": "https://dc.lft.to/lastmile_qr_scan", "android": "https://dc.lft.to/lastmile_qr_scan"}, "type": "electric_bike", "name": "4fc64cba5a3d07a8d1f0a6534d06974c", "is_reserved": 0, "lon": -76.9574415, "is_disabled": 0, "fusion_lat": 0.0, "lat": 38.888616166666665, "bike_id": "4fc64cba5a3d07a8d1f0a6534d06974c", "fusion_lon": 0.0}, {"rental_uris": {"ios": "https://dc.lft.to/lastmile_qr_scan", "android": "https://dc.lft.to/lastmile_qr_scan"}, "type": "electric_scooter", "name": "47fc5e92907df29099f6410594f6c10c", "is_reserved": 0, "lon": -76.984157, "is_disabled": 0, "fusion_lat": 0.0, "lat": 38.9147265, "bike_id": "47fc5e92907df29099f6410594f6c10c", "fusion_lon": 0.0}, {"rental_uris": {"ios": "https://dc.lft.to/lastmile_qr_scan", "android": "https://dc.lft.to/lastmile_qr_scan"}, "type": "electric_scooter", "name": "f1e8188c7d5ec4eaa1c6ae890f801420", "is_reserved": 0, "lon": -77.02664933333334, "is_disabled": 0, "fusion_lat": 0.0, "lat": 38.884876, "bike_id": "f1e8188c7d5ec4eaa1c6ae890f801420", "fusion_lon": 0.0}, {"rental_uris": {"ios": "https://dc.lft.to/lastmile_qr_scan", "android": "https://dc.lft.to/lastmile_qr_scan"}, "type": "electric_scooter", "name": "5472008e8334531acf831e77a06d5801", "is_reserved": 0, "lon": -77.04081216666667, "is_disabled": 0, "fusion_lat": 0.0, "lat": 38.9056895, "bike_id": "5472008e8334531acf831e77a06d5801", "fusion_lon": 0.0}, {"rental_uris": {"ios": "https://dc.lft.to/lastmile_qr_scan", "android": "https://dc.lft.to/lastmile_qr_scan"}, "type": "electric_scooter", "name": "fe678030e38c0a159cf1fbe3152cb7ee", "is_reserved": 0, "lon": -77.03744016666667, "is_disabled": 0, "fusion_lat": 0.0, "lat": 38.93207866666667, "bike_id": "fe678030e38c0a159cf1fbe3152cb7ee", "fusion_lon": 0.0}, {"rental_uris": {"ios": "https://dc.lft.to/lastmile_qr_scan", "android": "https://dc.lft.to/lastmile_qr_scan"}, "type": "electric_scooter", "name": "90f69c560fc35f3cf32364c3eab42f33", "is_reserved": 0, "lon": -76.94719733333334, "is_disabled": 0, "fusion_lat": 0.0, "lat": 38.890835833333334, "bike_id": "90f69c560fc35f3cf32364c3eab42f33", "fusion_lon": 0.0}, {"rental_uris": {"ios": "https://dc.lft.to/lastmile_qr_scan", "android": "https://dc.lft.to/lastmile_qr_scan"}, "type": "electric_bike", "name": "90ecf588f126dff550fa5ec4227d424b", "is_reserved": 0, "lon": -76.95242616666667, "is_disabled": 0, "fusion_lat": 0.0, "lat": 38.88468666666667, "bike_id": "90ecf588f126dff550fa5ec4227d424b", "fusion_lon": 0.0}, {"rental_uris": {"ios": "https://dc.lft.to/lastmile_qr_scan", "android": "https://dc.lft.to/lastmile_qr_scan"}, "type": "electric_scooter", "name": "ac47c47b9a631d5033d2f0429746d21b", "is_reserved": 0, "lon": -77.0379425, "is_disabled": 0, "fusion_lat": 0.0, "lat": 38.931078166666666, "bike_id": "ac47c47b9a631d5033d2f0429746d21b", "fusion_lon": 0.0}, {"rental_uris": {"ios": "https://dc.lft.to/lastmile_qr_scan", "android": "https://dc.lft.to/lastmile_qr_scan"}, "type": "electric_bike", "name": "0321fcc1a86162c32e95084771a3c295", "is_reserved": 0, "lon": -76.9455125, "is_disabled": 0, "fusion_lat": 0.0, "lat": 38.9829695, "bike_id": "0321fcc1a86162c32e95084771a3c295", "fusion_lon": 0.0}, {"rental_uris": {"ios": "https://dc.lft.to/lastmile_qr_scan", "android": "https://dc.lft.to/lastmile_qr_scan"}, "type": "electric_bike", "name": "f964232abf6a75776c252a1f2b94a6e8", "is_reserved": 0, "lon": -77.073658, "is_disabled": 0, "fusion_lat": 0.0, "lat": 38.961510833333335, "bike_id": "f964232abf6a75776c252a1f2b94a6e8", "fusion_lon": 0.0}, {"rental_uris": {"ios": "https://dc.lft.to/lastmile_qr_scan", "android": "https://dc.lft.to/lastmile_qr_scan"}, "type": "electric_scooter", "name": "3ec36477fa8054fb5acd4f4c0c43f8db", "is_reserved": 0, "lon": -77.0840195, "is_disabled": 0, "fusion_lat": 0.0, "lat": 38.90807816666667, "bike_id": "3ec36477fa8054fb5acd4f4c0c43f8db", "fusion_lon": 0.0}, {"rental_uris": {"ios": "https://dc.lft.to/lastmile_qr_scan", "android": "https://dc.lft.to/lastmile_qr_scan"}, "type": "electric_scooter", "name": "a0963291af5cfde192f194aed3ed416c", "is_reserved": 0, "lon": -77.00350266666666, "is_disabled": 0, "fusion_lat": 0.0, "lat": 38.876935, "bike_id": "a0963291af5cfde192f194aed3ed416c", "fusion_lon": 0.0}, {"rental_uris": {"ios": "https://dc.lft.to/lastmile_qr_scan", "android": "https://dc.lft.to/lastmile_qr_scan"}, "type": "electric_bike", "name": "5a8d9cc552ebaf687ae413422e100004", "is_reserved": 0, "lon": -77.070282, "is_disabled": 0, "fusion_lat": 0.0, "lat": 38.906188, "bike_id": "5a8d9cc552ebaf687ae413422e100004", "fusion_lon": 0.0}, {"rental_uris": {"ios": "https://dc.lft.to/lastmile_qr_scan", "android": "https://dc.lft.to/lastmile_qr_scan"}, "type": "electric_bike", "name": "2e0e870cf7721b5ce5cff4367b6e56f4", "is_reserved": 0, "lon": -77.07524, "is_disabled": 0, "fusion_lat": 0.0, "lat": 38.84283633333333, "bike_id": "2e0e870cf7721b5ce5cff4367b6e56f4", "fusion_lon": 0.0}, {"rental_uris": {"ios": "https://dc.lft.to/lastmile_qr_scan", "android": "https://dc.lft.to/lastmile_qr_scan"}, "type": "electric_scooter", "name": "f63201c581802fcc44ef30592148e313", "is_reserved": 0, "lon": -77.01441583333333, "is_disabled": 0, "fusion_lat": 0.0, "lat": 38.9111145, "bike_id": "f63201c581802fcc44ef30592148e313", "fusion_lon": 0.0}, {"rental_uris": {"ios": "https://dc.lft.to/lastmile_qr_scan", "android": "https://dc.lft.to/lastmile_qr_scan"}, "type": "electric_scooter", "name": "2b4666645edb83225bc62a7048741503", "is_reserved": 0, "lon": -77.04291533333334, "is_disabled": 0, "fusion_lat": 0.0, "lat": 38.9224, "bike_id": "2b4666645edb83225bc62a7048741503", "fusion_lon": 0.0}, {"rental_uris": {"ios": "https://dc.lft.to/lastmile_qr_scan", "android": "https://dc.lft.to/lastmile_qr_scan"}, "type": "electric_scooter", "name": "1acaf1d0f2ceb763caab334b15cc3c3e", "is_reserved": 0, "lon": -77.0424665, "is_disabled": 0, "fusion_lat": 0.0, "lat": 38.922202166666665, "bike_id": "1acaf1d0f2ceb763caab334b15cc3c3e", "fusion_lon": 0.0}, {"rental_uris": {"ios": "https://dc.lft.to/lastmile_qr_scan", "android": "https://dc.lft.to/lastmile_qr_scan"}, "type": "electric_scooter", "name": "3565d8adb5277ec9ef05f3b4aa2e81ef", "is_reserved": 0, "lon": -77.028316, "is_disabled": 0, "fusion_lat": 0.0, "lat": 38.88627, "bike_id": "3565d8adb5277ec9ef05f3b4aa2e81ef", "fusion_lon": 0.0}, {"rental_uris": {"ios": "https://dc.lft.to/lastmile_qr_scan", "android": "https://dc.lft.to/lastmile_qr_scan"}, "type": "electric_scooter", "name": "f88dbc70c9c2735a8f1e70f72a70d579", "is_reserved": 0, "lon": -77.034765, "is_disabled": 0, "fusion_lat": 0.0, "lat": 38.9053205, "bike_id": "f88dbc70c9c2735a8f1e70f72a70d579", "fusion_lon": 0.0}, {"rental_uris": {"ios": "https://dc.lft.to/lastmile_qr_scan", "android": "https://dc.lft.to/lastmile_qr_scan"}, "type": "electric_scooter", "name": "392dfa19880cfc9fb2e8ef63222b35a1", "is_reserved": 0, "lon": -77.03839283333333, "is_disabled": 0, "fusion_lat": 0.0, "lat": 38.9311215, "bike_id": "392dfa19880cfc9fb2e8ef63222b35a1", "fusion_lon": 0.0}, {"rental_uris": {"ios": "https://dc.lft.to/lastmile_qr_scan", "android": "https://dc.lft.to/lastmile_qr_scan"}, "type": "electric_scooter", "name": "70d9aad90eeab0c5f5560eca55006608", "is_reserved": 0, "lon": -77.04190133333333, "is_disabled": 0, "fusion_lat": 0.0, "lat": 38.92009066666667, "bike_id": "70d9aad90eeab0c5f5560eca55006608", "fusion_lon": 0.0}, {"rental_uris": {"ios": "https://dc.lft.to/lastmile_qr_scan", "android": "https://dc.lft.to/lastmile_qr_scan"}, "type": "electric_scooter", "name": "d051136aaebad51ac56eef3d33ff1618", "is_reserved": 0, "lon": -77.04539533333333, "is_disabled": 0, "fusion_lat": 0.0, "lat": 38.917701666666666, "bike_id": "d051136aaebad51ac56eef3d33ff1618", "fusion_lon": 0.0}, {"rental_uris": {"ios": "https://dc.lft.to/lastmile_qr_scan", "android": "https://dc.lft.to/lastmile_qr_scan"}, "type": "electric_scooter", "name": "64cfc9aea8e55bc5a63532cd55d70cdb", "is_reserved": 0, "lon": -76.98515683333333, "is_disabled": 0, "fusion_lat": 0.0, "lat": 38.88079883333333, "bike_id": "64cfc9aea8e55bc5a63532cd55d70cdb", "fusion_lon": 0.0}, {"rental_uris": {"ios": "https://dc.lft.to/lastmile_qr_scan", "android": "https://dc.lft.to/lastmile_qr_scan"}, "type": "electric_scooter", "name": "88020398d356728d0a2161e76ec8d15b", "is_reserved": 0, "lon": -77.02760816666667, "is_disabled": 0, "fusion_lat": 0.0, "lat": 38.912167, "bike_id": "88020398d356728d0a2161e76ec8d15b", "fusion_lon": 0.0}, {"rental_uris": {"ios": "https://dc.lft.to/lastmile_qr_scan", "android": "https://dc.lft.to/lastmile_qr_scan"}, "type": "electric_scooter", "name": "363f1d9184ad8186311046fc22adcd58", "is_reserved": 0, "lon": -77.046754, "is_disabled": 0, "fusion_lat": 0.0, "lat": 38.89232583333333, "bike_id": "363f1d9184ad8186311046fc22adcd58", "fusion_lon": 0.0}, {"rental_uris": {"ios": "https://dc.lft.to/lastmile_qr_scan", "android": "https://dc.lft.to/lastmile_qr_scan"}, "type": "electric_scooter", "name": "9b654a29582f9f189f3e5cf684650b38", "is_reserved": 0, "lon": -77.02800933333333, "is_disabled": 0, "fusion_lat": 0.0, "lat": 38.90610066666667, "bike_id": "9b654a29582f9f189f3e5cf684650b38", "fusion_lon": 0.0}, {"rental_uris": {"ios": "https://dc.lft.to/lastmile_qr_scan", "android": "https://dc.lft.to/lastmile_qr_scan"}, "type": "electric_bike", "name": "f5da7059fbe29326bfaaf3e5368ef5fe", "is_reserved": 0, "lon": -77.07618166666667, "is_disabled": 0, "fusion_lat": 0.0, "lat": 38.906012833333335, "bike_id": "f5da7059fbe29326bfaaf3e5368ef5fe", "fusion_lon": 0.0}, {"rental_uris": {"ios": "https://dc.lft.to/lastmile_qr_scan", "android": "https://dc.lft.to/lastmile_qr_scan"}, "type": "electric_scooter", "name": "3109aab3e2ea9c613b7a584b7eb4efb0", "is_reserved": 0, "lon": -77.0248125, "is_disabled": 0, "fusion_lat": 0.0, "lat": 38.923919833333336, "bike_id": "3109aab3e2ea9c613b7a584b7eb4efb0", "fusion_lon": 0.0}, {"rental_uris": {"ios": "https://dc.lft.to/lastmile_qr_scan", "android": "https://dc.lft.to/lastmile_qr_scan"}, "type": "electric_scooter", "name": "075fe0e096f093882e7efd8c2b6174df", "is_reserved": 0, "lon": -77.01299516666667, "is_disabled": 0, "fusion_lat": 0.0, "lat": 38.9018395, "bike_id": "075fe0e096f093882e7efd8c2b6174df", "fusion_lon": 0.0}, {"rental_uris": {"ios": "https://dc.lft.to/lastmile_qr_scan", "android": "https://dc.lft.to/lastmile_qr_scan"}, "type": "electric_bike", "name": "b21f864c2f90d196c09838a23f5694a0", "is_reserved": 0, "lon": -76.98687366666667, "is_disabled": 0, "fusion_lat": 0.0, "lat": 38.944731, "bike_id": "b21f864c2f90d196c09838a23f5694a0", "fusion_lon": 0.0}, {"rental_uris": {"ios": "https://dc.lft.to/lastmile_qr_scan", "android": "https://dc.lft.to/lastmile_qr_scan"}, "type": "electric_bike", "name": "2de8839099c2ef8a56f78af425fef357", "is_reserved": 0, "lon": -76.94180916666667, "is_disabled": 0, "fusion_lat": 0.0, "lat": 38.9606435, "bike_id": "2de8839099c2ef8a56f78af425fef357", "fusion_lon": 0.0}, {"rental_uris": {"ios": "https://dc.lft.to/lastmile_qr_scan", "android": "https://dc.lft.to/lastmile_qr_scan"}, "type": "electric_scooter", "name": "37d49ba7ce1432d61d037126494e7321", "is_reserved": 0, "lon": -77.03473916666667, "is_disabled": 0, "fusion_lat": 0.0, "lat": 38.935325666666664, "bike_id": "37d49ba7ce1432d61d037126494e7321", "fusion_lon": 0.0}, {"rental_uris": {"ios": "https://dc.lft.to/lastmile_qr_scan", "android": "https://dc.lft.to/lastmile_qr_scan"}, "type": "electric_scooter", "name": "ea8beba7771a9d20d0dcaea70582b434", "is_reserved": 0, "lon": -77.03158733333333, "is_disabled": 0, "fusion_lat": 0.0, "lat": 38.916953, "bike_id": "ea8beba7771a9d20d0dcaea70582b434", "fusion_lon": 0.0}, {"rental_uris": {"ios": "https://dc.lft.to/lastmile_qr_scan", "android": "https://dc.lft.to/lastmile_qr_scan"}, "type": "electric_scooter", "name": "b810f6f2170a536153b24b7ea93b5f7a", "is_reserved": 0, "lon": -77.0466925, "is_disabled": 0, "fusion_lat": 0.0, "lat": 38.892764166666666, "bike_id": "b810f6f2170a536153b24b7ea93b5f7a", "fusion_lon": 0.0}, {"rental_uris": {"ios": "https://dc.lft.to/lastmile_qr_scan", "android": "https://dc.lft.to/lastmile_qr_scan"}, "type": "electric_scooter", "name": "ebc39ae492c872090b30de17777c6b49", "is_reserved": 0, "lon": -77.05120716666667, "is_disabled": 0, "fusion_lat": 0.0, "lat": 38.9253065, "bike_id": "ebc39ae492c872090b30de17777c6b49", "fusion_lon": 0.0}, {"rental_uris": {"ios": "https://dc.lft.to/lastmile_qr_scan", "android": "https://dc.lft.to/lastmile_qr_scan"}, "type": "electric_bike", "name": "d61cc802900d536c3764c33add5e650a", "is_reserved": 0, "lon": -76.99920033333333, "is_disabled": 0, "fusion_lat": 0.0, "lat": 38.99463133333333, "bike_id": "d61cc802900d536c3764c33add5e650a", "fusion_lon": 0.0}, {"rental_uris": {"ios": "https://dc.lft.to/lastmile_qr_scan", "android": "https://dc.lft.to/lastmile_qr_scan"}, "type": "electric_scooter", "name": "d66240619c4a6d99ff0b7479f741cd7f", "is_reserved": 0, "lon": -77.0447785, "is_disabled": 0, "fusion_lat": 0.0, "lat": 38.92283466666667, "bike_id": "d66240619c4a6d99ff0b7479f741cd7f", "fusion_lon": 0.0}, {"rental_uris": {"ios": "https://dc.lft.to/lastmile_qr_scan", "android": "https://dc.lft.to/lastmile_qr_scan"}, "type": "electric_scooter", "name": "4365d5a00ab4cea9647cee2eaa94e429", "is_reserved": 0, "lon": -77.01420666666667, "is_disabled": 0, "fusion_lat": 0.0, "lat": 38.913250166666664, "bike_id": "4365d5a00ab4cea9647cee2eaa94e429", "fusion_lon": 0.0}, {"rental_uris": {"ios": "https://dc.lft.to/lastmile_qr_scan", "android": "https://dc.lft.to/lastmile_qr_scan"}, "type": "electric_bike", "name": "8311995b64760099d5002ff585f3e3c1", "is_reserved": 0, "lon": -77.05516266666666, "is_disabled": 0, "fusion_lat": 0.0, "lat": 38.9440605, "bike_id": "8311995b64760099d5002ff585f3e3c1", "fusion_lon": 0.0}, {"rental_uris": {"ios": "https://dc.lft.to/lastmile_qr_scan", "android": "https://dc.lft.to/lastmile_qr_scan"}, "type": "electric_scooter", "name": "132a6813c9368ee5a3e15177863aeb13", "is_reserved": 0, "lon": -77.066095, "is_disabled": 0, "fusion_lat": 0.0, "lat": 38.911071166666666, "bike_id": "132a6813c9368ee5a3e15177863aeb13", "fusion_lon": 0.0}, {"rental_uris": {"ios": "https://dc.lft.to/lastmile_qr_scan", "android": "https://dc.lft.to/lastmile_qr_scan"}, "type": "electric_scooter", "name": "db45f508c5c19cf9454400b1bef14dce", "is_reserved": 0, "lon": -77.02395633333333, "is_disabled": 0, "fusion_lat": 0.0, "lat": 38.919586, "bike_id": "db45f508c5c19cf9454400b1bef14dce", "fusion_lon": 0.0}, {"rental_uris": {"ios": "https://dc.lft.to/lastmile_qr_scan", "android": "https://dc.lft.to/lastmile_qr_scan"}, "type": "electric_scooter", "name": "160a48cae7b6471a928ae0ff64504349", "is_reserved": 0, "lon": -77.02916166666667, "is_disabled": 0, "fusion_lat": 0.0, "lat": 38.944418666666664, "bike_id": "160a48cae7b6471a928ae0ff64504349", "fusion_lon": 0.0}, {"rental_uris": {"ios": "https://dc.lft.to/lastmile_qr_scan", "android": "https://dc.lft.to/lastmile_qr_scan"}, "type": "electric_scooter", "name": "aaf4d177c06b0f6326fc25f8e47f6ef2", "is_reserved": 0, "lon": -77.00236166666667, "is_disabled": 0, "fusion_lat": 0.0, "lat": 38.94076916666667, "bike_id": "aaf4d177c06b0f6326fc25f8e47f6ef2", "fusion_lon": 0.0}, {"rental_uris": {"ios": "https://dc.lft.to/lastmile_qr_scan", "android": "https://dc.lft.to/lastmile_qr_scan"}, "type": "electric_scooter", "name": "ce4f51022f62294a96d0acc38f0fad49", "is_reserved": 0, "lon": -77.03832783333333, "is_disabled": 0, "fusion_lat": 0.0, "lat": 38.911891, "bike_id": "ce4f51022f62294a96d0acc38f0fad49", "fusion_lon": 0.0}, {"rental_uris": {"ios": "https://dc.lft.to/lastmile_qr_scan", "android": "https://dc.lft.to/lastmile_qr_scan"}, "type": "electric_bike", "name": "086204433f5014376f5c31ab17032067", "is_reserved": 0, "lon": -77.07012966666667, "is_disabled": 0, "fusion_lat": 0.0, "lat": 38.84111516666667, "bike_id": "086204433f5014376f5c31ab17032067", "fusion_lon": 0.0}, {"rental_uris": {"ios": "https://dc.lft.to/lastmile_qr_scan", "android": "https://dc.lft.to/lastmile_qr_scan"}, "type": "electric_scooter", "name": "f1ebdc749b7b0d64bbe443bf8c442cb4", "is_reserved": 0, "lon": -76.9438235, "is_disabled": 0, "fusion_lat": 0.0, "lat": 38.89121133333333, "bike_id": "f1ebdc749b7b0d64bbe443bf8c442cb4", "fusion_lon": 0.0}, {"rental_uris": {"ios": "https://dc.lft.to/lastmile_qr_scan", "android": "https://dc.lft.to/lastmile_qr_scan"}, "type": "electric_scooter", "name": "ee3feb9153352a9cb3b8dff7ddaada29", "is_reserved": 0, "lon": -77.04405316666667, "is_disabled": 0, "fusion_lat": 0.0, "lat": 38.92951566666667, "bike_id": "ee3feb9153352a9cb3b8dff7ddaada29", "fusion_lon": 0.0}, {"rental_uris": {"ios": "https://dc.lft.to/lastmile_qr_scan", "android": "https://dc.lft.to/lastmile_qr_scan"}, "type": "electric_scooter", "name": "e5bf834bd34607e75c75067dc125e945", "is_reserved": 0, "lon": -77.0732825, "is_disabled": 0, "fusion_lat": 0.0, "lat": 38.90771566666667, "bike_id": "e5bf834bd34607e75c75067dc125e945", "fusion_lon": 0.0}, {"rental_uris": {"ios": "https://dc.lft.to/lastmile_qr_scan", "android": "https://dc.lft.to/lastmile_qr_scan"}, "type": "electric_scooter", "name": "4d7398c81ad9530d893664176289c196", "is_reserved": 0, "lon": -77.04326, "is_disabled": 0, "fusion_lat": 0.0, "lat": 38.90880716666667, "bike_id": "4d7398c81ad9530d893664176289c196", "fusion_lon": 0.0}, {"rental_uris": {"ios": "https://dc.lft.to/lastmile_qr_scan", "android": "https://dc.lft.to/lastmile_qr_scan"}, "type": "electric_scooter", "name": "50e303c94777121f95f6794f44e3886e", "is_reserved": 0, "lon": -76.965453, "is_disabled": 0, "fusion_lat": 0.0, "lat": 38.87886816666666, "bike_id": "50e303c94777121f95f6794f44e3886e", "fusion_lon": 0.0}, {"rental_uris": {"ios": "https://dc.lft.to/lastmile_qr_scan", "android": "https://dc.lft.to/lastmile_qr_scan"}, "type": "electric_scooter", "name": "ecd0fa68be6e14d3583b769c90d6e5a5", "is_reserved": 0, "lon": -77.04650966666667, "is_disabled": 0, "fusion_lat": 0.0, "lat": 38.910446666666665, "bike_id": "ecd0fa68be6e14d3583b769c90d6e5a5", "fusion_lon": 0.0}, {"rental_uris": {"ios": "https://dc.lft.to/lastmile_qr_scan", "android": "https://dc.lft.to/lastmile_qr_scan"}, "type": "electric_bike", "name": "23dacfa864572bec64857ab3fd675f65", "is_reserved": 0, "lon": -77.08365916666666, "is_disabled": 0, "fusion_lat": 0.0, "lat": 38.85413666666667, "bike_id": "23dacfa864572bec64857ab3fd675f65", "fusion_lon": 0.0}, {"rental_uris": {"ios": "https://dc.lft.to/lastmile_qr_scan", "android": "https://dc.lft.to/lastmile_qr_scan"}, "type": "electric_scooter", "name": "d25dd61992a2c234ea49d84706a80d28", "is_reserved": 0, "lon": -77.01610816666667, "is_disabled": 0, "fusion_lat": 0.0, "lat": 38.901226, "bike_id": "d25dd61992a2c234ea49d84706a80d28", "fusion_lon": 0.0}, {"rental_uris": {"ios": "https://dc.lft.to/lastmile_qr_scan", "android": "https://dc.lft.to/lastmile_qr_scan"}, "type": "electric_scooter", "name": "61d570e70acbb0060145574b6219644d", "is_reserved": 0, "lon": -77.000441, "is_disabled": 0, "fusion_lat": 0.0, "lat": 38.87621566666667, "bike_id": "61d570e70acbb0060145574b6219644d", "fusion_lon": 0.0}, {"rental_uris": {"ios": "https://dc.lft.to/lastmile_qr_scan", "android": "https://dc.lft.to/lastmile_qr_scan"}, "type": "electric_scooter", "name": "b552cb11cd72cc081e394ef32aacfc6a", "is_reserved": 0, "lon": -77.02405016666667, "is_disabled": 0, "fusion_lat": 0.0, "lat": 38.89236316666667, "bike_id": "b552cb11cd72cc081e394ef32aacfc6a", "fusion_lon": 0.0}, {"rental_uris": {"ios": "https://dc.lft.to/lastmile_qr_scan", "android": "https://dc.lft.to/lastmile_qr_scan"}, "type": "electric_scooter", "name": "5044d4b8d9a28053e086f8ce1b14b6b1", "is_reserved": 0, "lon": -76.99741633333333, "is_disabled": 0, "fusion_lat": 0.0, "lat": 38.920413833333335, "bike_id": "5044d4b8d9a28053e086f8ce1b14b6b1", "fusion_lon": 0.0}, {"rental_uris": {"ios": "https://dc.lft.to/lastmile_qr_scan", "android": "https://dc.lft.to/lastmile_qr_scan"}, "type": "electric_scooter", "name": "433c94270985719da90c1bab3246ce40", "is_reserved": 0, "lon": -77.02149083333333, "is_disabled": 0, "fusion_lat": 0.0, "lat": 38.90297483333333, "bike_id": "433c94270985719da90c1bab3246ce40", "fusion_lon": 0.0}, {"rental_uris": {"ios": "https://dc.lft.to/lastmile_qr_scan", "android": "https://dc.lft.to/lastmile_qr_scan"}, "type": "electric_scooter", "name": "8f921b8f7c19d54325db9c7ce5c9ac4b", "is_reserved": 0, "lon": -77.02956016666667, "is_disabled": 0, "fusion_lat": 0.0, "lat": 38.916963833333334, "bike_id": "8f921b8f7c19d54325db9c7ce5c9ac4b", "fusion_lon": 0.0}, {"rental_uris": {"ios": "https://dc.lft.to/lastmile_qr_scan", "android": "https://dc.lft.to/lastmile_qr_scan"}, "type": "electric_scooter", "name": "4dd2ae6e7b78298495c5da8f292f49d8", "is_reserved": 0, "lon": -77.0145145, "is_disabled": 0, "fusion_lat": 0.0, "lat": 38.926590166666664, "bike_id": "4dd2ae6e7b78298495c5da8f292f49d8", "fusion_lon": 0.0}, {"rental_uris": {"ios": "https://dc.lft.to/lastmile_qr_scan", "android": "https://dc.lft.to/lastmile_qr_scan"}, "type": "electric_scooter", "name": "cbc453ee87d133b818ddf23fb419cda2", "is_reserved": 0, "lon": -77.05025016666667, "is_disabled": 0, "fusion_lat": 0.0, "lat": 38.92355216666667, "bike_id": "cbc453ee87d133b818ddf23fb419cda2", "fusion_lon": 0.0}, {"rental_uris": {"ios": "https://dc.lft.to/lastmile_qr_scan", "android": "https://dc.lft.to/lastmile_qr_scan"}, "type": "electric_scooter", "name": "56ae582197da73faebe2794af828bcc3", "is_reserved": 0, "lon": -77.06259183333333, "is_disabled": 0, "fusion_lat": 0.0, "lat": 38.90520433333333, "bike_id": "56ae582197da73faebe2794af828bcc3", "fusion_lon": 0.0}, {"rental_uris": {"ios": "https://dc.lft.to/lastmile_qr_scan", "android": "https://dc.lft.to/lastmile_qr_scan"}, "type": "electric_scooter", "name": "f0a42054c8826451dba3e0f155199643", "is_reserved": 0, "lon": -77.00046416666666, "is_disabled": 0, "fusion_lat": 0.0, "lat": 38.875033, "bike_id": "f0a42054c8826451dba3e0f155199643", "fusion_lon": 0.0}, {"rental_uris": {"ios": "https://dc.lft.to/lastmile_qr_scan", "android": "https://dc.lft.to/lastmile_qr_scan"}, "type": "electric_scooter", "name": "7ff885732e5d9a4cb9bacf514af65722", "is_reserved": 0, "lon": -77.05875633333333, "is_disabled": 0, "fusion_lat": 0.0, "lat": 38.904386833333334, "bike_id": "7ff885732e5d9a4cb9bacf514af65722", "fusion_lon": 0.0}, {"rental_uris": {"ios": "https://dc.lft.to/lastmile_qr_scan", "android": "https://dc.lft.to/lastmile_qr_scan"}, "type": "electric_scooter", "name": "4a98dabb4d7530320c4cba88439aa2ee", "is_reserved": 0, "lon": -77.060954, "is_disabled": 0, "fusion_lat": 0.0, "lat": 38.902460166666664, "bike_id": "4a98dabb4d7530320c4cba88439aa2ee", "fusion_lon": 0.0}, {"rental_uris": {"ios": "https://dc.lft.to/lastmile_qr_scan", "android": "https://dc.lft.to/lastmile_qr_scan"}, "type": "electric_scooter", "name": "22e4cd684749673592d8f1cfb9828e88", "is_reserved": 0, "lon": -77.03197866666666, "is_disabled": 0, "fusion_lat": 0.0, "lat": 38.90786333333333, "bike_id": "22e4cd684749673592d8f1cfb9828e88", "fusion_lon": 0.0}, {"rental_uris": {"ios": "https://dc.lft.to/lastmile_qr_scan", "android": "https://dc.lft.to/lastmile_qr_scan"}, "type": "electric_scooter", "name": "a9a40ba9f5399cd208a0369d6b24e3fb", "is_reserved": 0, "lon": -77.00930866666667, "is_disabled": 0, "fusion_lat": 0.0, "lat": 38.896314833333335, "bike_id": "a9a40ba9f5399cd208a0369d6b24e3fb", "fusion_lon": 0.0}, {"rental_uris": {"ios": "https://dc.lft.to/lastmile_qr_scan", "android": "https://dc.lft.to/lastmile_qr_scan"}, "type": "electric_scooter", "name": "e23302c11012fe583c35591612f41b56", "is_reserved": 0, "lon": -77.0287155, "is_disabled": 0, "fusion_lat": 0.0, "lat": 38.9036825, "bike_id": "e23302c11012fe583c35591612f41b56", "fusion_lon": 0.0}, {"rental_uris": {"ios": "https://dc.lft.to/lastmile_qr_scan", "android": "https://dc.lft.to/lastmile_qr_scan"}, "type": "electric_scooter", "name": "7f40e6aa277bcdd490fbc34c8f7b67a1", "is_reserved": 0, "lon": -77.01126816666667, "is_disabled": 0, "fusion_lat": 0.0, "lat": 38.9162175, "bike_id": "7f40e6aa277bcdd490fbc34c8f7b67a1", "fusion_lon": 0.0}, {"rental_uris": {"ios": "https://dc.lft.to/lastmile_qr_scan", "android": "https://dc.lft.to/lastmile_qr_scan"}, "type": "electric_scooter", "name": "4281138d8b5c0fc18d464c5b5cd7fb45", "is_reserved": 0, "lon": -77.04345666666667, "is_disabled": 0, "fusion_lat": 0.0, "lat": 38.9105145, "bike_id": "4281138d8b5c0fc18d464c5b5cd7fb45", "fusion_lon": 0.0}, {"rental_uris": {"ios": "https://dc.lft.to/lastmile_qr_scan", "android": "https://dc.lft.to/lastmile_qr_scan"}, "type": "electric_scooter", "name": "593260ad849475ab3cf4e43604fd51ef", "is_reserved": 0, "lon": -77.0294045, "is_disabled": 0, "fusion_lat": 0.0, "lat": 38.915506666666666, "bike_id": "593260ad849475ab3cf4e43604fd51ef", "fusion_lon": 0.0}, {"rental_uris": {"ios": "https://dc.lft.to/lastmile_qr_scan", "android": "https://dc.lft.to/lastmile_qr_scan"}, "type": "electric_scooter", "name": "8df09dd96c06ffbbef764e25eab8a430", "is_reserved": 0, "lon": -77.022001, "is_disabled": 0, "fusion_lat": 0.0, "lat": 38.894074333333336, "bike_id": "8df09dd96c06ffbbef764e25eab8a430", "fusion_lon": 0.0}, {"rental_uris": {"ios": "https://dc.lft.to/lastmile_qr_scan", "android": "https://dc.lft.to/lastmile_qr_scan"}, "type": "electric_scooter", "name": "007aa0fcddb74cd31740a1dd7d99735d", "is_reserved": 0, "lon": -77.01156, "is_disabled": 0, "fusion_lat": 0.0, "lat": 38.95684933333333, "bike_id": "007aa0fcddb74cd31740a1dd7d99735d", "fusion_lon": 0.0}, {"rental_uris": {"ios": "https://dc.lft.to/lastmile_qr_scan", "android": "https://dc.lft.to/lastmile_qr_scan"}, "type": "electric_scooter", "name": "cd8e8d4da9af4a845831f33e6fe1aef8", "is_reserved": 0, "lon": -77.02335366666667, "is_disabled": 0, "fusion_lat": 0.0, "lat": 38.92967516666667, "bike_id": "cd8e8d4da9af4a845831f33e6fe1aef8", "fusion_lon": 0.0}, {"rental_uris": {"ios": "https://dc.lft.to/lastmile_qr_scan", "android": "https://dc.lft.to/lastmile_qr_scan"}, "type": "electric_scooter", "name": "89e5c2440b9a1bbd915db39f07101085", "is_reserved": 0, "lon": -76.94196783333334, "is_disabled": 0, "fusion_lat": 0.0, "lat": 38.902246166666664, "bike_id": "89e5c2440b9a1bbd915db39f07101085", "fusion_lon": 0.0}, {"rental_uris": {"ios": "https://dc.lft.to/lastmile_qr_scan", "android": "https://dc.lft.to/lastmile_qr_scan"}, "type": "electric_scooter", "name": "809e14d76bcedadc62b33e9b929bbca6", "is_reserved": 0, "lon": -77.02147333333333, "is_disabled": 0, "fusion_lat": 0.0, "lat": 38.90305133333333, "bike_id": "809e14d76bcedadc62b33e9b929bbca6", "fusion_lon": 0.0}, {"rental_uris": {"ios": "https://dc.lft.to/lastmile_qr_scan", "android": "https://dc.lft.to/lastmile_qr_scan"}, "type": "electric_scooter", "name": "04ee92ba3f66b97a890240df0fcf153c", "is_reserved": 0, "lon": -77.0755815, "is_disabled": 0, "fusion_lat": 0.0, "lat": 38.92081666666667, "bike_id": "04ee92ba3f66b97a890240df0fcf153c", "fusion_lon": 0.0}, {"rental_uris": {"ios": "https://dc.lft.to/lastmile_qr_scan", "android": "https://dc.lft.to/lastmile_qr_scan"}, "type": "electric_scooter", "name": "e179f8fbe56e12f9db954cbd479c7e42", "is_reserved": 0, "lon": -77.03186783333334, "is_disabled": 0, "fusion_lat": 0.0, "lat": 38.9171425, "bike_id": "e179f8fbe56e12f9db954cbd479c7e42", "fusion_lon": 0.0}, {"rental_uris": {"ios": "https://dc.lft.to/lastmile_qr_scan", "android": "https://dc.lft.to/lastmile_qr_scan"}, "type": "electric_scooter", "name": "9826038e67382c52a5f470b203c3ecca", "is_reserved": 0, "lon": -77.03267566666666, "is_disabled": 0, "fusion_lat": 0.0, "lat": 38.905633, "bike_id": "9826038e67382c52a5f470b203c3ecca", "fusion_lon": 0.0}, {"rental_uris": {"ios": "https://dc.lft.to/lastmile_qr_scan", "android": "https://dc.lft.to/lastmile_qr_scan"}, "type": "electric_scooter", "name": "191f15628b13a1a8549bcb1f52ca6c6b", "is_reserved": 0, "lon": -77.02128616666667, "is_disabled": 0, "fusion_lat": 0.0, "lat": 38.92412516666667, "bike_id": "191f15628b13a1a8549bcb1f52ca6c6b", "fusion_lon": 0.0}, {"rental_uris": {"ios": "https://dc.lft.to/lastmile_qr_scan", "android": "https://dc.lft.to/lastmile_qr_scan"}, "type": "electric_scooter", "name": "1796e548aedae01b9bbce1de96ab2746", "is_reserved": 0, "lon": -77.00198166666667, "is_disabled": 0, "fusion_lat": 0.0, "lat": 38.9024045, "bike_id": "1796e548aedae01b9bbce1de96ab2746", "fusion_lon": 0.0}, {"rental_uris": {"ios": "https://dc.lft.to/lastmile_qr_scan", "android": "https://dc.lft.to/lastmile_qr_scan"}, "type": "electric_scooter", "name": "eb1cae4f9f7fb07ab3c9ecec62700189", "is_reserved": 0, "lon": -76.99468683333333, "is_disabled": 0, "fusion_lat": 0.0, "lat": 38.90555, "bike_id": "eb1cae4f9f7fb07ab3c9ecec62700189", "fusion_lon": 0.0}, {"rental_uris": {"ios": "https://dc.lft.to/lastmile_qr_scan", "android": "https://dc.lft.to/lastmile_qr_scan"}, "type": "electric_scooter", "name": "711c6412fe1caba5dffb9b6f16fc35de", "is_reserved": 0, "lon": -77.06001683333334, "is_disabled": 0, "fusion_lat": 0.0, "lat": 38.9039745, "bike_id": "711c6412fe1caba5dffb9b6f16fc35de", "fusion_lon": 0.0}, {"rental_uris": {"ios": "https://dc.lft.to/lastmile_qr_scan", "android": "https://dc.lft.to/lastmile_qr_scan"}, "type": "electric_scooter", "name": "42f4d2ffb523944abe0c37c6ee126979", "is_reserved": 0, "lon": -77.03094366666667, "is_disabled": 0, "fusion_lat": 0.0, "lat": 38.9467535, "bike_id": "42f4d2ffb523944abe0c37c6ee126979", "fusion_lon": 0.0}, {"rental_uris": {"ios": "https://dc.lft.to/lastmile_qr_scan", "android": "https://dc.lft.to/lastmile_qr_scan"}, "type": "electric_scooter", "name": "055ebe206b7eb0b81e963b49b4246ce8", "is_reserved": 0, "lon": -77.0186375, "is_disabled": 0, "fusion_lat": 0.0, "lat": 38.951526666666666, "bike_id": "055ebe206b7eb0b81e963b49b4246ce8", "fusion_lon": 0.0}, {"rental_uris": {"ios": "https://dc.lft.to/lastmile_qr_scan", "android": "https://dc.lft.to/lastmile_qr_scan"}, "type": "electric_scooter", "name": "400fd34268b5a4e39021c0de41068688", "is_reserved": 0, "lon": -77.0628055, "is_disabled": 0, "fusion_lat": 0.0, "lat": 38.90503266666666, "bike_id": "400fd34268b5a4e39021c0de41068688", "fusion_lon": 0.0}, {"rental_uris": {"ios": "https://dc.lft.to/lastmile_qr_scan", "android": "https://dc.lft.to/lastmile_qr_scan"}, "type": "electric_scooter", "name": "03cc7eecd9722455b75974acba147d81", "is_reserved": 0, "lon": -77.0312575, "is_disabled": 0, "fusion_lat": 0.0, "lat": 38.9296605, "bike_id": "03cc7eecd9722455b75974acba147d81", "fusion_lon": 0.0}, {"rental_uris": {"ios": "https://dc.lft.to/lastmile_qr_scan", "android": "https://dc.lft.to/lastmile_qr_scan"}, "type": "electric_scooter", "name": "4062cf8bb13e20a5040d70e1269bc632", "is_reserved": 0, "lon": -76.98310083333334, "is_disabled": 0, "fusion_lat": 0.0, "lat": 38.925888666666665, "bike_id": "4062cf8bb13e20a5040d70e1269bc632", "fusion_lon": 0.0}, {"rental_uris": {"ios": "https://dc.lft.to/lastmile_qr_scan", "android": "https://dc.lft.to/lastmile_qr_scan"}, "type": "electric_bike", "name": "b075cf2871c92cc2fa4ce333f8a478df", "is_reserved": 0, "lon": -76.90734483333334, "is_disabled": 0, "fusion_lat": 0.0, "lat": 38.89616783333334, "bike_id": "b075cf2871c92cc2fa4ce333f8a478df", "fusion_lon": 0.0}, {"rental_uris": {"ios": "https://dc.lft.to/lastmile_qr_scan", "android": "https://dc.lft.to/lastmile_qr_scan"}, "type": "electric_scooter", "name": "5dbc645a172eb819d177834db6dcc1de", "is_reserved": 0, "lon": -77.05332266666667, "is_disabled": 0, "fusion_lat": 0.0, "lat": 38.90257416666667, "bike_id": "5dbc645a172eb819d177834db6dcc1de", "fusion_lon": 0.0}, {"rental_uris": {"ios": "https://dc.lft.to/lastmile_qr_scan", "android": "https://dc.lft.to/lastmile_qr_scan"}, "type": "electric_scooter", "name": "32a96bab5de9cf9d0a7c97dace55585a", "is_reserved": 0, "lon": -77.05619133333333, "is_disabled": 0, "fusion_lat": 0.0, "lat": 38.9068375, "bike_id": "32a96bab5de9cf9d0a7c97dace55585a", "fusion_lon": 0.0}, {"rental_uris": {"ios": "https://dc.lft.to/lastmile_qr_scan", "android": "https://dc.lft.to/lastmile_qr_scan"}, "type": "electric_scooter", "name": "d8f93a1c094482441a1b0bdb43bba66d", "is_reserved": 0, "lon": -77.02397266666667, "is_disabled": 0, "fusion_lat": 0.0, "lat": 38.906735833333336, "bike_id": "d8f93a1c094482441a1b0bdb43bba66d", "fusion_lon": 0.0}, {"rental_uris": {"ios": "https://dc.lft.to/lastmile_qr_scan", "android": "https://dc.lft.to/lastmile_qr_scan"}, "type": "electric_scooter", "name": "ecd42cec183ed56d008b63580d18df58", "is_reserved": 0, "lon": -76.99610266666667, "is_disabled": 0, "fusion_lat": 0.0, "lat": 38.88517483333333, "bike_id": "ecd42cec183ed56d008b63580d18df58", "fusion_lon": 0.0}, {"rental_uris": {"ios": "https://dc.lft.to/lastmile_qr_scan", "android": "https://dc.lft.to/lastmile_qr_scan"}, "type": "electric_scooter", "name": "8f9fe7eb54173f8282eca18e1e9ef17c", "is_reserved": 0, "lon": -77.03864233333333, "is_disabled": 0, "fusion_lat": 0.0, "lat": 38.901350666666666, "bike_id": "8f9fe7eb54173f8282eca18e1e9ef17c", "fusion_lon": 0.0}, {"rental_uris": {"ios": "https://dc.lft.to/lastmile_qr_scan", "android": "https://dc.lft.to/lastmile_qr_scan"}, "type": "electric_scooter", "name": "44642627d8436f5e140f3e40e15b57a0", "is_reserved": 0, "lon": -76.99230116666666, "is_disabled": 0, "fusion_lat": 0.0, "lat": 38.88750233333333, "bike_id": "44642627d8436f5e140f3e40e15b57a0", "fusion_lon": 0.0}, {"rental_uris": {"ios": "https://dc.lft.to/lastmile_qr_scan", "android": "https://dc.lft.to/lastmile_qr_scan"}, "type": "electric_scooter", "name": "fda3352a40f9c268cf4a0894b6d1c480", "is_reserved": 0, "lon": -77.039919, "is_disabled": 0, "fusion_lat": 0.0, "lat": 38.9028945, "bike_id": "fda3352a40f9c268cf4a0894b6d1c480", "fusion_lon": 0.0}, {"rental_uris": {"ios": "https://dc.lft.to/lastmile_qr_scan", "android": "https://dc.lft.to/lastmile_qr_scan"}, "type": "electric_scooter", "name": "ffc65de7122e1ddaefb41b09812c7df3", "is_reserved": 0, "lon": -77.0082825, "is_disabled": 0, "fusion_lat": 0.0, "lat": 38.91366633333333, "bike_id": "ffc65de7122e1ddaefb41b09812c7df3", "fusion_lon": 0.0}, {"rental_uris": {"ios": "https://dc.lft.to/lastmile_qr_scan", "android": "https://dc.lft.to/lastmile_qr_scan"}, "type": "electric_scooter", "name": "e45a3ce0a9496b8be3135b777425c369", "is_reserved": 0, "lon": -77.04058266666667, "is_disabled": 0, "fusion_lat": 0.0, "lat": 38.90395933333333, "bike_id": "e45a3ce0a9496b8be3135b777425c369", "fusion_lon": 0.0}, {"rental_uris": {"ios": "https://dc.lft.to/lastmile_qr_scan", "android": "https://dc.lft.to/lastmile_qr_scan"}, "type": "electric_scooter", "name": "43dc9e429d7f282ce15a7b861efa0f43", "is_reserved": 0, "lon": -76.98771183333334, "is_disabled": 0, "fusion_lat": 0.0, "lat": 38.91196466666667, "bike_id": "43dc9e429d7f282ce15a7b861efa0f43", "fusion_lon": 0.0}, {"rental_uris": {"ios": "https://dc.lft.to/lastmile_qr_scan", "android": "https://dc.lft.to/lastmile_qr_scan"}, "type": "electric_scooter", "name": "297b99cb1fa4d19ed9fa655ab43cd86c", "is_reserved": 0, "lon": -77.0217845, "is_disabled": 0, "fusion_lat": 0.0, "lat": 38.903533, "bike_id": "297b99cb1fa4d19ed9fa655ab43cd86c", "fusion_lon": 0.0}, {"rental_uris": {"ios": "https://dc.lft.to/lastmile_qr_scan", "android": "https://dc.lft.to/lastmile_qr_scan"}, "type": "electric_scooter", "name": "1356e9529e8400050958d905b784aede", "is_reserved": 0, "lon": -77.0475805, "is_disabled": 0, "fusion_lat": 0.0, "lat": 38.94095466666667, "bike_id": "1356e9529e8400050958d905b784aede", "fusion_lon": 0.0}, {"rental_uris": {"ios": "https://dc.lft.to/lastmile_qr_scan", "android": "https://dc.lft.to/lastmile_qr_scan"}, "type": "electric_scooter", "name": "3ef8b7e883f73611ac511190234102a0", "is_reserved": 0, "lon": -77.03064866666666, "is_disabled": 0, "fusion_lat": 0.0, "lat": 38.924682, "bike_id": "3ef8b7e883f73611ac511190234102a0", "fusion_lon": 0.0}, {"rental_uris": {"ios": "https://dc.lft.to/lastmile_qr_scan", "android": "https://dc.lft.to/lastmile_qr_scan"}, "type": "electric_bike", "name": "3f6ab492a4ae1ba835d896b41034783a", "is_reserved": 0, "lon": -77.0227035, "is_disabled": 0, "fusion_lat": 0.0, "lat": 38.923375166666666, "bike_id": "3f6ab492a4ae1ba835d896b41034783a", "fusion_lon": 0.0}, {"rental_uris": {"ios": "https://dc.lft.to/lastmile_qr_scan", "android": "https://dc.lft.to/lastmile_qr_scan"}, "type": "electric_bike", "name": "76efd7a031d985993268853157a906a3", "is_reserved": 0, "lon": -77.112835, "is_disabled": 0, "fusion_lat": 0.0, "lat": 38.83104216666667, "bike_id": "76efd7a031d985993268853157a906a3", "fusion_lon": 0.0}, {"rental_uris": {"ios": "https://dc.lft.to/lastmile_qr_scan", "android": "https://dc.lft.to/lastmile_qr_scan"}, "type": "electric_scooter", "name": "6b4aa4a9678aa8a24263aab3866647b2", "is_reserved": 0, "lon": -77.0243585, "is_disabled": 0, "fusion_lat": 0.0, "lat": 38.916945166666665, "bike_id": "6b4aa4a9678aa8a24263aab3866647b2", "fusion_lon": 0.0}, {"rental_uris": {"ios": "https://dc.lft.to/lastmile_qr_scan", "android": "https://dc.lft.to/lastmile_qr_scan"}, "type": "electric_scooter", "name": "6cf38013559ce3d9d6fb1855269be9d6", "is_reserved": 0, "lon": -76.9862125, "is_disabled": 0, "fusion_lat": 0.0, "lat": 38.9058755, "bike_id": "6cf38013559ce3d9d6fb1855269be9d6", "fusion_lon": 0.0}, {"rental_uris": {"ios": "https://dc.lft.to/lastmile_qr_scan", "android": "https://dc.lft.to/lastmile_qr_scan"}, "type": "electric_scooter", "name": "1f794de1d001fb4dab094bac2f269a50", "is_reserved": 0, "lon": -77.08781633333334, "is_disabled": 0, "fusion_lat": 0.0, "lat": 38.9355915, "bike_id": "1f794de1d001fb4dab094bac2f269a50", "fusion_lon": 0.0}, {"rental_uris": {"ios": "https://dc.lft.to/lastmile_qr_scan", "android": "https://dc.lft.to/lastmile_qr_scan"}, "type": "electric_scooter", "name": "f3e0923cdb7415e79a5b2c1c51ab0423", "is_reserved": 0, "lon": -77.00194783333333, "is_disabled": 0, "fusion_lat": 0.0, "lat": 38.91635016666667, "bike_id": "f3e0923cdb7415e79a5b2c1c51ab0423", "fusion_lon": 0.0}, {"rental_uris": {"ios": "https://dc.lft.to/lastmile_qr_scan", "android": "https://dc.lft.to/lastmile_qr_scan"}, "type": "electric_scooter", "name": "cea87a236ec3bd8f90f801dcf5bcee0f", "is_reserved": 0, "lon": -77.063221, "is_disabled": 0, "fusion_lat": 0.0, "lat": 38.91337633333333, "bike_id": "cea87a236ec3bd8f90f801dcf5bcee0f", "fusion_lon": 0.0}, {"rental_uris": {"ios": "https://dc.lft.to/lastmile_qr_scan", "android": "https://dc.lft.to/lastmile_qr_scan"}, "type": "electric_scooter", "name": "ea09f12294b37bd9a7d79a9c7cd35315", "is_reserved": 0, "lon": -77.02427866666666, "is_disabled": 0, "fusion_lat": 0.0, "lat": 38.916426, "bike_id": "ea09f12294b37bd9a7d79a9c7cd35315", "fusion_lon": 0.0}, {"rental_uris": {"ios": "https://dc.lft.to/lastmile_qr_scan", "android": "https://dc.lft.to/lastmile_qr_scan"}, "type": "electric_scooter", "name": "0d87ed75d2bc8abe3b04056eb7c67c81", "is_reserved": 0, "lon": -77.045061, "is_disabled": 0, "fusion_lat": 0.0, "lat": 38.89999483333333, "bike_id": "0d87ed75d2bc8abe3b04056eb7c67c81", "fusion_lon": 0.0}, {"rental_uris": {"ios": "https://dc.lft.to/lastmile_qr_scan", "android": "https://dc.lft.to/lastmile_qr_scan"}, "type": "electric_scooter", "name": "e58b15913a5f83b17fe7d42f0bda2f0d", "is_reserved": 0, "lon": -77.04376866666667, "is_disabled": 0, "fusion_lat": 0.0, "lat": 38.916492, "bike_id": "e58b15913a5f83b17fe7d42f0bda2f0d", "fusion_lon": 0.0}, {"rental_uris": {"ios": "https://dc.lft.to/lastmile_qr_scan", "android": "https://dc.lft.to/lastmile_qr_scan"}, "type": "electric_scooter", "name": "583d964e3c831873c385bec2ba07cc4d", "is_reserved": 0, "lon": -77.01769283333333, "is_disabled": 0, "fusion_lat": 0.0, "lat": 38.887289, "bike_id": "583d964e3c831873c385bec2ba07cc4d", "fusion_lon": 0.0}, {"rental_uris": {"ios": "https://dc.lft.to/lastmile_qr_scan", "android": "https://dc.lft.to/lastmile_qr_scan"}, "type": "electric_bike", "name": "5d1e93d84adb2bb4ec55df1f504d6619", "is_reserved": 0, "lon": -76.9497315, "is_disabled": 0, "fusion_lat": 0.0, "lat": 38.882990666666664, "bike_id": "5d1e93d84adb2bb4ec55df1f504d6619", "fusion_lon": 0.0}, {"rental_uris": {"ios": "https://dc.lft.to/lastmile_qr_scan", "android": "https://dc.lft.to/lastmile_qr_scan"}, "type": "electric_scooter", "name": "6d0e9177da78ca8284a5793937dd4551", "is_reserved": 0, "lon": -77.03262183333334, "is_disabled": 0, "fusion_lat": 0.0, "lat": 38.92985916666667, "bike_id": "6d0e9177da78ca8284a5793937dd4551", "fusion_lon": 0.0}, {"rental_uris": {"ios": "https://dc.lft.to/lastmile_qr_scan", "android": "https://dc.lft.to/lastmile_qr_scan"}, "type": "electric_scooter", "name": "b23c37f9e2ff25e7b36fc5a0fd0daa77", "is_reserved": 0, "lon": -77.058185, "is_disabled": 0, "fusion_lat": 0.0, "lat": 38.91180966666667, "bike_id": "b23c37f9e2ff25e7b36fc5a0fd0daa77", "fusion_lon": 0.0}, {"rental_uris": {"ios": "https://dc.lft.to/lastmile_qr_scan", "android": "https://dc.lft.to/lastmile_qr_scan"}, "type": "electric_scooter", "name": "3ce020ed1f3cd56a6c46147c542eabb6", "is_reserved": 0, "lon": -77.02083966666666, "is_disabled": 0, "fusion_lat": 0.0, "lat": 38.926941, "bike_id": "3ce020ed1f3cd56a6c46147c542eabb6", "fusion_lon": 0.0}, {"rental_uris": {"ios": "https://dc.lft.to/lastmile_qr_scan", "android": "https://dc.lft.to/lastmile_qr_scan"}, "type": "electric_scooter", "name": "1ca0fef868ed3a9578416f9f82374431", "is_reserved": 0, "lon": -77.00023033333333, "is_disabled": 0, "fusion_lat": 0.0, "lat": 38.873905, "bike_id": "1ca0fef868ed3a9578416f9f82374431", "fusion_lon": 0.0}, {"rental_uris": {"ios": "https://dc.lft.to/lastmile_qr_scan", "android": "https://dc.lft.to/lastmile_qr_scan"}, "type": "electric_scooter", "name": "ba8a1c1e9ebb494059168ca5c05c75d1", "is_reserved": 0, "lon": -77.0254605, "is_disabled": 0, "fusion_lat": 0.0, "lat": 38.91708033333333, "bike_id": "ba8a1c1e9ebb494059168ca5c05c75d1", "fusion_lon": 0.0}, {"rental_uris": {"ios": "https://dc.lft.to/lastmile_qr_scan", "android": "https://dc.lft.to/lastmile_qr_scan"}, "type": "electric_scooter", "name": "e25c1f3e5806ff3d6843ed0c2135489b", "is_reserved": 0, "lon": -77.06118233333333, "is_disabled": 0, "fusion_lat": 0.0, "lat": 38.90497383333334, "bike_id": "e25c1f3e5806ff3d6843ed0c2135489b", "fusion_lon": 0.0}, {"rental_uris": {"ios": "https://dc.lft.to/lastmile_qr_scan", "android": "https://dc.lft.to/lastmile_qr_scan"}, "type": "electric_scooter", "name": "7d72b73835cde32f522af9e635741043", "is_reserved": 0, "lon": -77.02835033333334, "is_disabled": 0, "fusion_lat": 0.0, "lat": 38.886247, "bike_id": "7d72b73835cde32f522af9e635741043", "fusion_lon": 0.0}, {"rental_uris": {"ios": "https://dc.lft.to/lastmile_qr_scan", "android": "https://dc.lft.to/lastmile_qr_scan"}, "type": "electric_scooter", "name": "91d4cb800a89f15fe12195bd673bc0c8", "is_reserved": 0, "lon": -76.97653066666666, "is_disabled": 0, "fusion_lat": 0.0, "lat": 38.903616166666666, "bike_id": "91d4cb800a89f15fe12195bd673bc0c8", "fusion_lon": 0.0}, {"rental_uris": {"ios": "https://dc.lft.to/lastmile_qr_scan", "android": "https://dc.lft.to/lastmile_qr_scan"}, "type": "electric_scooter", "name": "7ce1ff4eca23bf12dacea2c69a3898af", "is_reserved": 0, "lon": -77.04094233333333, "is_disabled": 0, "fusion_lat": 0.0, "lat": 38.9207025, "bike_id": "7ce1ff4eca23bf12dacea2c69a3898af", "fusion_lon": 0.0}, {"rental_uris": {"ios": "https://dc.lft.to/lastmile_qr_scan", "android": "https://dc.lft.to/lastmile_qr_scan"}, "type": "electric_scooter", "name": "45d1cb81d83744465f715ff8f062553c", "is_reserved": 0, "lon": -77.04675483333334, "is_disabled": 0, "fusion_lat": 0.0, "lat": 38.89227533333333, "bike_id": "45d1cb81d83744465f715ff8f062553c", "fusion_lon": 0.0}, {"rental_uris": {"ios": "https://dc.lft.to/lastmile_qr_scan", "android": "https://dc.lft.to/lastmile_qr_scan"}, "type": "electric_scooter", "name": "fa00a00434097e973e9ab9be38cde14a", "is_reserved": 0, "lon": -77.03469716666666, "is_disabled": 0, "fusion_lat": 0.0, "lat": 38.9169785, "bike_id": "fa00a00434097e973e9ab9be38cde14a", "fusion_lon": 0.0}, {"rental_uris": {"ios": "https://dc.lft.to/lastmile_qr_scan", "android": "https://dc.lft.to/lastmile_qr_scan"}, "type": "electric_scooter", "name": "c4a1c4899974d974dd961c991ff7a760", "is_reserved": 0, "lon": -77.0386905, "is_disabled": 0, "fusion_lat": 0.0, "lat": 38.91256666666666, "bike_id": "c4a1c4899974d974dd961c991ff7a760", "fusion_lon": 0.0}, {"rental_uris": {"ios": "https://dc.lft.to/lastmile_qr_scan", "android": "https://dc.lft.to/lastmile_qr_scan"}, "type": "electric_scooter", "name": "d80600d8f1625f1b413325b3531d787b", "is_reserved": 0, "lon": -77.000517, "is_disabled": 0, "fusion_lat": 0.0, "lat": 38.8738165, "bike_id": "d80600d8f1625f1b413325b3531d787b", "fusion_lon": 0.0}, {"rental_uris": {"ios": "https://dc.lft.to/lastmile_qr_scan", "android": "https://dc.lft.to/lastmile_qr_scan"}, "type": "electric_scooter", "name": "89738a9969d0b127ce7a76ba12467426", "is_reserved": 0, "lon": -77.04785766666667, "is_disabled": 0, "fusion_lat": 0.0, "lat": 38.897818, "bike_id": "89738a9969d0b127ce7a76ba12467426", "fusion_lon": 0.0}, {"rental_uris": {"ios": "https://dc.lft.to/lastmile_qr_scan", "android": "https://dc.lft.to/lastmile_qr_scan"}, "type": "electric_scooter", "name": "23e44a04b07117652d29e3137f5ae2e9", "is_reserved": 0, "lon": -77.03065433333333, "is_disabled": 0, "fusion_lat": 0.0, "lat": 38.90566233333333, "bike_id": "23e44a04b07117652d29e3137f5ae2e9", "fusion_lon": 0.0}, {"rental_uris": {"ios": "https://dc.lft.to/lastmile_qr_scan", "android": "https://dc.lft.to/lastmile_qr_scan"}, "type": "electric_bike", "name": "406f743bc2966952f8ad2e6f4f93d1b8", "is_reserved": 0, "lon": -76.93665366666667, "is_disabled": 0, "fusion_lat": 0.0, "lat": 38.894557, "bike_id": "406f743bc2966952f8ad2e6f4f93d1b8", "fusion_lon": 0.0}, {"rental_uris": {"ios": "https://dc.lft.to/lastmile_qr_scan", "android": "https://dc.lft.to/lastmile_qr_scan"}, "type": "electric_scooter", "name": "33acf724ca60d3b7c0f9beccc3dc67e9", "is_reserved": 0, "lon": -77.01615783333334, "is_disabled": 0, "fusion_lat": 0.0, "lat": 38.884985, "bike_id": "33acf724ca60d3b7c0f9beccc3dc67e9", "fusion_lon": 0.0}, {"rental_uris": {"ios": "https://dc.lft.to/lastmile_qr_scan", "android": "https://dc.lft.to/lastmile_qr_scan"}, "type": "electric_scooter", "name": "ec23c83283d176ad9659570891c200d4", "is_reserved": 0, "lon": -77.0220565, "is_disabled": 0, "fusion_lat": 0.0, "lat": 38.92473, "bike_id": "ec23c83283d176ad9659570891c200d4", "fusion_lon": 0.0}, {"rental_uris": {"ios": "https://dc.lft.to/lastmile_qr_scan", "android": "https://dc.lft.to/lastmile_qr_scan"}, "type": "electric_scooter", "name": "139c427e12a5af5192611f48998fb68b", "is_reserved": 0, "lon": -77.0324645, "is_disabled": 0, "fusion_lat": 0.0, "lat": 38.892306833333336, "bike_id": "139c427e12a5af5192611f48998fb68b", "fusion_lon": 0.0}, {"rental_uris": {"ios": "https://dc.lft.to/lastmile_qr_scan", "android": "https://dc.lft.to/lastmile_qr_scan"}, "type": "electric_scooter", "name": "61f3d54889112fa1e1cb5e258c5544b0", "is_reserved": 0, "lon": -76.98373016666666, "is_disabled": 0, "fusion_lat": 0.0, "lat": 38.86031116666667, "bike_id": "61f3d54889112fa1e1cb5e258c5544b0", "fusion_lon": 0.0}, {"rental_uris": {"ios": "https://dc.lft.to/lastmile_qr_scan", "android": "https://dc.lft.to/lastmile_qr_scan"}, "type": "electric_scooter", "name": "faa4b65e9d108b9583dd67dfc907d8da", "is_reserved": 0, "lon": -77.00050233333333, "is_disabled": 0, "fusion_lat": 0.0, "lat": 38.8738815, "bike_id": "faa4b65e9d108b9583dd67dfc907d8da", "fusion_lon": 0.0}, {"rental_uris": {"ios": "https://dc.lft.to/lastmile_qr_scan", "android": "https://dc.lft.to/lastmile_qr_scan"}, "type": "electric_scooter", "name": "38bec44ddbfcb496683522e2b40baee7", "is_reserved": 0, "lon": -77.03472316666667, "is_disabled": 0, "fusion_lat": 0.0, "lat": 38.90730683333334, "bike_id": "38bec44ddbfcb496683522e2b40baee7", "fusion_lon": 0.0}, {"rental_uris": {"ios": "https://dc.lft.to/lastmile_qr_scan", "android": "https://dc.lft.to/lastmile_qr_scan"}, "type": "electric_scooter", "name": "07a24614a7d63c2111bd66f311c73407", "is_reserved": 0, "lon": -77.038402, "is_disabled": 0, "fusion_lat": 0.0, "lat": 38.912256, "bike_id": "07a24614a7d63c2111bd66f311c73407", "fusion_lon": 0.0}, {"rental_uris": {"ios": "https://dc.lft.to/lastmile_qr_scan", "android": "https://dc.lft.to/lastmile_qr_scan"}, "type": "electric_scooter", "name": "49e97849110770d26a195f9412ec636e", "is_reserved": 0, "lon": -76.9962665, "is_disabled": 0, "fusion_lat": 0.0, "lat": 38.877372666666666, "bike_id": "49e97849110770d26a195f9412ec636e", "fusion_lon": 0.0}, {"rental_uris": {"ios": "https://dc.lft.to/lastmile_qr_scan", "android": "https://dc.lft.to/lastmile_qr_scan"}, "type": "electric_scooter", "name": "ace2a3f6565c3ea0384fd46db0c7dd0d", "is_reserved": 0, "lon": -77.00052216666667, "is_disabled": 0, "fusion_lat": 0.0, "lat": 38.87494916666667, "bike_id": "ace2a3f6565c3ea0384fd46db0c7dd0d", "fusion_lon": 0.0}, {"rental_uris": {"ios": "https://dc.lft.to/lastmile_qr_scan", "android": "https://dc.lft.to/lastmile_qr_scan"}, "type": "electric_scooter", "name": "2cdc566b0265742ca263784221fb61ee", "is_reserved": 0, "lon": -77.03800933333333, "is_disabled": 0, "fusion_lat": 0.0, "lat": 38.9103615, "bike_id": "2cdc566b0265742ca263784221fb61ee", "fusion_lon": 0.0}, {"rental_uris": {"ios": "https://dc.lft.to/lastmile_qr_scan", "android": "https://dc.lft.to/lastmile_qr_scan"}, "type": "electric_bike", "name": "7e42e9b42e84d90525e740e28564d5c2", "is_reserved": 0, "lon": -76.93329916666667, "is_disabled": 0, "fusion_lat": 0.0, "lat": 38.95153, "bike_id": "7e42e9b42e84d90525e740e28564d5c2", "fusion_lon": 0.0}, {"rental_uris": {"ios": "https://dc.lft.to/lastmile_qr_scan", "android": "https://dc.lft.to/lastmile_qr_scan"}, "type": "electric_scooter", "name": "ec75f06d45e5fc097625c84f638d1da7", "is_reserved": 0, "lon": -76.9836005, "is_disabled": 0, "fusion_lat": 0.0, "lat": 38.88741366666667, "bike_id": "ec75f06d45e5fc097625c84f638d1da7", "fusion_lon": 0.0}, {"rental_uris": {"ios": "https://dc.lft.to/lastmile_qr_scan", "android": "https://dc.lft.to/lastmile_qr_scan"}, "type": "electric_scooter", "name": "f183919c625d3383b0476dc55bb39572", "is_reserved": 0, "lon": -77.02621216666667, "is_disabled": 0, "fusion_lat": 0.0, "lat": 38.897533833333334, "bike_id": "f183919c625d3383b0476dc55bb39572", "fusion_lon": 0.0}, {"rental_uris": {"ios": "https://dc.lft.to/lastmile_qr_scan", "android": "https://dc.lft.to/lastmile_qr_scan"}, "type": "electric_scooter", "name": "351573efb65d9a9f91d9ff6db9597c55", "is_reserved": 0, "lon": -77.01990933333333, "is_disabled": 0, "fusion_lat": 0.0, "lat": 38.899267333333334, "bike_id": "351573efb65d9a9f91d9ff6db9597c55", "fusion_lon": 0.0}, {"rental_uris": {"ios": "https://dc.lft.to/lastmile_qr_scan", "android": "https://dc.lft.to/lastmile_qr_scan"}, "type": "electric_scooter", "name": "eafdbcca3737cb1e0279f6341db488d4", "is_reserved": 0, "lon": -77.02093883333333, "is_disabled": 0, "fusion_lat": 0.0, "lat": 38.92709383333333, "bike_id": "eafdbcca3737cb1e0279f6341db488d4", "fusion_lon": 0.0}, {"rental_uris": {"ios": "https://dc.lft.to/lastmile_qr_scan", "android": "https://dc.lft.to/lastmile_qr_scan"}, "type": "electric_bike", "name": "ccb37155e88fceb65e2f4157d2e88531", "is_reserved": 0, "lon": -77.07951033333333, "is_disabled": 0, "fusion_lat": 0.0, "lat": 38.84905283333333, "bike_id": "ccb37155e88fceb65e2f4157d2e88531", "fusion_lon": 0.0}, {"rental_uris": {"ios": "https://dc.lft.to/lastmile_qr_scan", "android": "https://dc.lft.to/lastmile_qr_scan"}, "type": "electric_scooter", "name": "39dcfa11bc70b6908448577a4b5564f1", "is_reserved": 0, "lon": -77.04161866666666, "is_disabled": 0, "fusion_lat": 0.0, "lat": 38.90755866666667, "bike_id": "39dcfa11bc70b6908448577a4b5564f1", "fusion_lon": 0.0}, {"rental_uris": {"ios": "https://dc.lft.to/lastmile_qr_scan", "android": "https://dc.lft.to/lastmile_qr_scan"},