{"data": {"bikes": [{"rental_uris": {"android": "https://dc.lft.to/lastmile_qr_scan", "ios": "https://dc.lft.to/lastmile_qr_scan"}, "type": "electric_scooter", "lon": -77.02422616666666, "name": "70dfe7679b698eab28930296c100493d", "bike_id": "70dfe7679b698eab28930296c100493d", "fusion_lat": 0.0, "is_reserved": 0, "lat": 38.8922955, "fusion_lon": 0.0, "is_disabled": 0}, {"rental_uris": {"android": "https://dc.lft.to/lastmile_qr_scan", "ios": "https://dc.lft.to/lastmile_qr_scan"}, "type": "electric_bike", "lon": -77.17799233333334, "name": "34c8c540a016b0364c7bb7dadd4d3dab", "bike_id": "34c8c540a016b0364c7bb7dadd4d3dab", "fusion_lat": 0.0, "is_reserved": 0, "lat": 39.088441833333334, "fusion_lon": 0.0, "is_disabled": 0}, {"rental_uris": {"android": "https://dc.lft.to/lastmile_qr_scan", "ios": "https://dc.lft.to/lastmile_qr_scan"}, "type": "electric_scooter", "lon": -77.02032383333334, "name": "c7c83c7e89bdfda9d7c6f1aa00ef2f71", "bike_id": "c7c83c7e89bdfda9d7c6f1aa00ef2f71", "fusion_lat": 0.0, "is_reserved": 0, "lat": 38.89273816666667, "fusion_lon": 0.0, "is_disabled": 0}, {"rental_uris": {"android": "https://dc.lft.to/lastmile_qr_scan", "ios": "https://dc.lft.to/lastmile_qr_scan"}, "type": "electric_scooter", "lon": -76.97032133333333, "name": "b8d425ba3ddad411640bdb1b23a6ef41", "bike_id": "b8d425ba3ddad411640bdb1b23a6ef41", "fusion_lat": 0.0, "is_reserved": 0, "lat": 38.867876833333334, "fusion_lon": 0.0, "is_disabled": 0}, {"rental_uris": {"android": "https://dc.lft.to/lastmile_qr_scan", "ios": "https://dc.lft.to/lastmile_qr_scan"}, "type": "electric_scooter", "lon": -77.06538233333333, "name": "d0adbe05502062b1688ab07ff28567c4", "bike_id": "d0adbe05502062b1688ab07ff28567c4", "fusion_lat": 0.0, "is_reserved": 0, "lat": 38.95070716666667, "fusion_lon": 0.0, "is_disabled": 0}, {"rental_uris": {"android": "https://dc.lft.to/lastmile_qr_scan", "ios": "https://dc.lft.to/lastmile_qr_scan"}, "type": "electric_scooter", "lon": -77.04998083333334, "name": "67f08056cb1af5a11ec67f859fff73dd", "bike_id": "67f08056cb1af5a11ec67f859fff73dd", "fusion_lat": 0.0, "is_reserved": 0, "lat": 38.8923335, "fusion_lon": 0.0, "is_disabled": 0}, {"rental_uris": {"android": "https://dc.lft.to/lastmile_qr_scan", "ios": "https://dc.lft.to/lastmile_qr_scan"}, "type": "electric_scooter", "lon": -77.0236265, "name": "87ae20d82c77b9b8d4cc863d947ef951", "bike_id": "87ae20d82c77b9b8d4cc863d947ef951", "fusion_lat": 0.0, "is_reserved": 0, "lat": 38.907395333333334, "fusion_lon": 0.0, "is_disabled": 0}, {"rental_uris": {"android": "https://dc.lft.to/lastmile_qr_scan", "ios": "https://dc.lft.to/lastmile_qr_scan"}, "type": "electric_scooter", "lon": -76.98699066666667, "name": "7a0d8a32b475cfb92b10c0314ae15f4c", "bike_id": "7a0d8a32b475cfb92b10c0314ae15f4c", "fusion_lat": 0.0, "is_reserved": 0, "lat": 38.90206716666667, "fusion_lon": 0.0, "is_disabled": 0}, {"rental_uris": {"android": "https://dc.lft.to/lastmile_qr_scan", "ios": "https://dc.lft.to/lastmile_qr_scan"}, "type": "electric_scooter", "lon": -77.03395333333333, "name": "f5cd3e546133c64f4ae48c622c6b31ea", "bike_id": "f5cd3e546133c64f4ae48c622c6b31ea", "fusion_lat": 0.0, "is_reserved": 0, "lat": 38.9234355, "fusion_lon": 0.0, "is_disabled": 0}, {"rental_uris": {"android": "https://dc.lft.to/lastmile_qr_scan", "ios": "https://dc.lft.to/lastmile_qr_scan"}, "type": "electric_scooter", "lon": -77.02546316666667, "name": "4a683c430ba4e675584659c0bd342100", "bike_id": "4a683c430ba4e675584659c0bd342100", "fusion_lat": 0.0, "is_reserved": 0, "lat": 38.920912, "fusion_lon": 0.0, "is_disabled": 0}, {"rental_uris": {"android": "https://dc.lft.to/lastmile_qr_scan", "ios": "https://dc.lft.to/lastmile_qr_scan"}, "type": "electric_scooter", "lon": -77.03832216666666, "name": "8be6db37f6a4510502160b30700fa612", "bike_id": "8be6db37f6a4510502160b30700fa612", "fusion_lat": 0.0, "is_reserved": 0, "lat": 38.91295566666667, "fusion_lon": 0.0, "is_disabled": 0}, {"rental_uris": {"android": "https://dc.lft.to/lastmile_qr_scan", "ios": "https://dc.lft.to/lastmile_qr_scan"}, "type": "electric_scooter", "lon": -76.9874485, "name": "cbad069b8e13c2370c968a58f029c08b", "bike_id": "cbad069b8e13c2370c968a58f029c08b", "fusion_lat": 0.0, "is_reserved": 0, "lat": 38.84460716666667, "fusion_lon": 0.0, "is_disabled": 0}, {"rental_uris": {"android": "https://dc.lft.to/lastmile_qr_scan", "ios": "https://dc.lft.to/lastmile_qr_scan"}, "type": "electric_bike", "lon": -77.026279, "name": "fdf2a730012683da27cd26c5f32f8394", "bike_id": "fdf2a730012683da27cd26c5f32f8394", "fusion_lat": 0.0, "is_reserved": 0, "lat": 38.9622365, "fusion_lon": 0.0, "is_disabled": 0}, {"rental_uris": {"android": "https://dc.lft.to/lastmile_qr_scan", "ios": "https://dc.lft.to/lastmile_qr_scan"}, "type": "electric_scooter", "lon": -76.9888285, "name": "6edd70124e0abb031202fa412d87a9f4", "bike_id": "6edd70124e0abb031202fa412d87a9f4", "fusion_lat": 0.0, "is_reserved": 0, "lat": 38.86677783333333, "fusion_lon": 0.0, "is_disabled": 0}, {"rental_uris": {"android": "https://dc.lft.to/lastmile_qr_scan", "ios": "https://dc.lft.to/lastmile_qr_scan"}, "type": "electric_scooter", "lon": -76.99401, "name": "9341be4bc9f358b6e52fb48403e4d131", "bike_id": "9341be4bc9f358b6e52fb48403e4d131", "fusion_lat": 0.0, "is_reserved": 0, "lat": 38.88604216666667, "fusion_lon": 0.0, "is_disabled": 0}, {"rental_uris": {"android": "https://dc.lft.to/lastmile_qr_scan", "ios": "https://dc.lft.to/lastmile_qr_scan"}, "type": "electric_bike", "lon": -77.08542183333333, "name": "f1bc8572dd8dfd5ddb2669e5aaa44e30", "bike_id": "f1bc8572dd8dfd5ddb2669e5aaa44e30", "fusion_lat": 0.0, "is_reserved": 0, "lat": 38.85624883333333, "fusion_lon": 0.0, "is_disabled": 0}, {"rental_uris": {"android": "https://dc.lft.to/lastmile_qr_scan", "ios": "https://dc.lft.to/lastmile_qr_scan"}, "type": "electric_scooter", "lon": -76.99153316666667, "name": "3d52833f68f4de6f303385a8c1e2203c", "bike_id": "3d52833f68f4de6f303385a8c1e2203c", "fusion_lat": 0.0, "is_reserved": 0, "lat": 38.8731855, "fusion_lon": 0.0, "is_disabled": 0}, {"rental_uris": {"android": "https://dc.lft.to/lastmile_qr_scan", "ios": "https://dc.lft.to/lastmile_qr_scan"}, "type": "electric_scooter", "lon": -77.03782316666667, "name": "34ff0a4083430409487c6aa812376b1e", "bike_id": "34ff0a4083430409487c6aa812376b1e", "fusion_lat": 0.0, "is_reserved": 0, "lat": 38.92486366666667, "fusion_lon": 0.0, "is_disabled": 0}, {"rental_uris": {"android": "https://dc.lft.to/lastmile_qr_scan", "ios": "https://dc.lft.to/lastmile_qr_scan"}, "type": "electric_scooter", "lon": -77.02723983333334, "name": "d8f6466d62a5941068b234350c9d4340", "bike_id": "d8f6466d62a5941068b234350c9d4340", "fusion_lat": 0.0, "is_reserved": 0, "lat": 38.93452533333333, "fusion_lon": 0.0, "is_disabled": 0}, {"rental_uris": {"android": "https://dc.lft.to/lastmile_qr_scan", "ios": "https://dc.lft.to/lastmile_qr_scan"}, "type": "electric_scooter", "lon": -77.01208116666666, "name": "770c589fc2a31569cead9880a3af3f34", "bike_id": "770c589fc2a31569cead9880a3af3f34", "fusion_lat": 0.0, "is_reserved": 0, "lat": 38.9182515, "fusion_lon": 0.0, "is_disabled": 0}, {"rental_uris": {"android": "https://dc.lft.to/lastmile_qr_scan", "ios": "https://dc.lft.to/lastmile_qr_scan"}, "type": "electric_scooter", "lon": -76.97410883333333, "name": "62d37a3dc41d3e94b500b8fbf6456b92", "bike_id": "62d37a3dc41d3e94b500b8fbf6456b92", "fusion_lat": 0.0, "is_reserved": 0, "lat": 38.8656445, "fusion_lon": 0.0, "is_disabled": 0}, {"rental_uris": {"android": "https://dc.lft.to/lastmile_qr_scan", "ios": "https://dc.lft.to/lastmile_qr_scan"}, "type": "electric_scooter", "lon": -77.00279816666666, "name": "ffa7b8bfbace62058e4fdb2968a33938", "bike_id": "ffa7b8bfbace62058e4fdb2968a33938", "fusion_lat": 0.0, "is_reserved": 0, "lat": 38.939248, "fusion_lon": 0.0, "is_disabled": 0}, {"rental_uris": {"android": "https://dc.lft.to/lastmile_qr_scan", "ios": "https://dc.lft.to/lastmile_qr_scan"}, "type": "electric_scooter", "lon": -76.93741333333334, "name": "d64b8541e03804c3c991f13eff99e397", "bike_id": "d64b8541e03804c3c991f13eff99e397", "fusion_lat": 0.0, "is_reserved": 0, "lat": 38.89015066666666, "fusion_lon": 0.0, "is_disabled": 0}, {"rental_uris": {"android": "https://dc.lft.to/lastmile_qr_scan", "ios": "https://dc.lft.to/lastmile_qr_scan"}, "type": "electric_scooter", "lon": -76.99079816666666, "name": "2e3fd0c0146ffb15c76bdcc810359961", "bike_id": "2e3fd0c0146ffb15c76bdcc810359961", "fusion_lat": 0.0, "is_reserved": 0, "lat": 38.900097333333335, "fusion_lon": 0.0, "is_disabled": 0}, {"rental_uris": {"android": "https://dc.lft.to/lastmile_qr_scan", "ios": "https://dc.lft.to/lastmile_qr_scan"}, "type": "electric_scooter", "lon": -77.03340316666667, "name": "b94c1bfd2e085c07a77a8d4bd13acb50", "bike_id": "b94c1bfd2e085c07a77a8d4bd13acb50", "fusion_lat": 0.0, "is_reserved": 0, "lat": 38.920611, "fusion_lon": 0.0, "is_disabled": 0}, {"rental_uris": {"android": "https://dc.lft.to/lastmile_qr_scan", "ios": "https://dc.lft.to/lastmile_qr_scan"}, "type": "electric_bike", "lon": -76.93187433333334, "name": "d5544aee076c4e331a5cc649cc4ca4b0", "bike_id": "d5544aee076c4e331a5cc649cc4ca4b0", "fusion_lat": 0.0, "is_reserved": 0, "lat": 38.898548166666664, "fusion_lon": 0.0, "is_disabled": 0}, {"rental_uris": {"android": "https://dc.lft.to/lastmile_qr_scan", "ios": "https://dc.lft.to/lastmile_qr_scan"}, "type": "electric_scooter", "lon": -77.04242566666667, "name": "f63db1a627dc11e7032dcc2b3bcd6e63", "bike_id": "f63db1a627dc11e7032dcc2b3bcd6e63", "fusion_lat": 0.0, "is_reserved": 0, "lat": 38.91794766666667, "fusion_lon": 0.0, "is_disabled": 0}, {"rental_uris": {"android": "https://dc.lft.to/lastmile_qr_scan", "ios": "https://dc.lft.to/lastmile_qr_scan"}, "type": "electric_scooter", "lon": -77.03292433333333, "name": "d5153cfb609140d1ce9e84b13adf5166", "bike_id": "d5153cfb609140d1ce9e84b13adf5166", "fusion_lat": 0.0, "is_reserved": 0, "lat": 38.90842216666667, "fusion_lon": 0.0, "is_disabled": 0}, {"rental_uris": {"android": "https://dc.lft.to/lastmile_qr_scan", "ios": "https://dc.lft.to/lastmile_qr_scan"}, "type": "electric_scooter", "lon": -77.04171666666667, "name": "f7db9b15ccc5dbd47e57414977f4e02c", "bike_id": "f7db9b15ccc5dbd47e57414977f4e02c", "fusion_lat": 0.0, "is_reserved": 0, "lat": 38.919820333333334, "fusion_lon": 0.0, "is_disabled": 0}, {"rental_uris": {"android": "https://dc.lft.to/lastmile_qr_scan", "ios": "https://dc.lft.to/lastmile_qr_scan"}, "type": "electric_scooter", "lon": -77.03887266666666, "name": "22026018ab8f86a6da733a82816fe8e7", "bike_id": "22026018ab8f86a6da733a82816fe8e7", "fusion_lat": 0.0, "is_reserved": 0, "lat": 38.91491416666667, "fusion_lon": 0.0, "is_disabled": 0}, {"rental_uris": {"android": "https://dc.lft.to/lastmile_qr_scan", "ios": "https://dc.lft.to/lastmile_qr_scan"}, "type": "electric_scooter", "lon": -76.99484383333333, "name": "18c7dd4d8298aca60deaf867de3bd659", "bike_id": "18c7dd4d8298aca60deaf867de3bd659", "fusion_lat": 0.0, "is_reserved": 0, "lat": 38.90097033333333, "fusion_lon": 0.0, "is_disabled": 0}, {"rental_uris": {"android": "https://dc.lft.to/lastmile_qr_scan", "ios": "https://dc.lft.to/lastmile_qr_scan"}, "type": "electric_scooter", "lon": -76.99380416666666, "name": "f03ff6e21850c1fa87065889848d7c02", "bike_id": "f03ff6e21850c1fa87065889848d7c02", "fusion_lat": 0.0, "is_reserved": 0, "lat": 38.8869725, "fusion_lon": 0.0, "is_disabled": 0}, {"rental_uris": {"android": "https://dc.lft.to/lastmile_qr_scan", "ios": "https://dc.lft.to/lastmile_qr_scan"}, "type": "electric_scooter", "lon": -77.040104, "name": "eb795fddc423b630eede45de86b72b58", "bike_id": "eb795fddc423b630eede45de86b72b58", "fusion_lat": 0.0, "is_reserved": 0, "lat": 38.902723, "fusion_lon": 0.0, "is_disabled": 0}, {"rental_uris": {"android": "https://dc.lft.to/lastmile_qr_scan", "ios": "https://dc.lft.to/lastmile_qr_scan"}, "type": "electric_bike", "lon": -77.13226583333334, "name": "29ff5b933bca34f0bb71ee26ab23bde9", "bike_id": "29ff5b933bca34f0bb71ee26ab23bde9", "fusion_lat": 0.0, "is_reserved": 0, "lat": 38.86979433333333, "fusion_lon": 0.0, "is_disabled": 0}, {"rental_uris": {"android": "https://dc.lft.to/lastmile_qr_scan", "ios": "https://dc.lft.to/lastmile_qr_scan"}, "type": "electric_scooter", "lon": -77.0681145, "name": "e9875ee289d62c9fd234c55c31eefee7", "bike_id": "e9875ee289d62c9fd234c55c31eefee7", "fusion_lat": 0.0, "is_reserved": 0, "lat": 38.9165045, "fusion_lon": 0.0, "is_disabled": 0}, {"rental_uris": {"android": "https://dc.lft.to/lastmile_qr_scan", "ios": "https://dc.lft.to/lastmile_qr_scan"}, "type": "electric_scooter", "lon": -77.05808883333333, "name": "9a0c6c7bd3459c940953698daf1fc725", "bike_id": "9a0c6c7bd3459c940953698daf1fc725", "fusion_lat": 0.0, "is_reserved": 0, "lat": 38.903771166666665, "fusion_lon": 0.0, "is_disabled": 0}, {"rental_uris": {"android": "https://dc.lft.to/lastmile_qr_scan", "ios": "https://dc.lft.to/lastmile_qr_scan"}, "type": "electric_scooter", "lon": -77.02602666666667, "name": "dd57b5612930911697fa41928596fe59", "bike_id": "dd57b5612930911697fa41928596fe59", "fusion_lat": 0.0, "is_reserved": 0, "lat": 38.90019683333333, "fusion_lon": 0.0, "is_disabled": 0}, {"rental_uris": {"android": "https://dc.lft.to/lastmile_qr_scan", "ios": "https://dc.lft.to/lastmile_qr_scan"}, "type": "electric_scooter", "lon": -77.03254816666667, "name": "af7cbbb66411d3b4138ed7fc3ff116f9", "bike_id": "af7cbbb66411d3b4138ed7fc3ff116f9", "fusion_lat": 0.0, "is_reserved": 0, "lat": 38.9264475, "fusion_lon": 0.0, "is_disabled": 0}, {"rental_uris": {"android": "https://dc.lft.to/lastmile_qr_scan", "ios": "https://dc.lft.to/lastmile_qr_scan"}, "type": "electric_scooter", "lon": -77.020925, "name": "9c14284fd9f510a09c5008854b76ad37", "bike_id": "9c14284fd9f510a09c5008854b76ad37", "fusion_lat": 0.0, "is_reserved": 0, "lat": 38.9110575, "fusion_lon": 0.0, "is_disabled": 0}, {"rental_uris": {"android": "https://dc.lft.to/lastmile_qr_scan", "ios": "https://dc.lft.to/lastmile_qr_scan"}, "type": "electric_scooter", "lon": -77.02166316666667, "name": "55f8217bedd6464be927638b16979d06", "bike_id": "55f8217bedd6464be927638b16979d06", "fusion_lat": 0.0, "is_reserved": 0, "lat": 38.942954, "fusion_lon": 0.0, "is_disabled": 0}, {"rental_uris": {"android": "https://dc.lft.to/lastmile_qr_scan", "ios": "https://dc.lft.to/lastmile_qr_scan"}, "type": "electric_scooter", "lon": -76.98846616666667, "name": "3c9311254c449dc15511f73e25fbd813", "bike_id": "3c9311254c449dc15511f73e25fbd813", "fusion_lat": 0.0, "is_reserved": 0, "lat": 38.900336, "fusion_lon": 0.0, "is_disabled": 0}, {"rental_uris": {"android": "https://dc.lft.to/lastmile_qr_scan", "ios": "https://dc.lft.to/lastmile_qr_scan"}, "type": "electric_scooter", "lon": -77.00591083333333, "name": "69162e9476951de6de15cdb604aada82", "bike_id": "69162e9476951de6de15cdb604aada82", "fusion_lat": 0.0, "is_reserved": 0, "lat": 38.876585666666664, "fusion_lon": 0.0, "is_disabled": 0}, {"rental_uris": {"android": "https://dc.lft.to/lastmile_qr_scan", "ios": "https://dc.lft.to/lastmile_qr_scan"}, "type": "electric_scooter", "lon": -77.074408, "name": "39a7f28aabd1f6f2bd7c6b30ee59f4ac", "bike_id": "39a7f28aabd1f6f2bd7c6b30ee59f4ac", "fusion_lat": 0.0, "is_reserved": 0, "lat": 38.911007166666664, "fusion_lon": 0.0, "is_disabled": 0}, {"rental_uris": {"android": "https://dc.lft.to/lastmile_qr_scan", "ios": "https://dc.lft.to/lastmile_qr_scan"}, "type": "electric_scooter", "lon": -77.05130616666666, "name": "57a9039987a9d5f9cfefd5bc11542ef9", "bike_id": "57a9039987a9d5f9cfefd5bc11542ef9", "fusion_lat": 0.0, "is_reserved": 0, "lat": 38.9053025, "fusion_lon": 0.0, "is_disabled": 0}, {"rental_uris": {"android": "https://dc.lft.to/lastmile_qr_scan", "ios": "https://dc.lft.to/lastmile_qr_scan"}, "type": "electric_scooter", "lon": -77.0058555, "name": "fccadac1b01ece874b2bc338dedc4ff0", "bike_id": "fccadac1b01ece874b2bc338dedc4ff0", "fusion_lat": 0.0, "is_reserved": 0, "lat": 38.883782333333336, "fusion_lon": 0.0, "is_disabled": 0}, {"rental_uris": {"android": "https://dc.lft.to/lastmile_qr_scan", "ios": "https://dc.lft.to/lastmile_qr_scan"}, "type": "electric_bike", "lon": -77.12896666666667, "name": "80c5cd564e7099157f876cd91ed5c766", "bike_id": "80c5cd564e7099157f876cd91ed5c766", "fusion_lat": 0.0, "is_reserved": 0, "lat": 38.863802, "fusion_lon": 0.0, "is_disabled": 0}, {"rental_uris": {"android": "https://dc.lft.to/lastmile_qr_scan", "ios": "https://dc.lft.to/lastmile_qr_scan"}, "type": "electric_scooter", "lon": -77.00580683333334, "name": "ca27e04a222656d97417757a9cbef713", "bike_id": "ca27e04a222656d97417757a9cbef713", "fusion_lat": 0.0, "is_reserved": 0, "lat": 38.88530183333334, "fusion_lon": 0.0, "is_disabled": 0}, {"rental_uris": {"android": "https://dc.lft.to/lastmile_qr_scan", "ios": "https://dc.lft.to/lastmile_qr_scan"}, "type": "electric_scooter", "lon": -77.039931, "name": "4d24259720e2263fdefe79e913ffd9cf", "bike_id": "4d24259720e2263fdefe79e913ffd9cf", "fusion_lat": 0.0, "is_reserved": 0, "lat": 38.909184833333335, "fusion_lon": 0.0, "is_disabled": 0}, {"rental_uris": {"android": "https://dc.lft.to/lastmile_qr_scan", "ios": "https://dc.lft.to/lastmile_qr_scan"}, "type": "electric_scooter", "lon": -77.0324965, "name": "00fb6345a1fc52abd4bae80d16166423", "bike_id": "00fb6345a1fc52abd4bae80d16166423", "fusion_lat": 0.0, "is_reserved": 0, "lat": 38.9338455, "fusion_lon": 0.0, "is_disabled": 0}, {"rental_uris": {"android": "https://dc.lft.to/lastmile_qr_scan", "ios": "https://dc.lft.to/lastmile_qr_scan"}, "type": "electric_scooter", "lon": -77.03264966666667, "name": "ed8a99b9bf406786304b1b84662080a4", "bike_id": "ed8a99b9bf406786304b1b84662080a4", "fusion_lat": 0.0, "is_reserved": 0, "lat": 38.9366595, "fusion_lon": 0.0, "is_disabled": 0}, {"rental_uris": {"android": "https://dc.lft.to/lastmile_qr_scan", "ios": "https://dc.lft.to/lastmile_qr_scan"}, "type": "electric_scooter", "lon": -77.0467335, "name": "9b20bd5299b1813eef5faed030d3e2a6", "bike_id": "9b20bd5299b1813eef5faed030d3e2a6", "fusion_lat": 0.0, "is_reserved": 0, "lat": 38.895596833333336, "fusion_lon": 0.0, "is_disabled": 0}, {"rental_uris": {"android": "https://dc.lft.to/lastmile_qr_scan", "ios": "https://dc.lft.to/lastmile_qr_scan"}, "type": "electric_scooter", "lon": -77.05766533333333, "name": "b34ae54f083fc6b121a72a2a2678f2b2", "bike_id": "b34ae54f083fc6b121a72a2a2678f2b2", "fusion_lat": 0.0, "is_reserved": 0, "lat": 38.9053465, "fusion_lon": 0.0, "is_disabled": 0}, {"rental_uris": {"android": "https://dc.lft.to/lastmile_qr_scan", "ios": "https://dc.lft.to/lastmile_qr_scan"}, "type": "electric_bike", "lon": -77.02102816666667, "name": "8257f6909604b576b4e73d4cd095d351", "bike_id": "8257f6909604b576b4e73d4cd095d351", "fusion_lat": 0.0, "is_reserved": 0, "lat": 39.023012, "fusion_lon": 0.0, "is_disabled": 0}, {"rental_uris": {"android": "https://dc.lft.to/lastmile_qr_scan", "ios": "https://dc.lft.to/lastmile_qr_scan"}, "type": "electric_scooter", "lon": -76.99388066666667, "name": "4d3ce828700750135471dbd411c09f5a", "bike_id": "4d3ce828700750135471dbd411c09f5a", "fusion_lat": 0.0, "is_reserved": 0, "lat": 38.88453333333333, "fusion_lon": 0.0, "is_disabled": 0}, {"rental_uris": {"android": "https://dc.lft.to/lastmile_qr_scan", "ios": "https://dc.lft.to/lastmile_qr_scan"}, "type": "electric_scooter", "lon": -77.04811216666667, "name": "9b2c316ad5ad74c19c19c5aebca6048e", "bike_id": "9b2c316ad5ad74c19c19c5aebca6048e", "fusion_lat": 0.0, "is_reserved": 0, "lat": 38.9204345, "fusion_lon": 0.0, "is_disabled": 0}, {"rental_uris": {"android": "https://dc.lft.to/lastmile_qr_scan", "ios": "https://dc.lft.to/lastmile_qr_scan"}, "type": "electric_scooter", "lon": -77.00586783333334, "name": "c729517281a334637de9aece5f5218b4", "bike_id": "c729517281a334637de9aece5f5218b4", "fusion_lat": 0.0, "is_reserved": 0, "lat": 38.90557733333333, "fusion_lon": 0.0, "is_disabled": 0}, {"rental_uris": {"android": "https://dc.lft.to/lastmile_qr_scan", "ios": "https://dc.lft.to/lastmile_qr_scan"}, "type": "electric_scooter", "lon": -77.023551, "name": "3f19f2894b218d943efdf53ceacf7e26", "bike_id": "3f19f2894b218d943efdf53ceacf7e26", "fusion_lat": 0.0, "is_reserved": 0, "lat": 38.91785816666667, "fusion_lon": 0.0, "is_disabled": 0}, {"rental_uris": {"android": "https://dc.lft.to/lastmile_qr_scan", "ios": "https://dc.lft.to/lastmile_qr_scan"}, "type": "electric_scooter", "lon": -77.0603055, "name": "97e4c40156867045d6c051dc3fdfc1b1", "bike_id": "97e4c40156867045d6c051dc3fdfc1b1", "fusion_lat": 0.0, "is_reserved": 0, "lat": 38.93924783333333, "fusion_lon": 0.0, "is_disabled": 0}, {"rental_uris": {"android": "https://dc.lft.to/lastmile_qr_scan", "ios": "https://dc.lft.to/lastmile_qr_scan"}, "type": "electric_scooter", "lon": -76.977101, "name": "b892f9354e62897096e45e659ccae45c", "bike_id": "b892f9354e62897096e45e659ccae45c", "fusion_lat": 0.0, "is_reserved": 0, "lat": 38.90031616666667, "fusion_lon": 0.0, "is_disabled": 0}, {"rental_uris": {"android": "https://dc.lft.to/lastmile_qr_scan", "ios": "https://dc.lft.to/lastmile_qr_scan"}, "type": "electric_scooter", "lon": -77.0268315, "name": "22bcceecf3f945c1441e731b6dda0be8", "bike_id": "22bcceecf3f945c1441e731b6dda0be8", "fusion_lat": 0.0, "is_reserved": 0, "lat": 38.909620333333336, "fusion_lon": 0.0, "is_disabled": 0}, {"rental_uris": {"android": "https://dc.lft.to/lastmile_qr_scan", "ios": "https://dc.lft.to/lastmile_qr_scan"}, "type": "electric_scooter", "lon": -77.02645733333334, "name": "8fb13ca260517477fbfd1786464eeeb7", "bike_id": "8fb13ca260517477fbfd1786464eeeb7", "fusion_lat": 0.0, "is_reserved": 0, "lat": 38.90247866666667, "fusion_lon": 0.0, "is_disabled": 0}, {"rental_uris": {"android": "https://dc.lft.to/lastmile_qr_scan", "ios": "https://dc.lft.to/lastmile_qr_scan"}, "type": "electric_scooter", "lon": -77.0019585, "name": "f16cc0a083090605757e403273aedf76", "bike_id": "f16cc0a083090605757e403273aedf76", "fusion_lat": 0.0, "is_reserved": 0, "lat": 38.8783105, "fusion_lon": 0.0, "is_disabled": 0}, {"rental_uris": {"android": "https://dc.lft.to/lastmile_qr_scan", "ios": "https://dc.lft.to/lastmile_qr_scan"}, "type": "electric_bike", "lon": -77.106819, "name": "d6b424b02c052dceefffc63ab1cc3f2a", "bike_id": "d6b424b02c052dceefffc63ab1cc3f2a", "fusion_lat": 0.0, "is_reserved": 0, "lat": 38.93585566666667, "fusion_lon": 0.0, "is_disabled": 0}, {"rental_uris": {"android": "https://dc.lft.to/lastmile_qr_scan", "ios": "https://dc.lft.to/lastmile_qr_scan"}, "type": "electric_scooter", "lon": -77.01395016666666, "name": "e1f7f6917083258285eb3b5c43f73b64", "bike_id": "e1f7f6917083258285eb3b5c43f73b64", "fusion_lat": 0.0, "is_reserved": 0, "lat": 38.8802675, "fusion_lon": 0.0, "is_disabled": 0}, {"rental_uris": {"android": "https://dc.lft.to/lastmile_qr_scan", "ios": "https://dc.lft.to/lastmile_qr_scan"}, "type": "electric_scooter", "lon": -77.0211425, "name": "8ebf0aed75c9b410d2c17ca5787fe37c", "bike_id": "8ebf0aed75c9b410d2c17ca5787fe37c", "fusion_lat": 0.0, "is_reserved": 0, "lat": 38.894818666666666, "fusion_lon": 0.0, "is_disabled": 0}, {"rental_uris": {"android": "https://dc.lft.to/lastmile_qr_scan", "ios": "https://dc.lft.to/lastmile_qr_scan"}, "type": "electric_scooter", "lon": -77.042246, "name": "d12b52e3f06b4f5b4f32824537ee24a2", "bike_id": "d12b52e3f06b4f5b4f32824537ee24a2", "fusion_lat": 0.0, "is_reserved": 0, "lat": 38.91706466666667, "fusion_lon": 0.0, "is_disabled": 0}, {"rental_uris": {"android": "https://dc.lft.to/lastmile_qr_scan", "ios": "https://dc.lft.to/lastmile_qr_scan"}, "type": "electric_scooter", "lon": -77.04504466666667, "name": "4b59e6a05c89e85612a5f8be341d6e09", "bike_id": "4b59e6a05c89e85612a5f8be341d6e09", "fusion_lat": 0.0, "is_reserved": 0, "lat": 38.903721, "fusion_lon": 0.0, "is_disabled": 0}, {"rental_uris": {"android": "https://dc.lft.to/lastmile_qr_scan", "ios": "https://dc.lft.to/lastmile_qr_scan"}, "type": "electric_scooter", "lon": -76.98532266666666, "name": "764b9ffae855cbc3bc3d0e36c0d4fe34", "bike_id": "764b9ffae855cbc3bc3d0e36c0d4fe34", "fusion_lat": 0.0, "is_reserved": 0, "lat": 38.85851066666667, "fusion_lon": 0.0, "is_disabled": 0}, {"rental_uris": {"android": "https://dc.lft.to/lastmile_qr_scan", "ios": "https://dc.lft.to/lastmile_qr_scan"}, "type": "electric_scooter", "lon": -77.03067816666666, "name": "e356637c9eabc4d6b78dd45f06bcce6d", "bike_id": "e356637c9eabc4d6b78dd45f06bcce6d", "fusion_lat": 0.0, "is_reserved": 0, "lat": 38.90575, "fusion_lon": 0.0, "is_disabled": 0}, {"rental_uris": {"android": "https://dc.lft.to/lastmile_qr_scan", "ios": "https://dc.lft.to/lastmile_qr_scan"}, "type": "electric_scooter", "lon": -77.071086, "name": "8e2c52829496402aebaf678d6f00b9df", "bike_id": "8e2c52829496402aebaf678d6f00b9df", "fusion_lat": 0.0, "is_reserved": 0, "lat": 38.914139, "fusion_lon": 0.0, "is_disabled": 0}, {"rental_uris": {"android": "https://dc.lft.to/lastmile_qr_scan", "ios": "https://dc.lft.to/lastmile_qr_scan"}, "type": "electric_scooter", "lon": -77.04508683333333, "name": "7c4e5f8678971fff4cdda51816d5f543", "bike_id": "7c4e5f8678971fff4cdda51816d5f543", "fusion_lat": 0.0, "is_reserved": 0, "lat": 38.89650733333333, "fusion_lon": 0.0, "is_disabled": 0}, {"rental_uris": {"android": "https://dc.lft.to/lastmile_qr_scan", "ios": "https://dc.lft.to/lastmile_qr_scan"}, "type": "electric_scooter", "lon": -77.04871033333333, "name": "106e714423d6c3694f01af10948c4385", "bike_id": "106e714423d6c3694f01af10948c4385", "fusion_lat": 0.0, "is_reserved": 0, "lat": 38.8929595, "fusion_lon": 0.0, "is_disabled": 0}, {"rental_uris": {"android": "https://dc.lft.to/lastmile_qr_scan", "ios": "https://dc.lft.to/lastmile_qr_scan"}, "type": "electric_scooter", "lon": -76.97907683333334, "name": "6c4e451da360d45a0e8061426f4516fe", "bike_id": "6c4e451da360d45a0e8061426f4516fe", "fusion_lat": 0.0, "is_reserved": 0, "lat": 38.89437516666667, "fusion_lon": 0.0, "is_disabled": 0}, {"rental_uris": {"android": "https://dc.lft.to/lastmile_qr_scan", "ios": "https://dc.lft.to/lastmile_qr_scan"}, "type": "electric_scooter", "lon": -77.01952016666667, "name": "40594d3d2c58cb0f0335d9efe3f646eb", "bike_id": "40594d3d2c58cb0f0335d9efe3f646eb", "fusion_lat": 0.0, "is_reserved": 0, "lat": 38.92245, "fusion_lon": 0.0, "is_disabled": 0}, {"rental_uris": {"android": "https://dc.lft.to/lastmile_qr_scan", "ios": "https://dc.lft.to/lastmile_qr_scan"}, "type": "electric_scooter", "lon": -77.00728966666667, "name": "5d6ebd4a1de18aef27e67e335b78a820", "bike_id": "5d6ebd4a1de18aef27e67e335b78a820", "fusion_lat": 0.0, "is_reserved": 0, "lat": 38.876577, "fusion_lon": 0.0, "is_disabled": 0}, {"rental_uris": {"android": "https://dc.lft.to/lastmile_qr_scan", "ios": "https://dc.lft.to/lastmile_qr_scan"}, "type": "electric_scooter", "lon": -76.95514566666667, "name": "584657b0333434e078abd6534c7cd349", "bike_id": "584657b0333434e078abd6534c7cd349", "fusion_lat": 0.0, "is_reserved": 0, "lat": 38.89059433333333, "fusion_lon": 0.0, "is_disabled": 0}, {"rental_uris": {"android": "https://dc.lft.to/lastmile_qr_scan", "ios": "https://dc.lft.to/lastmile_qr_scan"}, "type": "electric_scooter", "lon": -77.0296825, "name": "7aac45538abe17f19ddc0639de2c2ab4", "bike_id": "7aac45538abe17f19ddc0639de2c2ab4", "fusion_lat": 0.0, "is_reserved": 0, "lat": 38.9231395, "fusion_lon": 0.0, "is_disabled": 0}, {"rental_uris": {"android": "https://dc.lft.to/lastmile_qr_scan", "ios": "https://dc.lft.to/lastmile_qr_scan"}, "type": "electric_scooter", "lon": -77.02710033333334, "name": "8b4b13e8906956691995fe1e1ca2e6d2", "bike_id": "8b4b13e8906956691995fe1e1ca2e6d2", "fusion_lat": 0.0, "is_reserved": 0, "lat": 38.906712166666665, "fusion_lon": 0.0, "is_disabled": 0}, {"rental_uris": {"android": "https://dc.lft.to/lastmile_qr_scan", "ios": "https://dc.lft.to/lastmile_qr_scan"}, "type": "electric_scooter", "lon": -77.03488816666666, "name": "24482720088db42479331601144075a2", "bike_id": "24482720088db42479331601144075a2", "fusion_lat": 0.0, "is_reserved": 0, "lat": 38.935749333333334, "fusion_lon": 0.0, "is_disabled": 0}, {"rental_uris": {"android": "https://dc.lft.to/lastmile_qr_scan", "ios": "https://dc.lft.to/lastmile_qr_scan"}, "type": "electric_scooter", "lon": -77.02703316666667, "name": "a98c8af0a5e2fb17c856f1a629113ad0", "bike_id": "a98c8af0a5e2fb17c856f1a629113ad0", "fusion_lat": 0.0, "is_reserved": 0, "lat": 38.899815, "fusion_lon": 0.0, "is_disabled": 0}, {"rental_uris": {"android": "https://dc.lft.to/lastmile_qr_scan", "ios": "https://dc.lft.to/lastmile_qr_scan"}, "type": "electric_scooter", "lon": -77.00302266666667, "name": "af2b60ec21011ccf006c17f92a465942", "bike_id": "af2b60ec21011ccf006c17f92a465942", "fusion_lat": 0.0, "is_reserved": 0, "lat": 38.9089945, "fusion_lon": 0.0, "is_disabled": 0}, {"rental_uris": {"android": "https://dc.lft.to/lastmile_qr_scan", "ios": "https://dc.lft.to/lastmile_qr_scan"}, "type": "electric_bike", "lon": -76.98557666666666, "name": "234bce0cf02e12a70ee7a4f5f5d54304", "bike_id": "234bce0cf02e12a70ee7a4f5f5d54304", "fusion_lat": 0.0, "is_reserved": 0, "lat": 38.8689435, "fusion_lon": 0.0, "is_disabled": 0}, {"rental_uris": {"android": "https://dc.lft.to/lastmile_qr_scan", "ios": "https://dc.lft.to/lastmile_qr_scan"}, "type": "electric_scooter", "lon": -77.042273, "name": "6e0d590a955678cf8c1a4a84792fa1c6", "bike_id": "6e0d590a955678cf8c1a4a84792fa1c6", "fusion_lat": 0.0, "is_reserved": 0, "lat": 38.911139666666664, "fusion_lon": 0.0, "is_disabled": 0}, {"rental_uris": {"android": "https://dc.lft.to/lastmile_qr_scan", "ios": "https://dc.lft.to/lastmile_qr_scan"}, "type": "electric_scooter", "lon": -77.04842216666667, "name": "b64e66e45d0ad31fccd3ee7f6af693ba", "bike_id": "b64e66e45d0ad31fccd3ee7f6af693ba", "fusion_lat": 0.0, "is_reserved": 0, "lat": 38.91631016666667, "fusion_lon": 0.0, "is_disabled": 0}, {"rental_uris": {"android": "https://dc.lft.to/lastmile_qr_scan", "ios": "https://dc.lft.to/lastmile_qr_scan"}, "type": "electric_scooter", "lon": -77.01830216666667, "name": "839e556c02b1660c9aa92754389edf84", "bike_id": "839e556c02b1660c9aa92754389edf84", "fusion_lat": 0.0, "is_reserved": 0, "lat": 38.9112155, "fusion_lon": 0.0, "is_disabled": 0}, {"rental_uris": {"android": "https://dc.lft.to/lastmile_qr_scan", "ios": "https://dc.lft.to/lastmile_qr_scan"}, "type": "electric_scooter", "lon": -77.02693966666666, "name": "87540cba5083064ef839b57cf84cd715", "bike_id": "87540cba5083064ef839b57cf84cd715", "fusion_lat": 0.0, "is_reserved": 0, "lat": 38.908482166666666, "fusion_lon": 0.0, "is_disabled": 0}, {"rental_uris": {"android": "https://dc.lft.to/lastmile_qr_scan", "ios": "https://dc.lft.to/lastmile_qr_scan"}, "type": "electric_scooter", "lon": -76.94638066666667, "name": "2632f4e04bc5a741f8158567378b62ca", "bike_id": "2632f4e04bc5a741f8158567378b62ca", "fusion_lat": 0.0, "is_reserved": 0, "lat": 38.89846133333333, "fusion_lon": 0.0, "is_disabled": 0}, {"rental_uris": {"android": "https://dc.lft.to/lastmile_qr_scan", "ios": "https://dc.lft.to/lastmile_qr_scan"}, "type": "electric_scooter", "lon": -77.03090466666667, "name": "bb1caeb21fbcc9263021d82168991a5c", "bike_id": "bb1caeb21fbcc9263021d82168991a5c", "fusion_lat": 0.0, "is_reserved": 0, "lat": 38.92241216666667, "fusion_lon": 0.0, "is_disabled": 0}, {"rental_uris": {"android": "https://dc.lft.to/lastmile_qr_scan", "ios": "https://dc.lft.to/lastmile_qr_scan"}, "type": "electric_scooter", "lon": -77.031206, "name": "b11c92a93b01eedcfe8eba0729371a9b", "bike_id": "b11c92a93b01eedcfe8eba0729371a9b", "fusion_lat": 0.0, "is_reserved": 0, "lat": 38.9045715, "fusion_lon": 0.0, "is_disabled": 0}, {"rental_uris": {"android": "https://dc.lft.to/lastmile_qr_scan", "ios": "https://dc.lft.to/lastmile_qr_scan"}, "type": "electric_scooter", "lon": -77.06496266666667, "name": "11b07b65b825188a2b3427b37ad565c3", "bike_id": "11b07b65b825188a2b3427b37ad565c3", "fusion_lat": 0.0, "is_reserved": 0, "lat": 38.905187833333336, "fusion_lon": 0.0, "is_disabled": 0}, {"rental_uris": {"android": "https://dc.lft.to/lastmile_qr_scan", "ios": "https://dc.lft.to/lastmile_qr_scan"}, "type": "electric_scooter", "lon": -77.05923083333333, "name": "cb06f61bd58028c632f9861e09ac606a", "bike_id": "cb06f61bd58028c632f9861e09ac606a", "fusion_lat": 0.0, "is_reserved": 0, "lat": 38.9054165, "fusion_lon": 0.0, "is_disabled": 0}, {"rental_uris": {"android": "https://dc.lft.to/lastmile_qr_scan", "ios": "https://dc.lft.to/lastmile_qr_scan"}, "type": "electric_scooter", "lon": -77.02201016666666, "name": "825502d4b80159c5f5d5fe8aa85d5048", "bike_id": "825502d4b80159c5f5d5fe8aa85d5048", "fusion_lat": 0.0, "is_reserved": 0, "lat": 38.916936166666666, "fusion_lon": 0.0, "is_disabled": 0}, {"rental_uris": {"android": "https://dc.lft.to/lastmile_qr_scan", "ios": "https://dc.lft.to/lastmile_qr_scan"}, "type": "electric_scooter", "lon": -76.98122683333334, "name": "fc78dbb7688c0a52574733456f7e45bc", "bike_id": "fc78dbb7688c0a52574733456f7e45bc", "fusion_lat": 0.0, "is_reserved": 0, "lat": 38.89198616666667, "fusion_lon": 0.0, "is_disabled": 0}, {"rental_uris": {"android": "https://dc.lft.to/lastmile_qr_scan", "ios": "https://dc.lft.to/lastmile_qr_scan"}, "type": "electric_scooter", "lon": -77.02247983333334, "name": "b774a3c965f0ad0b5aacf10588370ad9", "bike_id": "b774a3c965f0ad0b5aacf10588370ad9", "fusion_lat": 0.0, "is_reserved": 0, "lat": 38.91350816666667, "fusion_lon": 0.0, "is_disabled": 0}, {"rental_uris": {"android": "https://dc.lft.to/lastmile_qr_scan", "ios": "https://dc.lft.to/lastmile_qr_scan"}, "type": "electric_scooter", "lon": -77.02733266666667, "name": "bead6542f5bab94574944a76ed3e34c9", "bike_id": "bead6542f5bab94574944a76ed3e34c9", "fusion_lat": 0.0, "is_reserved": 0, "lat": 38.93404866666667, "fusion_lon": 0.0, "is_disabled": 0}, {"rental_uris": {"android": "https://dc.lft.to/lastmile_qr_scan", "ios": "https://dc.lft.to/lastmile_qr_scan"}, "type": "electric_scooter", "lon": -77.046643, "name": "3e2a0e32b50959a7b1c38304d31e5f36", "bike_id": "3e2a0e32b50959a7b1c38304d31e5f36", "fusion_lat": 0.0, "is_reserved": 0, "lat": 38.904961666666665, "fusion_lon": 0.0, "is_disabled": 0}, {"rental_uris": {"android": "https://dc.lft.to/lastmile_qr_scan", "ios": "https://dc.lft.to/lastmile_qr_scan"}, "type": "electric_bike", "lon": -77.00599733333334, "name": "e3cbc46244a549dba67c2a732b43c52f", "bike_id": "e3cbc46244a549dba67c2a732b43c52f", "fusion_lat": 0.0, "is_reserved": 0, "lat": 38.876607, "fusion_lon": 0.0, "is_disabled": 0}, {"rental_uris": {"android": "https://dc.lft.to/lastmile_qr_scan", "ios": "https://dc.lft.to/lastmile_qr_scan"}, "type": "electric_scooter", "lon": -77.03385083333333, "name": "d31a5b8fca5332ea9850e21f8c170da2", "bike_id": "d31a5b8fca5332ea9850e21f8c170da2", "fusion_lat": 0.0, "is_reserved": 0, "lat": 38.921626833333335, "fusion_lon": 0.0, "is_disabled": 0}, {"rental_uris": {"android": "https://dc.lft.to/lastmile_qr_scan", "ios": "https://dc.lft.to/lastmile_qr_scan"}, "type": "electric_scooter", "lon": -77.03280233333334, "name": "f090970330fc4f70135c1deda0ef1e17", "bike_id": "f090970330fc4f70135c1deda0ef1e17", "fusion_lat": 0.0, "is_reserved": 0, "lat": 38.939905833333334, "fusion_lon": 0.0, "is_disabled": 0}, {"rental_uris": {"android": "https://dc.lft.to/lastmile_qr_scan", "ios": "https://dc.lft.to/lastmile_qr_scan"}, "type": "electric_scooter", "lon": -77.04706866666666, "name": "fe97bb6f7a2c3cace7f550ec310d4697", "bike_id": "fe97bb6f7a2c3cace7f550ec310d4697", "fusion_lat": 0.0, "is_reserved": 0, "lat": 38.91257816666667, "fusion_lon": 0.0, "is_disabled": 0}, {"rental_uris": {"android": "https://dc.lft.to/lastmile_qr_scan", "ios": "https://dc.lft.to/lastmile_qr_scan"}, "type": "electric_scooter", "lon": -77.02590033333334, "name": "3615fa829777d3ceee2b94fb8f594046", "bike_id": "3615fa829777d3ceee2b94fb8f594046", "fusion_lat": 0.0, "is_reserved": 0, "lat": 38.90471816666667, "fusion_lon": 0.0, "is_disabled": 0}, {"rental_uris": {"android": "https://dc.lft.to/lastmile_qr_scan", "ios": "https://dc.lft.to/lastmile_qr_scan"}, "type": "electric_scooter", "lon": -77.09201916666666, "name": "04742012015b9409976ca29390c76a98", "bike_id": "04742012015b9409976ca29390c76a98", "fusion_lat": 0.0, "is_reserved": 0, "lat": 38.917146833333334, "fusion_lon": 0.0, "is_disabled": 0}, {"rental_uris": {"android": "https://dc.lft.to/lastmile_qr_scan", "ios": "https://dc.lft.to/lastmile_qr_scan"}, "type": "electric_bike", "lon": -77.024245, "name": "3d7589c9f9c9fefc90b258834667a83e", "bike_id": "3d7589c9f9c9fefc90b258834667a83e", "fusion_lat": 0.0, "is_reserved": 0, "lat": 38.92605983333333, "fusion_lon": 0.0, "is_disabled": 0}, {"rental_uris": {"android": "https://dc.lft.to/lastmile_qr_scan", "ios": "https://dc.lft.to/lastmile_qr_scan"}, "type": "electric_scooter", "lon": -77.03202316666666, "name": "b38b41c4e4589014cac2b0ddb2f8647f", "bike_id": "b38b41c4e4589014cac2b0ddb2f8647f", "fusion_lat": 0.0, "is_reserved": 0, "lat": 38.90926133333333, "fusion_lon": 0.0, "is_disabled": 0}, {"rental_uris": {"android": "https://dc.lft.to/lastmile_qr_scan", "ios": "https://dc.lft.to/lastmile_qr_scan"}, "type": "electric_scooter", "lon": -77.0242715, "name": "c594cb897824ae843d2236cc57d7d0cf", "bike_id": "c594cb897824ae843d2236cc57d7d0cf", "fusion_lat": 0.0, "is_reserved": 0, "lat": 38.927563666666664, "fusion_lon": 0.0, "is_disabled": 0}, {"rental_uris": {"android": "https://dc.lft.to/lastmile_qr_scan", "ios": "https://dc.lft.to/lastmile_qr_scan"}, "type": "electric_scooter", "lon": -77.0275975, "name": "1610e6079b4c3016b23028040afaffca", "bike_id": "1610e6079b4c3016b23028040afaffca", "fusion_lat": 0.0, "is_reserved": 0, "lat": 38.9238675, "fusion_lon": 0.0, "is_disabled": 0}, {"rental_uris": {"android": "https://dc.lft.to/lastmile_qr_scan", "ios": "https://dc.lft.to/lastmile_qr_scan"}, "type": "electric_scooter", "lon": -77.05626166666667, "name": "14b300d7b32d1cee790a0e3ab2fe9f8c", "bike_id": "14b300d7b32d1cee790a0e3ab2fe9f8c", "fusion_lat": 0.0, "is_reserved": 0, "lat": 38.92416633333333, "fusion_lon": 0.0, "is_disabled": 0}, {"rental_uris": {"android": "https://dc.lft.to/lastmile_qr_scan", "ios": "https://dc.lft.to/lastmile_qr_scan"}, "type": "electric_scooter", "lon": -77.04986366666667, "name": "3a8f972f5dc6292ef4d77e3acf59ef46", "bike_id": "3a8f972f5dc6292ef4d77e3acf59ef46", "fusion_lat": 0.0, "is_reserved": 0, "lat": 38.901009333333334, "fusion_lon": 0.0, "is_disabled": 0}, {"rental_uris": {"android": "https://dc.lft.to/lastmile_qr_scan", "ios": "https://dc.lft.to/lastmile_qr_scan"}, "type": "electric_scooter", "lon": -77.0045525, "name": "614779764e89e0d180faca472ae9467e", "bike_id": "614779764e89e0d180faca472ae9467e", "fusion_lat": 0.0, "is_reserved": 0, "lat": 38.92899516666667, "fusion_lon": 0.0, "is_disabled": 0}, {"rental_uris": {"android": "https://dc.lft.to/lastmile_qr_scan", "ios": "https://dc.lft.to/lastmile_qr_scan"}, "type": "electric_scooter", "lon": -77.03938966666666, "name": "0f3853b52350988d17b75382c2985184", "bike_id": "0f3853b52350988d17b75382c2985184", "fusion_lat": 0.0, "is_reserved": 0, "lat": 38.9041535, "fusion_lon": 0.0, "is_disabled": 0}, {"rental_uris": {"android": "https://dc.lft.to/lastmile_qr_scan", "ios": "https://dc.lft.to/lastmile_qr_scan"}, "type": "electric_scooter", "lon": -76.990032, "name": "39c1b84453d021d0b76e0ec7815c0f36", "bike_id": "39c1b84453d021d0b76e0ec7815c0f36", "fusion_lat": 0.0, "is_reserved": 0, "lat": 38.86510466666667, "fusion_lon": 0.0, "is_disabled": 0}, {"rental_uris": {"android": "https://dc.lft.to/lastmile_qr_scan", "ios": "https://dc.lft.to/lastmile_qr_scan"}, "type": "electric_scooter", "lon": -76.990862, "name": "93957dea7af7ea7b5192ace7fcdfa3c1", "bike_id": "93957dea7af7ea7b5192ace7fcdfa3c1", "fusion_lat": 0.0, "is_reserved": 0, "lat": 38.860520333333334, "fusion_lon": 0.0, "is_disabled": 0}, {"rental_uris": {"android": "https://dc.lft.to/lastmile_qr_scan", "ios": "https://dc.lft.to/lastmile_qr_scan"}, "type": "electric_scooter", "lon": -77.02282266666667, "name": "85179bf52723cd1964a46b8f1b56df49", "bike_id": "85179bf52723cd1964a46b8f1b56df49", "fusion_lat": 0.0, "is_reserved": 0, "lat": 38.9096435, "fusion_lon": 0.0, "is_disabled": 0}, {"rental_uris": {"android": "https://dc.lft.to/lastmile_qr_scan", "ios": "https://dc.lft.to/lastmile_qr_scan"}, "type": "electric_scooter", "lon": -76.99940133333334, "name": "7dd343a6fdea6a48c40cd6af436d2ea9", "bike_id": "7dd343a6fdea6a48c40cd6af436d2ea9", "fusion_lat": 0.0, "is_reserved": 0, "lat": 38.8432525, "fusion_lon": 0.0, "is_disabled": 0}, {"rental_uris": {"android": "https://dc.lft.to/lastmile_qr_scan", "ios": "https://dc.lft.to/lastmile_qr_scan"}, "type": "electric_scooter", "lon": -77.0434955, "name": "e86cfe6d631f0551f8073b793fd78200", "bike_id": "e86cfe6d631f0551f8073b793fd78200", "fusion_lat": 0.0, "is_reserved": 0, "lat": 38.9086395, "fusion_lon": 0.0, "is_disabled": 0}, {"rental_uris": {"android": "https://dc.lft.to/lastmile_qr_scan", "ios": "https://dc.lft.to/lastmile_qr_scan"}, "type": "electric_scooter", "lon": -77.01998633333334, "name": "9ab2719b73c06193cbd3537306a21210", "bike_id": "9ab2719b73c06193cbd3537306a21210", "fusion_lat": 0.0, "is_reserved": 0, "lat": 38.9664195, "fusion_lon": 0.0, "is_disabled": 0}, {"rental_uris": {"android": "https://dc.lft.to/lastmile_qr_scan", "ios": "https://dc.lft.to/lastmile_qr_scan"}, "type": "electric_scooter", "lon": -77.0465215, "name": "f5654a7b9bb974c58666e8d7a6de2a74", "bike_id": "f5654a7b9bb974c58666e8d7a6de2a74", "fusion_lat": 0.0, "is_reserved": 0, "lat": 38.90013066666667, "fusion_lon": 0.0, "is_disabled": 0}, {"rental_uris": {"android": "https://dc.lft.to/lastmile_qr_scan", "ios": "https://dc.lft.to/lastmile_qr_scan"}, "type": "electric_scooter", "lon": -77.045002, "name": "de023bc55d1a62ba88c23227ebe21e77", "bike_id": "de023bc55d1a62ba88c23227ebe21e77", "fusion_lat": 0.0, "is_reserved": 0, "lat": 38.91854683333333, "fusion_lon": 0.0, "is_disabled": 0}, {"rental_uris": {"android": "https://dc.lft.to/lastmile_qr_scan", "ios": "https://dc.lft.to/lastmile_qr_scan"}, "type": "electric_bike", "lon": -76.95807716666667, "name": "3b6d6e8cbb520d031a4bb92d992963b6", "bike_id": "3b6d6e8cbb520d031a4bb92d992963b6", "fusion_lat": 0.0, "is_reserved": 0, "lat": 38.98056366666667, "fusion_lon": 0.0, "is_disabled": 0}, {"rental_uris": {"android": "https://dc.lft.to/lastmile_qr_scan", "ios": "https://dc.lft.to/lastmile_qr_scan"}, "type": "electric_scooter", "lon": -76.9936175, "name": "9e9b3ce4669445b3bdc88ab00cd6fe73", "bike_id": "9e9b3ce4669445b3bdc88ab00cd6fe73", "fusion_lat": 0.0, "is_reserved": 0, "lat": 38.9284325, "fusion_lon": 0.0, "is_disabled": 0}, {"rental_uris": {"android": "https://dc.lft.to/lastmile_qr_scan", "ios": "https://dc.lft.to/lastmile_qr_scan"}, "type": "electric_scooter", "lon": -77.058817, "name": "f739de127333f42ba07d75effe519054", "bike_id": "f739de127333f42ba07d75effe519054", "fusion_lat": 0.0, "is_reserved": 0, "lat": 38.936388, "fusion_lon": 0.0, "is_disabled": 0}, {"rental_uris": {"android": "https://dc.lft.to/lastmile_qr_scan", "ios": "https://dc.lft.to/lastmile_qr_scan"}, "type": "electric_scooter", "lon": -76.99403166666667, "name": "48f262215acfddc182592cf307b3823d", "bike_id": "48f262215acfddc182592cf307b3823d", "fusion_lat": 0.0, "is_reserved": 0, "lat": 38.922817333333334, "fusion_lon": 0.0, "is_disabled": 0}, {"rental_uris": {"android": "https://dc.lft.to/lastmile_qr_scan", "ios": "https://dc.lft.to/lastmile_qr_scan"}, "type": "electric_bike", "lon": -76.995672, "name": "adada7fceb50a5a22e761e322df5b106", "bike_id": "adada7fceb50a5a22e761e322df5b106", "fusion_lat": 0.0, "is_reserved": 0, "lat": 39.0079055, "fusion_lon": 0.0, "is_disabled": 0}, {"rental_uris": {"android": "https://dc.lft.to/lastmile_qr_scan", "ios": "https://dc.lft.to/lastmile_qr_scan"}, "type": "electric_scooter", "lon": -77.07166066666667, "name": "0891429ff7d3836078fb1b2f390c7cb2", "bike_id": "0891429ff7d3836078fb1b2f390c7cb2", "fusion_lat": 0.0, "is_reserved": 0, "lat": 38.958444, "fusion_lon": 0.0, "is_disabled": 0}, {"rental_uris": {"android": "https://dc.lft.to/lastmile_qr_scan", "ios": "https://dc.lft.to/lastmile_qr_scan"}, "type": "electric_scooter", "lon": -77.0016185, "name": "597bf537d678d1abe231d69901183659", "bike_id": "597bf537d678d1abe231d69901183659", "fusion_lat": 0.0, "is_reserved": 0, "lat": 38.905159833333336, "fusion_lon": 0.0, "is_disabled": 0}, {"rental_uris": {"android": "https://dc.lft.to/lastmile_qr_scan", "ios": "https://dc.lft.to/lastmile_qr_scan"}, "type": "electric_bike", "lon": -77.095587, "name": "6d296b36938dd2999076054f7e564a9e", "bike_id": "6d296b36938dd2999076054f7e564a9e", "fusion_lat": 0.0, "is_reserved": 0, "lat": 38.91708233333333, "fusion_lon": 0.0, "is_disabled": 0}, {"rental_uris": {"android": "https://dc.lft.to/lastmile_qr_scan", "ios": "https://dc.lft.to/lastmile_qr_scan"}, "type": "electric_scooter", "lon": -77.01812166666667, "name": "1bcacff4080cdd2a9845d314edc4638b", "bike_id": "1bcacff4080cdd2a9845d314edc4638b", "fusion_lat": 0.0, "is_reserved": 0, "lat": 38.921691833333334, "fusion_lon": 0.0, "is_disabled": 0}, {"rental_uris": {"android": "https://dc.lft.to/lastmile_qr_scan", "ios": "https://dc.lft.to/lastmile_qr_scan"}, "type": "electric_scooter", "lon": -76.98712283333333, "name": "7167badf77624b1ba3f1cccabd713b7d", "bike_id": "7167badf77624b1ba3f1cccabd713b7d", "fusion_lat": 0.0, "is_reserved": 0, "lat": 38.86700066666667, "fusion_lon": 0.0, "is_disabled": 0}, {"rental_uris": {"android": "https://dc.lft.to/lastmile_qr_scan", "ios": "https://dc.lft.to/lastmile_qr_scan"}, "type": "electric_scooter", "lon": -77.03976, "name": "18973ef26549194370114d1c36a86f80", "bike_id": "18973ef26549194370114d1c36a86f80", "fusion_lat": 0.0, "is_reserved": 0, "lat": 38.90118966666667, "fusion_lon": 0.0, "is_disabled": 0}, {"rental_uris": {"android": "https://dc.lft.to/lastmile_qr_scan", "ios": "https://dc.lft.to/lastmile_qr_scan"}, "type": "electric_scooter", "lon": -76.998506, "name": "2a9291ddb759c9b37a0f4ec0e4d44dec", "bike_id": "2a9291ddb759c9b37a0f4ec0e4d44dec", "fusion_lat": 0.0, "is_reserved": 0, "lat": 38.90024433333333, "fusion_lon": 0.0, "is_disabled": 0}, {"rental_uris": {"android": "https://dc.lft.to/lastmile_qr_scan", "ios": "https://dc.lft.to/lastmile_qr_scan"}, "type": "electric_scooter", "lon": -77.043464, "name": "ef1662fb0f50fdeee83c96ab20548b3d", "bike_id": "ef1662fb0f50fdeee83c96ab20548b3d", "fusion_lat": 0.0, "is_reserved": 0, "lat": 38.90535066666666, "fusion_lon": 0.0, "is_disabled": 0}, {"rental_uris": {"android": "https://dc.lft.to/lastmile_qr_scan", "ios": "https://dc.lft.to/lastmile_qr_scan"}, "type": "electric_scooter", "lon": -77.00878733333333, "name": "550edf18b18a4357ceb8d753a81d3d5b", "bike_id": "550edf18b18a4357ceb8d753a81d3d5b", "fusion_lat": 0.0, "is_reserved": 0, "lat": 38.8733665, "fusion_lon": 0.0, "is_disabled": 0}, {"rental_uris": {"android": "https://dc.lft.to/lastmile_qr_scan", "ios": "https://dc.lft.to/lastmile_qr_scan"}, "type": "electric_scooter", "lon": -76.99261616666666, "name": "8699fa75ae847fa55233bd5ca9e438ac", "bike_id": "8699fa75ae847fa55233bd5ca9e438ac", "fusion_lat": 0.0, "is_reserved": 0, "lat": 38.892950666666664, "fusion_lon": 0.0, "is_disabled": 0}, {"rental_uris": {"android": "https://dc.lft.to/lastmile_qr_scan", "ios": "https://dc.lft.to/lastmile_qr_scan"}, "type": "electric_scooter", "lon": -77.02387666666667, "name": "3c2ae127f37b40bf94e02305607a85df", "bike_id": "3c2ae127f37b40bf94e02305607a85df", "fusion_lat": 0.0, "is_reserved": 0, "lat": 38.907131, "fusion_lon": 0.0, "is_disabled": 0}, {"rental_uris": {"android": "https://dc.lft.to/lastmile_qr_scan", "ios": "https://dc.lft.to/lastmile_qr_scan"}, "type": "electric_bike", "lon": -77.125029, "name": "4a89d2db9dc54582109645fee7010305", "bike_id": "4a89d2db9dc54582109645fee7010305", "fusion_lat": 0.0, "is_reserved": 0, "lat": 39.024254666666664, "fusion_lon": 0.0, "is_disabled": 0}, {"rental_uris": {"android": "https://dc.lft.to/lastmile_qr_scan", "ios": "https://dc.lft.to/lastmile_qr_scan"}, "type": "electric_scooter", "lon": -77.04507016666666, "name": "35c9f30d51bbe88866d24e990bdf4545", "bike_id": "35c9f30d51bbe88866d24e990bdf4545", "fusion_lat": 0.0, "is_reserved": 0, "lat": 38.892242333333336, "fusion_lon": 0.0, "is_disabled": 0}, {"rental_uris": {"android": "https://dc.lft.to/lastmile_qr_scan", "ios": "https://dc.lft.to/lastmile_qr_scan"}, "type": "electric_scooter", "lon": -77.04779783333333, "name": "0352a0d682fbe64a729d2cc9eba25165", "bike_id": "0352a0d682fbe64a729d2cc9eba25165", "fusion_lat": 0.0, "is_reserved": 0, "lat": 38.902429833333336, "fusion_lon": 0.0, "is_disabled": 0}, {"rental_uris": {"android": "https://dc.lft.to/lastmile_qr_scan", "ios": "https://dc.lft.to/lastmile_qr_scan"}, "type": "electric_scooter", "lon": -77.02970716666667, "name": "ae8db37d9bdc1158bfc34a6b9af52e5c", "bike_id": "ae8db37d9bdc1158bfc34a6b9af52e5c", "fusion_lat": 0.0, "is_reserved": 0, "lat": 38.90734166666667, "fusion_lon": 0.0, "is_disabled": 0}, {"rental_uris": {"android": "https://dc.lft.to/lastmile_qr_scan", "ios": "https://dc.lft.to/lastmile_qr_scan"}, "type": "electric_scooter", "lon": -77.00098183333333, "name": "33b235c0dbca64c2e3f781b42653abdf", "bike_id": "33b235c0dbca64c2e3f781b42653abdf", "fusion_lat": 0.0, "is_reserved": 0, "lat": 38.900234, "fusion_lon": 0.0, "is_disabled": 0}, {"rental_uris": {"android": "https://dc.lft.to/lastmile_qr_scan", "ios": "https://dc.lft.to/lastmile_qr_scan"}, "type": "electric_scooter", "lon": -77.02421783333334, "name": "b3219e53e9273466c846aa883f315654", "bike_id": "b3219e53e9273466c846aa883f315654", "fusion_lat": 0.0, "is_reserved": 0, "lat": 38.892299666666666, "fusion_lon": 0.0, "is_disabled": 0}, {"rental_uris": {"android": "https://dc.lft.to/lastmile_qr_scan", "ios": "https://dc.lft.to/lastmile_qr_scan"}, "type": "electric_scooter", "lon": -77.0277445, "name": "6d076db2c70f1f238f3c5247b07e081e", "bike_id": "6d076db2c70f1f238f3c5247b07e081e", "fusion_lat": 0.0, "is_reserved": 0, "lat": 38.927736, "fusion_lon": 0.0, "is_disabled": 0}, {"rental_uris": {"android": "https://dc.lft.to/lastmile_qr_scan", "ios": "https://dc.lft.to/lastmile_qr_scan"}, "type": "electric_scooter", "lon": -77.02815116666666, "name": "e237d822320ac4f014d01a3f9901b177", "bike_id": "e237d822320ac4f014d01a3f9901b177", "fusion_lat": 0.0, "is_reserved": 0, "lat": 38.95612783333333, "fusion_lon": 0.0, "is_disabled": 0}, {"rental_uris": {"android": "https://dc.lft.to/lastmile_qr_scan", "ios": "https://dc.lft.to/lastmile_qr_scan"}, "type": "electric_scooter", "lon": -77.04348816666666, "name": "3af93af8424c8c97d9650821a5dc0057", "bike_id": "3af93af8424c8c97d9650821a5dc0057", "fusion_lat": 0.0, "is_reserved": 0, "lat": 38.89657916666667, "fusion_lon": 0.0, "is_disabled": 0}, {"rental_uris": {"android": "https://dc.lft.to/lastmile_qr_scan", "ios": "https://dc.lft.to/lastmile_qr_scan"}, "type": "electric_scooter", "lon": -77.0387565, "name": "1cd077bafe51a6e4f28e8a583e3e06f0", "bike_id": "1cd077bafe51a6e4f28e8a583e3e06f0", "fusion_lat": 0.0, "is_reserved": 0, "lat": 38.932663, "fusion_lon": 0.0, "is_disabled": 0}, {"rental_uris": {"android": "https://dc.lft.to/lastmile_qr_scan", "ios": "https://dc.lft.to/lastmile_qr_scan"}, "type": "electric_bike", "lon": -77.12256883333333, "name": "6c947e22457f29e31a97c381513715cf", "bike_id": "6c947e22457f29e31a97c381513715cf", "fusion_lat": 0.0, "is_reserved": 0, "lat": 38.8919195, "fusion_lon": 0.0, "is_disabled": 0}, {"rental_uris": {"android": "https://dc.lft.to/lastmile_qr_scan", "ios": "https://dc.lft.to/lastmile_qr_scan"}, "type": "electric_bike", "lon": -77.1122195, "name": "d5326a9ab1e359c5d1ca02074cd5a400", "bike_id": "d5326a9ab1e359c5d1ca02074cd5a400", "fusion_lat": 0.0, "is_reserved": 0, "lat": 38.828753166666665, "fusion_lon": 0.0, "is_disabled": 0}, {"rental_uris": {"android": "https://dc.lft.to/lastmile_qr_scan", "ios": "https://dc.lft.to/lastmile_qr_scan"}, "type": "electric_scooter", "lon": -77.06765183333333, "name": "089a4d8d16dc4a3293e6efe35b6f6f23", "bike_id": "089a4d8d16dc4a3293e6efe35b6f6f23", "fusion_lat": 0.0, "is_reserved": 0, "lat": 38.90363766666667, "fusion_lon": 0.0, "is_disabled": 0}, {"rental_uris": {"android": "https://dc.lft.to/lastmile_qr_scan", "ios": "https://dc.lft.to/lastmile_qr_scan"}, "type": "electric_bike", "lon": -76.93517616666666, "name": "694971166dbf5cd9a0140c0825a512f0", "bike_id": "694971166dbf5cd9a0140c0825a512f0", "fusion_lat": 0.0, "is_reserved": 0, "lat": 38.955490833333336, "fusion_lon": 0.0, "is_disabled": 0}, {"rental_uris": {"android": "https://dc.lft.to/lastmile_qr_scan", "ios": "https://dc.lft.to/lastmile_qr_scan"}, "type": "electric_scooter", "lon": -77.05292883333334, "name": "dfdf3260f1b4bfa451132c70c94fc617", "bike_id": "dfdf3260f1b4bfa451132c70c94fc617", "fusion_lat": 0.0, "is_reserved": 0, "lat": 38.9255325, "fusion_lon": 0.0, "is_disabled": 0}, {"rental_uris": {"android": "https://dc.lft.to/lastmile_qr_scan", "ios": "https://dc.lft.to/lastmile_qr_scan"}, "type": "electric_scooter", "lon": -76.99162016666666, "name": "92af2f625ecee27344a909aa3ae3785d", "bike_id": "92af2f625ecee27344a909aa3ae3785d", "fusion_lat": 0.0, "is_reserved": 0, "lat": 38.879188, "fusion_lon": 0.0, "is_disabled": 0}, {"rental_uris": {"android": "https://dc.lft.to/lastmile_qr_scan", "ios": "https://dc.lft.to/lastmile_qr_scan"}, "type": "electric_scooter", "lon": -77.015588, "name": "aef039709b9d077e348290ea1504e4ca", "bike_id": "aef039709b9d077e348290ea1504e4ca", "fusion_lat": 0.0, "is_reserved": 0, "lat": 38.914723333333335, "fusion_lon": 0.0, "is_disabled": 0}, {"rental_uris": {"android": "https://dc.lft.to/lastmile_qr_scan", "ios": "https://dc.lft.to/lastmile_qr_scan"}, "type": "electric_scooter", "lon": -77.07858966666667, "name": "75cd20d9b1bcb5cfde29705b6b533d32", "bike_id": "75cd20d9b1bcb5cfde29705b6b533d32", "fusion_lat": 0.0, "is_reserved": 0, "lat": 38.92464666666667, "fusion_lon": 0.0, "is_disabled": 0}, {"rental_uris": {"android": "https://dc.lft.to/lastmile_qr_scan", "ios": "https://dc.lft.to/lastmile_qr_scan"}, "type": "electric_bike", "lon": -77.07682716666666, "name": "e6ee2bd33ea0263084af40f31d77c739", "bike_id": "e6ee2bd33ea0263084af40f31d77c739", "fusion_lat": 0.0, "is_reserved": 0, "lat": 38.83196483333333, "fusion_lon": 0.0, "is_disabled": 0}, {"rental_uris": {"android": "https://dc.lft.to/lastmile_qr_scan", "ios": "https://dc.lft.to/lastmile_qr_scan"}, "type": "electric_scooter", "lon": -77.00053916666667, "name": "105f4069d8701785b3fb19ada9a021e0", "bike_id": "105f4069d8701785b3fb19ada9a021e0", "fusion_lat": 0.0, "is_reserved": 0, "lat": 38.875316833333336, "fusion_lon": 0.0, "is_disabled": 0}, {"rental_uris": {"android": "https://dc.lft.to/lastmile_qr_scan", "ios": "https://dc.lft.to/lastmile_qr_scan"}, "type": "electric_bike", "lon": -76.98730333333333, "name": "21af560d7c2ed50928dfd8af08574661", "bike_id": "21af560d7c2ed50928dfd8af08574661", "fusion_lat": 0.0, "is_reserved": 0, "lat": 38.94435466666667, "fusion_lon": 0.0, "is_disabled": 0}, {"rental_uris": {"android": "https://dc.lft.to/lastmile_qr_scan", "ios": "https://dc.lft.to/lastmile_qr_scan"}, "type": "electric_scooter", "lon": -77.00210433333334, "name": "1e3b75b81561163782d6a152882a5980", "bike_id": "1e3b75b81561163782d6a152882a5980", "fusion_lat": 0.0, "is_reserved": 0, "lat": 38.877479, "fusion_lon": 0.0, "is_disabled": 0}, {"rental_uris": {"android": "https://dc.lft.to/lastmile_qr_scan", "ios": "https://dc.lft.to/lastmile_qr_scan"}, "type": "electric_scooter", "lon": -77.02708816666667, "name": "4f294f40369a92f1c68efda5602ae423", "bike_id": "4f294f40369a92f1c68efda5602ae423", "fusion_lat": 0.0, "is_reserved": 0, "lat": 38.92470466666666, "fusion_lon": 0.0, "is_disabled": 0}, {"rental_uris": {"android": "https://dc.lft.to/lastmile_qr_scan", "ios": "https://dc.lft.to/lastmile_qr_scan"}, "type": "electric_scooter", "lon": -77.04735566666666, "name": "dd91a86c4d34bc28de2aadf8976ce5ee", "bike_id": "dd91a86c4d34bc28de2aadf8976ce5ee", "fusion_lat": 0.0, "is_reserved": 0, "lat": 38.90243516666666, "fusion_lon": 0.0, "is_disabled": 0}, {"rental_uris": {"android": "https://dc.lft.to/lastmile_qr_scan", "ios": "https://dc.lft.to/lastmile_qr_scan"}, "type": "electric_scooter", "lon": -77.01096916666667, "name": "7f939ec801416051a4243f9a9f09c368", "bike_id": "7f939ec801416051a4243f9a9f09c368", "fusion_lat": 0.0, "is_reserved": 0, "lat": 38.905605, "fusion_lon": 0.0, "is_disabled": 0}, {"rental_uris": {"android": "https://dc.lft.to/lastmile_qr_scan", "ios": "https://dc.lft.to/lastmile_qr_scan"}, "type": "electric_scooter", "lon": -77.0235, "name": "65f8e3f82ee9f440b967924260031dab", "bike_id": "65f8e3f82ee9f440b967924260031dab", "fusion_lat": 0.0, "is_reserved": 0, "lat": 38.929929666666666, "fusion_lon": 0.0, "is_disabled": 0}, {"rental_uris": {"android": "https://dc.lft.to/lastmile_qr_scan", "ios": "https://dc.lft.to/lastmile_qr_scan"}, "type": "electric_scooter", "lon": -77.050048, "name": "7ab9ad86e4be7702f365682d6ec13db3", "bike_id": "7ab9ad86e4be7702f365682d6ec13db3", "fusion_lat": 0.0, "is_reserved": 0, "lat": 38.892326, "fusion_lon": 0.0, "is_disabled": 0}, {"rental_uris": {"android": "https://dc.lft.to/lastmile_qr_scan", "ios": "https://dc.lft.to/lastmile_qr_scan"}, "type": "electric_scooter", "lon": -77.02546216666667, "name": "4b99700937e52b1530a567b1acec726f", "bike_id": "4b99700937e52b1530a567b1acec726f", "fusion_lat": 0.0, "is_reserved": 0, "lat": 38.93520866666667, "fusion_lon": 0.0, "is_disabled": 0}, {"rental_uris": {"android": "https://dc.lft.to/lastmile_qr_scan", "ios": "https://dc.lft.to/lastmile_qr_scan"}, "type": "electric_scooter", "lon": -77.03154483333333, "name": "f6cc3f03cdd5e728f2a7706496c1d4bd", "bike_id": "f6cc3f03cdd5e728f2a7706496c1d4bd", "fusion_lat": 0.0, "is_reserved": 0, "lat": 38.8976875, "fusion_lon": 0.0, "is_disabled": 0}, {"rental_uris": {"android": "https://dc.lft.to/lastmile_qr_scan", "ios": "https://dc.lft.to/lastmile_qr_scan"}, "type": "electric_bike", "lon": -77.09966366666667, "name": "ac7acb91cb5536998cd9055a4ee7afaa", "bike_id": "ac7acb91cb5536998cd9055a4ee7afaa", "fusion_lat": 0.0, "is_reserved": 0, "lat": 38.85796116666667, "fusion_lon": 0.0, "is_disabled": 0}, {"rental_uris": {"android": "https://dc.lft.to/lastmile_qr_scan", "ios": "https://dc.lft.to/lastmile_qr_scan"}, "type": "electric_scooter", "lon": -77.032718, "name": "74bb4011425cb6cccd7bcf1fb7b3c57e", "bike_id": "74bb4011425cb6cccd7bcf1fb7b3c57e", "fusion_lat": 0.0, "is_reserved": 0, "lat": 38.924594, "fusion_lon": 0.0, "is_disabled": 0}, {"rental_uris": {"android": "https://dc.lft.to/lastmile_qr_scan", "ios": "https://dc.lft.to/lastmile_qr_scan"}, "type": "electric_bike", "lon": -76.98828933333333, "name": "70985d3f74e65a0e9f6b351b3231f9d8", "bike_id": "70985d3f74e65a0e9f6b351b3231f9d8", "fusion_lat": 0.0, "is_reserved": 0, "lat": 38.9856595, "fusion_lon": 0.0, "is_disabled": 0}, {"rental_uris": {"android": "https://dc.lft.to/lastmile_qr_scan", "ios": "https://dc.lft.to/lastmile_qr_scan"}, "type": "electric_scooter", "lon": -77.02179666666666, "name": "e0f4da5851f077ed49bd3f15af110b8f", "bike_id": "e0f4da5851f077ed49bd3f15af110b8f", "fusion_lat": 0.0, "is_reserved": 0, "lat": 38.892279333333335, "fusion_lon": 0.0, "is_disabled": 0}, {"rental_uris": {"android": "https://dc.lft.to/lastmile_qr_scan", "ios": "https://dc.lft.to/lastmile_qr_scan"}, "type": "electric_scooter", "lon": -77.04845233333333, "name": "aa756c331215273c76c8c6bc010965b0", "bike_id": "aa756c331215273c76c8c6bc010965b0", "fusion_lat": 0.0, "is_reserved": 0, "lat": 38.900429333333335, "fusion_lon": 0.0, "is_disabled": 0}, {"rental_uris": {"android": "https://dc.lft.to/lastmile_qr_scan", "ios": "https://dc.lft.to/lastmile_qr_scan"}, "type": "electric_scooter", "lon": -77.04581166666667, "name": "5175b314f70bc161434a15ec699de218", "bike_id": "5175b314f70bc161434a15ec699de218", "fusion_lat": 0.0, "is_reserved": 0, "lat": 38.9214295, "fusion_lon": 0.0, "is_disabled": 0}, {"rental_uris": {"android": "https://dc.lft.to/lastmile_qr_scan", "ios": "https://dc.lft.to/lastmile_qr_scan"}, "type": "electric_scooter", "lon": -77.02353533333333, "name": "0b8f187df8a3d7bd999087617c31b6a7", "bike_id": "0b8f187df8a3d7bd999087617c31b6a7", "fusion_lat": 0.0, "is_reserved": 0, "lat": 38.91786483333333, "fusion_lon": 0.0, "is_disabled": 0}, {"rental_uris": {"android": "https://dc.lft.to/lastmile_qr_scan", "ios": "https://dc.lft.to/lastmile_qr_scan"}, "type": "electric_scooter", "lon": -77.04635566666667, "name": "5e7453d91d1c62df0917a86612b47d80", "bike_id": "5e7453d91d1c62df0917a86612b47d80", "fusion_lat": 0.0, "is_reserved": 0, "lat": 38.900687833333336, "fusion_lon": 0.0, "is_disabled": 0}, {"rental_uris": {"android": "https://dc.lft.to/lastmile_qr_scan", "ios": "https://dc.lft.to/lastmile_qr_scan"}, "type": "electric_scooter", "lon": -77.02535766666666, "name": "5363b52507fc369555d66b32d1b29db5", "bike_id": "5363b52507fc369555d66b32d1b29db5", "fusion_lat": 0.0, "is_reserved": 0, "lat": 38.927519833333335, "fusion_lon": 0.0, "is_disabled": 0}, {"rental_uris": {"android": "https://dc.lft.to/lastmile_qr_scan", "ios": "https://dc.lft.to/lastmile_qr_scan"}, "type": "electric_scooter", "lon": -77.02341866666667, "name": "ef9aa5c05805a68e6a4b73973450d1a1", "bike_id": "ef9aa5c05805a68e6a4b73973450d1a1", "fusion_lat": 0.0, "is_reserved": 0, "lat": 38.93327033333333, "fusion_lon": 0.0, "is_disabled": 0}, {"rental_uris": {"android": "https://dc.lft.to/lastmile_qr_scan", "ios": "https://dc.lft.to/lastmile_qr_scan"}, "type": "electric_scooter", "lon": -77.02510266666667, "name": "b33118f79d8301e8c095705e4c7ce5a6", "bike_id": "b33118f79d8301e8c095705e4c7ce5a6", "fusion_lat": 0.0, "is_reserved": 0, "lat": 38.94183616666667, "fusion_lon": 0.0, "is_disabled": 0}, {"rental_uris": {"android": "https://dc.lft.to/lastmile_qr_scan", "ios": "https://dc.lft.to/lastmile_qr_scan"}, "type": "electric_scooter", "lon": -77.00227766666667, "name": "c297ea5447d942a24e4c2b277a590d8c", "bike_id": "c297ea5447d942a24e4c2b277a590d8c", "fusion_lat": 0.0, "is_reserved": 0, "lat": 38.957346666666666, "fusion_lon": 0.0, "is_disabled": 0}, {"rental_uris": {"android": "https://dc.lft.to/lastmile_qr_scan", "ios": "https://dc.lft.to/lastmile_qr_scan"}, "type": "electric_scooter", "lon": -77.00011366666666, "name": "c13be9d2700e9c1734b9a1624d262cb3", "bike_id": "c13be9d2700e9c1734b9a1624d262cb3", "fusion_lat": 0.0, "is_reserved": 0, "lat": 38.900208, "fusion_lon": 0.0, "is_disabled": 0}, {"rental_uris": {"android": "https://dc.lft.to/lastmile_qr_scan", "ios": "https://dc.lft.to/lastmile_qr_scan"}, "type": "electric_bike", "lon": -76.98161966666666, "name": "2c7d790d0bbbc69c0204bd8c18e76100", "bike_id": "2c7d790d0bbbc69c0204bd8c18e76100", "fusion_lat": 0.0, "is_reserved": 0, "lat": 38.95959833333333, "fusion_lon": 0.0, "is_disabled": 0}, {"rental_uris": {"android": "https://dc.lft.to/lastmile_qr_scan", "ios": "https://dc.lft.to/lastmile_qr_scan"}, "type": "electric_scooter", "lon": -77.01871, "name": "55f7b04595cf1e8f43d1eb071c2b003e", "bike_id": "55f7b04595cf1e8f43d1eb071c2b003e", "fusion_lat": 0.0, "is_reserved": 0, "lat": 38.9489415, "fusion_lon": 0.0, "is_disabled": 0}, {"rental_uris": {"android": "https://dc.lft.to/lastmile_qr_scan", "ios": "https://dc.lft.to/lastmile_qr_scan"}, "type": "electric_scooter", "lon": -77.00188983333334, "name": "160d26fe48d0742aeddf23d6a028fc5d", "bike_id": "160d26fe48d0742aeddf23d6a028fc5d", "fusion_lat": 0.0, "is_reserved": 0, "lat": 38.903814, "fusion_lon": 0.0, "is_disabled": 0}, {"rental_uris": {"android": "https://dc.lft.to/lastmile_qr_scan", "ios": "https://dc.lft.to/lastmile_qr_scan"}, "type": "electric_scooter", "lon": -77.00934783333334, "name": "b04f5c6a315a245d5cccd3c338559427", "bike_id": "b04f5c6a315a245d5cccd3c338559427", "fusion_lat": 0.0, "is_reserved": 0, "lat": 38.876316333333335, "fusion_lon": 0.0, "is_disabled": 0}, {"rental_uris": {"android": "https://dc.lft.to/lastmile_qr_scan", "ios": "https://dc.lft.to/lastmile_qr_scan"}, "type": "electric_scooter", "lon": -77.02926166666667, "name": "2ffdae83f9d4d0e50bfc3a75421bca43", "bike_id": "2ffdae83f9d4d0e50bfc3a75421bca43", "fusion_lat": 0.0, "is_reserved": 0, "lat": 38.8822115, "fusion_lon": 0.0, "is_disabled": 0}, {"rental_uris": {"android": "https://dc.lft.to/lastmile_qr_scan", "ios": "https://dc.lft.to/lastmile_qr_scan"}, "type": "electric_scooter", "lon": -77.04086366666667, "name": "6e963ae5fa40bb64e99ad45b84fe42c8", "bike_id": "6e963ae5fa40bb64e99ad45b84fe42c8", "fusion_lat": 0.0, "is_reserved": 0, "lat": 38.920863833333335, "fusion_lon": 0.0, "is_disabled": 0}, {"rental_uris": {"android": "https://dc.lft.to/lastmile_qr_scan", "ios": "https://dc.lft.to/lastmile_qr_scan"}, "type": "electric_scooter", "lon": -76.98453883333333, "name": "d22a3f90e18b4ece1342e6c733e68af9", "bike_id": "d22a3f90e18b4ece1342e6c733e68af9", "fusion_lat": 0.0, "is_reserved": 0, "lat": 38.8801945, "fusion_lon": 0.0, "is_disabled": 0}, {"rental_uris": {"android": "https://dc.lft.to/lastmile_qr_scan", "ios": "https://dc.lft.to/lastmile_qr_scan"}, "type": "electric_scooter", "lon": -77.02713116666666, "name": "f6a44350eb4e1c8aa174e53b38b2c1ab", "bike_id": "f6a44350eb4e1c8aa174e53b38b2c1ab", "fusion_lat": 0.0, "is_reserved": 0, "lat": 38.924701166666665, "fusion_lon": 0.0, "is_disabled": 0}, {"rental_uris": {"android": "https://dc.lft.to/lastmile_qr_scan", "ios": "https://dc.lft.to/lastmile_qr_scan"}, "type": "electric_scooter", "lon": -76.96506216666667, "name": "316a9efc34cd62d0a8d4249e0b51c7b5", "bike_id": "316a9efc34cd62d0a8d4249e0b51c7b5", "fusion_lat": 0.0, "is_reserved": 0, "lat": 38.87649366666667, "fusion_lon": 0.0, "is_disabled": 0}, {"rental_uris": {"android": "https://dc.lft.to/lastmile_qr_scan", "ios": "https://dc.lft.to/lastmile_qr_scan"}, "type": "electric_scooter", "lon": -76.98322433333334, "name": "86141746d3717380a4faded8b3e03479", "bike_id": "86141746d3717380a4faded8b3e03479", "fusion_lat": 0.0, "is_reserved": 0, "lat": 38.86176416666667, "fusion_lon": 0.0, "is_disabled": 0}, {"rental_uris": {"android": "https://dc.lft.to/lastmile_qr_scan", "ios": "https://dc.lft.to/lastmile_qr_scan"}, "type": "electric_bike", "lon": -76.96836383333333, "name": "398585c41d533b34a96ef6e88d818bfc", "bike_id": "398585c41d533b34a96ef6e88d818bfc", "fusion_lat": 0.0, "is_reserved": 0, "lat": 38.924475666666666, "fusion_lon": 0.0, "is_disabled": 0}, {"rental_uris": {"android": "https://dc.lft.to/lastmile_qr_scan", "ios": "https://dc.lft.to/lastmile_qr_scan"}, "type": "electric_bike", "lon": -76.9299665, "name": "1a39d8f6a3f95dabfd9a7ec39ef3bed7", "bike_id": "1a39d8f6a3f95dabfd9a7ec39ef3bed7", "fusion_lat": 0.0, "is_reserved": 0, "lat": 38.88800716666667, "fusion_lon": 0.0, "is_disabled": 0}, {"rental_uris": {"android": "https://dc.lft.to/lastmile_qr_scan", "ios": "https://dc.lft.to/lastmile_qr_scan"}, "type": "electric_scooter", "lon": -77.04705583333333, "name": "e8e8daa534ea90572a19d99c8bfd7b6e", "bike_id": "e8e8daa534ea90572a19d99c8bfd7b6e", "fusion_lat": 0.0, "is_reserved": 0, "lat": 38.899682, "fusion_lon": 0.0, "is_disabled": 0}, {"rental_uris": {"android": "https://dc.lft.to/lastmile_qr_scan", "ios": "https://dc.lft.to/lastmile_qr_scan"}, "type": "electric_scooter", "lon": -77.07269216666667, "name": "c725c62757b021e94096bf399096a8ba", "bike_id": "c725c62757b021e94096bf399096a8ba", "fusion_lat": 0.0, "is_reserved": 0, "lat": 38.93488583333333, "fusion_lon": 0.0, "is_disabled": 0}, {"rental_uris": {"android": "https://dc.lft.to/lastmile_qr_scan", "ios": "https://dc.lft.to/lastmile_qr_scan"}, "type": "electric_scooter", "lon": -77.070721, "name": "487bdd89f8737ff332613473806f76e2", "bike_id": "487bdd89f8737ff332613473806f76e2", "fusion_lat": 0.0, "is_reserved": 0, "lat": 38.9193855, "fusion_lon": 0.0, "is_disabled": 0}, {"rental_uris": {"android": "https://dc.lft.to/lastmile_qr_scan", "ios": "https://dc.lft.to/lastmile_qr_scan"}, "type": "electric_bike", "lon": -77.15267866666667, "name": "c4f3159f3ef78258b7a33567686da60b", "bike_id": "c4f3159f3ef78258b7a33567686da60b", "fusion_lat": 0.0, "is_reserved": 0, "lat": 39.105679, "fusion_lon": 0.0, "is_disabled": 0}, {"rental_uris": {"android": "https://dc.lft.to/lastmile_qr_scan", "ios": "https://dc.lft.to/lastmile_qr_scan"}, "type": "electric_scooter", "lon": -77.03799416666666, "name": "5f3b3de46e4d5232db3c8608c9e34464", "bike_id": "5f3b3de46e4d5232db3c8608c9e34464", "fusion_lat": 0.0, "is_reserved": 0, "lat": 38.9302075, "fusion_lon": 0.0, "is_disabled": 0}, {"rental_uris": {"android": "https://dc.lft.to/lastmile_qr_scan", "ios": "https://dc.lft.to/lastmile_qr_scan"}, "type": "electric_bike", "lon": -77.06107733333333, "name": "8c3eae598a8e759c930ef82abf36a9ff", "bike_id": "8c3eae598a8e759c930ef82abf36a9ff", "fusion_lat": 0.0, "is_reserved": 0, "lat": 38.9451235, "fusion_lon": 0.0, "is_disabled": 0}, {"rental_uris": {"android": "https://dc.lft.to/lastmile_qr_scan", "ios": "https://dc.lft.to/lastmile_qr_scan"}, "type": "electric_scooter", "lon": -77.06396733333334, "name": "6d7a960be19a0e0477a689db58a80a45", "bike_id": "6d7a960be19a0e0477a689db58a80a45", "fusion_lat": 0.0, "is_reserved": 0, "lat": 38.94421416666667, "fusion_lon": 0.0, "is_disabled": 0}, {"rental_uris": {"android": "https://dc.lft.to/lastmile_qr_scan", "ios": "https://dc.lft.to/lastmile_qr_scan"}, "type": "electric_scooter", "lon": -76.9888215, "name": "ed8835c28bf12ea1c95d220238f7f500", "bike_id": "ed8835c28bf12ea1c95d220238f7f500", "fusion_lat": 0.0, "is_reserved": 0, "lat": 38.866748333333334, "fusion_lon": 0.0, "is_disabled": 0}, {"rental_uris": {"android": "https://dc.lft.to/lastmile_qr_scan", "ios": "https://dc.lft.to/lastmile_qr_scan"}, "type": "electric_scooter", "lon": -76.9499625, "name": "077d1dd25d16218fe8fb30c6254e9b6a", "bike_id": "077d1dd25d16218fe8fb30c6254e9b6a", "fusion_lat": 0.0, "is_reserved": 0, "lat": 38.89392466666666, "fusion_lon": 0.0, "is_disabled": 0}, {"rental_uris": {"android": "https://dc.lft.to/lastmile_qr_scan", "ios": "https://dc.lft.to/lastmile_qr_scan"}, "type": "electric_scooter", "lon": -77.05157966666667, "name": "1429405d9c52e13d8ecf4a3feb635898", "bike_id": "1429405d9c52e13d8ecf4a3feb635898", "fusion_lat": 0.0, "is_reserved": 0, "lat": 38.896679, "fusion_lon": 0.0, "is_disabled": 0}, {"rental_uris": {"android": "https://dc.lft.to/lastmile_qr_scan", "ios": "https://dc.lft.to/lastmile_qr_scan"}, "type": "electric_scooter", "lon": -77.04996516666667, "name": "9aff64c438b9b37eed1409e7de07c056", "bike_id": "9aff64c438b9b37eed1409e7de07c056", "fusion_lat": 0.0, "is_reserved": 0, "lat": 38.9011325, "fusion_lon": 0.0, "is_disabled": 0}, {"rental_uris": {"android": "https://dc.lft.to/lastmile_qr_scan", "ios": "https://dc.lft.to/lastmile_qr_scan"}, "type": "electric_scooter", "lon": -77.0199505, "name": "a7e63ff68f4fab26af0560cc5e77e3e0", "bike_id": "a7e63ff68f4fab26af0560cc5e77e3e0", "fusion_lat": 0.0, "is_reserved": 0, "lat": 38.913343, "fusion_lon": 0.0, "is_disabled": 0}, {"rental_uris": {"android": "https://dc.lft.to/lastmile_qr_scan", "ios": "https://dc.lft.to/lastmile_qr_scan"}, "type": "electric_scooter", "lon": -77.0236545, "name": "37b6d5dad928e7f5c33dd250a8c6d544", "bike_id": "37b6d5dad928e7f5c33dd250a8c6d544", "fusion_lat": 0.0, "is_reserved": 0, "lat": 38.90736916666667, "fusion_lon": 0.0, "is_disabled": 0}, {"rental_uris": {"android": "https://dc.lft.to/lastmile_qr_scan", "ios": "https://dc.lft.to/lastmile_qr_scan"}, "type": "electric_scooter", "lon": -77.03435483333334, "name": "4bbc8c58832bba00db75a1bcc3a3d082", "bike_id": "4bbc8c58832bba00db75a1bcc3a3d082", "fusion_lat": 0.0, "is_reserved": 0, "lat": 38.9042445, "fusion_lon": 0.0, "is_disabled": 0}, {"rental_uris": {"android": "https://dc.lft.to/lastmile_qr_scan", "ios": "https://dc.lft.to/lastmile_qr_scan"}, "type": "electric_bike", "lon": -77.05269166666666, "name": "b5c4ce69c9f6d5c682bf0b91cddf6a2d", "bike_id": "b5c4ce69c9f6d5c682bf0b91cddf6a2d", "fusion_lat": 0.0, "is_reserved": 0, "lat": 38.910535833333334, "fusion_lon": 0.0, "is_disabled": 0}, {"rental_uris": {"android": "https://dc.lft.to/lastmile_qr_scan", "ios": "https://dc.lft.to/lastmile_qr_scan"}, "type": "electric_bike", "lon": -76.96088666666667, "name": "a572cd43dfd35b8623cab62602fa59ac", "bike_id": "a572cd43dfd35b8623cab62602fa59ac", "fusion_lat": 0.0, "is_reserved": 0, "lat": 38.918544833333335, "fusion_lon": 0.0, "is_disabled": 0}, {"rental_uris": {"android": "https://dc.lft.to/lastmile_qr_scan", "ios": "https://dc.lft.to/lastmile_qr_scan"}, "type": "electric_bike", "lon": -77.06378566666666, "name": "488e63c11917afb139b534e003c53ba3", "bike_id": "488e63c11917afb139b534e003c53ba3", "fusion_lat": 0.0, "is_reserved": 0, "lat": 39.017389, "fusion_lon": 0.0, "is_disabled": 0}, {"rental_uris": {"android": "https://dc.lft.to/lastmile_qr_scan", "ios": "https://dc.lft.to/lastmile_qr_scan"}, "type": "electric_scooter", "lon": -76.982084, "name": "dd03918be696ffa6723c140952b1e260", "bike_id": "dd03918be696ffa6723c140952b1e260", "fusion_lat": 0.0, "is_reserved": 0, "lat": 38.901834, "fusion_lon": 0.0, "is_disabled": 0}, {"rental_uris": {"android": "https://dc.lft.to/lastmile_qr_scan", "ios": "https://dc.lft.to/lastmile_qr_scan"}, "type": "electric_scooter", "lon": -77.03714766666667, "name": "e69245d41eb26773ed70a086a7a40d89", "bike_id": "e69245d41eb26773ed70a086a7a40d89", "fusion_lat": 0.0, "is_reserved": 0, "lat": 38.915551666666666, "fusion_lon": 0.0, "is_disabled": 0}, {"rental_uris": {"android": "https://dc.lft.to/lastmile_qr_scan", "ios": "https://dc.lft.to/lastmile_qr_scan"}, "type": "electric_scooter", "lon": -77.02616533333334, "name": "517508905734e7b7d89bcaf32b686fe3", "bike_id": "517508905734e7b7d89bcaf32b686fe3", "fusion_lat": 0.0, "is_reserved": 0, "lat": 38.9191545, "fusion_lon": 0.0, "is_disabled": 0}, {"rental_uris": {"android": "https://dc.lft.to/lastmile_qr_scan", "ios": "https://dc.lft.to/lastmile_qr_scan"}, "type": "electric_scooter", "lon": -77.02480733333333, "name": "c1346cf6280aad382d86dacf95954a29", "bike_id": "c1346cf6280aad382d86dacf95954a29", "fusion_lat": 0.0, "is_reserved": 0, "lat": 38.93880166666667, "fusion_lon": 0.0, "is_disabled": 0}, {"rental_uris": {"android": "https://dc.lft.to/lastmile_qr_scan", "ios": "https://dc.lft.to/lastmile_qr_scan"}, "type": "electric_scooter", "lon": -77.06289966666667, "name": "7d6829f000b4061a55d633afb0b05c7c", "bike_id": "7d6829f000b4061a55d633afb0b05c7c", "fusion_lat": 0.0, "is_reserved": 0, "lat": 38.90461766666667, "fusion_lon": 0.0, "is_disabled": 0}, {"rental_uris": {"android": "https://dc.lft.to/lastmile_qr_scan", "ios": "https://dc.lft.to/lastmile_qr_scan"}, "type": "electric_scooter", "lon": -77.01890266666666, "name": "4ea90817d9aba44cd335d78591bce7cd", "bike_id": "4ea90817d9aba44cd335d78591bce7cd", "fusion_lat": 0.0, "is_reserved": 0, "lat": 38.9094425, "fusion_lon": 0.0, "is_disabled": 0}, {"rental_uris": {"android": "https://dc.lft.to/lastmile_qr_scan", "ios": "https://dc.lft.to/lastmile_qr_scan"}, "type": "electric_scooter", "lon": -76.99012566666667, "name": "a31a389428334d2f00c42910d607ac58", "bike_id": "a31a389428334d2f00c42910d607ac58", "fusion_lat": 0.0, "is_reserved": 0, "lat": 38.861139333333334, "fusion_lon": 0.0, "is_disabled": 0}, {"rental_uris": {"android": "https://dc.lft.to/lastmile_qr_scan", "ios": "https://dc.lft.to/lastmile_qr_scan"}, "type": "electric_scooter", "lon": -77.07105066666666, "name": "d4dafe04b0d810bea4e086e0eba78ed5", "bike_id": "d4dafe04b0d810bea4e086e0eba78ed5", "fusion_lat": 0.0, "is_reserved": 0, "lat": 38.919913666666666, "fusion_lon": 0.0, "is_disabled": 0}, {"rental_uris": {"android": "https://dc.lft.to/lastmile_qr_scan", "ios": "https://dc.lft.to/lastmile_qr_scan"}, "type": "electric_scooter", "lon": -77.03902933333333, "name": "dc456181c078d5318af3c728477a0dcd", "bike_id": "dc456181c078d5318af3c728477a0dcd", "fusion_lat": 0.0, "is_reserved": 0, "lat": 38.914223166666666, "fusion_lon": 0.0, "is_disabled": 0}, {"rental_uris": {"android": "https://dc.lft.to/lastmile_qr_scan", "ios": "https://dc.lft.to/lastmile_qr_scan"}, "type": "electric_scooter", "lon": -76.9671145, "name": "0d1c780361031af37268e57c1fccdb30", "bike_id": "0d1c780361031af37268e57c1fccdb30", "fusion_lat": 0.0, "is_reserved": 0, "lat": 38.869535666666664, "fusion_lon": 0.0, "is_disabled": 0}, {"rental_uris": {"android": "https://dc.lft.to/lastmile_qr_scan", "ios": "https://dc.lft.to/lastmile_qr_scan"}, "type": "electric_scooter", "lon": -77.0138365, "name": "67a760b474e7ac07ec79cbf4dc1a3919", "bike_id": "67a760b474e7ac07ec79cbf4dc1a3919", "fusion_lat": 0.0, "is_reserved": 0, "lat": 38.9195025, "fusion_lon": 0.0, "is_disabled": 0}, {"rental_uris": {"android": "https://dc.lft.to/lastmile_qr_scan", "ios": "https://dc.lft.to/lastmile_qr_scan"}, "type": "electric_scooter", "lon": -77.02971833333334, "name": "444a832111edc6307894c3114f8188e1", "bike_id": "444a832111edc6307894c3114f8188e1", "fusion_lat": 0.0, "is_reserved": 0, "lat": 38.905541666666664, "fusion_lon": 0.0, "is_disabled": 0}, {"rental_uris": {"android": "https://dc.lft.to/lastmile_qr_scan", "ios": "https://dc.lft.to/lastmile_qr_scan"}, "type": "electric_scooter", "lon": -77.03874316666666, "name": "c8cbf14a88be8b88d5d7b70930d5ff68", "bike_id": "c8cbf14a88be8b88d5d7b70930d5ff68", "fusion_lat": 0.0, "is_reserved": 0, "lat": 38.9326845, "fusion_lon": 0.0, "is_disabled": 0}, {"rental_uris": {"android": "https://dc.lft.to/lastmile_qr_scan", "ios": "https://dc.lft.to/lastmile_qr_scan"}, "type": "electric_bike", "lon": -77.02489466666667, "name": "90b5af8ef2b96af8499eadd05e2bdebc", "bike_id": "90b5af8ef2b96af8499eadd05e2bdebc", "fusion_lat": 0.0, "is_reserved": 0, "lat": 38.973701166666665, "fusion_lon": 0.0, "is_disabled": 0}, {"rental_uris": {"android": "https://dc.lft.to/lastmile_qr_scan", "ios": "https://dc.lft.to/lastmile_qr_scan"}, "type": "electric_scooter", "lon": -76.9963075, "name": "fde8111797c15a5e3e7e692a51fe9d01", "bike_id": "fde8111797c15a5e3e7e692a51fe9d01", "fusion_lat": 0.0, "is_reserved": 0, "lat": 38.846238166666666, "fusion_lon": 0.0, "is_disabled": 0}, {"rental_uris": {"android": "https://dc.lft.to/lastmile_qr_scan", "ios": "https://dc.lft.to/lastmile_qr_scan"}, "type": "electric_scooter", "lon": -76.94917033333333, "name": "1664bf5fba950c88ae0b238dffe74e1c", "bike_id": "1664bf5fba950c88ae0b238dffe74e1c", "fusion_lat": 0.0, "is_reserved": 0, "lat": 38.8848165, "fusion_lon": 0.0, "is_disabled": 0}, {"rental_uris": {"android": "https://dc.lft.to/lastmile_qr_scan", "ios": "https://dc.lft.to/lastmile_qr_scan"}, "type": "electric_scooter", "lon": -76.99685633333333, "name": "bec9e4ecef343af9e31d2b341474e4ea", "bike_id": "bec9e4ecef343af9e31d2b341474e4ea", "fusion_lat": 0.0, "is_reserved": 0, "lat": 38.87662066666667, "fusion_lon": 0.0, "is_disabled": 0}, {"rental_uris": {"android": "https://dc.lft.to/lastmile_qr_scan", "ios": "https://dc.lft.to/lastmile_qr_scan"}, "type": "electric_scooter", "lon": -77.03882283333333, "name": "a72fbacb3ee83e2d8fffc793e111e0f3", "bike_id": "a72fbacb3ee83e2d8fffc793e111e0f3", "fusion_lat": 0.0, "is_reserved": 0, "lat": 38.933680833333334, "fusion_lon": 0.0, "is_disabled": 0}, {"rental_uris": {"android": "https://dc.lft.to/lastmile_qr_scan", "ios": "https://dc.lft.to/lastmile_qr_scan"}, "type": "electric_bike", "lon": -76.98007533333333, "name": "f311fa6f0ed0875fbf333e383ffaef73", "bike_id": "f311fa6f0ed0875fbf333e383ffaef73", "fusion_lat": 0.0, "is_reserved": 0, "lat": 38.90250483333333, "fusion_lon": 0.0, "is_disabled": 0}, {"rental_uris": {"android": "https://dc.lft.to/lastmile_qr_scan", "ios": "https://dc.lft.to/lastmile_qr_scan"}, "type": "electric_scooter", "lon": -77.00787266666667, "name": "07ae636c09f479307fec7efacacb0967", "bike_id": "07ae636c09f479307fec7efacacb0967", "fusion_lat": 0.0, "is_reserved": 0, "lat": 38.878508, "fusion_lon": 0.0, "is_disabled": 0}, {"rental_uris": {"android": "https://dc.lft.to/lastmile_qr_scan", "ios": "https://dc.lft.to/lastmile_qr_scan"}, "type": "electric_scooter", "lon": -77.02095, "name": "217eff2b2860a6b4d0fbc648e50a2d98", "bike_id": "217eff2b2860a6b4d0fbc648e50a2d98", "fusion_lat": 0.0, "is_reserved": 0, "lat": 38.91002983333333, "fusion_lon": 0.0, "is_disabled": 0}, {"rental_uris": {"android": "https://dc.lft.to/lastmile_qr_scan", "ios": "https://dc.lft.to/lastmile_qr_scan"}, "type": "electric_bike", "lon": -77.016615, "name": "00b9a5493e9434b9e699303c4f13b063", "bike_id": "00b9a5493e9434b9e699303c4f13b063", "fusion_lat": 0.0, "is_reserved": 0, "lat": 38.88113883333333, "fusion_lon": 0.0, "is_disabled": 0}, {"rental_uris": {"android": "https://dc.lft.to/lastmile_qr_scan", "ios": "https://dc.lft.to/lastmile_qr_scan"}, "type": "electric_scooter", "lon": -77.052931, "name": "04ac36095846d1acc5b2e0307afa14a4", "bike_id": "04ac36095846d1acc5b2e0307afa14a4", "fusion_lat": 0.0, "is_reserved": 0, "lat": 38.898833833333335, "fusion_lon": 0.0, "is_disabled": 0}, {"rental_uris": {"android": "https://dc.lft.to/lastmile_qr_scan", "ios": "https://dc.lft.to/lastmile_qr_scan"}, "type": "electric_scooter", "lon": -77.06103033333333, "name": "40016a45f7d5a44a8fcc5cf88316beb1", "bike_id": "40016a45f7d5a44a8fcc5cf88316beb1", "fusion_lat": 0.0, "is_reserved": 0, "lat": 38.94321, "fusion_lon": 0.0, "is_disabled": 0}, {"rental_uris": {"android": "https://dc.lft.to/lastmile_qr_scan", "ios": "https://dc.lft.to/lastmile_qr_scan"}, "type": "electric_scooter", "lon": -77.03906233333333, "name": "1db61804087dce83be6601d39daaefff", "bike_id": "1db61804087dce83be6601d39daaefff", "fusion_lat": 0.0, "is_reserved": 0, "lat": 38.914213, "fusion_lon": 0.0, "is_disabled": 0}, {"rental_uris": {"android": "https://dc.lft.to/lastmile_qr_scan", "ios": "https://dc.lft.to/lastmile_qr_scan"}, "type": "electric_scooter", "lon": -76.92654733333333, "name": "7e721f136ffcf11cad281e5ca113a6c5", "bike_id": "7e721f136ffcf11cad281e5ca113a6c5", "fusion_lat": 0.0, "is_reserved": 0, "lat": 38.895472166666664, "fusion_lon": 0.0, "is_disabled": 0}, {"rental_uris": {"android": "https://dc.lft.to/lastmile_qr_scan", "ios": "https://dc.lft.to/lastmile_qr_scan"}, "type": "electric_scooter", "lon": -76.99763233333333, "name": "1a69ee5840010d6c7206cb31aaced7eb", "bike_id": "1a69ee5840010d6c7206cb31aaced7eb", "fusion_lat": 0.0, "is_reserved": 0, "lat": 38.9218075, "fusion_lon": 0.0, "is_disabled": 0}, {"rental_uris": {"android": "https://dc.lft.to/lastmile_qr_scan", "ios": "https://dc.lft.to/lastmile_qr_scan"}, "type": "electric_scooter", "lon": -77.03196866666667, "name": "db2b756750e8c816d8131effac7fefdc", "bike_id": "db2b756750e8c816d8131effac7fefdc", "fusion_lat": 0.0, "is_reserved": 0, "lat": 38.9077085, "fusion_lon": 0.0, "is_disabled": 0}, {"rental_uris": {"android": "https://dc.lft.to/lastmile_qr_scan", "ios": "https://dc.lft.to/lastmile_qr_scan"}, "type": "electric_scooter", "lon": -77.02466633333333, "name": "bca02d2de3b820cd5f92907f73fcaee9", "bike_id": "bca02d2de3b820cd5f92907f73fcaee9", "fusion_lat": 0.0, "is_reserved": 0, "lat": 38.939079, "fusion_lon": 0.0, "is_disabled": 0}, {"rental_uris": {"android": "https://dc.lft.to/lastmile_qr_scan", "ios": "https://dc.lft.to/lastmile_qr_scan"}, "type": "electric_bike", "lon": -77.18292333333333, "name": "1f84c578b37537c06fb8ce112450ac49", "bike_id": "1f84c578b37537c06fb8ce112450ac49", "fusion_lat": 0.0, "is_reserved": 0, "lat": 38.883463166666665, "fusion_lon": 0.0, "is_disabled": 0}, {"rental_uris": {"android": "https://dc.lft.to/lastmile_qr_scan", "ios": "https://dc.lft.to/lastmile_qr_scan"}, "type": "electric_scooter", "lon": -77.039982, "name": "b2dff9fae7cd1f5f1d2ad0eea8b4c7a8", "bike_id": "b2dff9fae7cd1f5f1d2ad0eea8b4c7a8", "fusion_lat": 0.0, "is_reserved": 0, "lat": 38.91809666666666, "fusion_lon": 0.0, "is_disabled": 0}, {"rental_uris": {"android": "https://dc.lft.to/lastmile_qr_scan", "ios": "https://dc.lft.to/lastmile_qr_scan"}, "type": "electric_scooter", "lon": -77.023122, "name": "2915ff1749696e063cf0f3d3f3747878", "bike_id": "2915ff1749696e063cf0f3d3f3747878", "fusion_lat": 0.0, "is_reserved": 0, "lat": 38.9181875, "fusion_lon": 0.0, "is_disabled": 0}, {"rental_uris": {"android": "https://dc.lft.to/lastmile_qr_scan", "ios": "https://dc.lft.to/lastmile_qr_scan"}, "type": "electric_scooter", "lon": -77.002712, "name": "6eb9af71f598e910fe3f7029353fcb17", "bike_id": "6eb9af71f598e910fe3f7029353fcb17", "fusion_lat": 0.0, "is_reserved": 0, "lat": 38.9147705, "fusion_lon": 0.0, "is_disabled": 0}, {"rental_uris": {"android": "https://dc.lft.to/lastmile_qr_scan", "ios": "https://dc.lft.to/lastmile_qr_scan"}, "type": "electric_scooter", "lon": -77.06157433333334, "name": "942c575ede85efc531c3ff46dda48d92", "bike_id": "942c575ede85efc531c3ff46dda48d92", "fusion_lat": 0.0, "is_reserved": 0, "lat": 38.905292333333335, "fusion_lon": 0.0, "is_disabled": 0}, {"rental_uris": {"android": "https://dc.lft.to/lastmile_qr_scan", "ios": "https://dc.lft.to/lastmile_qr_scan"}, "type": "electric_scooter", "lon": -77.02542316666667, "name": "3f0eb8c5f92ea2098e3bd0bd0b2992a9", "bike_id": "3f0eb8c5f92ea2098e3bd0bd0b2992a9", "fusion_lat": 0.0, "is_reserved": 0, "lat": 38.892246666666665, "fusion_lon": 0.0, "is_disabled": 0}, {"rental_uris": {"android": "https://dc.lft.to/lastmile_qr_scan", "ios": "https://dc.lft.to/lastmile_qr_scan"}, "type": "electric_scooter", "lon": -76.98495533333333, "name": "dd6ee8c177e6fcc826b02c3a6e3614f5", "bike_id": "dd6ee8c177e6fcc826b02c3a6e3614f5", "fusion_lat": 0.0, "is_reserved": 0, "lat": 38.8604995, "fusion_lon": 0.0, "is_disabled": 0}, {"rental_uris": {"android": "https://dc.lft.to/lastmile_qr_scan", "ios": "https://dc.lft.to/lastmile_qr_scan"}, "type": "electric_scooter", "lon": -77.02944583333333, "name": "4b202d466524218e78e3935ea3c3a710", "bike_id": "4b202d466524218e78e3935ea3c3a710", "fusion_lat": 0.0, "is_reserved": 0, "lat": 38.905068, "fusion_lon": 0.0, "is_disabled": 0}, {"rental_uris": {"android": "https://dc.lft.to/lastmile_qr_scan", "ios": "https://dc.lft.to/lastmile_qr_scan"}, "type": "electric_scooter", "lon": -76.99018233333334, "name": "dffc77a4a32e9417e3e8e8cbf3336372", "bike_id": "dffc77a4a32e9417e3e8e8cbf3336372", "fusion_lat": 0.0, "is_reserved": 0, "lat": 38.85872966666667, "fusion_lon": 0.0, "is_disabled": 0}, {"rental_uris": {"android": "https://dc.lft.to/lastmile_qr_scan", "ios": "https://dc.lft.to/lastmile_qr_scan"}, "type": "electric_scooter", "lon": -77.07845016666667, "name": "df27b28e8962e3dda23ffc8017f4a250", "bike_id": "df27b28e8962e3dda23ffc8017f4a250", "fusion_lat": 0.0, "is_reserved": 0, "lat": 38.93131433333333, "fusion_lon": 0.0, "is_disabled": 0}, {"rental_uris": {"android": "https://dc.lft.to/lastmile_qr_scan", "ios": "https://dc.lft.to/lastmile_qr_scan"}, "type": "electric_scooter", "lon": -77.03854166666666, "name": "7a80ea1458b4f8f7a3a9e241b15872df", "bike_id": "7a80ea1458b4f8f7a3a9e241b15872df", "fusion_lat": 0.0, "is_reserved": 0, "lat": 38.91197283333333, "fusion_lon": 0.0, "is_disabled": 0}, {"rental_uris": {"android": "https://dc.lft.to/lastmile_qr_scan", "ios": "https://dc.lft.to/lastmile_qr_scan"}, "type": "electric_scooter", "lon": -77.03070433333333, "name": "131bcd763819473cbc5a1a0eb02e25ee", "bike_id": "131bcd763819473cbc5a1a0eb02e25ee", "fusion_lat": 0.0, "is_reserved": 0, "lat": 38.922490333333336, "fusion_lon": 0.0, "is_disabled": 0}, {"rental_uris": {"android": "https://dc.lft.to/lastmile_qr_scan", "ios": "https://dc.lft.to/lastmile_qr_scan"}, "type": "electric_scooter", "lon": -77.02962983333333, "name": "7fe1316b2810293a43e26090d80d992e", "bike_id": "7fe1316b2810293a43e26090d80d992e", "fusion_lat": 0.0, "is_reserved": 0, "lat": 38.9246175, "fusion_lon": 0.0, "is_disabled": 0}, {"rental_uris": {"android": "https://dc.lft.to/lastmile_qr_scan", "ios": "https://dc.lft.to/lastmile_qr_scan"}, "type": "electric_bike", "lon": -76.96557916666667, "name": "2a908b4b4acc73a07a5d1f122fffcbcd", "bike_id": "2a908b4b4acc73a07a5d1f122fffcbcd", "fusion_lat": 0.0, "is_reserved": 0, "lat": 38.950916, "fusion_lon": 0.0, "is_disabled": 0}, {"rental_uris": {"android": "https://dc.lft.to/lastmile_qr_scan", "ios": "https://dc.lft.to/lastmile_qr_scan"}, "type": "electric_scooter", "lon": -77.048669, "name": "15df052754fcb4326d61725afab5062f", "bike_id": "15df052754fcb4326d61725afab5062f", "fusion_lat": 0.0, "is_reserved": 0, "lat": 38.90413483333333, "fusion_lon": 0.0, "is_disabled": 0}, {"rental_uris": {"android": "https://dc.lft.to/lastmile_qr_scan", "ios": "https://dc.lft.to/lastmile_qr_scan"}, "type": "electric_scooter", "lon": -77.04581, "name": "1f6a5e716674bd45a26201c6de46c008", "bike_id": "1f6a5e716674bd45a26201c6de46c008", "fusion_lat": 0.0, "is_reserved": 0, "lat": 38.900158833333336, "fusion_lon": 0.0, "is_disabled": 0}, {"rental_uris": {"android": "https://dc.lft.to/lastmile_qr_scan", "ios": "https://dc.lft.to/lastmile_qr_scan"}, "type": "electric_scooter", "lon": -77.0242045, "name": "11a0b98f2bf401208e221dbfe4f34548", "bike_id": "11a0b98f2bf401208e221dbfe4f34548", "fusion_lat": 0.0, "is_reserved": 0, "lat": 38.90967583333333, "fusion_lon": 0.0, "is_disabled": 0}, {"rental_uris": {"android": "https://dc.lft.to/lastmile_qr_scan", "ios": "https://dc.lft.to/lastmile_qr_scan"}, "type": "electric_scooter", "lon": -77.0603165, "name": "255c901912de7b8547e513b515a8a838", "bike_id": "255c901912de7b8547e513b515a8a838", "fusion_lat": 0.0, "is_reserved": 0, "lat": 38.9392205, "fusion_lon": 0.0, "is_disabled": 0}, {"rental_uris": {"android": "https://dc.lft.to/lastmile_qr_scan", "ios": "https://dc.lft.to/lastmile_qr_scan"}, "type": "electric_scooter", "lon": -77.0508345, "name": "29df77c62019093c6a2eec699b1952da", "bike_id": "29df77c62019093c6a2eec699b1952da", "fusion_lat": 0.0, "is_reserved": 0, "lat": 38.924560666666665, "fusion_lon": 0.0, "is_disabled": 0}, {"rental_uris": {"android": "https://dc.lft.to/lastmile_qr_scan", "ios": "https://dc.lft.to/lastmile_qr_scan"}, "type": "electric_scooter", "lon": -77.02290483333333, "name": "bb2be5860239a87ab12f17eed17510d9", "bike_id": "bb2be5860239a87ab12f17eed17510d9", "fusion_lat": 0.0, "is_reserved": 0, "lat": 38.90907333333333, "fusion_lon": 0.0, "is_disabled": 0}, {"rental_uris": {"android": "https://dc.lft.to/lastmile_qr_scan", "ios": "https://dc.lft.to/lastmile_qr_scan"}, "type": "electric_scooter", "lon": -77.0514245, "name": "dc3ee2ace81152cc6acb0d827647d8c7", "bike_id": "dc3ee2ace81152cc6acb0d827647d8c7", "fusion_lat": 0.0, "is_reserved": 0, "lat": 38.90447866666667, "fusion_lon": 0.0, "is_disabled": 0}, {"rental_uris": {"android": "https://dc.lft.to/lastmile_qr_scan", "ios": "https://dc.lft.to/lastmile_qr_scan"}, "type": "electric_scooter", "lon": -77.029687, "name": "755fb9617e2b5c52dc451f0cfac742ab", "bike_id": "755fb9617e2b5c52dc451f0cfac742ab", "fusion_lat": 0.0, "is_reserved": 0, "lat": 38.907303, "fusion_lon": 0.0, "is_disabled": 0}, {"rental_uris": {"android": "https://dc.lft.to/lastmile_qr_scan", "ios": "https://dc.lft.to/lastmile_qr_scan"}, "type": "electric_scooter", "lon": -77.042398, "name": "02862ab8088cb03380a763077cbf69c5", "bike_id": "02862ab8088cb03380a763077cbf69c5", "fusion_lat": 0.0, "is_reserved": 0, "lat": 38.9455195, "fusion_lon": 0.0, "is_disabled": 0}, {"rental_uris": {"android": "https://dc.lft.to/lastmile_qr_scan", "ios": "https://dc.lft.to/lastmile_qr_scan"}, "type": "electric_scooter", "lon": -77.06389783333333, "name": "0bc52d3101b5fe624f7423955e880b32", "bike_id": "0bc52d3101b5fe624f7423955e880b32", "fusion_lat": 0.0, "is_reserved": 0, "lat": 38.92910283333333, "fusion_lon": 0.0, "is_disabled": 0}, {"rental_uris": {"android": "https://dc.lft.to/lastmile_qr_scan", "ios": "https://dc.lft.to/lastmile_qr_scan"}, "type": "electric_scooter", "lon": -77.001397, "name": "e132db84c5b08ca0f5ff851c40563561", "bike_id": "e132db84c5b08ca0f5ff851c40563561", "fusion_lat": 0.0, "is_reserved": 0, "lat": 38.90019266666667, "fusion_lon": 0.0, "is_disabled": 0}, {"rental_uris": {"android": "https://dc.lft.to/lastmile_qr_scan", "ios": "https://dc.lft.to/lastmile_qr_scan"}, "type": "electric_scooter", "lon": -77.02390483333333, "name": "1fe3d79c865471b44587fa6e3510e233", "bike_id": "1fe3d79c865471b44587fa6e3510e233", "fusion_lat": 0.0, "is_reserved": 0, "lat": 38.920831, "fusion_lon": 0.0, "is_disabled": 0}, {"rental_uris": {"android": "https://dc.lft.to/lastmile_qr_scan", "ios": "https://dc.lft.to/lastmile_qr_scan"}, "type": "electric_scooter", "lon": -77.04508383333334, "name": "4dd996e30084d89007b6114df1c755ff", "bike_id": "4dd996e30084d89007b6114df1c755ff", "fusion_lat": 0.0, "is_reserved": 0, "lat": 38.918333, "fusion_lon": 0.0, "is_disabled": 0}, {"rental_uris": {"android": "https://dc.lft.to/lastmile_qr_scan", "ios": "https://dc.lft.to/lastmile_qr_scan"}, "type": "electric_scooter", "lon": -76.94122433333334, "name": "b74abf7273ff67fdd6f578aeffcc68a8", "bike_id": "b74abf7273ff67fdd6f578aeffcc68a8", "fusion_lat": 0.0, "is_reserved": 0, "lat": 38.90794483333333, "fusion_lon": 0.0, "is_disabled": 0}, {"rental_uris": {"android": "https://dc.lft.to/lastmile_qr_scan", "ios": "https://dc.lft.to/lastmile_qr_scan"}, "type": "electric_scooter", "lon": -77.0365805, "name": "07eef405965495649e60e68bf2d1bfb0", "bike_id": "07eef405965495649e60e68bf2d1bfb0", "fusion_lat": 0.0, "is_reserved": 0, "lat": 38.91389216666666, "fusion_lon": 0.0, "is_disabled": 0}, {"rental_uris": {"android": "https://dc.lft.to/lastmile_qr_scan", "ios": "https://dc.lft.to/lastmile_qr_scan"}, "type": "electric_scooter", "lon": -77.0320605, "name": "2219ace4337b43c3a1df86df53c63169", "bike_id": "2219ace4337b43c3a1df86df53c63169", "fusion_lat": 0.0, "is_reserved": 0, "lat": 38.913445, "fusion_lon": 0.0, "is_disabled": 0}, {"rental_uris": {"android": "https://dc.lft.to/lastmile_qr_scan", "ios": "https://dc.lft.to/lastmile_qr_scan"}, "type": "electric_scooter", "lon": -77.0247255, "name": "57a65b8c706cd8b4a1222ad391466629", "bike_id": "57a65b8c706cd8b4a1222ad391466629", "fusion_lat": 0.0, "is_reserved": 0, "lat": 38.92654266666667, "fusion_lon": 0.0, "is_disabled": 0}, {"rental_uris": {"android": "https://dc.lft.to/lastmile_qr_scan", "ios": "https://dc.lft.to/lastmile_qr_scan"}, "type": "electric_scooter", "lon": -77.03827933333334, "name": "2a30fe02081b596a446e66d8fcf636d7", "bike_id": "2a30fe02081b596a446e66d8fcf636d7", "fusion_lat": 0.0, "is_reserved": 0, "lat": 38.908481333333334, "fusion_lon": 0.0, "is_disabled": 0}, {"rental_uris": {"android": "https://dc.lft.to/lastmile_qr_scan", "ios": "https://dc.lft.to/lastmile_qr_scan"}, "type": "electric_bike", "lon": -76.97975133333334, "name": "dafb0938dc9f00db7404e043e071e31e", "bike_id": "dafb0938dc9f00db7404e043e071e31e", "fusion_lat": 0.0, "is_reserved": 0, "lat": 38.95779616666667, "fusion_lon": 0.0, "is_disabled": 0}, {"rental_uris": {"android": "https://dc.lft.to/lastmile_qr_scan", "ios": "https://dc.lft.to/lastmile_qr_scan"}, "type": "electric_scooter", "lon": -77.00745383333333, "name": "b32508bfaee8721a8fdafe54f816d06e", "bike_id": "b32508bfaee8721a8fdafe54f816d06e", "fusion_lat": 0.0, "is_reserved": 0, "lat": 38.87668716666667, "fusion_lon": 0.0, "is_disabled": 0}, {"rental_uris": {"android": "https://dc.lft.to/lastmile_qr_scan", "ios": "https://dc.lft.to/lastmile_qr_scan"}, "type": "electric_scooter", "lon": -77.03636566666667, "name": "f81f94f9b2b9c1bd6413793147db5542", "bike_id": "f81f94f9b2b9c1bd6413793147db5542", "fusion_lat": 0.0, "is_reserved": 0, "lat": 38.927453666666665, "fusion_lon": 0.0, "is_disabled": 0}, {"rental_uris": {"android": "https://dc.lft.to/lastmile_qr_scan", "ios": "https://dc.lft.to/lastmile_qr_scan"}, "type": "electric_scooter", "lon": -77.02147716666667, "name": "f213db7501bbea08112362b4fe3e099e", "bike_id": "f213db7501bbea08112362b4fe3e099e", "fusion_lat": 0.0, "is_reserved": 0, "lat": 38.8960655, "fusion_lon": 0.0, "is_disabled": 0}, {"rental_uris": {"android": "https://dc.lft.to/lastmile_qr_scan", "ios": "https://dc.lft.to/lastmile_qr_scan"}, "type": "electric_scooter", "lon": -77.01998933333333, "name": "6cc70365144da4f3e568c05c1d732116", "bike_id": "6cc70365144da4f3e568c05c1d732116", "fusion_lat": 0.0, "is_reserved": 0, "lat": 38.913370666666665, "fusion_lon": 0.0, "is_disabled": 0}, {"rental_uris": {"android": "https://dc.lft.to/lastmile_qr_scan", "ios": "https://dc.lft.to/lastmile_qr_scan"}, "type": "electric_scooter", "lon": -77.01811466666666, "name": "bcf2a3b94ffe669b0a120f1329074e9c", "bike_id": "bcf2a3b94ffe669b0a120f1329074e9c", "fusion_lat": 0.0, "is_reserved": 0, "lat": 38.88602916666667, "fusion_lon": 0.0, "is_disabled": 0}, {"rental_uris": {"android": "https://dc.lft.to/lastmile_qr_scan", "ios": "https://dc.lft.to/lastmile_qr_scan"}, "type": "electric_scooter", "lon": -76.97556866666666, "name": "3b4040418e07762a91526fb4d606a6c9", "bike_id": "3b4040418e07762a91526fb4d606a6c9", "fusion_lat": 0.0, "is_reserved": 0, "lat": 38.90444566666667, "fusion_lon": 0.0, "is_disabled": 0}, {"rental_uris": {"android": "https://dc.lft.to/lastmile_qr_scan", "ios": "https://dc.lft.to/lastmile_qr_scan"}, "type": "electric_scooter", "lon": -77.041541, "name": "2a098114638655862f60471b5b13cee6", "bike_id": "2a098114638655862f60471b5b13cee6", "fusion_lat": 0.0, "is_reserved": 0, "lat": 38.91930983333334, "fusion_lon": 0.0, "is_disabled": 0}, {"rental_uris": {"android": "https://dc.lft.to/lastmile_qr_scan", "ios": "https://dc.lft.to/lastmile_qr_scan"}, "type": "electric_scooter", "lon": -77.021805, "name": "592b443318c1b97acff4ee9d2b13874d", "bike_id": "592b443318c1b97acff4ee9d2b13874d", "fusion_lat": 0.0, "is_reserved": 0, "lat": 38.910676, "fusion_lon": 0.0, "is_disabled": 0}, {"rental_uris": {"android": "https://dc.lft.to/lastmile_qr_scan", "ios": "https://dc.lft.to/lastmile_qr_scan"}, "type": "electric_scooter", "lon": -77.0467075, "name": "a182bf576e884270d1dbf1679de56170", "bike_id": "a182bf576e884270d1dbf1679de56170", "fusion_lat": 0.0, "is_reserved": 0, "lat": 38.910620333333334, "fusion_lon": 0.0, "is_disabled": 0}, {"rental_uris": {"android": "https://dc.lft.to/lastmile_qr_scan", "ios": "https://dc.lft.to/lastmile_qr_scan"}, "type": "electric_scooter", "lon": -76.94914433333334, "name": "941d2d46f30850f21ff991a276393dd8", "bike_id": "941d2d46f30850f21ff991a276393dd8", "fusion_lat": 0.0, "is_reserved": 0, "lat": 38.89277216666667, "fusion_lon": 0.0, "is_disabled": 0}, {"rental_uris": {"android": "https://dc.lft.to/lastmile_qr_scan", "ios": "https://dc.lft.to/lastmile_qr_scan"}, "type": "electric_scooter", "lon": -76.9793115, "name": "412473fcdcd62af5e20fb242c9e1914b", "bike_id": "412473fcdcd62af5e20fb242c9e1914b", "fusion_lat": 0.0, "is_reserved": 0, "lat": 38.902434166666666, "fusion_lon": 0.0, "is_disabled": 0}, {"rental_uris": {"android": "https://dc.lft.to/lastmile_qr_scan", "ios": "https://dc.lft.to/lastmile_qr_scan"}, "type": "electric_bike", "lon": -77.08437016666667, "name": "b3a7f0f02d107ca3d65e50a8daf0ee81", "bike_id": "b3a7f0f02d107ca3d65e50a8daf0ee81", "fusion_lat": 0.0, "is_reserved": 0, "lat": 38.810318333333335, "fusion_lon": 0.0, "is_disabled": 0}, {"rental_uris": {"android": "https://dc.lft.to/lastmile_qr_scan", "ios": "https://dc.lft.to/lastmile_qr_scan"}, "type": "electric_scooter", "lon": -77.02471033333333, "name": "17ad1abc56b94c8edb0d8ce2567985e3", "bike_id": "17ad1abc56b94c8edb0d8ce2567985e3", "fusion_lat": 0.0, "is_reserved": 0, "lat": 38.936243166666664, "fusion_lon": 0.0, "is_disabled": 0}, {"rental_uris": {"android": "https://dc.lft.to/lastmile_qr_scan", "ios": "https://dc.lft.to/lastmile_qr_scan"}, "type": "electric_bike", "lon": -76.97500266666667, "name": "44c04fab2cdb56a7e44a82b6555663d6", "bike_id": "44c04fab2cdb56a7e44a82b6555663d6", "fusion_lat": 0.0, "is_reserved": 0, "lat": 38.91940966666667, "fusion_lon": 0.0, "is_disabled": 0}, {"rental_uris": {"android": "https://dc.lft.to/lastmile_qr_scan", "ios": "https://dc.lft.to/lastmile_qr_scan"}, "type": "electric_scooter", "lon": -76.9845075, "name": "a57e2146afecce5416ff56f35d342b69", "bike_id": "a57e2146afecce5416ff56f35d342b69", "fusion_lat": 0.0, "is_reserved": 0, "lat": 38.880208833333334, "fusion_lon": 0.0, "is_disabled": 0}, {"rental_uris": {"android": "https://dc.lft.to/lastmile_qr_scan", "ios": "https://dc.lft.to/lastmile_qr_scan"},