{"data": {"bikes": [{"rental_uris": {"ios": "https://dc.lft.to/lastmile_qr_scan", "android": "https://dc.lft.to/lastmile_qr_scan"}, "lon": -76.98158233333334, "type": "electric_scooter", "fusion_lat": 0.0, "lat": 38.90034466666667, "name": "444a2f46407a3713e476a8f61e05d632", "fusion_lon": 0.0, "bike_id": "444a2f46407a3713e476a8f61e05d632", "is_disabled": 0, "is_reserved": 0}, {"rental_uris": {"ios": "https://dc.lft.to/lastmile_qr_scan", "android": "https://dc.lft.to/lastmile_qr_scan"}, "lon": -76.96306983333334, "type": "electric_bike", "fusion_lat": 0.0, "lat": 38.92708666666667, "name": "56539c33b1f54c9f9b4a875bc47bad31", "fusion_lon": 0.0, "bike_id": "56539c33b1f54c9f9b4a875bc47bad31", "is_disabled": 0, "is_reserved": 0}, {"rental_uris": {"ios": "https://dc.lft.to/lastmile_qr_scan", "android": "https://dc.lft.to/lastmile_qr_scan"}, "lon": -77.011863, "type": "electric_scooter", "fusion_lat": 0.0, "lat": 38.900461, "name": "6b5699007b74635d3f32346a39164f57", "fusion_lon": 0.0, "bike_id": "6b5699007b74635d3f32346a39164f57", "is_disabled": 0, "is_reserved": 0}, {"rental_uris": {"ios": "https://dc.lft.to/lastmile_qr_scan", "android": "https://dc.lft.to/lastmile_qr_scan"}, "lon": -77.0445455, "type": "electric_scooter", "fusion_lat": 0.0, "lat": 38.9111775, "name": "9572098532d85f79b73534c1a0d50a36", "fusion_lon": 0.0, "bike_id": "9572098532d85f79b73534c1a0d50a36", "is_disabled": 0, "is_reserved": 0}, {"rental_uris": {"ios": "https://dc.lft.to/lastmile_qr_scan", "android": "https://dc.lft.to/lastmile_qr_scan"}, "lon": -77.03846083333333, "type": "electric_scooter", "fusion_lat": 0.0, "lat": 38.90981416666666, "name": "de46a3aa41c2a31ff77a925c3d4fcb49", "fusion_lon": 0.0, "bike_id": "de46a3aa41c2a31ff77a925c3d4fcb49", "is_disabled": 0, "is_reserved": 0}, {"rental_uris": {"ios": "https://dc.lft.to/lastmile_qr_scan", "android": "https://dc.lft.to/lastmile_qr_scan"}, "lon": -77.050041, "type": "electric_scooter", "fusion_lat": 0.0, "lat": 38.892298833333335, "name": "8015d1b888927bd26e007b792d70e3b1", "fusion_lon": 0.0, "bike_id": "8015d1b888927bd26e007b792d70e3b1", "is_disabled": 0, "is_reserved": 0}, {"rental_uris": {"ios": "https://dc.lft.to/lastmile_qr_scan", "android": "https://dc.lft.to/lastmile_qr_scan"}, "lon": -77.00216066666667, "type": "electric_scooter", "fusion_lat": 0.0, "lat": 38.90030566666667, "name": "21a5def1df3dd081e7a95b2052f1228e", "fusion_lon": 0.0, "bike_id": "21a5def1df3dd081e7a95b2052f1228e", "is_disabled": 0, "is_reserved": 0}, {"rental_uris": {"ios": "https://dc.lft.to/lastmile_qr_scan", "android": "https://dc.lft.to/lastmile_qr_scan"}, "lon": -77.03370733333334, "type": "electric_scooter", "fusion_lat": 0.0, "lat": 38.92863966666667, "name": "56031d9128938aeda07024be23d55333", "fusion_lon": 0.0, "bike_id": "56031d9128938aeda07024be23d55333", "is_disabled": 0, "is_reserved": 0}, {"rental_uris": {"ios": "https://dc.lft.to/lastmile_qr_scan", "android": "https://dc.lft.to/lastmile_qr_scan"}, "lon": -76.931585, "type": "electric_scooter", "fusion_lat": 0.0, "lat": 38.898861833333335, "name": "fc2cc67a892bc9d3ec5ee45e6154d79b", "fusion_lon": 0.0, "bike_id": "fc2cc67a892bc9d3ec5ee45e6154d79b", "is_disabled": 0, "is_reserved": 0}, {"rental_uris": {"ios": "https://dc.lft.to/lastmile_qr_scan", "android": "https://dc.lft.to/lastmile_qr_scan"}, "lon": -76.99501233333334, "type": "electric_scooter", "fusion_lat": 0.0, "lat": 38.881812833333335, "name": "b745feb7e87c1f110bfa1ea51bc26bd6", "fusion_lon": 0.0, "bike_id": "b745feb7e87c1f110bfa1ea51bc26bd6", "is_disabled": 0, "is_reserved": 0}, {"rental_uris": {"ios": "https://dc.lft.to/lastmile_qr_scan", "android": "https://dc.lft.to/lastmile_qr_scan"}, "lon": -77.02954883333334, "type": "electric_scooter", "fusion_lat": 0.0, "lat": 38.90501183333333, "name": "a101a2f199ea071a4f716970d824786c", "fusion_lon": 0.0, "bike_id": "a101a2f199ea071a4f716970d824786c", "is_disabled": 0, "is_reserved": 0}, {"rental_uris": {"ios": "https://dc.lft.to/lastmile_qr_scan", "android": "https://dc.lft.to/lastmile_qr_scan"}, "lon": -77.02192633333334, "type": "electric_scooter", "fusion_lat": 0.0, "lat": 38.89782016666667, "name": "f022b94fd6d516c154c03ca2b5361fa2", "fusion_lon": 0.0, "bike_id": "f022b94fd6d516c154c03ca2b5361fa2", "is_disabled": 0, "is_reserved": 0}, {"rental_uris": {"ios": "https://dc.lft.to/lastmile_qr_scan", "android": "https://dc.lft.to/lastmile_qr_scan"}, "lon": -77.00064983333333, "type": "electric_scooter", "fusion_lat": 0.0, "lat": 38.9005535, "name": "c79805bcaf22f75852450f33827ece70", "fusion_lon": 0.0, "bike_id": "c79805bcaf22f75852450f33827ece70", "is_disabled": 0, "is_reserved": 0}, {"rental_uris": {"ios": "https://dc.lft.to/lastmile_qr_scan", "android": "https://dc.lft.to/lastmile_qr_scan"}, "lon": -77.05157916666667, "type": "electric_scooter", "fusion_lat": 0.0, "lat": 38.89771666666667, "name": "7a479e2dd52653f222ea0119f6e45c9c", "fusion_lon": 0.0, "bike_id": "7a479e2dd52653f222ea0119f6e45c9c", "is_disabled": 0, "is_reserved": 0}, {"rental_uris": {"ios": "https://dc.lft.to/lastmile_qr_scan", "android": "https://dc.lft.to/lastmile_qr_scan"}, "lon": -77.01386483333333, "type": "electric_scooter", "fusion_lat": 0.0, "lat": 38.92858116666667, "name": "a6aa7eb58385c9be8f359c88f4a3e015", "fusion_lon": 0.0, "bike_id": "a6aa7eb58385c9be8f359c88f4a3e015", "is_disabled": 0, "is_reserved": 0}, {"rental_uris": {"ios": "https://dc.lft.to/lastmile_qr_scan", "android": "https://dc.lft.to/lastmile_qr_scan"}, "lon": -76.96555883333333, "type": "electric_bike", "fusion_lat": 0.0, "lat": 38.9510485, "name": "51635712eb9d477458c36d0e6a8c3c57", "fusion_lon": 0.0, "bike_id": "51635712eb9d477458c36d0e6a8c3c57", "is_disabled": 0, "is_reserved": 0}, {"rental_uris": {"ios": "https://dc.lft.to/lastmile_qr_scan", "android": "https://dc.lft.to/lastmile_qr_scan"}, "lon": -76.98970083333333, "type": "electric_scooter", "fusion_lat": 0.0, "lat": 38.902466833333335, "name": "5f1c546340d777825069ef881839c83a", "fusion_lon": 0.0, "bike_id": "5f1c546340d777825069ef881839c83a", "is_disabled": 0, "is_reserved": 0}, {"rental_uris": {"ios": "https://dc.lft.to/lastmile_qr_scan", "android": "https://dc.lft.to/lastmile_qr_scan"}, "lon": -77.02705616666667, "type": "electric_scooter", "fusion_lat": 0.0, "lat": 38.950029, "name": "4c01fddf6ec49423f7546fd5f43c9cef", "fusion_lon": 0.0, "bike_id": "4c01fddf6ec49423f7546fd5f43c9cef", "is_disabled": 0, "is_reserved": 0}, {"rental_uris": {"ios": "https://dc.lft.to/lastmile_qr_scan", "android": "https://dc.lft.to/lastmile_qr_scan"}, "lon": -77.03955016666667, "type": "electric_scooter", "fusion_lat": 0.0, "lat": 38.89247983333333, "name": "af11503c6a11effadd53f892bd758ee3", "fusion_lon": 0.0, "bike_id": "af11503c6a11effadd53f892bd758ee3", "is_disabled": 0, "is_reserved": 0}, {"rental_uris": {"ios": "https://dc.lft.to/lastmile_qr_scan", "android": "https://dc.lft.to/lastmile_qr_scan"}, "lon": -77.03131566666667, "type": "electric_scooter", "fusion_lat": 0.0, "lat": 38.906636, "name": "4475590cc3f1c8009ef77741571da506", "fusion_lon": 0.0, "bike_id": "4475590cc3f1c8009ef77741571da506", "is_disabled": 0, "is_reserved": 0}, {"rental_uris": {"ios": "https://dc.lft.to/lastmile_qr_scan", "android": "https://dc.lft.to/lastmile_qr_scan"}, "lon": -76.9463445, "type": "electric_scooter", "fusion_lat": 0.0, "lat": 38.89833866666667, "name": "a48854bdcb4ff7da4b7a43ca9e5236e9", "fusion_lon": 0.0, "bike_id": "a48854bdcb4ff7da4b7a43ca9e5236e9", "is_disabled": 0, "is_reserved": 0}, {"rental_uris": {"ios": "https://dc.lft.to/lastmile_qr_scan", "android": "https://dc.lft.to/lastmile_qr_scan"}, "lon": -77.03924883333333, "type": "electric_scooter", "fusion_lat": 0.0, "lat": 38.9185305, "name": "9e9ce7df86bc476f96ef8cae08a5318b", "fusion_lon": 0.0, "bike_id": "9e9ce7df86bc476f96ef8cae08a5318b", "is_disabled": 0, "is_reserved": 0}, {"rental_uris": {"ios": "https://dc.lft.to/lastmile_qr_scan", "android": "https://dc.lft.to/lastmile_qr_scan"}, "lon": -77.0002185, "type": "electric_scooter", "fusion_lat": 0.0, "lat": 38.908501, "name": "46d9be404b0a54edef0bc701386d043c", "fusion_lon": 0.0, "bike_id": "46d9be404b0a54edef0bc701386d043c", "is_disabled": 0, "is_reserved": 0}, {"rental_uris": {"ios": "https://dc.lft.to/lastmile_qr_scan", "android": "https://dc.lft.to/lastmile_qr_scan"}, "lon": -77.01379416666667, "type": "electric_scooter", "fusion_lat": 0.0, "lat": 38.92879283333333, "name": "ddeb2157c7b9301af24c155301a891dc", "fusion_lon": 0.0, "bike_id": "ddeb2157c7b9301af24c155301a891dc", "is_disabled": 0, "is_reserved": 0}, {"rental_uris": {"ios": "https://dc.lft.to/lastmile_qr_scan", "android": "https://dc.lft.to/lastmile_qr_scan"}, "lon": -77.0360715, "type": "electric_scooter", "fusion_lat": 0.0, "lat": 38.93476716666667, "name": "e347893424d1f616b433eead2072c332", "fusion_lon": 0.0, "bike_id": "e347893424d1f616b433eead2072c332", "is_disabled": 0, "is_reserved": 0}, {"rental_uris": {"ios": "https://dc.lft.to/lastmile_qr_scan", "android": "https://dc.lft.to/lastmile_qr_scan"}, "lon": -77.04549633333333, "type": "electric_scooter", "fusion_lat": 0.0, "lat": 38.93410566666667, "name": "592c0f229643534fbd1344e0a42917ab", "fusion_lon": 0.0, "bike_id": "592c0f229643534fbd1344e0a42917ab", "is_disabled": 0, "is_reserved": 0}, {"rental_uris": {"ios": "https://dc.lft.to/lastmile_qr_scan", "android": "https://dc.lft.to/lastmile_qr_scan"}, "lon": -77.020083, "type": "electric_scooter", "fusion_lat": 0.0, "lat": 38.91314583333333, "name": "849e67c4318873cafa39377918843dae", "fusion_lon": 0.0, "bike_id": "849e67c4318873cafa39377918843dae", "is_disabled": 0, "is_reserved": 0}, {"rental_uris": {"ios": "https://dc.lft.to/lastmile_qr_scan", "android": "https://dc.lft.to/lastmile_qr_scan"}, "lon": -77.00606516666667, "type": "electric_scooter", "fusion_lat": 0.0, "lat": 38.9027965, "name": "06bf4d0d9016a5a63cfe5317fdcf5a60", "fusion_lon": 0.0, "bike_id": "06bf4d0d9016a5a63cfe5317fdcf5a60", "is_disabled": 0, "is_reserved": 0}, {"rental_uris": {"ios": "https://dc.lft.to/lastmile_qr_scan", "android": "https://dc.lft.to/lastmile_qr_scan"}, "lon": -77.04304866666666, "type": "electric_scooter", "fusion_lat": 0.0, "lat": 38.92257083333333, "name": "95b730c490805a4c2e850c58cf4ac43e", "fusion_lon": 0.0, "bike_id": "95b730c490805a4c2e850c58cf4ac43e", "is_disabled": 0, "is_reserved": 0}, {"rental_uris": {"ios": "https://dc.lft.to/lastmile_qr_scan", "android": "https://dc.lft.to/lastmile_qr_scan"}, "lon": -76.98630366666667, "type": "electric_scooter", "fusion_lat": 0.0, "lat": 38.8681825, "name": "09c8228577c42c6a5a77ca70c04da48c", "fusion_lon": 0.0, "bike_id": "09c8228577c42c6a5a77ca70c04da48c", "is_disabled": 0, "is_reserved": 0}, {"rental_uris": {"ios": "https://dc.lft.to/lastmile_qr_scan", "android": "https://dc.lft.to/lastmile_qr_scan"}, "lon": -77.0089995, "type": "electric_scooter", "fusion_lat": 0.0, "lat": 38.89775, "name": "aabf5eb04d76ec63c42ddcb5c1a49681", "fusion_lon": 0.0, "bike_id": "aabf5eb04d76ec63c42ddcb5c1a49681", "is_disabled": 0, "is_reserved": 0}, {"rental_uris": {"ios": "https://dc.lft.to/lastmile_qr_scan", "android": "https://dc.lft.to/lastmile_qr_scan"}, "lon": -77.04494166666667, "type": "electric_scooter", "fusion_lat": 0.0, "lat": 38.90664233333333, "name": "f9d6186f27a2d170def4b5f0c26d0440", "fusion_lon": 0.0, "bike_id": "f9d6186f27a2d170def4b5f0c26d0440", "is_disabled": 0, "is_reserved": 0}, {"rental_uris": {"ios": "https://dc.lft.to/lastmile_qr_scan", "android": "https://dc.lft.to/lastmile_qr_scan"}, "lon": -77.0525185, "type": "electric_scooter", "fusion_lat": 0.0, "lat": 38.92377666666667, "name": "64400a95e22d82c69f09511f40164429", "fusion_lon": 0.0, "bike_id": "64400a95e22d82c69f09511f40164429", "is_disabled": 0, "is_reserved": 0}, {"rental_uris": {"ios": "https://dc.lft.to/lastmile_qr_scan", "android": "https://dc.lft.to/lastmile_qr_scan"}, "lon": -77.01259166666667, "type": "electric_scooter", "fusion_lat": 0.0, "lat": 38.89969133333334, "name": "2c56cead364b5e89281a895f7ae5306d", "fusion_lon": 0.0, "bike_id": "2c56cead364b5e89281a895f7ae5306d", "is_disabled": 0, "is_reserved": 0}, {"rental_uris": {"ios": "https://dc.lft.to/lastmile_qr_scan", "android": "https://dc.lft.to/lastmile_qr_scan"}, "lon": -77.04024416666667, "type": "electric_scooter", "fusion_lat": 0.0, "lat": 38.91796816666667, "name": "784f1a7f7b451e27864bc89e1d246d99", "fusion_lon": 0.0, "bike_id": "784f1a7f7b451e27864bc89e1d246d99", "is_disabled": 0, "is_reserved": 0}, {"rental_uris": {"ios": "https://dc.lft.to/lastmile_qr_scan", "android": "https://dc.lft.to/lastmile_qr_scan"}, "lon": -77.01433566666667, "type": "electric_scooter", "fusion_lat": 0.0, "lat": 38.8774935, "name": "5ac84727212ed8280942233e1be67604", "fusion_lon": 0.0, "bike_id": "5ac84727212ed8280942233e1be67604", "is_disabled": 0, "is_reserved": 0}, {"rental_uris": {"ios": "https://dc.lft.to/lastmile_qr_scan", "android": "https://dc.lft.to/lastmile_qr_scan"}, "lon": -77.1359825, "type": "electric_bike", "fusion_lat": 0.0, "lat": 39.053514166666666, "name": "ed548b4f85e545eb5cac923c20844027", "fusion_lon": 0.0, "bike_id": "ed548b4f85e545eb5cac923c20844027", "is_disabled": 0, "is_reserved": 0}, {"rental_uris": {"ios": "https://dc.lft.to/lastmile_qr_scan", "android": "https://dc.lft.to/lastmile_qr_scan"}, "lon": -77.08941483333334, "type": "electric_bike", "fusion_lat": 0.0, "lat": 38.8409755, "name": "02af2721aeb694307cfac744dc2e7645", "fusion_lon": 0.0, "bike_id": "02af2721aeb694307cfac744dc2e7645", "is_disabled": 0, "is_reserved": 0}, {"rental_uris": {"ios": "https://dc.lft.to/lastmile_qr_scan", "android": "https://dc.lft.to/lastmile_qr_scan"}, "lon": -77.002895, "type": "electric_scooter", "fusion_lat": 0.0, "lat": 38.897446, "name": "afcc1aa34ab5c2a336e7a54d6b464fbf", "fusion_lon": 0.0, "bike_id": "afcc1aa34ab5c2a336e7a54d6b464fbf", "is_disabled": 0, "is_reserved": 0}, {"rental_uris": {"ios": "https://dc.lft.to/lastmile_qr_scan", "android": "https://dc.lft.to/lastmile_qr_scan"}, "lon": -77.051458, "type": "electric_scooter", "fusion_lat": 0.0, "lat": 38.90529816666667, "name": "fc3bd7b867d81d05b6d51227574a2a6b", "fusion_lon": 0.0, "bike_id": "fc3bd7b867d81d05b6d51227574a2a6b", "is_disabled": 0, "is_reserved": 0}, {"rental_uris": {"ios": "https://dc.lft.to/lastmile_qr_scan", "android": "https://dc.lft.to/lastmile_qr_scan"}, "lon": -77.029647, "type": "electric_scooter", "fusion_lat": 0.0, "lat": 38.91586733333333, "name": "e682cde85944fe34572f1bd77c61c99b", "fusion_lon": 0.0, "bike_id": "e682cde85944fe34572f1bd77c61c99b", "is_disabled": 0, "is_reserved": 0}, {"rental_uris": {"ios": "https://dc.lft.to/lastmile_qr_scan", "android": "https://dc.lft.to/lastmile_qr_scan"}, "lon": -77.02654966666667, "type": "electric_scooter", "fusion_lat": 0.0, "lat": 38.89219716666667, "name": "777eea79b199552882863b8fde673d68", "fusion_lon": 0.0, "bike_id": "777eea79b199552882863b8fde673d68", "is_disabled": 0, "is_reserved": 0}, {"rental_uris": {"ios": "https://dc.lft.to/lastmile_qr_scan", "android": "https://dc.lft.to/lastmile_qr_scan"}, "lon": -77.006566, "type": "electric_scooter", "fusion_lat": 0.0, "lat": 38.944615666666664, "name": "f7881283ead1c8ed6699fb566b53e71a", "fusion_lon": 0.0, "bike_id": "f7881283ead1c8ed6699fb566b53e71a", "is_disabled": 0, "is_reserved": 0}, {"rental_uris": {"ios": "https://dc.lft.to/lastmile_qr_scan", "android": "https://dc.lft.to/lastmile_qr_scan"}, "lon": -76.9842315, "type": "electric_scooter", "fusion_lat": 0.0, "lat": 38.859704, "name": "aef0d1ee9d175a7c925bf583afff7e95", "fusion_lon": 0.0, "bike_id": "aef0d1ee9d175a7c925bf583afff7e95", "is_disabled": 0, "is_reserved": 0}, {"rental_uris": {"ios": "https://dc.lft.to/lastmile_qr_scan", "android": "https://dc.lft.to/lastmile_qr_scan"}, "lon": -77.0492065, "type": "electric_scooter", "fusion_lat": 0.0, "lat": 38.9035175, "name": "aa0dac1fb9e064ca887768058cfe268c", "fusion_lon": 0.0, "bike_id": "aa0dac1fb9e064ca887768058cfe268c", "is_disabled": 0, "is_reserved": 0}, {"rental_uris": {"ios": "https://dc.lft.to/lastmile_qr_scan", "android": "https://dc.lft.to/lastmile_qr_scan"}, "lon": -77.05337633333333, "type": "electric_scooter", "fusion_lat": 0.0, "lat": 38.902433333333335, "name": "9e64c1c2be8fb8a3aa04da02f08750c5", "fusion_lon": 0.0, "bike_id": "9e64c1c2be8fb8a3aa04da02f08750c5", "is_disabled": 0, "is_reserved": 0}, {"rental_uris": {"ios": "https://dc.lft.to/lastmile_qr_scan", "android": "https://dc.lft.to/lastmile_qr_scan"}, "lon": -77.0308775, "type": "electric_scooter", "fusion_lat": 0.0, "lat": 38.900377666666664, "name": "fbf991d798ea126ca13841a21b01cc0e", "fusion_lon": 0.0, "bike_id": "fbf991d798ea126ca13841a21b01cc0e", "is_disabled": 0, "is_reserved": 0}, {"rental_uris": {"ios": "https://dc.lft.to/lastmile_qr_scan", "android": "https://dc.lft.to/lastmile_qr_scan"}, "lon": -77.04467183333334, "type": "electric_scooter", "fusion_lat": 0.0, "lat": 38.915692666666665, "name": "ed625c4ea0d6a2644f1fe21715c1c1f6", "fusion_lon": 0.0, "bike_id": "ed625c4ea0d6a2644f1fe21715c1c1f6", "is_disabled": 0, "is_reserved": 0}, {"rental_uris": {"ios": "https://dc.lft.to/lastmile_qr_scan", "android": "https://dc.lft.to/lastmile_qr_scan"}, "lon": -77.03225716666667, "type": "electric_scooter", "fusion_lat": 0.0, "lat": 38.918196, "name": "6510872d554464d5a2e7cfda4d33e010", "fusion_lon": 0.0, "bike_id": "6510872d554464d5a2e7cfda4d33e010", "is_disabled": 0, "is_reserved": 0}, {"rental_uris": {"ios": "https://dc.lft.to/lastmile_qr_scan", "android": "https://dc.lft.to/lastmile_qr_scan"}, "lon": -77.10513116666667, "type": "electric_bike", "fusion_lat": 0.0, "lat": 38.92852516666667, "name": "eebe6e5222873d8364b6769f2e5cf36b", "fusion_lon": 0.0, "bike_id": "eebe6e5222873d8364b6769f2e5cf36b", "is_disabled": 0, "is_reserved": 0}, {"rental_uris": {"ios": "https://dc.lft.to/lastmile_qr_scan", "android": "https://dc.lft.to/lastmile_qr_scan"}, "lon": -77.35310383333334, "type": "electric_bike", "fusion_lat": 0.0, "lat": 38.950010166666665, "name": "3bfed70cd82b07beb3fe58737da374de", "fusion_lon": 0.0, "bike_id": "3bfed70cd82b07beb3fe58737da374de", "is_disabled": 0, "is_reserved": 0}, {"rental_uris": {"ios": "https://dc.lft.to/lastmile_qr_scan", "android": "https://dc.lft.to/lastmile_qr_scan"}, "lon": -77.04742283333333, "type": "electric_scooter", "fusion_lat": 0.0, "lat": 38.91774683333333, "name": "2f370ee0379d48c68db6af3a8ee1580a", "fusion_lon": 0.0, "bike_id": "2f370ee0379d48c68db6af3a8ee1580a", "is_disabled": 0, "is_reserved": 0}, {"rental_uris": {"ios": "https://dc.lft.to/lastmile_qr_scan", "android": "https://dc.lft.to/lastmile_qr_scan"}, "lon": -77.02969766666666, "type": "electric_scooter", "fusion_lat": 0.0, "lat": 38.906180666666664, "name": "2dce876903336c069db654837559a0de", "fusion_lon": 0.0, "bike_id": "2dce876903336c069db654837559a0de", "is_disabled": 0, "is_reserved": 0}, {"rental_uris": {"ios": "https://dc.lft.to/lastmile_qr_scan", "android": "https://dc.lft.to/lastmile_qr_scan"}, "lon": -77.03182833333334, "type": "electric_scooter", "fusion_lat": 0.0, "lat": 38.91926983333333, "name": "813f919a4319797323b738bbd5b799c0", "fusion_lon": 0.0, "bike_id": "813f919a4319797323b738bbd5b799c0", "is_disabled": 0, "is_reserved": 0}, {"rental_uris": {"ios": "https://dc.lft.to/lastmile_qr_scan", "android": "https://dc.lft.to/lastmile_qr_scan"}, "lon": -76.93178783333333, "type": "electric_scooter", "fusion_lat": 0.0, "lat": 38.898843166666666, "name": "c21a72790c1a855b2f3b0cd5f65f205e", "fusion_lon": 0.0, "bike_id": "c21a72790c1a855b2f3b0cd5f65f205e", "is_disabled": 0, "is_reserved": 0}, {"rental_uris": {"ios": "https://dc.lft.to/lastmile_qr_scan", "android": "https://dc.lft.to/lastmile_qr_scan"}, "lon": -76.99485766666666, "type": "electric_scooter", "fusion_lat": 0.0, "lat": 38.862381, "name": "839a306683a71b0c7161b1afad33284a", "fusion_lon": 0.0, "bike_id": "839a306683a71b0c7161b1afad33284a", "is_disabled": 0, "is_reserved": 0}, {"rental_uris": {"ios": "https://dc.lft.to/lastmile_qr_scan", "android": "https://dc.lft.to/lastmile_qr_scan"}, "lon": -76.99813733333333, "type": "electric_scooter", "fusion_lat": 0.0, "lat": 38.90036116666667, "name": "0c708536068ab96a45758ef83844bc76", "fusion_lon": 0.0, "bike_id": "0c708536068ab96a45758ef83844bc76", "is_disabled": 0, "is_reserved": 0}, {"rental_uris": {"ios": "https://dc.lft.to/lastmile_qr_scan", "android": "https://dc.lft.to/lastmile_qr_scan"}, "lon": -77.007301, "type": "electric_scooter", "fusion_lat": 0.0, "lat": 38.884907166666665, "name": "5953b328ba0cefd8ccc6a3a391fb7ee1", "fusion_lon": 0.0, "bike_id": "5953b328ba0cefd8ccc6a3a391fb7ee1", "is_disabled": 0, "is_reserved": 0}, {"rental_uris": {"ios": "https://dc.lft.to/lastmile_qr_scan", "android": "https://dc.lft.to/lastmile_qr_scan"}, "lon": -77.0284435, "type": "electric_scooter", "fusion_lat": 0.0, "lat": 38.942654, "name": "5d57befe79114edf90e5e9aa365faea0", "fusion_lon": 0.0, "bike_id": "5d57befe79114edf90e5e9aa365faea0", "is_disabled": 0, "is_reserved": 0}, {"rental_uris": {"ios": "https://dc.lft.to/lastmile_qr_scan", "android": "https://dc.lft.to/lastmile_qr_scan"}, "lon": -77.009839, "type": "electric_scooter", "fusion_lat": 0.0, "lat": 38.896031666666666, "name": "2de2db29597758d905e40807316bbd28", "fusion_lon": 0.0, "bike_id": "2de2db29597758d905e40807316bbd28", "is_disabled": 0, "is_reserved": 0}, {"rental_uris": {"ios": "https://dc.lft.to/lastmile_qr_scan", "android": "https://dc.lft.to/lastmile_qr_scan"}, "lon": -77.070655, "type": "electric_scooter", "fusion_lat": 0.0, "lat": 38.952186166666664, "name": "146607e45cf67cbded7d7f44712d7cca", "fusion_lon": 0.0, "bike_id": "146607e45cf67cbded7d7f44712d7cca", "is_disabled": 0, "is_reserved": 0}, {"rental_uris": {"ios": "https://dc.lft.to/lastmile_qr_scan", "android": "https://dc.lft.to/lastmile_qr_scan"}, "lon": -77.02834783333333, "type": "electric_scooter", "fusion_lat": 0.0, "lat": 38.895293, "name": "2a1e40a1911c2bcee7234114cac0f127", "fusion_lon": 0.0, "bike_id": "2a1e40a1911c2bcee7234114cac0f127", "is_disabled": 0, "is_reserved": 0}, {"rental_uris": {"ios": "https://dc.lft.to/lastmile_qr_scan", "android": "https://dc.lft.to/lastmile_qr_scan"}, "lon": -76.98560166666667, "type": "electric_scooter", "fusion_lat": 0.0, "lat": 38.85588283333333, "name": "48f83eff1736ef64222d5fbbcb6f2d7a", "fusion_lon": 0.0, "bike_id": "48f83eff1736ef64222d5fbbcb6f2d7a", "is_disabled": 0, "is_reserved": 0}, {"rental_uris": {"ios": "https://dc.lft.to/lastmile_qr_scan", "android": "https://dc.lft.to/lastmile_qr_scan"}, "lon": -77.044967, "type": "electric_scooter", "fusion_lat": 0.0, "lat": 38.91956066666667, "name": "74e2fe30bc89ee5ae06a4ac545a650e7", "fusion_lon": 0.0, "bike_id": "74e2fe30bc89ee5ae06a4ac545a650e7", "is_disabled": 0, "is_reserved": 0}, {"rental_uris": {"ios": "https://dc.lft.to/lastmile_qr_scan", "android": "https://dc.lft.to/lastmile_qr_scan"}, "lon": -77.04192983333333, "type": "electric_scooter", "fusion_lat": 0.0, "lat": 38.903459833333336, "name": "192e4bed7cb881d3371f4978db1d7331", "fusion_lon": 0.0, "bike_id": "192e4bed7cb881d3371f4978db1d7331", "is_disabled": 0, "is_reserved": 0}, {"rental_uris": {"ios": "https://dc.lft.to/lastmile_qr_scan", "android": "https://dc.lft.to/lastmile_qr_scan"}, "lon": -77.0238115, "type": "electric_scooter", "fusion_lat": 0.0, "lat": 38.93226633333333, "name": "0e713589885ea7e8ad933138d6df8caf", "fusion_lon": 0.0, "bike_id": "0e713589885ea7e8ad933138d6df8caf", "is_disabled": 0, "is_reserved": 0}, {"rental_uris": {"ios": "https://dc.lft.to/lastmile_qr_scan", "android": "https://dc.lft.to/lastmile_qr_scan"}, "lon": -77.00866283333333, "type": "electric_bike", "fusion_lat": 0.0, "lat": 38.827332166666665, "name": "24b59758770b0d91267eeab029f35db7", "fusion_lon": 0.0, "bike_id": "24b59758770b0d91267eeab029f35db7", "is_disabled": 0, "is_reserved": 0}, {"rental_uris": {"ios": "https://dc.lft.to/lastmile_qr_scan", "android": "https://dc.lft.to/lastmile_qr_scan"}, "lon": -77.02575616666667, "type": "electric_scooter", "fusion_lat": 0.0, "lat": 38.9034335, "name": "4a27aeed790cd0509c785fabe3ac4458", "fusion_lon": 0.0, "bike_id": "4a27aeed790cd0509c785fabe3ac4458", "is_disabled": 0, "is_reserved": 0}, {"rental_uris": {"ios": "https://dc.lft.to/lastmile_qr_scan", "android": "https://dc.lft.to/lastmile_qr_scan"}, "lon": -77.0259495, "type": "electric_scooter", "fusion_lat": 0.0, "lat": 38.892519, "name": "e143edb931aa602f2287c56fdc65e818", "fusion_lon": 0.0, "bike_id": "e143edb931aa602f2287c56fdc65e818", "is_disabled": 0, "is_reserved": 0}, {"rental_uris": {"ios": "https://dc.lft.to/lastmile_qr_scan", "android": "https://dc.lft.to/lastmile_qr_scan"}, "lon": -77.06770883333333, "type": "electric_scooter", "fusion_lat": 0.0, "lat": 38.90364433333333, "name": "8426abdee1fc3c55e8024986d90b016f", "fusion_lon": 0.0, "bike_id": "8426abdee1fc3c55e8024986d90b016f", "is_disabled": 0, "is_reserved": 0}, {"rental_uris": {"ios": "https://dc.lft.to/lastmile_qr_scan", "android": "https://dc.lft.to/lastmile_qr_scan"}, "lon": -77.01949033333334, "type": "electric_scooter", "fusion_lat": 0.0, "lat": 38.924165333333335, "name": "f78428bca2c920208a8d5c81539016ff", "fusion_lon": 0.0, "bike_id": "f78428bca2c920208a8d5c81539016ff", "is_disabled": 0, "is_reserved": 0}, {"rental_uris": {"ios": "https://dc.lft.to/lastmile_qr_scan", "android": "https://dc.lft.to/lastmile_qr_scan"}, "lon": -77.0470215, "type": "electric_scooter", "fusion_lat": 0.0, "lat": 38.9224, "name": "1f51b5351f9be429be70e3c9d49002bc", "fusion_lon": 0.0, "bike_id": "1f51b5351f9be429be70e3c9d49002bc", "is_disabled": 0, "is_reserved": 0}, {"rental_uris": {"ios": "https://dc.lft.to/lastmile_qr_scan", "android": "https://dc.lft.to/lastmile_qr_scan"}, "lon": -77.050027, "type": "electric_scooter", "fusion_lat": 0.0, "lat": 38.90114616666666, "name": "f13a1ec340d30b7488da1ead78084c15", "fusion_lon": 0.0, "bike_id": "f13a1ec340d30b7488da1ead78084c15", "is_disabled": 0, "is_reserved": 0}, {"rental_uris": {"ios": "https://dc.lft.to/lastmile_qr_scan", "android": "https://dc.lft.to/lastmile_qr_scan"}, "lon": -77.02832616666667, "type": "electric_scooter", "fusion_lat": 0.0, "lat": 38.895319, "name": "8c5f135351bd74e260627e157f7f983e", "fusion_lon": 0.0, "bike_id": "8c5f135351bd74e260627e157f7f983e", "is_disabled": 0, "is_reserved": 0}, {"rental_uris": {"ios": "https://dc.lft.to/lastmile_qr_scan", "android": "https://dc.lft.to/lastmile_qr_scan"}, "lon": -77.03211233333333, "type": "electric_scooter", "fusion_lat": 0.0, "lat": 38.9258255, "name": "b52c4117e149294e2db2bc95cf7b0c21", "fusion_lon": 0.0, "bike_id": "b52c4117e149294e2db2bc95cf7b0c21", "is_disabled": 0, "is_reserved": 0}, {"rental_uris": {"ios": "https://dc.lft.to/lastmile_qr_scan", "android": "https://dc.lft.to/lastmile_qr_scan"}, "lon": -77.00377933333333, "type": "electric_scooter", "fusion_lat": 0.0, "lat": 38.87668133333333, "name": "620d14b0d54016e54789ae99c64a050e", "fusion_lon": 0.0, "bike_id": "620d14b0d54016e54789ae99c64a050e", "is_disabled": 0, "is_reserved": 0}, {"rental_uris": {"ios": "https://dc.lft.to/lastmile_qr_scan", "android": "https://dc.lft.to/lastmile_qr_scan"}, "lon": -76.94893133333333, "type": "electric_scooter", "fusion_lat": 0.0, "lat": 38.895318833333334, "name": "6afb55d011990eb7b3261819b28b8f69", "fusion_lon": 0.0, "bike_id": "6afb55d011990eb7b3261819b28b8f69", "is_disabled": 0, "is_reserved": 0}, {"rental_uris": {"ios": "https://dc.lft.to/lastmile_qr_scan", "android": "https://dc.lft.to/lastmile_qr_scan"}, "lon": -77.02999616666666, "type": "electric_bike", "fusion_lat": 0.0, "lat": 38.900501, "name": "bc1dc7be253aa028a9dc8b5140ee9969", "fusion_lon": 0.0, "bike_id": "bc1dc7be253aa028a9dc8b5140ee9969", "is_disabled": 0, "is_reserved": 0}, {"rental_uris": {"ios": "https://dc.lft.to/lastmile_qr_scan", "android": "https://dc.lft.to/lastmile_qr_scan"}, "lon": -77.04038066666666, "type": "electric_scooter", "fusion_lat": 0.0, "lat": 38.9243985, "name": "b61ce2aee266df2c073fa22a1d9505de", "fusion_lon": 0.0, "bike_id": "b61ce2aee266df2c073fa22a1d9505de", "is_disabled": 0, "is_reserved": 0}, {"rental_uris": {"ios": "https://dc.lft.to/lastmile_qr_scan", "android": "https://dc.lft.to/lastmile_qr_scan"}, "lon": -77.03341466666667, "type": "electric_scooter", "fusion_lat": 0.0, "lat": 38.903390333333334, "name": "8a088f86b1c79c941d839af45e3fe8ab", "fusion_lon": 0.0, "bike_id": "8a088f86b1c79c941d839af45e3fe8ab", "is_disabled": 0, "is_reserved": 0}, {"rental_uris": {"ios": "https://dc.lft.to/lastmile_qr_scan", "android": "https://dc.lft.to/lastmile_qr_scan"}, "lon": -77.050038, "type": "electric_scooter", "fusion_lat": 0.0, "lat": 38.89235633333333, "name": "c0b843a72f7112bdd2259fd391ba5153", "fusion_lon": 0.0, "bike_id": "c0b843a72f7112bdd2259fd391ba5153", "is_disabled": 0, "is_reserved": 0}, {"rental_uris": {"ios": "https://dc.lft.to/lastmile_qr_scan", "android": "https://dc.lft.to/lastmile_qr_scan"}, "lon": -77.0314835, "type": "electric_scooter", "fusion_lat": 0.0, "lat": 38.912671, "name": "293e0c4620f769ed833979d8e8da5d04", "fusion_lon": 0.0, "bike_id": "293e0c4620f769ed833979d8e8da5d04", "is_disabled": 0, "is_reserved": 0}, {"rental_uris": {"ios": "https://dc.lft.to/lastmile_qr_scan", "android": "https://dc.lft.to/lastmile_qr_scan"}, "lon": -77.0250295, "type": "electric_scooter", "fusion_lat": 0.0, "lat": 38.8802655, "name": "8ab52d794a658238dc291591f793b859", "fusion_lon": 0.0, "bike_id": "8ab52d794a658238dc291591f793b859", "is_disabled": 0, "is_reserved": 0}, {"rental_uris": {"ios": "https://dc.lft.to/lastmile_qr_scan", "android": "https://dc.lft.to/lastmile_qr_scan"}, "lon": -77.13185816666666, "type": "electric_bike", "fusion_lat": 0.0, "lat": 38.86913533333333, "name": "e813dc8dae1bce31e05158c497b57b6c", "fusion_lon": 0.0, "bike_id": "e813dc8dae1bce31e05158c497b57b6c", "is_disabled": 0, "is_reserved": 0}, {"rental_uris": {"ios": "https://dc.lft.to/lastmile_qr_scan", "android": "https://dc.lft.to/lastmile_qr_scan"}, "lon": -76.97447983333333, "type": "electric_bike", "fusion_lat": 0.0, "lat": 38.86417683333333, "name": "16cdbb176634e010fce7881a54e8e477", "fusion_lon": 0.0, "bike_id": "16cdbb176634e010fce7881a54e8e477", "is_disabled": 0, "is_reserved": 0}, {"rental_uris": {"ios": "https://dc.lft.to/lastmile_qr_scan", "android": "https://dc.lft.to/lastmile_qr_scan"}, "lon": -77.03940866666667, "type": "electric_scooter", "fusion_lat": 0.0, "lat": 38.931577, "name": "d2fd6678658cb9e197f107d71e7c1f95", "fusion_lon": 0.0, "bike_id": "d2fd6678658cb9e197f107d71e7c1f95", "is_disabled": 0, "is_reserved": 0}, {"rental_uris": {"ios": "https://dc.lft.to/lastmile_qr_scan", "android": "https://dc.lft.to/lastmile_qr_scan"}, "lon": -76.97728466666666, "type": "electric_scooter", "fusion_lat": 0.0, "lat": 38.872944, "name": "32c90b12c752531154d1f44ca4d04bdc", "fusion_lon": 0.0, "bike_id": "32c90b12c752531154d1f44ca4d04bdc", "is_disabled": 0, "is_reserved": 0}, {"rental_uris": {"ios": "https://dc.lft.to/lastmile_qr_scan", "android": "https://dc.lft.to/lastmile_qr_scan"}, "lon": -76.949432, "type": "electric_scooter", "fusion_lat": 0.0, "lat": 38.88384283333333, "name": "8a7083d85968855cdf3d9eb18be56ee8", "fusion_lon": 0.0, "bike_id": "8a7083d85968855cdf3d9eb18be56ee8", "is_disabled": 0, "is_reserved": 0}, {"rental_uris": {"ios": "https://dc.lft.to/lastmile_qr_scan", "android": "https://dc.lft.to/lastmile_qr_scan"}, "lon": -77.0480115, "type": "electric_scooter", "fusion_lat": 0.0, "lat": 38.91644333333333, "name": "a605fab10e0e815621936650913c35d2", "fusion_lon": 0.0, "bike_id": "a605fab10e0e815621936650913c35d2", "is_disabled": 0, "is_reserved": 0}, {"rental_uris": {"ios": "https://dc.lft.to/lastmile_qr_scan", "android": "https://dc.lft.to/lastmile_qr_scan"}, "lon": -77.05062266666667, "type": "electric_scooter", "fusion_lat": 0.0, "lat": 38.905141, "name": "3a3da98ab42cd2150c444e6b35dd713e", "fusion_lon": 0.0, "bike_id": "3a3da98ab42cd2150c444e6b35dd713e", "is_disabled": 0, "is_reserved": 0}, {"rental_uris": {"ios": "https://dc.lft.to/lastmile_qr_scan", "android": "https://dc.lft.to/lastmile_qr_scan"}, "lon": -77.03263433333333, "type": "electric_scooter", "fusion_lat": 0.0, "lat": 38.91988216666667, "name": "7355a3bee21e873e1da11ad9f5a362c7", "fusion_lon": 0.0, "bike_id": "7355a3bee21e873e1da11ad9f5a362c7", "is_disabled": 0, "is_reserved": 0}, {"rental_uris": {"ios": "https://dc.lft.to/lastmile_qr_scan", "android": "https://dc.lft.to/lastmile_qr_scan"}, "lon": -77.03832266666667, "type": "electric_scooter", "fusion_lat": 0.0, "lat": 38.92174216666667, "name": "2bb435256851ab80266fd1d818bf5008", "fusion_lon": 0.0, "bike_id": "2bb435256851ab80266fd1d818bf5008", "is_disabled": 0, "is_reserved": 0}, {"rental_uris": {"ios": "https://dc.lft.to/lastmile_qr_scan", "android": "https://dc.lft.to/lastmile_qr_scan"}, "lon": -76.95735883333333, "type": "electric_scooter", "fusion_lat": 0.0, "lat": 38.89222916666667, "name": "f0df8a6f09eb1841db2a0f1f3a0ca61f", "fusion_lon": 0.0, "bike_id": "f0df8a6f09eb1841db2a0f1f3a0ca61f", "is_disabled": 0, "is_reserved": 0}, {"rental_uris": {"ios": "https://dc.lft.to/lastmile_qr_scan", "android": "https://dc.lft.to/lastmile_qr_scan"}, "lon": -77.01310866666667, "type": "electric_scooter", "fusion_lat": 0.0, "lat": 38.90044783333333, "name": "47204dd28400a21f21e0a5217b570c87", "fusion_lon": 0.0, "bike_id": "47204dd28400a21f21e0a5217b570c87", "is_disabled": 0, "is_reserved": 0}, {"rental_uris": {"ios": "https://dc.lft.to/lastmile_qr_scan", "android": "https://dc.lft.to/lastmile_qr_scan"}, "lon": -77.03807016666667, "type": "electric_bike", "fusion_lat": 0.0, "lat": 38.99672066666667, "name": "affd0b8b3e32fed8000fea653d7ec935", "fusion_lon": 0.0, "bike_id": "affd0b8b3e32fed8000fea653d7ec935", "is_disabled": 0, "is_reserved": 0}, {"rental_uris": {"ios": "https://dc.lft.to/lastmile_qr_scan", "android": "https://dc.lft.to/lastmile_qr_scan"}, "lon": -77.03018733333333, "type": "electric_scooter", "fusion_lat": 0.0, "lat": 38.897242, "name": "a5a2d268eb39575377e1ed4d4625f616", "fusion_lon": 0.0, "bike_id": "a5a2d268eb39575377e1ed4d4625f616", "is_disabled": 0, "is_reserved": 0}, {"rental_uris": {"ios": "https://dc.lft.to/lastmile_qr_scan", "android": "https://dc.lft.to/lastmile_qr_scan"}, "lon": -77.04279783333334, "type": "electric_scooter", "fusion_lat": 0.0, "lat": 38.907438, "name": "3fe006a859300b64c45df2d248f527bd", "fusion_lon": 0.0, "bike_id": "3fe006a859300b64c45df2d248f527bd", "is_disabled": 0, "is_reserved": 0}, {"rental_uris": {"ios": "https://dc.lft.to/lastmile_qr_scan", "android": "https://dc.lft.to/lastmile_qr_scan"}, "lon": -77.04186466666667, "type": "electric_scooter", "fusion_lat": 0.0, "lat": 38.91996733333333, "name": "ace398f3f2e60ee0f3652ad0d3664c2b", "fusion_lon": 0.0, "bike_id": "ace398f3f2e60ee0f3652ad0d3664c2b", "is_disabled": 0, "is_reserved": 0}, {"rental_uris": {"ios": "https://dc.lft.to/lastmile_qr_scan", "android": "https://dc.lft.to/lastmile_qr_scan"}, "lon": -77.03205483333333, "type": "electric_scooter", "fusion_lat": 0.0, "lat": 38.91475616666666, "name": "e6ef51bbde44e7a0f4b6da753f2ba39b", "fusion_lon": 0.0, "bike_id": "e6ef51bbde44e7a0f4b6da753f2ba39b", "is_disabled": 0, "is_reserved": 0}, {"rental_uris": {"ios": "https://dc.lft.to/lastmile_qr_scan", "android": "https://dc.lft.to/lastmile_qr_scan"}, "lon": -77.04053033333334, "type": "electric_scooter", "fusion_lat": 0.0, "lat": 38.92709133333334, "name": "38867e88df1447d08b7b27ca5b1419be", "fusion_lon": 0.0, "bike_id": "38867e88df1447d08b7b27ca5b1419be", "is_disabled": 0, "is_reserved": 0}, {"rental_uris": {"ios": "https://dc.lft.to/lastmile_qr_scan", "android": "https://dc.lft.to/lastmile_qr_scan"}, "lon": -77.03463033333334, "type": "electric_scooter", "fusion_lat": 0.0, "lat": 38.91708216666667, "name": "73b24a756955159589119d04149f5ce9", "fusion_lon": 0.0, "bike_id": "73b24a756955159589119d04149f5ce9", "is_disabled": 0, "is_reserved": 0}, {"rental_uris": {"ios": "https://dc.lft.to/lastmile_qr_scan", "android": "https://dc.lft.to/lastmile_qr_scan"}, "lon": -77.08944366666667, "type": "electric_bike", "fusion_lat": 0.0, "lat": 38.841103833333335, "name": "f201a794b1e60517294ec8f003ea8c81", "fusion_lon": 0.0, "bike_id": "f201a794b1e60517294ec8f003ea8c81", "is_disabled": 0, "is_reserved": 0}, {"rental_uris": {"ios": "https://dc.lft.to/lastmile_qr_scan", "android": "https://dc.lft.to/lastmile_qr_scan"}, "lon": -77.036772, "type": "electric_scooter", "fusion_lat": 0.0, "lat": 38.90687666666667, "name": "13b12b311e4f8cf6b1ff88f22370589c", "fusion_lon": 0.0, "bike_id": "13b12b311e4f8cf6b1ff88f22370589c", "is_disabled": 0, "is_reserved": 0}, {"rental_uris": {"ios": "https://dc.lft.to/lastmile_qr_scan", "android": "https://dc.lft.to/lastmile_qr_scan"}, "lon": -77.04501516666667, "type": "electric_scooter", "fusion_lat": 0.0, "lat": 38.90551166666667, "name": "39c13a40f5de8849f514a5d1bb4b2717", "fusion_lon": 0.0, "bike_id": "39c13a40f5de8849f514a5d1bb4b2717", "is_disabled": 0, "is_reserved": 0}, {"rental_uris": {"ios": "https://dc.lft.to/lastmile_qr_scan", "android": "https://dc.lft.to/lastmile_qr_scan"}, "lon": -77.08081083333333, "type": "electric_bike", "fusion_lat": 0.0, "lat": 38.906971666666664, "name": "e0a2c7abe5f1d4c3d763bc192ed4e0a7", "fusion_lon": 0.0, "bike_id": "e0a2c7abe5f1d4c3d763bc192ed4e0a7", "is_disabled": 0, "is_reserved": 0}, {"rental_uris": {"ios": "https://dc.lft.to/lastmile_qr_scan", "android": "https://dc.lft.to/lastmile_qr_scan"}, "lon": -77.032186, "type": "electric_scooter", "fusion_lat": 0.0, "lat": 38.90421683333334, "name": "f969b1885fc340f70a01b8afc2e32a6b", "fusion_lon": 0.0, "bike_id": "f969b1885fc340f70a01b8afc2e32a6b", "is_disabled": 0, "is_reserved": 0}, {"rental_uris": {"ios": "https://dc.lft.to/lastmile_qr_scan", "android": "https://dc.lft.to/lastmile_qr_scan"}, "lon": -77.02204416666666, "type": "electric_scooter", "fusion_lat": 0.0, "lat": 38.915394166666665, "name": "19f5c33c9d60f15746f981bfad037948", "fusion_lon": 0.0, "bike_id": "19f5c33c9d60f15746f981bfad037948", "is_disabled": 0, "is_reserved": 0}, {"rental_uris": {"ios": "https://dc.lft.to/lastmile_qr_scan", "android": "https://dc.lft.to/lastmile_qr_scan"}, "lon": -76.94742116666667, "type": "electric_scooter", "fusion_lat": 0.0, "lat": 38.89672433333333, "name": "12823be8f9bce352774809d06e8a6e28", "fusion_lon": 0.0, "bike_id": "12823be8f9bce352774809d06e8a6e28", "is_disabled": 0, "is_reserved": 0}, {"rental_uris": {"ios": "https://dc.lft.to/lastmile_qr_scan", "android": "https://dc.lft.to/lastmile_qr_scan"}, "lon": -77.0222275, "type": "electric_scooter", "fusion_lat": 0.0, "lat": 38.89202483333333, "name": "9bc3b19d131d284e487cfd7df8b6575d", "fusion_lon": 0.0, "bike_id": "9bc3b19d131d284e487cfd7df8b6575d", "is_disabled": 0, "is_reserved": 0}, {"rental_uris": {"ios": "https://dc.lft.to/lastmile_qr_scan", "android": "https://dc.lft.to/lastmile_qr_scan"}, "lon": -77.0354765, "type": "electric_scooter", "fusion_lat": 0.0, "lat": 38.908532666666666, "name": "9b639748da87bc9da87e565bcfb1c2b2", "fusion_lon": 0.0, "bike_id": "9b639748da87bc9da87e565bcfb1c2b2", "is_disabled": 0, "is_reserved": 0}, {"rental_uris": {"ios": "https://dc.lft.to/lastmile_qr_scan", "android": "https://dc.lft.to/lastmile_qr_scan"}, "lon": -77.02396466666667, "type": "electric_scooter", "fusion_lat": 0.0, "lat": 38.907032666666666, "name": "5ca735e8e7ceb2b51f03bd051641aa79", "fusion_lon": 0.0, "bike_id": "5ca735e8e7ceb2b51f03bd051641aa79", "is_disabled": 0, "is_reserved": 0}, {"rental_uris": {"ios": "https://dc.lft.to/lastmile_qr_scan", "android": "https://dc.lft.to/lastmile_qr_scan"}, "lon": -77.08826983333333, "type": "electric_bike", "fusion_lat": 0.0, "lat": 38.90976333333333, "name": "2780c6c9c8ebd24a8e53983910424dd1", "fusion_lon": 0.0, "bike_id": "2780c6c9c8ebd24a8e53983910424dd1", "is_disabled": 0, "is_reserved": 0}, {"rental_uris": {"ios": "https://dc.lft.to/lastmile_qr_scan", "android": "https://dc.lft.to/lastmile_qr_scan"}, "lon": -77.0588525, "type": "electric_scooter", "fusion_lat": 0.0, "lat": 38.93637733333333, "name": "c0ab3ac23fae137cff8d64b19a84df32", "fusion_lon": 0.0, "bike_id": "c0ab3ac23fae137cff8d64b19a84df32", "is_disabled": 0, "is_reserved": 0}, {"rental_uris": {"ios": "https://dc.lft.to/lastmile_qr_scan", "android": "https://dc.lft.to/lastmile_qr_scan"}, "lon": -76.98681183333333, "type": "electric_scooter", "fusion_lat": 0.0, "lat": 38.88211416666667, "name": "587932bf77d491f1de9db017284f0228", "fusion_lon": 0.0, "bike_id": "587932bf77d491f1de9db017284f0228", "is_disabled": 0, "is_reserved": 0}, {"rental_uris": {"ios": "https://dc.lft.to/lastmile_qr_scan", "android": "https://dc.lft.to/lastmile_qr_scan"}, "lon": -76.99657183333333, "type": "electric_scooter", "fusion_lat": 0.0, "lat": 38.9323345, "name": "13f37ed7b8ca67488adf335ab656bedd", "fusion_lon": 0.0, "bike_id": "13f37ed7b8ca67488adf335ab656bedd", "is_disabled": 0, "is_reserved": 0}, {"rental_uris": {"ios": "https://dc.lft.to/lastmile_qr_scan", "android": "https://dc.lft.to/lastmile_qr_scan"}, "lon": -77.0500285, "type": "electric_scooter", "fusion_lat": 0.0, "lat": 38.901143, "name": "b81045a8fdc2c4f2f5ff994c2034782b", "fusion_lon": 0.0, "bike_id": "b81045a8fdc2c4f2f5ff994c2034782b", "is_disabled": 0, "is_reserved": 0}, {"rental_uris": {"ios": "https://dc.lft.to/lastmile_qr_scan", "android": "https://dc.lft.to/lastmile_qr_scan"}, "lon": -77.02214, "type": "electric_scooter", "fusion_lat": 0.0, "lat": 38.91268616666667, "name": "42d91436652cc9dc7733a9c2ce12dacc", "fusion_lon": 0.0, "bike_id": "42d91436652cc9dc7733a9c2ce12dacc", "is_disabled": 0, "is_reserved": 0}, {"rental_uris": {"ios": "https://dc.lft.to/lastmile_qr_scan", "android": "https://dc.lft.to/lastmile_qr_scan"}, "lon": -77.00291016666667, "type": "electric_scooter", "fusion_lat": 0.0, "lat": 38.894851, "name": "3e92306e350611768e005e9a2d470a25", "fusion_lon": 0.0, "bike_id": "3e92306e350611768e005e9a2d470a25", "is_disabled": 0, "is_reserved": 0}, {"rental_uris": {"ios": "https://dc.lft.to/lastmile_qr_scan", "android": "https://dc.lft.to/lastmile_qr_scan"}, "lon": -77.0567665, "type": "electric_scooter", "fusion_lat": 0.0, "lat": 38.923333666666664, "name": "d7c1f0dc91817ac116877bcd377d1fc5", "fusion_lon": 0.0, "bike_id": "d7c1f0dc91817ac116877bcd377d1fc5", "is_disabled": 0, "is_reserved": 0}, {"rental_uris": {"ios": "https://dc.lft.to/lastmile_qr_scan", "android": "https://dc.lft.to/lastmile_qr_scan"}, "lon": -76.97958116666666, "type": "electric_scooter", "fusion_lat": 0.0, "lat": 38.90383, "name": "54c5e564a3fb26443f19acf2130be53e", "fusion_lon": 0.0, "bike_id": "54c5e564a3fb26443f19acf2130be53e", "is_disabled": 0, "is_reserved": 0}, {"rental_uris": {"ios": "https://dc.lft.to/lastmile_qr_scan", "android": "https://dc.lft.to/lastmile_qr_scan"}, "lon": -77.03858866666667, "type": "electric_scooter", "fusion_lat": 0.0, "lat": 38.91558716666667, "name": "e93b06210cdc65fa499c60c63fb646d1", "fusion_lon": 0.0, "bike_id": "e93b06210cdc65fa499c60c63fb646d1", "is_disabled": 0, "is_reserved": 0}, {"rental_uris": {"ios": "https://dc.lft.to/lastmile_qr_scan", "android": "https://dc.lft.to/lastmile_qr_scan"}, "lon": -77.04820683333334, "type": "electric_scooter", "fusion_lat": 0.0, "lat": 38.9073005, "name": "2ec79f44fd972a70a193900341264313", "fusion_lon": 0.0, "bike_id": "2ec79f44fd972a70a193900341264313", "is_disabled": 0, "is_reserved": 0}, {"rental_uris": {"ios": "https://dc.lft.to/lastmile_qr_scan", "android": "https://dc.lft.to/lastmile_qr_scan"}, "lon": -77.03273116666666, "type": "electric_scooter", "fusion_lat": 0.0, "lat": 38.94790733333333, "name": "e7a91149b180d6f6d806c9b382223f91", "fusion_lon": 0.0, "bike_id": "e7a91149b180d6f6d806c9b382223f91", "is_disabled": 0, "is_reserved": 0}, {"rental_uris": {"ios": "https://dc.lft.to/lastmile_qr_scan", "android": "https://dc.lft.to/lastmile_qr_scan"}, "lon": -77.04336933333333, "type": "electric_scooter", "fusion_lat": 0.0, "lat": 38.9056675, "name": "f72a64b43cd25c26c6e82483507fd428", "fusion_lon": 0.0, "bike_id": "f72a64b43cd25c26c6e82483507fd428", "is_disabled": 0, "is_reserved": 0}, {"rental_uris": {"ios": "https://dc.lft.to/lastmile_qr_scan", "android": "https://dc.lft.to/lastmile_qr_scan"}, "lon": -77.0344675, "type": "electric_scooter", "fusion_lat": 0.0, "lat": 38.91747683333333, "name": "f6965e0e779507e6247117ceefdce5b0", "fusion_lon": 0.0, "bike_id": "f6965e0e779507e6247117ceefdce5b0", "is_disabled": 0, "is_reserved": 0}, {"rental_uris": {"ios": "https://dc.lft.to/lastmile_qr_scan", "android": "https://dc.lft.to/lastmile_qr_scan"}, "lon": -77.06020733333334, "type": "electric_bike", "fusion_lat": 0.0, "lat": 38.90420533333333, "name": "bde9434e6636a3c440de7cbef8dabec2", "fusion_lon": 0.0, "bike_id": "bde9434e6636a3c440de7cbef8dabec2", "is_disabled": 0, "is_reserved": 0}, {"rental_uris": {"ios": "https://dc.lft.to/lastmile_qr_scan", "android": "https://dc.lft.to/lastmile_qr_scan"}, "lon": -77.02551483333333, "type": "electric_scooter", "fusion_lat": 0.0, "lat": 38.88417616666667, "name": "ded23d14a2f0b8210b1b42848d11c8c7", "fusion_lon": 0.0, "bike_id": "ded23d14a2f0b8210b1b42848d11c8c7", "is_disabled": 0, "is_reserved": 0}, {"rental_uris": {"ios": "https://dc.lft.to/lastmile_qr_scan", "android": "https://dc.lft.to/lastmile_qr_scan"}, "lon": -77.03856533333334, "type": "electric_scooter", "fusion_lat": 0.0, "lat": 38.9155125, "name": "b8047720552c0b8041083d1ac1ba3168", "fusion_lon": 0.0, "bike_id": "b8047720552c0b8041083d1ac1ba3168", "is_disabled": 0, "is_reserved": 0}, {"rental_uris": {"ios": "https://dc.lft.to/lastmile_qr_scan", "android": "https://dc.lft.to/lastmile_qr_scan"}, "lon": -77.01618116666667, "type": "electric_scooter", "fusion_lat": 0.0, "lat": 38.907125, "name": "4bf271f28c7ce54e53c2c9c8c6d696fd", "fusion_lon": 0.0, "bike_id": "4bf271f28c7ce54e53c2c9c8c6d696fd", "is_disabled": 0, "is_reserved": 0}, {"rental_uris": {"ios": "https://dc.lft.to/lastmile_qr_scan", "android": "https://dc.lft.to/lastmile_qr_scan"}, "lon": -77.04347333333334, "type": "electric_scooter", "fusion_lat": 0.0, "lat": 38.896617666666664, "name": "ca994d442587d5dd34eeb340b46192b4", "fusion_lon": 0.0, "bike_id": "ca994d442587d5dd34eeb340b46192b4", "is_disabled": 0, "is_reserved": 0}, {"rental_uris": {"ios": "https://dc.lft.to/lastmile_qr_scan", "android": "https://dc.lft.to/lastmile_qr_scan"}, "lon": -77.04370216666666, "type": "electric_scooter", "fusion_lat": 0.0, "lat": 38.8922565, "name": "60a1c33002daedc10bb8fb2b8f592ce0", "fusion_lon": 0.0, "bike_id": "60a1c33002daedc10bb8fb2b8f592ce0", "is_disabled": 0, "is_reserved": 0}, {"rental_uris": {"ios": "https://dc.lft.to/lastmile_qr_scan", "android": "https://dc.lft.to/lastmile_qr_scan"}, "lon": -77.04371966666666, "type": "electric_scooter", "fusion_lat": 0.0, "lat": 38.917877833333336, "name": "d68b5b4c70850463af6a9842635ab704", "fusion_lon": 0.0, "bike_id": "d68b5b4c70850463af6a9842635ab704", "is_disabled": 0, "is_reserved": 0}, {"rental_uris": {"ios": "https://dc.lft.to/lastmile_qr_scan", "android": "https://dc.lft.to/lastmile_qr_scan"}, "lon": -77.03557166666667, "type": "electric_bike", "fusion_lat": 0.0, "lat": 38.964758, "name": "b07324f0a58458f9a9ee188f5fd5c782", "fusion_lon": 0.0, "bike_id": "b07324f0a58458f9a9ee188f5fd5c782", "is_disabled": 0, "is_reserved": 0}, {"rental_uris": {"ios": "https://dc.lft.to/lastmile_qr_scan", "android": "https://dc.lft.to/lastmile_qr_scan"}, "lon": -76.98513183333333, "type": "electric_scooter", "fusion_lat": 0.0, "lat": 38.906113500000004, "name": "e738e4033f5ae302de9f2590b3977bb4", "fusion_lon": 0.0, "bike_id": "e738e4033f5ae302de9f2590b3977bb4", "is_disabled": 0, "is_reserved": 0}, {"rental_uris": {"ios": "https://dc.lft.to/lastmile_qr_scan", "android": "https://dc.lft.to/lastmile_qr_scan"}, "lon": -76.99971116666667, "type": "electric_scooter", "fusion_lat": 0.0, "lat": 38.909308833333334, "name": "53d2f0457734d29e68846d012dd39e28", "fusion_lon": 0.0, "bike_id": "53d2f0457734d29e68846d012dd39e28", "is_disabled": 0, "is_reserved": 0}, {"rental_uris": {"ios": "https://dc.lft.to/lastmile_qr_scan", "android": "https://dc.lft.to/lastmile_qr_scan"}, "lon": -77.02761233333334, "type": "electric_bike", "fusion_lat": 0.0, "lat": 38.904832666666664, "name": "d7fc87af439f3c01249d252da64ed72d", "fusion_lon": 0.0, "bike_id": "d7fc87af439f3c01249d252da64ed72d", "is_disabled": 0, "is_reserved": 0}, {"rental_uris": {"ios": "https://dc.lft.to/lastmile_qr_scan", "android": "https://dc.lft.to/lastmile_qr_scan"}, "lon": -77.0416925, "type": "electric_scooter", "fusion_lat": 0.0, "lat": 38.919415, "name": "ca9a1a2147f4c7602b7163e5a3cd9be6", "fusion_lon": 0.0, "bike_id": "ca9a1a2147f4c7602b7163e5a3cd9be6", "is_disabled": 0, "is_reserved": 0}, {"rental_uris": {"ios": "https://dc.lft.to/lastmile_qr_scan", "android": "https://dc.lft.to/lastmile_qr_scan"}, "lon": -77.03532483333333, "type": "electric_scooter", "fusion_lat": 0.0, "lat": 38.92227583333333, "name": "fba90590023573c772932af47bc077f5", "fusion_lon": 0.0, "bike_id": "fba90590023573c772932af47bc077f5", "is_disabled": 0, "is_reserved": 0}, {"rental_uris": {"ios": "https://dc.lft.to/lastmile_qr_scan", "android": "https://dc.lft.to/lastmile_qr_scan"}, "lon": -77.03253883333333, "type": "electric_scooter", "fusion_lat": 0.0, "lat": 38.9041115, "name": "a623f8afb908a26d2955a6b4da8b2b37", "fusion_lon": 0.0, "bike_id": "a623f8afb908a26d2955a6b4da8b2b37", "is_disabled": 0, "is_reserved": 0}, {"rental_uris": {"ios": "https://dc.lft.to/lastmile_qr_scan", "android": "https://dc.lft.to/lastmile_qr_scan"}, "lon": -76.99820366666667, "type": "electric_scooter", "fusion_lat": 0.0, "lat": 38.888745166666666, "name": "4834adb65d90bcff3a82bdebd9837d93", "fusion_lon": 0.0, "bike_id": "4834adb65d90bcff3a82bdebd9837d93", "is_disabled": 0, "is_reserved": 0}, {"rental_uris": {"ios": "https://dc.lft.to/lastmile_qr_scan", "android": "https://dc.lft.to/lastmile_qr_scan"}, "lon": -77.00208016666667, "type": "electric_scooter", "fusion_lat": 0.0, "lat": 38.900445166666664, "name": "8ee63c235d6e4b63015efb684aca9365", "fusion_lon": 0.0, "bike_id": "8ee63c235d6e4b63015efb684aca9365", "is_disabled": 0, "is_reserved": 0}, {"rental_uris": {"ios": "https://dc.lft.to/lastmile_qr_scan", "android": "https://dc.lft.to/lastmile_qr_scan"}, "lon": -77.00588883333333, "type": "electric_scooter", "fusion_lat": 0.0, "lat": 38.877114, "name": "8ada09560c80e016e161750b0ddd69cd", "fusion_lon": 0.0, "bike_id": "8ada09560c80e016e161750b0ddd69cd", "is_disabled": 0, "is_reserved": 0}, {"rental_uris": {"ios": "https://dc.lft.to/lastmile_qr_scan", "android": "https://dc.lft.to/lastmile_qr_scan"}, "lon": -77.0346705, "type": "electric_scooter", "fusion_lat": 0.0, "lat": 38.934451, "name": "068fd4499b066a319e4e46011eeb7b6c", "fusion_lon": 0.0, "bike_id": "068fd4499b066a319e4e46011eeb7b6c", "is_disabled": 0, "is_reserved": 0}, {"rental_uris": {"ios": "https://dc.lft.to/lastmile_qr_scan", "android": "https://dc.lft.to/lastmile_qr_scan"}, "lon": -76.99001166666666, "type": "electric_scooter", "fusion_lat": 0.0, "lat": 38.90396166666667, "name": "5f6b04ce56a36734b98d790a947c6665", "fusion_lon": 0.0, "bike_id": "5f6b04ce56a36734b98d790a947c6665", "is_disabled": 0, "is_reserved": 0}, {"rental_uris": {"ios": "https://dc.lft.to/lastmile_qr_scan", "android": "https://dc.lft.to/lastmile_qr_scan"}, "lon": -77.01023166666667, "type": "electric_scooter", "fusion_lat": 0.0, "lat": 38.91812516666667, "name": "2e9b39930e74ea3564107439f7ba569c", "fusion_lon": 0.0, "bike_id": "2e9b39930e74ea3564107439f7ba569c", "is_disabled": 0, "is_reserved": 0}, {"rental_uris": {"ios": "https://dc.lft.to/lastmile_qr_scan", "android": "https://dc.lft.to/lastmile_qr_scan"}, "lon": -77.0375135, "type": "electric_scooter", "fusion_lat": 0.0, "lat": 38.91269233333333, "name": "a53982408c35aea50f4b7f19a8127346", "fusion_lon": 0.0, "bike_id": "a53982408c35aea50f4b7f19a8127346", "is_disabled": 0, "is_reserved": 0}, {"rental_uris": {"ios": "https://dc.lft.to/lastmile_qr_scan", "android": "https://dc.lft.to/lastmile_qr_scan"}, "lon": -76.998368, "type": "electric_scooter", "fusion_lat": 0.0, "lat": 38.90044833333333, "name": "edd862498ea00fcdd0a4e7e65912dd07", "fusion_lon": 0.0, "bike_id": "edd862498ea00fcdd0a4e7e65912dd07", "is_disabled": 0, "is_reserved": 0}, {"rental_uris": {"ios": "https://dc.lft.to/lastmile_qr_scan", "android": "https://dc.lft.to/lastmile_qr_scan"}, "lon": -77.04027, "type": "electric_scooter", "fusion_lat": 0.0, "lat": 38.905821, "name": "ccf6903016ed40f1939d692967774f49", "fusion_lon": 0.0, "bike_id": "ccf6903016ed40f1939d692967774f49", "is_disabled": 0, "is_reserved": 0}, {"rental_uris": {"ios": "https://dc.lft.to/lastmile_qr_scan", "android": "https://dc.lft.to/lastmile_qr_scan"}, "lon": -77.04281816666666, "type": "electric_scooter", "fusion_lat": 0.0, "lat": 38.906512666666664, "name": "e43c32d37b1eee7a6cbe52e34d05f730", "fusion_lon": 0.0, "bike_id": "e43c32d37b1eee7a6cbe52e34d05f730", "is_disabled": 0, "is_reserved": 0}, {"rental_uris": {"ios": "https://dc.lft.to/lastmile_qr_scan", "android": "https://dc.lft.to/lastmile_qr_scan"}, "lon": -76.99554216666667, "type": "electric_scooter", "fusion_lat": 0.0, "lat": 38.862334, "name": "f4ef13e3ffe437ac2d81b4044293bb4d", "fusion_lon": 0.0, "bike_id": "f4ef13e3ffe437ac2d81b4044293bb4d", "is_disabled": 0, "is_reserved": 0}, {"rental_uris": {"ios": "https://dc.lft.to/lastmile_qr_scan", "android": "https://dc.lft.to/lastmile_qr_scan"}, "lon": -77.01993466666667, "type": "electric_scooter", "fusion_lat": 0.0, "lat": 38.937800333333335, "name": "9f60f850f71b6a1cd5447120b6b78f6c", "fusion_lon": 0.0, "bike_id": "9f60f850f71b6a1cd5447120b6b78f6c", "is_disabled": 0, "is_reserved": 0}, {"rental_uris": {"ios": "https://dc.lft.to/lastmile_qr_scan", "android": "https://dc.lft.to/lastmile_qr_scan"}, "lon": -76.97328383333334, "type": "electric_scooter", "fusion_lat": 0.0, "lat": 38.930286833333334, "name": "34a41ffb4ff8d504bfffa6febaaabb00", "fusion_lon": 0.0, "bike_id": "34a41ffb4ff8d504bfffa6febaaabb00", "is_disabled": 0, "is_reserved": 0}, {"rental_uris": {"ios": "https://dc.lft.to/lastmile_qr_scan", "android": "https://dc.lft.to/lastmile_qr_scan"}, "lon": -77.038352, "type": "electric_scooter", "fusion_lat": 0.0, "lat": 38.91117933333334, "name": "40726281d6a32f672052f3d94725f57f", "fusion_lon": 0.0, "bike_id": "40726281d6a32f672052f3d94725f57f", "is_disabled": 0, "is_reserved": 0}, {"rental_uris": {"ios": "https://dc.lft.to/lastmile_qr_scan", "android": "https://dc.lft.to/lastmile_qr_scan"}, "lon": -76.97503516666667, "type": "electric_bike", "fusion_lat": 0.0, "lat": 38.9193645, "name": "f4505e2cadddf56aee03e9c0ca66e80e", "fusion_lon": 0.0, "bike_id": "f4505e2cadddf56aee03e9c0ca66e80e", "is_disabled": 0, "is_reserved": 0}, {"rental_uris": {"ios": "https://dc.lft.to/lastmile_qr_scan", "android": "https://dc.lft.to/lastmile_qr_scan"}, "lon": -76.99610183333333, "type": "electric_scooter", "fusion_lat": 0.0, "lat": 38.886284, "name": "7c8ce60907f61087dcd5af3b6212e79d", "fusion_lon": 0.0, "bike_id": "7c8ce60907f61087dcd5af3b6212e79d", "is_disabled": 0, "is_reserved": 0}, {"rental_uris": {"ios": "https://dc.lft.to/lastmile_qr_scan", "android": "https://dc.lft.to/lastmile_qr_scan"}, "lon": -76.98565033333334, "type": "electric_scooter", "fusion_lat": 0.0, "lat": 38.861510333333335, "name": "4a7d0c25beb13cffc0476cb89ada0c38", "fusion_lon": 0.0, "bike_id": "4a7d0c25beb13cffc0476cb89ada0c38", "is_disabled": 0, "is_reserved": 0}, {"rental_uris": {"ios": "https://dc.lft.to/lastmile_qr_scan", "android": "https://dc.lft.to/lastmile_qr_scan"}, "lon": -77.04645466666666, "type": "electric_scooter", "fusion_lat": 0.0, "lat": 38.8965615, "name": "dc73b2125af22d6f54fef9e27fd65b21", "fusion_lon": 0.0, "bike_id": "dc73b2125af22d6f54fef9e27fd65b21", "is_disabled": 0, "is_reserved": 0}, {"rental_uris": {"ios": "https://dc.lft.to/lastmile_qr_scan", "android": "https://dc.lft.to/lastmile_qr_scan"}, "lon": -76.97563033333333, "type": "electric_scooter", "fusion_lat": 0.0, "lat": 38.904458166666664, "name": "f6f0ca95b8814f7a64370c66eb35d0e9", "fusion_lon": 0.0, "bike_id": "f6f0ca95b8814f7a64370c66eb35d0e9", "is_disabled": 0, "is_reserved": 0}, {"rental_uris": {"ios": "https://dc.lft.to/lastmile_qr_scan", "android": "https://dc.lft.to/lastmile_qr_scan"}, "lon": -77.04492666666667, "type": "electric_scooter", "fusion_lat": 0.0, "lat": 38.91521516666667, "name": "32ed759a3eb44ac4a03a741289f08d58", "fusion_lon": 0.0, "bike_id": "32ed759a3eb44ac4a03a741289f08d58", "is_disabled": 0, "is_reserved": 0}, {"rental_uris": {"ios": "https://dc.lft.to/lastmile_qr_scan", "android": "https://dc.lft.to/lastmile_qr_scan"}, "lon": -76.99862033333333, "type": "electric_scooter", "fusion_lat": 0.0, "lat": 38.900268833333335, "name": "bf4c68704bf9cd2724cdcc62753bf1fa", "fusion_lon": 0.0, "bike_id": "bf4c68704bf9cd2724cdcc62753bf1fa", "is_disabled": 0, "is_reserved": 0}, {"rental_uris": {"ios": "https://dc.lft.to/lastmile_qr_scan", "android": "https://dc.lft.to/lastmile_qr_scan"}, "lon": -77.04554083333333, "type": "electric_scooter", "fusion_lat": 0.0, "lat": 38.892245333333335, "name": "609ab542634f155d255d108846095195", "fusion_lon": 0.0, "bike_id": "609ab542634f155d255d108846095195", "is_disabled": 0, "is_reserved": 0}, {"rental_uris": {"ios": "https://dc.lft.to/lastmile_qr_scan", "android": "https://dc.lft.to/lastmile_qr_scan"}, "lon": -77.04630266666666, "type": "electric_scooter", "fusion_lat": 0.0, "lat": 38.91581633333333, "name": "eb552133937dd847b277c46e985b0d6e", "fusion_lon": 0.0, "bike_id": "eb552133937dd847b277c46e985b0d6e", "is_disabled": 0, "is_reserved": 0}, {"rental_uris": {"ios": "https://dc.lft.to/lastmile_qr_scan", "android": "https://dc.lft.to/lastmile_qr_scan"}, "lon": -77.0254785, "type": "electric_scooter", "fusion_lat": 0.0, "lat": 38.892254, "name": "d4c8acc75ea50f81cffe65fe213bfee1", "fusion_lon": 0.0, "bike_id": "d4c8acc75ea50f81cffe65fe213bfee1", "is_disabled": 0, "is_reserved": 0}, {"rental_uris": {"ios": "https://dc.lft.to/lastmile_qr_scan", "android": "https://dc.lft.to/lastmile_qr_scan"}, "lon": -77.05748133333333, "type": "electric_scooter", "fusion_lat": 0.0, "lat": 38.93539966666667, "name": "67a81117760711a7153bc21b5c7c6f50", "fusion_lon": 0.0, "bike_id": "67a81117760711a7153bc21b5c7c6f50", "is_disabled": 0, "is_reserved": 0}, {"rental_uris": {"ios": "https://dc.lft.to/lastmile_qr_scan", "android": "https://dc.lft.to/lastmile_qr_scan"}, "lon": -77.01344683333333, "type": "electric_bike", "fusion_lat": 0.0, "lat": 39.00000516666667, "name": "5efc68f31304af34ad1b887f606ce502", "fusion_lon": 0.0, "bike_id": "5efc68f31304af34ad1b887f606ce502", "is_disabled": 0, "is_reserved": 0}, {"rental_uris": {"ios": "https://dc.lft.to/lastmile_qr_scan", "android": "https://dc.lft.to/lastmile_qr_scan"}, "lon": -77.08838483333334, "type": "electric_bike", "fusion_lat": 0.0, "lat": 38.840906833333335, "name": "7897b266709b7bfa83ce34f490b17732", "fusion_lon": 0.0, "bike_id": "7897b266709b7bfa83ce34f490b17732", "is_disabled": 0, "is_reserved": 0}, {"rental_uris": {"ios": "https://dc.lft.to/lastmile_qr_scan", "android": "https://dc.lft.to/lastmile_qr_scan"}, "lon": -77.000589, "type": "electric_scooter", "fusion_lat": 0.0, "lat": 38.88899166666667, "name": "e71a0d542db84d3ec785199a9a611d52", "fusion_lon": 0.0, "bike_id": "e71a0d542db84d3ec785199a9a611d52", "is_disabled": 0, "is_reserved": 0}, {"rental_uris": {"ios": "https://dc.lft.to/lastmile_qr_scan", "android": "https://dc.lft.to/lastmile_qr_scan"}, "lon": -77.0222075, "type": "electric_scooter", "fusion_lat": 0.0, "lat": 38.8919575, "name": "bd967202d6fdff7be713154f9a888f35", "fusion_lon": 0.0, "bike_id": "bd967202d6fdff7be713154f9a888f35", "is_disabled": 0, "is_reserved": 0}, {"rental_uris": {"ios": "https://dc.lft.to/lastmile_qr_scan", "android": "https://dc.lft.to/lastmile_qr_scan"}, "lon": -77.01840116666666, "type": "electric_scooter", "fusion_lat": 0.0, "lat": 38.909439166666665, "name": "599b4029706f7f4b555651ebe5e4fed9", "fusion_lon": 0.0, "bike_id": "599b4029706f7f4b555651ebe5e4fed9", "is_disabled": 0, "is_reserved": 0}, {"rental_uris": {"ios": "https://dc.lft.to/lastmile_qr_scan", "android": "https://dc.lft.to/lastmile_qr_scan"}, "lon": -77.075504, "type": "electric_bike", "fusion_lat": 0.0, "lat": 38.910466, "name": "5c750410fda0fcc658cb1d8c31797674", "fusion_lon": 0.0, "bike_id": "5c750410fda0fcc658cb1d8c31797674", "is_disabled": 0, "is_reserved": 0}, {"rental_uris": {"ios": "https://dc.lft.to/lastmile_qr_scan", "android": "https://dc.lft.to/lastmile_qr_scan"}, "lon": -77.00803233333333, "type": "electric_scooter", "fusion_lat": 0.0, "lat": 38.883283666666664, "name": "8cfd379fe0a224b5b75d5fd135d85340", "fusion_lon": 0.0, "bike_id": "8cfd379fe0a224b5b75d5fd135d85340", "is_disabled": 0, "is_reserved": 0}, {"rental_uris": {"ios": "https://dc.lft.to/lastmile_qr_scan", "android": "https://dc.lft.to/lastmile_qr_scan"}, "lon": -77.010993, "type": "electric_scooter", "fusion_lat": 0.0, "lat": 38.903679333333336, "name": "0cdfefac353f2b0485bb07596a4bfe44", "fusion_lon": 0.0, "bike_id": "0cdfefac353f2b0485bb07596a4bfe44", "is_disabled": 0, "is_reserved": 0}, {"rental_uris": {"ios": "https://dc.lft.to/lastmile_qr_scan", "android": "https://dc.lft.to/lastmile_qr_scan"}, "lon": -77.0302285, "type": "electric_scooter", "fusion_lat": 0.0, "lat": 38.897507833333336, "name": "2bd926fcf0ebc67d0a20fa7ec0cea769", "fusion_lon": 0.0, "bike_id": "2bd926fcf0ebc67d0a20fa7ec0cea769", "is_disabled": 0, "is_reserved": 0}, {"rental_uris": {"ios": "https://dc.lft.to/lastmile_qr_scan", "android": "https://dc.lft.to/lastmile_qr_scan"}, "lon": -77.04255, "type": "electric_scooter", "fusion_lat": 0.0, "lat": 38.922237333333335, "name": "2b7ac4eabee2838cb843ebf8cc804668", "fusion_lon": 0.0, "bike_id": "2b7ac4eabee2838cb843ebf8cc804668", "is_disabled": 0, "is_reserved": 0}, {"rental_uris": {"ios": "https://dc.lft.to/lastmile_qr_scan", "android": "https://dc.lft.to/lastmile_qr_scan"}, "lon": -77.03277933333334, "type": "electric_scooter", "fusion_lat": 0.0, "lat": 38.928774, "name": "3db5c4dce9d6b31783d056af98ce8719", "fusion_lon": 0.0, "bike_id": "3db5c4dce9d6b31783d056af98ce8719", "is_disabled": 0, "is_reserved": 0}, {"rental_uris": {"ios": "https://dc.lft.to/lastmile_qr_scan", "android": "https://dc.lft.to/lastmile_qr_scan"}, "lon": -76.9382975, "type": "electric_scooter", "fusion_lat": 0.0, "lat": 38.89764183333333, "name": "40c32632795559af62f4fda208a0137f", "fusion_lon": 0.0, "bike_id": "40c32632795559af62f4fda208a0137f", "is_disabled": 0, "is_reserved": 0}, {"rental_uris": {"ios": "https://dc.lft.to/lastmile_qr_scan", "android": "https://dc.lft.to/lastmile_qr_scan"}, "lon": -77.02650383333334, "type": "electric_scooter", "fusion_lat": 0.0, "lat": 38.89223633333334, "name": "ef7be4795ed88b18d4940f2ee01d2046", "fusion_lon": 0.0, "bike_id": "ef7be4795ed88b18d4940f2ee01d2046", "is_disabled": 0, "is_reserved": 0}, {"rental_uris": {"ios": "https://dc.lft.to/lastmile_qr_scan", "android": "https://dc.lft.to/lastmile_qr_scan"}, "lon": -77.00116333333334, "type": "electric_scooter", "fusion_lat": 0.0, "lat": 38.89433233333333, "name": "348a43c897a8bbaae78267eb9ec2b303", "fusion_lon": 0.0, "bike_id": "348a43c897a8bbaae78267eb9ec2b303", "is_disabled": 0, "is_reserved": 0}, {"rental_uris": {"ios": "https://dc.lft.to/lastmile_qr_scan", "android": "https://dc.lft.to/lastmile_qr_scan"}, "lon": -77.03148516666667, "type": "electric_scooter", "fusion_lat": 0.0, "lat": 38.89224083333333, "name": "1161a3819b5312cd44e90be9a5b22f04", "fusion_lon": 0.0, "bike_id": "1161a3819b5312cd44e90be9a5b22f04", "is_disabled": 0, "is_reserved": 0}, {"rental_uris": {"ios": "https://dc.lft.to/lastmile_qr_scan", "android": "https://dc.lft.to/lastmile_qr_scan"}, "lon": -77.044233, "type": "electric_scooter", "fusion_lat": 0.0, "lat": 38.92113166666667, "name": "e69ad3c2d07fcd36dd132d88c7be7b29", "fusion_lon": 0.0, "bike_id": "e69ad3c2d07fcd36dd132d88c7be7b29", "is_disabled": 0, "is_reserved": 0}, {"rental_uris": {"ios": "https://dc.lft.to/lastmile_qr_scan", "android": "https://dc.lft.to/lastmile_qr_scan"}, "lon": -77.03419683333334, "type": "electric_scooter", "fusion_lat": 0.0, "lat": 38.919244666666664, "name": "f7abf81b6663bc7564d7d19424562256", "fusion_lon": 0.0, "bike_id": "f7abf81b6663bc7564d7d19424562256", "is_disabled": 0, "is_reserved": 0}, {"rental_uris": {"ios": "https://dc.lft.to/lastmile_qr_scan", "android": "https://dc.lft.to/lastmile_qr_scan"}, "lon": -77.02213716666667, "type": "electric_scooter", "fusion_lat": 0.0, "lat": 38.9057375, "name": "d3af5755033c27bfd29e2a0d05f21079", "fusion_lon": 0.0, "bike_id": "d3af5755033c27bfd29e2a0d05f21079", "is_disabled": 0, "is_reserved": 0}, {"rental_uris": {"ios": "https://dc.lft.to/lastmile_qr_scan", "android": "https://dc.lft.to/lastmile_qr_scan"}, "lon": -77.04438383333333, "type": "electric_scooter", "fusion_lat": 0.0, "lat": 38.908642, "name": "19839f7bb2ebd1c26df14d05b0966b11", "fusion_lon": 0.0, "bike_id": "19839f7bb2ebd1c26df14d05b0966b11", "is_disabled": 0, "is_reserved": 0}, {"rental_uris": {"ios": "https://dc.lft.to/lastmile_qr_scan", "android": "https://dc.lft.to/lastmile_qr_scan"}, "lon": -77.03163316666667, "type": "electric_scooter", "fusion_lat": 0.0, "lat": 38.92016983333333, "name": "cd77f75f0aa32c59846a16872e56151a", "fusion_lon": 0.0, "bike_id": "cd77f75f0aa32c59846a16872e56151a", "is_disabled": 0, "is_reserved": 0}, {"rental_uris": {"ios": "https://dc.lft.to/lastmile_qr_scan", "android": "https://dc.lft.to/lastmile_qr_scan"}, "lon": -76.9948665, "type": "electric_scooter", "fusion_lat": 0.0, "lat": 38.93205566666666, "name": "a8235892f3fa618694b2ba7c5ba1f33c", "fusion_lon": 0.0, "bike_id": "a8235892f3fa618694b2ba7c5ba1f33c", "is_disabled": 0, "is_reserved": 0}, {"rental_uris": {"ios": "https://dc.lft.to/lastmile_qr_scan", "android": "https://dc.lft.to/lastmile_qr_scan"}, "lon": -77.0500395, "type": "electric_scooter", "fusion_lat": 0.0, "lat": 38.892306, "name": "f91aca606956961a7d961f7df7ae8d3d", "fusion_lon": 0.0, "bike_id": "f91aca606956961a7d961f7df7ae8d3d", "is_disabled": 0, "is_reserved": 0}, {"rental_uris": {"ios": "https://dc.lft.to/lastmile_qr_scan", "android": "https://dc.lft.to/lastmile_qr_scan"}, "lon": -77.02169166666667, "type": "electric_scooter", "fusion_lat": 0.0, "lat": 38.89924966666667, "name": "78f1aae5f30b6a748bef0f2dea0be4d1", "fusion_lon": 0.0, "bike_id": "78f1aae5f30b6a748bef0f2dea0be4d1", "is_disabled": 0, "is_reserved": 0}, {"rental_uris": {"ios": "https://dc.lft.to/lastmile_qr_scan", "android": "https://dc.lft.to/lastmile_qr_scan"}, "lon": -76.94718183333333, "type": "electric_scooter", "fusion_lat": 0.0, "lat": 38.89741866666667, "name": "31924a7d0ec7d7d3958405441822e316", "fusion_lon": 0.0, "bike_id": "31924a7d0ec7d7d3958405441822e316", "is_disabled": 0, "is_reserved": 0}, {"rental_uris": {"ios": "https://dc.lft.to/lastmile_qr_scan", "android": "https://dc.lft.to/lastmile_qr_scan"}, "lon": -77.05849033333334, "type": "electric_scooter", "fusion_lat": 0.0, "lat": 38.9343055, "name": "3a65b4301d7c9239ef547cc50f0d057e", "fusion_lon": 0.0, "bike_id": "3a65b4301d7c9239ef547cc50f0d057e", "is_disabled": 0, "is_reserved": 0}, {"rental_uris": {"ios": "https://dc.lft.to/lastmile_qr_scan", "android": "https://dc.lft.to/lastmile_qr_scan"}, "lon": -77.054756, "type": "electric_scooter", "fusion_lat": 0.0, "lat": 38.92094783333334, "name": "a7d9d351b9ddcd9185b5f31544724bba", "fusion_lon": 0.0, "bike_id": "a7d9d351b9ddcd9185b5f31544724bba", "is_disabled": 0, "is_reserved": 0}, {"rental_uris": {"ios": "https://dc.lft.to/lastmile_qr_scan", "android": "https://dc.lft.to/lastmile_qr_scan"}, "lon": -77.05929466666667, "type": "electric_scooter", "fusion_lat": 0.0, "lat": 38.9095805, "name": "a5ec88d43405c6a94a9ba6d0edc4ca63", "fusion_lon": 0.0, "bike_id": "a5ec88d43405c6a94a9ba6d0edc4ca63", "is_disabled": 0, "is_reserved": 0}, {"rental_uris": {"ios": "https://dc.lft.to/lastmile_qr_scan", "android": "https://dc.lft.to/lastmile_qr_scan"}, "lon": -76.93737766666666, "type": "electric_scooter", "fusion_lat": 0.0, "lat": 38.89018983333333, "name": "4ffd9b51de0d009cbfecad4ae88268cb", "fusion_lon": 0.0, "bike_id": "4ffd9b51de0d009cbfecad4ae88268cb", "is_disabled": 0, "is_reserved": 0}, {"rental_uris": {"ios": "https://dc.lft.to/lastmile_qr_scan", "android": "https://dc.lft.to/lastmile_qr_scan"}, "lon": -77.02220066666666, "type": "electric_scooter", "fusion_lat": 0.0, "lat": 38.89354766666666, "name": "ca69754bc3de26cf703d53ae04ca743b", "fusion_lon": 0.0, "bike_id": "ca69754bc3de26cf703d53ae04ca743b", "is_disabled": 0, "is_reserved": 0}, {"rental_uris": {"ios": "https://dc.lft.to/lastmile_qr_scan", "android": "https://dc.lft.to/lastmile_qr_scan"}, "lon": -77.02015583333333, "type": "electric_scooter", "fusion_lat": 0.0, "lat": 38.94975383333333, "name": "3696821824a79023058db03916f5aef2", "fusion_lon": 0.0, "bike_id": "3696821824a79023058db03916f5aef2", "is_disabled": 0, "is_reserved": 0}, {"rental_uris": {"ios": "https://dc.lft.to/lastmile_qr_scan", "android": "https://dc.lft.to/lastmile_qr_scan"}, "lon": -76.98710833333334, "type": "electric_scooter", "fusion_lat": 0.0, "lat": 38.862612, "name": "97a833c8e41720a795a6c678082ea688", "fusion_lon": 0.0, "bike_id": "97a833c8e41720a795a6c678082ea688", "is_disabled": 0, "is_reserved": 0}, {"rental_uris": {"ios": "https://dc.lft.to/lastmile_qr_scan", "android": "https://dc.lft.to/lastmile_qr_scan"}, "lon": -77.02766633333333, "type": "electric_scooter", "fusion_lat": 0.0, "lat": 38.89480666666667, "name": "a5e2ddc0d58414e03da48074e999cabd", "fusion_lon": 0.0, "bike_id": "a5e2ddc0d58414e03da48074e999cabd", "is_disabled": 0, "is_reserved": 0}, {"rental_uris": {"ios": "https://dc.lft.to/lastmile_qr_scan", "android": "https://dc.lft.to/lastmile_qr_scan"}, "lon": -77.03251, "type": "electric_scooter", "fusion_lat": 0.0, "lat": 38.929053333333336, "name": "7f9e16058c44669571626bf0812c09bb", "fusion_lon": 0.0, "bike_id": "7f9e16058c44669571626bf0812c09bb", "is_disabled": 0, "is_reserved": 0}, {"rental_uris": {"ios": "https://dc.lft.to/lastmile_qr_scan", "android": "https://dc.lft.to/lastmile_qr_scan"}, "lon": -77.01506116666667, "type": "electric_scooter", "fusion_lat": 0.0, "lat": 38.90721116666667, "name": "c9aa9fc7831cff735bc1636bf701886d", "fusion_lon": 0.0, "bike_id": "c9aa9fc7831cff735bc1636bf701886d", "is_disabled": 0, "is_reserved": 0}, {"rental_uris": {"ios": "https://dc.lft.to/lastmile_qr_scan", "android": "https://dc.lft.to/lastmile_qr_scan"}, "lon": -77.00500233333334, "type": "electric_scooter", "fusion_lat": 0.0, "lat": 38.89685683333333, "name": "e903fe2965effad0c61d64e7998c0c13", "fusion_lon": 0.0, "bike_id": "e903fe2965effad0c61d64e7998c0c13", "is_disabled": 0, "is_reserved": 0}, {"rental_uris": {"ios": "https://dc.lft.to/lastmile_qr_scan", "android": "https://dc.lft.to/lastmile_qr_scan"}, "lon": -77.02980983333333, "type": "electric_scooter", "fusion_lat": 0.0, "lat": 38.9172445, "name": "875f170da325040a39accaaa45445a5a", "fusion_lon": 0.0, "bike_id": "875f170da325040a39accaaa45445a5a", "is_disabled": 0, "is_reserved": 0}, {"rental_uris": {"ios": "https://dc.lft.to/lastmile_qr_scan", "android": "https://dc.lft.to/lastmile_qr_scan"}, "lon": -77.0319875, "type": "electric_scooter", "fusion_lat": 0.0, "lat": 38.91154683333333, "name": "dd0afb45f5043e09da3e3176de673460", "fusion_lon": 0.0, "bike_id": "dd0afb45f5043e09da3e3176de673460", "is_disabled": 0, "is_reserved": 0}, {"rental_uris": {"ios": "https://dc.lft.to/lastmile_qr_scan", "android": "https://dc.lft.to/lastmile_qr_scan"}, "lon": -76.98836066666667, "type": "electric_scooter", "fusion_lat": 0.0, "lat": 38.892895333333335, "name": "0c77c404d37efc2943034eb101779f6c", "fusion_lon": 0.0, "bike_id": "0c77c404d37efc2943034eb101779f6c", "is_disabled": 0, "is_reserved": 0}, {"rental_uris": {"ios": "https://dc.lft.to/lastmile_qr_scan", "android": "https://dc.lft.to/lastmile_qr_scan"}, "lon": -77.06923383333333, "type": "electric_bike", "fusion_lat": 0.0, "lat": 38.909852666666666, "name": "819a265ce6c69a59b2890202a983e545", "fusion_lon": 0.0, "bike_id": "819a265ce6c69a59b2890202a983e545", "is_disabled": 0, "is_reserved": 0}, {"rental_uris": {"ios": "https://dc.lft.to/lastmile_qr_scan", "android": "https://dc.lft.to/lastmile_qr_scan"}, "lon": -77.033606, "type": "electric_scooter", "fusion_lat": 0.0, "lat": 38.8850735, "name": "0ff31ef4de7ea380fc7f292e5709bb69", "fusion_lon": 0.0, "bike_id": "0ff31ef4de7ea380fc7f292e5709bb69", "is_disabled": 0, "is_reserved": 0}, {"rental_uris": {"ios": "https://dc.lft.to/lastmile_qr_scan", "android": "https://dc.lft.to/lastmile_qr_scan"}, "lon": -77.06778883333334, "type": "electric_scooter", "fusion_lat": 0.0, "lat": 38.906916, "name": "cdf865aa4f434c87d2e2a3cc513213d2", "fusion_lon": 0.0, "bike_id": "cdf865aa4f434c87d2e2a3cc513213d2", "is_disabled": 0, "is_reserved": 0}, {"rental_uris": {"ios": "https://dc.lft.to/lastmile_qr_scan", "android": "https://dc.lft.to/lastmile_qr_scan"}, "lon": -77.05006216666666, "type": "electric_scooter", "fusion_lat": 0.0, "lat": 38.89237166666667, "name": "c700271a392faff5077afebe623962ed", "fusion_lon": 0.0, "bike_id": "c700271a392faff5077afebe623962ed", "is_disabled": 0, "is_reserved": 0}, {"rental_uris": {"ios": "https://dc.lft.to/lastmile_qr_scan", "android": "https://dc.lft.to/lastmile_qr_scan"}, "lon": -77.04183933333333, "type": "electric_scooter", "fusion_lat": 0.0, "lat": 38.90540466666667, "name": "8f7a7d3f0f39bc70ed0b27d47871b408", "fusion_lon": 0.0, "bike_id": "8f7a7d3f0f39bc70ed0b27d47871b408", "is_disabled": 0, "is_reserved": 0}, {"rental_uris": {"ios": "https://dc.lft.to/lastmile_qr_scan", "android": "https://dc.lft.to/lastmile_qr_scan"}, "lon": -77.02391666666666, "type": "electric_scooter", "fusion_lat": 0.0, "lat": 38.906039, "name": "3d44c5f33821432f8d19eee88dca58bd", "fusion_lon": 0.0, "bike_id": "3d44c5f33821432f8d19eee88dca58bd", "is_disabled": 0, "is_reserved": 0}, {"rental_uris": {"ios": "https://dc.lft.to/lastmile_qr_scan", "android": "https://dc.lft.to/lastmile_qr_scan"}, "lon": -77.10689933333333, "type": "electric_bike", "fusion_lat": 0.0, "lat": 38.855533333333334, "name": "4e2fe27bd4dfe7bd427311ed149c6b32", "fusion_lon": 0.0, "bike_id": "4e2fe27bd4dfe7bd427311ed149c6b32", "is_disabled": 0, "is_reserved": 0}, {"rental_uris": {"ios": "https://dc.lft.to/lastmile_qr_scan", "android": "https://dc.lft.to/lastmile_qr_scan"}, "lon": -77.0363825, "type": "electric_scooter", "fusion_lat": 0.0, "lat": 38.908001166666665, "name": "491450349852314ce8c3580ecf812679", "fusion_lon": 0.0, "bike_id": "491450349852314ce8c3580ecf812679", "is_disabled": 0, "is_reserved": 0}, {"rental_uris": {"ios": "https://dc.lft.to/lastmile_qr_scan", "android": "https://dc.lft.to/lastmile_qr_scan"}, "lon": -77.0328665, "type": "electric_scooter", "fusion_lat": 0.0, "lat": 38.93888116666667, "name": "acfdef3282df25791a542d92cd679336", "fusion_lon": 0.0, "bike_id": "acfdef3282df25791a542d92cd679336", "is_disabled": 0, "is_reserved": 0}, {"rental_uris": {"ios": "https://dc.lft.to/lastmile_qr_scan", "android": "https://dc.lft.to/lastmile_qr_scan"}, "lon": -77.04865416666667, "type": "electric_scooter", "fusion_lat": 0.0, "lat": 38.892235666666664, "name": "c0397a4333fa982f3a9f2a7bc2ee2b1e", "fusion_lon": 0.0, "bike_id": "c0397a4333fa982f3a9f2a7bc2ee2b1e", "is_disabled": 0, "is_reserved": 0}, {"rental_uris": {"ios": "https://dc.lft.to/lastmile_qr_scan", "android": "https://dc.lft.to/lastmile_qr_scan"}, "lon": -76.99465183333334, "type": "electric_scooter", "fusion_lat": 0.0, "lat": 38.85165933333333, "name": "00cfa7e1e217cf7758a2ba2f203b8a08", "fusion_lon": 0.0, "bike_id": "00cfa7e1e217cf7758a2ba2f203b8a08", "is_disabled": 0, "is_reserved": 0}, {"rental_uris": {"ios": "https://dc.lft.to/lastmile_qr_scan", "android": "https://dc.lft.to/lastmile_qr_scan"}, "lon": -76.9287905, "type": "electric_scooter", "fusion_lat": 0.0, "lat": 38.88444583333333, "name": "68f331c546b40b271fe1a5015123b8c9", "fusion_lon": 0.0, "bike_id": "68f331c546b40b271fe1a5015123b8c9", "is_disabled": 0, "is_reserved": 0}, {"rental_uris": {"ios": "https://dc.lft.to/lastmile_qr_scan", "android": "https://dc.lft.to/lastmile_qr_scan"}, "lon": -77.00336666666666, "type": "electric_bike", "fusion_lat": 0.0, "lat": 38.876562166666666, "name": "a341d30aac269d17069ba6473a74ac35", "fusion_lon": 0.0, "bike_id": "a341d30aac269d17069ba6473a74ac35", "is_disabled": 0, "is_reserved": 0}, {"rental_uris": {"ios": "https://dc.lft.to/lastmile_qr_scan", "android": "https://dc.lft.to/lastmile_qr_scan"}, "lon": -77.03576416666667, "type": "electric_scooter", "fusion_lat": 0.0, "lat": 38.93980216666667, "name": "52927c6e529a9ec4ed134d9da576483b", "fusion_lon": 0.0, "bike_id": "52927c6e529a9ec4ed134d9da576483b", "is_disabled": 0, "is_reserved": 0}, {"rental_uris": {"ios": "https://dc.lft.to/lastmile_qr_scan", "android": "https://dc.lft.to/lastmile_qr_scan"}, "lon": -76.94822883333333, "type": "electric_scooter", "fusion_lat": 0.0, "lat": 38.88411133333334, "name": "bd9003a8687db366fdb91f44b7ff3695", "fusion_lon": 0.0, "bike_id": "bd9003a8687db366fdb91f44b7ff3695", "is_disabled": 0, "is_reserved": 0}, {"rental_uris": {"ios": "https://dc.lft.to/lastmile_qr_scan", "android": "https://dc.lft.to/lastmile_qr_scan"}, "lon": -76.9284655, "type": "electric_scooter", "fusion_lat": 0.0, "lat": 38.8836075, "name": "bec7d711f436bbeffb94f98be6485596", "fusion_lon": 0.0, "bike_id": "bec7d711f436bbeffb94f98be6485596", "is_disabled": 0, "is_reserved": 0}, {"rental_uris": {"ios": "https://dc.lft.to/lastmile_qr_scan", "android": "https://dc.lft.to/lastmile_qr_scan"}, "lon": -77.04822733333333, "type": "electric_scooter", "fusion_lat": 0.0, "lat": 38.909641, "name": "e7a807b80dd257961368ef57369a2181", "fusion_lon": 0.0, "bike_id": "e7a807b80dd257961368ef57369a2181", "is_disabled": 0, "is_reserved": 0}, {"rental_uris": {"ios": "https://dc.lft.to/lastmile_qr_scan", "android": "https://dc.lft.to/lastmile_qr_scan"}, "lon": -76.98747366666667, "type": "electric_scooter", "fusion_lat": 0.0, "lat": 38.91020666666667, "name": "4c7df868173efa89b50b45e7bd58e08f", "fusion_lon": 0.0, "bike_id": "4c7df868173efa89b50b45e7bd58e08f", "is_disabled": 0, "is_reserved": 0}, {"rental_uris": {"ios": "https://dc.lft.to/lastmile_qr_scan", "android": "https://dc.lft.to/lastmile_qr_scan"}, "lon": -77.08480283333333, "type": "electric_bike", "fusion_lat": 0.0, "lat": 38.890615, "name": "3841074d21c8291e8613e6405e705019", "fusion_lon": 0.0, "bike_id": "3841074d21c8291e8613e6405e705019", "is_disabled": 0, "is_reserved": 0}, {"rental_uris": {"ios": "https://dc.lft.to/lastmile_qr_scan", "android": "https://dc.lft.to/lastmile_qr_scan"}, "lon": -77.0385075, "type": "electric_scooter", "fusion_lat": 0.0, "lat": 38.931325, "name": "a5e7395c245131b01ef2a5f720a3079b", "fusion_lon": 0.0, "bike_id": "a5e7395c245131b01ef2a5f720a3079b", "is_disabled": 0, "is_reserved": 0}, {"rental_uris": {"ios": "https://dc.lft.to/lastmile_qr_scan", "android": "https://dc.lft.to/lastmile_qr_scan"}, "lon": -77.03850366666667, "type": "electric_scooter", "fusion_lat": 0.0, "lat": 38.90754666666667, "name": "7ad42d3441d12157fcfd9ee92a4d1667", "fusion_lon": 0.0, "bike_id": "7ad42d3441d12157fcfd9ee92a4d1667", "is_disabled": 0, "is_reserved": 0}, {"rental_uris": {"ios": "https://dc.lft.to/lastmile_qr_scan", "android": "https://dc.lft.to/lastmile_qr_scan"}, "lon": -77.02969416666667, "type": "electric_scooter", "fusion_lat": 0.0, "lat": 38.91722133333333, "name": "5dd7073850147a37f539d1a979a09de3", "fusion_lon": 0.0, "bike_id": "5dd7073850147a37f539d1a979a09de3", "is_disabled": 0, "is_reserved": 0}, {"rental_uris": {"ios": "https://dc.lft.to/lastmile_qr_scan", "android": "https://dc.lft.to/lastmile_qr_scan"}, "lon": -76.974147, "type": "electric_scooter", "fusion_lat": 0.0, "lat": 38.90235033333333, "name": "023a4ea8e7a00d084f4114681a1d9d53", "fusion_lon": 0.0, "bike_id": "023a4ea8e7a00d084f4114681a1d9d53", "is_disabled": 0, "is_reserved": 0}, {"rental_uris": {"ios": "https://dc.lft.to/lastmile_qr_scan", "android": "https://dc.lft.to/lastmile_qr_scan"}, "lon": -76.95680166666666, "type": "electric_bike", "fusion_lat": 0.0, "lat": 38.947338333333335, "name": "7751bdf14ea3739f0213fd2623738f2b", "fusion_lon": 0.0, "bike_id": "7751bdf14ea3739f0213fd2623738f2b", "is_disabled": 0, "is_reserved": 0}, {"rental_uris": {"ios": "https://dc.lft.to/lastmile_qr_scan", "android": "https://dc.lft.to/lastmile_qr_scan"}, "lon": -77.03433816666667, "type": "electric_scooter", "fusion_lat": 0.0, "lat": 38.924352, "name": "ee181b4a078f95f212660cbc6af96387", "fusion_lon": 0.0, "bike_id": "ee181b4a078f95f212660cbc6af96387", "is_disabled": 0, "is_reserved": 0}, {"rental_uris": {"ios": "https://dc.lft.to/lastmile_qr_scan", "android": "https://dc.lft.to/lastmile_qr_scan"}, "lon": -77.08053833333334, "type": "electric_bike", "fusion_lat": 0.0, "lat": 38.8484875, "name": "4fd39389d87f39978dab887c2234a5b3", "fusion_lon": 0.0, "bike_id": "4fd39389d87f39978dab887c2234a5b3", "is_disabled": 0, "is_reserved": 0}, {"rental_uris": {"ios": "https://dc.lft.to/lastmile_qr_scan", "android": "https://dc.lft.to/lastmile_qr_scan"}, "lon": -77.04690783333334, "type": "electric_scooter", "fusion_lat": 0.0, "lat": 38.90217416666667, "name": "9429e34494c79dc6c7b0625f61f8bbef", "fusion_lon": 0.0, "bike_id": "9429e34494c79dc6c7b0625f61f8bbef", "is_disabled": 0, "is_reserved": 0}, {"rental_uris": {"ios": "https://dc.lft.to/lastmile_qr_scan", "android": "https://dc.lft.to/lastmile_qr_scan"}, "lon": -76.9315925, "type": "electric_scooter", "fusion_lat": 0.0, "lat": 38.898803666666666, "name": "de87032900a3e28fc38eb6bdbfc542bc", "fusion_lon": 0.0, "bike_id": "de87032900a3e28fc38eb6bdbfc542bc", "is_disabled": 0, "is_reserved": 0}, {"rental_uris": {"ios": "https://dc.lft.to/lastmile_qr_scan", "android": "https://dc.lft.to/lastmile_qr_scan"}, "lon": -77.04360333333334, "type": "electric_scooter", "fusion_lat": 0.0, "lat": 38.892181666666666, "name": "9a9d01af852e7f080f635f7e43d520e7", "fusion_lon": 0.0, "bike_id": "9a9d01af852e7f080f635f7e43d520e7", "is_disabled": 0, "is_reserved": 0}, {"rental_uris": {"ios": "https://dc.lft.to/lastmile_qr_scan", "android": "https://dc.lft.to/lastmile_qr_scan"}, "lon": -76.98604333333333, "type": "electric_scooter", "fusion_lat": 0.0, "lat": 38.8784705, "name": "afd05e05ffe69d33bd4a0ab2b56be89c", "fusion_lon": 0.0, "bike_id": "afd05e05ffe69d33bd4a0ab2b56be89c", "is_disabled": 0, "is_reserved": 0}, {"rental_uris": {"ios": "https://dc.lft.to/lastmile_qr_scan", "android": "https://dc.lft.to/lastmile_qr_scan"}, "lon": -77.01119133333333, "type": "electric_scooter", "fusion_lat": 0.0, "lat": 38.87085833333333, "name": "4bc30c05287e2bf04ec0ae7c6b09b487", "fusion_lon": 0.0, "bike_id": "4bc30c05287e2bf04ec0ae7c6b09b487", "is_disabled": 0, "is_reserved": 0}, {"rental_uris": {"ios": "https://dc.lft.to/lastmile_qr_scan", "android": "https://dc.lft.to/lastmile_qr_scan"}, "lon": -77.04645183333334, "type": "electric_scooter", "fusion_lat": 0.0, "lat": 38.91582583333334, "name": "562b2b03392aaeeb94e2660427d5fbb8", "fusion_lon": 0.0, "bike_id": "562b2b03392aaeeb94e2660427d5fbb8", "is_disabled": 0, "is_reserved": 0}, {"rental_uris": {"ios": "https://dc.lft.to/lastmile_qr_scan", "android": "https://dc.lft.to/lastmile_qr_scan"}, "lon": -77.0161605, "type": "electric_scooter", "fusion_lat": 0.0, "lat": 38.9113635, "name": "6ab301bcab2a1256df5e6ad8827e4da3", "fusion_lon": 0.0, "bike_id": "6ab301bcab2a1256df5e6ad8827e4da3", "is_disabled": 0, "is_reserved": 0}, {"rental_uris": {"ios": "https://dc.lft.to/lastmile_qr_scan", "android": "https://dc.lft.to/lastmile_qr_scan"}, "lon": -76.9979935, "type": "electric_scooter", "fusion_lat": 0.0, "lat": 38.90857783333333, "name": "cff79d798038dcf086404623f7952098", "fusion_lon": 0.0, "bike_id": "cff79d798038dcf086404623f7952098", "is_disabled": 0, "is_reserved": 0}, {"rental_uris": {"ios": "https://dc.lft.to/lastmile_qr_scan", "android": "https://dc.lft.to/lastmile_qr_scan"}, "lon": -76.93739366666667, "type": "electric_scooter", "fusion_lat": 0.0, "lat": 38.89019116666667, "name": "10c015d8353e024211cd3ddb486f8a22", "fusion_lon": 0.0, "bike_id": "10c015d8353e024211cd3ddb486f8a22", "is_disabled": 0, "is_reserved": 0}, {"rental_uris": {"ios": "https://dc.lft.to/lastmile_qr_scan", "android": "https://dc.lft.to/lastmile_qr_scan"}, "lon": -77.0379205, "type": "electric_scooter", "fusion_lat": 0.0, "lat": 38.930298, "name": "13a422e3f72ee0a8a9f53bb3d2ea9e5c", "fusion_lon": 0.0, "bike_id": "13a422e3f72ee0a8a9f53bb3d2ea9e5c", "is_disabled": 0, "is_reserved": 0}, {"rental_uris": {"ios": "https://dc.lft.to/lastmile_qr_scan", "android": "https://dc.lft.to/lastmile_qr_scan"}, "lon": -76.93182933333334, "type": "electric_scooter", "fusion_lat": 0.0, "lat": 38.89893166666667, "name": "e2deffade24dcec83062ea66dec5aeec", "fusion_lon": 0.0, "bike_id": "e2deffade24dcec83062ea66dec5aeec", "is_disabled": 0, "is_reserved": 0}, {"rental_uris": {"ios": "https://dc.lft.to/lastmile_qr_scan", "android": "https://dc.lft.to/lastmile_qr_scan"}, "lon": -77.03947133333334, "type": "electric_scooter", "fusion_lat": 0.0, "lat": 38.898605333333336, "name": "7f17bd05b44de1a7e8e35245b673cfdc", "fusion_lon": 0.0, "bike_id": "7f17bd05b44de1a7e8e35245b673cfdc", "is_disabled": 0, "is_reserved": 0}, {"rental_uris": {"ios": "https://dc.lft.to/lastmile_qr_scan", "android": "https://dc.lft.to/lastmile_qr_scan"}, "lon": -77.0421865, "type": "electric_scooter", "fusion_lat": 0.0, "lat": 38.914770833333336, "name": "4de3179cd7452e1e472172dd26d9d9ca", "fusion_lon": 0.0, "bike_id": "4de3179cd7452e1e472172dd26d9d9ca", "is_disabled": 0, "is_reserved": 0}, {"rental_uris": {"ios": "https://dc.lft.to/lastmile_qr_scan", "android": "https://dc.lft.to/lastmile_qr_scan"}, "lon": -77.04499916666667, "type": "electric_scooter", "fusion_lat": 0.0, "lat": 38.90554916666667, "name": "f844511ba31400d6ec290e5eda3f5c35", "fusion_lon": 0.0, "bike_id": "f844511ba31400d6ec290e5eda3f5c35", "is_disabled": 0, "is_reserved": 0}, {"rental_uris": {"ios": "https://dc.lft.to/lastmile_qr_scan", "android": "https://dc.lft.to/lastmile_qr_scan"}, "lon": -77.03846783333333, "type": "electric_scooter", "fusion_lat": 0.0, "lat": 38.91335433333333, "name": "57e5f8d1aec6bab6750b309da564a852", "fusion_lon": 0.0, "bike_id": "57e5f8d1aec6bab6750b309da564a852", "is_disabled": 0, "is_reserved": 0}, {"rental_uris": {"ios": "https://dc.lft.to/lastmile_qr_scan", "android": "https://dc.lft.to/lastmile_qr_scan"}, "lon": -77.01964666666667, "type": "electric_scooter", "fusion_lat": 0.0, "lat": 38.878442, "name": "8636ee2c4a21ccce41d2cdd169530899", "fusion_lon": 0.0, "bike_id": "8636ee2c4a21ccce41d2cdd169530899", "is_disabled": 0, "is_reserved": 0}, {"rental_uris": {"ios": "https://dc.lft.to/lastmile_qr_scan", "android": "https://dc.lft.to/lastmile_qr_scan"}, "lon": -77.04437283333333, "type": "electric_scooter", "fusion_lat": 0.0, "lat": 38.9057655, "name": "722349cedefe7902af66af005a1f5d16", "fusion_lon": 0.0, "bike_id": "722349cedefe7902af66af005a1f5d16", "is_disabled": 0, "is_reserved": 0}, {"rental_uris": {"ios": "https://dc.lft.to/lastmile_qr_scan", "android": "https://dc.lft.to/lastmile_qr_scan"}, "lon": -77.00604466666667, "type": "electric_scooter", "fusion_lat": 0.0, "lat": 38.9057495, "name": "194db1e59665cd0d8828a88d76d02240", "fusion_lon": 0.0, "bike_id": "194db1e59665cd0d8828a88d76d02240", "is_disabled": 0, "is_reserved": 0}, {"rental_uris": {"ios": "https://dc.lft.to/lastmile_qr_scan", "android": "https://dc.lft.to/lastmile_qr_scan"}, "lon": -76.952055, "type": "electric_bike", "fusion_lat": 0.0, "lat": 38.936765, "name": "6e14cbbdff78a240b4062ec9c4c16d83", "fusion_lon": 0.0, "bike_id": "6e14cbbdff78a240b4062ec9c4c16d83", "is_disabled": 0, "is_reserved": 0}, {"rental_uris": {"ios": "https://dc.lft.to/lastmile_qr_scan", "android": "https://dc.lft.to/lastmile_qr_scan"}, "lon": -77.032013, "type": "electric_scooter", "fusion_lat": 0.0, "lat": 38.91355266666667, "name": "7b33f22549a7ae576c14b49fb26c4d5a", "fusion_lon": 0.0, "bike_id": "7b33f22549a7ae576c14b49fb26c4d5a", "is_disabled": 0, "is_reserved": 0}, {"rental_uris": {"ios": "https://dc.lft.to/lastmile_qr_scan", "android": "https://dc.lft.to/lastmile_qr_scan"}, "lon": -77.02455416666666, "type": "electric_scooter", "fusion_lat": 0.0, "lat": 38.89733616666667, "name": "28e309b65b3407324ba6522bc770a2f2", "fusion_lon": 0.0, "bike_id": "28e309b65b3407324ba6522bc770a2f2", "is_disabled": 0, "is_reserved": 0}, {"rental_uris": {"ios": "https://dc.lft.to/lastmile_qr_scan", "android": "https://dc.lft.to/lastmile_qr_scan"}, "lon": -77.07616916666667, "type": "electric_scooter", "fusion_lat": 0.0, "lat": 38.912572833333336, "name": "834534250990b7793014e0fe8cc536df", "fusion_lon": 0.0, "bike_id": "834534250990b7793014e0fe8cc536df", "is_disabled": 0, "is_reserved": 0}, {"rental_uris": {"ios": "https://dc.lft.to/lastmile_qr_scan", "android": "https://dc.lft.to/lastmile_qr_scan"}, "lon": -77.001326, "type": "electric_scooter", "fusion_lat": 0.0, "lat": 38.904106, "name": "91044f9fe4e40af8756ae7ed5299dc66", "fusion_lon": 0.0, "bike_id": "91044f9fe4e40af8756ae7ed5299dc66", "is_disabled": 0, "is_reserved": 0}, {"rental_uris": {"ios": "https://dc.lft.to/lastmile_qr_scan", "android": "https://dc.lft.to/lastmile_qr_scan"}, "lon": -77.05122166666666, "type": "electric_scooter", "fusion_lat": 0.0, "lat": 38.923595166666665, "name": "ed38d9bd23b69afb943e884f2431f062", "fusion_lon": 0.0, "bike_id": "ed38d9bd23b69afb943e884f2431f062", "is_disabled": 0, "is_reserved": 0}, {"rental_uris": {"ios": "https://dc.lft.to/lastmile_qr_scan", "android": "https://dc.lft.to/lastmile_qr_scan"}, "lon": -77.03449716666667, "type": "electric_scooter", "fusion_lat": 0.0, "lat": 38.91843083333333, "name": "67989529a484e235084ad414d55cffbb", "fusion_lon": 0.0, "bike_id": "67989529a484e235084ad414d55cffbb", "is_disabled": 0, "is_reserved": 0}, {"rental_uris": {"ios": "https://dc.lft.to/lastmile_qr_scan", "android": "https://dc.lft.to/lastmile_qr_scan"}, "lon": -77.049357, "type": "electric_scooter", "fusion_lat": 0.0, "lat": 38.905467333333334, "name": "96b83c358286b08fc3db6180f5de04be", "fusion_lon": 0.0, "bike_id": "96b83c358286b08fc3db6180f5de04be", "is_disabled": 0, "is_reserved": 0}, {"rental_uris": {"ios": "https://dc.lft.to/lastmile_qr_scan", "android": "https://dc.lft.to/lastmile_qr_scan"}, "lon": -76.99158983333334, "type": "electric_scooter", "fusion_lat": 0.0, "lat": 38.89343916666667, "name": "2ba8fb33f053fddc7b7f7fb711b4f1a9", "fusion_lon": 0.0, "bike_id": "2ba8fb33f053fddc7b7f7fb711b4f1a9", "is_disabled": 0, "is_reserved": 0}, {"rental_uris": {"ios": "https://dc.lft.to/lastmile_qr_scan", "android": "https://dc.lft.to/lastmile_qr_scan"}, "lon": -77.00921083333333, "type": "electric_scooter", "fusion_lat": 0.0, "lat": 38.896133166666665, "name": "510814b5bb5e5b24180d419760cc5e5a", "fusion_lon": 0.0, "bike_id": "510814b5bb5e5b24180d419760cc5e5a", "is_disabled": 0, "is_reserved": 0}, {"rental_uris": {"ios": "https://dc.lft.to/lastmile_qr_scan", "android": "https://dc.lft.to/lastmile_qr_scan"}, "lon": -76.998622, "type": "electric_scooter", "fusion_lat": 0.0, "lat": 38.900180166666665, "name": "86f547395052794a9a9c31216731ec33", "fusion_lon": 0.0, "bike_id": "86f547395052794a9a9c31216731ec33", "is_disabled": 0, "is_reserved": 0}, {"rental_uris": {"ios": "https://dc.lft.to/lastmile_qr_scan", "android": "https://dc.lft.to/lastmile_qr_scan"}, "lon": -77.07161133333334, "type": "electric_scooter", "fusion_lat": 0.0, "lat": 38.907436833333335, "name": "217f8ef8df2705b9559a5eaaac53bfc3", "fusion_lon": 0.0, "bike_id": "217f8ef8df2705b9559a5eaaac53bfc3", "is_disabled": 0, "is_reserved": 0}, {"rental_uris": {"ios": "https://dc.lft.to/lastmile_qr_scan", "android": "https://dc.lft.to/lastmile_qr_scan"}, "lon": -77.0313295, "type": "electric_scooter", "fusion_lat": 0.0, "lat": 38.897098666666665, "name": "31756a904a2fd821545020e19f39471a", "fusion_lon": 0.0, "bike_id": "31756a904a2fd821545020e19f39471a", "is_disabled": 0, "is_reserved": 0}, {"rental_uris": {"ios": "https://dc.lft.to/lastmile_qr_scan", "android": "https://dc.lft.to/lastmile_qr_scan"}, "lon": -77.02205933333333, "type": "electric_scooter", "fusion_lat": 0.0, "lat": 38.88724666666667, "name": "a5933a033297f64bc0b58ae2bf715f96", "fusion_lon": 0.0, "bike_id": "a5933a033297f64bc0b58ae2bf715f96", "is_disabled": 0, "is_reserved": 0}, {"rental_uris": {"ios": "https://dc.lft.to/lastmile_qr_scan", "android": "https://dc.lft.to/lastmile_qr_scan"}, "lon": -77.039229, "type": "electric_scooter", "fusion_lat": 0.0, "lat": 38.918482166666664, "name": "a75c6e8d0adad2723171aabc8a8ce656", "fusion_lon": 0.0, "bike_id": "a75c6e8d0adad2723171aabc8a8ce656", "is_disabled": 0, "is_reserved": 0}, {"rental_uris": {"ios": "https://dc.lft.to/lastmile_qr_scan", "android": "https://dc.lft.to/lastmile_qr_scan"}, "lon": -77.02829216666666, "type": "electric_scooter", "fusion_lat": 0.0, "lat": 38.8922745, "name": "cdf93d6520ce41214f35961bf9844fb8", "fusion_lon": 0.0, "bike_id": "cdf93d6520ce41214f35961bf9844fb8", "is_disabled": 0, "is_reserved": 0}, {"rental_uris": {"ios": "https://dc.lft.to/lastmile_qr_scan", "android": "https://dc.lft.to/lastmile_qr_scan"}, "lon": -77.05001416666667, "type": "electric_scooter", "fusion_lat": 0.0, "lat": 38.8923215, "name": "79e1caf069461d60a89d0e7a3b78de8d", "fusion_lon": 0.0, "bike_id": "79e1caf069461d60a89d0e7a3b78de8d", "is_disabled": 0, "is_reserved": 0}, {"rental_uris": {"ios": "https://dc.lft.to/lastmile_qr_scan", "android": "https://dc.lft.to/lastmile_qr_scan"}, "lon": -77.0221305, "type": "electric_scooter", "fusion_lat": 0.0, "lat": 38.905460833333336, "name": "e8c7db662db7fc89732baf16a653e75a", "fusion_lon": 0.0, "bike_id": "e8c7db662db7fc89732baf16a653e75a", "is_disabled": 0, "is_reserved": 0}, {"rental_uris": {"ios": "https://dc.lft.to/lastmile_qr_scan", "android": "https://dc.lft.to/lastmile_qr_scan"}, "lon": -77.01314216666667, "type": "electric_scooter", "fusion_lat": 0.0, "lat": 38.89744366666667, "name": "3dff6997f858ffbb129382092205740b", "fusion_lon": 0.0, "bike_id": "3dff6997f858ffbb129382092205740b", "is_disabled": 0, "is_reserved": 0}, {"rental_uris": {"ios": "https://dc.lft.to/lastmile_qr_scan", "android": "https://dc.lft.to/lastmile_qr_scan"}, "lon": -77.023301, "type": "electric_scooter", "fusion_lat": 0.0, "lat": 38.893963, "name": "b5f69a4b4442cb9716b221536b6909d7", "fusion_lon": 0.0, "bike_id": "b5f69a4b4442cb9716b221536b6909d7", "is_disabled": 0, "is_reserved": 0}, {"rental_uris": {"ios": "https://dc.lft.to/lastmile_qr_scan", "android": "https://dc.lft.to/lastmile_qr_scan"}, "lon": -77.0442115, "type": "electric_scooter", "fusion_lat": 0.0, "lat": 38.913224666666665, "name": "44c639cc0899074b996f030b34977647", "fusion_lon": 0.0, "bike_id": "44c639cc0899074b996f030b34977647", "is_disabled": 0, "is_reserved": 0}, {"rental_uris": {"ios": "https://dc.lft.to/lastmile_qr_scan", "android": "https://dc.lft.to/lastmile_qr_scan"}, "lon": -77.09141266666667, "type": "electric_bike", "fusion_lat": 0.0, "lat": 38.80422083333333, "name": "74e6d5dba257b0002998108d89564019", "fusion_lon": 0.0, "bike_id": "74e6d5dba257b0002998108d89564019", "is_disabled": 0, "is_reserved": 0}, {"rental_uris": {"ios": "https://dc.lft.to/lastmile_qr_scan", "android": "https://dc.lft.to/lastmile_qr_scan"}, "lon": -76.95245183333333, "type": "electric_bike", "fusion_lat": 0.0, "lat": 38.9071065, "name": "84894af65cc86a3c1c074b2f166f8f47", "fusion_lon": 0.0, "bike_id": "84894af65cc86a3c1c074b2f166f8f47", "is_disabled": 0, "is_reserved": 0}, {"rental_uris": {"ios": "https://dc.lft.to/lastmile_qr_scan", "android": "https://dc.lft.to/lastmile_qr_scan"}, "lon": -77.030065, "type": "electric_scooter", "fusion_lat": 0.0, "lat": 38.892230833333336, "name": "d55e80007dab9863d62c1a660a2dc4f3", "fusion_lon": 0.0, "bike_id": "d55e80007dab9863d62c1a660a2dc4f3", "is_disabled": 0, "is_reserved": 0}, {"rental_uris": {"ios": "https://dc.lft.to/lastmile_qr_scan", "android": "https://dc.lft.to/lastmile_qr_scan"}, "lon": -77.01357616666667, "type": "electric_scooter", "fusion_lat": 0.0, "lat": 38.91987533333333, "name": "d2e75ec5d6639e936aecbfcf1eff7ae5", "fusion_lon": 0.0, "bike_id": "d2e75ec5d6639e936aecbfcf1eff7ae5", "is_disabled": 0, "is_reserved": 0}, {"rental_uris": {"ios": "https://dc.lft.to/lastmile_qr_scan", "android": "https://dc.lft.to/lastmile_qr_scan"}, "lon": -76.9803465, "type": "electric_bike", "fusion_lat": 0.0, "lat": 38.900053666666665, "name": "d1f6aba1567858220f8fc7b11d1afcca", "fusion_lon": 0.0, "bike_id": "d1f6aba1567858220f8fc7b11d1afcca", "is_disabled": 0, "is_reserved": 0}, {"rental_uris": {"ios": "https://dc.lft.to/lastmile_qr_scan", "android": "https://dc.lft.to/lastmile_qr_scan"}, "lon": -77.05385766666667, "type": "electric_scooter", "fusion_lat": 0.0, "lat": 38.935311166666665, "name": "a4feb5a45ffad722ea4f95334f9cd906", "fusion_lon": 0.0, "bike_id": "a4feb5a45ffad722ea4f95334f9cd906", "is_disabled": 0, "is_reserved": 0}, {"rental_uris": {"ios": "https://dc.lft.to/lastmile_qr_scan", "android": "https://dc.lft.to/lastmile_qr_scan"}, "lon": -77.0033615, "type": "electric_scooter", "fusion_lat": 0.0, "lat": 38.893551, "name": "a071cc5d6b519810ad07bbc8716a97be", "fusion_lon": 0.0, "bike_id": "a071cc5d6b519810ad07bbc8716a97be", "is_disabled": 0, "is_reserved": 0}, {"rental_uris": {"ios": "https://dc.lft.to/lastmile_qr_scan", "android": "https://dc.lft.to/lastmile_qr_scan"}, "lon": -76.9854865, "type": "electric_scooter", "fusion_lat": 0.0, "lat": 38.8995935, "name": "aada19aa2898d09bd55df2b5bc7ec9a0", "fusion_lon": 0.0, "bike_id": "aada19aa2898d09bd55df2b5bc7ec9a0", "is_disabled": 0, "is_reserved": 0}, {"rental_uris": {"ios": "https://dc.lft.to/lastmile_qr_scan", "android": "https://dc.lft.to/lastmile_qr_scan"}, "lon": -77.03255, "type": "electric_scooter", "fusion_lat": 0.0, "lat": 38.902315333333334, "name": "d7915f50d43b0f7c61844530a415e7b4", "fusion_lon": 0.0, "bike_id": "d7915f50d43b0f7c61844530a415e7b4", "is_disabled": 0, "is_reserved": 0}, {"rental_uris": {"ios": "https://dc.lft.to/lastmile_qr_scan", "android": "https://dc.lft.to/lastmile_qr_scan"}, "lon": -77.04424466666667, "type": "electric_scooter", "fusion_lat": 0.0, "lat": 38.91006083333333, "name": "6c28072245522fc7ad351adb314e6bb3", "fusion_lon": 0.0, "bike_id": "6c28072245522fc7ad351adb314e6bb3", "is_disabled": 0, "is_reserved": 0}, {"rental_uris": {"ios": "https://dc.lft.to/lastmile_qr_scan", "android": "https://dc.lft.to/lastmile_qr_scan"}, "lon": -77.02709466666667, "type": "electric_scooter", "fusion_lat": 0.0, "lat": 38.900732, "name": "f0cc4a726b8c344e065d42934636d58f", "fusion_lon": 0.0, "bike_id": "f0cc4a726b8c344e065d42934636d58f", "is_disabled": 0, "is_reserved": 0}, {"rental_uris": {"ios": "https://dc.lft.to/lastmile_qr_scan", "android": "https://dc.lft.to/lastmile_qr_scan"}, "lon": -76.988847, "type": "electric_scooter", "fusion_lat": 0.0, "lat": 38.86658466666667, "name": "12189583d17cae8d2114a10dcb007188", "fusion_lon": 0.0, "bike_id": "12189583d17cae8d2114a10dcb007188", "is_disabled": 0, "is_reserved": 0}, {"rental_uris": {"ios": "https://dc.lft.to/lastmile_qr_scan", "android": "https://dc.lft.to/lastmile_qr_scan"}, "lon": -77.02941, "type": "electric_scooter", "fusion_lat": 0.0, "lat": 38.911096666666666, "name": "070942de5d5865a8a2115c35ccd29ed1", "fusion_lon": 0.0, "bike_id": "070942de5d5865a8a2115c35ccd29ed1", "is_disabled": 0, "is_reserved": 0}, {"rental_uris": {"ios": "https://dc.lft.to/lastmile_qr_scan", "android": "https://dc.lft.to/lastmile_qr_scan"}, "lon": -77.03289166666667, "type": "electric_bike", "fusion_lat": 0.0, "lat": 38.92976816666667, "name": "0a7ad06f58755608eb85af8ad36475d7", "fusion_lon": 0.0, "bike_id": "0a7ad06f58755608eb85af8ad36475d7", "is_disabled": 0, "is_reserved": 0}, {"rental_uris": {"ios": "https://dc.lft.to/lastmile_qr_scan", "android": "https://dc.lft.to/lastmile_qr_scan"}, "lon": -77.0364275, "type": "electric_scooter", "fusion_lat": 0.0, "lat": 38.9169665, "name": "e9eb961fa462925aaddffcd5aea56de8", "fusion_lon": 0.0, "bike_id": "e9eb961fa462925aaddffcd5aea56de8", "is_disabled": 0, "is_reserved": 0}, {"rental_uris": {"ios": "https://dc.lft.to/lastmile_qr_scan", "android": "https://dc.lft.to/lastmile_qr_scan"},