{"data": {"bikes": [{"rental_uris": {"ios": "https://dc.lft.to/lastmile_qr_scan", "android": "https://dc.lft.to/lastmile_qr_scan"}, "lon": -77.035826, "type": "electric_scooter", "fusion_lat": 0.0, "lat": 38.927477333333336, "name": "25c717ff7a1715b7c86bffec22adc4f7", "fusion_lon": 0.0, "bike_id": "25c717ff7a1715b7c86bffec22adc4f7", "is_disabled": 0, "is_reserved": 0}, {"rental_uris": {"ios": "https://dc.lft.to/lastmile_qr_scan", "android": "https://dc.lft.to/lastmile_qr_scan"}, "lon": -77.0688565, "type": "electric_scooter", "fusion_lat": 0.0, "lat": 38.905156833333336, "name": "118dc89f5f54782aedbbc1ed1ebc098a", "fusion_lon": 0.0, "bike_id": "118dc89f5f54782aedbbc1ed1ebc098a", "is_disabled": 0, "is_reserved": 0}, {"rental_uris": {"ios": "https://dc.lft.to/lastmile_qr_scan", "android": "https://dc.lft.to/lastmile_qr_scan"}, "lon": -77.02214816666667, "type": "electric_scooter", "fusion_lat": 0.0, "lat": 38.91271016666666, "name": "66e146d7bbc6ad7008a9c4ce999d8f8a", "fusion_lon": 0.0, "bike_id": "66e146d7bbc6ad7008a9c4ce999d8f8a", "is_disabled": 0, "is_reserved": 0}, {"rental_uris": {"ios": "https://dc.lft.to/lastmile_qr_scan", "android": "https://dc.lft.to/lastmile_qr_scan"}, "lon": -77.12375633333333, "type": "electric_bike", "fusion_lat": 0.0, "lat": 38.84741616666667, "name": "ab4ebcfde289c46b37aded0864ce5038", "fusion_lon": 0.0, "bike_id": "ab4ebcfde289c46b37aded0864ce5038", "is_disabled": 0, "is_reserved": 0}, {"rental_uris": {"ios": "https://dc.lft.to/lastmile_qr_scan", "android": "https://dc.lft.to/lastmile_qr_scan"}, "lon": -77.04670833333333, "type": "electric_scooter", "fusion_lat": 0.0, "lat": 38.905469333333336, "name": "47e7bbd8dccb68be053c8f0b0c094cd0", "fusion_lon": 0.0, "bike_id": "47e7bbd8dccb68be053c8f0b0c094cd0", "is_disabled": 0, "is_reserved": 0}, {"rental_uris": {"ios": "https://dc.lft.to/lastmile_qr_scan", "android": "https://dc.lft.to/lastmile_qr_scan"}, "lon": -77.03587266666666, "type": "electric_scooter", "fusion_lat": 0.0, "lat": 38.9314815, "name": "ca69ec67c7a940ce03bed889972e408e", "fusion_lon": 0.0, "bike_id": "ca69ec67c7a940ce03bed889972e408e", "is_disabled": 0, "is_reserved": 0}, {"rental_uris": {"ios": "https://dc.lft.to/lastmile_qr_scan", "android": "https://dc.lft.to/lastmile_qr_scan"}, "lon": -76.98827883333334, "type": "electric_scooter", "fusion_lat": 0.0, "lat": 38.880260166666666, "name": "09e392b5a34b3cdb8b5cfbbe0250d1d1", "fusion_lon": 0.0, "bike_id": "09e392b5a34b3cdb8b5cfbbe0250d1d1", "is_disabled": 0, "is_reserved": 0}, {"rental_uris": {"ios": "https://dc.lft.to/lastmile_qr_scan", "android": "https://dc.lft.to/lastmile_qr_scan"}, "lon": -77.032193, "type": "electric_scooter", "fusion_lat": 0.0, "lat": 38.918192, "name": "b321fdc4dae050e16be45f835039a0b9", "fusion_lon": 0.0, "bike_id": "b321fdc4dae050e16be45f835039a0b9", "is_disabled": 0, "is_reserved": 0}, {"rental_uris": {"ios": "https://dc.lft.to/lastmile_qr_scan", "android": "https://dc.lft.to/lastmile_qr_scan"}, "lon": -77.02470366666667, "type": "electric_scooter", "fusion_lat": 0.0, "lat": 38.93850316666666, "name": "515a8860281e72e3c804be3e26d0fa75", "fusion_lon": 0.0, "bike_id": "515a8860281e72e3c804be3e26d0fa75", "is_disabled": 0, "is_reserved": 0}, {"rental_uris": {"ios": "https://dc.lft.to/lastmile_qr_scan", "android": "https://dc.lft.to/lastmile_qr_scan"}, "lon": -77.04843983333333, "type": "electric_scooter", "fusion_lat": 0.0, "lat": 38.911074166666666, "name": "0623d6a0b0f354a734bb56d29d5b06d6", "fusion_lon": 0.0, "bike_id": "0623d6a0b0f354a734bb56d29d5b06d6", "is_disabled": 0, "is_reserved": 0}, {"rental_uris": {"ios": "https://dc.lft.to/lastmile_qr_scan", "android": "https://dc.lft.to/lastmile_qr_scan"}, "lon": -76.99639483333333, "type": "electric_bike", "fusion_lat": 0.0, "lat": 38.84670066666666, "name": "d08adaa58f064b2a6810b98601011077", "fusion_lon": 0.0, "bike_id": "d08adaa58f064b2a6810b98601011077", "is_disabled": 0, "is_reserved": 0}, {"rental_uris": {"ios": "https://dc.lft.to/lastmile_qr_scan", "android": "https://dc.lft.to/lastmile_qr_scan"}, "lon": -77.070645, "type": "electric_scooter", "fusion_lat": 0.0, "lat": 38.901121333333336, "name": "9806e3752df3fe71ca8a75f76db78bf2", "fusion_lon": 0.0, "bike_id": "9806e3752df3fe71ca8a75f76db78bf2", "is_disabled": 0, "is_reserved": 0}, {"rental_uris": {"ios": "https://dc.lft.to/lastmile_qr_scan", "android": "https://dc.lft.to/lastmile_qr_scan"}, "lon": -77.03505366666667, "type": "electric_scooter", "fusion_lat": 0.0, "lat": 38.918835666666666, "name": "2503bfd86b2dfa1057e07306f5f4f29e", "fusion_lon": 0.0, "bike_id": "2503bfd86b2dfa1057e07306f5f4f29e", "is_disabled": 0, "is_reserved": 0}, {"rental_uris": {"ios": "https://dc.lft.to/lastmile_qr_scan", "android": "https://dc.lft.to/lastmile_qr_scan"}, "lon": -76.9096095, "type": "electric_bike", "fusion_lat": 0.0, "lat": 38.854151333333334, "name": "8e91fafeb3d446ef37c02a50d497deda", "fusion_lon": 0.0, "bike_id": "8e91fafeb3d446ef37c02a50d497deda", "is_disabled": 0, "is_reserved": 0}, {"rental_uris": {"ios": "https://dc.lft.to/lastmile_qr_scan", "android": "https://dc.lft.to/lastmile_qr_scan"}, "lon": -77.02357966666666, "type": "electric_scooter", "fusion_lat": 0.0, "lat": 38.92505966666667, "name": "9e4d32fc043ea4113bf442c853555008", "fusion_lon": 0.0, "bike_id": "9e4d32fc043ea4113bf442c853555008", "is_disabled": 0, "is_reserved": 0}, {"rental_uris": {"ios": "https://dc.lft.to/lastmile_qr_scan", "android": "https://dc.lft.to/lastmile_qr_scan"}, "lon": -77.03551516666667, "type": "electric_scooter", "fusion_lat": 0.0, "lat": 38.9170285, "name": "0d3d33686c8429a720cc28233d750e76", "fusion_lon": 0.0, "bike_id": "0d3d33686c8429a720cc28233d750e76", "is_disabled": 0, "is_reserved": 0}, {"rental_uris": {"ios": "https://dc.lft.to/lastmile_qr_scan", "android": "https://dc.lft.to/lastmile_qr_scan"}, "lon": -77.0367965, "type": "electric_scooter", "fusion_lat": 0.0, "lat": 38.939322833333335, "name": "e00e16c8959982cd27375902c1de3969", "fusion_lon": 0.0, "bike_id": "e00e16c8959982cd27375902c1de3969", "is_disabled": 0, "is_reserved": 0}, {"rental_uris": {"ios": "https://dc.lft.to/lastmile_qr_scan", "android": "https://dc.lft.to/lastmile_qr_scan"}, "lon": -77.01305366666666, "type": "electric_scooter", "fusion_lat": 0.0, "lat": 38.9212445, "name": "8333c22535d3b75f67b4a76daf4938f7", "fusion_lon": 0.0, "bike_id": "8333c22535d3b75f67b4a76daf4938f7", "is_disabled": 0, "is_reserved": 0}, {"rental_uris": {"ios": "https://dc.lft.to/lastmile_qr_scan", "android": "https://dc.lft.to/lastmile_qr_scan"}, "lon": -76.94892866666666, "type": "electric_scooter", "fusion_lat": 0.0, "lat": 38.8952865, "name": "91a13e56d4cf42deccafec9e778167b0", "fusion_lon": 0.0, "bike_id": "91a13e56d4cf42deccafec9e778167b0", "is_disabled": 0, "is_reserved": 0}, {"rental_uris": {"ios": "https://dc.lft.to/lastmile_qr_scan", "android": "https://dc.lft.to/lastmile_qr_scan"}, "lon": -77.02730716666667, "type": "electric_scooter", "fusion_lat": 0.0, "lat": 38.916960333333336, "name": "58d2e5e25617110bcad088ff0f2c9f39", "fusion_lon": 0.0, "bike_id": "58d2e5e25617110bcad088ff0f2c9f39", "is_disabled": 0, "is_reserved": 0}, {"rental_uris": {"ios": "https://dc.lft.to/lastmile_qr_scan", "android": "https://dc.lft.to/lastmile_qr_scan"}, "lon": -77.0241405, "type": "electric_scooter", "fusion_lat": 0.0, "lat": 38.93501233333333, "name": "9eddb453eda123f66f525a0eb0a8e2fc", "fusion_lon": 0.0, "bike_id": "9eddb453eda123f66f525a0eb0a8e2fc", "is_disabled": 0, "is_reserved": 0}, {"rental_uris": {"ios": "https://dc.lft.to/lastmile_qr_scan", "android": "https://dc.lft.to/lastmile_qr_scan"}, "lon": -77.032982, "type": "electric_scooter", "fusion_lat": 0.0, "lat": 38.918128833333334, "name": "48493606e1c68430b8ed38541780f409", "fusion_lon": 0.0, "bike_id": "48493606e1c68430b8ed38541780f409", "is_disabled": 0, "is_reserved": 0}, {"rental_uris": {"ios": "https://dc.lft.to/lastmile_qr_scan", "android": "https://dc.lft.to/lastmile_qr_scan"}, "lon": -77.00583083333333, "type": "electric_scooter", "fusion_lat": 0.0, "lat": 38.905461333333335, "name": "fcbe6e5bc174f2ed4272eb87cb0eccb4", "fusion_lon": 0.0, "bike_id": "fcbe6e5bc174f2ed4272eb87cb0eccb4", "is_disabled": 0, "is_reserved": 0}, {"rental_uris": {"ios": "https://dc.lft.to/lastmile_qr_scan", "android": "https://dc.lft.to/lastmile_qr_scan"}, "lon": -76.98184033333334, "type": "electric_scooter", "fusion_lat": 0.0, "lat": 38.8958335, "name": "b3790a3e448d831644189a72a1a25c6c", "fusion_lon": 0.0, "bike_id": "b3790a3e448d831644189a72a1a25c6c", "is_disabled": 0, "is_reserved": 0}, {"rental_uris": {"ios": "https://dc.lft.to/lastmile_qr_scan", "android": "https://dc.lft.to/lastmile_qr_scan"}, "lon": -77.14998033333333, "type": "electric_bike", "fusion_lat": 0.0, "lat": 39.094658333333335, "name": "ddccda85f736d877686bd3ac4117b265", "fusion_lon": 0.0, "bike_id": "ddccda85f736d877686bd3ac4117b265", "is_disabled": 0, "is_reserved": 0}, {"rental_uris": {"ios": "https://dc.lft.to/lastmile_qr_scan", "android": "https://dc.lft.to/lastmile_qr_scan"}, "lon": -76.9337145, "type": "electric_scooter", "fusion_lat": 0.0, "lat": 38.899198, "name": "0978ea4253b7e475f7da707ae779ce34", "fusion_lon": 0.0, "bike_id": "0978ea4253b7e475f7da707ae779ce34", "is_disabled": 0, "is_reserved": 0}, {"rental_uris": {"ios": "https://dc.lft.to/lastmile_qr_scan", "android": "https://dc.lft.to/lastmile_qr_scan"}, "lon": -77.0326495, "type": "electric_scooter", "fusion_lat": 0.0, "lat": 38.914059333333334, "name": "8a7eae17b061bff1b4a0b50d831f04a5", "fusion_lon": 0.0, "bike_id": "8a7eae17b061bff1b4a0b50d831f04a5", "is_disabled": 0, "is_reserved": 0}, {"rental_uris": {"ios": "https://dc.lft.to/lastmile_qr_scan", "android": "https://dc.lft.to/lastmile_qr_scan"}, "lon": -77.04722683333334, "type": "electric_scooter", "fusion_lat": 0.0, "lat": 38.916836833333335, "name": "304cf558c334241a0ee7ae3a8629db00", "fusion_lon": 0.0, "bike_id": "304cf558c334241a0ee7ae3a8629db00", "is_disabled": 0, "is_reserved": 0}, {"rental_uris": {"ios": "https://dc.lft.to/lastmile_qr_scan", "android": "https://dc.lft.to/lastmile_qr_scan"}, "lon": -77.0461135, "type": "electric_scooter", "fusion_lat": 0.0, "lat": 38.91914766666667, "name": "e6e245e239f80463ec4e8f26076c7b1a", "fusion_lon": 0.0, "bike_id": "e6e245e239f80463ec4e8f26076c7b1a", "is_disabled": 0, "is_reserved": 0}, {"rental_uris": {"ios": "https://dc.lft.to/lastmile_qr_scan", "android": "https://dc.lft.to/lastmile_qr_scan"}, "lon": -77.19910283333333, "type": "electric_bike", "fusion_lat": 0.0, "lat": 38.875356833333335, "name": "c204021e32f3967a6f61a3e35ec3cc90", "fusion_lon": 0.0, "bike_id": "c204021e32f3967a6f61a3e35ec3cc90", "is_disabled": 0, "is_reserved": 0}, {"rental_uris": {"ios": "https://dc.lft.to/lastmile_qr_scan", "android": "https://dc.lft.to/lastmile_qr_scan"}, "lon": -77.032227, "type": "electric_scooter", "fusion_lat": 0.0, "lat": 38.925839833333335, "name": "6174ad513057d5bcecf832413fe4f520", "fusion_lon": 0.0, "bike_id": "6174ad513057d5bcecf832413fe4f520", "is_disabled": 0, "is_reserved": 0}, {"rental_uris": {"ios": "https://dc.lft.to/lastmile_qr_scan", "android": "https://dc.lft.to/lastmile_qr_scan"}, "lon": -77.07686533333333, "type": "electric_bike", "fusion_lat": 0.0, "lat": 38.831957833333334, "name": "89b9b89f9b11149548f84b06caa93a5e", "fusion_lon": 0.0, "bike_id": "89b9b89f9b11149548f84b06caa93a5e", "is_disabled": 0, "is_reserved": 0}, {"rental_uris": {"ios": "https://dc.lft.to/lastmile_qr_scan", "android": "https://dc.lft.to/lastmile_qr_scan"}, "lon": -77.1121695, "type": "electric_bike", "fusion_lat": 0.0, "lat": 38.81311916666667, "name": "8ede683251072819cf82624608fc12d0", "fusion_lon": 0.0, "bike_id": "8ede683251072819cf82624608fc12d0", "is_disabled": 0, "is_reserved": 0}, {"rental_uris": {"ios": "https://dc.lft.to/lastmile_qr_scan", "android": "https://dc.lft.to/lastmile_qr_scan"}, "lon": -77.048057, "type": "electric_scooter", "fusion_lat": 0.0, "lat": 38.89614266666667, "name": "8e72ce14baa46dc89f4002fdf2ac1290", "fusion_lon": 0.0, "bike_id": "8e72ce14baa46dc89f4002fdf2ac1290", "is_disabled": 0, "is_reserved": 0}, {"rental_uris": {"ios": "https://dc.lft.to/lastmile_qr_scan", "android": "https://dc.lft.to/lastmile_qr_scan"}, "lon": -77.03725416666667, "type": "electric_scooter", "fusion_lat": 0.0, "lat": 38.93366416666667, "name": "03724ca5e37d5d419eef4a72ba73d050", "fusion_lon": 0.0, "bike_id": "03724ca5e37d5d419eef4a72ba73d050", "is_disabled": 0, "is_reserved": 0}, {"rental_uris": {"ios": "https://dc.lft.to/lastmile_qr_scan", "android": "https://dc.lft.to/lastmile_qr_scan"}, "lon": -77.05146016666667, "type": "electric_scooter", "fusion_lat": 0.0, "lat": 38.90241116666667, "name": "99f707d6843175eecc27a99f8eb0f665", "fusion_lon": 0.0, "bike_id": "99f707d6843175eecc27a99f8eb0f665", "is_disabled": 0, "is_reserved": 0}, {"rental_uris": {"ios": "https://dc.lft.to/lastmile_qr_scan", "android": "https://dc.lft.to/lastmile_qr_scan"}, "lon": -77.02371783333334, "type": "electric_scooter", "fusion_lat": 0.0, "lat": 38.919117666666665, "name": "dcdc49d143456784dc8a632832d79265", "fusion_lon": 0.0, "bike_id": "dcdc49d143456784dc8a632832d79265", "is_disabled": 0, "is_reserved": 0}, {"rental_uris": {"ios": "https://dc.lft.to/lastmile_qr_scan", "android": "https://dc.lft.to/lastmile_qr_scan"}, "lon": -77.02203533333333, "type": "electric_scooter", "fusion_lat": 0.0, "lat": 38.8951575, "name": "8cd2d581f747386dc05a4f1bc972fada", "fusion_lon": 0.0, "bike_id": "8cd2d581f747386dc05a4f1bc972fada", "is_disabled": 0, "is_reserved": 0}, {"rental_uris": {"ios": "https://dc.lft.to/lastmile_qr_scan", "android": "https://dc.lft.to/lastmile_qr_scan"}, "lon": -77.02966, "type": "electric_scooter", "fusion_lat": 0.0, "lat": 38.884385, "name": "977c3fecc1284fed767061df1190f001", "fusion_lon": 0.0, "bike_id": "977c3fecc1284fed767061df1190f001", "is_disabled": 0, "is_reserved": 0}, {"rental_uris": {"ios": "https://dc.lft.to/lastmile_qr_scan", "android": "https://dc.lft.to/lastmile_qr_scan"}, "lon": -77.03323166666667, "type": "electric_scooter", "fusion_lat": 0.0, "lat": 38.920548833333335, "name": "9a39ad40c8d2ff2bedce078f030ce861", "fusion_lon": 0.0, "bike_id": "9a39ad40c8d2ff2bedce078f030ce861", "is_disabled": 0, "is_reserved": 0}, {"rental_uris": {"ios": "https://dc.lft.to/lastmile_qr_scan", "android": "https://dc.lft.to/lastmile_qr_scan"}, "lon": -77.05142183333334, "type": "electric_scooter", "fusion_lat": 0.0, "lat": 38.9053565, "name": "de4428236ae3f7db859c1bda902b33de", "fusion_lon": 0.0, "bike_id": "de4428236ae3f7db859c1bda902b33de", "is_disabled": 0, "is_reserved": 0}, {"rental_uris": {"ios": "https://dc.lft.to/lastmile_qr_scan", "android": "https://dc.lft.to/lastmile_qr_scan"}, "lon": -76.978169, "type": "electric_scooter", "fusion_lat": 0.0, "lat": 38.906775333333336, "name": "eadddd7e4f8b2660818e7ca6c2ea2feb", "fusion_lon": 0.0, "bike_id": "eadddd7e4f8b2660818e7ca6c2ea2feb", "is_disabled": 0, "is_reserved": 0}, {"rental_uris": {"ios": "https://dc.lft.to/lastmile_qr_scan", "android": "https://dc.lft.to/lastmile_qr_scan"}, "lon": -77.028749, "type": "electric_scooter", "fusion_lat": 0.0, "lat": 38.91346016666667, "name": "9d094091715dbe0a4e5effb79b43a9b9", "fusion_lon": 0.0, "bike_id": "9d094091715dbe0a4e5effb79b43a9b9", "is_disabled": 0, "is_reserved": 0}, {"rental_uris": {"ios": "https://dc.lft.to/lastmile_qr_scan", "android": "https://dc.lft.to/lastmile_qr_scan"}, "lon": -76.93548133333333, "type": "electric_bike", "fusion_lat": 0.0, "lat": 38.955514, "name": "ec2aad34f33572c7cf09e354dcaf8f89", "fusion_lon": 0.0, "bike_id": "ec2aad34f33572c7cf09e354dcaf8f89", "is_disabled": 0, "is_reserved": 0}, {"rental_uris": {"ios": "https://dc.lft.to/lastmile_qr_scan", "android": "https://dc.lft.to/lastmile_qr_scan"}, "lon": -77.043796, "type": "electric_scooter", "fusion_lat": 0.0, "lat": 38.920676, "name": "970e585dd1538607b014cbbba6630978", "fusion_lon": 0.0, "bike_id": "970e585dd1538607b014cbbba6630978", "is_disabled": 0, "is_reserved": 0}, {"rental_uris": {"ios": "https://dc.lft.to/lastmile_qr_scan", "android": "https://dc.lft.to/lastmile_qr_scan"}, "lon": -77.12263583333333, "type": "electric_bike", "fusion_lat": 0.0, "lat": 38.8919255, "name": "eb1a73437560d7852dcc5f266d91cb7e", "fusion_lon": 0.0, "bike_id": "eb1a73437560d7852dcc5f266d91cb7e", "is_disabled": 0, "is_reserved": 0}, {"rental_uris": {"ios": "https://dc.lft.to/lastmile_qr_scan", "android": "https://dc.lft.to/lastmile_qr_scan"}, "lon": -77.0706825, "type": "electric_scooter", "fusion_lat": 0.0, "lat": 38.9522095, "name": "0a185eacfedc03c04cf132501321c14b", "fusion_lon": 0.0, "bike_id": "0a185eacfedc03c04cf132501321c14b", "is_disabled": 0, "is_reserved": 0}, {"rental_uris": {"ios": "https://dc.lft.to/lastmile_qr_scan", "android": "https://dc.lft.to/lastmile_qr_scan"}, "lon": -77.0540725, "type": "electric_scooter", "fusion_lat": 0.0, "lat": 38.90274466666666, "name": "23733c3ed298a55f401092abd3e36dbb", "fusion_lon": 0.0, "bike_id": "23733c3ed298a55f401092abd3e36dbb", "is_disabled": 0, "is_reserved": 0}, {"rental_uris": {"ios": "https://dc.lft.to/lastmile_qr_scan", "android": "https://dc.lft.to/lastmile_qr_scan"}, "lon": -77.04187266666666, "type": "electric_scooter", "fusion_lat": 0.0, "lat": 38.9035135, "name": "8f16c9058b5983497ed476cce94ce5b4", "fusion_lon": 0.0, "bike_id": "8f16c9058b5983497ed476cce94ce5b4", "is_disabled": 0, "is_reserved": 0}, {"rental_uris": {"ios": "https://dc.lft.to/lastmile_qr_scan", "android": "https://dc.lft.to/lastmile_qr_scan"}, "lon": -77.047165, "type": "electric_scooter", "fusion_lat": 0.0, "lat": 38.922406333333335, "name": "90167e9c4e6c2758209ef623f489292d", "fusion_lon": 0.0, "bike_id": "90167e9c4e6c2758209ef623f489292d", "is_disabled": 0, "is_reserved": 0}, {"rental_uris": {"ios": "https://dc.lft.to/lastmile_qr_scan", "android": "https://dc.lft.to/lastmile_qr_scan"}, "lon": -77.0238725, "type": "electric_scooter", "fusion_lat": 0.0, "lat": 38.895104, "name": "239f0c5b5fa9c7df48877d2c500d024c", "fusion_lon": 0.0, "bike_id": "239f0c5b5fa9c7df48877d2c500d024c", "is_disabled": 0, "is_reserved": 0}, {"rental_uris": {"ios": "https://dc.lft.to/lastmile_qr_scan", "android": "https://dc.lft.to/lastmile_qr_scan"}, "lon": -77.024321, "type": "electric_scooter", "fusion_lat": 0.0, "lat": 38.9206165, "name": "a60db627c67ef0ae36e4356802b316c7", "fusion_lon": 0.0, "bike_id": "a60db627c67ef0ae36e4356802b316c7", "is_disabled": 0, "is_reserved": 0}, {"rental_uris": {"ios": "https://dc.lft.to/lastmile_qr_scan", "android": "https://dc.lft.to/lastmile_qr_scan"}, "lon": -77.017723, "type": "electric_scooter", "fusion_lat": 0.0, "lat": 38.92116633333333, "name": "dfb8656110dcaa14307c06ef41a7bc44", "fusion_lon": 0.0, "bike_id": "dfb8656110dcaa14307c06ef41a7bc44", "is_disabled": 0, "is_reserved": 0}, {"rental_uris": {"ios": "https://dc.lft.to/lastmile_qr_scan", "android": "https://dc.lft.to/lastmile_qr_scan"}, "lon": -77.01618883333333, "type": "electric_scooter", "fusion_lat": 0.0, "lat": 38.8996465, "name": "88480e301b75cb0ee698439ee10411c1", "fusion_lon": 0.0, "bike_id": "88480e301b75cb0ee698439ee10411c1", "is_disabled": 0, "is_reserved": 0}, {"rental_uris": {"ios": "https://dc.lft.to/lastmile_qr_scan", "android": "https://dc.lft.to/lastmile_qr_scan"}, "lon": -77.03505616666666, "type": "electric_scooter", "fusion_lat": 0.0, "lat": 38.92157866666667, "name": "af3a88b349ae9672e645c1eabe4a0750", "fusion_lon": 0.0, "bike_id": "af3a88b349ae9672e645c1eabe4a0750", "is_disabled": 0, "is_reserved": 0}, {"rental_uris": {"ios": "https://dc.lft.to/lastmile_qr_scan", "android": "https://dc.lft.to/lastmile_qr_scan"}, "lon": -77.0311215, "type": "electric_scooter", "fusion_lat": 0.0, "lat": 38.914172, "name": "9cc14f7b86b1f014d71e6d2ecfd7f9be", "fusion_lon": 0.0, "bike_id": "9cc14f7b86b1f014d71e6d2ecfd7f9be", "is_disabled": 0, "is_reserved": 0}, {"rental_uris": {"ios": "https://dc.lft.to/lastmile_qr_scan", "android": "https://dc.lft.to/lastmile_qr_scan"}, "lon": -77.03815866666666, "type": "electric_scooter", "fusion_lat": 0.0, "lat": 38.90124016666667, "name": "7c2c8ec00b77a8b81dc9fad90a61366f", "fusion_lon": 0.0, "bike_id": "7c2c8ec00b77a8b81dc9fad90a61366f", "is_disabled": 0, "is_reserved": 0}, {"rental_uris": {"ios": "https://dc.lft.to/lastmile_qr_scan", "android": "https://dc.lft.to/lastmile_qr_scan"}, "lon": -77.02179933333333, "type": "electric_scooter", "fusion_lat": 0.0, "lat": 38.9054665, "name": "18e73102c72de17fb389c994505b58d6", "fusion_lon": 0.0, "bike_id": "18e73102c72de17fb389c994505b58d6", "is_disabled": 0, "is_reserved": 0}, {"rental_uris": {"ios": "https://dc.lft.to/lastmile_qr_scan", "android": "https://dc.lft.to/lastmile_qr_scan"}, "lon": -76.94890933333333, "type": "electric_scooter", "fusion_lat": 0.0, "lat": 38.8952925, "name": "080fdbdb537ba5274124bdba6e9cc77c", "fusion_lon": 0.0, "bike_id": "080fdbdb537ba5274124bdba6e9cc77c", "is_disabled": 0, "is_reserved": 0}, {"rental_uris": {"ios": "https://dc.lft.to/lastmile_qr_scan", "android": "https://dc.lft.to/lastmile_qr_scan"}, "lon": -77.0273225, "type": "electric_scooter", "fusion_lat": 0.0, "lat": 38.916954833333335, "name": "d41e6e7cf441edb173b52c3a2a0b033f", "fusion_lon": 0.0, "bike_id": "d41e6e7cf441edb173b52c3a2a0b033f", "is_disabled": 0, "is_reserved": 0}, {"rental_uris": {"ios": "https://dc.lft.to/lastmile_qr_scan", "android": "https://dc.lft.to/lastmile_qr_scan"}, "lon": -77.052888, "type": "electric_scooter", "fusion_lat": 0.0, "lat": 38.918963, "name": "e18f90c47cd2ddac5c65aeb31b7c37dd", "fusion_lon": 0.0, "bike_id": "e18f90c47cd2ddac5c65aeb31b7c37dd", "is_disabled": 0, "is_reserved": 0}, {"rental_uris": {"ios": "https://dc.lft.to/lastmile_qr_scan", "android": "https://dc.lft.to/lastmile_qr_scan"}, "lon": -77.0550185, "type": "electric_scooter", "fusion_lat": 0.0, "lat": 38.92977966666667, "name": "9392ce5c3a7758105889815ac6be52ad", "fusion_lon": 0.0, "bike_id": "9392ce5c3a7758105889815ac6be52ad", "is_disabled": 0, "is_reserved": 0}, {"rental_uris": {"ios": "https://dc.lft.to/lastmile_qr_scan", "android": "https://dc.lft.to/lastmile_qr_scan"}, "lon": -77.00865383333333, "type": "electric_bike", "fusion_lat": 0.0, "lat": 38.827286, "name": "f3768cfe92d070ee958c948d6e62b8bc", "fusion_lon": 0.0, "bike_id": "f3768cfe92d070ee958c948d6e62b8bc", "is_disabled": 0, "is_reserved": 0}, {"rental_uris": {"ios": "https://dc.lft.to/lastmile_qr_scan", "android": "https://dc.lft.to/lastmile_qr_scan"}, "lon": -76.9900265, "type": "electric_scooter", "fusion_lat": 0.0, "lat": 38.865075166666664, "name": "dbac06a8176a60c4fd94c75cb222b7db", "fusion_lon": 0.0, "bike_id": "dbac06a8176a60c4fd94c75cb222b7db", "is_disabled": 0, "is_reserved": 0}, {"rental_uris": {"ios": "https://dc.lft.to/lastmile_qr_scan", "android": "https://dc.lft.to/lastmile_qr_scan"}, "lon": -77.011757, "type": "electric_scooter", "fusion_lat": 0.0, "lat": 38.90026133333333, "name": "9d438c79a5d3729780d0a816490de814", "fusion_lon": 0.0, "bike_id": "9d438c79a5d3729780d0a816490de814", "is_disabled": 0, "is_reserved": 0}, {"rental_uris": {"ios": "https://dc.lft.to/lastmile_qr_scan", "android": "https://dc.lft.to/lastmile_qr_scan"}, "lon": -76.9788545, "type": "electric_scooter", "fusion_lat": 0.0, "lat": 38.8851235, "name": "ad90a31ed305b219cda8061a5ac34323", "fusion_lon": 0.0, "bike_id": "ad90a31ed305b219cda8061a5ac34323", "is_disabled": 0, "is_reserved": 0}, {"rental_uris": {"ios": "https://dc.lft.to/lastmile_qr_scan", "android": "https://dc.lft.to/lastmile_qr_scan"}, "lon": -77.01090316666667, "type": "electric_scooter", "fusion_lat": 0.0, "lat": 38.894374666666664, "name": "d603028e66459865befc66071bb61944", "fusion_lon": 0.0, "bike_id": "d603028e66459865befc66071bb61944", "is_disabled": 0, "is_reserved": 0}, {"rental_uris": {"ios": "https://dc.lft.to/lastmile_qr_scan", "android": "https://dc.lft.to/lastmile_qr_scan"}, "lon": -77.036161, "type": "electric_scooter", "fusion_lat": 0.0, "lat": 38.92326333333333, "name": "44b8beae1e10b27659decb26564573fe", "fusion_lon": 0.0, "bike_id": "44b8beae1e10b27659decb26564573fe", "is_disabled": 0, "is_reserved": 0}, {"rental_uris": {"ios": "https://dc.lft.to/lastmile_qr_scan", "android": "https://dc.lft.to/lastmile_qr_scan"}, "lon": -76.986992, "type": "electric_scooter", "fusion_lat": 0.0, "lat": 38.907042, "name": "a5bdbe3898bf01632344ac68e05932a1", "fusion_lon": 0.0, "bike_id": "a5bdbe3898bf01632344ac68e05932a1", "is_disabled": 0, "is_reserved": 0}, {"rental_uris": {"ios": "https://dc.lft.to/lastmile_qr_scan", "android": "https://dc.lft.to/lastmile_qr_scan"}, "lon": -77.0215655, "type": "electric_scooter", "fusion_lat": 0.0, "lat": 38.879211833333336, "name": "423b3e79d54e459a8f263a00eafa13ef", "fusion_lon": 0.0, "bike_id": "423b3e79d54e459a8f263a00eafa13ef", "is_disabled": 0, "is_reserved": 0}, {"rental_uris": {"ios": "https://dc.lft.to/lastmile_qr_scan", "android": "https://dc.lft.to/lastmile_qr_scan"}, "lon": -77.032779, "type": "electric_scooter", "fusion_lat": 0.0, "lat": 38.90983116666666, "name": "b10e820d79bbe7990f03261c361e8278", "fusion_lon": 0.0, "bike_id": "b10e820d79bbe7990f03261c361e8278", "is_disabled": 0, "is_reserved": 0}, {"rental_uris": {"ios": "https://dc.lft.to/lastmile_qr_scan", "android": "https://dc.lft.to/lastmile_qr_scan"}, "lon": -77.0539355, "type": "electric_bike", "fusion_lat": 0.0, "lat": 38.903797, "name": "0a60f43034aaa506b1e6140d438198e4", "fusion_lon": 0.0, "bike_id": "0a60f43034aaa506b1e6140d438198e4", "is_disabled": 0, "is_reserved": 0}, {"rental_uris": {"ios": "https://dc.lft.to/lastmile_qr_scan", "android": "https://dc.lft.to/lastmile_qr_scan"}, "lon": -77.035145, "type": "electric_bike", "fusion_lat": 0.0, "lat": 38.96521766666667, "name": "fec4990f1eb767c66631df96df75d4f4", "fusion_lon": 0.0, "bike_id": "fec4990f1eb767c66631df96df75d4f4", "is_disabled": 0, "is_reserved": 0}, {"rental_uris": {"ios": "https://dc.lft.to/lastmile_qr_scan", "android": "https://dc.lft.to/lastmile_qr_scan"}, "lon": -77.03876166666667, "type": "electric_scooter", "fusion_lat": 0.0, "lat": 38.920294, "name": "e4718abc0523d642f61e6d90e8763e02", "fusion_lon": 0.0, "bike_id": "e4718abc0523d642f61e6d90e8763e02", "is_disabled": 0, "is_reserved": 0}, {"rental_uris": {"ios": "https://dc.lft.to/lastmile_qr_scan", "android": "https://dc.lft.to/lastmile_qr_scan"}, "lon": -77.04054533333333, "type": "electric_scooter", "fusion_lat": 0.0, "lat": 38.902747833333336, "name": "2e619c4a23fb591cd894cf76bb84001a", "fusion_lon": 0.0, "bike_id": "2e619c4a23fb591cd894cf76bb84001a", "is_disabled": 0, "is_reserved": 0}, {"rental_uris": {"ios": "https://dc.lft.to/lastmile_qr_scan", "android": "https://dc.lft.to/lastmile_qr_scan"}, "lon": -76.98759633333333, "type": "electric_scooter", "fusion_lat": 0.0, "lat": 38.845019666666666, "name": "89c6287ae7830c9b68a5802233c838de", "fusion_lon": 0.0, "bike_id": "89c6287ae7830c9b68a5802233c838de", "is_disabled": 0, "is_reserved": 0}, {"rental_uris": {"ios": "https://dc.lft.to/lastmile_qr_scan", "android": "https://dc.lft.to/lastmile_qr_scan"}, "lon": -76.97927583333333, "type": "electric_scooter", "fusion_lat": 0.0, "lat": 38.9049955, "name": "10cd2ecbad47d01f79f521585e60c0ae", "fusion_lon": 0.0, "bike_id": "10cd2ecbad47d01f79f521585e60c0ae", "is_disabled": 0, "is_reserved": 0}, {"rental_uris": {"ios": "https://dc.lft.to/lastmile_qr_scan", "android": "https://dc.lft.to/lastmile_qr_scan"}, "lon": -77.0415165, "type": "electric_scooter", "fusion_lat": 0.0, "lat": 38.91955183333334, "name": "6ce9171c8ce53457ae0cd2a98c4b442f", "fusion_lon": 0.0, "bike_id": "6ce9171c8ce53457ae0cd2a98c4b442f", "is_disabled": 0, "is_reserved": 0}, {"rental_uris": {"ios": "https://dc.lft.to/lastmile_qr_scan", "android": "https://dc.lft.to/lastmile_qr_scan"}, "lon": -77.04486416666667, "type": "electric_scooter", "fusion_lat": 0.0, "lat": 38.912724833333336, "name": "d99386ffdd03e31ec9ec53507afe2449", "fusion_lon": 0.0, "bike_id": "d99386ffdd03e31ec9ec53507afe2449", "is_disabled": 0, "is_reserved": 0}, {"rental_uris": {"ios": "https://dc.lft.to/lastmile_qr_scan", "android": "https://dc.lft.to/lastmile_qr_scan"}, "lon": -77.02236533333334, "type": "electric_scooter", "fusion_lat": 0.0, "lat": 38.962187, "name": "207ab1ae01e5b7bec76f4d94412ca2a7", "fusion_lon": 0.0, "bike_id": "207ab1ae01e5b7bec76f4d94412ca2a7", "is_disabled": 0, "is_reserved": 0}, {"rental_uris": {"ios": "https://dc.lft.to/lastmile_qr_scan", "android": "https://dc.lft.to/lastmile_qr_scan"}, "lon": -76.98562683333333, "type": "electric_scooter", "fusion_lat": 0.0, "lat": 38.856011, "name": "cee78c9108eb14e244981808153f3712", "fusion_lon": 0.0, "bike_id": "cee78c9108eb14e244981808153f3712", "is_disabled": 0, "is_reserved": 0}, {"rental_uris": {"ios": "https://dc.lft.to/lastmile_qr_scan", "android": "https://dc.lft.to/lastmile_qr_scan"}, "lon": -76.98652483333333, "type": "electric_scooter", "fusion_lat": 0.0, "lat": 38.858091, "name": "5b15594a4f44384953fd3fea6c3f33bf", "fusion_lon": 0.0, "bike_id": "5b15594a4f44384953fd3fea6c3f33bf", "is_disabled": 0, "is_reserved": 0}, {"rental_uris": {"ios": "https://dc.lft.to/lastmile_qr_scan", "android": "https://dc.lft.to/lastmile_qr_scan"}, "lon": -77.00571433333333, "type": "electric_scooter", "fusion_lat": 0.0, "lat": 38.905477166666664, "name": "6e68583e890a98bda91e57ce917c71cd", "fusion_lon": 0.0, "bike_id": "6e68583e890a98bda91e57ce917c71cd", "is_disabled": 0, "is_reserved": 0}, {"rental_uris": {"ios": "https://dc.lft.to/lastmile_qr_scan", "android": "https://dc.lft.to/lastmile_qr_scan"}, "lon": -77.0470715, "type": "electric_scooter", "fusion_lat": 0.0, "lat": 38.89742716666667, "name": "9ea107bc094d572574b99be9322c67f1", "fusion_lon": 0.0, "bike_id": "9ea107bc094d572574b99be9322c67f1", "is_disabled": 0, "is_reserved": 0}, {"rental_uris": {"ios": "https://dc.lft.to/lastmile_qr_scan", "android": "https://dc.lft.to/lastmile_qr_scan"}, "lon": -77.041846, "type": "electric_scooter", "fusion_lat": 0.0, "lat": 38.920499666666664, "name": "c19eeca51c4540e999a0eeed5f88745b", "fusion_lon": 0.0, "bike_id": "c19eeca51c4540e999a0eeed5f88745b", "is_disabled": 0, "is_reserved": 0}, {"rental_uris": {"ios": "https://dc.lft.to/lastmile_qr_scan", "android": "https://dc.lft.to/lastmile_qr_scan"}, "lon": -77.02224533333333, "type": "electric_scooter", "fusion_lat": 0.0, "lat": 38.893566666666665, "name": "640591fee03c8e22363eec949bd5ae6c", "fusion_lon": 0.0, "bike_id": "640591fee03c8e22363eec949bd5ae6c", "is_disabled": 0, "is_reserved": 0}, {"rental_uris": {"ios": "https://dc.lft.to/lastmile_qr_scan", "android": "https://dc.lft.to/lastmile_qr_scan"}, "lon": -77.10030266666666, "type": "electric_bike", "fusion_lat": 0.0, "lat": 38.99068916666667, "name": "3e9fe6da460ec6e0a992d32e0b0de6f1", "fusion_lon": 0.0, "bike_id": "3e9fe6da460ec6e0a992d32e0b0de6f1", "is_disabled": 0, "is_reserved": 0}, {"rental_uris": {"ios": "https://dc.lft.to/lastmile_qr_scan", "android": "https://dc.lft.to/lastmile_qr_scan"}, "lon": -77.00359533333334, "type": "electric_scooter", "fusion_lat": 0.0, "lat": 38.89772283333333, "name": "e71a80fe62c7fe468df49fb8c36368ae", "fusion_lon": 0.0, "bike_id": "e71a80fe62c7fe468df49fb8c36368ae", "is_disabled": 0, "is_reserved": 0}, {"rental_uris": {"ios": "https://dc.lft.to/lastmile_qr_scan", "android": "https://dc.lft.to/lastmile_qr_scan"}, "lon": -76.94654866666667, "type": "electric_scooter", "fusion_lat": 0.0, "lat": 38.898326, "name": "4634cf6a627765e69a25f5ab33e52b27", "fusion_lon": 0.0, "bike_id": "4634cf6a627765e69a25f5ab33e52b27", "is_disabled": 0, "is_reserved": 0}, {"rental_uris": {"ios": "https://dc.lft.to/lastmile_qr_scan", "android": "https://dc.lft.to/lastmile_qr_scan"}, "lon": -77.02336966666667, "type": "electric_scooter", "fusion_lat": 0.0, "lat": 38.930565, "name": "d5991a4c2691ba764d67fe79a8739e46", "fusion_lon": 0.0, "bike_id": "d5991a4c2691ba764d67fe79a8739e46", "is_disabled": 0, "is_reserved": 0}, {"rental_uris": {"ios": "https://dc.lft.to/lastmile_qr_scan", "android": "https://dc.lft.to/lastmile_qr_scan"}, "lon": -76.98571133333333, "type": "electric_scooter", "fusion_lat": 0.0, "lat": 38.89890616666667, "name": "c4cb6d0f1b9c2a5d3908c4e99207e9cb", "fusion_lon": 0.0, "bike_id": "c4cb6d0f1b9c2a5d3908c4e99207e9cb", "is_disabled": 0, "is_reserved": 0}, {"rental_uris": {"ios": "https://dc.lft.to/lastmile_qr_scan", "android": "https://dc.lft.to/lastmile_qr_scan"}, "lon": -77.03264383333334, "type": "electric_scooter", "fusion_lat": 0.0, "lat": 38.9325925, "name": "966455115d602c19320c3004b857cae7", "fusion_lon": 0.0, "bike_id": "966455115d602c19320c3004b857cae7", "is_disabled": 0, "is_reserved": 0}, {"rental_uris": {"ios": "https://dc.lft.to/lastmile_qr_scan", "android": "https://dc.lft.to/lastmile_qr_scan"}, "lon": -77.025044, "type": "electric_scooter", "fusion_lat": 0.0, "lat": 38.9072535, "name": "29b29901e62f82e0653415301ce68d21", "fusion_lon": 0.0, "bike_id": "29b29901e62f82e0653415301ce68d21", "is_disabled": 0, "is_reserved": 0}, {"rental_uris": {"ios": "https://dc.lft.to/lastmile_qr_scan", "android": "https://dc.lft.to/lastmile_qr_scan"}, "lon": -77.01861166666667, "type": "electric_scooter", "fusion_lat": 0.0, "lat": 38.914934333333335, "name": "a6a0d686301592f38b83769ce30401a8", "fusion_lon": 0.0, "bike_id": "a6a0d686301592f38b83769ce30401a8", "is_disabled": 0, "is_reserved": 0}, {"rental_uris": {"ios": "https://dc.lft.to/lastmile_qr_scan", "android": "https://dc.lft.to/lastmile_qr_scan"}, "lon": -76.94999433333334, "type": "electric_scooter", "fusion_lat": 0.0, "lat": 38.89374733333333, "name": "1ee6a456b47f1f871cc1878faabed17b", "fusion_lon": 0.0, "bike_id": "1ee6a456b47f1f871cc1878faabed17b", "is_disabled": 0, "is_reserved": 0}, {"rental_uris": {"ios": "https://dc.lft.to/lastmile_qr_scan", "android": "https://dc.lft.to/lastmile_qr_scan"}, "lon": -77.1829965, "type": "electric_bike", "fusion_lat": 0.0, "lat": 38.88344933333333, "name": "5890bacdc0e6c2b25045be86b8be8d37", "fusion_lon": 0.0, "bike_id": "5890bacdc0e6c2b25045be86b8be8d37", "is_disabled": 0, "is_reserved": 0}, {"rental_uris": {"ios": "https://dc.lft.to/lastmile_qr_scan", "android": "https://dc.lft.to/lastmile_qr_scan"}, "lon": -77.02473816666667, "type": "electric_scooter", "fusion_lat": 0.0, "lat": 38.931029, "name": "8d4465760b8279dd046c8d2b559d0ea6", "fusion_lon": 0.0, "bike_id": "8d4465760b8279dd046c8d2b559d0ea6", "is_disabled": 0, "is_reserved": 0}, {"rental_uris": {"ios": "https://dc.lft.to/lastmile_qr_scan", "android": "https://dc.lft.to/lastmile_qr_scan"}, "lon": -77.03464783333334, "type": "electric_scooter", "fusion_lat": 0.0, "lat": 38.90867816666667, "name": "c10b64cba3cf656d5ec54f44b25e9525", "fusion_lon": 0.0, "bike_id": "c10b64cba3cf656d5ec54f44b25e9525", "is_disabled": 0, "is_reserved": 0}, {"rental_uris": {"ios": "https://dc.lft.to/lastmile_qr_scan", "android": "https://dc.lft.to/lastmile_qr_scan"}, "lon": -77.05066933333333, "type": "electric_scooter", "fusion_lat": 0.0, "lat": 38.9009035, "name": "ba167c5ff66c18db5932d5bd81293f42", "fusion_lon": 0.0, "bike_id": "ba167c5ff66c18db5932d5bd81293f42", "is_disabled": 0, "is_reserved": 0}, {"rental_uris": {"ios": "https://dc.lft.to/lastmile_qr_scan", "android": "https://dc.lft.to/lastmile_qr_scan"}, "lon": -77.03332566666667, "type": "electric_scooter", "fusion_lat": 0.0, "lat": 38.90133266666667, "name": "abab2aad4b1690c658a098c4144c89be", "fusion_lon": 0.0, "bike_id": "abab2aad4b1690c658a098c4144c89be", "is_disabled": 0, "is_reserved": 0}, {"rental_uris": {"ios": "https://dc.lft.to/lastmile_qr_scan", "android": "https://dc.lft.to/lastmile_qr_scan"}, "lon": -76.97432616666667, "type": "electric_bike", "fusion_lat": 0.0, "lat": 38.932113333333334, "name": "46df0f477c495af0c4895339a3e1b78e", "fusion_lon": 0.0, "bike_id": "46df0f477c495af0c4895339a3e1b78e", "is_disabled": 0, "is_reserved": 0}, {"rental_uris": {"ios": "https://dc.lft.to/lastmile_qr_scan", "android": "https://dc.lft.to/lastmile_qr_scan"}, "lon": -77.0177995, "type": "electric_scooter", "fusion_lat": 0.0, "lat": 38.900416, "name": "26e254490c5248316b98e7bacb847dea", "fusion_lon": 0.0, "bike_id": "26e254490c5248316b98e7bacb847dea", "is_disabled": 0, "is_reserved": 0}, {"rental_uris": {"ios": "https://dc.lft.to/lastmile_qr_scan", "android": "https://dc.lft.to/lastmile_qr_scan"}, "lon": -76.9782125, "type": "electric_scooter", "fusion_lat": 0.0, "lat": 38.89516, "name": "55a8c46f91362063ebd1ffede05789ca", "fusion_lon": 0.0, "bike_id": "55a8c46f91362063ebd1ffede05789ca", "is_disabled": 0, "is_reserved": 0}, {"rental_uris": {"ios": "https://dc.lft.to/lastmile_qr_scan", "android": "https://dc.lft.to/lastmile_qr_scan"}, "lon": -77.0218145, "type": "electric_scooter", "fusion_lat": 0.0, "lat": 38.91481516666666, "name": "1da3d45df56daac62c93bd02933a827a", "fusion_lon": 0.0, "bike_id": "1da3d45df56daac62c93bd02933a827a", "is_disabled": 0, "is_reserved": 0}, {"rental_uris": {"ios": "https://dc.lft.to/lastmile_qr_scan", "android": "https://dc.lft.to/lastmile_qr_scan"}, "lon": -77.017313, "type": "electric_scooter", "fusion_lat": 0.0, "lat": 38.883432, "name": "2d94b0d641f3851904f02205952b604b", "fusion_lon": 0.0, "bike_id": "2d94b0d641f3851904f02205952b604b", "is_disabled": 0, "is_reserved": 0}, {"rental_uris": {"ios": "https://dc.lft.to/lastmile_qr_scan", "android": "https://dc.lft.to/lastmile_qr_scan"}, "lon": -77.0321095, "type": "electric_scooter", "fusion_lat": 0.0, "lat": 38.9111435, "name": "34067c41a6745f325acaa26ae74a96fe", "fusion_lon": 0.0, "bike_id": "34067c41a6745f325acaa26ae74a96fe", "is_disabled": 0, "is_reserved": 0}, {"rental_uris": {"ios": "https://dc.lft.to/lastmile_qr_scan", "android": "https://dc.lft.to/lastmile_qr_scan"}, "lon": -76.9978915, "type": "electric_scooter", "fusion_lat": 0.0, "lat": 38.90870183333333, "name": "4afb387cb79ff8899e5ccbc3a7bf609c", "fusion_lon": 0.0, "bike_id": "4afb387cb79ff8899e5ccbc3a7bf609c", "is_disabled": 0, "is_reserved": 0}, {"rental_uris": {"ios": "https://dc.lft.to/lastmile_qr_scan", "android": "https://dc.lft.to/lastmile_qr_scan"}, "lon": -77.02232583333333, "type": "electric_scooter", "fusion_lat": 0.0, "lat": 38.8919645, "name": "4a277240c58e99cc19825e9f67fe8040", "fusion_lon": 0.0, "bike_id": "4a277240c58e99cc19825e9f67fe8040", "is_disabled": 0, "is_reserved": 0}, {"rental_uris": {"ios": "https://dc.lft.to/lastmile_qr_scan", "android": "https://dc.lft.to/lastmile_qr_scan"}, "lon": -77.07564083333334, "type": "electric_scooter", "fusion_lat": 0.0, "lat": 38.914336166666665, "name": "0f6e144e9ce53f8bce0e8f37ffa4e3f8", "fusion_lon": 0.0, "bike_id": "0f6e144e9ce53f8bce0e8f37ffa4e3f8", "is_disabled": 0, "is_reserved": 0}, {"rental_uris": {"ios": "https://dc.lft.to/lastmile_qr_scan", "android": "https://dc.lft.to/lastmile_qr_scan"}, "lon": -77.03646416666666, "type": "electric_scooter", "fusion_lat": 0.0, "lat": 38.929266, "name": "056dad8fb11479835b68ac71b6390376", "fusion_lon": 0.0, "bike_id": "056dad8fb11479835b68ac71b6390376", "is_disabled": 0, "is_reserved": 0}, {"rental_uris": {"ios": "https://dc.lft.to/lastmile_qr_scan", "android": "https://dc.lft.to/lastmile_qr_scan"}, "lon": -77.02335666666667, "type": "electric_scooter", "fusion_lat": 0.0, "lat": 38.9223145, "name": "719586d5430e937c23f1ec10988cfabb", "fusion_lon": 0.0, "bike_id": "719586d5430e937c23f1ec10988cfabb", "is_disabled": 0, "is_reserved": 0}, {"rental_uris": {"ios": "https://dc.lft.to/lastmile_qr_scan", "android": "https://dc.lft.to/lastmile_qr_scan"}, "lon": -77.073334, "type": "electric_scooter", "fusion_lat": 0.0, "lat": 38.9249905, "name": "4acd1ab035463bf82ee7e8682abd9647", "fusion_lon": 0.0, "bike_id": "4acd1ab035463bf82ee7e8682abd9647", "is_disabled": 0, "is_reserved": 0}, {"rental_uris": {"ios": "https://dc.lft.to/lastmile_qr_scan", "android": "https://dc.lft.to/lastmile_qr_scan"}, "lon": -77.045055, "type": "electric_scooter", "fusion_lat": 0.0, "lat": 38.91115966666667, "name": "a1a56fe0a2832c4f0c2428714b22f1ce", "fusion_lon": 0.0, "bike_id": "a1a56fe0a2832c4f0c2428714b22f1ce", "is_disabled": 0, "is_reserved": 0}, {"rental_uris": {"ios": "https://dc.lft.to/lastmile_qr_scan", "android": "https://dc.lft.to/lastmile_qr_scan"}, "lon": -77.028048, "type": "electric_scooter", "fusion_lat": 0.0, "lat": 38.89656566666667, "name": "af05e397a7637684291ebc82e43080e1", "fusion_lon": 0.0, "bike_id": "af05e397a7637684291ebc82e43080e1", "is_disabled": 0, "is_reserved": 0}, {"rental_uris": {"ios": "https://dc.lft.to/lastmile_qr_scan", "android": "https://dc.lft.to/lastmile_qr_scan"}, "lon": -77.04868866666666, "type": "electric_scooter", "fusion_lat": 0.0, "lat": 38.90854, "name": "5b35c16cbd1e927fc262357ad463cb63", "fusion_lon": 0.0, "bike_id": "5b35c16cbd1e927fc262357ad463cb63", "is_disabled": 0, "is_reserved": 0}, {"rental_uris": {"ios": "https://dc.lft.to/lastmile_qr_scan", "android": "https://dc.lft.to/lastmile_qr_scan"}, "lon": -77.0477695, "type": "electric_bike", "fusion_lat": 0.0, "lat": 39.053225, "name": "4e225b01f3a6510324e305c42bf0651c", "fusion_lon": 0.0, "bike_id": "4e225b01f3a6510324e305c42bf0651c", "is_disabled": 0, "is_reserved": 0}, {"rental_uris": {"ios": "https://dc.lft.to/lastmile_qr_scan", "android": "https://dc.lft.to/lastmile_qr_scan"}, "lon": -77.04356033333333, "type": "electric_scooter", "fusion_lat": 0.0, "lat": 38.89203083333334, "name": "7d392961356b3fc50512072c9c26a44e", "fusion_lon": 0.0, "bike_id": "7d392961356b3fc50512072c9c26a44e", "is_disabled": 0, "is_reserved": 0}, {"rental_uris": {"ios": "https://dc.lft.to/lastmile_qr_scan", "android": "https://dc.lft.to/lastmile_qr_scan"}, "lon": -77.00122866666666, "type": "electric_scooter", "fusion_lat": 0.0, "lat": 38.877954333333335, "name": "ca4820d16241a0e879b08b59dfcac10f", "fusion_lon": 0.0, "bike_id": "ca4820d16241a0e879b08b59dfcac10f", "is_disabled": 0, "is_reserved": 0}, {"rental_uris": {"ios": "https://dc.lft.to/lastmile_qr_scan", "android": "https://dc.lft.to/lastmile_qr_scan"}, "lon": -76.99504716666667, "type": "electric_scooter", "fusion_lat": 0.0, "lat": 38.86248966666667, "name": "db6167d1340827721ceb7afc9b01fb9b", "fusion_lon": 0.0, "bike_id": "db6167d1340827721ceb7afc9b01fb9b", "is_disabled": 0, "is_reserved": 0}, {"rental_uris": {"ios": "https://dc.lft.to/lastmile_qr_scan", "android": "https://dc.lft.to/lastmile_qr_scan"}, "lon": -77.03293, "type": "electric_scooter", "fusion_lat": 0.0, "lat": 38.92866466666667, "name": "d6eccaf1ba2a6917d60aeaba531fe09d", "fusion_lon": 0.0, "bike_id": "d6eccaf1ba2a6917d60aeaba531fe09d", "is_disabled": 0, "is_reserved": 0}, {"rental_uris": {"ios": "https://dc.lft.to/lastmile_qr_scan", "android": "https://dc.lft.to/lastmile_qr_scan"}, "lon": -76.95359616666667, "type": "electric_bike", "fusion_lat": 0.0, "lat": 38.93958533333333, "name": "0f90a8ed1af98d90433d8eda9cd9e063", "fusion_lon": 0.0, "bike_id": "0f90a8ed1af98d90433d8eda9cd9e063", "is_disabled": 0, "is_reserved": 0}, {"rental_uris": {"ios": "https://dc.lft.to/lastmile_qr_scan", "android": "https://dc.lft.to/lastmile_qr_scan"}, "lon": -77.05698783333334, "type": "electric_scooter", "fusion_lat": 0.0, "lat": 38.905449833333336, "name": "ec6bfa75b6a57fd31f91ad8cd6c0f6fb", "fusion_lon": 0.0, "bike_id": "ec6bfa75b6a57fd31f91ad8cd6c0f6fb", "is_disabled": 0, "is_reserved": 0}, {"rental_uris": {"ios": "https://dc.lft.to/lastmile_qr_scan", "android": "https://dc.lft.to/lastmile_qr_scan"}, "lon": -77.17847316666666, "type": "electric_bike", "fusion_lat": 0.0, "lat": 39.08859, "name": "449066ef7708e0cd40f4b899a3e4dac9", "fusion_lon": 0.0, "bike_id": "449066ef7708e0cd40f4b899a3e4dac9", "is_disabled": 0, "is_reserved": 0}, {"rental_uris": {"ios": "https://dc.lft.to/lastmile_qr_scan", "android": "https://dc.lft.to/lastmile_qr_scan"}, "lon": -76.98903816666666, "type": "electric_scooter", "fusion_lat": 0.0, "lat": 38.86693983333333, "name": "95a3aeda01567ba35dca9805ddee2ad9", "fusion_lon": 0.0, "bike_id": "95a3aeda01567ba35dca9805ddee2ad9", "is_disabled": 0, "is_reserved": 0}, {"rental_uris": {"ios": "https://dc.lft.to/lastmile_qr_scan", "android": "https://dc.lft.to/lastmile_qr_scan"}, "lon": -76.92590566666667, "type": "electric_scooter", "fusion_lat": 0.0, "lat": 38.8973265, "name": "9ce7954b9302ce985b227518332c4638", "fusion_lon": 0.0, "bike_id": "9ce7954b9302ce985b227518332c4638", "is_disabled": 0, "is_reserved": 0}, {"rental_uris": {"ios": "https://dc.lft.to/lastmile_qr_scan", "android": "https://dc.lft.to/lastmile_qr_scan"}, "lon": -77.02979766666667, "type": "electric_scooter", "fusion_lat": 0.0, "lat": 38.962313333333334, "name": "279bb6624b667a8f77329e058768f869", "fusion_lon": 0.0, "bike_id": "279bb6624b667a8f77329e058768f869", "is_disabled": 0, "is_reserved": 0}, {"rental_uris": {"ios": "https://dc.lft.to/lastmile_qr_scan", "android": "https://dc.lft.to/lastmile_qr_scan"}, "lon": -77.10339316666666, "type": "electric_bike", "fusion_lat": 0.0, "lat": 38.852322, "name": "f869ec560cd2abfe92319072be57d413", "fusion_lon": 0.0, "bike_id": "f869ec560cd2abfe92319072be57d413", "is_disabled": 0, "is_reserved": 0}, {"rental_uris": {"ios": "https://dc.lft.to/lastmile_qr_scan", "android": "https://dc.lft.to/lastmile_qr_scan"}, "lon": -77.03857416666666, "type": "electric_scooter", "fusion_lat": 0.0, "lat": 38.91323233333333, "name": "ff8f1b028a9acb641a5767fafe9cc439", "fusion_lon": 0.0, "bike_id": "ff8f1b028a9acb641a5767fafe9cc439", "is_disabled": 0, "is_reserved": 0}, {"rental_uris": {"ios": "https://dc.lft.to/lastmile_qr_scan", "android": "https://dc.lft.to/lastmile_qr_scan"}, "lon": -77.039999, "type": "electric_scooter", "fusion_lat": 0.0, "lat": 38.918167333333336, "name": "4d872384b23509f12eb4bc820df0d763", "fusion_lon": 0.0, "bike_id": "4d872384b23509f12eb4bc820df0d763", "is_disabled": 0, "is_reserved": 0}, {"rental_uris": {"ios": "https://dc.lft.to/lastmile_qr_scan", "android": "https://dc.lft.to/lastmile_qr_scan"}, "lon": -77.02686316666667, "type": "electric_scooter", "fusion_lat": 0.0, "lat": 38.88089316666667, "name": "4e0a8df1949203fab508f68ca642a1a5", "fusion_lon": 0.0, "bike_id": "4e0a8df1949203fab508f68ca642a1a5", "is_disabled": 0, "is_reserved": 0}, {"rental_uris": {"ios": "https://dc.lft.to/lastmile_qr_scan", "android": "https://dc.lft.to/lastmile_qr_scan"}, "lon": -77.00133683333334, "type": "electric_scooter", "fusion_lat": 0.0, "lat": 38.90417383333333, "name": "4dc37a00dfa41b502b7177878497df60", "fusion_lon": 0.0, "bike_id": "4dc37a00dfa41b502b7177878497df60", "is_disabled": 0, "is_reserved": 0}, {"rental_uris": {"ios": "https://dc.lft.to/lastmile_qr_scan", "android": "https://dc.lft.to/lastmile_qr_scan"}, "lon": -76.92723383333333, "type": "electric_scooter", "fusion_lat": 0.0, "lat": 38.880409, "name": "6fbdb9b79fd5c6c9a0147e9fd1fb503f", "fusion_lon": 0.0, "bike_id": "6fbdb9b79fd5c6c9a0147e9fd1fb503f", "is_disabled": 0, "is_reserved": 0}, {"rental_uris": {"ios": "https://dc.lft.to/lastmile_qr_scan", "android": "https://dc.lft.to/lastmile_qr_scan"}, "lon": -77.0088245, "type": "electric_scooter", "fusion_lat": 0.0, "lat": 38.914041166666664, "name": "29df6e74ad062c3667f34be1229d7b2f", "fusion_lon": 0.0, "bike_id": "29df6e74ad062c3667f34be1229d7b2f", "is_disabled": 0, "is_reserved": 0}, {"rental_uris": {"ios": "https://dc.lft.to/lastmile_qr_scan", "android": "https://dc.lft.to/lastmile_qr_scan"}, "lon": -77.02386366666667, "type": "electric_scooter", "fusion_lat": 0.0, "lat": 38.9070885, "name": "94410b98d5d920dff3995eb0377239fc", "fusion_lon": 0.0, "bike_id": "94410b98d5d920dff3995eb0377239fc", "is_disabled": 0, "is_reserved": 0}, {"rental_uris": {"ios": "https://dc.lft.to/lastmile_qr_scan", "android": "https://dc.lft.to/lastmile_qr_scan"}, "lon": -77.0128415, "type": "electric_bike", "fusion_lat": 0.0, "lat": 38.881276, "name": "46677e539946f06df2896e4b71cc8106", "fusion_lon": 0.0, "bike_id": "46677e539946f06df2896e4b71cc8106", "is_disabled": 0, "is_reserved": 0}, {"rental_uris": {"ios": "https://dc.lft.to/lastmile_qr_scan", "android": "https://dc.lft.to/lastmile_qr_scan"}, "lon": -77.0049165, "type": "electric_scooter", "fusion_lat": 0.0, "lat": 38.878687166666666, "name": "d59566ad41ac1a39084c0cc0264f2ab8", "fusion_lon": 0.0, "bike_id": "d59566ad41ac1a39084c0cc0264f2ab8", "is_disabled": 0, "is_reserved": 0}, {"rental_uris": {"ios": "https://dc.lft.to/lastmile_qr_scan", "android": "https://dc.lft.to/lastmile_qr_scan"}, "lon": -76.9166345, "type": "electric_bike", "fusion_lat": 0.0, "lat": 38.86873633333333, "name": "871adb434f42761b3b8a4937271e6607", "fusion_lon": 0.0, "bike_id": "871adb434f42761b3b8a4937271e6607", "is_disabled": 0, "is_reserved": 0}, {"rental_uris": {"ios": "https://dc.lft.to/lastmile_qr_scan", "android": "https://dc.lft.to/lastmile_qr_scan"}, "lon": -77.16239666666667, "type": "electric_bike", "fusion_lat": 0.0, "lat": 38.886604, "name": "b98a93b33113fe8a3ecfea0f3fadbbe2", "fusion_lon": 0.0, "bike_id": "b98a93b33113fe8a3ecfea0f3fadbbe2", "is_disabled": 0, "is_reserved": 0}, {"rental_uris": {"ios": "https://dc.lft.to/lastmile_qr_scan", "android": "https://dc.lft.to/lastmile_qr_scan"}, "lon": -76.94863416666666, "type": "electric_scooter", "fusion_lat": 0.0, "lat": 38.8959545, "name": "e3ddbf7caddffbe1d7df74191c7c336f", "fusion_lon": 0.0, "bike_id": "e3ddbf7caddffbe1d7df74191c7c336f", "is_disabled": 0, "is_reserved": 0}, {"rental_uris": {"ios": "https://dc.lft.to/lastmile_qr_scan", "android": "https://dc.lft.to/lastmile_qr_scan"}, "lon": -77.03296666666667, "type": "electric_scooter", "fusion_lat": 0.0, "lat": 38.909782, "name": "6c3a88496e047ca4586d88a62f6a85e2", "fusion_lon": 0.0, "bike_id": "6c3a88496e047ca4586d88a62f6a85e2", "is_disabled": 0, "is_reserved": 0}, {"rental_uris": {"ios": "https://dc.lft.to/lastmile_qr_scan", "android": "https://dc.lft.to/lastmile_qr_scan"}, "lon": -77.010732, "type": "electric_scooter", "fusion_lat": 0.0, "lat": 38.87481866666667, "name": "711c4a40cdec324607102718ffbb7ef0", "fusion_lon": 0.0, "bike_id": "711c4a40cdec324607102718ffbb7ef0", "is_disabled": 0, "is_reserved": 0}, {"rental_uris": {"ios": "https://dc.lft.to/lastmile_qr_scan", "android": "https://dc.lft.to/lastmile_qr_scan"}, "lon": -77.02803933333334, "type": "electric_scooter", "fusion_lat": 0.0, "lat": 38.910689833333336, "name": "d89b1e5137ef95d1fffd912cc94c0dd2", "fusion_lon": 0.0, "bike_id": "d89b1e5137ef95d1fffd912cc94c0dd2", "is_disabled": 0, "is_reserved": 0}, {"rental_uris": {"ios": "https://dc.lft.to/lastmile_qr_scan", "android": "https://dc.lft.to/lastmile_qr_scan"}, "lon": -76.99007516666667, "type": "electric_scooter", "fusion_lat": 0.0, "lat": 38.9039465, "name": "9fbbaf2a643377dea9dbc6b7c4bf6442", "fusion_lon": 0.0, "bike_id": "9fbbaf2a643377dea9dbc6b7c4bf6442", "is_disabled": 0, "is_reserved": 0}, {"rental_uris": {"ios": "https://dc.lft.to/lastmile_qr_scan", "android": "https://dc.lft.to/lastmile_qr_scan"}, "lon": -77.04675766666666, "type": "electric_scooter", "fusion_lat": 0.0, "lat": 38.89235083333333, "name": "65feb64a8bc564276c5bb17090908b60", "fusion_lon": 0.0, "bike_id": "65feb64a8bc564276c5bb17090908b60", "is_disabled": 0, "is_reserved": 0}, {"rental_uris": {"ios": "https://dc.lft.to/lastmile_qr_scan", "android": "https://dc.lft.to/lastmile_qr_scan"}, "lon": -77.00977683333333, "type": "electric_scooter", "fusion_lat": 0.0, "lat": 38.9141615, "name": "f7cb49882af112187426d8f77a5543e4", "fusion_lon": 0.0, "bike_id": "f7cb49882af112187426d8f77a5543e4", "is_disabled": 0, "is_reserved": 0}, {"rental_uris": {"ios": "https://dc.lft.to/lastmile_qr_scan", "android": "https://dc.lft.to/lastmile_qr_scan"}, "lon": -77.01792216666666, "type": "electric_scooter", "fusion_lat": 0.0, "lat": 38.941210833333336, "name": "1dd9dd969a42964868d8ddc1fe728483", "fusion_lon": 0.0, "bike_id": "1dd9dd969a42964868d8ddc1fe728483", "is_disabled": 0, "is_reserved": 0}, {"rental_uris": {"ios": "https://dc.lft.to/lastmile_qr_scan", "android": "https://dc.lft.to/lastmile_qr_scan"}, "lon": -77.032668, "type": "electric_scooter", "fusion_lat": 0.0, "lat": 38.94417033333333, "name": "53d5a25436b62372c14f086b6817112e", "fusion_lon": 0.0, "bike_id": "53d5a25436b62372c14f086b6817112e", "is_disabled": 0, "is_reserved": 0}, {"rental_uris": {"ios": "https://dc.lft.to/lastmile_qr_scan", "android": "https://dc.lft.to/lastmile_qr_scan"}, "lon": -77.03034866666667, "type": "electric_scooter", "fusion_lat": 0.0, "lat": 38.922452666666665, "name": "e6bbd754723fee20698af5106914de4a", "fusion_lon": 0.0, "bike_id": "e6bbd754723fee20698af5106914de4a", "is_disabled": 0, "is_reserved": 0}, {"rental_uris": {"ios": "https://dc.lft.to/lastmile_qr_scan", "android": "https://dc.lft.to/lastmile_qr_scan"}, "lon": -77.06603666666666, "type": "electric_scooter", "fusion_lat": 0.0, "lat": 38.905261, "name": "ab6c90f439bc522276528bbdfb638402", "fusion_lon": 0.0, "bike_id": "ab6c90f439bc522276528bbdfb638402", "is_disabled": 0, "is_reserved": 0}, {"rental_uris": {"ios": "https://dc.lft.to/lastmile_qr_scan", "android": "https://dc.lft.to/lastmile_qr_scan"}, "lon": -77.02021833333333, "type": "electric_scooter", "fusion_lat": 0.0, "lat": 38.93251083333333, "name": "b0315c09558ef9e8f71dc4bfe4da70d1", "fusion_lon": 0.0, "bike_id": "b0315c09558ef9e8f71dc4bfe4da70d1", "is_disabled": 0, "is_reserved": 0}, {"rental_uris": {"ios": "https://dc.lft.to/lastmile_qr_scan", "android": "https://dc.lft.to/lastmile_qr_scan"}, "lon": -76.99779866666667, "type": "electric_scooter", "fusion_lat": 0.0, "lat": 38.84428166666667, "name": "b620528f7ab6963d31ac32e628f5f8dd", "fusion_lon": 0.0, "bike_id": "b620528f7ab6963d31ac32e628f5f8dd", "is_disabled": 0, "is_reserved": 0}, {"rental_uris": {"ios": "https://dc.lft.to/lastmile_qr_scan", "android": "https://dc.lft.to/lastmile_qr_scan"}, "lon": -77.02195666666667, "type": "electric_scooter", "fusion_lat": 0.0, "lat": 38.897707833333335, "name": "9d10c196f736f5aa56ea8c966ff2a671", "fusion_lon": 0.0, "bike_id": "9d10c196f736f5aa56ea8c966ff2a671", "is_disabled": 0, "is_reserved": 0}, {"rental_uris": {"ios": "https://dc.lft.to/lastmile_qr_scan", "android": "https://dc.lft.to/lastmile_qr_scan"}, "lon": -77.00763, "type": "electric_scooter", "fusion_lat": 0.0, "lat": 38.89838533333333, "name": "b5c4c2f299ba46cbde4b751f4d5ddcf5", "fusion_lon": 0.0, "bike_id": "b5c4c2f299ba46cbde4b751f4d5ddcf5", "is_disabled": 0, "is_reserved": 0}, {"rental_uris": {"ios": "https://dc.lft.to/lastmile_qr_scan", "android": "https://dc.lft.to/lastmile_qr_scan"}, "lon": -77.04362816666666, "type": "electric_scooter", "fusion_lat": 0.0, "lat": 38.923542833333336, "name": "69e10a27c42c718d707b5a1f73c73b47", "fusion_lon": 0.0, "bike_id": "69e10a27c42c718d707b5a1f73c73b47", "is_disabled": 0, "is_reserved": 0}, {"rental_uris": {"ios": "https://dc.lft.to/lastmile_qr_scan", "android": "https://dc.lft.to/lastmile_qr_scan"}, "lon": -77.04818383333334, "type": "electric_scooter", "fusion_lat": 0.0, "lat": 38.913340833333336, "name": "096ced565008fb5f694239b909df6dc2", "fusion_lon": 0.0, "bike_id": "096ced565008fb5f694239b909df6dc2", "is_disabled": 0, "is_reserved": 0}, {"rental_uris": {"ios": "https://dc.lft.to/lastmile_qr_scan", "android": "https://dc.lft.to/lastmile_qr_scan"}, "lon": -77.04540183333333, "type": "electric_scooter", "fusion_lat": 0.0, "lat": 38.903699833333334, "name": "759eed2df18a686e09e0bb3e0e44f7a0", "fusion_lon": 0.0, "bike_id": "759eed2df18a686e09e0bb3e0e44f7a0", "is_disabled": 0, "is_reserved": 0}, {"rental_uris": {"ios": "https://dc.lft.to/lastmile_qr_scan", "android": "https://dc.lft.to/lastmile_qr_scan"}, "lon": -77.03479866666666, "type": "electric_scooter", "fusion_lat": 0.0, "lat": 38.93044366666667, "name": "a1e034e43afc3415bbedb59323fc527f", "fusion_lon": 0.0, "bike_id": "a1e034e43afc3415bbedb59323fc527f", "is_disabled": 0, "is_reserved": 0}, {"rental_uris": {"ios": "https://dc.lft.to/lastmile_qr_scan", "android": "https://dc.lft.to/lastmile_qr_scan"}, "lon": -77.01138416666667, "type": "electric_scooter", "fusion_lat": 0.0, "lat": 38.895219833333336, "name": "02e0b92cac601cb61eb23d335fc83c1b", "fusion_lon": 0.0, "bike_id": "02e0b92cac601cb61eb23d335fc83c1b", "is_disabled": 0, "is_reserved": 0}, {"rental_uris": {"ios": "https://dc.lft.to/lastmile_qr_scan", "android": "https://dc.lft.to/lastmile_qr_scan"}, "lon": -77.02698783333334, "type": "electric_scooter", "fusion_lat": 0.0, "lat": 38.92597333333333, "name": "0adc10d425d3d6886c91905152c66ace", "fusion_lon": 0.0, "bike_id": "0adc10d425d3d6886c91905152c66ace", "is_disabled": 0, "is_reserved": 0}, {"rental_uris": {"ios": "https://dc.lft.to/lastmile_qr_scan", "android": "https://dc.lft.to/lastmile_qr_scan"}, "lon": -77.08197816666667, "type": "electric_scooter", "fusion_lat": 0.0, "lat": 38.949281166666665, "name": "03f473e7690a8a08b097eef4e1cf1d86", "fusion_lon": 0.0, "bike_id": "03f473e7690a8a08b097eef4e1cf1d86", "is_disabled": 0, "is_reserved": 0}, {"rental_uris": {"ios": "https://dc.lft.to/lastmile_qr_scan", "android": "https://dc.lft.to/lastmile_qr_scan"}, "lon": -77.03864216666666, "type": "electric_scooter", "fusion_lat": 0.0, "lat": 38.932531, "name": "49f276a6d761fc482e88631223e17dad", "fusion_lon": 0.0, "bike_id": "49f276a6d761fc482e88631223e17dad", "is_disabled": 0, "is_reserved": 0}, {"rental_uris": {"ios": "https://dc.lft.to/lastmile_qr_scan", "android": "https://dc.lft.to/lastmile_qr_scan"}, "lon": -77.03208766666667, "type": "electric_scooter", "fusion_lat": 0.0, "lat": 38.915424333333334, "name": "5c9d61bab68d04e0b07a245f569847bd", "fusion_lon": 0.0, "bike_id": "5c9d61bab68d04e0b07a245f569847bd", "is_disabled": 0, "is_reserved": 0}, {"rental_uris": {"ios": "https://dc.lft.to/lastmile_qr_scan", "android": "https://dc.lft.to/lastmile_qr_scan"}, "lon": -77.02584183333333, "type": "electric_scooter", "fusion_lat": 0.0, "lat": 38.88737416666667, "name": "802ff24097e1aa86832e9398bd08f4df", "fusion_lon": 0.0, "bike_id": "802ff24097e1aa86832e9398bd08f4df", "is_disabled": 0, "is_reserved": 0}, {"rental_uris": {"ios": "https://dc.lft.to/lastmile_qr_scan", "android": "https://dc.lft.to/lastmile_qr_scan"}, "lon": -76.9081855, "type": "electric_bike", "fusion_lat": 0.0, "lat": 38.99456833333333, "name": "e0e282018472dcb9435dc56945a14d1f", "fusion_lon": 0.0, "bike_id": "e0e282018472dcb9435dc56945a14d1f", "is_disabled": 0, "is_reserved": 0}, {"rental_uris": {"ios": "https://dc.lft.to/lastmile_qr_scan", "android": "https://dc.lft.to/lastmile_qr_scan"}, "lon": -76.9605895, "type": "electric_bike", "fusion_lat": 0.0, "lat": 38.884010833333335, "name": "33fb567a4a0f362cc07b193414905de1", "fusion_lon": 0.0, "bike_id": "33fb567a4a0f362cc07b193414905de1", "is_disabled": 0, "is_reserved": 0}, {"rental_uris": {"ios": "https://dc.lft.to/lastmile_qr_scan", "android": "https://dc.lft.to/lastmile_qr_scan"}, "lon": -76.9893825, "type": "electric_bike", "fusion_lat": 0.0, "lat": 38.92863283333333, "name": "ff964dbf54635f50aea63307cfe7674a", "fusion_lon": 0.0, "bike_id": "ff964dbf54635f50aea63307cfe7674a", "is_disabled": 0, "is_reserved": 0}, {"rental_uris": {"ios": "https://dc.lft.to/lastmile_qr_scan", "android": "https://dc.lft.to/lastmile_qr_scan"}, "lon": -77.07371716666667, "type": "electric_bike", "fusion_lat": 0.0, "lat": 38.96185883333333, "name": "27f344a230238f69fa3805820e241e36", "fusion_lon": 0.0, "bike_id": "27f344a230238f69fa3805820e241e36", "is_disabled": 0, "is_reserved": 0}, {"rental_uris": {"ios": "https://dc.lft.to/lastmile_qr_scan", "android": "https://dc.lft.to/lastmile_qr_scan"}, "lon": -77.030729, "type": "electric_scooter", "fusion_lat": 0.0, "lat": 38.92383316666667, "name": "7df3c806134fff4300f0cfff4ac8cff3", "fusion_lon": 0.0, "bike_id": "7df3c806134fff4300f0cfff4ac8cff3", "is_disabled": 0, "is_reserved": 0}, {"rental_uris": {"ios": "https://dc.lft.to/lastmile_qr_scan", "android": "https://dc.lft.to/lastmile_qr_scan"}, "lon": -77.01538233333333, "type": "electric_scooter", "fusion_lat": 0.0, "lat": 38.88745883333333, "name": "c604385555c6066ba63e490d56d048c9", "fusion_lon": 0.0, "bike_id": "c604385555c6066ba63e490d56d048c9", "is_disabled": 0, "is_reserved": 0}, {"rental_uris": {"ios": "https://dc.lft.to/lastmile_qr_scan", "android": "https://dc.lft.to/lastmile_qr_scan"}, "lon": -76.9996675, "type": "electric_scooter", "fusion_lat": 0.0, "lat": 38.90873783333333, "name": "8d92abe2a6f0c4e21caeeb96b126ffcd", "fusion_lon": 0.0, "bike_id": "8d92abe2a6f0c4e21caeeb96b126ffcd", "is_disabled": 0, "is_reserved": 0}, {"rental_uris": {"ios": "https://dc.lft.to/lastmile_qr_scan", "android": "https://dc.lft.to/lastmile_qr_scan"}, "lon": -77.05125266666667, "type": "electric_scooter", "fusion_lat": 0.0, "lat": 38.90489933333333, "name": "594533a2050ecd63579001f288af94a8", "fusion_lon": 0.0, "bike_id": "594533a2050ecd63579001f288af94a8", "is_disabled": 0, "is_reserved": 0}, {"rental_uris": {"ios": "https://dc.lft.to/lastmile_qr_scan", "android": "https://dc.lft.to/lastmile_qr_scan"}, "lon": -77.04132616666666, "type": "electric_scooter", "fusion_lat": 0.0, "lat": 38.9243035, "name": "d05a207930ce8929d136f3b87ca4ca1a", "fusion_lon": 0.0, "bike_id": "d05a207930ce8929d136f3b87ca4ca1a", "is_disabled": 0, "is_reserved": 0}, {"rental_uris": {"ios": "https://dc.lft.to/lastmile_qr_scan", "android": "https://dc.lft.to/lastmile_qr_scan"}, "lon": -77.05503183333333, "type": "electric_scooter", "fusion_lat": 0.0, "lat": 38.92976066666667, "name": "57b00c5eef9794f4a9c7c4dcc5c05ff4", "fusion_lon": 0.0, "bike_id": "57b00c5eef9794f4a9c7c4dcc5c05ff4", "is_disabled": 0, "is_reserved": 0}, {"rental_uris": {"ios": "https://dc.lft.to/lastmile_qr_scan", "android": "https://dc.lft.to/lastmile_qr_scan"}, "lon": -77.03329516666666, "type": "electric_scooter", "fusion_lat": 0.0, "lat": 38.919991333333336, "name": "d5216e13d73fd84a8c81495704272f47", "fusion_lon": 0.0, "bike_id": "d5216e13d73fd84a8c81495704272f47", "is_disabled": 0, "is_reserved": 0}, {"rental_uris": {"ios": "https://dc.lft.to/lastmile_qr_scan", "android": "https://dc.lft.to/lastmile_qr_scan"}, "lon": -77.03324566666667, "type": "electric_scooter", "fusion_lat": 0.0, "lat": 38.9199765, "name": "f7afae094fe9029da6be9a8f0bde8875", "fusion_lon": 0.0, "bike_id": "f7afae094fe9029da6be9a8f0bde8875", "is_disabled": 0, "is_reserved": 0}, {"rental_uris": {"ios": "https://dc.lft.to/lastmile_qr_scan", "android": "https://dc.lft.to/lastmile_qr_scan"}, "lon": -77.03068316666666, "type": "electric_scooter", "fusion_lat": 0.0, "lat": 38.894692666666664, "name": "834f207b6bd31d00a9f567eeeecb0973", "fusion_lon": 0.0, "bike_id": "834f207b6bd31d00a9f567eeeecb0973", "is_disabled": 0, "is_reserved": 0}, {"rental_uris": {"ios": "https://dc.lft.to/lastmile_qr_scan", "android": "https://dc.lft.to/lastmile_qr_scan"}, "lon": -77.02695816666666, "type": "electric_scooter", "fusion_lat": 0.0, "lat": 38.90689116666667, "name": "094d7d7f1560d31ed886805099bfc6cc", "fusion_lon": 0.0, "bike_id": "094d7d7f1560d31ed886805099bfc6cc", "is_disabled": 0, "is_reserved": 0}, {"rental_uris": {"ios": "https://dc.lft.to/lastmile_qr_scan", "android": "https://dc.lft.to/lastmile_qr_scan"}, "lon": -76.96715966666666, "type": "electric_scooter", "fusion_lat": 0.0, "lat": 38.85080283333333, "name": "397a6c8b3d9d22e21bd996dabd5902a2", "fusion_lon": 0.0, "bike_id": "397a6c8b3d9d22e21bd996dabd5902a2", "is_disabled": 0, "is_reserved": 0}, {"rental_uris": {"ios": "https://dc.lft.to/lastmile_qr_scan", "android": "https://dc.lft.to/lastmile_qr_scan"}, "lon": -77.1051245, "type": "electric_bike", "fusion_lat": 0.0, "lat": 38.9285145, "name": "1e88fe8b560ea68f4b4789214d41adbc", "fusion_lon": 0.0, "bike_id": "1e88fe8b560ea68f4b4789214d41adbc", "is_disabled": 0, "is_reserved": 0}, {"rental_uris": {"ios": "https://dc.lft.to/lastmile_qr_scan", "android": "https://dc.lft.to/lastmile_qr_scan"}, "lon": -77.02743783333334, "type": "electric_scooter", "fusion_lat": 0.0, "lat": 38.927723666666665, "name": "2f3097377f1ada0b8eec2f4459454df9", "fusion_lon": 0.0, "bike_id": "2f3097377f1ada0b8eec2f4459454df9", "is_disabled": 0, "is_reserved": 0}, {"rental_uris": {"ios": "https://dc.lft.to/lastmile_qr_scan", "android": "https://dc.lft.to/lastmile_qr_scan"}, "lon": -77.025269, "type": "electric_scooter", "fusion_lat": 0.0, "lat": 38.920186666666666, "name": "d9953c539f2ee8b31775faf6893e0e0e", "fusion_lon": 0.0, "bike_id": "d9953c539f2ee8b31775faf6893e0e0e", "is_disabled": 0, "is_reserved": 0}, {"rental_uris": {"ios": "https://dc.lft.to/lastmile_qr_scan", "android": "https://dc.lft.to/lastmile_qr_scan"}, "lon": -77.0359255, "type": "electric_scooter", "fusion_lat": 0.0, "lat": 38.93235133333334, "name": "f36be2dbcb104602fb766d5e2aa9bbf8", "fusion_lon": 0.0, "bike_id": "f36be2dbcb104602fb766d5e2aa9bbf8", "is_disabled": 0, "is_reserved": 0}, {"rental_uris": {"ios": "https://dc.lft.to/lastmile_qr_scan", "android": "https://dc.lft.to/lastmile_qr_scan"}, "lon": -77.03316716666667, "type": "electric_scooter", "fusion_lat": 0.0, "lat": 38.89848816666667, "name": "b0bd6f4a8fff62699e9b2d9a82cf1724", "fusion_lon": 0.0, "bike_id": "b0bd6f4a8fff62699e9b2d9a82cf1724", "is_disabled": 0, "is_reserved": 0}, {"rental_uris": {"ios": "https://dc.lft.to/lastmile_qr_scan", "android": "https://dc.lft.to/lastmile_qr_scan"}, "lon": -76.94631316666667, "type": "electric_scooter", "fusion_lat": 0.0, "lat": 38.898427833333336, "name": "54458beca55ffc7ee7032503bc797207", "fusion_lon": 0.0, "bike_id": "54458beca55ffc7ee7032503bc797207", "is_disabled": 0, "is_reserved": 0}, {"rental_uris": {"ios": "https://dc.lft.to/lastmile_qr_scan", "android": "https://dc.lft.to/lastmile_qr_scan"}, "lon": -77.03214183333333, "type": "electric_scooter", "fusion_lat": 0.0, "lat": 38.916988333333336, "name": "222dc7a22873b22f3ba598a6ed76899b", "fusion_lon": 0.0, "bike_id": "222dc7a22873b22f3ba598a6ed76899b", "is_disabled": 0, "is_reserved": 0}, {"rental_uris": {"ios": "https://dc.lft.to/lastmile_qr_scan", "android": "https://dc.lft.to/lastmile_qr_scan"}, "lon": -77.04822516666667, "type": "electric_scooter", "fusion_lat": 0.0, "lat": 38.90794533333333, "name": "e33aae2efa095d78029d0e90d1d44fa9", "fusion_lon": 0.0, "bike_id": "e33aae2efa095d78029d0e90d1d44fa9", "is_disabled": 0, "is_reserved": 0}, {"rental_uris": {"ios": "https://dc.lft.to/lastmile_qr_scan", "android": "https://dc.lft.to/lastmile_qr_scan"}, "lon": -77.02172783333333, "type": "electric_scooter", "fusion_lat": 0.0, "lat": 38.942968, "name": "836bc637895f0c807eb4ab5841c53e9a", "fusion_lon": 0.0, "bike_id": "836bc637895f0c807eb4ab5841c53e9a", "is_disabled": 0, "is_reserved": 0}, {"rental_uris": {"ios": "https://dc.lft.to/lastmile_qr_scan", "android": "https://dc.lft.to/lastmile_qr_scan"}, "lon": -77.063315, "type": "electric_bike", "fusion_lat": 0.0, "lat": 38.921125, "name": "9da9d95dad7014b6440890d0f2c39d0c", "fusion_lon": 0.0, "bike_id": "9da9d95dad7014b6440890d0f2c39d0c", "is_disabled": 0, "is_reserved": 0}, {"rental_uris": {"ios": "https://dc.lft.to/lastmile_qr_scan", "android": "https://dc.lft.to/lastmile_qr_scan"}, "lon": -77.03171166666667, "type": "electric_scooter", "fusion_lat": 0.0, "lat": 38.913295833333336, "name": "7d6859f9c7fc1d59c9128111614e6945", "fusion_lon": 0.0, "bike_id": "7d6859f9c7fc1d59c9128111614e6945", "is_disabled": 0, "is_reserved": 0}, {"rental_uris": {"ios": "https://dc.lft.to/lastmile_qr_scan", "android": "https://dc.lft.to/lastmile_qr_scan"}, "lon": -77.05863333333333, "type": "electric_scooter", "fusion_lat": 0.0, "lat": 38.93604966666667, "name": "42d4e3261d01931a6fbcf5d48be58803", "fusion_lon": 0.0, "bike_id": "42d4e3261d01931a6fbcf5d48be58803", "is_disabled": 0, "is_reserved": 0}, {"rental_uris": {"ios": "https://dc.lft.to/lastmile_qr_scan", "android": "https://dc.lft.to/lastmile_qr_scan"}, "lon": -77.0137455, "type": "electric_scooter", "fusion_lat": 0.0, "lat": 38.86370316666667, "name": "cb4cf8459a30a98b2bdecd367a03cf3d", "fusion_lon": 0.0, "bike_id": "cb4cf8459a30a98b2bdecd367a03cf3d", "is_disabled": 0, "is_reserved": 0}, {"rental_uris": {"ios": "https://dc.lft.to/lastmile_qr_scan", "android": "https://dc.lft.to/lastmile_qr_scan"}, "lon": -77.01226983333333, "type": "electric_scooter", "fusion_lat": 0.0, "lat": 38.909836, "name": "e7b2175033279b60169e4089e287f8b2", "fusion_lon": 0.0, "bike_id": "e7b2175033279b60169e4089e287f8b2", "is_disabled": 0, "is_reserved": 0}, {"rental_uris": {"ios": "https://dc.lft.to/lastmile_qr_scan", "android": "https://dc.lft.to/lastmile_qr_scan"}, "lon": -77.03184983333334, "type": "electric_scooter", "fusion_lat": 0.0, "lat": 38.89577716666667, "name": "076e64dd3966356cf9863fe82a4f3a1b", "fusion_lon": 0.0, "bike_id": "076e64dd3966356cf9863fe82a4f3a1b", "is_disabled": 0, "is_reserved": 0}, {"rental_uris": {"ios": "https://dc.lft.to/lastmile_qr_scan", "android": "https://dc.lft.to/lastmile_qr_scan"}, "lon": -77.0176, "type": "electric_scooter", "fusion_lat": 0.0, "lat": 38.876886666666664, "name": "50afcb9c2dd2772adac514f25c810eed", "fusion_lon": 0.0, "bike_id": "50afcb9c2dd2772adac514f25c810eed", "is_disabled": 0, "is_reserved": 0}, {"rental_uris": {"ios": "https://dc.lft.to/lastmile_qr_scan", "android": "https://dc.lft.to/lastmile_qr_scan"}, "lon": -77.0586435, "type": "electric_scooter", "fusion_lat": 0.0, "lat": 38.9360865, "name": "62f467a98438f9c9a2bc048a8b3b6070", "fusion_lon": 0.0, "bike_id": "62f467a98438f9c9a2bc048a8b3b6070", "is_disabled": 0, "is_reserved": 0}, {"rental_uris": {"ios": "https://dc.lft.to/lastmile_qr_scan", "android": "https://dc.lft.to/lastmile_qr_scan"}, "lon": -76.98820283333333, "type": "electric_scooter", "fusion_lat": 0.0, "lat": 38.9033875, "name": "9328fa694b67e34ed74e60128698d313", "fusion_lon": 0.0, "bike_id": "9328fa694b67e34ed74e60128698d313", "is_disabled": 0, "is_reserved": 0}, {"rental_uris": {"ios": "https://dc.lft.to/lastmile_qr_scan", "android": "https://dc.lft.to/lastmile_qr_scan"}, "lon": -77.021838, "type": "electric_scooter", "fusion_lat": 0.0, "lat": 38.894898833333336, "name": "972036e51b3508f5a37cd8aa644c41cf", "fusion_lon": 0.0, "bike_id": "972036e51b3508f5a37cd8aa644c41cf", "is_disabled": 0, "is_reserved": 0}, {"rental_uris": {"ios": "https://dc.lft.to/lastmile_qr_scan", "android": "https://dc.lft.to/lastmile_qr_scan"}, "lon": -77.02712883333334, "type": "electric_scooter", "fusion_lat": 0.0, "lat": 38.924834833333335, "name": "3730c05c5dea33440096eb1391639e2c", "fusion_lon": 0.0, "bike_id": "3730c05c5dea33440096eb1391639e2c", "is_disabled": 0, "is_reserved": 0}, {"rental_uris": {"ios": "https://dc.lft.to/lastmile_qr_scan", "android": "https://dc.lft.to/lastmile_qr_scan"}, "lon": -77.02225116666666, "type": "electric_scooter", "fusion_lat": 0.0, "lat": 38.89356883333333, "name": "7443c70423b92b8446e1a963462b3f48", "fusion_lon": 0.0, "bike_id": "7443c70423b92b8446e1a963462b3f48", "is_disabled": 0, "is_reserved": 0}, {"rental_uris": {"ios": "https://dc.lft.to/lastmile_qr_scan", "android": "https://dc.lft.to/lastmile_qr_scan"}, "lon": -76.93306433333333, "type": "electric_scooter", "fusion_lat": 0.0, "lat": 38.898893666666666, "name": "6733680627f3435dd9602e663b39a702", "fusion_lon": 0.0, "bike_id": "6733680627f3435dd9602e663b39a702", "is_disabled": 0, "is_reserved": 0}, {"rental_uris": {"ios": "https://dc.lft.to/lastmile_qr_scan", "android": "https://dc.lft.to/lastmile_qr_scan"}, "lon": -76.9886455, "type": "electric_scooter", "fusion_lat": 0.0, "lat": 38.900279, "name": "853632c8a6613b56ccc1f2f5dd97f179", "fusion_lon": 0.0, "bike_id": "853632c8a6613b56ccc1f2f5dd97f179", "is_disabled": 0, "is_reserved": 0}, {"rental_uris": {"ios": "https://dc.lft.to/lastmile_qr_scan", "android": "https://dc.lft.to/lastmile_qr_scan"}, "lon": -77.027601, "type": "electric_scooter", "fusion_lat": 0.0, "lat": 38.92388016666666, "name": "d8f9afdb95c19ce85137c606aebcb60e", "fusion_lon": 0.0, "bike_id": "d8f9afdb95c19ce85137c606aebcb60e", "is_disabled": 0, "is_reserved": 0}, {"rental_uris": {"ios": "https://dc.lft.to/lastmile_qr_scan", "android": "https://dc.lft.to/lastmile_qr_scan"}, "lon": -77.0955695, "type": "electric_scooter", "fusion_lat": 0.0, "lat": 38.91658916666667, "name": "9537a8bc53dba4bd837ed0f0ce144e98", "fusion_lon": 0.0, "bike_id": "9537a8bc53dba4bd837ed0f0ce144e98", "is_disabled": 0, "is_reserved": 0}, {"rental_uris": {"ios": "https://dc.lft.to/lastmile_qr_scan", "android": "https://dc.lft.to/lastmile_qr_scan"}, "lon": -76.985831, "type": "electric_scooter", "fusion_lat": 0.0, "lat": 38.90660316666666, "name": "3306898f220ac67a5cbbe6ecb9e20353", "fusion_lon": 0.0, "bike_id": "3306898f220ac67a5cbbe6ecb9e20353", "is_disabled": 0, "is_reserved": 0}, {"rental_uris": {"ios": "https://dc.lft.to/lastmile_qr_scan", "android": "https://dc.lft.to/lastmile_qr_scan"}, "lon": -77.04637166666667, "type": "electric_scooter", "fusion_lat": 0.0, "lat": 38.91521616666667, "name": "c05297dca26c8e8620dfb2585438d108", "fusion_lon": 0.0, "bike_id": "c05297dca26c8e8620dfb2585438d108", "is_disabled": 0, "is_reserved": 0}, {"rental_uris": {"ios": "https://dc.lft.to/lastmile_qr_scan", "android": "https://dc.lft.to/lastmile_qr_scan"}, "lon": -77.0164585, "type": "electric_scooter", "fusion_lat": 0.0, "lat": 38.929376, "name": "9a1a69d8d0d53a7007d8fc3c13279afc", "fusion_lon": 0.0, "bike_id": "9a1a69d8d0d53a7007d8fc3c13279afc", "is_disabled": 0, "is_reserved": 0}, {"rental_uris": {"ios": "https://dc.lft.to/lastmile_qr_scan", "android": "https://dc.lft.to/lastmile_qr_scan"}, "lon": -77.039772, "type": "electric_scooter", "fusion_lat": 0.0, "lat": 38.92318983333333, "name": "bcc0f22026e4d0a35c4d52e46c2772e8", "fusion_lon": 0.0, "bike_id": "bcc0f22026e4d0a35c4d52e46c2772e8", "is_disabled": 0, "is_reserved": 0}, {"rental_uris": {"ios": "https://dc.lft.to/lastmile_qr_scan", "android": "https://dc.lft.to/lastmile_qr_scan"}, "lon": -77.02300266666667, "type": "electric_bike", "fusion_lat": 0.0, "lat": 38.928408166666664, "name": "75421c5afbe72bacf4ce9a633248a59f", "fusion_lon": 0.0, "bike_id": "75421c5afbe72bacf4ce9a633248a59f", "is_disabled": 0, "is_reserved": 0}, {"rental_uris": {"ios": "https://dc.lft.to/lastmile_qr_scan", "android": "https://dc.lft.to/lastmile_qr_scan"}, "lon": -77.02444316666667, "type": "electric_scooter", "fusion_lat": 0.0, "lat": 38.956452, "name": "dbb91ec4d11243d458e5e3546f5f2bfa", "fusion_lon": 0.0, "bike_id": "dbb91ec4d11243d458e5e3546f5f2bfa", "is_disabled": 0, "is_reserved": 0}, {"rental_uris": {"ios": "https://dc.lft.to/lastmile_qr_scan", "android": "https://dc.lft.to/lastmile_qr_scan"}, "lon": -77.06938283333334, "type": "electric_scooter", "fusion_lat": 0.0, "lat": 38.9050725, "name": "35c42b7d3a3ffa9fe1c9b469263a7ace", "fusion_lon": 0.0, "bike_id": "35c42b7d3a3ffa9fe1c9b469263a7ace", "is_disabled": 0, "is_reserved": 0}, {"rental_uris": {"ios": "https://dc.lft.to/lastmile_qr_scan", "android": "https://dc.lft.to/lastmile_qr_scan"}, "lon": -77.0150915, "type": "electric_scooter", "fusion_lat": 0.0, "lat": 38.87265716666667, "name": "24bda7d3d89a3d49c16a31401eb61a84", "fusion_lon": 0.0, "bike_id": "24bda7d3d89a3d49c16a31401eb61a84", "is_disabled": 0, "is_reserved": 0}, {"rental_uris": {"ios": "https://dc.lft.to/lastmile_qr_scan", "android": "https://dc.lft.to/lastmile_qr_scan"}, "lon": -77.02956783333333, "type": "electric_scooter", "fusion_lat": 0.0, "lat": 38.9158595, "name": "85b8097b6394521af1e9715c23bb81b2", "fusion_lon": 0.0, "bike_id": "85b8097b6394521af1e9715c23bb81b2", "is_disabled": 0, "is_reserved": 0}, {"rental_uris": {"ios": "https://dc.lft.to/lastmile_qr_scan", "android": "https://dc.lft.to/lastmile_qr_scan"}, "lon": -77.06881933333334, "type": "electric_scooter", "fusion_lat": 0.0, "lat": 38.90512483333333, "name": "5e4f4b66a56db634f3700151a80b8684", "fusion_lon": 0.0, "bike_id": "5e4f4b66a56db634f3700151a80b8684", "is_disabled": 0, "is_reserved": 0}, {"rental_uris": {"ios": "https://dc.lft.to/lastmile_qr_scan", "android": "https://dc.lft.to/lastmile_qr_scan"}, "lon": -77.03149583333334, "type": "electric_scooter", "fusion_lat": 0.0, "lat": 38.90969883333333, "name": "4cf7631cf6282ffbf2fd8308bad22df7", "fusion_lon": 0.0, "bike_id": "4cf7631cf6282ffbf2fd8308bad22df7", "is_disabled": 0, "is_reserved": 0}, {"rental_uris": {"ios": "https://dc.lft.to/lastmile_qr_scan", "android": "https://dc.lft.to/lastmile_qr_scan"}, "lon": -76.99872366666666, "type": "electric_scooter", "fusion_lat": 0.0, "lat": 38.900344833333335, "name": "27bb2645f09ae0857f534eb278d96ffb", "fusion_lon": 0.0, "bike_id": "27bb2645f09ae0857f534eb278d96ffb", "is_disabled": 0, "is_reserved": 0}, {"rental_uris": {"ios": "https://dc.lft.to/lastmile_qr_scan", "android": "https://dc.lft.to/lastmile_qr_scan"}, "lon": -77.04031416666666, "type": "electric_scooter", "fusion_lat": 0.0, "lat": 38.9244525, "name": "72dc6e9ee94126738f2a44d25df35227", "fusion_lon": 0.0, "bike_id": "72dc6e9ee94126738f2a44d25df35227", "is_disabled": 0, "is_reserved": 0}, {"rental_uris": {"ios": "https://dc.lft.to/lastmile_qr_scan", "android": "https://dc.lft.to/lastmile_qr_scan"}, "lon": -76.9800705, "type": "electric_bike", "fusion_lat": 0.0, "lat": 38.8628575, "name": "5b7bee28b9da86070c0dc800e45baff4", "fusion_lon": 0.0, "bike_id": "5b7bee28b9da86070c0dc800e45baff4", "is_disabled": 0, "is_reserved": 0}, {"rental_uris": {"ios": "https://dc.lft.to/lastmile_qr_scan", "android": "https://dc.lft.to/lastmile_qr_scan"}, "lon": -77.026815, "type": "electric_scooter", "fusion_lat": 0.0, "lat": 38.90725833333333, "name": "f4ac2cd9be108400b181d61b9fde5990", "fusion_lon": 0.0, "bike_id": "f4ac2cd9be108400b181d61b9fde5990", "is_disabled": 0, "is_reserved": 0}, {"rental_uris": {"ios": "https://dc.lft.to/lastmile_qr_scan", "android": "https://dc.lft.to/lastmile_qr_scan"}, "lon": -77.06379266666667, "type": "electric_scooter", "fusion_lat": 0.0, "lat": 38.908272833333335, "name": "eb23332d54c12ff797a50a6352cccce0", "fusion_lon": 0.0, "bike_id": "eb23332d54c12ff797a50a6352cccce0", "is_disabled": 0, "is_reserved": 0}, {"rental_uris": {"ios": "https://dc.lft.to/lastmile_qr_scan", "android": "https://dc.lft.to/lastmile_qr_scan"}, "lon": -77.03287333333333, "type": "electric_scooter", "fusion_lat": 0.0, "lat": 38.928555333333335, "name": "ab1944318ce26d29a749eccb9b7ce32c", "fusion_lon": 0.0, "bike_id": "ab1944318ce26d29a749eccb9b7ce32c", "is_disabled": 0, "is_reserved": 0}, {"rental_uris": {"ios": "https://dc.lft.to/lastmile_qr_scan", "android": "https://dc.lft.to/lastmile_qr_scan"}, "lon": -76.93104683333334, "type": "electric_scooter", "fusion_lat": 0.0, "lat": 38.90145366666667, "name": "69821d7dfe2c5230643df7ac7ea5eab8", "fusion_lon": 0.0, "bike_id": "69821d7dfe2c5230643df7ac7ea5eab8", "is_disabled": 0, "is_reserved": 0}, {"rental_uris": {"ios": "https://dc.lft.to/lastmile_qr_scan", "android": "https://dc.lft.to/lastmile_qr_scan"}, "lon": -77.00769033333333, "type": "electric_scooter", "fusion_lat": 0.0, "lat": 38.911264, "name": "5b233fd2c295e044e90d52cca5242efd", "fusion_lon": 0.0, "bike_id": "5b233fd2c295e044e90d52cca5242efd", "is_disabled": 0, "is_reserved": 0}, {"rental_uris": {"ios": "https://dc.lft.to/lastmile_qr_scan", "android": "https://dc.lft.to/lastmile_qr_scan"}, "lon": -76.98557916666667, "type": "electric_scooter", "fusion_lat": 0.0, "lat": 38.897691333333334, "name": "e8ebd12f4552e9d54b05649a6453abd2", "fusion_lon": 0.0, "bike_id": "e8ebd12f4552e9d54b05649a6453abd2", "is_disabled": 0, "is_reserved": 0}, {"rental_uris": {"ios": "https://dc.lft.to/lastmile_qr_scan", "android": "https://dc.lft.to/lastmile_qr_scan"}, "lon": -77.05353866666667, "type": "electric_scooter", "fusion_lat": 0.0, "lat": 38.90261733333333, "name": "e9ae6a2c744e0b0b640c9964a19b328a", "fusion_lon": 0.0, "bike_id": "e9ae6a2c744e0b0b640c9964a19b328a", "is_disabled": 0, "is_reserved": 0}, {"rental_uris": {"ios": "https://dc.lft.to/lastmile_qr_scan", "android": "https://dc.lft.to/lastmile_qr_scan"}, "lon": -77.02386866666667, "type": "electric_scooter", "fusion_lat": 0.0, "lat": 38.895005833333336, "name": "1fc9f069260a31166a8e400467e0b266", "fusion_lon": 0.0, "bike_id": "1fc9f069260a31166a8e400467e0b266", "is_disabled": 0, "is_reserved": 0}, {"rental_uris": {"ios": "https://dc.lft.to/lastmile_qr_scan", "android": "https://dc.lft.to/lastmile_qr_scan"}, "lon": -77.07552316666667, "type": "electric_bike", "fusion_lat": 0.0, "lat": 38.910517, "name": "56bf49cd61cb5069e6fa88f955d384cd", "fusion_lon": 0.0, "bike_id": "56bf49cd61cb5069e6fa88f955d384cd", "is_disabled": 0, "is_reserved": 0}, {"rental_uris": {"ios": "https://dc.lft.to/lastmile_qr_scan", "android": "https://dc.lft.to/lastmile_qr_scan"}, "lon": -76.94031866666667, "type": "electric_scooter", "fusion_lat": 0.0, "lat": 38.90074933333333, "name": "27723b7587e5eb713f5303c8d75b4cdb", "fusion_lon": 0.0, "bike_id": "27723b7587e5eb713f5303c8d75b4cdb", "is_disabled": 0, "is_reserved": 0}, {"rental_uris": {"ios": "https://dc.lft.to/lastmile_qr_scan", "android": "https://dc.lft.to/lastmile_qr_scan"}, "lon": -77.10456583333334, "type": "electric_bike", "fusion_lat": 0.0, "lat": 38.896358, "name": "e16538e3eaec106d8100cb1383b51b74", "fusion_lon": 0.0, "bike_id": "e16538e3eaec106d8100cb1383b51b74", "is_disabled": 0, "is_reserved": 0}, {"rental_uris": {"ios": "https://dc.lft.to/lastmile_qr_scan", "android": "https://dc.lft.to/lastmile_qr_scan"}, "lon": -77.0065525, "type": "electric_scooter", "fusion_lat": 0.0, "lat": 38.87183916666667, "name": "7b17c13308d97e45af1fb53ec7e816a4", "fusion_lon": 0.0, "bike_id": "7b17c13308d97e45af1fb53ec7e816a4", "is_disabled": 0, "is_reserved": 0}, {"rental_uris": {"ios": "https://dc.lft.to/lastmile_qr_scan", "android": "https://dc.lft.to/lastmile_qr_scan"}, "lon": -77.02695133333333, "type": "electric_scooter", "fusion_lat": 0.0, "lat": 38.913358833333334, "name": "d5003018bbaeaec55af9d46ee495712a", "fusion_lon": 0.0, "bike_id": "d5003018bbaeaec55af9d46ee495712a", "is_disabled": 0, "is_reserved": 0}, {"rental_uris": {"ios": "https://dc.lft.to/lastmile_qr_scan", "android": "https://dc.lft.to/lastmile_qr_scan"}, "lon": -77.04489766666667, "type": "electric_scooter", "fusion_lat": 0.0, "lat": 38.9085015, "name": "046631b254f5ab76dcc44e5eb7fe2ebe", "fusion_lon": 0.0, "bike_id": "046631b254f5ab76dcc44e5eb7fe2ebe", "is_disabled": 0, "is_reserved": 0}, {"rental_uris": {"ios": "https://dc.lft.to/lastmile_qr_scan", "android": "https://dc.lft.to/lastmile_qr_scan"}, "lon": -77.03293516666666, "type": "electric_scooter", "fusion_lat": 0.0, "lat": 38.92353266666667, "name": "f13c53cdb4395620f74a94c32ac4fe3b", "fusion_lon": 0.0, "bike_id": "f13c53cdb4395620f74a94c32ac4fe3b", "is_disabled": 0, "is_reserved": 0}, {"rental_uris": {"ios": "https://dc.lft.to/lastmile_qr_scan", "android": "https://dc.lft.to/lastmile_qr_scan"}, "lon": -77.00102783333334, "type": "electric_scooter", "fusion_lat": 0.0, "lat": 38.908362333333336, "name": "95b906a10f151b8a8549375c1b46ceaa", "fusion_lon": 0.0, "bike_id": "95b906a10f151b8a8549375c1b46ceaa", "is_disabled": 0, "is_reserved": 0}, {"rental_uris": {"ios": "https://dc.lft.to/lastmile_qr_scan", "android": "https://dc.lft.to/lastmile_qr_scan"}, "lon": -77.04553733333333, "type": "electric_scooter", "fusion_lat": 0.0, "lat": 38.934056166666664, "name": "722c301f36c158fda0ffe06dc15e8001", "fusion_lon": 0.0, "bike_id": "722c301f36c158fda0ffe06dc15e8001", "is_disabled": 0, "is_reserved": 0}, {"rental_uris": {"ios": "https://dc.lft.to/lastmile_qr_scan", "android": "https://dc.lft.to/lastmile_qr_scan"}, "lon": -77.04445533333333, "type": "electric_scooter", "fusion_lat": 0.0, "lat": 38.91012933333333, "name": "b150daad2b415df913e6f2ff62899704", "fusion_lon": 0.0, "bike_id": "b150daad2b415df913e6f2ff62899704", "is_disabled": 0, "is_reserved": 0}, {"rental_uris": {"ios": "https://dc.lft.to/lastmile_qr_scan", "android": "https://dc.lft.to/lastmile_qr_scan"}, "lon": -76.98869866666666, "type": "electric_scooter", "fusion_lat": 0.0, "lat": 38.900254333333336, "name": "6902aa4e628b49dfdf5534c0bdafb85a", "fusion_lon": 0.0, "bike_id": "6902aa4e628b49dfdf5534c0bdafb85a", "is_disabled": 0, "is_reserved": 0}, {"rental_uris": {"ios": "https://dc.lft.to/lastmile_qr_scan", "android": "https://dc.lft.to/lastmile_qr_scan"}, "lon": -77.047898, "type": "electric_scooter", "fusion_lat": 0.0, "lat": 38.91647966666667, "name": "e99dea3594fbb02447986b443aa9f3dc", "fusion_lon": 0.0, "bike_id": "e99dea3594fbb02447986b443aa9f3dc", "is_disabled": 0, "is_reserved": 0}, {"rental_uris": {"ios": "https://dc.lft.to/lastmile_qr_scan", "android": "https://dc.lft.to/lastmile_qr_scan"}, "lon": -77.044763, "type": "electric_scooter", "fusion_lat": 0.0, "lat": 38.911196333333336, "name": "e9899c994639a0374579e91f4a361965", "fusion_lon": 0.0, "bike_id": "e9899c994639a0374579e91f4a361965", "is_disabled": 0, "is_reserved": 0}, {"rental_uris": {"ios": "https://dc.lft.to/lastmile_qr_scan", "android": "https://dc.lft.to/lastmile_qr_scan"}, "lon": -76.98196283333333, "type": "electric_scooter", "fusion_lat": 0.0, "lat": 38.903954, "name": "76a0506d96c88482de254e0cd8f1fd1f", "fusion_lon": 0.0, "bike_id": "76a0506d96c88482de254e0cd8f1fd1f", "is_disabled": 0, "is_reserved": 0}, {"rental_uris": {"ios": "https://dc.lft.to/lastmile_qr_scan", "android": "https://dc.lft.to/lastmile_qr_scan"}, "lon": -77.02386933333334, "type": "electric_scooter", "fusion_lat": 0.0, "lat": 38.9377115, "name": "1764ebaedbc9293e0d18ac1596a1752e", "fusion_lon": 0.0, "bike_id": "1764ebaedbc9293e0d18ac1596a1752e", "is_disabled": 0, "is_reserved": 0}, {"rental_uris": {"ios": "https://dc.lft.to/lastmile_qr_scan", "android": "https://dc.lft.to/lastmile_qr_scan"}, "lon": -77.02877316666667, "type": "electric_scooter", "fusion_lat": 0.0, "lat": 38.898432, "name": "eff0ae7a0f714332beb2e05df0ef51a5", "fusion_lon": 0.0, "bike_id": "eff0ae7a0f714332beb2e05df0ef51a5", "is_disabled": 0, "is_reserved": 0}, {"rental_uris": {"ios": "https://dc.lft.to/lastmile_qr_scan", "android": "https://dc.lft.to/lastmile_qr_scan"}, "lon": -77.03147833333334, "type": "electric_scooter", "fusion_lat": 0.0, "lat": 38.91129516666667, "name": "f778bb3d54ed8d5ccdaaf2016663c935", "fusion_lon": 0.0, "bike_id": "f778bb3d54ed8d5ccdaaf2016663c935", "is_disabled": 0, "is_reserved": 0}, {"rental_uris": {"ios": "https://dc.lft.to/lastmile_qr_scan", "android": "https://dc.lft.to/lastmile_qr_scan"}, "lon": -76.99259183333334, "type": "electric_scooter", "fusion_lat": 0.0, "lat": 38.91972783333333, "name": "0d1006b7b46859cfe0f5804cd9ff7eef", "fusion_lon": 0.0, "bike_id": "0d1006b7b46859cfe0f5804cd9ff7eef", "is_disabled": 0, "is_reserved": 0}, {"rental_uris": {"ios": "https://dc.lft.to/lastmile_qr_scan", "android": "https://dc.lft.to/lastmile_qr_scan"}, "lon": -77.03197783333333, "type": "electric_scooter", "fusion_lat": 0.0, "lat": 38.8855615, "name": "d97ed62d309456371fd83d333ee4045f", "fusion_lon": 0.0, "bike_id": "d97ed62d309456371fd83d333ee4045f", "is_disabled": 0, "is_reserved": 0}, {"rental_uris": {"ios": "https://dc.lft.to/lastmile_qr_scan", "android": "https://dc.lft.to/lastmile_qr_scan"}, "lon": -77.11525066666667, "type": "electric_bike", "fusion_lat": 0.0, "lat": 38.8549335, "name": "4bf3106a8d6de510e7cf54c932ff72ac", "fusion_lon": 0.0, "bike_id": "4bf3106a8d6de510e7cf54c932ff72ac", "is_disabled": 0, "is_reserved": 0}, {"rental_uris": {"ios": "https://dc.lft.to/lastmile_qr_scan", "android": "https://dc.lft.to/lastmile_qr_scan"}, "lon": -77.00730183333333, "type": "electric_scooter", "fusion_lat": 0.0, "lat": 38.8783385, "name": "8ec0d6e03fcfa91e1259d0aeb6e9421a", "fusion_lon": 0.0, "bike_id": "8ec0d6e03fcfa91e1259d0aeb6e9421a", "is_disabled": 0, "is_reserved": 0}, {"rental_uris": {"ios": "https://dc.lft.to/lastmile_qr_scan", "android": "https://dc.lft.to/lastmile_qr_scan"}, "lon": -77.17851516666667, "type": "electric_bike", "fusion_lat": 0.0, "lat": 39.08904583333333, "name": "f5861209170a53848df67a159441eb14", "fusion_lon": 0.0, "bike_id": "f5861209170a53848df67a159441eb14", "is_disabled": 0, "is_reserved": 0}, {"rental_uris": {"ios": "https://dc.lft.to/lastmile_qr_scan", "android": "https://dc.lft.to/lastmile_qr_scan"}, "lon": -76.97832066666666, "type": "electric_bike", "fusion_lat": 0.0, "lat": 38.84612583333333, "name": "a739160ae9025b499b479fa307ddfb8e", "fusion_lon": 0.0, "bike_id": "a739160ae9025b499b479fa307ddfb8e", "is_disabled": 0, "is_reserved": 0}, {"rental_uris": {"ios": "https://dc.lft.to/lastmile_qr_scan", "android": "https://dc.lft.to/lastmile_qr_scan"}, "lon": -77.00256033333334, "type": "electric_bike", "fusion_lat": 0.0, "lat": 38.95218066666666, "name": "4427495eadb053079ae95cafccc754da", "fusion_lon": 0.0, "bike_id": "4427495eadb053079ae95cafccc754da", "is_disabled": 0, "is_reserved": 0}, {"rental_uris": {"ios": "https://dc.lft.to/lastmile_qr_scan", "android": "https://dc.lft.to/lastmile_qr_scan"}, "lon": -77.01406016666667, "type": "electric_scooter", "fusion_lat": 0.0, "lat": 38.9283865, "name": "7dc6bdb2980a6fd952a4ebd432e53968", "fusion_lon": 0.0, "bike_id": "7dc6bdb2980a6fd952a4ebd432e53968", "is_disabled": 0, "is_reserved": 0}, {"rental_uris": {"ios": "https://dc.lft.to/lastmile_qr_scan", "android": "https://dc.lft.to/lastmile_qr_scan"}, "lon": -77.03928666666667, "type": "electric_scooter", "fusion_lat": 0.0, "lat": 38.9210525, "name": "a3dc03eba38c8ba196f13959b7d1533a", "fusion_lon": 0.0, "bike_id": "a3dc03eba38c8ba196f13959b7d1533a", "is_disabled": 0, "is_reserved": 0}, {"rental_uris": {"ios": "https://dc.lft.to/lastmile_qr_scan", "android": "https://dc.lft.to/lastmile_qr_scan"}, "lon": -77.0387205, "type": "electric_scooter", "fusion_lat": 0.0, "lat": 38.909732, "name": "9037019f32b715c76da7ebcd5fc8093e", "fusion_lon": 0.0, "bike_id": "9037019f32b715c76da7ebcd5fc8093e", "is_disabled": 0, "is_reserved": 0}, {"rental_uris": {"ios": "https://dc.lft.to/lastmile_qr_scan", "android": "https://dc.lft.to/lastmile_qr_scan"}, "lon": -77.03206983333334, "type": "electric_scooter", "fusion_lat": 0.0, "lat": 38.90759533333333, "name": "20c054abce8f4af97ad18d9adeb2ef1b", "fusion_lon": 0.0, "bike_id": "20c054abce8f4af97ad18d9adeb2ef1b", "is_disabled": 0, "is_reserved": 0}, {"rental_uris": {"ios": "https://dc.lft.to/lastmile_qr_scan", "android": "https://dc.lft.to/lastmile_qr_scan"}, "lon": -77.04664766666667, "type": "electric_scooter", "fusion_lat": 0.0, "lat": 38.905393, "name": "0f405c9520f42e9b496c4fa0587298d5", "fusion_lon": 0.0, "bike_id": "0f405c9520f42e9b496c4fa0587298d5", "is_disabled": 0, "is_reserved": 0}, {"rental_uris": {"ios": "https://dc.lft.to/lastmile_qr_scan", "android": "https://dc.lft.to/lastmile_qr_scan"}, "lon": -77.1262555, "type": "electric_bike", "fusion_lat": 0.0, "lat": 39.0581545, "name": "48ede7dd9d2a9e00b2c35d77e277d9e4", "fusion_lon": 0.0, "bike_id": "48ede7dd9d2a9e00b2c35d77e277d9e4", "is_disabled": 0, "is_reserved": 0}, {"rental_uris": {"ios": "https://dc.lft.to/lastmile_qr_scan", "android": "https://dc.lft.to/lastmile_qr_scan"}, "lon": -76.97500316666667, "type": "electric_scooter", "fusion_lat": 0.0, "lat": 38.869152, "name": "1edc6a161797088d117a61a329be73e9", "fusion_lon": 0.0, "bike_id": "1edc6a161797088d117a61a329be73e9", "is_disabled": 0, "is_reserved": 0}, {"rental_uris": {"ios": "https://dc.lft.to/lastmile_qr_scan", "android": "https://dc.lft.to/lastmile_qr_scan"}, "lon": -76.93178216666666, "type": "electric_scooter", "fusion_lat": 0.0, "lat": 38.898863, "name": "cc1277126e83ea4d54d0e292e99e6b93", "fusion_lon": 0.0, "bike_id": "cc1277126e83ea4d54d0e292e99e6b93", "is_disabled": 0, "is_reserved": 0}, {"rental_uris": {"ios": "https://dc.lft.to/lastmile_qr_scan", "android": "https://dc.lft.to/lastmile_qr_scan"}, "lon": -77.03947733333334, "type": "electric_scooter", "fusion_lat": 0.0, "lat": 38.901281, "name": "8d3db9b2ddfc08192815ac9c55043acb", "fusion_lon": 0.0, "bike_id": "8d3db9b2ddfc08192815ac9c55043acb", "is_disabled": 0, "is_reserved": 0}, {"rental_uris": {"ios": "https://dc.lft.to/lastmile_qr_scan", "android": "https://dc.lft.to/lastmile_qr_scan"}, "lon": -77.04981716666667, "type": "electric_scooter", "fusion_lat": 0.0, "lat": 38.90111816666667, "name": "9bbc7e19066f6e9ce53f735d1fc02d42", "fusion_lon": 0.0, "bike_id": "9bbc7e19066f6e9ce53f735d1fc02d42", "is_disabled": 0, "is_reserved": 0}, {"rental_uris": {"ios": "https://dc.lft.to/lastmile_qr_scan", "android": "https://dc.lft.to/lastmile_qr_scan"}, "lon": -77.03517616666667, "type": "electric_scooter", "fusion_lat": 0.0, "lat": 38.923372666666666, "name": "de5022d1241fdaaa0b25b73da088c373", "fusion_lon": 0.0, "bike_id": "de5022d1241fdaaa0b25b73da088c373", "is_disabled": 0, "is_reserved": 0}, {"rental_uris": {"ios": "https://dc.lft.to/lastmile_qr_scan", "android": "https://dc.lft.to/lastmile_qr_scan"}, "lon": -77.03199733333334, "type": "electric_scooter", "fusion_lat": 0.0, "lat": 38.90991966666667, "name": "2f09b0c55138f147e9b3fe7f71117de4", "fusion_lon": 0.0, "bike_id": "2f09b0c55138f147e9b3fe7f71117de4", "is_disabled": 0, "is_reserved": 0}, {"rental_uris": {"ios": "https://dc.lft.to/lastmile_qr_scan", "android": "https://dc.lft.to/lastmile_qr_scan"}, "lon": -77.35315816666666, "type": "electric_bike", "fusion_lat": 0.0, "lat": 38.9500175, "name": "7dc53845076191198d1bcd3117bac755", "fusion_lon": 0.0, "bike_id": "7dc53845076191198d1bcd3117bac755", "is_disabled": 0, "is_reserved": 0}, {"rental_uris": {"ios": "https://dc.lft.to/lastmile_qr_scan", "android": "https://dc.lft.to/lastmile_qr_scan"}, "lon": -77.03222683333334, "type": "electric_scooter", "fusion_lat": 0.0, "lat": 38.92586683333333, "name": "430cc78e93fabff7acdb0ef5be888e85", "fusion_lon": 0.0, "bike_id": "430cc78e93fabff7acdb0ef5be888e85", "is_disabled": 0, "is_reserved": 0}, {"rental_uris": {"ios": "https://dc.lft.to/lastmile_qr_scan", "android": "https://dc.lft.to/lastmile_qr_scan"}, "lon": -76.994975, "type": "electric_scooter", "fusion_lat": 0.0, "lat": 38.899620166666665, "name": "896385d9946b92e42cc0a90678d41fc7", "fusion_lon": 0.0, "bike_id": "896385d9946b92e42cc0a90678d41fc7", "is_disabled": 0, "is_reserved": 0}, {"rental_uris": {"ios": "https://dc.lft.to/lastmile_qr_scan", "android": "https://dc.lft.to/lastmile_qr_scan"}, "lon": -77.04539266666667, "type": "electric_scooter", "fusion_lat": 0.0, "lat": 38.903724, "name": "e8cf05021a988f75c05c8bdef5a9163c", "fusion_lon": 0.0, "bike_id": "e8cf05021a988f75c05c8bdef5a9163c", "is_disabled": 0, "is_reserved": 0}, {"rental_uris": {"ios": "https://dc.lft.to/lastmile_qr_scan", "android": "https://dc.lft.to/lastmile_qr_scan"}, "lon": -77.0236235, "type": "electric_scooter", "fusion_lat": 0.0, "lat": 38.92517433333333, "name": "2a92069c8e8ba60a715a18dfa472cb00", "fusion_lon": 0.0, "bike_id": "2a92069c8e8ba60a715a18dfa472cb00", "is_disabled": 0, "is_reserved": 0}, {"rental_uris": {"ios": "https://dc.lft.to/lastmile_qr_scan", "android": "https://dc.lft.to/lastmile_qr_scan"}, "lon": -76.97709233333333, "type": "electric_scooter", "fusion_lat": 0.0, "lat": 38.8971595, "name": "e764ba2dfb129b6c585c35c72a7557fb", "fusion_lon": 0.0, "bike_id": "e764ba2dfb129b6c585c35c72a7557fb", "is_disabled": 0, "is_reserved": 0}, {"rental_uris": {"ios": "https://dc.lft.to/lastmile_qr_scan", "android": "https://dc.lft.to/lastmile_qr_scan"}, "lon": -77.02431716666666, "type": "electric_scooter", "fusion_lat": 0.0, "lat": 38.907320666666664, "name": "17f2868356f6dba11686d2d23d845455", "fusion_lon": 0.0, "bike_id": "17f2868356f6dba11686d2d23d845455", "is_disabled": 0, "is_reserved": 0}, {"rental_uris": {"ios": "https://dc.lft.to/lastmile_qr_scan", "android": "https://dc.lft.to/lastmile_qr_scan"}, "lon": -77.04689766666667, "type": "electric_scooter", "fusion_lat": 0.0, "lat": 38.89223616666666, "name": "9712e7756e6fa6dd6a43d73d2bf0df44", "fusion_lon": 0.0, "bike_id": "9712e7756e6fa6dd6a43d73d2bf0df44", "is_disabled": 0, "is_reserved": 0}, {"rental_uris": {"ios": "https://dc.lft.to/lastmile_qr_scan", "android": "https://dc.lft.to/lastmile_qr_scan"}, "lon": -77.035092, "type": "electric_scooter", "fusion_lat": 0.0, "lat": 38.9003445, "name": "51e64962d85b9d08bd30a114ec682f00", "fusion_lon": 0.0, "bike_id": "51e64962d85b9d08bd30a114ec682f00", "is_disabled": 0, "is_reserved": 0}, {"rental_uris": {"ios": "https://dc.lft.to/lastmile_qr_scan", "android": "https://dc.lft.to/lastmile_qr_scan"}, "lon": -77.0358835, "type": "electric_scooter", "fusion_lat": 0.0, "lat": 38.90764683333333, "name": "4f0bd11ea4bf4aa3a9b31464d0a7ae72", "fusion_lon": 0.0, "bike_id": "4f0bd11ea4bf4aa3a9b31464d0a7ae72", "is_disabled": 0, "is_reserved": 0}, {"rental_uris": {"ios": "https://dc.lft.to/lastmile_qr_scan", "android": "https://dc.lft.to/lastmile_qr_scan"}, "lon": -77.01765983333334, "type": "electric_scooter", "fusion_lat": 0.0, "lat": 38.887323, "name": "45d52ffbdc8d5abc85c7a8d5462a2a59", "fusion_lon": 0.0, "bike_id": "45d52ffbdc8d5abc85c7a8d5462a2a59", "is_disabled": 0, "is_reserved": 0}, {"rental_uris": {"ios": "https://dc.lft.to/lastmile_qr_scan", "android": "https://dc.lft.to/lastmile_qr_scan"}, "lon": -77.02226233333333, "type": "electric_scooter", "fusion_lat": 0.0, "lat": 38.91271583333333, "name": "aaee1fee56d0382bd1139f8d49e17670", "fusion_lon": 0.0, "bike_id": "aaee1fee56d0382bd1139f8d49e17670", "is_disabled": 0, "is_reserved": 0}, {"rental_uris": {"ios": "https://dc.lft.to/lastmile_qr_scan", "android": "https://dc.lft.to/lastmile_qr_scan"}, "lon": -77.02417, "type": "electric_scooter", "fusion_lat": 0.0, "lat": 38.92656566666667, "name": "410a89f47c826328625839a1c2a9a1bf", "fusion_lon": 0.0, "bike_id": "410a89f47c826328625839a1c2a9a1bf", "is_disabled": 0, "is_reserved": 0}, {"rental_uris": {"ios": "https://dc.lft.to/lastmile_qr_scan", "android": "https://dc.lft.to/lastmile_qr_scan"}, "lon": -77.04909866666667, "type": "electric_scooter", "fusion_lat": 0.0, "lat": 38.896647, "name": "080504de637e160d38c47bfbf4ac7bcf", "fusion_lon": 0.0, "bike_id": "080504de637e160d38c47bfbf4ac7bcf", "is_disabled": 0, "is_reserved": 0}, {"rental_uris": {"ios": "https://dc.lft.to/lastmile_qr_scan", "android": "https://dc.lft.to/lastmile_qr_scan"}, "lon": -77.03568516666667, "type": "electric_scooter", "fusion_lat": 0.0, "lat": 38.918129, "name": "af888b225381254666225c266eaf6022", "fusion_lon": 0.0, "bike_id": "af888b225381254666225c266eaf6022", "is_disabled": 0, "is_reserved": 0}, {"rental_uris": {"ios": "https://dc.lft.to/lastmile_qr_scan", "android": "https://dc.lft.to/lastmile_qr_scan"}, "lon": -77.0346675, "type": "electric_scooter", "fusion_lat": 0.0, "lat": 38.917153166666665, "name": "7af5c24f2862952dc73bf1f41dbff3ce", "fusion_lon": 0.0, "bike_id": "7af5c24f2862952dc73bf1f41dbff3ce", "is_disabled": 0, "is_reserved": 0}, {"rental_uris": {"ios": "https://dc.lft.to/lastmile_qr_scan", "android": "https://dc.lft.to/lastmile_qr_scan"}, "lon": -77.02379316666666, "type": "electric_scooter", "fusion_lat": 0.0, "lat": 38.91797483333333, "name": "b3f504de1c59504d35396301eacd7d71", "fusion_lon": 0.0, "bike_id": "b3f504de1c59504d35396301eacd7d71", "is_disabled": 0, "is_reserved": 0}, {"rental_uris": {"ios": "https://dc.lft.to/lastmile_qr_scan", "android": "https://dc.lft.to/lastmile_qr_scan"}, "lon": -76.98413683333334, "type": "electric_scooter", "fusion_lat": 0.0, "lat": 38.91390833333333, "name": "bb997590fe38bc944324124890017e2d", "fusion_lon": 0.0, "bike_id": "bb997590fe38bc944324124890017e2d", "is_disabled": 0, "is_reserved": 0}, {"rental_uris": {"ios": "https://dc.lft.to/lastmile_qr_scan", "android": "https://dc.lft.to/lastmile_qr_scan"}, "lon": -76.99383816666666, "type": "electric_scooter", "fusion_lat": 0.0, "lat": 38.8872475, "name": "67168e47cd9e003ff8e8b63918479355", "fusion_lon": 0.0, "bike_id": "67168e47cd9e003ff8e8b63918479355", "is_disabled": 0, "is_reserved": 0}, {"rental_uris": {"ios": "https://dc.lft.to/lastmile_qr_scan", "android": "https://dc.lft.to/lastmile_qr_scan"}, "lon": -77.03640783333333, "type": "electric_scooter", "fusion_lat": 0.0, "lat": 38.918206166666664, "name": "bdd6b5865d68fed53861dccb91f6e09f", "fusion_lon": 0.0, "bike_id": "bdd6b5865d68fed53861dccb91f6e09f", "is_disabled": 0, "is_reserved": 0}, {"rental_uris": {"ios": "https://dc.lft.to/lastmile_qr_scan", "android": "https://dc.lft.to/lastmile_qr_scan"}, "lon": -77.00233116666666, "type": "electric_scooter", "fusion_lat": 0.0, "lat": 38.90547933333333, "name": "8c601999a44e4d71508ced20aa83b85f", "fusion_lon": 0.0, "bike_id": "8c601999a44e4d71508ced20aa83b85f", "is_disabled": 0, "is_reserved": 0}, {"rental_uris": {"ios": "https://dc.lft.to/lastmile_qr_scan", "android": "https://dc.lft.to/lastmile_qr_scan"},