{"data": {"bikes": [{"lon": -77.031674, "is_disabled": 0, "lat": 38.92093833333333, "fusion_lat": 0.0, "is_reserved": 0, "rental_uris": {"ios": "https://dc.lft.to/lastmile_qr_scan", "android": "https://dc.lft.to/lastmile_qr_scan"}, "fusion_lon": 0.0, "type": "electric_scooter", "bike_id": "3f795acb18405016531ed8591ce45140", "name": "3f795acb18405016531ed8591ce45140"}, {"lon": -77.02308766666667, "is_disabled": 0, "lat": 38.955254, "fusion_lat": 0.0, "is_reserved": 0, "rental_uris": {"ios": "https://dc.lft.to/lastmile_qr_scan", "android": "https://dc.lft.to/lastmile_qr_scan"}, "fusion_lon": 0.0, "type": "electric_scooter", "bike_id": "e1d3961a89687e923d72a9d3565a5830", "name": "e1d3961a89687e923d72a9d3565a5830"}, {"lon": -76.972536, "is_disabled": 0, "lat": 38.957463833333335, "fusion_lat": 0.0, "is_reserved": 0, "rental_uris": {"ios": "https://dc.lft.to/lastmile_qr_scan", "android": "https://dc.lft.to/lastmile_qr_scan"}, "fusion_lon": 0.0, "type": "electric_bike", "bike_id": "4e3e9fedea20f0e381a9d8d7c93f8c86", "name": "4e3e9fedea20f0e381a9d8d7c93f8c86"}, {"lon": -77.01076416666666, "is_disabled": 0, "lat": 38.909645, "fusion_lat": 0.0, "is_reserved": 0, "rental_uris": {"ios": "https://dc.lft.to/lastmile_qr_scan", "android": "https://dc.lft.to/lastmile_qr_scan"}, "fusion_lon": 0.0, "type": "electric_scooter", "bike_id": "9895fb6cd7ac7ba581cab0ac79d623f8", "name": "9895fb6cd7ac7ba581cab0ac79d623f8"}, {"lon": -77.07026816666666, "is_disabled": 0, "lat": 38.905303833333335, "fusion_lat": 0.0, "is_reserved": 0, "rental_uris": {"ios": "https://dc.lft.to/lastmile_qr_scan", "android": "https://dc.lft.to/lastmile_qr_scan"}, "fusion_lon": 0.0, "type": "electric_scooter", "bike_id": "81a1cbb1e65396eb030e2430edf1bfe0", "name": "81a1cbb1e65396eb030e2430edf1bfe0"}, {"lon": -77.02250016666666, "is_disabled": 0, "lat": 38.87892083333333, "fusion_lat": 0.0, "is_reserved": 0, "rental_uris": {"ios": "https://dc.lft.to/lastmile_qr_scan", "android": "https://dc.lft.to/lastmile_qr_scan"}, "fusion_lon": 0.0, "type": "electric_scooter", "bike_id": "7bbcb07eecb07df321fdc6fa08e73c17", "name": "7bbcb07eecb07df321fdc6fa08e73c17"}, {"lon": -76.95290333333334, "is_disabled": 0, "lat": 38.8623865, "fusion_lat": 0.0, "is_reserved": 0, "rental_uris": {"ios": "https://dc.lft.to/lastmile_qr_scan", "android": "https://dc.lft.to/lastmile_qr_scan"}, "fusion_lon": 0.0, "type": "electric_bike", "bike_id": "5e668b46d777e06e6c0db0a3a7afc839", "name": "5e668b46d777e06e6c0db0a3a7afc839"}, {"lon": -77.0346855, "is_disabled": 0, "lat": 38.917105666666664, "fusion_lat": 0.0, "is_reserved": 0, "rental_uris": {"ios": "https://dc.lft.to/lastmile_qr_scan", "android": "https://dc.lft.to/lastmile_qr_scan"}, "fusion_lon": 0.0, "type": "electric_scooter", "bike_id": "2bf5ad7f14d4e9fb5a62d252865122f2", "name": "2bf5ad7f14d4e9fb5a62d252865122f2"}, {"lon": -77.0034345, "is_disabled": 0, "lat": 38.8921975, "fusion_lat": 0.0, "is_reserved": 0, "rental_uris": {"ios": "https://dc.lft.to/lastmile_qr_scan", "android": "https://dc.lft.to/lastmile_qr_scan"}, "fusion_lon": 0.0, "type": "electric_scooter", "bike_id": "a70ee6ef0d71e35cce8921fd9685923d", "name": "a70ee6ef0d71e35cce8921fd9685923d"}, {"lon": -77.0392925, "is_disabled": 0, "lat": 38.92187283333333, "fusion_lat": 0.0, "is_reserved": 0, "rental_uris": {"ios": "https://dc.lft.to/lastmile_qr_scan", "android": "https://dc.lft.to/lastmile_qr_scan"}, "fusion_lon": 0.0, "type": "electric_scooter", "bike_id": "9d53a7f015da1257235f66596010373c", "name": "9d53a7f015da1257235f66596010373c"}, {"lon": -77.0364315, "is_disabled": 0, "lat": 38.90789266666667, "fusion_lat": 0.0, "is_reserved": 0, "rental_uris": {"ios": "https://dc.lft.to/lastmile_qr_scan", "android": "https://dc.lft.to/lastmile_qr_scan"}, "fusion_lon": 0.0, "type": "electric_scooter", "bike_id": "f9bfa99cb1d1ec92c387fd7797d2b43e", "name": "f9bfa99cb1d1ec92c387fd7797d2b43e"}, {"lon": -76.97370583333333, "is_disabled": 0, "lat": 38.963191, "fusion_lat": 0.0, "is_reserved": 0, "rental_uris": {"ios": "https://dc.lft.to/lastmile_qr_scan", "android": "https://dc.lft.to/lastmile_qr_scan"}, "fusion_lon": 0.0, "type": "electric_bike", "bike_id": "a7bd90461e7acdb432591f4f38140a05", "name": "a7bd90461e7acdb432591f4f38140a05"}, {"lon": -76.93162666666667, "is_disabled": 0, "lat": 38.89931383333333, "fusion_lat": 0.0, "is_reserved": 0, "rental_uris": {"ios": "https://dc.lft.to/lastmile_qr_scan", "android": "https://dc.lft.to/lastmile_qr_scan"}, "fusion_lon": 0.0, "type": "electric_scooter", "bike_id": "081f5e7da61dc07fcc7dc6d09f84f00f", "name": "081f5e7da61dc07fcc7dc6d09f84f00f"}, {"lon": -77.0014915, "is_disabled": 0, "lat": 38.873148, "fusion_lat": 0.0, "is_reserved": 0, "rental_uris": {"ios": "https://dc.lft.to/lastmile_qr_scan", "android": "https://dc.lft.to/lastmile_qr_scan"}, "fusion_lon": 0.0, "type": "electric_scooter", "bike_id": "f65f7ec2b26ae2021f69a7698db97c25", "name": "f65f7ec2b26ae2021f69a7698db97c25"}, {"lon": -77.09453866666666, "is_disabled": 0, "lat": 38.944921666666666, "fusion_lat": 0.0, "is_reserved": 0, "rental_uris": {"ios": "https://dc.lft.to/lastmile_qr_scan", "android": "https://dc.lft.to/lastmile_qr_scan"}, "fusion_lon": 0.0, "type": "electric_scooter", "bike_id": "37d6b015f833f7596378553e41e8b176", "name": "37d6b015f833f7596378553e41e8b176"}, {"lon": -77.02587083333333, "is_disabled": 0, "lat": 38.942069000000004, "fusion_lat": 0.0, "is_reserved": 0, "rental_uris": {"ios": "https://dc.lft.to/lastmile_qr_scan", "android": "https://dc.lft.to/lastmile_qr_scan"}, "fusion_lon": 0.0, "type": "electric_scooter", "bike_id": "82b898196152d694a1ea20346209b2f4", "name": "82b898196152d694a1ea20346209b2f4"}, {"lon": -77.03299766666666, "is_disabled": 0, "lat": 38.920586166666666, "fusion_lat": 0.0, "is_reserved": 0, "rental_uris": {"ios": "https://dc.lft.to/lastmile_qr_scan", "android": "https://dc.lft.to/lastmile_qr_scan"}, "fusion_lon": 0.0, "type": "electric_scooter", "bike_id": "df0d8eadcd1c861fcabb5182c8ee9dc1", "name": "df0d8eadcd1c861fcabb5182c8ee9dc1"}, {"lon": -77.03736983333333, "is_disabled": 0, "lat": 38.92029566666667, "fusion_lat": 0.0, "is_reserved": 0, "rental_uris": {"ios": "https://dc.lft.to/lastmile_qr_scan", "android": "https://dc.lft.to/lastmile_qr_scan"}, "fusion_lon": 0.0, "type": "electric_scooter", "bike_id": "6e141450756f9882038324df5dd7d31b", "name": "6e141450756f9882038324df5dd7d31b"}, {"lon": -77.04343733333333, "is_disabled": 0, "lat": 38.90728516666667, "fusion_lat": 0.0, "is_reserved": 0, "rental_uris": {"ios": "https://dc.lft.to/lastmile_qr_scan", "android": "https://dc.lft.to/lastmile_qr_scan"}, "fusion_lon": 0.0, "type": "electric_scooter", "bike_id": "59cc74265b64ddd02c1630033ad1fa66", "name": "59cc74265b64ddd02c1630033ad1fa66"}, {"lon": -77.03866966666666, "is_disabled": 0, "lat": 38.932533666666664, "fusion_lat": 0.0, "is_reserved": 0, "rental_uris": {"ios": "https://dc.lft.to/lastmile_qr_scan", "android": "https://dc.lft.to/lastmile_qr_scan"}, "fusion_lon": 0.0, "type": "electric_scooter", "bike_id": "bced10f3d5e0691e124851cf1777522f", "name": "bced10f3d5e0691e124851cf1777522f"}, {"lon": -76.99997533333334, "is_disabled": 0, "lat": 38.96404733333333, "fusion_lat": 0.0, "is_reserved": 0, "rental_uris": {"ios": "https://dc.lft.to/lastmile_qr_scan", "android": "https://dc.lft.to/lastmile_qr_scan"}, "fusion_lon": 0.0, "type": "electric_bike", "bike_id": "7ca2cd49e5a1f91785bd16f8795e7ee1", "name": "7ca2cd49e5a1f91785bd16f8795e7ee1"}, {"lon": -77.062996, "is_disabled": 0, "lat": 38.903957166666665, "fusion_lat": 0.0, "is_reserved": 0, "rental_uris": {"ios": "https://dc.lft.to/lastmile_qr_scan", "android": "https://dc.lft.to/lastmile_qr_scan"}, "fusion_lon": 0.0, "type": "electric_scooter", "bike_id": "a160b2eda03a5676229b1ede36767503", "name": "a160b2eda03a5676229b1ede36767503"}, {"lon": -77.03921266666667, "is_disabled": 0, "lat": 38.91708166666667, "fusion_lat": 0.0, "is_reserved": 0, "rental_uris": {"ios": "https://dc.lft.to/lastmile_qr_scan", "android": "https://dc.lft.to/lastmile_qr_scan"}, "fusion_lon": 0.0, "type": "electric_scooter", "bike_id": "c236b45f7e76bb55634b0feb2d9e4974", "name": "c236b45f7e76bb55634b0feb2d9e4974"}, {"lon": -77.0251485, "is_disabled": 0, "lat": 38.91920116666667, "fusion_lat": 0.0, "is_reserved": 0, "rental_uris": {"ios": "https://dc.lft.to/lastmile_qr_scan", "android": "https://dc.lft.to/lastmile_qr_scan"}, "fusion_lon": 0.0, "type": "electric_scooter", "bike_id": "69a02b053f9eaba60fa37e358683e959", "name": "69a02b053f9eaba60fa37e358683e959"}, {"lon": -77.04862283333334, "is_disabled": 0, "lat": 38.90404933333333, "fusion_lat": 0.0, "is_reserved": 0, "rental_uris": {"ios": "https://dc.lft.to/lastmile_qr_scan", "android": "https://dc.lft.to/lastmile_qr_scan"}, "fusion_lon": 0.0, "type": "electric_scooter", "bike_id": "7434d3abc26827afae0b9537aa30ef36", "name": "7434d3abc26827afae0b9537aa30ef36"}, {"lon": -76.99547683333333, "is_disabled": 0, "lat": 38.90028566666667, "fusion_lat": 0.0, "is_reserved": 0, "rental_uris": {"ios": "https://dc.lft.to/lastmile_qr_scan", "android": "https://dc.lft.to/lastmile_qr_scan"}, "fusion_lon": 0.0, "type": "electric_scooter", "bike_id": "73585092f096925f7d03bf28dc7e2439", "name": "73585092f096925f7d03bf28dc7e2439"}, {"lon": -77.04682083333333, "is_disabled": 0, "lat": 38.89554583333334, "fusion_lat": 0.0, "is_reserved": 0, "rental_uris": {"ios": "https://dc.lft.to/lastmile_qr_scan", "android": "https://dc.lft.to/lastmile_qr_scan"}, "fusion_lon": 0.0, "type": "electric_scooter", "bike_id": "681d725298ab4b122a09128e34d28327", "name": "681d725298ab4b122a09128e34d28327"}, {"lon": -77.0278935, "is_disabled": 0, "lat": 38.8990615, "fusion_lat": 0.0, "is_reserved": 0, "rental_uris": {"ios": "https://dc.lft.to/lastmile_qr_scan", "android": "https://dc.lft.to/lastmile_qr_scan"}, "fusion_lon": 0.0, "type": "electric_scooter", "bike_id": "8f6b2b3d657cd53b9ebac3b7c12ca278", "name": "8f6b2b3d657cd53b9ebac3b7c12ca278"}, {"lon": -77.04829266666667, "is_disabled": 0, "lat": 38.909764333333335, "fusion_lat": 0.0, "is_reserved": 0, "rental_uris": {"ios": "https://dc.lft.to/lastmile_qr_scan", "android": "https://dc.lft.to/lastmile_qr_scan"}, "fusion_lon": 0.0, "type": "electric_scooter", "bike_id": "2621c9b07481d37228b6baa22e30ab0f", "name": "2621c9b07481d37228b6baa22e30ab0f"}, {"lon": -76.98535716666666, "is_disabled": 0, "lat": 38.909543, "fusion_lat": 0.0, "is_reserved": 0, "rental_uris": {"ios": "https://dc.lft.to/lastmile_qr_scan", "android": "https://dc.lft.to/lastmile_qr_scan"}, "fusion_lon": 0.0, "type": "electric_scooter", "bike_id": "39ce00064524f830799bec82a093f693", "name": "39ce00064524f830799bec82a093f693"}, {"lon": -76.96507366666667, "is_disabled": 0, "lat": 38.8765, "fusion_lat": 0.0, "is_reserved": 0, "rental_uris": {"ios": "https://dc.lft.to/lastmile_qr_scan", "android": "https://dc.lft.to/lastmile_qr_scan"}, "fusion_lon": 0.0, "type": "electric_scooter", "bike_id": "0f78172d0010a540488fa090b65b0041", "name": "0f78172d0010a540488fa090b65b0041"}, {"lon": -76.99164683333333, "is_disabled": 0, "lat": 38.90138783333333, "fusion_lat": 0.0, "is_reserved": 0, "rental_uris": {"ios": "https://dc.lft.to/lastmile_qr_scan", "android": "https://dc.lft.to/lastmile_qr_scan"}, "fusion_lon": 0.0, "type": "electric_scooter", "bike_id": "b55c48f7df9e5e09134a002ec4256b6e", "name": "b55c48f7df9e5e09134a002ec4256b6e"}, {"lon": -77.05257833333333, "is_disabled": 0, "lat": 38.92780183333333, "fusion_lat": 0.0, "is_reserved": 0, "rental_uris": {"ios": "https://dc.lft.to/lastmile_qr_scan", "android": "https://dc.lft.to/lastmile_qr_scan"}, "fusion_lon": 0.0, "type": "electric_scooter", "bike_id": "b448c105f8920f50263938f9562a00ea", "name": "b448c105f8920f50263938f9562a00ea"}, {"lon": -77.01393116666667, "is_disabled": 0, "lat": 38.92860366666667, "fusion_lat": 0.0, "is_reserved": 0, "rental_uris": {"ios": "https://dc.lft.to/lastmile_qr_scan", "android": "https://dc.lft.to/lastmile_qr_scan"}, "fusion_lon": 0.0, "type": "electric_scooter", "bike_id": "4b72ac89ccb5fd0fdc166b9bce540432", "name": "4b72ac89ccb5fd0fdc166b9bce540432"}, {"lon": -76.991282, "is_disabled": 0, "lat": 38.90873633333333, "fusion_lat": 0.0, "is_reserved": 0, "rental_uris": {"ios": "https://dc.lft.to/lastmile_qr_scan", "android": "https://dc.lft.to/lastmile_qr_scan"}, "fusion_lon": 0.0, "type": "electric_bike", "bike_id": "2acc418c8f4f541db03f729fd1086679", "name": "2acc418c8f4f541db03f729fd1086679"}, {"lon": -76.94893533333334, "is_disabled": 0, "lat": 38.8953345, "fusion_lat": 0.0, "is_reserved": 0, "rental_uris": {"ios": "https://dc.lft.to/lastmile_qr_scan", "android": "https://dc.lft.to/lastmile_qr_scan"}, "fusion_lon": 0.0, "type": "electric_scooter", "bike_id": "6daaeff90676453e0f26a7cd5ba6d484", "name": "6daaeff90676453e0f26a7cd5ba6d484"}, {"lon": -76.948927, "is_disabled": 0, "lat": 38.8953175, "fusion_lat": 0.0, "is_reserved": 0, "rental_uris": {"ios": "https://dc.lft.to/lastmile_qr_scan", "android": "https://dc.lft.to/lastmile_qr_scan"}, "fusion_lon": 0.0, "type": "electric_scooter", "bike_id": "eaa864f4b243e5f4b4f6106ddede0276", "name": "eaa864f4b243e5f4b4f6106ddede0276"}, {"lon": -77.03340483333334, "is_disabled": 0, "lat": 38.91565816666667, "fusion_lat": 0.0, "is_reserved": 0, "rental_uris": {"ios": "https://dc.lft.to/lastmile_qr_scan", "android": "https://dc.lft.to/lastmile_qr_scan"}, "fusion_lon": 0.0, "type": "electric_scooter", "bike_id": "a6dab542b71a4bfc507b789ea1cda333", "name": "a6dab542b71a4bfc507b789ea1cda333"}, {"lon": -77.0318975, "is_disabled": 0, "lat": 38.89247016666667, "fusion_lat": 0.0, "is_reserved": 0, "rental_uris": {"ios": "https://dc.lft.to/lastmile_qr_scan", "android": "https://dc.lft.to/lastmile_qr_scan"}, "fusion_lon": 0.0, "type": "electric_scooter", "bike_id": "15608d2e6396cf18b44d8d7d4e67d3cd", "name": "15608d2e6396cf18b44d8d7d4e67d3cd"}, {"lon": -77.03209966666667, "is_disabled": 0, "lat": 38.89232033333333, "fusion_lat": 0.0, "is_reserved": 0, "rental_uris": {"ios": "https://dc.lft.to/lastmile_qr_scan", "android": "https://dc.lft.to/lastmile_qr_scan"}, "fusion_lon": 0.0, "type": "electric_scooter", "bike_id": "46ebe9d9a397034b682c05f259bfd2c5", "name": "46ebe9d9a397034b682c05f259bfd2c5"}, {"lon": -76.91598516666667, "is_disabled": 0, "lat": 38.8798785, "fusion_lat": 0.0, "is_reserved": 0, "rental_uris": {"ios": "https://dc.lft.to/lastmile_qr_scan", "android": "https://dc.lft.to/lastmile_qr_scan"}, "fusion_lon": 0.0, "type": "electric_bike", "bike_id": "851f0ca408f09f5e2a473ad7912f1acf", "name": "851f0ca408f09f5e2a473ad7912f1acf"}, {"lon": -77.003415, "is_disabled": 0, "lat": 38.8946465, "fusion_lat": 0.0, "is_reserved": 0, "rental_uris": {"ios": "https://dc.lft.to/lastmile_qr_scan", "android": "https://dc.lft.to/lastmile_qr_scan"}, "fusion_lon": 0.0, "type": "electric_scooter", "bike_id": "22e2608eed07f6ac2e407712a01d6cc2", "name": "22e2608eed07f6ac2e407712a01d6cc2"}, {"lon": -76.997896, "is_disabled": 0, "lat": 38.9087295, "fusion_lat": 0.0, "is_reserved": 0, "rental_uris": {"ios": "https://dc.lft.to/lastmile_qr_scan", "android": "https://dc.lft.to/lastmile_qr_scan"}, "fusion_lon": 0.0, "type": "electric_scooter", "bike_id": "01dfbe58eadb9dc92471b0b4d32fe890", "name": "01dfbe58eadb9dc92471b0b4d32fe890"}, {"lon": -77.04157616666667, "is_disabled": 0, "lat": 38.900402, "fusion_lat": 0.0, "is_reserved": 0, "rental_uris": {"ios": "https://dc.lft.to/lastmile_qr_scan", "android": "https://dc.lft.to/lastmile_qr_scan"}, "fusion_lon": 0.0, "type": "electric_scooter", "bike_id": "7cdcc7299534e4b529088dd4421afbe2", "name": "7cdcc7299534e4b529088dd4421afbe2"}, {"lon": -76.98511666666667, "is_disabled": 0, "lat": 38.903439, "fusion_lat": 0.0, "is_reserved": 0, "rental_uris": {"ios": "https://dc.lft.to/lastmile_qr_scan", "android": "https://dc.lft.to/lastmile_qr_scan"}, "fusion_lon": 0.0, "type": "electric_scooter", "bike_id": "3159daeb648d9f0e0518187995299350", "name": "3159daeb648d9f0e0518187995299350"}, {"lon": -77.0428505, "is_disabled": 0, "lat": 38.915658, "fusion_lat": 0.0, "is_reserved": 0, "rental_uris": {"ios": "https://dc.lft.to/lastmile_qr_scan", "android": "https://dc.lft.to/lastmile_qr_scan"}, "fusion_lon": 0.0, "type": "electric_scooter", "bike_id": "4dc6dab094f85539c3e053cab0f589f9", "name": "4dc6dab094f85539c3e053cab0f589f9"}, {"lon": -77.03320366666667, "is_disabled": 0, "lat": 38.921668, "fusion_lat": 0.0, "is_reserved": 0, "rental_uris": {"ios": "https://dc.lft.to/lastmile_qr_scan", "android": "https://dc.lft.to/lastmile_qr_scan"}, "fusion_lon": 0.0, "type": "electric_scooter", "bike_id": "b868da31b64dfc6ea3647ebb2b6f793e", "name": "b868da31b64dfc6ea3647ebb2b6f793e"}, {"lon": -77.02232666666667, "is_disabled": 0, "lat": 38.901993, "fusion_lat": 0.0, "is_reserved": 0, "rental_uris": {"ios": "https://dc.lft.to/lastmile_qr_scan", "android": "https://dc.lft.to/lastmile_qr_scan"}, "fusion_lon": 0.0, "type": "electric_scooter", "bike_id": "187cb78e826c515e8c237925013a6a53", "name": "187cb78e826c515e8c237925013a6a53"}, {"lon": -77.0320515, "is_disabled": 0, "lat": 38.920121, "fusion_lat": 0.0, "is_reserved": 0, "rental_uris": {"ios": "https://dc.lft.to/lastmile_qr_scan", "android": "https://dc.lft.to/lastmile_qr_scan"}, "fusion_lon": 0.0, "type": "electric_scooter", "bike_id": "bdfb98de3ef8ef55f9b3f242241d9c00", "name": "bdfb98de3ef8ef55f9b3f242241d9c00"}, {"lon": -77.005621, "is_disabled": 0, "lat": 38.90575366666667, "fusion_lat": 0.0, "is_reserved": 0, "rental_uris": {"ios": "https://dc.lft.to/lastmile_qr_scan", "android": "https://dc.lft.to/lastmile_qr_scan"}, "fusion_lon": 0.0, "type": "electric_scooter", "bike_id": "385c3f69b2cf06f058293426d78776ec", "name": "385c3f69b2cf06f058293426d78776ec"}, {"lon": -77.02687533333334, "is_disabled": 0, "lat": 38.89713616666667, "fusion_lat": 0.0, "is_reserved": 0, "rental_uris": {"ios": "https://dc.lft.to/lastmile_qr_scan", "android": "https://dc.lft.to/lastmile_qr_scan"}, "fusion_lon": 0.0, "type": "electric_scooter", "bike_id": "9617d155a14c907ea3ae24cfbd5bc3d3", "name": "9617d155a14c907ea3ae24cfbd5bc3d3"}, {"lon": -77.022801, "is_disabled": 0, "lat": 38.91411633333333, "fusion_lat": 0.0, "is_reserved": 0, "rental_uris": {"ios": "https://dc.lft.to/lastmile_qr_scan", "android": "https://dc.lft.to/lastmile_qr_scan"}, "fusion_lon": 0.0, "type": "electric_scooter", "bike_id": "fb6f3137ec7dc457aef60579713ef939", "name": "fb6f3137ec7dc457aef60579713ef939"}, {"lon": -77.02837333333333, "is_disabled": 0, "lat": 38.88736016666667, "fusion_lat": 0.0, "is_reserved": 0, "rental_uris": {"ios": "https://dc.lft.to/lastmile_qr_scan", "android": "https://dc.lft.to/lastmile_qr_scan"}, "fusion_lon": 0.0, "type": "electric_scooter", "bike_id": "7fad0ccd3676d355744a3a9590ca3880", "name": "7fad0ccd3676d355744a3a9590ca3880"}, {"lon": -77.031802, "is_disabled": 0, "lat": 38.91348033333333, "fusion_lat": 0.0, "is_reserved": 0, "rental_uris": {"ios": "https://dc.lft.to/lastmile_qr_scan", "android": "https://dc.lft.to/lastmile_qr_scan"}, "fusion_lon": 0.0, "type": "electric_scooter", "bike_id": "d58773f9d999e1697e2af281875dcd2a", "name": "d58773f9d999e1697e2af281875dcd2a"}, {"lon": -77.03182116666666, "is_disabled": 0, "lat": 38.919222, "fusion_lat": 0.0, "is_reserved": 0, "rental_uris": {"ios": "https://dc.lft.to/lastmile_qr_scan", "android": "https://dc.lft.to/lastmile_qr_scan"}, "fusion_lon": 0.0, "type": "electric_scooter", "bike_id": "f451c61c07ae3195bfe49acbc1f3d9a5", "name": "f451c61c07ae3195bfe49acbc1f3d9a5"}, {"lon": -77.05887766666666, "is_disabled": 0, "lat": 38.936373, "fusion_lat": 0.0, "is_reserved": 0, "rental_uris": {"ios": "https://dc.lft.to/lastmile_qr_scan", "android": "https://dc.lft.to/lastmile_qr_scan"}, "fusion_lon": 0.0, "type": "electric_scooter", "bike_id": "f35be048b45d0112addb74c462fefc17", "name": "f35be048b45d0112addb74c462fefc17"}, {"lon": -77.0012205, "is_disabled": 0, "lat": 38.83576466666667, "fusion_lat": 0.0, "is_reserved": 0, "rental_uris": {"ios": "https://dc.lft.to/lastmile_qr_scan", "android": "https://dc.lft.to/lastmile_qr_scan"}, "fusion_lon": 0.0, "type": "electric_scooter", "bike_id": "95edbeaf4fdc17b0824fddbd14e85eee", "name": "95edbeaf4fdc17b0824fddbd14e85eee"}, {"lon": -77.038503, "is_disabled": 0, "lat": 38.911535666666666, "fusion_lat": 0.0, "is_reserved": 0, "rental_uris": {"ios": "https://dc.lft.to/lastmile_qr_scan", "android": "https://dc.lft.to/lastmile_qr_scan"}, "fusion_lon": 0.0, "type": "electric_scooter", "bike_id": "d4202934f469306b8ca7c5d937e34129", "name": "d4202934f469306b8ca7c5d937e34129"}, {"lon": -77.02359516666667, "is_disabled": 0, "lat": 38.920513666666665, "fusion_lat": 0.0, "is_reserved": 0, "rental_uris": {"ios": "https://dc.lft.to/lastmile_qr_scan", "android": "https://dc.lft.to/lastmile_qr_scan"}, "fusion_lon": 0.0, "type": "electric_scooter", "bike_id": "c977423341f0da1aea754848128e7eb2", "name": "c977423341f0da1aea754848128e7eb2"}, {"lon": -77.00558666666667, "is_disabled": 0, "lat": 38.8746815, "fusion_lat": 0.0, "is_reserved": 0, "rental_uris": {"ios": "https://dc.lft.to/lastmile_qr_scan", "android": "https://dc.lft.to/lastmile_qr_scan"}, "fusion_lon": 0.0, "type": "electric_scooter", "bike_id": "22767b7806098941837e4336408c9136", "name": "22767b7806098941837e4336408c9136"}, {"lon": -77.0279945, "is_disabled": 0, "lat": 38.8961715, "fusion_lat": 0.0, "is_reserved": 0, "rental_uris": {"ios": "https://dc.lft.to/lastmile_qr_scan", "android": "https://dc.lft.to/lastmile_qr_scan"}, "fusion_lon": 0.0, "type": "electric_scooter", "bike_id": "383076f119049798e6d11aed32f81ab8", "name": "383076f119049798e6d11aed32f81ab8"}, {"lon": -77.02877016666666, "is_disabled": 0, "lat": 38.92485466666667, "fusion_lat": 0.0, "is_reserved": 0, "rental_uris": {"ios": "https://dc.lft.to/lastmile_qr_scan", "android": "https://dc.lft.to/lastmile_qr_scan"}, "fusion_lon": 0.0, "type": "electric_scooter", "bike_id": "05257cb0424a59bc957713e1ed5ab23e", "name": "05257cb0424a59bc957713e1ed5ab23e"}, {"lon": -77.03346666666667, "is_disabled": 0, "lat": 38.892425333333335, "fusion_lat": 0.0, "is_reserved": 0, "rental_uris": {"ios": "https://dc.lft.to/lastmile_qr_scan", "android": "https://dc.lft.to/lastmile_qr_scan"}, "fusion_lon": 0.0, "type": "electric_scooter", "bike_id": "b0858f82a6dc3789ed8882c3d64efcef", "name": "b0858f82a6dc3789ed8882c3d64efcef"}, {"lon": -77.0402515, "is_disabled": 0, "lat": 38.91716783333333, "fusion_lat": 0.0, "is_reserved": 0, "rental_uris": {"ios": "https://dc.lft.to/lastmile_qr_scan", "android": "https://dc.lft.to/lastmile_qr_scan"}, "fusion_lon": 0.0, "type": "electric_scooter", "bike_id": "895346ccdefdb9d9faebda26ed7f2b2b", "name": "895346ccdefdb9d9faebda26ed7f2b2b"}, {"lon": -76.92045566666667, "is_disabled": 0, "lat": 38.89743, "fusion_lat": 0.0, "is_reserved": 0, "rental_uris": {"ios": "https://dc.lft.to/lastmile_qr_scan", "android": "https://dc.lft.to/lastmile_qr_scan"}, "fusion_lon": 0.0, "type": "electric_bike", "bike_id": "a0652af175557995699ddca9eb53ab16", "name": "a0652af175557995699ddca9eb53ab16"}, {"lon": -77.07251783333334, "is_disabled": 0, "lat": 38.93957783333333, "fusion_lat": 0.0, "is_reserved": 0, "rental_uris": {"ios": "https://dc.lft.to/lastmile_qr_scan", "android": "https://dc.lft.to/lastmile_qr_scan"}, "fusion_lon": 0.0, "type": "electric_scooter", "bike_id": "9e5664f94217f4cb263a21448402b002", "name": "9e5664f94217f4cb263a21448402b002"}, {"lon": -77.017772, "is_disabled": 0, "lat": 38.887112, "fusion_lat": 0.0, "is_reserved": 0, "rental_uris": {"ios": "https://dc.lft.to/lastmile_qr_scan", "android": "https://dc.lft.to/lastmile_qr_scan"}, "fusion_lon": 0.0, "type": "electric_scooter", "bike_id": "8ee4c17ca58b1a7dda859b8ff5c5431c", "name": "8ee4c17ca58b1a7dda859b8ff5c5431c"}, {"lon": -77.01727983333333, "is_disabled": 0, "lat": 38.887433, "fusion_lat": 0.0, "is_reserved": 0, "rental_uris": {"ios": "https://dc.lft.to/lastmile_qr_scan", "android": "https://dc.lft.to/lastmile_qr_scan"}, "fusion_lon": 0.0, "type": "electric_scooter", "bike_id": "b95354d6fda239352c073c37b3097723", "name": "b95354d6fda239352c073c37b3097723"}, {"lon": -77.08866516666667, "is_disabled": 0, "lat": 38.91638666666667, "fusion_lat": 0.0, "is_reserved": 0, "rental_uris": {"ios": "https://dc.lft.to/lastmile_qr_scan", "android": "https://dc.lft.to/lastmile_qr_scan"}, "fusion_lon": 0.0, "type": "electric_scooter", "bike_id": "a286f2c186ab919b9b3f420666eb8840", "name": "a286f2c186ab919b9b3f420666eb8840"}, {"lon": -77.02945916666667, "is_disabled": 0, "lat": 38.90500566666667, "fusion_lat": 0.0, "is_reserved": 0, "rental_uris": {"ios": "https://dc.lft.to/lastmile_qr_scan", "android": "https://dc.lft.to/lastmile_qr_scan"}, "fusion_lon": 0.0, "type": "electric_scooter", "bike_id": "59fc827a7e6698c7d26b33497a565748", "name": "59fc827a7e6698c7d26b33497a565748"}, {"lon": -77.048705, "is_disabled": 0, "lat": 38.90646666666667, "fusion_lat": 0.0, "is_reserved": 0, "rental_uris": {"ios": "https://dc.lft.to/lastmile_qr_scan", "android": "https://dc.lft.to/lastmile_qr_scan"}, "fusion_lon": 0.0, "type": "electric_scooter", "bike_id": "d0af863381a5b93e9df6ff745857f676", "name": "d0af863381a5b93e9df6ff745857f676"}, {"lon": -77.00882783333333, "is_disabled": 0, "lat": 38.900681666666664, "fusion_lat": 0.0, "is_reserved": 0, "rental_uris": {"ios": "https://dc.lft.to/lastmile_qr_scan", "android": "https://dc.lft.to/lastmile_qr_scan"}, "fusion_lon": 0.0, "type": "electric_scooter", "bike_id": "7dc561633de9da223624863a12a97cfe", "name": "7dc561633de9da223624863a12a97cfe"}, {"lon": -77.03186633333334, "is_disabled": 0, "lat": 38.91919383333333, "fusion_lat": 0.0, "is_reserved": 0, "rental_uris": {"ios": "https://dc.lft.to/lastmile_qr_scan", "android": "https://dc.lft.to/lastmile_qr_scan"}, "fusion_lon": 0.0, "type": "electric_scooter", "bike_id": "676f74a1665c06868944284dbadd4337", "name": "676f74a1665c06868944284dbadd4337"}, {"lon": -77.037367, "is_disabled": 0, "lat": 38.92492383333333, "fusion_lat": 0.0, "is_reserved": 0, "rental_uris": {"ios": "https://dc.lft.to/lastmile_qr_scan", "android": "https://dc.lft.to/lastmile_qr_scan"}, "fusion_lon": 0.0, "type": "electric_scooter", "bike_id": "2f16bbe97d0db85744ff358c6cd82091", "name": "2f16bbe97d0db85744ff358c6cd82091"}, {"lon": -77.0236725, "is_disabled": 0, "lat": 38.915525833333334, "fusion_lat": 0.0, "is_reserved": 0, "rental_uris": {"ios": "https://dc.lft.to/lastmile_qr_scan", "android": "https://dc.lft.to/lastmile_qr_scan"}, "fusion_lon": 0.0, "type": "electric_scooter", "bike_id": "b445e6353cf6e52bb4c8ef0f54917b51", "name": "b445e6353cf6e52bb4c8ef0f54917b51"}, {"lon": -77.02346966666667, "is_disabled": 0, "lat": 38.92043183333333, "fusion_lat": 0.0, "is_reserved": 0, "rental_uris": {"ios": "https://dc.lft.to/lastmile_qr_scan", "android": "https://dc.lft.to/lastmile_qr_scan"}, "fusion_lon": 0.0, "type": "electric_scooter", "bike_id": "6c1f5548911eeb9e8d4347fafd9d8d5d", "name": "6c1f5548911eeb9e8d4347fafd9d8d5d"}, {"lon": -77.03211883333333, "is_disabled": 0, "lat": 38.899696166666665, "fusion_lat": 0.0, "is_reserved": 0, "rental_uris": {"ios": "https://dc.lft.to/lastmile_qr_scan", "android": "https://dc.lft.to/lastmile_qr_scan"}, "fusion_lon": 0.0, "type": "electric_scooter", "bike_id": "4abdc8454c3395acf69b69a3a386cd83", "name": "4abdc8454c3395acf69b69a3a386cd83"}, {"lon": -77.03339566666666, "is_disabled": 0, "lat": 38.917106, "fusion_lat": 0.0, "is_reserved": 0, "rental_uris": {"ios": "https://dc.lft.to/lastmile_qr_scan", "android": "https://dc.lft.to/lastmile_qr_scan"}, "fusion_lon": 0.0, "type": "electric_scooter", "bike_id": "8c6bc54d375174a0649abf8bc60a3ae2", "name": "8c6bc54d375174a0649abf8bc60a3ae2"}, {"lon": -77.0277505, "is_disabled": 0, "lat": 38.928700166666665, "fusion_lat": 0.0, "is_reserved": 0, "rental_uris": {"ios": "https://dc.lft.to/lastmile_qr_scan", "android": "https://dc.lft.to/lastmile_qr_scan"}, "fusion_lon": 0.0, "type": "electric_scooter", "bike_id": "3ec7057a193a249040ff0d678d68dcbb", "name": "3ec7057a193a249040ff0d678d68dcbb"}, {"lon": -77.05002866666666, "is_disabled": 0, "lat": 38.8923455, "fusion_lat": 0.0, "is_reserved": 0, "rental_uris": {"ios": "https://dc.lft.to/lastmile_qr_scan", "android": "https://dc.lft.to/lastmile_qr_scan"}, "fusion_lon": 0.0, "type": "electric_scooter", "bike_id": "ea1f6e7058e00eddd59181fc9e0d5455", "name": "ea1f6e7058e00eddd59181fc9e0d5455"}, {"lon": -76.98568433333334, "is_disabled": 0, "lat": 38.89996716666667, "fusion_lat": 0.0, "is_reserved": 0, "rental_uris": {"ios": "https://dc.lft.to/lastmile_qr_scan", "android": "https://dc.lft.to/lastmile_qr_scan"}, "fusion_lon": 0.0, "type": "electric_scooter", "bike_id": "99c8ce591762b96587f73461199ebf97", "name": "99c8ce591762b96587f73461199ebf97"}, {"lon": -77.02279233333333, "is_disabled": 0, "lat": 38.92733466666667, "fusion_lat": 0.0, "is_reserved": 0, "rental_uris": {"ios": "https://dc.lft.to/lastmile_qr_scan", "android": "https://dc.lft.to/lastmile_qr_scan"}, "fusion_lon": 0.0, "type": "electric_scooter", "bike_id": "54b321f061d56b875801844f5f90879c", "name": "54b321f061d56b875801844f5f90879c"}, {"lon": -77.023899, "is_disabled": 0, "lat": 38.9126855, "fusion_lat": 0.0, "is_reserved": 0, "rental_uris": {"ios": "https://dc.lft.to/lastmile_qr_scan", "android": "https://dc.lft.to/lastmile_qr_scan"}, "fusion_lon": 0.0, "type": "electric_scooter", "bike_id": "0457f88e8c2a4a1274186c1b7fed3028", "name": "0457f88e8c2a4a1274186c1b7fed3028"}, {"lon": -76.956318, "is_disabled": 0, "lat": 38.8851885, "fusion_lat": 0.0, "is_reserved": 0, "rental_uris": {"ios": "https://dc.lft.to/lastmile_qr_scan", "android": "https://dc.lft.to/lastmile_qr_scan"}, "fusion_lon": 0.0, "type": "electric_bike", "bike_id": "37d33edef716251434311e50b06b067f", "name": "37d33edef716251434311e50b06b067f"}, {"lon": -77.039961, "is_disabled": 0, "lat": 38.90787816666667, "fusion_lat": 0.0, "is_reserved": 0, "rental_uris": {"ios": "https://dc.lft.to/lastmile_qr_scan", "android": "https://dc.lft.to/lastmile_qr_scan"}, "fusion_lon": 0.0, "type": "electric_scooter", "bike_id": "00111c0ab6f7248ee4f7bad766ff396a", "name": "00111c0ab6f7248ee4f7bad766ff396a"}, {"lon": -77.0014005, "is_disabled": 0, "lat": 38.90512433333333, "fusion_lat": 0.0, "is_reserved": 0, "rental_uris": {"ios": "https://dc.lft.to/lastmile_qr_scan", "android": "https://dc.lft.to/lastmile_qr_scan"}, "fusion_lon": 0.0, "type": "electric_scooter", "bike_id": "f01c3d33d262f6bf553f9492f24007f5", "name": "f01c3d33d262f6bf553f9492f24007f5"}, {"lon": -77.0230715, "is_disabled": 0, "lat": 38.920627333333336, "fusion_lat": 0.0, "is_reserved": 0, "rental_uris": {"ios": "https://dc.lft.to/lastmile_qr_scan", "android": "https://dc.lft.to/lastmile_qr_scan"}, "fusion_lon": 0.0, "type": "electric_scooter", "bike_id": "5623976dea3add18f2ee466c7699b2bf", "name": "5623976dea3add18f2ee466c7699b2bf"}, {"lon": -77.0248545, "is_disabled": 0, "lat": 38.9025175, "fusion_lat": 0.0, "is_reserved": 0, "rental_uris": {"ios": "https://dc.lft.to/lastmile_qr_scan", "android": "https://dc.lft.to/lastmile_qr_scan"}, "fusion_lon": 0.0, "type": "electric_scooter", "bike_id": "d45f7515774167f60765e278455fe400", "name": "d45f7515774167f60765e278455fe400"}, {"lon": -77.01658383333333, "is_disabled": 0, "lat": 38.8814295, "fusion_lat": 0.0, "is_reserved": 0, "rental_uris": {"ios": "https://dc.lft.to/lastmile_qr_scan", "android": "https://dc.lft.to/lastmile_qr_scan"}, "fusion_lon": 0.0, "type": "electric_scooter", "bike_id": "d73077d352a9836c7a0ba00430fb068d", "name": "d73077d352a9836c7a0ba00430fb068d"}, {"lon": -77.18123833333334, "is_disabled": 0, "lat": 38.93225566666667, "fusion_lat": 0.0, "is_reserved": 0, "rental_uris": {"ios": "https://dc.lft.to/lastmile_qr_scan", "android": "https://dc.lft.to/lastmile_qr_scan"}, "fusion_lon": 0.0, "type": "electric_bike", "bike_id": "fa1eee17fdb4a477e81961297a5826cb", "name": "fa1eee17fdb4a477e81961297a5826cb"}, {"lon": -77.03829733333333, "is_disabled": 0, "lat": 38.9125785, "fusion_lat": 0.0, "is_reserved": 0, "rental_uris": {"ios": "https://dc.lft.to/lastmile_qr_scan", "android": "https://dc.lft.to/lastmile_qr_scan"}, "fusion_lon": 0.0, "type": "electric_scooter", "bike_id": "af12a07f5fe1804f9d984ee4d31f4808", "name": "af12a07f5fe1804f9d984ee4d31f4808"}, {"lon": -77.02693366666666, "is_disabled": 0, "lat": 38.925685333333334, "fusion_lat": 0.0, "is_reserved": 0, "rental_uris": {"ios": "https://dc.lft.to/lastmile_qr_scan", "android": "https://dc.lft.to/lastmile_qr_scan"}, "fusion_lon": 0.0, "type": "electric_scooter", "bike_id": "cc225e533f1c0a88eb53fdbc661125fe", "name": "cc225e533f1c0a88eb53fdbc661125fe"}, {"lon": -76.98000916666666, "is_disabled": 0, "lat": 38.906821, "fusion_lat": 0.0, "is_reserved": 0, "rental_uris": {"ios": "https://dc.lft.to/lastmile_qr_scan", "android": "https://dc.lft.to/lastmile_qr_scan"}, "fusion_lon": 0.0, "type": "electric_scooter", "bike_id": "144c84677c5df21f67fb1b7af8bf9fa2", "name": "144c84677c5df21f67fb1b7af8bf9fa2"}, {"lon": -77.03862683333334, "is_disabled": 0, "lat": 38.9171355, "fusion_lat": 0.0, "is_reserved": 0, "rental_uris": {"ios": "https://dc.lft.to/lastmile_qr_scan", "android": "https://dc.lft.to/lastmile_qr_scan"}, "fusion_lon": 0.0, "type": "electric_scooter", "bike_id": "a33f71ab3865c854520621dd036504fb", "name": "a33f71ab3865c854520621dd036504fb"}, {"lon": -77.03858616666666, "is_disabled": 0, "lat": 38.907127833333334, "fusion_lat": 0.0, "is_reserved": 0, "rental_uris": {"ios": "https://dc.lft.to/lastmile_qr_scan", "android": "https://dc.lft.to/lastmile_qr_scan"}, "fusion_lon": 0.0, "type": "electric_scooter", "bike_id": "a04184a43f491e3f29c08f1d3f72d391", "name": "a04184a43f491e3f29c08f1d3f72d391"}, {"lon": -77.00124333333333, "is_disabled": 0, "lat": 38.8736625, "fusion_lat": 0.0, "is_reserved": 0, "rental_uris": {"ios": "https://dc.lft.to/lastmile_qr_scan", "android": "https://dc.lft.to/lastmile_qr_scan"}, "fusion_lon": 0.0, "type": "electric_scooter", "bike_id": "f6fcac8537085a13573258a7467a1884", "name": "f6fcac8537085a13573258a7467a1884"}, {"lon": -77.03220316666666, "is_disabled": 0, "lat": 38.95790566666667, "fusion_lat": 0.0, "is_reserved": 0, "rental_uris": {"ios": "https://dc.lft.to/lastmile_qr_scan", "android": "https://dc.lft.to/lastmile_qr_scan"}, "fusion_lon": 0.0, "type": "electric_scooter", "bike_id": "5b9b0fd0c3d0b64fc2c42d2cdf7110ed", "name": "5b9b0fd0c3d0b64fc2c42d2cdf7110ed"}, {"lon": -77.03839066666667, "is_disabled": 0, "lat": 38.91560366666667, "fusion_lat": 0.0, "is_reserved": 0, "rental_uris": {"ios": "https://dc.lft.to/lastmile_qr_scan", "android": "https://dc.lft.to/lastmile_qr_scan"}, "fusion_lon": 0.0, "type": "electric_scooter", "bike_id": "b1f6f07bf7323f8aa32ab587286e959c", "name": "b1f6f07bf7323f8aa32ab587286e959c"}, {"lon": -77.06471866666666, "is_disabled": 0, "lat": 38.97380716666667, "fusion_lat": 0.0, "is_reserved": 0, "rental_uris": {"ios": "https://dc.lft.to/lastmile_qr_scan", "android": "https://dc.lft.to/lastmile_qr_scan"}, "fusion_lon": 0.0, "type": "electric_bike", "bike_id": "d70011859ef5b92b06d33bf5532ef214", "name": "d70011859ef5b92b06d33bf5532ef214"}, {"lon": -76.9981915, "is_disabled": 0, "lat": 38.885298666666664, "fusion_lat": 0.0, "is_reserved": 0, "rental_uris": {"ios": "https://dc.lft.to/lastmile_qr_scan", "android": "https://dc.lft.to/lastmile_qr_scan"}, "fusion_lon": 0.0, "type": "electric_scooter", "bike_id": "cc6014bc26e71daddb032de905494105", "name": "cc6014bc26e71daddb032de905494105"}, {"lon": -77.03180083333334, "is_disabled": 0, "lat": 38.91746966666667, "fusion_lat": 0.0, "is_reserved": 0, "rental_uris": {"ios": "https://dc.lft.to/lastmile_qr_scan", "android": "https://dc.lft.to/lastmile_qr_scan"}, "fusion_lon": 0.0, "type": "electric_scooter", "bike_id": "35599de92cd26b6c851534df860aca3d", "name": "35599de92cd26b6c851534df860aca3d"}, {"lon": -77.02295783333334, "is_disabled": 0, "lat": 38.9161115, "fusion_lat": 0.0, "is_reserved": 0, "rental_uris": {"ios": "https://dc.lft.to/lastmile_qr_scan", "android": "https://dc.lft.to/lastmile_qr_scan"}, "fusion_lon": 0.0, "type": "electric_scooter", "bike_id": "d0036acc2cb93bfdfe54658e0eb0165c", "name": "d0036acc2cb93bfdfe54658e0eb0165c"}, {"lon": -77.027924, "is_disabled": 0, "lat": 38.90105483333333, "fusion_lat": 0.0, "is_reserved": 0, "rental_uris": {"ios": "https://dc.lft.to/lastmile_qr_scan", "android": "https://dc.lft.to/lastmile_qr_scan"}, "fusion_lon": 0.0, "type": "electric_scooter", "bike_id": "592d1cd084b925d7aa9176099586cf87", "name": "592d1cd084b925d7aa9176099586cf87"}, {"lon": -77.00644283333334, "is_disabled": 0, "lat": 38.91550016666667, "fusion_lat": 0.0, "is_reserved": 0, "rental_uris": {"ios": "https://dc.lft.to/lastmile_qr_scan", "android": "https://dc.lft.to/lastmile_qr_scan"}, "fusion_lon": 0.0, "type": "electric_scooter", "bike_id": "65fcb620b3ac7da02694e95f53de0e5d", "name": "65fcb620b3ac7da02694e95f53de0e5d"}, {"lon": -77.02502033333333, "is_disabled": 0, "lat": 38.88436383333333, "fusion_lat": 0.0, "is_reserved": 0, "rental_uris": {"ios": "https://dc.lft.to/lastmile_qr_scan", "android": "https://dc.lft.to/lastmile_qr_scan"}, "fusion_lon": 0.0, "type": "electric_scooter", "bike_id": "590d4da6bdf0f7aea6ba85bb38e4ad65", "name": "590d4da6bdf0f7aea6ba85bb38e4ad65"}, {"lon": -77.02960933333334, "is_disabled": 0, "lat": 38.92261633333333, "fusion_lat": 0.0, "is_reserved": 0, "rental_uris": {"ios": "https://dc.lft.to/lastmile_qr_scan", "android": "https://dc.lft.to/lastmile_qr_scan"}, "fusion_lon": 0.0, "type": "electric_scooter", "bike_id": "1ed69eb3dca42e5020464253cf900d08", "name": "1ed69eb3dca42e5020464253cf900d08"}, {"lon": -77.02584483333334, "is_disabled": 0, "lat": 38.9420775, "fusion_lat": 0.0, "is_reserved": 0, "rental_uris": {"ios": "https://dc.lft.to/lastmile_qr_scan", "android": "https://dc.lft.to/lastmile_qr_scan"}, "fusion_lon": 0.0, "type": "electric_scooter", "bike_id": "4f5c29d1849dfce80670062bd51f4108", "name": "4f5c29d1849dfce80670062bd51f4108"}, {"lon": -77.0307275, "is_disabled": 0, "lat": 38.917099666666665, "fusion_lat": 0.0, "is_reserved": 0, "rental_uris": {"ios": "https://dc.lft.to/lastmile_qr_scan", "android": "https://dc.lft.to/lastmile_qr_scan"}, "fusion_lon": 0.0, "type": "electric_scooter", "bike_id": "28d385d4a52a712e3e7960bb068ec8a4", "name": "28d385d4a52a712e3e7960bb068ec8a4"}, {"lon": -77.00077533333334, "is_disabled": 0, "lat": 38.873897166666666, "fusion_lat": 0.0, "is_reserved": 0, "rental_uris": {"ios": "https://dc.lft.to/lastmile_qr_scan", "android": "https://dc.lft.to/lastmile_qr_scan"}, "fusion_lon": 0.0, "type": "electric_scooter", "bike_id": "c9c4eff70a263bfdb2f66ba1d1052416", "name": "c9c4eff70a263bfdb2f66ba1d1052416"}, {"lon": -76.977246, "is_disabled": 0, "lat": 38.87238833333333, "fusion_lat": 0.0, "is_reserved": 0, "rental_uris": {"ios": "https://dc.lft.to/lastmile_qr_scan", "android": "https://dc.lft.to/lastmile_qr_scan"}, "fusion_lon": 0.0, "type": "electric_scooter", "bike_id": "84f1dc29a81b1931097909fd1b5ee10f", "name": "84f1dc29a81b1931097909fd1b5ee10f"}, {"lon": -77.02465016666666, "is_disabled": 0, "lat": 38.89741516666667, "fusion_lat": 0.0, "is_reserved": 0, "rental_uris": {"ios": "https://dc.lft.to/lastmile_qr_scan", "android": "https://dc.lft.to/lastmile_qr_scan"}, "fusion_lon": 0.0, "type": "electric_scooter", "bike_id": "d5d465d526691d7d164fdcc6c66cb45a", "name": "d5d465d526691d7d164fdcc6c66cb45a"}, {"lon": -77.0043705, "is_disabled": 0, "lat": 38.99009366666667, "fusion_lat": 0.0, "is_reserved": 0, "rental_uris": {"ios": "https://dc.lft.to/lastmile_qr_scan", "android": "https://dc.lft.to/lastmile_qr_scan"}, "fusion_lon": 0.0, "type": "electric_bike", "bike_id": "e0a339365d25a49f34bf3f792842c27b", "name": "e0a339365d25a49f34bf3f792842c27b"}, {"lon": -77.04956283333334, "is_disabled": 0, "lat": 38.900992333333335, "fusion_lat": 0.0, "is_reserved": 0, "rental_uris": {"ios": "https://dc.lft.to/lastmile_qr_scan", "android": "https://dc.lft.to/lastmile_qr_scan"}, "fusion_lon": 0.0, "type": "electric_scooter", "bike_id": "d4b9f7b2ac2cff788e69ad991b68ebdd", "name": "d4b9f7b2ac2cff788e69ad991b68ebdd"}, {"lon": -76.97396883333333, "is_disabled": 0, "lat": 38.845278, "fusion_lat": 0.0, "is_reserved": 0, "rental_uris": {"ios": "https://dc.lft.to/lastmile_qr_scan", "android": "https://dc.lft.to/lastmile_qr_scan"}, "fusion_lon": 0.0, "type": "electric_bike", "bike_id": "e23fcb0026230c84a042c2b6c5ff4379", "name": "e23fcb0026230c84a042c2b6c5ff4379"}, {"lon": -77.08353366666667, "is_disabled": 0, "lat": 38.92964333333333, "fusion_lat": 0.0, "is_reserved": 0, "rental_uris": {"ios": "https://dc.lft.to/lastmile_qr_scan", "android": "https://dc.lft.to/lastmile_qr_scan"}, "fusion_lon": 0.0, "type": "electric_scooter", "bike_id": "d31a1deb259f6360d2d7950d2e022b62", "name": "d31a1deb259f6360d2d7950d2e022b62"}, {"lon": -77.0108525, "is_disabled": 0, "lat": 38.917482666666665, "fusion_lat": 0.0, "is_reserved": 0, "rental_uris": {"ios": "https://dc.lft.to/lastmile_qr_scan", "android": "https://dc.lft.to/lastmile_qr_scan"}, "fusion_lon": 0.0, "type": "electric_scooter", "bike_id": "d4565ab3cde7b21d2035ee78b66825eb", "name": "d4565ab3cde7b21d2035ee78b66825eb"}, {"lon": -77.03442566666666, "is_disabled": 0, "lat": 38.90737883333333, "fusion_lat": 0.0, "is_reserved": 0, "rental_uris": {"ios": "https://dc.lft.to/lastmile_qr_scan", "android": "https://dc.lft.to/lastmile_qr_scan"}, "fusion_lon": 0.0, "type": "electric_scooter", "bike_id": "b988d2a72c356e032eb4b6d71362b46c", "name": "b988d2a72c356e032eb4b6d71362b46c"}, {"lon": -77.0237805, "is_disabled": 0, "lat": 38.917629833333336, "fusion_lat": 0.0, "is_reserved": 0, "rental_uris": {"ios": "https://dc.lft.to/lastmile_qr_scan", "android": "https://dc.lft.to/lastmile_qr_scan"}, "fusion_lon": 0.0, "type": "electric_scooter", "bike_id": "6384868eb4c74a1c1c62badbe4100492", "name": "6384868eb4c74a1c1c62badbe4100492"}, {"lon": -77.02453216666666, "is_disabled": 0, "lat": 38.91865966666667, "fusion_lat": 0.0, "is_reserved": 0, "rental_uris": {"ios": "https://dc.lft.to/lastmile_qr_scan", "android": "https://dc.lft.to/lastmile_qr_scan"}, "fusion_lon": 0.0, "type": "electric_scooter", "bike_id": "62edb0bfd06ab611815f015c9df82fd3", "name": "62edb0bfd06ab611815f015c9df82fd3"}, {"lon": -76.99868066666667, "is_disabled": 0, "lat": 38.910111, "fusion_lat": 0.0, "is_reserved": 0, "rental_uris": {"ios": "https://dc.lft.to/lastmile_qr_scan", "android": "https://dc.lft.to/lastmile_qr_scan"}, "fusion_lon": 0.0, "type": "electric_scooter", "bike_id": "a20c3c68401d6f7497d5b4f4463252ea", "name": "a20c3c68401d6f7497d5b4f4463252ea"}, {"lon": -77.0345635, "is_disabled": 0, "lat": 38.90737333333333, "fusion_lat": 0.0, "is_reserved": 0, "rental_uris": {"ios": "https://dc.lft.to/lastmile_qr_scan", "android": "https://dc.lft.to/lastmile_qr_scan"}, "fusion_lon": 0.0, "type": "electric_scooter", "bike_id": "70d230025c3cc47b7c9c09125a66da0b", "name": "70d230025c3cc47b7c9c09125a66da0b"}, {"lon": -77.02387116666667, "is_disabled": 0, "lat": 38.91292716666667, "fusion_lat": 0.0, "is_reserved": 0, "rental_uris": {"ios": "https://dc.lft.to/lastmile_qr_scan", "android": "https://dc.lft.to/lastmile_qr_scan"}, "fusion_lon": 0.0, "type": "electric_scooter", "bike_id": "301ac68e077720c22bc39be12dfd02b4", "name": "301ac68e077720c22bc39be12dfd02b4"}, {"lon": -77.03183833333334, "is_disabled": 0, "lat": 38.9087725, "fusion_lat": 0.0, "is_reserved": 0, "rental_uris": {"ios": "https://dc.lft.to/lastmile_qr_scan", "android": "https://dc.lft.to/lastmile_qr_scan"}, "fusion_lon": 0.0, "type": "electric_scooter", "bike_id": "6953fa2175f659d588576f3ceac631e4", "name": "6953fa2175f659d588576f3ceac631e4"}, {"lon": -76.99840966666666, "is_disabled": 0, "lat": 38.9005575, "fusion_lat": 0.0, "is_reserved": 0, "rental_uris": {"ios": "https://dc.lft.to/lastmile_qr_scan", "android": "https://dc.lft.to/lastmile_qr_scan"}, "fusion_lon": 0.0, "type": "electric_scooter", "bike_id": "4e40e6394df8feb5b07c57429e003945", "name": "4e40e6394df8feb5b07c57429e003945"}, {"lon": -76.94570466666667, "is_disabled": 0, "lat": 38.86619316666667, "fusion_lat": 0.0, "is_reserved": 0, "rental_uris": {"ios": "https://dc.lft.to/lastmile_qr_scan", "android": "https://dc.lft.to/lastmile_qr_scan"}, "fusion_lon": 0.0, "type": "electric_bike", "bike_id": "c92fee7b857edc0f0495b86031343631", "name": "c92fee7b857edc0f0495b86031343631"}, {"lon": -77.0416135, "is_disabled": 0, "lat": 38.901369333333335, "fusion_lat": 0.0, "is_reserved": 0, "rental_uris": {"ios": "https://dc.lft.to/lastmile_qr_scan", "android": "https://dc.lft.to/lastmile_qr_scan"}, "fusion_lon": 0.0, "type": "electric_scooter", "bike_id": "33e841f9ab346a6a0dcd855865958b26", "name": "33e841f9ab346a6a0dcd855865958b26"}, {"lon": -76.97682816666666, "is_disabled": 0, "lat": 38.8989915, "fusion_lat": 0.0, "is_reserved": 0, "rental_uris": {"ios": "https://dc.lft.to/lastmile_qr_scan", "android": "https://dc.lft.to/lastmile_qr_scan"}, "fusion_lon": 0.0, "type": "electric_scooter", "bike_id": "0220c9cb93d35293836a11d269a62502", "name": "0220c9cb93d35293836a11d269a62502"}, {"lon": -77.00680133333333, "is_disabled": 0, "lat": 38.871715333333334, "fusion_lat": 0.0, "is_reserved": 0, "rental_uris": {"ios": "https://dc.lft.to/lastmile_qr_scan", "android": "https://dc.lft.to/lastmile_qr_scan"}, "fusion_lon": 0.0, "type": "electric_scooter", "bike_id": "e1c1de7f78970c9c880144a5763d92d6", "name": "e1c1de7f78970c9c880144a5763d92d6"}, {"lon": -76.94895416666667, "is_disabled": 0, "lat": 38.89534283333333, "fusion_lat": 0.0, "is_reserved": 0, "rental_uris": {"ios": "https://dc.lft.to/lastmile_qr_scan", "android": "https://dc.lft.to/lastmile_qr_scan"}, "fusion_lon": 0.0, "type": "electric_scooter", "bike_id": "23e87332be51fda1f0578d5e93849313", "name": "23e87332be51fda1f0578d5e93849313"}, {"lon": -77.04543766666667, "is_disabled": 0, "lat": 38.91321033333333, "fusion_lat": 0.0, "is_reserved": 0, "rental_uris": {"ios": "https://dc.lft.to/lastmile_qr_scan", "android": "https://dc.lft.to/lastmile_qr_scan"}, "fusion_lon": 0.0, "type": "electric_scooter", "bike_id": "7ccacc9edfdb67f167d38d61ec8a8d9c", "name": "7ccacc9edfdb67f167d38d61ec8a8d9c"}, {"lon": -77.02393033333334, "is_disabled": 0, "lat": 38.91552083333333, "fusion_lat": 0.0, "is_reserved": 0, "rental_uris": {"ios": "https://dc.lft.to/lastmile_qr_scan", "android": "https://dc.lft.to/lastmile_qr_scan"}, "fusion_lon": 0.0, "type": "electric_scooter", "bike_id": "fb4aa5bb26417a9e4f1bdcb8b7e7d8f7", "name": "fb4aa5bb26417a9e4f1bdcb8b7e7d8f7"}, {"lon": -77.069398, "is_disabled": 0, "lat": 38.95223983333333, "fusion_lat": 0.0, "is_reserved": 0, "rental_uris": {"ios": "https://dc.lft.to/lastmile_qr_scan", "android": "https://dc.lft.to/lastmile_qr_scan"}, "fusion_lon": 0.0, "type": "electric_scooter", "bike_id": "a9aea08764f6e1748d89e3b001963137", "name": "a9aea08764f6e1748d89e3b001963137"}, {"lon": -77.03218733333334, "is_disabled": 0, "lat": 38.9200095, "fusion_lat": 0.0, "is_reserved": 0, "rental_uris": {"ios": "https://dc.lft.to/lastmile_qr_scan", "android": "https://dc.lft.to/lastmile_qr_scan"}, "fusion_lon": 0.0, "type": "electric_scooter", "bike_id": "f48728bcdb6191675118503d56cbfc88", "name": "f48728bcdb6191675118503d56cbfc88"}, {"lon": -77.035197, "is_disabled": 0, "lat": 38.92239466666667, "fusion_lat": 0.0, "is_reserved": 0, "rental_uris": {"ios": "https://dc.lft.to/lastmile_qr_scan", "android": "https://dc.lft.to/lastmile_qr_scan"}, "fusion_lon": 0.0, "type": "electric_scooter", "bike_id": "c6f31d852f36d16dd908ed4985b4ffac", "name": "c6f31d852f36d16dd908ed4985b4ffac"}, {"lon": -77.046258, "is_disabled": 0, "lat": 38.903405666666664, "fusion_lat": 0.0, "is_reserved": 0, "rental_uris": {"ios": "https://dc.lft.to/lastmile_qr_scan", "android": "https://dc.lft.to/lastmile_qr_scan"}, "fusion_lon": 0.0, "type": "electric_scooter", "bike_id": "d316c075f57759862d702ff4ffbf7600", "name": "d316c075f57759862d702ff4ffbf7600"}, {"lon": -77.00519383333334, "is_disabled": 0, "lat": 38.87473283333333, "fusion_lat": 0.0, "is_reserved": 0, "rental_uris": {"ios": "https://dc.lft.to/lastmile_qr_scan", "android": "https://dc.lft.to/lastmile_qr_scan"}, "fusion_lon": 0.0, "type": "electric_scooter", "bike_id": "69c6440181501d64f3620c35ec1fa4be", "name": "69c6440181501d64f3620c35ec1fa4be"}, {"lon": -77.00796083333333, "is_disabled": 0, "lat": 38.94922183333333, "fusion_lat": 0.0, "is_reserved": 0, "rental_uris": {"ios": "https://dc.lft.to/lastmile_qr_scan", "android": "https://dc.lft.to/lastmile_qr_scan"}, "fusion_lon": 0.0, "type": "electric_bike", "bike_id": "f5aa63500f39d6aff0b8db75f52ec74e", "name": "f5aa63500f39d6aff0b8db75f52ec74e"}, {"lon": -77.0189245, "is_disabled": 0, "lat": 38.874709, "fusion_lat": 0.0, "is_reserved": 0, "rental_uris": {"ios": "https://dc.lft.to/lastmile_qr_scan", "android": "https://dc.lft.to/lastmile_qr_scan"}, "fusion_lon": 0.0, "type": "electric_scooter", "bike_id": "241b400b6dfeb17f4ce341b53a7ab1e2", "name": "241b400b6dfeb17f4ce341b53a7ab1e2"}, {"lon": -77.084278, "is_disabled": 0, "lat": 38.931880666666665, "fusion_lat": 0.0, "is_reserved": 0, "rental_uris": {"ios": "https://dc.lft.to/lastmile_qr_scan", "android": "https://dc.lft.to/lastmile_qr_scan"}, "fusion_lon": 0.0, "type": "electric_scooter", "bike_id": "b6bf961348922bcb056eeb1babf8ba84", "name": "b6bf961348922bcb056eeb1babf8ba84"}, {"lon": -77.039353, "is_disabled": 0, "lat": 38.9287965, "fusion_lat": 0.0, "is_reserved": 0, "rental_uris": {"ios": "https://dc.lft.to/lastmile_qr_scan", "android": "https://dc.lft.to/lastmile_qr_scan"}, "fusion_lon": 0.0, "type": "electric_scooter", "bike_id": "0e306ceb67e5347e3d3b720818a72b5c", "name": "0e306ceb67e5347e3d3b720818a72b5c"}, {"lon": -77.0313735, "is_disabled": 0, "lat": 38.9237865, "fusion_lat": 0.0, "is_reserved": 0, "rental_uris": {"ios": "https://dc.lft.to/lastmile_qr_scan", "android": "https://dc.lft.to/lastmile_qr_scan"}, "fusion_lon": 0.0, "type": "electric_scooter", "bike_id": "e1119e790d6e1d0c8de1080c0e5740de", "name": "e1119e790d6e1d0c8de1080c0e5740de"}, {"lon": -77.0328585, "is_disabled": 0, "lat": 38.919794, "fusion_lat": 0.0, "is_reserved": 0, "rental_uris": {"ios": "https://dc.lft.to/lastmile_qr_scan", "android": "https://dc.lft.to/lastmile_qr_scan"}, "fusion_lon": 0.0, "type": "electric_scooter", "bike_id": "592ebac8c43ae2afdfa2aba7e38e7583", "name": "592ebac8c43ae2afdfa2aba7e38e7583"}, {"lon": -77.00578716666666, "is_disabled": 0, "lat": 38.8757455, "fusion_lat": 0.0, "is_reserved": 0, "rental_uris": {"ios": "https://dc.lft.to/lastmile_qr_scan", "android": "https://dc.lft.to/lastmile_qr_scan"}, "fusion_lon": 0.0, "type": "electric_scooter", "bike_id": "621897de96dc98c82d3029d7028051fd", "name": "621897de96dc98c82d3029d7028051fd"}, {"lon": -76.98716083333333, "is_disabled": 0, "lat": 38.866283333333335, "fusion_lat": 0.0, "is_reserved": 0, "rental_uris": {"ios": "https://dc.lft.to/lastmile_qr_scan", "android": "https://dc.lft.to/lastmile_qr_scan"}, "fusion_lon": 0.0, "type": "electric_scooter", "bike_id": "8d5b8f7a3e0cbeedd84765b2620a72ca", "name": "8d5b8f7a3e0cbeedd84765b2620a72ca"}, {"lon": -77.04046783333334, "is_disabled": 0, "lat": 38.92881083333333, "fusion_lat": 0.0, "is_reserved": 0, "rental_uris": {"ios": "https://dc.lft.to/lastmile_qr_scan", "android": "https://dc.lft.to/lastmile_qr_scan"}, "fusion_lon": 0.0, "type": "electric_scooter", "bike_id": "f04107e1646ca0e3e88fa12d3b3e5794", "name": "f04107e1646ca0e3e88fa12d3b3e5794"}, {"lon": -77.02748533333333, "is_disabled": 0, "lat": 38.90965933333333, "fusion_lat": 0.0, "is_reserved": 0, "rental_uris": {"ios": "https://dc.lft.to/lastmile_qr_scan", "android": "https://dc.lft.to/lastmile_qr_scan"}, "fusion_lon": 0.0, "type": "electric_scooter", "bike_id": "6a9f1448947df0082bec68ef7b06f2a9", "name": "6a9f1448947df0082bec68ef7b06f2a9"}, {"lon": -77.03831183333334, "is_disabled": 0, "lat": 38.90774733333333, "fusion_lat": 0.0, "is_reserved": 0, "rental_uris": {"ios": "https://dc.lft.to/lastmile_qr_scan", "android": "https://dc.lft.to/lastmile_qr_scan"}, "fusion_lon": 0.0, "type": "electric_scooter", "bike_id": "e9f81efbb7e7567d5bbee61d1631460f", "name": "e9f81efbb7e7567d5bbee61d1631460f"}, {"lon": -77.00066683333333, "is_disabled": 0, "lat": 38.908255833333335, "fusion_lat": 0.0, "is_reserved": 0, "rental_uris": {"ios": "https://dc.lft.to/lastmile_qr_scan", "android": "https://dc.lft.to/lastmile_qr_scan"}, "fusion_lon": 0.0, "type": "electric_scooter", "bike_id": "e6a4e60f6ede71d55071440ab0e0b3a3", "name": "e6a4e60f6ede71d55071440ab0e0b3a3"}, {"lon": -77.01111733333333, "is_disabled": 0, "lat": 38.90793, "fusion_lat": 0.0, "is_reserved": 0, "rental_uris": {"ios": "https://dc.lft.to/lastmile_qr_scan", "android": "https://dc.lft.to/lastmile_qr_scan"}, "fusion_lon": 0.0, "type": "electric_scooter", "bike_id": "4dc0b5392a12b4567ba09ae4abdc1b37", "name": "4dc0b5392a12b4567ba09ae4abdc1b37"}, {"lon": -76.95591283333333, "is_disabled": 0, "lat": 38.88772266666667, "fusion_lat": 0.0, "is_reserved": 0, "rental_uris": {"ios": "https://dc.lft.to/lastmile_qr_scan", "android": "https://dc.lft.to/lastmile_qr_scan"}, "fusion_lon": 0.0, "type": "electric_scooter", "bike_id": "c0038d2db789da2cf3e439143946ba27", "name": "c0038d2db789da2cf3e439143946ba27"}, {"lon": -77.02528316666667, "is_disabled": 0, "lat": 38.996997666666665, "fusion_lat": 0.0, "is_reserved": 0, "rental_uris": {"ios": "https://dc.lft.to/lastmile_qr_scan", "android": "https://dc.lft.to/lastmile_qr_scan"}, "fusion_lon": 0.0, "type": "electric_bike", "bike_id": "2452da0b0c351f2259e8e01b71a0d768", "name": "2452da0b0c351f2259e8e01b71a0d768"}, {"lon": -77.0276275, "is_disabled": 0, "lat": 38.89755666666667, "fusion_lat": 0.0, "is_reserved": 0, "rental_uris": {"ios": "https://dc.lft.to/lastmile_qr_scan", "android": "https://dc.lft.to/lastmile_qr_scan"}, "fusion_lon": 0.0, "type": "electric_scooter", "bike_id": "b0186fb8e346f0aa10f10c0919725349", "name": "b0186fb8e346f0aa10f10c0919725349"}, {"lon": -76.93176083333333, "is_disabled": 0, "lat": 38.898883833333336, "fusion_lat": 0.0, "is_reserved": 0, "rental_uris": {"ios": "https://dc.lft.to/lastmile_qr_scan", "android": "https://dc.lft.to/lastmile_qr_scan"}, "fusion_lon": 0.0, "type": "electric_scooter", "bike_id": "4757d2980bfad96ffcff8c60aa829c65", "name": "4757d2980bfad96ffcff8c60aa829c65"}, {"lon": -77.0893365, "is_disabled": 0, "lat": 38.88781183333333, "fusion_lat": 0.0, "is_reserved": 0, "rental_uris": {"ios": "https://dc.lft.to/lastmile_qr_scan", "android": "https://dc.lft.to/lastmile_qr_scan"}, "fusion_lon": 0.0, "type": "electric_bike", "bike_id": "9aa3c6d7456d61f4aa0b25524e08dbde", "name": "9aa3c6d7456d61f4aa0b25524e08dbde"}, {"lon": -77.000117, "is_disabled": 0, "lat": 38.90784683333333, "fusion_lat": 0.0, "is_reserved": 0, "rental_uris": {"ios": "https://dc.lft.to/lastmile_qr_scan", "android": "https://dc.lft.to/lastmile_qr_scan"}, "fusion_lon": 0.0, "type": "electric_scooter", "bike_id": "d1f6ad8097829456c4ef55c478f6d38a", "name": "d1f6ad8097829456c4ef55c478f6d38a"}, {"lon": -77.07069216666666, "is_disabled": 0, "lat": 38.89637466666667, "fusion_lat": 0.0, "is_reserved": 0, "rental_uris": {"ios": "https://dc.lft.to/lastmile_qr_scan", "android": "https://dc.lft.to/lastmile_qr_scan"}, "fusion_lon": 0.0, "type": "electric_scooter", "bike_id": "0dc8907772a2e17669029aca6acc711f", "name": "0dc8907772a2e17669029aca6acc711f"}, {"lon": -77.022785, "is_disabled": 0, "lat": 38.92671433333334, "fusion_lat": 0.0, "is_reserved": 0, "rental_uris": {"ios": "https://dc.lft.to/lastmile_qr_scan", "android": "https://dc.lft.to/lastmile_qr_scan"}, "fusion_lon": 0.0, "type": "electric_scooter", "bike_id": "6299a0f456168b552e42a7e6db12d3bb", "name": "6299a0f456168b552e42a7e6db12d3bb"}, {"lon": -77.02711616666667, "is_disabled": 0, "lat": 38.90673316666667, "fusion_lat": 0.0, "is_reserved": 0, "rental_uris": {"ios": "https://dc.lft.to/lastmile_qr_scan", "android": "https://dc.lft.to/lastmile_qr_scan"}, "fusion_lon": 0.0, "type": "electric_scooter", "bike_id": "bfeab1938f9b0b7576c6dbb7760a7a97", "name": "bfeab1938f9b0b7576c6dbb7760a7a97"}, {"lon": -77.05975633333334, "is_disabled": 0, "lat": 38.901130333333334, "fusion_lat": 0.0, "is_reserved": 0, "rental_uris": {"ios": "https://dc.lft.to/lastmile_qr_scan", "android": "https://dc.lft.to/lastmile_qr_scan"}, "fusion_lon": 0.0, "type": "electric_scooter", "bike_id": "ac08447fc71272db1fa25bf18f7a557e", "name": "ac08447fc71272db1fa25bf18f7a557e"}, {"lon": -77.12736083333333, "is_disabled": 0, "lat": 38.89567016666667, "fusion_lat": 0.0, "is_reserved": 0, "rental_uris": {"ios": "https://dc.lft.to/lastmile_qr_scan", "android": "https://dc.lft.to/lastmile_qr_scan"}, "fusion_lon": 0.0, "type": "electric_bike", "bike_id": "ed4c1eec183bd685e6172220bf3eda02", "name": "ed4c1eec183bd685e6172220bf3eda02"}, {"lon": -77.01230833333334, "is_disabled": 0, "lat": 38.91755883333333, "fusion_lat": 0.0, "is_reserved": 0, "rental_uris": {"ios": "https://dc.lft.to/lastmile_qr_scan", "android": "https://dc.lft.to/lastmile_qr_scan"}, "fusion_lon": 0.0, "type": "electric_scooter", "bike_id": "af4705da56efcedd434b9bbbfe9ee0b3", "name": "af4705da56efcedd434b9bbbfe9ee0b3"}, {"lon": -77.0038055, "is_disabled": 0, "lat": 38.836107166666665, "fusion_lat": 0.0, "is_reserved": 0, "rental_uris": {"ios": "https://dc.lft.to/lastmile_qr_scan", "android": "https://dc.lft.to/lastmile_qr_scan"}, "fusion_lon": 0.0, "type": "electric_bike", "bike_id": "1eef23cf7dcbbef45b0da6ce138c1470", "name": "1eef23cf7dcbbef45b0da6ce138c1470"}, {"lon": -76.98439033333334, "is_disabled": 0, "lat": 38.905818, "fusion_lat": 0.0, "is_reserved": 0, "rental_uris": {"ios": "https://dc.lft.to/lastmile_qr_scan", "android": "https://dc.lft.to/lastmile_qr_scan"}, "fusion_lon": 0.0, "type": "electric_scooter", "bike_id": "6aeedbf2f6bae2239ca3ed79862ee4b5", "name": "6aeedbf2f6bae2239ca3ed79862ee4b5"}, {"lon": -77.02410533333334, "is_disabled": 0, "lat": 38.9140015, "fusion_lat": 0.0, "is_reserved": 0, "rental_uris": {"ios": "https://dc.lft.to/lastmile_qr_scan", "android": "https://dc.lft.to/lastmile_qr_scan"}, "fusion_lon": 0.0, "type": "electric_scooter", "bike_id": "a35e9a898e12fdf2e78615597f72604c", "name": "a35e9a898e12fdf2e78615597f72604c"}, {"lon": -77.02496616666667, "is_disabled": 0, "lat": 38.918078333333334, "fusion_lat": 0.0, "is_reserved": 0, "rental_uris": {"ios": "https://dc.lft.to/lastmile_qr_scan", "android": "https://dc.lft.to/lastmile_qr_scan"}, "fusion_lon": 0.0, "type": "electric_scooter", "bike_id": "39fd1083ad8645a8985e9a488c459cdc", "name": "39fd1083ad8645a8985e9a488c459cdc"}, {"lon": -77.02254483333333, "is_disabled": 0, "lat": 38.89370733333333, "fusion_lat": 0.0, "is_reserved": 0, "rental_uris": {"ios": "https://dc.lft.to/lastmile_qr_scan", "android": "https://dc.lft.to/lastmile_qr_scan"}, "fusion_lon": 0.0, "type": "electric_scooter", "bike_id": "a258d1822a94682c19fac2a5fe6ecc4e", "name": "a258d1822a94682c19fac2a5fe6ecc4e"}, {"lon": -77.073485, "is_disabled": 0, "lat": 38.9226325, "fusion_lat": 0.0, "is_reserved": 0, "rental_uris": {"ios": "https://dc.lft.to/lastmile_qr_scan", "android": "https://dc.lft.to/lastmile_qr_scan"}, "fusion_lon": 0.0, "type": "electric_scooter", "bike_id": "a0cfd136f1044a1f9d9e7bf2f7490246", "name": "a0cfd136f1044a1f9d9e7bf2f7490246"}, {"lon": -77.02956516666667, "is_disabled": 0, "lat": 38.905031666666666, "fusion_lat": 0.0, "is_reserved": 0, "rental_uris": {"ios": "https://dc.lft.to/lastmile_qr_scan", "android": "https://dc.lft.to/lastmile_qr_scan"}, "fusion_lon": 0.0, "type": "electric_bike", "bike_id": "c9ba60fcab81a4f6c0e5fa08b5e50f48", "name": "c9ba60fcab81a4f6c0e5fa08b5e50f48"}, {"lon": -77.018993, "is_disabled": 0, "lat": 38.90927816666667, "fusion_lat": 0.0, "is_reserved": 0, "rental_uris": {"ios": "https://dc.lft.to/lastmile_qr_scan", "android": "https://dc.lft.to/lastmile_qr_scan"}, "fusion_lon": 0.0, "type": "electric_scooter", "bike_id": "ee3450ffe8dccf9a6ac899e28f28f758", "name": "ee3450ffe8dccf9a6ac899e28f28f758"}, {"lon": -77.01986466666666, "is_disabled": 0, "lat": 38.91425433333333, "fusion_lat": 0.0, "is_reserved": 0, "rental_uris": {"ios": "https://dc.lft.to/lastmile_qr_scan", "android": "https://dc.lft.to/lastmile_qr_scan"}, "fusion_lon": 0.0, "type": "electric_scooter", "bike_id": "060499f6c73a1f10d80b725db2dc2bec", "name": "060499f6c73a1f10d80b725db2dc2bec"}, {"lon": -77.00196416666667, "is_disabled": 0, "lat": 38.902682666666664, "fusion_lat": 0.0, "is_reserved": 0, "rental_uris": {"ios": "https://dc.lft.to/lastmile_qr_scan", "android": "https://dc.lft.to/lastmile_qr_scan"}, "fusion_lon": 0.0, "type": "electric_scooter", "bike_id": "613ad3b1792bf9f477fb19f1e40b9646", "name": "613ad3b1792bf9f477fb19f1e40b9646"}, {"lon": -77.03834916666666, "is_disabled": 0, "lat": 38.912239166666666, "fusion_lat": 0.0, "is_reserved": 0, "rental_uris": {"ios": "https://dc.lft.to/lastmile_qr_scan", "android": "https://dc.lft.to/lastmile_qr_scan"}, "fusion_lon": 0.0, "type": "electric_scooter", "bike_id": "ed02b2b296aebf1fa38506b21be89be2", "name": "ed02b2b296aebf1fa38506b21be89be2"}, {"lon": -77.02284933333334, "is_disabled": 0, "lat": 38.91574516666667, "fusion_lat": 0.0, "is_reserved": 0, "rental_uris": {"ios": "https://dc.lft.to/lastmile_qr_scan", "android": "https://dc.lft.to/lastmile_qr_scan"}, "fusion_lon": 0.0, "type": "electric_scooter", "bike_id": "2c3c96f9c2a4530e1ee238d05833d7ef", "name": "2c3c96f9c2a4530e1ee238d05833d7ef"}, {"lon": -77.03402383333334, "is_disabled": 0, "lat": 38.9096765, "fusion_lat": 0.0, "is_reserved": 0, "rental_uris": {"ios": "https://dc.lft.to/lastmile_qr_scan", "android": "https://dc.lft.to/lastmile_qr_scan"}, "fusion_lon": 0.0, "type": "electric_scooter", "bike_id": "1ba75394eedf47f6c5cba75e7891762d", "name": "1ba75394eedf47f6c5cba75e7891762d"}, {"lon": -76.97558016666666, "is_disabled": 0, "lat": 38.92459733333333, "fusion_lat": 0.0, "is_reserved": 0, "rental_uris": {"ios": "https://dc.lft.to/lastmile_qr_scan", "android": "https://dc.lft.to/lastmile_qr_scan"}, "fusion_lon": 0.0, "type": "electric_bike", "bike_id": "b036cd38e1805cf9bad4ec9df5f1a791", "name": "b036cd38e1805cf9bad4ec9df5f1a791"}, {"lon": -77.04828333333333, "is_disabled": 0, "lat": 38.909796666666665, "fusion_lat": 0.0, "is_reserved": 0, "rental_uris": {"ios": "https://dc.lft.to/lastmile_qr_scan", "android": "https://dc.lft.to/lastmile_qr_scan"}, "fusion_lon": 0.0, "type": "electric_scooter", "bike_id": "ec6d84dd9a7b17a85ca5a5d3e142078f", "name": "ec6d84dd9a7b17a85ca5a5d3e142078f"}, {"lon": -77.01849116666666, "is_disabled": 0, "lat": 38.90972033333333, "fusion_lat": 0.0, "is_reserved": 0, "rental_uris": {"ios": "https://dc.lft.to/lastmile_qr_scan", "android": "https://dc.lft.to/lastmile_qr_scan"}, "fusion_lon": 0.0, "type": "electric_scooter", "bike_id": "7955f86d059a7ae17e5b2c3fe950b932", "name": "7955f86d059a7ae17e5b2c3fe950b932"}, {"lon": -76.98879666666667, "is_disabled": 0, "lat": 38.8665695, "fusion_lat": 0.0, "is_reserved": 0, "rental_uris": {"ios": "https://dc.lft.to/lastmile_qr_scan", "android": "https://dc.lft.to/lastmile_qr_scan"}, "fusion_lon": 0.0, "type": "electric_scooter", "bike_id": "6358023ab512e590bb65a25019c7b489", "name": "6358023ab512e590bb65a25019c7b489"}, {"lon": -77.22891966666667, "is_disabled": 0, "lat": 38.90959266666667, "fusion_lat": 0.0, "is_reserved": 0, "rental_uris": {"ios": "https://dc.lft.to/lastmile_qr_scan", "android": "https://dc.lft.to/lastmile_qr_scan"}, "fusion_lon": 0.0, "type": "electric_bike", "bike_id": "9364aeee14b09ed623f129d31bab110c", "name": "9364aeee14b09ed623f129d31bab110c"}, {"lon": -77.02311683333333, "is_disabled": 0, "lat": 38.9178735, "fusion_lat": 0.0, "is_reserved": 0, "rental_uris": {"ios": "https://dc.lft.to/lastmile_qr_scan", "android": "https://dc.lft.to/lastmile_qr_scan"}, "fusion_lon": 0.0, "type": "electric_scooter", "bike_id": "6e4a5192eb125445d889d8673c67c057", "name": "6e4a5192eb125445d889d8673c67c057"}, {"lon": -77.008041, "is_disabled": 0, "lat": 38.879541833333334, "fusion_lat": 0.0, "is_reserved": 0, "rental_uris": {"ios": "https://dc.lft.to/lastmile_qr_scan", "android": "https://dc.lft.to/lastmile_qr_scan"}, "fusion_lon": 0.0, "type": "electric_scooter", "bike_id": "abcc7bdccdd51b3412044f3ae134cdd9", "name": "abcc7bdccdd51b3412044f3ae134cdd9"}, {"lon": -77.0747225, "is_disabled": 0, "lat": 38.91917683333333, "fusion_lat": 0.0, "is_reserved": 0, "rental_uris": {"ios": "https://dc.lft.to/lastmile_qr_scan", "android": "https://dc.lft.to/lastmile_qr_scan"}, "fusion_lon": 0.0, "type": "electric_scooter", "bike_id": "3c8315f6bfb01fbd37b6329c20269521", "name": "3c8315f6bfb01fbd37b6329c20269521"}, {"lon": -77.03928316666666, "is_disabled": 0, "lat": 38.89854483333333, "fusion_lat": 0.0, "is_reserved": 0, "rental_uris": {"ios": "https://dc.lft.to/lastmile_qr_scan", "android": "https://dc.lft.to/lastmile_qr_scan"}, "fusion_lon": 0.0, "type": "electric_scooter", "bike_id": "824c370727b3eb5792850481a99c97d3", "name": "824c370727b3eb5792850481a99c97d3"}, {"lon": -76.9818145, "is_disabled": 0, "lat": 38.86964566666666, "fusion_lat": 0.0, "is_reserved": 0, "rental_uris": {"ios": "https://dc.lft.to/lastmile_qr_scan", "android": "https://dc.lft.to/lastmile_qr_scan"}, "fusion_lon": 0.0, "type": "electric_scooter", "bike_id": "3450d9ac042a41924740f124ea3ef3a7", "name": "3450d9ac042a41924740f124ea3ef3a7"}, {"lon": -77.03333883333333, "is_disabled": 0, "lat": 38.898250833333336, "fusion_lat": 0.0, "is_reserved": 0, "rental_uris": {"ios": "https://dc.lft.to/lastmile_qr_scan", "android": "https://dc.lft.to/lastmile_qr_scan"}, "fusion_lon": 0.0, "type": "electric_scooter", "bike_id": "f063c525d9a62162c9b51c5cc6c65d7c", "name": "f063c525d9a62162c9b51c5cc6c65d7c"}, {"lon": -77.04111566666667, "is_disabled": 0, "lat": 38.91047666666667, "fusion_lat": 0.0, "is_reserved": 0, "rental_uris": {"ios": "https://dc.lft.to/lastmile_qr_scan", "android": "https://dc.lft.to/lastmile_qr_scan"}, "fusion_lon": 0.0, "type": "electric_scooter", "bike_id": "f456ba23fee7163595aee8e316505f9d", "name": "f456ba23fee7163595aee8e316505f9d"}, {"lon": -77.03424683333333, "is_disabled": 0, "lat": 38.928676333333335, "fusion_lat": 0.0, "is_reserved": 0, "rental_uris": {"ios": "https://dc.lft.to/lastmile_qr_scan", "android": "https://dc.lft.to/lastmile_qr_scan"}, "fusion_lon": 0.0, "type": "electric_scooter", "bike_id": "c2f6cf0e9f234e02365330cf615e0714", "name": "c2f6cf0e9f234e02365330cf615e0714"}, {"lon": -76.978364, "is_disabled": 0, "lat": 38.898473833333334, "fusion_lat": 0.0, "is_reserved": 0, "rental_uris": {"ios": "https://dc.lft.to/lastmile_qr_scan", "android": "https://dc.lft.to/lastmile_qr_scan"}, "fusion_lon": 0.0, "type": "electric_scooter", "bike_id": "39798a3453ed371cea984798a23f8217", "name": "39798a3453ed371cea984798a23f8217"}, {"lon": -77.02458433333334, "is_disabled": 0, "lat": 38.938534, "fusion_lat": 0.0, "is_reserved": 0, "rental_uris": {"ios": "https://dc.lft.to/lastmile_qr_scan", "android": "https://dc.lft.to/lastmile_qr_scan"}, "fusion_lon": 0.0, "type": "electric_scooter", "bike_id": "09f2d357f4c80ade21d70e838f0a25f2", "name": "09f2d357f4c80ade21d70e838f0a25f2"}, {"lon": -77.232549, "is_disabled": 0, "lat": 38.8725305, "fusion_lat": 0.0, "is_reserved": 0, "rental_uris": {"ios": "https://dc.lft.to/lastmile_qr_scan", "android": "https://dc.lft.to/lastmile_qr_scan"}, "fusion_lon": 0.0, "type": "electric_bike", "bike_id": "0293918d9ef1cbd0985ff9846159e09b", "name": "0293918d9ef1cbd0985ff9846159e09b"}, {"lon": -77.036436, "is_disabled": 0, "lat": 38.91790183333333, "fusion_lat": 0.0, "is_reserved": 0, "rental_uris": {"ios": "https://dc.lft.to/lastmile_qr_scan", "android": "https://dc.lft.to/lastmile_qr_scan"}, "fusion_lon": 0.0, "type": "electric_scooter", "bike_id": "8d1631168ba7bbe3a5b0d0d2b2d5127f", "name": "8d1631168ba7bbe3a5b0d0d2b2d5127f"}, {"lon": -77.03862033333333, "is_disabled": 0, "lat": 38.907118833333335, "fusion_lat": 0.0, "is_reserved": 0, "rental_uris": {"ios": "https://dc.lft.to/lastmile_qr_scan", "android": "https://dc.lft.to/lastmile_qr_scan"}, "fusion_lon": 0.0, "type": "electric_scooter", "bike_id": "92018f75b1aa10af19c71b8a36d84ba2", "name": "92018f75b1aa10af19c71b8a36d84ba2"}, {"lon": -77.01166033333334, "is_disabled": 0, "lat": 38.89625216666666, "fusion_lat": 0.0, "is_reserved": 0, "rental_uris": {"ios": "https://dc.lft.to/lastmile_qr_scan", "android": "https://dc.lft.to/lastmile_qr_scan"}, "fusion_lon": 0.0, "type": "electric_scooter", "bike_id": "c48ae489ea8820e52c6a504b44925d6f", "name": "c48ae489ea8820e52c6a504b44925d6f"}, {"lon": -77.0279195, "is_disabled": 0, "lat": 38.927710833333336, "fusion_lat": 0.0, "is_reserved": 0, "rental_uris": {"ios": "https://dc.lft.to/lastmile_qr_scan", "android": "https://dc.lft.to/lastmile_qr_scan"}, "fusion_lon": 0.0, "type": "electric_scooter", "bike_id": "429b81da123e86e85d4057308072cd15", "name": "429b81da123e86e85d4057308072cd15"}, {"lon": -77.021251, "is_disabled": 0, "lat": 38.935770166666664, "fusion_lat": 0.0, "is_reserved": 0, "rental_uris": {"ios": "https://dc.lft.to/lastmile_qr_scan", "android": "https://dc.lft.to/lastmile_qr_scan"}, "fusion_lon": 0.0, "type": "electric_bike", "bike_id": "03a4fd0c51e80689ddb6c50662b5d641", "name": "03a4fd0c51e80689ddb6c50662b5d641"}, {"lon": -76.99481583333333, "is_disabled": 0, "lat": 38.88340483333333, "fusion_lat": 0.0, "is_reserved": 0, "rental_uris": {"ios": "https://dc.lft.to/lastmile_qr_scan", "android": "https://dc.lft.to/lastmile_qr_scan"}, "fusion_lon": 0.0, "type": "electric_scooter", "bike_id": "c819b711412508c7c7b80c775128e7ea", "name": "c819b711412508c7c7b80c775128e7ea"}, {"lon": -77.0209255, "is_disabled": 0, "lat": 38.8818615, "fusion_lat": 0.0, "is_reserved": 0, "rental_uris": {"ios": "https://dc.lft.to/lastmile_qr_scan", "android": "https://dc.lft.to/lastmile_qr_scan"}, "fusion_lon": 0.0, "type": "electric_scooter", "bike_id": "1a334d64d2e7aaad118163c645d78a30", "name": "1a334d64d2e7aaad118163c645d78a30"}, {"lon": -76.965324, "is_disabled": 0, "lat": 38.87619266666667, "fusion_lat": 0.0, "is_reserved": 0, "rental_uris": {"ios": "https://dc.lft.to/lastmile_qr_scan", "android": "https://dc.lft.to/lastmile_qr_scan"}, "fusion_lon": 0.0, "type": "electric_scooter", "bike_id": "fcd12769dc50ed4047d569041a80d999", "name": "fcd12769dc50ed4047d569041a80d999"}, {"lon": -77.00671683333333, "is_disabled": 0, "lat": 38.945071666666664, "fusion_lat": 0.0, "is_reserved": 0, "rental_uris": {"ios": "https://dc.lft.to/lastmile_qr_scan", "android": "https://dc.lft.to/lastmile_qr_scan"}, "fusion_lon": 0.0, "type": "electric_bike", "bike_id": "aa91bc9b4f994d1464ba076cb099747c", "name": "aa91bc9b4f994d1464ba076cb099747c"}, {"lon": -77.01689666666667, "is_disabled": 0, "lat": 38.939011, "fusion_lat": 0.0, "is_reserved": 0, "rental_uris": {"ios": "https://dc.lft.to/lastmile_qr_scan", "android": "https://dc.lft.to/lastmile_qr_scan"}, "fusion_lon": 0.0, "type": "electric_bike", "bike_id": "7eef3855af28721d69ecd0f8e84db959", "name": "7eef3855af28721d69ecd0f8e84db959"}, {"lon": -77.0158915, "is_disabled": 0, "lat": 38.876548166666666, "fusion_lat": 0.0, "is_reserved": 0, "rental_uris": {"ios": "https://dc.lft.to/lastmile_qr_scan", "android": "https://dc.lft.to/lastmile_qr_scan"}, "fusion_lon": 0.0, "type": "electric_scooter", "bike_id": "772bb947ca8a9a02f394ed8090395598", "name": "772bb947ca8a9a02f394ed8090395598"}, {"lon": -77.04156016666667, "is_disabled": 0, "lat": 38.914147166666666, "fusion_lat": 0.0, "is_reserved": 0, "rental_uris": {"ios": "https://dc.lft.to/lastmile_qr_scan", "android": "https://dc.lft.to/lastmile_qr_scan"}, "fusion_lon": 0.0, "type": "electric_scooter", "bike_id": "8ea16ef3562bcbe9acd29b622277e9b7", "name": "8ea16ef3562bcbe9acd29b622277e9b7"}, {"lon": -77.0400885, "is_disabled": 0, "lat": 38.90996616666666, "fusion_lat": 0.0, "is_reserved": 0, "rental_uris": {"ios": "https://dc.lft.to/lastmile_qr_scan", "android": "https://dc.lft.to/lastmile_qr_scan"}, "fusion_lon": 0.0, "type": "electric_scooter", "bike_id": "eccc84c9e3e0f64718d0680810b58762", "name": "eccc84c9e3e0f64718d0680810b58762"}, {"lon": -77.01836516666667, "is_disabled": 0, "lat": 38.949981333333334, "fusion_lat": 0.0, "is_reserved": 0, "rental_uris": {"ios": "https://dc.lft.to/lastmile_qr_scan", "android": "https://dc.lft.to/lastmile_qr_scan"}, "fusion_lon": 0.0, "type": "electric_scooter", "bike_id": "647e57145bd40cd7098f45691eff0efd", "name": "647e57145bd40cd7098f45691eff0efd"}, {"lon": -76.98816683333334, "is_disabled": 0, "lat": 38.900699833333334, "fusion_lat": 0.0, "is_reserved": 0, "rental_uris": {"ios": "https://dc.lft.to/lastmile_qr_scan", "android": "https://dc.lft.to/lastmile_qr_scan"}, "fusion_lon": 0.0, "type": "electric_scooter", "bike_id": "7772e66f93d92c00ad461ba3fc07d204", "name": "7772e66f93d92c00ad461ba3fc07d204"}, {"lon": -76.9860465, "is_disabled": 0, "lat": 38.900170333333335, "fusion_lat": 0.0, "is_reserved": 0, "rental_uris": {"ios": "https://dc.lft.to/lastmile_qr_scan", "android": "https://dc.lft.to/lastmile_qr_scan"}, "fusion_lon": 0.0, "type": "electric_scooter", "bike_id": "5cf5d1a20bb650c5720f8585ecbdb393", "name": "5cf5d1a20bb650c5720f8585ecbdb393"}, {"lon": -76.92740616666667, "is_disabled": 0, "lat": 38.90064616666667, "fusion_lat": 0.0, "is_reserved": 0, "rental_uris": {"ios": "https://dc.lft.to/lastmile_qr_scan", "android": "https://dc.lft.to/lastmile_qr_scan"}, "fusion_lon": 0.0, "type": "electric_scooter", "bike_id": "ff467d56e5d9e4aef37fd3698459c25a", "name": "ff467d56e5d9e4aef37fd3698459c25a"}, {"lon": -76.99499183333333, "is_disabled": 0, "lat": 38.86249216666667, "fusion_lat": 0.0, "is_reserved": 0, "rental_uris": {"ios": "https://dc.lft.to/lastmile_qr_scan", "android": "https://dc.lft.to/lastmile_qr_scan"}, "fusion_lon": 0.0, "type": "electric_scooter", "bike_id": "03d16168b0ceb3b32e861aaca4fc7610", "name": "03d16168b0ceb3b32e861aaca4fc7610"}, {"lon": -77.0068295, "is_disabled": 0, "lat": 38.871733666666664, "fusion_lat": 0.0, "is_reserved": 0, "rental_uris": {"ios": "https://dc.lft.to/lastmile_qr_scan", "android": "https://dc.lft.to/lastmile_qr_scan"}, "fusion_lon": 0.0, "type": "electric_scooter", "bike_id": "3653a25d7b7bc7fb9c1db169458f3b2b", "name": "3653a25d7b7bc7fb9c1db169458f3b2b"}, {"lon": -77.03447166666666, "is_disabled": 0, "lat": 38.907358333333335, "fusion_lat": 0.0, "is_reserved": 0, "rental_uris": {"ios": "https://dc.lft.to/lastmile_qr_scan", "android": "https://dc.lft.to/lastmile_qr_scan"}, "fusion_lon": 0.0, "type": "electric_scooter", "bike_id": "d5e508039b3a59f050ab1c7182e476a4", "name": "d5e508039b3a59f050ab1c7182e476a4"}, {"lon": -77.03678616666667, "is_disabled": 0, "lat": 38.92269783333333, "fusion_lat": 0.0, "is_reserved": 0, "rental_uris": {"ios": "https://dc.lft.to/lastmile_qr_scan", "android": "https://dc.lft.to/lastmile_qr_scan"}, "fusion_lon": 0.0, "type": "electric_scooter", "bike_id": "5eccb29c37c7fbdaaf38a0a686759cf8", "name": "5eccb29c37c7fbdaaf38a0a686759cf8"}, {"lon": -77.00569333333334, "is_disabled": 0, "lat": 38.9062195, "fusion_lat": 0.0, "is_reserved": 0, "rental_uris": {"ios": "https://dc.lft.to/lastmile_qr_scan", "android": "https://dc.lft.to/lastmile_qr_scan"}, "fusion_lon": 0.0, "type": "electric_scooter", "bike_id": "24e2d62ff49fa4081e03c8e8d4207422", "name": "24e2d62ff49fa4081e03c8e8d4207422"}, {"lon": -77.00599466666667, "is_disabled": 0, "lat": 38.9055235, "fusion_lat": 0.0, "is_reserved": 0, "rental_uris": {"ios": "https://dc.lft.to/lastmile_qr_scan", "android": "https://dc.lft.to/lastmile_qr_scan"}, "fusion_lon": 0.0, "type": "electric_scooter", "bike_id": "89e394691b17de9bc558e5102a6c22a0", "name": "89e394691b17de9bc558e5102a6c22a0"}, {"lon": -77.06209383333334, "is_disabled": 0, "lat": 38.93352083333333, "fusion_lat": 0.0, "is_reserved": 0, "rental_uris": {"ios": "https://dc.lft.to/lastmile_qr_scan", "android": "https://dc.lft.to/lastmile_qr_scan"}, "fusion_lon": 0.0, "type": "electric_scooter", "bike_id": "6079777fd86ac739d29c838373939ebf", "name": "6079777fd86ac739d29c838373939ebf"}, {"lon": -77.0394585, "is_disabled": 0, "lat": 38.90972766666667, "fusion_lat": 0.0, "is_reserved": 0, "rental_uris": {"ios": "https://dc.lft.to/lastmile_qr_scan", "android": "https://dc.lft.to/lastmile_qr_scan"}, "fusion_lon": 0.0, "type": "electric_scooter", "bike_id": "f373067210944663d7b1b67febc5c6e0", "name": "f373067210944663d7b1b67febc5c6e0"}, {"lon": -77.02412783333334, "is_disabled": 0, "lat": 38.90969783333333, "fusion_lat": 0.0, "is_reserved": 0, "rental_uris": {"ios": "https://dc.lft.to/lastmile_qr_scan", "android": "https://dc.lft.to/lastmile_qr_scan"}, "fusion_lon": 0.0, "type": "electric_scooter", "bike_id": "04e022f3090c486e33671f9fed60e999", "name": "04e022f3090c486e33671f9fed60e999"}, {"lon": -77.02491866666666, "is_disabled": 0, "lat": 38.9417925, "fusion_lat": 0.0, "is_reserved": 0, "rental_uris": {"ios": "https://dc.lft.to/lastmile_qr_scan", "android": "https://dc.lft.to/lastmile_qr_scan"}, "fusion_lon": 0.0, "type": "electric_scooter", "bike_id": "5d80f1ab902b3cc401beacb577f9eeb5", "name": "5d80f1ab902b3cc401beacb577f9eeb5"}, {"lon": -77.02162516666667, "is_disabled": 0, "lat": 38.92508016666667, "fusion_lat": 0.0, "is_reserved": 0, "rental_uris": {"ios": "https://dc.lft.to/lastmile_qr_scan", "android": "https://dc.lft.to/lastmile_qr_scan"}, "fusion_lon": 0.0, "type": "electric_scooter", "bike_id": "95234b5d3cf62f10544b1664d9a45850", "name": "95234b5d3cf62f10544b1664d9a45850"}, {"lon": -76.9857885, "is_disabled": 0, "lat": 38.86683816666667, "fusion_lat": 0.0, "is_reserved": 0, "rental_uris": {"ios": "https://dc.lft.to/lastmile_qr_scan", "android": "https://dc.lft.to/lastmile_qr_scan"}, "fusion_lon": 0.0, "type": "electric_scooter", "bike_id": "340878e7c1f1430063ba5e109877c4a3", "name": "340878e7c1f1430063ba5e109877c4a3"}, {"lon": -77.0114315, "is_disabled": 0, "lat": 38.90639733333333, "fusion_lat": 0.0, "is_reserved": 0, "rental_uris": {"ios": "https://dc.lft.to/lastmile_qr_scan", "android": "https://dc.lft.to/lastmile_qr_scan"}, "fusion_lon": 0.0, "type": "electric_scooter", "bike_id": "4737d18258cca4e4166c22fecc8195de", "name": "4737d18258cca4e4166c22fecc8195de"}, {"lon": -77.03546983333334, "is_disabled": 0, "lat": 38.91268, "fusion_lat": 0.0, "is_reserved": 0, "rental_uris": {"ios": "https://dc.lft.to/lastmile_qr_scan", "android": "https://dc.lft.to/lastmile_qr_scan"}, "fusion_lon": 0.0, "type": "electric_scooter", "bike_id": "45de33361cdd57cfe64686f6c3077ac6", "name": "45de33361cdd57cfe64686f6c3077ac6"}, {"lon": -77.02402516666666, "is_disabled": 0, "lat": 38.90681433333334, "fusion_lat": 0.0, "is_reserved": 0, "rental_uris": {"ios": "https://dc.lft.to/lastmile_qr_scan", "android": "https://dc.lft.to/lastmile_qr_scan"}, "fusion_lon": 0.0, "type": "electric_scooter", "bike_id": "d62474bb9ffaab5e97677242a28dc6fc", "name": "d62474bb9ffaab5e97677242a28dc6fc"}, {"lon": -77.00581366666667, "is_disabled": 0, "lat": 38.90566533333333, "fusion_lat": 0.0, "is_reserved": 0, "rental_uris": {"ios": "https://dc.lft.to/lastmile_qr_scan", "android": "https://dc.lft.to/lastmile_qr_scan"}, "fusion_lon": 0.0, "type": "electric_scooter", "bike_id": "ef7aa2fbcb808de1de3002663f9be316", "name": "ef7aa2fbcb808de1de3002663f9be316"}, {"lon": -77.0555145, "is_disabled": 0, "lat": 38.899837, "fusion_lat": 0.0, "is_reserved": 0, "rental_uris": {"ios": "https://dc.lft.to/lastmile_qr_scan", "android": "https://dc.lft.to/lastmile_qr_scan"}, "fusion_lon": 0.0, "type": "electric_scooter", "bike_id": "ba940fc9a18ac2c8eddc337d8e950111", "name": "ba940fc9a18ac2c8eddc337d8e950111"}, {"lon": -76.97959783333333, "is_disabled": 0, "lat": 38.906203, "fusion_lat": 0.0, "is_reserved": 0, "rental_uris": {"ios": "https://dc.lft.to/lastmile_qr_scan", "android": "https://dc.lft.to/lastmile_qr_scan"}, "fusion_lon": 0.0, "type": "electric_scooter", "bike_id": "962c2eaba3c03be3cc4e0f8d3a4a8750", "name": "962c2eaba3c03be3cc4e0f8d3a4a8750"}, {"lon": -77.029507, "is_disabled": 0, "lat": 38.91800516666667, "fusion_lat": 0.0, "is_reserved": 0, "rental_uris": {"ios": "https://dc.lft.to/lastmile_qr_scan", "android": "https://dc.lft.to/lastmile_qr_scan"}, "fusion_lon": 0.0, "type": "electric_scooter", "bike_id": "16abd5b32093b3fbb8cbb7d3d4ef004c", "name": "16abd5b32093b3fbb8cbb7d3d4ef004c"}, {"lon": -77.019129, "is_disabled": 0, "lat": 38.902415500000004, "fusion_lat": 0.0, "is_reserved": 0, "rental_uris": {"ios": "https://dc.lft.to/lastmile_qr_scan", "android": "https://dc.lft.to/lastmile_qr_scan"}, "fusion_lon": 0.0, "type": "electric_scooter", "bike_id": "4e464a4550b7a74b6f65fa0bbf3e82ce", "name": "4e464a4550b7a74b6f65fa0bbf3e82ce"}, {"lon": -77.0254435, "is_disabled": 0, "lat": 38.892204166666666, "fusion_lat": 0.0, "is_reserved": 0, "rental_uris": {"ios": "https://dc.lft.to/lastmile_qr_scan", "android": "https://dc.lft.to/lastmile_qr_scan"}, "fusion_lon": 0.0, "type": "electric_scooter", "bike_id": "2c7344bcc499df3bcf8afc63a3a2d795", "name": "2c7344bcc499df3bcf8afc63a3a2d795"}, {"lon": -77.00130416666667, "is_disabled": 0, "lat": 38.907513, "fusion_lat": 0.0, "is_reserved": 0, "rental_uris": {"ios": "https://dc.lft.to/lastmile_qr_scan", "android": "https://dc.lft.to/lastmile_qr_scan"}, "fusion_lon": 0.0, "type": "electric_scooter", "bike_id": "4becc5099ae68bb3a118574c55f09552", "name": "4becc5099ae68bb3a118574c55f09552"}, {"lon": -77.03403583333333, "is_disabled": 0, "lat": 38.92439016666667, "fusion_lat": 0.0, "is_reserved": 0, "rental_uris": {"ios": "https://dc.lft.to/lastmile_qr_scan", "android": "https://dc.lft.to/lastmile_qr_scan"}, "fusion_lon": 0.0, "type": "electric_scooter", "bike_id": "a573381219f3f4410c553c09d3403e94", "name": "a573381219f3f4410c553c09d3403e94"}, {"lon": -76.99013216666667, "is_disabled": 0, "lat": 38.91140333333333, "fusion_lat": 0.0, "is_reserved": 0, "rental_uris": {"ios": "https://dc.lft.to/lastmile_qr_scan", "android": "https://dc.lft.to/lastmile_qr_scan"}, "fusion_lon": 0.0, "type": "electric_scooter", "bike_id": "0114746d4d30122e42784d71a2b35e26", "name": "0114746d4d30122e42784d71a2b35e26"}, {"lon": -77.13920483333334, "is_disabled": 0, "lat": 38.873008666666664, "fusion_lat": 0.0, "is_reserved": 0, "rental_uris": {"ios": "https://dc.lft.to/lastmile_qr_scan", "android": "https://dc.lft.to/lastmile_qr_scan"}, "fusion_lon": 0.0, "type": "electric_bike", "bike_id": "07fa89bcbb408d7f840954586701c38f", "name": "07fa89bcbb408d7f840954586701c38f"}, {"lon": -77.03835133333334, "is_disabled": 0, "lat": 38.9156145, "fusion_lat": 0.0, "is_reserved": 0, "rental_uris": {"ios": "https://dc.lft.to/lastmile_qr_scan", "android": "https://dc.lft.to/lastmile_qr_scan"}, "fusion_lon": 0.0, "type": "electric_scooter", "bike_id": "9631a96f9c50f0e2d161e1daebbc7e4a", "name": "9631a96f9c50f0e2d161e1daebbc7e4a"}, {"lon": -77.03842833333333, "is_disabled": 0, "lat": 38.914709, "fusion_lat": 0.0, "is_reserved": 0, "rental_uris": {"ios": "https://dc.lft.to/lastmile_qr_scan", "android": "https://dc.lft.to/lastmile_qr_scan"}, "fusion_lon": 0.0, "type": "electric_scooter", "bike_id": "eeabf80d46ea823f698bf2ea872f929c", "name": "eeabf80d46ea823f698bf2ea872f929c"}, {"lon": -77.00094383333334, "is_disabled": 0, "lat": 38.92552166666667, "fusion_lat": 0.0, "is_reserved": 0, "rental_uris": {"ios": "https://dc.lft.to/lastmile_qr_scan", "android": "https://dc.lft.to/lastmile_qr_scan"}, "fusion_lon": 0.0, "type": "electric_scooter", "bike_id": "f71f1fc842cd5bc8ac3fe24586c9cd97", "name": "f71f1fc842cd5bc8ac3fe24586c9cd97"}, {"lon": -77.04831233333333, "is_disabled": 0, "lat": 38.898385833333336, "fusion_lat": 0.0, "is_reserved": 0, "rental_uris": {"ios": "https://dc.lft.to/lastmile_qr_scan", "android": "https://dc.lft.to/lastmile_qr_scan"}, "fusion_lon": 0.0, "type": "electric_scooter", "bike_id": "3801be20fdfe9d9ea23e16cb531c4839", "name": "3801be20fdfe9d9ea23e16cb531c4839"}, {"lon": -77.00622116666666, "is_disabled": 0, "lat": 38.871726333333335, "fusion_lat": 0.0, "is_reserved": 0, "rental_uris": {"ios": "https://dc.lft.to/lastmile_qr_scan", "android": "https://dc.lft.to/lastmile_qr_scan"}, "fusion_lon": 0.0, "type": "electric_scooter", "bike_id": "46d12659f02a485a27fb816bfb63a852", "name": "46d12659f02a485a27fb816bfb63a852"}, {"lon": -77.00223833333334, "is_disabled": 0, "lat": 38.925097, "fusion_lat": 0.0, "is_reserved": 0, "rental_uris": {"ios": "https://dc.lft.to/lastmile_qr_scan", "android": "https://dc.lft.to/lastmile_qr_scan"}, "fusion_lon": 0.0, "type": "electric_scooter", "bike_id": "436f5c228c5489b10823e5292b89299d", "name": "436f5c228c5489b10823e5292b89299d"}, {"lon": -77.02980216666667, "is_disabled": 0, "lat": 38.91992416666667, "fusion_lat": 0.0, "is_reserved": 0, "rental_uris": {"ios": "https://dc.lft.to/lastmile_qr_scan", "android": "https://dc.lft.to/lastmile_qr_scan"}, "fusion_lon": 0.0, "type": "electric_scooter", "bike_id": "731ea100f66ffd8750b62f1097a4716a", "name": "731ea100f66ffd8750b62f1097a4716a"}, {"lon": -77.04931183333333, "is_disabled": 0, "lat": 38.918216666666666, "fusion_lat": 0.0, "is_reserved": 0, "rental_uris": {"ios": "https://dc.lft.to/lastmile_qr_scan", "android": "https://dc.lft.to/lastmile_qr_scan"}, "fusion_lon": 0.0, "type": "electric_scooter", "bike_id": "b98caac209540b2bf9f49bdc70291b48", "name": "b98caac209540b2bf9f49bdc70291b48"}, {"lon": -77.02809216666667, "is_disabled": 0, "lat": 38.911335333333334, "fusion_lat": 0.0, "is_reserved": 0, "rental_uris": {"ios": "https://dc.lft.to/lastmile_qr_scan", "android": "https://dc.lft.to/lastmile_qr_scan"}, "fusion_lon": 0.0, "type": "electric_scooter", "bike_id": "3d22810444d4e09e1fe38327e95e472d", "name": "3d22810444d4e09e1fe38327e95e472d"}, {"lon": -77.05263183333334, "is_disabled": 0, "lat": 38.9277575, "fusion_lat": 0.0, "is_reserved": 0, "rental_uris": {"ios": "https://dc.lft.to/lastmile_qr_scan", "android": "https://dc.lft.to/lastmile_qr_scan"}, "fusion_lon": 0.0, "type": "electric_scooter", "bike_id": "944e709463e21c71c1168b188eb7fbaf", "name": "944e709463e21c71c1168b188eb7fbaf"}, {"lon": -77.03222483333333, "is_disabled": 0, "lat": 38.90867883333333, "fusion_lat": 0.0, "is_reserved": 0, "rental_uris": {"ios": "https://dc.lft.to/lastmile_qr_scan", "android": "https://dc.lft.to/lastmile_qr_scan"}, "fusion_lon": 0.0, "type": "electric_scooter", "bike_id": "a7ef9c8152978643a45b701fc56bce9b", "name": "a7ef9c8152978643a45b701fc56bce9b"}, {"lon": -77.02056466666667, "is_disabled": 0, "lat": 38.92849416666667, "fusion_lat": 0.0, "is_reserved": 0, "rental_uris": {"ios": "https://dc.lft.to/lastmile_qr_scan", "android": "https://dc.lft.to/lastmile_qr_scan"}, "fusion_lon": 0.0, "type": "electric_bike", "bike_id": "45f558de37ee48323d4bd4c25fc2386b", "name": "45f558de37ee48323d4bd4c25fc2386b"}, {"lon": -77.038686, "is_disabled": 0, "lat": 38.92148683333333, "fusion_lat": 0.0, "is_reserved": 0, "rental_uris": {"ios": "https://dc.lft.to/lastmile_qr_scan", "android": "https://dc.lft.to/lastmile_qr_scan"}, "fusion_lon": 0.0, "type": "electric_scooter", "bike_id": "f7e09ad97d33deba20fbeee58fa4e3e6", "name": "f7e09ad97d33deba20fbeee58fa4e3e6"}, {"lon": -77.03868616666666, "is_disabled": 0, "lat": 38.921556833333334, "fusion_lat": 0.0, "is_reserved": 0, "rental_uris": {"ios": "https://dc.lft.to/lastmile_qr_scan", "android": "https://dc.lft.to/lastmile_qr_scan"}, "fusion_lon": 0.0, "type": "electric_scooter", "bike_id": "5f0f0c5f012bf5b98c694d4dc5407c06", "name": "5f0f0c5f012bf5b98c694d4dc5407c06"}, {"lon": -76.98961066666666, "is_disabled": 0, "lat": 38.85879116666667, "fusion_lat": 0.0, "is_reserved": 0, "rental_uris": {"ios": "https://dc.lft.to/lastmile_qr_scan", "android": "https://dc.lft.to/lastmile_qr_scan"}, "fusion_lon": 0.0, "type": "electric_scooter", "bike_id": "b9288f1c5a168b5c3427a6676a34f642", "name": "b9288f1c5a168b5c3427a6676a34f642"}, {"lon": -77.03107733333333, "is_disabled": 0, "lat": 38.883201, "fusion_lat": 0.0, "is_reserved": 0, "rental_uris": {"ios": "https://dc.lft.to/lastmile_qr_scan", "android": "https://dc.lft.to/lastmile_qr_scan"}, "fusion_lon": 0.0, "type": "electric_scooter", "bike_id": "d9b3597bfefb917c8a61a6ac8913d4b6", "name": "d9b3597bfefb917c8a61a6ac8913d4b6"}, {"lon": -76.9290695, "is_disabled": 0, "lat": 38.89850166666667, "fusion_lat": 0.0, "is_reserved": 0, "rental_uris": {"ios": "https://dc.lft.to/lastmile_qr_scan", "android": "https://dc.lft.to/lastmile_qr_scan"}, "fusion_lon": 0.0, "type": "electric_scooter", "bike_id": "7dd31b5c7781fccb6f54e8ad45dfc780", "name": "7dd31b5c7781fccb6f54e8ad45dfc780"}, {"lon": -77.048343, "is_disabled": 0, "lat": 38.898355333333335, "fusion_lat": 0.0, "is_reserved": 0, "rental_uris": {"ios": "https://dc.lft.to/lastmile_qr_scan", "android": "https://dc.lft.to/lastmile_qr_scan"}, "fusion_lon": 0.0, "type": "electric_scooter", "bike_id": "3be5cf67afca693185036b9cb884fcd5", "name": "3be5cf67afca693185036b9cb884fcd5"}, {"lon": -77.010506, "is_disabled": 0, "lat": 38.87764883333333, "fusion_lat": 0.0, "is_reserved": 0, "rental_uris": {"ios": "https://dc.lft.to/lastmile_qr_scan", "android": "https://dc.lft.to/lastmile_qr_scan"}, "fusion_lon": 0.0, "type": "electric_bike", "bike_id": "a88ebb1376893d4033139f8c348ae0c0", "name": "a88ebb1376893d4033139f8c348ae0c0"}, {"lon": -77.0430255, "is_disabled": 0, "lat": 38.9318355, "fusion_lat": 0.0, "is_reserved": 0, "rental_uris": {"ios": "https://dc.lft.to/lastmile_qr_scan", "android": "https://dc.lft.to/lastmile_qr_scan"}, "fusion_lon": 0.0, "type": "electric_scooter", "bike_id": "26baca927e24f182573cd06fa9b3e57c", "name": "26baca927e24f182573cd06fa9b3e57c"}, {"lon": -76.9361525, "is_disabled": 0, "lat": 38.970594, "fusion_lat": 0.0, "is_reserved": 0, "rental_uris": {"ios": "https://dc.lft.to/lastmile_qr_scan", "android": "https://dc.lft.to/lastmile_qr_scan"}, "fusion_lon": 0.0, "type": "electric_bike", "bike_id": "c79f2c25465a61883941bc253603e27a", "name": "c79f2c25465a61883941bc253603e27a"}, {"lon": -77.03200483333333, "is_disabled": 0, "lat": 38.90947533333333, "fusion_lat": 0.0, "is_reserved": 0, "rental_uris": {"ios": "https://dc.lft.to/lastmile_qr_scan", "android": "https://dc.lft.to/lastmile_qr_scan"}, "fusion_lon": 0.0, "type": "electric_scooter", "bike_id": "1a0c432c6138c980175a87d3288dd72b", "name": "1a0c432c6138c980175a87d3288dd72b"}, {"lon": -76.98715033333333, "is_disabled": 0, "lat": 38.867018, "fusion_lat": 0.0, "is_reserved": 0, "rental_uris": {"ios": "https://dc.lft.to/lastmile_qr_scan", "android": "https://dc.lft.to/lastmile_qr_scan"}, "fusion_lon": 0.0, "type": "electric_scooter", "bike_id": "cd2f37ce96f80b7c8546092ab161abbb", "name": "cd2f37ce96f80b7c8546092ab161abbb"}, {"lon": -77.03153066666667, "is_disabled": 0, "lat": 38.9279325, "fusion_lat": 0.0, "is_reserved": 0, "rental_uris": {"ios": "https://dc.lft.to/lastmile_qr_scan", "android": "https://dc.lft.to/lastmile_qr_scan"}, "fusion_lon": 0.0, "type": "electric_scooter", "bike_id": "d8e75084af1d34925073b7beff17645d", "name": "d8e75084af1d34925073b7beff17645d"}, {"lon": -77.011537, "is_disabled": 0, "lat": 38.91108233333333, "fusion_lat": 0.0, "is_reserved": 0, "rental_uris": {"ios": "https://dc.lft.to/lastmile_qr_scan", "android": "https://dc.lft.to/lastmile_qr_scan"}, "fusion_lon": 0.0, "type": "electric_scooter", "bike_id": "11092ce55dff8c284ae0811ee2ea6b7c", "name": "11092ce55dff8c284ae0811ee2ea6b7c"}, {"lon": -77.03786483333333, "is_disabled": 0, "lat": 38.93968816666667, "fusion_lat": 0.0, "is_reserved": 0, "rental_uris": {"ios": "https://dc.lft.to/lastmile_qr_scan", "android": "https://dc.lft.to/lastmile_qr_scan"}, "fusion_lon": 0.0, "type": "electric_bike", "bike_id": "3bf216b94f7c7fb2be5e280d924e8837", "name": "3bf216b94f7c7fb2be5e280d924e8837"}, {"lon": -77.04097183333333, "is_disabled": 0, "lat": 38.90578933333333, "fusion_lat": 0.0, "is_reserved": 0, "rental_uris": {"ios": "https://dc.lft.to/lastmile_qr_scan", "android": "https://dc.lft.to/lastmile_qr_scan"}, "fusion_lon": 0.0, "type": "electric_scooter", "bike_id": "5f0f99f3191a6344e7a4e1d80b817348", "name": "5f0f99f3191a6344e7a4e1d80b817348"}, {"lon": -76.93479883333333, "is_disabled": 0, "lat": 38.90185966666667, "fusion_lat": 0.0, "is_reserved": 0, "rental_uris": {"ios": "https://dc.lft.to/lastmile_qr_scan", "android": "https://dc.lft.to/lastmile_qr_scan"}, "fusion_lon": 0.0, "type": "electric_scooter", "bike_id": "a53424f5971b70c8c41b7a98cb19dd5f", "name": "a53424f5971b70c8c41b7a98cb19dd5f"}, {"lon": -77.04559316666666, "is_disabled": 0, "lat": 38.9148215, "fusion_lat": 0.0, "is_reserved": 0, "rental_uris": {"ios": "https://dc.lft.to/lastmile_qr_scan", "android": "https://dc.lft.to/lastmile_qr_scan"}, "fusion_lon": 0.0, "type": "electric_scooter", "bike_id": "53e206d17ab9bd7d9f87640dcf6ea637", "name": "53e206d17ab9bd7d9f87640dcf6ea637"}, {"lon": -76.980588, "is_disabled": 0, "lat": 38.90174316666667, "fusion_lat": 0.0, "is_reserved": 0, "rental_uris": {"ios": "https://dc.lft.to/lastmile_qr_scan", "android": "https://dc.lft.to/lastmile_qr_scan"}, "fusion_lon": 0.0, "type": "electric_scooter", "bike_id": "45043ad76a390f74af96f364598b01da", "name": "45043ad76a390f74af96f364598b01da"}, {"lon": -76.9542965, "is_disabled": 0, "lat": 38.88546183333333, "fusion_lat": 0.0, "is_reserved": 0, "rental_uris": {"ios": "https://dc.lft.to/lastmile_qr_scan", "android": "https://dc.lft.to/lastmile_qr_scan"}, "fusion_lon": 0.0, "type": "electric_bike", "bike_id": "4bb248a19be06c4d663a1619af021671", "name": "4bb248a19be06c4d663a1619af021671"}, {"lon": -77.00040183333333, "is_disabled": 0, "lat": 38.9076635, "fusion_lat": 0.0, "is_reserved": 0, "rental_uris": {"ios": "https://dc.lft.to/lastmile_qr_scan", "android": "https://dc.lft.to/lastmile_qr_scan"}, "fusion_lon": 0.0, "type": "electric_scooter", "bike_id": "34f07a8efa32248563da760f4d1f5dfa", "name": "34f07a8efa32248563da760f4d1f5dfa"}, {"lon": -77.11828883333334, "is_disabled": 0, "lat": 38.85936616666667, "fusion_lat": 0.0, "is_reserved": 0, "rental_uris": {"ios": "https://dc.lft.to/lastmile_qr_scan", "android": "https://dc.lft.to/lastmile_qr_scan"}, "fusion_lon": 0.0, "type": "electric_bike", "bike_id": "e819553e04510f6bc8f906b0306495f0", "name": "e819553e04510f6bc8f906b0306495f0"}, {"lon": -76.97614733333333, "is_disabled": 0, "lat": 38.892935666666666, "fusion_lat": 0.0, "is_reserved": 0, "rental_uris": {"ios": "https://dc.lft.to/lastmile_qr_scan", "android": "https://dc.lft.to/lastmile_qr_scan"}, "fusion_lon": 0.0, "type": "electric_bike", "bike_id": "fa4187fe0905354b961770283a026a0c", "name": "fa4187fe0905354b961770283a026a0c"}, {"lon": -77.00930083333333, "is_disabled": 0, "lat": 38.919244666666664, "fusion_lat": 0.0, "is_reserved": 0, "rental_uris": {"ios": "https://dc.lft.to/lastmile_qr_scan", "android": "https://dc.lft.to/lastmile_qr_scan"}, "fusion_lon": 0.0, "type": "electric_scooter", "bike_id": "c7c64dada086f54a380b0c848b021bb5", "name": "c7c64dada086f54a380b0c848b021bb5"}, {"lon": -76.99979883333333, "is_disabled": 0, "lat": 38.8750575, "fusion_lat": 0.0, "is_reserved": 0, "rental_uris": {"ios": "https://dc.lft.to/lastmile_qr_scan", "android": "https://dc.lft.to/lastmile_qr_scan"}, "fusion_lon": 0.0, "type": "electric_scooter", "bike_id": "3c45bcafd800ec3e9b015cf80a810618", "name": "3c45bcafd800ec3e9b015cf80a810618"}, {"lon": -76.98207516666666, "is_disabled": 0, "lat": 38.90202516666667, "fusion_lat": 0.0, "is_reserved": 0, "rental_uris": {"ios": "https://dc.lft.to/lastmile_qr_scan", "android": "https://dc.lft.to/lastmile_qr_scan"}, "fusion_lon": 0.0, "type": "electric_scooter", "bike_id": "49454d90ccb16e5e911851a75c0390b4", "name": "49454d90ccb16e5e911851a75c0390b4"}, {"lon": -77.0336155, "is_disabled": 0, "lat": 38.92447466666667, "fusion_lat": 0.0, "is_reserved": 0, "rental_uris": {"ios": "https://dc.lft.to/lastmile_qr_scan", "android": "https://dc.lft.to/lastmile_qr_scan"}, "fusion_lon": 0.0, "type": "electric_scooter", "bike_id": "c7a46388bac836275c3a35abe80c3e69", "name": "c7a46388bac836275c3a35abe80c3e69"}, {"lon": -77.00219066666666, "is_disabled": 0, "lat": 38.823698666666665, "fusion_lat": 0.0, "is_reserved": 0, "rental_uris": {"ios": "https://dc.lft.to/lastmile_qr_scan", "android": "https://dc.lft.to/lastmile_qr_scan"}, "fusion_lon": 0.0, "type": "electric_bike", "bike_id": "e42aa11c8dca42a63139b88cb17dc5fa", "name": "e42aa11c8dca42a63139b88cb17dc5fa"}, {"lon": -77.0372135, "is_disabled": 0, "lat": 38.90259966666667, "fusion_lat": 0.0, "is_reserved": 0, "rental_uris": {"ios": "https://dc.lft.to/lastmile_qr_scan", "android": "https://dc.lft.to/lastmile_qr_scan"}, "fusion_lon": 0.0, "type": "electric_scooter", "bike_id": "d6ca1174d206219180d53b278ca529e9", "name": "d6ca1174d206219180d53b278ca529e9"}, {"lon": -77.07268316666666, "is_disabled": 0, "lat": 38.91159233333333, "fusion_lat": 0.0, "is_reserved": 0, "rental_uris": {"ios": "https://dc.lft.to/lastmile_qr_scan", "android": "https://dc.lft.to/lastmile_qr_scan"}, "fusion_lon": 0.0, "type": "electric_scooter", "bike_id": "10a9f7e9993fb168866aed162b61ab76", "name": "10a9f7e9993fb168866aed162b61ab76"}, {"lon": -77.04445183333333, "is_disabled": 0, "lat": 38.9154965, "fusion_lat": 0.0, "is_reserved": 0, "rental_uris": {"ios": "https://dc.lft.to/lastmile_qr_scan", "android": "https://dc.lft.to/lastmile_qr_scan"}, "fusion_lon": 0.0, "type": "electric_scooter", "bike_id": "70e5ed02895798421df677335dd42bb8", "name": "70e5ed02895798421df677335dd42bb8"}, {"lon": -77.017525, "is_disabled": 0, "lat": 38.8838515, "fusion_lat": 0.0, "is_reserved": 0, "rental_uris": {"ios": "https://dc.lft.to/lastmile_qr_scan", "android": "https://dc.lft.to/lastmile_qr_scan"}, "fusion_lon": 0.0, "type": "electric_scooter", "bike_id": "123b41b433799a941982a03a8df1becd", "name": "123b41b433799a941982a03a8df1becd"}, {"lon": -76.99016733333333, "is_disabled": 0, "lat": 38.86511183333333, "fusion_lat": 0.0, "is_reserved": 0, "rental_uris": {"ios": "https://dc.lft.to/lastmile_qr_scan", "android": "https://dc.lft.to/lastmile_qr_scan"}, "fusion_lon": 0.0, "type": "electric_scooter", "bike_id": "d9eba283de580e061086dfd95871940d", "name": "d9eba283de580e061086dfd95871940d"}, {"lon": -77.039412, "is_disabled": 0, "lat": 38.91414833333333, "fusion_lat": 0.0, "is_reserved": 0, "rental_uris": {"ios": "https://dc.lft.to/lastmile_qr_scan", "android": "https://dc.lft.to/lastmile_qr_scan"}, "fusion_lon": 0.0, "type": "electric_scooter", "bike_id": "95be62f1fd79847b696352f2893ad16f", "name": "95be62f1fd79847b696352f2893ad16f"}, {"lon": -77.02389766666667, "is_disabled": 0, "lat": 38.91997216666667, "fusion_lat": 0.0, "is_reserved": 0, "rental_uris": {"ios": "https://dc.lft.to/lastmile_qr_scan", "android": "https://dc.lft.to/lastmile_qr_scan"}, "fusion_lon": 0.0, "type": "electric_scooter", "bike_id": "be4449c938e21d942f1b88acb4b8c927", "name": "be4449c938e21d942f1b88acb4b8c927"}, {"lon": -77.02781916666666, "is_disabled": 0, "lat": 38.92770633333333, "fusion_lat": 0.0, "is_reserved": 0, "rental_uris": {"ios": "https://dc.lft.to/lastmile_qr_scan", "android": "https://dc.lft.to/lastmile_qr_scan"}, "fusion_lon": 0.0, "type": "electric_scooter", "bike_id": "240a13cbc94b0627fd8b17f9afcd4da3", "name": "240a13cbc94b0627fd8b17f9afcd4da3"}, {"lon": -77.022339, "is_disabled": 0, "lat": 38.9104435, "fusion_lat": 0.0, "is_reserved": 0, "rental_uris": {"ios": "https://dc.lft.to/lastmile_qr_scan", "android": "https://dc.lft.to/lastmile_qr_scan"}, "fusion_lon": 0.0, "type": "electric_scooter", "bike_id": "0fd3722cace75ea5eea94c922487acda", "name": "0fd3722cace75ea5eea94c922487acda"}, {"lon": -77.05028583333333, "is_disabled": 0, "lat": 38.92368466666667, "fusion_lat": 0.0, "is_reserved": 0, "rental_uris": {"ios": "https://dc.lft.to/lastmile_qr_scan", "android": "https://dc.lft.to/lastmile_qr_scan"}, "fusion_lon": 0.0, "type": "electric_scooter", "bike_id": "ac8a18be41655ba620118d8888444a83", "name": "ac8a18be41655ba620118d8888444a83"}, {"lon": -76.98149466666666, "is_disabled": 0, "lat": 38.90565016666667, "fusion_lat": 0.0, "is_reserved": 0, "rental_uris": {"ios": "https://dc.lft.to/lastmile_qr_scan", "android": "https://dc.lft.to/lastmile_qr_scan"}, "fusion_lon": 0.0, "type": "electric_scooter", "bike_id": "790693777ba619c7e4e283e356b6dd5e", "name": "790693777ba619c7e4e283e356b6dd5e"},