{"data": {"bikes": [{"lon": -76.99615066666667, "lat": 38.885546166666664, "name": "2eaf3a9c615ccbc0a16b971f24b36de6", "fusion_lat": 0.0, "fusion_lon": 0.0, "rental_uris": {"android": "https://dc.lft.to/lastmile_qr_scan", "ios": "https://dc.lft.to/lastmile_qr_scan"}, "is_reserved": 0, "is_disabled": 0, "type": "electric_scooter", "bike_id": "2eaf3a9c615ccbc0a16b971f24b36de6"}, {"lon": -76.98730766666667, "lat": 38.8671035, "name": "0ef08eb5f2cb6b7a7832831d3255309a", "fusion_lat": 0.0, "fusion_lon": 0.0, "rental_uris": {"android": "https://dc.lft.to/lastmile_qr_scan", "ios": "https://dc.lft.to/lastmile_qr_scan"}, "is_reserved": 0, "is_disabled": 0, "type": "electric_scooter", "bike_id": "0ef08eb5f2cb6b7a7832831d3255309a"}, {"lon": -77.01648733333333, "lat": 38.8999365, "name": "370e513c4af5c95e95139f54d8c0b47c", "fusion_lat": 0.0, "fusion_lon": 0.0, "rental_uris": {"android": "https://dc.lft.to/lastmile_qr_scan", "ios": "https://dc.lft.to/lastmile_qr_scan"}, "is_reserved": 0, "is_disabled": 0, "type": "electric_scooter", "bike_id": "370e513c4af5c95e95139f54d8c0b47c"}, {"lon": -77.05518183333334, "lat": 38.930010333333335, "name": "4c7e5ad01888a2c5569b579fd19d12c6", "fusion_lat": 0.0, "fusion_lon": 0.0, "rental_uris": {"android": "https://dc.lft.to/lastmile_qr_scan", "ios": "https://dc.lft.to/lastmile_qr_scan"}, "is_reserved": 0, "is_disabled": 0, "type": "electric_scooter", "bike_id": "4c7e5ad01888a2c5569b579fd19d12c6"}, {"lon": -77.042631, "lat": 38.92233816666667, "name": "13c68515755635a35433a7facd44683a", "fusion_lat": 0.0, "fusion_lon": 0.0, "rental_uris": {"android": "https://dc.lft.to/lastmile_qr_scan", "ios": "https://dc.lft.to/lastmile_qr_scan"}, "is_reserved": 0, "is_disabled": 0, "type": "electric_scooter", "bike_id": "13c68515755635a35433a7facd44683a"}, {"lon": -77.01118533333333, "lat": 38.87080866666667, "name": "628a6045c515277a19267ed5962d17c5", "fusion_lat": 0.0, "fusion_lon": 0.0, "rental_uris": {"android": "https://dc.lft.to/lastmile_qr_scan", "ios": "https://dc.lft.to/lastmile_qr_scan"}, "is_reserved": 0, "is_disabled": 0, "type": "electric_scooter", "bike_id": "628a6045c515277a19267ed5962d17c5"}, {"lon": -77.07723066666667, "lat": 38.947035166666666, "name": "c785293a34e5c342438f0a9a60b07487", "fusion_lat": 0.0, "fusion_lon": 0.0, "rental_uris": {"android": "https://dc.lft.to/lastmile_qr_scan", "ios": "https://dc.lft.to/lastmile_qr_scan"}, "is_reserved": 0, "is_disabled": 0, "type": "electric_scooter", "bike_id": "c785293a34e5c342438f0a9a60b07487"}, {"lon": -77.03375516666667, "lat": 38.93207983333333, "name": "a67b2082eaac4c19b82f7d241ab00340", "fusion_lat": 0.0, "fusion_lon": 0.0, "rental_uris": {"android": "https://dc.lft.to/lastmile_qr_scan", "ios": "https://dc.lft.to/lastmile_qr_scan"}, "is_reserved": 0, "is_disabled": 0, "type": "electric_scooter", "bike_id": "a67b2082eaac4c19b82f7d241ab00340"}, {"lon": -77.03762416666666, "lat": 38.939566, "name": "368d9fb18cc5bb986cd76b6f5bd314c1", "fusion_lat": 0.0, "fusion_lon": 0.0, "rental_uris": {"android": "https://dc.lft.to/lastmile_qr_scan", "ios": "https://dc.lft.to/lastmile_qr_scan"}, "is_reserved": 0, "is_disabled": 0, "type": "electric_bike", "bike_id": "368d9fb18cc5bb986cd76b6f5bd314c1"}, {"lon": -76.9731035, "lat": 38.919877, "name": "cfed61717b6fbaba65452dd59cad1459", "fusion_lat": 0.0, "fusion_lon": 0.0, "rental_uris": {"android": "https://dc.lft.to/lastmile_qr_scan", "ios": "https://dc.lft.to/lastmile_qr_scan"}, "is_reserved": 0, "is_disabled": 0, "type": "electric_scooter", "bike_id": "cfed61717b6fbaba65452dd59cad1459"}, {"lon": -77.0060405, "lat": 38.884922833333334, "name": "621a715769c4f6e5ce7f5f26f3c2e927", "fusion_lat": 0.0, "fusion_lon": 0.0, "rental_uris": {"android": "https://dc.lft.to/lastmile_qr_scan", "ios": "https://dc.lft.to/lastmile_qr_scan"}, "is_reserved": 0, "is_disabled": 0, "type": "electric_scooter", "bike_id": "621a715769c4f6e5ce7f5f26f3c2e927"}, {"lon": -77.032666, "lat": 38.93445466666667, "name": "f08cd7ea6efbd7ed3c029593583437d3", "fusion_lat": 0.0, "fusion_lon": 0.0, "rental_uris": {"android": "https://dc.lft.to/lastmile_qr_scan", "ios": "https://dc.lft.to/lastmile_qr_scan"}, "is_reserved": 0, "is_disabled": 0, "type": "electric_scooter", "bike_id": "f08cd7ea6efbd7ed3c029593583437d3"}, {"lon": -77.02279666666666, "lat": 38.92555016666667, "name": "02d9195f1efb1bbbe6430ceb2d17c8a4", "fusion_lat": 0.0, "fusion_lon": 0.0, "rental_uris": {"android": "https://dc.lft.to/lastmile_qr_scan", "ios": "https://dc.lft.to/lastmile_qr_scan"}, "is_reserved": 0, "is_disabled": 0, "type": "electric_scooter", "bike_id": "02d9195f1efb1bbbe6430ceb2d17c8a4"}, {"lon": -77.01415233333333, "lat": 38.8909175, "name": "1c90e87e77525a7badb5db831df2f6cb", "fusion_lat": 0.0, "fusion_lon": 0.0, "rental_uris": {"android": "https://dc.lft.to/lastmile_qr_scan", "ios": "https://dc.lft.to/lastmile_qr_scan"}, "is_reserved": 0, "is_disabled": 0, "type": "electric_scooter", "bike_id": "1c90e87e77525a7badb5db831df2f6cb"}, {"lon": -77.0249045, "lat": 38.938617666666666, "name": "8727dcee80c7879bd02e3ce7a101dd17", "fusion_lat": 0.0, "fusion_lon": 0.0, "rental_uris": {"android": "https://dc.lft.to/lastmile_qr_scan", "ios": "https://dc.lft.to/lastmile_qr_scan"}, "is_reserved": 0, "is_disabled": 0, "type": "electric_scooter", "bike_id": "8727dcee80c7879bd02e3ce7a101dd17"}, {"lon": -77.03229383333333, "lat": 38.89222633333333, "name": "43012ac33695a455289d17b9ef279419", "fusion_lat": 0.0, "fusion_lon": 0.0, "rental_uris": {"android": "https://dc.lft.to/lastmile_qr_scan", "ios": "https://dc.lft.to/lastmile_qr_scan"}, "is_reserved": 0, "is_disabled": 0, "type": "electric_scooter", "bike_id": "43012ac33695a455289d17b9ef279419"}, {"lon": -77.024282, "lat": 38.90210733333333, "name": "0c8c42ad8ca50900bbd1e3caf053792e", "fusion_lat": 0.0, "fusion_lon": 0.0, "rental_uris": {"android": "https://dc.lft.to/lastmile_qr_scan", "ios": "https://dc.lft.to/lastmile_qr_scan"}, "is_reserved": 0, "is_disabled": 0, "type": "electric_scooter", "bike_id": "0c8c42ad8ca50900bbd1e3caf053792e"}, {"lon": -77.04147633333334, "lat": 38.923024166666664, "name": "f50821ac0663728c601784d60b7eac67", "fusion_lat": 0.0, "fusion_lon": 0.0, "rental_uris": {"android": "https://dc.lft.to/lastmile_qr_scan", "ios": "https://dc.lft.to/lastmile_qr_scan"}, "is_reserved": 0, "is_disabled": 0, "type": "electric_scooter", "bike_id": "f50821ac0663728c601784d60b7eac67"}, {"lon": -77.02721, "lat": 38.909526666666665, "name": "52f41cb1729ffe481dcd82ff99a3f6d7", "fusion_lat": 0.0, "fusion_lon": 0.0, "rental_uris": {"android": "https://dc.lft.to/lastmile_qr_scan", "ios": "https://dc.lft.to/lastmile_qr_scan"}, "is_reserved": 0, "is_disabled": 0, "type": "electric_scooter", "bike_id": "52f41cb1729ffe481dcd82ff99a3f6d7"}, {"lon": -77.03966066666666, "lat": 38.899030333333336, "name": "1635ac6961ea90267b796a0c8002fedd", "fusion_lat": 0.0, "fusion_lon": 0.0, "rental_uris": {"android": "https://dc.lft.to/lastmile_qr_scan", "ios": "https://dc.lft.to/lastmile_qr_scan"}, "is_reserved": 0, "is_disabled": 0, "type": "electric_scooter", "bike_id": "1635ac6961ea90267b796a0c8002fedd"}, {"lon": -77.03298383333333, "lat": 38.9082875, "name": "0dac3358348ce86c0d16ed9bcbc54fc1", "fusion_lat": 0.0, "fusion_lon": 0.0, "rental_uris": {"android": "https://dc.lft.to/lastmile_qr_scan", "ios": "https://dc.lft.to/lastmile_qr_scan"}, "is_reserved": 0, "is_disabled": 0, "type": "electric_scooter", "bike_id": "0dac3358348ce86c0d16ed9bcbc54fc1"}, {"lon": -77.013798, "lat": 38.8982405, "name": "992f5251e5c74c8557ee1f526edc5082", "fusion_lat": 0.0, "fusion_lon": 0.0, "rental_uris": {"android": "https://dc.lft.to/lastmile_qr_scan", "ios": "https://dc.lft.to/lastmile_qr_scan"}, "is_reserved": 0, "is_disabled": 0, "type": "electric_scooter", "bike_id": "992f5251e5c74c8557ee1f526edc5082"}, {"lon": -76.99841933333333, "lat": 38.88804783333333, "name": "ede5922668e834127c4725bdd77072c8", "fusion_lat": 0.0, "fusion_lon": 0.0, "rental_uris": {"android": "https://dc.lft.to/lastmile_qr_scan", "ios": "https://dc.lft.to/lastmile_qr_scan"}, "is_reserved": 0, "is_disabled": 0, "type": "electric_scooter", "bike_id": "ede5922668e834127c4725bdd77072c8"}, {"lon": -76.98550816666666, "lat": 38.899515, "name": "16d48d5902e0dc343cc2a0c47294638f", "fusion_lat": 0.0, "fusion_lon": 0.0, "rental_uris": {"android": "https://dc.lft.to/lastmile_qr_scan", "ios": "https://dc.lft.to/lastmile_qr_scan"}, "is_reserved": 0, "is_disabled": 0, "type": "electric_scooter", "bike_id": "16d48d5902e0dc343cc2a0c47294638f"}, {"lon": -76.97933833333333, "lat": 38.866084, "name": "4b401ebc8a1abf7870133ecf3df45256", "fusion_lat": 0.0, "fusion_lon": 0.0, "rental_uris": {"android": "https://dc.lft.to/lastmile_qr_scan", "ios": "https://dc.lft.to/lastmile_qr_scan"}, "is_reserved": 0, "is_disabled": 0, "type": "electric_scooter", "bike_id": "4b401ebc8a1abf7870133ecf3df45256"}, {"lon": -77.05923616666666, "lat": 38.901499666666666, "name": "59ef4fcaffc419aaa9c3ec003804ef1c", "fusion_lat": 0.0, "fusion_lon": 0.0, "rental_uris": {"android": "https://dc.lft.to/lastmile_qr_scan", "ios": "https://dc.lft.to/lastmile_qr_scan"}, "is_reserved": 0, "is_disabled": 0, "type": "electric_scooter", "bike_id": "59ef4fcaffc419aaa9c3ec003804ef1c"}, {"lon": -77.039927, "lat": 38.924280333333336, "name": "7fd11e3a8225bc6212c5140cf5e87c03", "fusion_lat": 0.0, "fusion_lon": 0.0, "rental_uris": {"android": "https://dc.lft.to/lastmile_qr_scan", "ios": "https://dc.lft.to/lastmile_qr_scan"}, "is_reserved": 0, "is_disabled": 0, "type": "electric_scooter", "bike_id": "7fd11e3a8225bc6212c5140cf5e87c03"}, {"lon": -76.931801, "lat": 38.89881616666667, "name": "d4952da3ca71512903eaf3e9666671db", "fusion_lat": 0.0, "fusion_lon": 0.0, "rental_uris": {"android": "https://dc.lft.to/lastmile_qr_scan", "ios": "https://dc.lft.to/lastmile_qr_scan"}, "is_reserved": 0, "is_disabled": 0, "type": "electric_scooter", "bike_id": "d4952da3ca71512903eaf3e9666671db"}, {"lon": -76.98164633333333, "lat": 38.845837833333334, "name": "9faa30dd9d7df7466dd8993253455fcf", "fusion_lat": 0.0, "fusion_lon": 0.0, "rental_uris": {"android": "https://dc.lft.to/lastmile_qr_scan", "ios": "https://dc.lft.to/lastmile_qr_scan"}, "is_reserved": 0, "is_disabled": 0, "type": "electric_bike", "bike_id": "9faa30dd9d7df7466dd8993253455fcf"}, {"lon": -77.03355766666667, "lat": 38.885091333333335, "name": "ba9dd8cff581bb8cdb0b2023f65e5706", "fusion_lat": 0.0, "fusion_lon": 0.0, "rental_uris": {"android": "https://dc.lft.to/lastmile_qr_scan", "ios": "https://dc.lft.to/lastmile_qr_scan"}, "is_reserved": 0, "is_disabled": 0, "type": "electric_scooter", "bike_id": "ba9dd8cff581bb8cdb0b2023f65e5706"}, {"lon": -77.0413435, "lat": 38.906162, "name": "8a3bee37f3458a178ca38ea328e228e9", "fusion_lat": 0.0, "fusion_lon": 0.0, "rental_uris": {"android": "https://dc.lft.to/lastmile_qr_scan", "ios": "https://dc.lft.to/lastmile_qr_scan"}, "is_reserved": 0, "is_disabled": 0, "type": "electric_scooter", "bike_id": "8a3bee37f3458a178ca38ea328e228e9"}, {"lon": -77.10706333333333, "lat": 38.8557105, "name": "23720dc62224d87ce54eeffbaaa9ba09", "fusion_lat": 0.0, "fusion_lon": 0.0, "rental_uris": {"android": "https://dc.lft.to/lastmile_qr_scan", "ios": "https://dc.lft.to/lastmile_qr_scan"}, "is_reserved": 0, "is_disabled": 0, "type": "electric_bike", "bike_id": "23720dc62224d87ce54eeffbaaa9ba09"}, {"lon": -76.99273633333334, "lat": 38.896900333333335, "name": "b2e40dc758221f3cbca6fb832f6a7919", "fusion_lat": 0.0, "fusion_lon": 0.0, "rental_uris": {"android": "https://dc.lft.to/lastmile_qr_scan", "ios": "https://dc.lft.to/lastmile_qr_scan"}, "is_reserved": 0, "is_disabled": 0, "type": "electric_scooter", "bike_id": "b2e40dc758221f3cbca6fb832f6a7919"}, {"lon": -76.9947485, "lat": 38.8620925, "name": "27c6c4bdee98475df41ce65b079df769", "fusion_lat": 0.0, "fusion_lon": 0.0, "rental_uris": {"android": "https://dc.lft.to/lastmile_qr_scan", "ios": "https://dc.lft.to/lastmile_qr_scan"}, "is_reserved": 0, "is_disabled": 0, "type": "electric_scooter", "bike_id": "27c6c4bdee98475df41ce65b079df769"}, {"lon": -76.94844766666667, "lat": 38.894817833333335, "name": "105573f10f1a6338b87c2ef469513665", "fusion_lat": 0.0, "fusion_lon": 0.0, "rental_uris": {"android": "https://dc.lft.to/lastmile_qr_scan", "ios": "https://dc.lft.to/lastmile_qr_scan"}, "is_reserved": 0, "is_disabled": 0, "type": "electric_scooter", "bike_id": "105573f10f1a6338b87c2ef469513665"}, {"lon": -77.04162066666666, "lat": 38.90732716666667, "name": "71058d7a49eeed026784a1a6f20ef937", "fusion_lat": 0.0, "fusion_lon": 0.0, "rental_uris": {"android": "https://dc.lft.to/lastmile_qr_scan", "ios": "https://dc.lft.to/lastmile_qr_scan"}, "is_reserved": 0, "is_disabled": 0, "type": "electric_scooter", "bike_id": "71058d7a49eeed026784a1a6f20ef937"}, {"lon": -77.0653145, "lat": 38.911243166666665, "name": "9e91a77cd757c9aa003abcaed7a60db2", "fusion_lat": 0.0, "fusion_lon": 0.0, "rental_uris": {"android": "https://dc.lft.to/lastmile_qr_scan", "ios": "https://dc.lft.to/lastmile_qr_scan"}, "is_reserved": 0, "is_disabled": 0, "type": "electric_scooter", "bike_id": "9e91a77cd757c9aa003abcaed7a60db2"}, {"lon": -77.032284, "lat": 38.938702166666666, "name": "b634ba8f961c439947a195dd8cf5ba69", "fusion_lat": 0.0, "fusion_lon": 0.0, "rental_uris": {"android": "https://dc.lft.to/lastmile_qr_scan", "ios": "https://dc.lft.to/lastmile_qr_scan"}, "is_reserved": 0, "is_disabled": 0, "type": "electric_scooter", "bike_id": "b634ba8f961c439947a195dd8cf5ba69"}, {"lon": -76.99519416666666, "lat": 38.89477483333334, "name": "4ce9175988b999e2b6e3f4dc0929643f", "fusion_lat": 0.0, "fusion_lon": 0.0, "rental_uris": {"android": "https://dc.lft.to/lastmile_qr_scan", "ios": "https://dc.lft.to/lastmile_qr_scan"}, "is_reserved": 0, "is_disabled": 0, "type": "electric_scooter", "bike_id": "4ce9175988b999e2b6e3f4dc0929643f"}, {"lon": -77.03211583333334, "lat": 38.911471, "name": "deff68791e5f66be90a43ade2b074c17", "fusion_lat": 0.0, "fusion_lon": 0.0, "rental_uris": {"android": "https://dc.lft.to/lastmile_qr_scan", "ios": "https://dc.lft.to/lastmile_qr_scan"}, "is_reserved": 0, "is_disabled": 0, "type": "electric_scooter", "bike_id": "deff68791e5f66be90a43ade2b074c17"}, {"lon": -76.94854683333334, "lat": 38.882942, "name": "e3f3609ed484810a53b16d690b538645", "fusion_lat": 0.0, "fusion_lon": 0.0, "rental_uris": {"android": "https://dc.lft.to/lastmile_qr_scan", "ios": "https://dc.lft.to/lastmile_qr_scan"}, "is_reserved": 0, "is_disabled": 0, "type": "electric_scooter", "bike_id": "e3f3609ed484810a53b16d690b538645"}, {"lon": -77.04736116666666, "lat": 38.91267416666667, "name": "1c53d3bffb24dbebd42ff9ca78525051", "fusion_lat": 0.0, "fusion_lon": 0.0, "rental_uris": {"android": "https://dc.lft.to/lastmile_qr_scan", "ios": "https://dc.lft.to/lastmile_qr_scan"}, "is_reserved": 0, "is_disabled": 0, "type": "electric_scooter", "bike_id": "1c53d3bffb24dbebd42ff9ca78525051"}, {"lon": -76.98415466666667, "lat": 38.8596625, "name": "7d208474e5ea7ee93bd8e7adef71c579", "fusion_lat": 0.0, "fusion_lon": 0.0, "rental_uris": {"android": "https://dc.lft.to/lastmile_qr_scan", "ios": "https://dc.lft.to/lastmile_qr_scan"}, "is_reserved": 0, "is_disabled": 0, "type": "electric_scooter", "bike_id": "7d208474e5ea7ee93bd8e7adef71c579"}, {"lon": -77.02760183333334, "lat": 38.94287583333333, "name": "a7973148a5df744687455ad11ed203fb", "fusion_lat": 0.0, "fusion_lon": 0.0, "rental_uris": {"android": "https://dc.lft.to/lastmile_qr_scan", "ios": "https://dc.lft.to/lastmile_qr_scan"}, "is_reserved": 0, "is_disabled": 0, "type": "electric_scooter", "bike_id": "a7973148a5df744687455ad11ed203fb"}, {"lon": -77.10509566666667, "lat": 38.928439, "name": "8940c04201b5f51a2ce95df859001b13", "fusion_lat": 0.0, "fusion_lon": 0.0, "rental_uris": {"android": "https://dc.lft.to/lastmile_qr_scan", "ios": "https://dc.lft.to/lastmile_qr_scan"}, "is_reserved": 0, "is_disabled": 0, "type": "electric_bike", "bike_id": "8940c04201b5f51a2ce95df859001b13"}, {"lon": -77.0028075, "lat": 38.89739333333333, "name": "5009407a50be59dcdeb7d52c6e03faea", "fusion_lat": 0.0, "fusion_lon": 0.0, "rental_uris": {"android": "https://dc.lft.to/lastmile_qr_scan", "ios": "https://dc.lft.to/lastmile_qr_scan"}, "is_reserved": 0, "is_disabled": 0, "type": "electric_scooter", "bike_id": "5009407a50be59dcdeb7d52c6e03faea"}, {"lon": -77.0283235, "lat": 38.9025845, "name": "865fefe24f5ef3240425d5c96b5ed749", "fusion_lat": 0.0, "fusion_lon": 0.0, "rental_uris": {"android": "https://dc.lft.to/lastmile_qr_scan", "ios": "https://dc.lft.to/lastmile_qr_scan"}, "is_reserved": 0, "is_disabled": 0, "type": "electric_scooter", "bike_id": "865fefe24f5ef3240425d5c96b5ed749"}, {"lon": -77.08948816666667, "lat": 38.84104766666667, "name": "f6180c656f08db539b8eb3c1ff4f3d26", "fusion_lat": 0.0, "fusion_lon": 0.0, "rental_uris": {"android": "https://dc.lft.to/lastmile_qr_scan", "ios": "https://dc.lft.to/lastmile_qr_scan"}, "is_reserved": 0, "is_disabled": 0, "type": "electric_bike", "bike_id": "f6180c656f08db539b8eb3c1ff4f3d26"}, {"lon": -77.04503366666667, "lat": 38.90778916666667, "name": "96351b54b7eb951b08b1c0cb4b71c0fa", "fusion_lat": 0.0, "fusion_lon": 0.0, "rental_uris": {"android": "https://dc.lft.to/lastmile_qr_scan", "ios": "https://dc.lft.to/lastmile_qr_scan"}, "is_reserved": 0, "is_disabled": 0, "type": "electric_scooter", "bike_id": "96351b54b7eb951b08b1c0cb4b71c0fa"}, {"lon": -77.02214633333334, "lat": 38.88764466666667, "name": "1061d368aecafe3955de5bf4e09d8ba4", "fusion_lat": 0.0, "fusion_lon": 0.0, "rental_uris": {"android": "https://dc.lft.to/lastmile_qr_scan", "ios": "https://dc.lft.to/lastmile_qr_scan"}, "is_reserved": 0, "is_disabled": 0, "type": "electric_scooter", "bike_id": "1061d368aecafe3955de5bf4e09d8ba4"}, {"lon": -77.05531666666667, "lat": 38.899424333333336, "name": "50e673a3de78ad8bbdfca03da1ffe618", "fusion_lat": 0.0, "fusion_lon": 0.0, "rental_uris": {"android": "https://dc.lft.to/lastmile_qr_scan", "ios": "https://dc.lft.to/lastmile_qr_scan"}, "is_reserved": 0, "is_disabled": 0, "type": "electric_scooter", "bike_id": "50e673a3de78ad8bbdfca03da1ffe618"}, {"lon": -77.0309885, "lat": 38.90043216666667, "name": "2b4345cbcfbaf4c9656662c8a924497e", "fusion_lat": 0.0, "fusion_lon": 0.0, "rental_uris": {"android": "https://dc.lft.to/lastmile_qr_scan", "ios": "https://dc.lft.to/lastmile_qr_scan"}, "is_reserved": 0, "is_disabled": 0, "type": "electric_scooter", "bike_id": "2b4345cbcfbaf4c9656662c8a924497e"}, {"lon": -77.012099, "lat": 38.900091833333335, "name": "da128893ddb411bf1f066c00d08229f1", "fusion_lat": 0.0, "fusion_lon": 0.0, "rental_uris": {"android": "https://dc.lft.to/lastmile_qr_scan", "ios": "https://dc.lft.to/lastmile_qr_scan"}, "is_reserved": 0, "is_disabled": 0, "type": "electric_scooter", "bike_id": "da128893ddb411bf1f066c00d08229f1"}, {"lon": -77.031806, "lat": 38.91609666666667, "name": "bf86840cb0501599ff23d5a47b7e1d4d", "fusion_lat": 0.0, "fusion_lon": 0.0, "rental_uris": {"android": "https://dc.lft.to/lastmile_qr_scan", "ios": "https://dc.lft.to/lastmile_qr_scan"}, "is_reserved": 0, "is_disabled": 0, "type": "electric_scooter", "bike_id": "bf86840cb0501599ff23d5a47b7e1d4d"}, {"lon": -77.027002, "lat": 38.90251683333334, "name": "f91988e1f6b24c809fd4ed95c5f5ace7", "fusion_lat": 0.0, "fusion_lon": 0.0, "rental_uris": {"android": "https://dc.lft.to/lastmile_qr_scan", "ios": "https://dc.lft.to/lastmile_qr_scan"}, "is_reserved": 0, "is_disabled": 0, "type": "electric_scooter", "bike_id": "f91988e1f6b24c809fd4ed95c5f5ace7"}, {"lon": -77.12737633333333, "lat": 38.88816583333333, "name": "baf998ed3f97c347f4faa3445ce03eba", "fusion_lat": 0.0, "fusion_lon": 0.0, "rental_uris": {"android": "https://dc.lft.to/lastmile_qr_scan", "ios": "https://dc.lft.to/lastmile_qr_scan"}, "is_reserved": 0, "is_disabled": 0, "type": "electric_bike", "bike_id": "baf998ed3f97c347f4faa3445ce03eba"}, {"lon": -77.03943216666667, "lat": 38.902398166666664, "name": "18e23f52b5fd9788204f93d58bb60874", "fusion_lat": 0.0, "fusion_lon": 0.0, "rental_uris": {"android": "https://dc.lft.to/lastmile_qr_scan", "ios": "https://dc.lft.to/lastmile_qr_scan"}, "is_reserved": 0, "is_disabled": 0, "type": "electric_scooter", "bike_id": "18e23f52b5fd9788204f93d58bb60874"}, {"lon": -77.02605433333333, "lat": 38.8924445, "name": "baee9c6122628ed4c5456b1a6944e07c", "fusion_lat": 0.0, "fusion_lon": 0.0, "rental_uris": {"android": "https://dc.lft.to/lastmile_qr_scan", "ios": "https://dc.lft.to/lastmile_qr_scan"}, "is_reserved": 0, "is_disabled": 0, "type": "electric_scooter", "bike_id": "baee9c6122628ed4c5456b1a6944e07c"}, {"lon": -77.038333, "lat": 38.911096666666666, "name": "7236bb5cfeb5dd27e91ca13e9d81bb85", "fusion_lat": 0.0, "fusion_lon": 0.0, "rental_uris": {"android": "https://dc.lft.to/lastmile_qr_scan", "ios": "https://dc.lft.to/lastmile_qr_scan"}, "is_reserved": 0, "is_disabled": 0, "type": "electric_scooter", "bike_id": "7236bb5cfeb5dd27e91ca13e9d81bb85"}, {"lon": -76.9412125, "lat": 38.90794966666667, "name": "705790575541ff72cd26b5b10b0d8b0d", "fusion_lat": 0.0, "fusion_lon": 0.0, "rental_uris": {"android": "https://dc.lft.to/lastmile_qr_scan", "ios": "https://dc.lft.to/lastmile_qr_scan"}, "is_reserved": 0, "is_disabled": 0, "type": "electric_scooter", "bike_id": "705790575541ff72cd26b5b10b0d8b0d"}, {"lon": -76.93813566666667, "lat": 38.9130285, "name": "52824459b9986f83fdfa14413c0798e9", "fusion_lat": 0.0, "fusion_lon": 0.0, "rental_uris": {"android": "https://dc.lft.to/lastmile_qr_scan", "ios": "https://dc.lft.to/lastmile_qr_scan"}, "is_reserved": 0, "is_disabled": 0, "type": "electric_scooter", "bike_id": "52824459b9986f83fdfa14413c0798e9"}, {"lon": -76.9315965, "lat": 38.898767, "name": "ae1228523874c7151e7b47d98537a433", "fusion_lat": 0.0, "fusion_lon": 0.0, "rental_uris": {"android": "https://dc.lft.to/lastmile_qr_scan", "ios": "https://dc.lft.to/lastmile_qr_scan"}, "is_reserved": 0, "is_disabled": 0, "type": "electric_scooter", "bike_id": "ae1228523874c7151e7b47d98537a433"}, {"lon": -76.9877275, "lat": 38.911731833333334, "name": "99846a1608c28da53e2bf7cf46fde95e", "fusion_lat": 0.0, "fusion_lon": 0.0, "rental_uris": {"android": "https://dc.lft.to/lastmile_qr_scan", "ios": "https://dc.lft.to/lastmile_qr_scan"}, "is_reserved": 0, "is_disabled": 0, "type": "electric_scooter", "bike_id": "99846a1608c28da53e2bf7cf46fde95e"}, {"lon": -77.05007333333333, "lat": 38.901802833333335, "name": "fdc7fd777d868a27fba02d8e978c857a", "fusion_lat": 0.0, "fusion_lon": 0.0, "rental_uris": {"android": "https://dc.lft.to/lastmile_qr_scan", "ios": "https://dc.lft.to/lastmile_qr_scan"}, "is_reserved": 0, "is_disabled": 0, "type": "electric_scooter", "bike_id": "fdc7fd777d868a27fba02d8e978c857a"}, {"lon": -77.02396066666667, "lat": 38.887342333333336, "name": "b9706069a57123a520f5949987444258", "fusion_lat": 0.0, "fusion_lon": 0.0, "rental_uris": {"android": "https://dc.lft.to/lastmile_qr_scan", "ios": "https://dc.lft.to/lastmile_qr_scan"}, "is_reserved": 0, "is_disabled": 0, "type": "electric_scooter", "bike_id": "b9706069a57123a520f5949987444258"}, {"lon": -77.04275016666666, "lat": 38.8984045, "name": "81736f567a568df2fe944afafd3ebce1", "fusion_lat": 0.0, "fusion_lon": 0.0, "rental_uris": {"android": "https://dc.lft.to/lastmile_qr_scan", "ios": "https://dc.lft.to/lastmile_qr_scan"}, "is_reserved": 0, "is_disabled": 0, "type": "electric_scooter", "bike_id": "81736f567a568df2fe944afafd3ebce1"}, {"lon": -77.042877, "lat": 38.911119, "name": "a90a5f527df737572c5fa7fe80657a2d", "fusion_lat": 0.0, "fusion_lon": 0.0, "rental_uris": {"android": "https://dc.lft.to/lastmile_qr_scan", "ios": "https://dc.lft.to/lastmile_qr_scan"}, "is_reserved": 0, "is_disabled": 0, "type": "electric_scooter", "bike_id": "a90a5f527df737572c5fa7fe80657a2d"}, {"lon": -77.06162116666667, "lat": 38.94212816666667, "name": "c7a0cfc0e345cb0a19631a6fe69cef91", "fusion_lat": 0.0, "fusion_lon": 0.0, "rental_uris": {"android": "https://dc.lft.to/lastmile_qr_scan", "ios": "https://dc.lft.to/lastmile_qr_scan"}, "is_reserved": 0, "is_disabled": 0, "type": "electric_scooter", "bike_id": "c7a0cfc0e345cb0a19631a6fe69cef91"}, {"lon": -77.1295985, "lat": 38.8521505, "name": "8433a3f6443163aae2a67acc90dd4ec7", "fusion_lat": 0.0, "fusion_lon": 0.0, "rental_uris": {"android": "https://dc.lft.to/lastmile_qr_scan", "ios": "https://dc.lft.to/lastmile_qr_scan"}, "is_reserved": 0, "is_disabled": 0, "type": "electric_bike", "bike_id": "8433a3f6443163aae2a67acc90dd4ec7"}, {"lon": -77.04516833333334, "lat": 38.89216033333334, "name": "55b520371d888d72af29611fe31ae2e6", "fusion_lat": 0.0, "fusion_lon": 0.0, "rental_uris": {"android": "https://dc.lft.to/lastmile_qr_scan", "ios": "https://dc.lft.to/lastmile_qr_scan"}, "is_reserved": 0, "is_disabled": 0, "type": "electric_scooter", "bike_id": "55b520371d888d72af29611fe31ae2e6"}, {"lon": -77.0248645, "lat": 38.917584, "name": "e47ac3151974f11688aba704b9835823", "fusion_lat": 0.0, "fusion_lon": 0.0, "rental_uris": {"android": "https://dc.lft.to/lastmile_qr_scan", "ios": "https://dc.lft.to/lastmile_qr_scan"}, "is_reserved": 0, "is_disabled": 0, "type": "electric_scooter", "bike_id": "e47ac3151974f11688aba704b9835823"}, {"lon": -76.94216333333334, "lat": 38.8966615, "name": "8c3fb54e21c45cfc4c4ab8c3d556f289", "fusion_lat": 0.0, "fusion_lon": 0.0, "rental_uris": {"android": "https://dc.lft.to/lastmile_qr_scan", "ios": "https://dc.lft.to/lastmile_qr_scan"}, "is_reserved": 0, "is_disabled": 0, "type": "electric_scooter", "bike_id": "8c3fb54e21c45cfc4c4ab8c3d556f289"}, {"lon": -77.0334095, "lat": 38.9216355, "name": "3dad21708ba76fcbd8293910f7668daa", "fusion_lat": 0.0, "fusion_lon": 0.0, "rental_uris": {"android": "https://dc.lft.to/lastmile_qr_scan", "ios": "https://dc.lft.to/lastmile_qr_scan"}, "is_reserved": 0, "is_disabled": 0, "type": "electric_scooter", "bike_id": "3dad21708ba76fcbd8293910f7668daa"}, {"lon": -77.09208983333333, "lat": 38.9413445, "name": "6e4d82030fe857627619db3bdd9d002f", "fusion_lat": 0.0, "fusion_lon": 0.0, "rental_uris": {"android": "https://dc.lft.to/lastmile_qr_scan", "ios": "https://dc.lft.to/lastmile_qr_scan"}, "is_reserved": 0, "is_disabled": 0, "type": "electric_scooter", "bike_id": "6e4d82030fe857627619db3bdd9d002f"}, {"lon": -76.99515383333333, "lat": 38.8947915, "name": "de9449fe03ee8f4ea38918c4932f3487", "fusion_lat": 0.0, "fusion_lon": 0.0, "rental_uris": {"android": "https://dc.lft.to/lastmile_qr_scan", "ios": "https://dc.lft.to/lastmile_qr_scan"}, "is_reserved": 0, "is_disabled": 0, "type": "electric_scooter", "bike_id": "de9449fe03ee8f4ea38918c4932f3487"}, {"lon": -77.003367, "lat": 38.89356266666667, "name": "221b20aabb7b73c756d5a95934cc0eea", "fusion_lat": 0.0, "fusion_lon": 0.0, "rental_uris": {"android": "https://dc.lft.to/lastmile_qr_scan", "ios": "https://dc.lft.to/lastmile_qr_scan"}, "is_reserved": 0, "is_disabled": 0, "type": "electric_scooter", "bike_id": "221b20aabb7b73c756d5a95934cc0eea"}, {"lon": -77.0059135, "lat": 38.90579283333334, "name": "25120ad7d6d8b6b8eb0e3e76fd673fda", "fusion_lat": 0.0, "fusion_lon": 0.0, "rental_uris": {"android": "https://dc.lft.to/lastmile_qr_scan", "ios": "https://dc.lft.to/lastmile_qr_scan"}, "is_reserved": 0, "is_disabled": 0, "type": "electric_scooter", "bike_id": "25120ad7d6d8b6b8eb0e3e76fd673fda"}, {"lon": -77.01210983333333, "lat": 38.90010866666667, "name": "c037ddb313d7a1072aeaa685caf9807f", "fusion_lat": 0.0, "fusion_lon": 0.0, "rental_uris": {"android": "https://dc.lft.to/lastmile_qr_scan", "ios": "https://dc.lft.to/lastmile_qr_scan"}, "is_reserved": 0, "is_disabled": 0, "type": "electric_scooter", "bike_id": "c037ddb313d7a1072aeaa685caf9807f"}, {"lon": -77.04636, "lat": 38.892108666666665, "name": "34148e08d1ea217b158c62452b6ade66", "fusion_lat": 0.0, "fusion_lon": 0.0, "rental_uris": {"android": "https://dc.lft.to/lastmile_qr_scan", "ios": "https://dc.lft.to/lastmile_qr_scan"}, "is_reserved": 0, "is_disabled": 0, "type": "electric_scooter", "bike_id": "34148e08d1ea217b158c62452b6ade66"}, {"lon": -76.93227866666666, "lat": 38.8659145, "name": "9aef61625897ba87f0eb2a15e05eb634", "fusion_lat": 0.0, "fusion_lon": 0.0, "rental_uris": {"android": "https://dc.lft.to/lastmile_qr_scan", "ios": "https://dc.lft.to/lastmile_qr_scan"}, "is_reserved": 0, "is_disabled": 0, "type": "electric_bike", "bike_id": "9aef61625897ba87f0eb2a15e05eb634"}, {"lon": -77.02227833333333, "lat": 38.91246666666667, "name": "0198158a73ea697d65ac95320f2c90d5", "fusion_lat": 0.0, "fusion_lon": 0.0, "rental_uris": {"android": "https://dc.lft.to/lastmile_qr_scan", "ios": "https://dc.lft.to/lastmile_qr_scan"}, "is_reserved": 0, "is_disabled": 0, "type": "electric_scooter", "bike_id": "0198158a73ea697d65ac95320f2c90d5"}, {"lon": -77.00666133333333, "lat": 38.95560616666667, "name": "59041831aee7d11d58e7d89484f7a20a", "fusion_lat": 0.0, "fusion_lon": 0.0, "rental_uris": {"android": "https://dc.lft.to/lastmile_qr_scan", "ios": "https://dc.lft.to/lastmile_qr_scan"}, "is_reserved": 0, "is_disabled": 0, "type": "electric_scooter", "bike_id": "59041831aee7d11d58e7d89484f7a20a"}, {"lon": -77.00919833333333, "lat": 38.91063883333333, "name": "ddc0ceedd8a13643602bca66716f4d86", "fusion_lat": 0.0, "fusion_lon": 0.0, "rental_uris": {"android": "https://dc.lft.to/lastmile_qr_scan", "ios": "https://dc.lft.to/lastmile_qr_scan"}, "is_reserved": 0, "is_disabled": 0, "type": "electric_scooter", "bike_id": "ddc0ceedd8a13643602bca66716f4d86"}, {"lon": -77.04055733333334, "lat": 38.895314166666665, "name": "ef96a135c9c6fa871c9856583322b880", "fusion_lat": 0.0, "fusion_lon": 0.0, "rental_uris": {"android": "https://dc.lft.to/lastmile_qr_scan", "ios": "https://dc.lft.to/lastmile_qr_scan"}, "is_reserved": 0, "is_disabled": 0, "type": "electric_scooter", "bike_id": "ef96a135c9c6fa871c9856583322b880"}, {"lon": -77.0419735, "lat": 38.90683416666667, "name": "2f6ea671f89a39a7e5d0ee32355d1b43", "fusion_lat": 0.0, "fusion_lon": 0.0, "rental_uris": {"android": "https://dc.lft.to/lastmile_qr_scan", "ios": "https://dc.lft.to/lastmile_qr_scan"}, "is_reserved": 0, "is_disabled": 0, "type": "electric_scooter", "bike_id": "2f6ea671f89a39a7e5d0ee32355d1b43"}, {"lon": -77.01766683333334, "lat": 38.90273533333333, "name": "195256e57030d1e9d0b240b0b8181eb0", "fusion_lat": 0.0, "fusion_lon": 0.0, "rental_uris": {"android": "https://dc.lft.to/lastmile_qr_scan", "ios": "https://dc.lft.to/lastmile_qr_scan"}, "is_reserved": 0, "is_disabled": 0, "type": "electric_scooter", "bike_id": "195256e57030d1e9d0b240b0b8181eb0"}, {"lon": -77.00528516666667, "lat": 38.9169315, "name": "90de329d316d6a8e62caea4113fc7860", "fusion_lat": 0.0, "fusion_lon": 0.0, "rental_uris": {"android": "https://dc.lft.to/lastmile_qr_scan", "ios": "https://dc.lft.to/lastmile_qr_scan"}, "is_reserved": 0, "is_disabled": 0, "type": "electric_scooter", "bike_id": "90de329d316d6a8e62caea4113fc7860"}, {"lon": -76.93716916666666, "lat": 38.8958675, "name": "186afe946ed1aba88121ad0112521b6a", "fusion_lat": 0.0, "fusion_lon": 0.0, "rental_uris": {"android": "https://dc.lft.to/lastmile_qr_scan", "ios": "https://dc.lft.to/lastmile_qr_scan"}, "is_reserved": 0, "is_disabled": 0, "type": "electric_scooter", "bike_id": "186afe946ed1aba88121ad0112521b6a"}, {"lon": -77.008009, "lat": 38.916977333333335, "name": "c53557eb85f4823f17802bf99c8fab79", "fusion_lat": 0.0, "fusion_lon": 0.0, "rental_uris": {"android": "https://dc.lft.to/lastmile_qr_scan", "ios": "https://dc.lft.to/lastmile_qr_scan"}, "is_reserved": 0, "is_disabled": 0, "type": "electric_scooter", "bike_id": "c53557eb85f4823f17802bf99c8fab79"}, {"lon": -77.0405585, "lat": 38.90007766666667, "name": "2a5dc0dc075329b41ffad0eb2f3cea92", "fusion_lat": 0.0, "fusion_lon": 0.0, "rental_uris": {"android": "https://dc.lft.to/lastmile_qr_scan", "ios": "https://dc.lft.to/lastmile_qr_scan"}, "is_reserved": 0, "is_disabled": 0, "type": "electric_scooter", "bike_id": "2a5dc0dc075329b41ffad0eb2f3cea92"}, {"lon": -77.02740666666666, "lat": 38.967182666666666, "name": "83e6dd41a0b2e07601376d7f8cea92bc", "fusion_lat": 0.0, "fusion_lon": 0.0, "rental_uris": {"android": "https://dc.lft.to/lastmile_qr_scan", "ios": "https://dc.lft.to/lastmile_qr_scan"}, "is_reserved": 0, "is_disabled": 0, "type": "electric_scooter", "bike_id": "83e6dd41a0b2e07601376d7f8cea92bc"}, {"lon": -77.03636966666667, "lat": 38.9315135, "name": "68fe02854f85e045bd8aeade0c725a83", "fusion_lat": 0.0, "fusion_lon": 0.0, "rental_uris": {"android": "https://dc.lft.to/lastmile_qr_scan", "ios": "https://dc.lft.to/lastmile_qr_scan"}, "is_reserved": 0, "is_disabled": 0, "type": "electric_scooter", "bike_id": "68fe02854f85e045bd8aeade0c725a83"}, {"lon": -77.010598, "lat": 38.87244716666667, "name": "5290e69339bbfad0449c845db5646aeb", "fusion_lat": 0.0, "fusion_lon": 0.0, "rental_uris": {"android": "https://dc.lft.to/lastmile_qr_scan", "ios": "https://dc.lft.to/lastmile_qr_scan"}, "is_reserved": 0, "is_disabled": 0, "type": "electric_scooter", "bike_id": "5290e69339bbfad0449c845db5646aeb"}, {"lon": -77.0344695, "lat": 38.90944266666666, "name": "2d4a7e9b973daab85616adf1ad1d2267", "fusion_lat": 0.0, "fusion_lon": 0.0, "rental_uris": {"android": "https://dc.lft.to/lastmile_qr_scan", "ios": "https://dc.lft.to/lastmile_qr_scan"}, "is_reserved": 0, "is_disabled": 0, "type": "electric_scooter", "bike_id": "2d4a7e9b973daab85616adf1ad1d2267"}, {"lon": -77.0343775, "lat": 38.9180665, "name": "0f01a4203b44e051667c1c9c1644b570", "fusion_lat": 0.0, "fusion_lon": 0.0, "rental_uris": {"android": "https://dc.lft.to/lastmile_qr_scan", "ios": "https://dc.lft.to/lastmile_qr_scan"}, "is_reserved": 0, "is_disabled": 0, "type": "electric_scooter", "bike_id": "0f01a4203b44e051667c1c9c1644b570"}, {"lon": -77.078915, "lat": 38.919215666666666, "name": "d74a5ecf9b4bff461f9ccdc930141b54", "fusion_lat": 0.0, "fusion_lon": 0.0, "rental_uris": {"android": "https://dc.lft.to/lastmile_qr_scan", "ios": "https://dc.lft.to/lastmile_qr_scan"}, "is_reserved": 0, "is_disabled": 0, "type": "electric_scooter", "bike_id": "d74a5ecf9b4bff461f9ccdc930141b54"}, {"lon": -77.02841316666667, "lat": 38.924785, "name": "18c31e1223f98280173b862806cc1d8f", "fusion_lat": 0.0, "fusion_lon": 0.0, "rental_uris": {"android": "https://dc.lft.to/lastmile_qr_scan", "ios": "https://dc.lft.to/lastmile_qr_scan"}, "is_reserved": 0, "is_disabled": 0, "type": "electric_scooter", "bike_id": "18c31e1223f98280173b862806cc1d8f"}, {"lon": -76.97629383333333, "lat": 38.895724333333334, "name": "c72ecd7619dffb29a9cc3c0b783b18dd", "fusion_lat": 0.0, "fusion_lon": 0.0, "rental_uris": {"android": "https://dc.lft.to/lastmile_qr_scan", "ios": "https://dc.lft.to/lastmile_qr_scan"}, "is_reserved": 0, "is_disabled": 0, "type": "electric_bike", "bike_id": "c72ecd7619dffb29a9cc3c0b783b18dd"}, {"lon": -77.03874116666667, "lat": 38.917019333333336, "name": "3b5a9e6b79ba2b10b48527d756a594ff", "fusion_lat": 0.0, "fusion_lon": 0.0, "rental_uris": {"android": "https://dc.lft.to/lastmile_qr_scan", "ios": "https://dc.lft.to/lastmile_qr_scan"}, "is_reserved": 0, "is_disabled": 0, "type": "electric_scooter", "bike_id": "3b5a9e6b79ba2b10b48527d756a594ff"}, {"lon": -77.038249, "lat": 38.925339, "name": "7210358ae4d8487d0e43b4e301d31062", "fusion_lat": 0.0, "fusion_lon": 0.0, "rental_uris": {"android": "https://dc.lft.to/lastmile_qr_scan", "ios": "https://dc.lft.to/lastmile_qr_scan"}, "is_reserved": 0, "is_disabled": 0, "type": "electric_scooter", "bike_id": "7210358ae4d8487d0e43b4e301d31062"}, {"lon": -77.042441, "lat": 38.924339, "name": "0f43d6b9a624cdc1e3ef9bfd4da46f66", "fusion_lat": 0.0, "fusion_lon": 0.0, "rental_uris": {"android": "https://dc.lft.to/lastmile_qr_scan", "ios": "https://dc.lft.to/lastmile_qr_scan"}, "is_reserved": 0, "is_disabled": 0, "type": "electric_scooter", "bike_id": "0f43d6b9a624cdc1e3ef9bfd4da46f66"}, {"lon": -77.070487, "lat": 38.824452666666666, "name": "fb7ee4d002f6a21cffb629d10bca5e34", "fusion_lat": 0.0, "fusion_lon": 0.0, "rental_uris": {"android": "https://dc.lft.to/lastmile_qr_scan", "ios": "https://dc.lft.to/lastmile_qr_scan"}, "is_reserved": 0, "is_disabled": 0, "type": "electric_bike", "bike_id": "fb7ee4d002f6a21cffb629d10bca5e34"}, {"lon": -77.01704366666667, "lat": 38.905015, "name": "6dbd1821a2c272ef798faa9e76a704c4", "fusion_lat": 0.0, "fusion_lon": 0.0, "rental_uris": {"android": "https://dc.lft.to/lastmile_qr_scan", "ios": "https://dc.lft.to/lastmile_qr_scan"}, "is_reserved": 0, "is_disabled": 0, "type": "electric_scooter", "bike_id": "6dbd1821a2c272ef798faa9e76a704c4"}, {"lon": -77.12986383333333, "lat": 38.79988933333333, "name": "3744d3b1bfecad344445a3087389697d", "fusion_lat": 0.0, "fusion_lon": 0.0, "rental_uris": {"android": "https://dc.lft.to/lastmile_qr_scan", "ios": "https://dc.lft.to/lastmile_qr_scan"}, "is_reserved": 0, "is_disabled": 0, "type": "electric_bike", "bike_id": "3744d3b1bfecad344445a3087389697d"}, {"lon": -76.94722183333333, "lat": 38.89670866666667, "name": "5e04600e9d78cc89c1c943169af44a6a", "fusion_lat": 0.0, "fusion_lon": 0.0, "rental_uris": {"android": "https://dc.lft.to/lastmile_qr_scan", "ios": "https://dc.lft.to/lastmile_qr_scan"}, "is_reserved": 0, "is_disabled": 0, "type": "electric_scooter", "bike_id": "5e04600e9d78cc89c1c943169af44a6a"}, {"lon": -77.0415935, "lat": 38.91424833333333, "name": "e476e0edd488247bb4bff58dd3329738", "fusion_lat": 0.0, "fusion_lon": 0.0, "rental_uris": {"android": "https://dc.lft.to/lastmile_qr_scan", "ios": "https://dc.lft.to/lastmile_qr_scan"}, "is_reserved": 0, "is_disabled": 0, "type": "electric_scooter", "bike_id": "e476e0edd488247bb4bff58dd3329738"}, {"lon": -77.06896516666667, "lat": 38.940271833333334, "name": "d2563bfa005911f3a1d98ee73437f286", "fusion_lat": 0.0, "fusion_lon": 0.0, "rental_uris": {"android": "https://dc.lft.to/lastmile_qr_scan", "ios": "https://dc.lft.to/lastmile_qr_scan"}, "is_reserved": 0, "is_disabled": 0, "type": "electric_scooter", "bike_id": "d2563bfa005911f3a1d98ee73437f286"}, {"lon": -77.0437435, "lat": 38.8922065, "name": "032c60c38d2938b3452fc75bc54c5749", "fusion_lat": 0.0, "fusion_lon": 0.0, "rental_uris": {"android": "https://dc.lft.to/lastmile_qr_scan", "ios": "https://dc.lft.to/lastmile_qr_scan"}, "is_reserved": 0, "is_disabled": 0, "type": "electric_scooter", "bike_id": "032c60c38d2938b3452fc75bc54c5749"}, {"lon": -77.06399533333334, "lat": 38.929066166666665, "name": "c0f0f5d23994203e6b030a73eb21228b", "fusion_lat": 0.0, "fusion_lon": 0.0, "rental_uris": {"android": "https://dc.lft.to/lastmile_qr_scan", "ios": "https://dc.lft.to/lastmile_qr_scan"}, "is_reserved": 0, "is_disabled": 0, "type": "electric_scooter", "bike_id": "c0f0f5d23994203e6b030a73eb21228b"}, {"lon": -77.1281895, "lat": 38.86525666666667, "name": "01c28e1af197b6aa8354be7701626ae2", "fusion_lat": 0.0, "fusion_lon": 0.0, "rental_uris": {"android": "https://dc.lft.to/lastmile_qr_scan", "ios": "https://dc.lft.to/lastmile_qr_scan"}, "is_reserved": 0, "is_disabled": 0, "type": "electric_bike", "bike_id": "01c28e1af197b6aa8354be7701626ae2"}, {"lon": -77.02964116666666, "lat": 38.95424966666667, "name": "da29dee9a3539e9967bc7b7dccae6966", "fusion_lat": 0.0, "fusion_lon": 0.0, "rental_uris": {"android": "https://dc.lft.to/lastmile_qr_scan", "ios": "https://dc.lft.to/lastmile_qr_scan"}, "is_reserved": 0, "is_disabled": 0, "type": "electric_scooter", "bike_id": "da29dee9a3539e9967bc7b7dccae6966"}, {"lon": -76.9376105, "lat": 38.89962033333333, "name": "56a09805089e364659cc7414b30664c2", "fusion_lat": 0.0, "fusion_lon": 0.0, "rental_uris": {"android": "https://dc.lft.to/lastmile_qr_scan", "ios": "https://dc.lft.to/lastmile_qr_scan"}, "is_reserved": 0, "is_disabled": 0, "type": "electric_scooter", "bike_id": "56a09805089e364659cc7414b30664c2"}, {"lon": -77.0695615, "lat": 38.99044116666666, "name": "e71358c5d47480495f3e39105fcbd025", "fusion_lat": 0.0, "fusion_lon": 0.0, "rental_uris": {"android": "https://dc.lft.to/lastmile_qr_scan", "ios": "https://dc.lft.to/lastmile_qr_scan"}, "is_reserved": 0, "is_disabled": 0, "type": "electric_bike", "bike_id": "e71358c5d47480495f3e39105fcbd025"}, {"lon": -77.04735883333333, "lat": 38.91113383333333, "name": "1c76a77e5f5c4306879f1112119c0fa8", "fusion_lat": 0.0, "fusion_lon": 0.0, "rental_uris": {"android": "https://dc.lft.to/lastmile_qr_scan", "ios": "https://dc.lft.to/lastmile_qr_scan"}, "is_reserved": 0, "is_disabled": 0, "type": "electric_scooter", "bike_id": "1c76a77e5f5c4306879f1112119c0fa8"}, {"lon": -76.98838033333334, "lat": 38.901789, "name": "5ed67bba6fbb21c3ed0bd9481f9aeb46", "fusion_lat": 0.0, "fusion_lon": 0.0, "rental_uris": {"android": "https://dc.lft.to/lastmile_qr_scan", "ios": "https://dc.lft.to/lastmile_qr_scan"}, "is_reserved": 0, "is_disabled": 0, "type": "electric_scooter", "bike_id": "5ed67bba6fbb21c3ed0bd9481f9aeb46"}, {"lon": -77.02764283333333, "lat": 38.956060666666666, "name": "4c82eaede4cc8de038ea3f0cfd2ae766", "fusion_lat": 0.0, "fusion_lon": 0.0, "rental_uris": {"android": "https://dc.lft.to/lastmile_qr_scan", "ios": "https://dc.lft.to/lastmile_qr_scan"}, "is_reserved": 0, "is_disabled": 0, "type": "electric_scooter", "bike_id": "4c82eaede4cc8de038ea3f0cfd2ae766"}, {"lon": -77.0424145, "lat": 38.922721, "name": "03ead251d1ebf480f35b223738a0be09", "fusion_lat": 0.0, "fusion_lon": 0.0, "rental_uris": {"android": "https://dc.lft.to/lastmile_qr_scan", "ios": "https://dc.lft.to/lastmile_qr_scan"}, "is_reserved": 0, "is_disabled": 0, "type": "electric_scooter", "bike_id": "03ead251d1ebf480f35b223738a0be09"}, {"lon": -77.02520316666667, "lat": 38.926428666666666, "name": "b99e44f965ba68c2393853187fedacb9", "fusion_lat": 0.0, "fusion_lon": 0.0, "rental_uris": {"android": "https://dc.lft.to/lastmile_qr_scan", "ios": "https://dc.lft.to/lastmile_qr_scan"}, "is_reserved": 0, "is_disabled": 0, "type": "electric_scooter", "bike_id": "b99e44f965ba68c2393853187fedacb9"}, {"lon": -77.007153, "lat": 38.884875666666666, "name": "4fd408e62ece6d952e643c737b326032", "fusion_lat": 0.0, "fusion_lon": 0.0, "rental_uris": {"android": "https://dc.lft.to/lastmile_qr_scan", "ios": "https://dc.lft.to/lastmile_qr_scan"}, "is_reserved": 0, "is_disabled": 0, "type": "electric_scooter", "bike_id": "4fd408e62ece6d952e643c737b326032"}, {"lon": -77.01766516666666, "lat": 38.90257066666667, "name": "85004ba380c97acdee4212d0fc2d3919", "fusion_lat": 0.0, "fusion_lon": 0.0, "rental_uris": {"android": "https://dc.lft.to/lastmile_qr_scan", "ios": "https://dc.lft.to/lastmile_qr_scan"}, "is_reserved": 0, "is_disabled": 0, "type": "electric_scooter", "bike_id": "85004ba380c97acdee4212d0fc2d3919"}, {"lon": -77.0349965, "lat": 38.921525, "name": "a45275fb3e244ce31383188c34591eff", "fusion_lat": 0.0, "fusion_lon": 0.0, "rental_uris": {"android": "https://dc.lft.to/lastmile_qr_scan", "ios": "https://dc.lft.to/lastmile_qr_scan"}, "is_reserved": 0, "is_disabled": 0, "type": "electric_scooter", "bike_id": "a45275fb3e244ce31383188c34591eff"}, {"lon": -77.01389716666667, "lat": 38.9285995, "name": "72b3f9a610fd9084c0f537a1a539b91e", "fusion_lat": 0.0, "fusion_lon": 0.0, "rental_uris": {"android": "https://dc.lft.to/lastmile_qr_scan", "ios": "https://dc.lft.to/lastmile_qr_scan"}, "is_reserved": 0, "is_disabled": 0, "type": "electric_scooter", "bike_id": "72b3f9a610fd9084c0f537a1a539b91e"}, {"lon": -77.02957566666667, "lat": 38.932437166666666, "name": "739634d0b05ece8ec73d09187a549bed", "fusion_lat": 0.0, "fusion_lon": 0.0, "rental_uris": {"android": "https://dc.lft.to/lastmile_qr_scan", "ios": "https://dc.lft.to/lastmile_qr_scan"}, "is_reserved": 0, "is_disabled": 0, "type": "electric_scooter", "bike_id": "739634d0b05ece8ec73d09187a549bed"}, {"lon": -77.03774116666666, "lat": 38.9086615, "name": "d41c1c2180ed0e83c8e99e3d8757f8af", "fusion_lat": 0.0, "fusion_lon": 0.0, "rental_uris": {"android": "https://dc.lft.to/lastmile_qr_scan", "ios": "https://dc.lft.to/lastmile_qr_scan"}, "is_reserved": 0, "is_disabled": 0, "type": "electric_scooter", "bike_id": "d41c1c2180ed0e83c8e99e3d8757f8af"}, {"lon": -77.01451183333333, "lat": 38.91201366666667, "name": "e40ae519b43aa5f90d51aabbd2b6a8ea", "fusion_lat": 0.0, "fusion_lon": 0.0, "rental_uris": {"android": "https://dc.lft.to/lastmile_qr_scan", "ios": "https://dc.lft.to/lastmile_qr_scan"}, "is_reserved": 0, "is_disabled": 0, "type": "electric_scooter", "bike_id": "e40ae519b43aa5f90d51aabbd2b6a8ea"}, {"lon": -76.99924233333333, "lat": 38.909027, "name": "99e79a97052881dde89070176d5e987b", "fusion_lat": 0.0, "fusion_lon": 0.0, "rental_uris": {"android": "https://dc.lft.to/lastmile_qr_scan", "ios": "https://dc.lft.to/lastmile_qr_scan"}, "is_reserved": 0, "is_disabled": 0, "type": "electric_scooter", "bike_id": "99e79a97052881dde89070176d5e987b"}, {"lon": -77.02500966666666, "lat": 38.939632833333334, "name": "b2c1064b30e69ea28f7637613c62ccf8", "fusion_lat": 0.0, "fusion_lon": 0.0, "rental_uris": {"android": "https://dc.lft.to/lastmile_qr_scan", "ios": "https://dc.lft.to/lastmile_qr_scan"}, "is_reserved": 0, "is_disabled": 0, "type": "electric_scooter", "bike_id": "b2c1064b30e69ea28f7637613c62ccf8"}, {"lon": -76.98953066666667, "lat": 38.901345166666665, "name": "f3923191ae5971cf9170de3f9f628975", "fusion_lat": 0.0, "fusion_lon": 0.0, "rental_uris": {"android": "https://dc.lft.to/lastmile_qr_scan", "ios": "https://dc.lft.to/lastmile_qr_scan"}, "is_reserved": 0, "is_disabled": 0, "type": "electric_scooter", "bike_id": "f3923191ae5971cf9170de3f9f628975"}, {"lon": -77.0326535, "lat": 38.933462, "name": "9611e91df8cce475744b49193e229443", "fusion_lat": 0.0, "fusion_lon": 0.0, "rental_uris": {"android": "https://dc.lft.to/lastmile_qr_scan", "ios": "https://dc.lft.to/lastmile_qr_scan"}, "is_reserved": 0, "is_disabled": 0, "type": "electric_scooter", "bike_id": "9611e91df8cce475744b49193e229443"}, {"lon": -76.9652335, "lat": 38.8747925, "name": "d5dacbd6b43be2e7b41aa19d23b7eb73", "fusion_lat": 0.0, "fusion_lon": 0.0, "rental_uris": {"android": "https://dc.lft.to/lastmile_qr_scan", "ios": "https://dc.lft.to/lastmile_qr_scan"}, "is_reserved": 0, "is_disabled": 0, "type": "electric_scooter", "bike_id": "d5dacbd6b43be2e7b41aa19d23b7eb73"}, {"lon": -77.02710833333333, "lat": 38.949907833333334, "name": "86026e9a297982a906b935cd79f2b766", "fusion_lat": 0.0, "fusion_lon": 0.0, "rental_uris": {"android": "https://dc.lft.to/lastmile_qr_scan", "ios": "https://dc.lft.to/lastmile_qr_scan"}, "is_reserved": 0, "is_disabled": 0, "type": "electric_scooter", "bike_id": "86026e9a297982a906b935cd79f2b766"}, {"lon": -77.0180605, "lat": 38.914316, "name": "06854d324d0f30599d4f5ba5585de4e6", "fusion_lat": 0.0, "fusion_lon": 0.0, "rental_uris": {"android": "https://dc.lft.to/lastmile_qr_scan", "ios": "https://dc.lft.to/lastmile_qr_scan"}, "is_reserved": 0, "is_disabled": 0, "type": "electric_scooter", "bike_id": "06854d324d0f30599d4f5ba5585de4e6"}, {"lon": -77.02567783333333, "lat": 38.900971, "name": "1f8cfa220825aadb551980b0b0ab570d", "fusion_lat": 0.0, "fusion_lon": 0.0, "rental_uris": {"android": "https://dc.lft.to/lastmile_qr_scan", "ios": "https://dc.lft.to/lastmile_qr_scan"}, "is_reserved": 0, "is_disabled": 0, "type": "electric_scooter", "bike_id": "1f8cfa220825aadb551980b0b0ab570d"}, {"lon": -77.030305, "lat": 38.92962566666667, "name": "c7689a5ce5c8227905e5c41470da863a", "fusion_lat": 0.0, "fusion_lon": 0.0, "rental_uris": {"android": "https://dc.lft.to/lastmile_qr_scan", "ios": "https://dc.lft.to/lastmile_qr_scan"}, "is_reserved": 0, "is_disabled": 0, "type": "electric_scooter", "bike_id": "c7689a5ce5c8227905e5c41470da863a"}, {"lon": -77.000707, "lat": 38.90048516666667, "name": "721a09b3f6e70b9afb4826e03d1f2b2d", "fusion_lat": 0.0, "fusion_lon": 0.0, "rental_uris": {"android": "https://dc.lft.to/lastmile_qr_scan", "ios": "https://dc.lft.to/lastmile_qr_scan"}, "is_reserved": 0, "is_disabled": 0, "type": "electric_scooter", "bike_id": "721a09b3f6e70b9afb4826e03d1f2b2d"}, {"lon": -77.00838433333334, "lat": 38.9154915, "name": "56bfd7b4a31d3244f494cdaf25b340cc", "fusion_lat": 0.0, "fusion_lon": 0.0, "rental_uris": {"android": "https://dc.lft.to/lastmile_qr_scan", "ios": "https://dc.lft.to/lastmile_qr_scan"}, "is_reserved": 0, "is_disabled": 0, "type": "electric_scooter", "bike_id": "56bfd7b4a31d3244f494cdaf25b340cc"}, {"lon": -77.0307655, "lat": 38.909891333333334, "name": "edbea2303d9b1dc82c42e52db67bd1ec", "fusion_lat": 0.0, "fusion_lon": 0.0, "rental_uris": {"android": "https://dc.lft.to/lastmile_qr_scan", "ios": "https://dc.lft.to/lastmile_qr_scan"}, "is_reserved": 0, "is_disabled": 0, "type": "electric_scooter", "bike_id": "edbea2303d9b1dc82c42e52db67bd1ec"}, {"lon": -77.01517233333334, "lat": 38.887325, "name": "9556d7dd69d5cfe75a3700a4b28ed009", "fusion_lat": 0.0, "fusion_lon": 0.0, "rental_uris": {"android": "https://dc.lft.to/lastmile_qr_scan", "ios": "https://dc.lft.to/lastmile_qr_scan"}, "is_reserved": 0, "is_disabled": 0, "type": "electric_scooter", "bike_id": "9556d7dd69d5cfe75a3700a4b28ed009"}, {"lon": -77.04043133333333, "lat": 38.92298366666667, "name": "303d474fd1eccad6b31a357099716cbb", "fusion_lat": 0.0, "fusion_lon": 0.0, "rental_uris": {"android": "https://dc.lft.to/lastmile_qr_scan", "ios": "https://dc.lft.to/lastmile_qr_scan"}, "is_reserved": 0, "is_disabled": 0, "type": "electric_scooter", "bike_id": "303d474fd1eccad6b31a357099716cbb"}, {"lon": -77.04886266666666, "lat": 38.9123305, "name": "776d967e07bd9c601b929da620a6917d", "fusion_lat": 0.0, "fusion_lon": 0.0, "rental_uris": {"android": "https://dc.lft.to/lastmile_qr_scan", "ios": "https://dc.lft.to/lastmile_qr_scan"}, "is_reserved": 0, "is_disabled": 0, "type": "electric_scooter", "bike_id": "776d967e07bd9c601b929da620a6917d"}, {"lon": -77.02683866666666, "lat": 38.924856166666665, "name": "9ff320df2cb4f8efffba8aa56a9951cb", "fusion_lat": 0.0, "fusion_lon": 0.0, "rental_uris": {"android": "https://dc.lft.to/lastmile_qr_scan", "ios": "https://dc.lft.to/lastmile_qr_scan"}, "is_reserved": 0, "is_disabled": 0, "type": "electric_scooter", "bike_id": "9ff320df2cb4f8efffba8aa56a9951cb"}, {"lon": -76.97453833333333, "lat": 38.96661866666667, "name": "e57d4d3ccec3bcd84edcb2be848c3de9", "fusion_lat": 0.0, "fusion_lon": 0.0, "rental_uris": {"android": "https://dc.lft.to/lastmile_qr_scan", "ios": "https://dc.lft.to/lastmile_qr_scan"}, "is_reserved": 0, "is_disabled": 0, "type": "electric_bike", "bike_id": "e57d4d3ccec3bcd84edcb2be848c3de9"}, {"lon": -77.03762633333334, "lat": 38.925444666666664, "name": "3ed8787f02b4c885bd747a4b5b0a6a1e", "fusion_lat": 0.0, "fusion_lon": 0.0, "rental_uris": {"android": "https://dc.lft.to/lastmile_qr_scan", "ios": "https://dc.lft.to/lastmile_qr_scan"}, "is_reserved": 0, "is_disabled": 0, "type": "electric_scooter", "bike_id": "3ed8787f02b4c885bd747a4b5b0a6a1e"}, {"lon": -77.02395183333333, "lat": 38.911402833333334, "name": "28c6e8007dee531c94f98d32e6cb2885", "fusion_lat": 0.0, "fusion_lon": 0.0, "rental_uris": {"android": "https://dc.lft.to/lastmile_qr_scan", "ios": "https://dc.lft.to/lastmile_qr_scan"}, "is_reserved": 0, "is_disabled": 0, "type": "electric_scooter", "bike_id": "28c6e8007dee531c94f98d32e6cb2885"}, {"lon": -77.020051, "lat": 38.904782, "name": "204125b04210a1b7a77b621bdf6e095f", "fusion_lat": 0.0, "fusion_lon": 0.0, "rental_uris": {"android": "https://dc.lft.to/lastmile_qr_scan", "ios": "https://dc.lft.to/lastmile_qr_scan"}, "is_reserved": 0, "is_disabled": 0, "type": "electric_scooter", "bike_id": "204125b04210a1b7a77b621bdf6e095f"}, {"lon": -76.90536933333334, "lat": 38.89734466666667, "name": "442b1f0481ee4fcf330ec984699dd884", "fusion_lat": 0.0, "fusion_lon": 0.0, "rental_uris": {"android": "https://dc.lft.to/lastmile_qr_scan", "ios": "https://dc.lft.to/lastmile_qr_scan"}, "is_reserved": 0, "is_disabled": 0, "type": "electric_bike", "bike_id": "442b1f0481ee4fcf330ec984699dd884"}, {"lon": -77.03189666666667, "lat": 38.90703716666667, "name": "882dfb50a25ac697a0e864f5de71d12e", "fusion_lat": 0.0, "fusion_lon": 0.0, "rental_uris": {"android": "https://dc.lft.to/lastmile_qr_scan", "ios": "https://dc.lft.to/lastmile_qr_scan"}, "is_reserved": 0, "is_disabled": 0, "type": "electric_scooter", "bike_id": "882dfb50a25ac697a0e864f5de71d12e"}, {"lon": -77.00722716666667, "lat": 38.88485333333333, "name": "77a1937036bdf89b6c8db43b16737059", "fusion_lat": 0.0, "fusion_lon": 0.0, "rental_uris": {"android": "https://dc.lft.to/lastmile_qr_scan", "ios": "https://dc.lft.to/lastmile_qr_scan"}, "is_reserved": 0, "is_disabled": 0, "type": "electric_scooter", "bike_id": "77a1937036bdf89b6c8db43b16737059"}, {"lon": -77.04158816666667, "lat": 38.9189305, "name": "a86793b6b782d81c2e51dc7a2503ab45", "fusion_lat": 0.0, "fusion_lon": 0.0, "rental_uris": {"android": "https://dc.lft.to/lastmile_qr_scan", "ios": "https://dc.lft.to/lastmile_qr_scan"}, "is_reserved": 0, "is_disabled": 0, "type": "electric_scooter", "bike_id": "a86793b6b782d81c2e51dc7a2503ab45"}, {"lon": -77.03220366666666, "lat": 38.8922005, "name": "ef26611e45d3172e7ecd79322be87818", "fusion_lat": 0.0, "fusion_lon": 0.0, "rental_uris": {"android": "https://dc.lft.to/lastmile_qr_scan", "ios": "https://dc.lft.to/lastmile_qr_scan"}, "is_reserved": 0, "is_disabled": 0, "type": "electric_scooter", "bike_id": "ef26611e45d3172e7ecd79322be87818"}, {"lon": -77.10688466666667, "lat": 38.9357895, "name": "8ab7100c9e15f9192cad58a247aa5e75", "fusion_lat": 0.0, "fusion_lon": 0.0, "rental_uris": {"android": "https://dc.lft.to/lastmile_qr_scan", "ios": "https://dc.lft.to/lastmile_qr_scan"}, "is_reserved": 0, "is_disabled": 0, "type": "electric_bike", "bike_id": "8ab7100c9e15f9192cad58a247aa5e75"}, {"lon": -77.0241725, "lat": 38.9042885, "name": "80fcb963cde25aa740de5bda1df2712a", "fusion_lat": 0.0, "fusion_lon": 0.0, "rental_uris": {"android": "https://dc.lft.to/lastmile_qr_scan", "ios": "https://dc.lft.to/lastmile_qr_scan"}, "is_reserved": 0, "is_disabled": 0, "type": "electric_scooter", "bike_id": "80fcb963cde25aa740de5bda1df2712a"}, {"lon": -76.99164183333333, "lat": 38.900419166666666, "name": "206aadfb2fc59ec2a428bb4ec6921b81", "fusion_lat": 0.0, "fusion_lon": 0.0, "rental_uris": {"android": "https://dc.lft.to/lastmile_qr_scan", "ios": "https://dc.lft.to/lastmile_qr_scan"}, "is_reserved": 0, "is_disabled": 0, "type": "electric_scooter", "bike_id": "206aadfb2fc59ec2a428bb4ec6921b81"}, {"lon": -77.0491515, "lat": 38.905373, "name": "7b5ec461d261d36decaad516190032e2", "fusion_lat": 0.0, "fusion_lon": 0.0, "rental_uris": {"android": "https://dc.lft.to/lastmile_qr_scan", "ios": "https://dc.lft.to/lastmile_qr_scan"}, "is_reserved": 0, "is_disabled": 0, "type": "electric_scooter", "bike_id": "7b5ec461d261d36decaad516190032e2"}, {"lon": -77.0108515, "lat": 38.8939375, "name": "eba1052aecf35c81e418904434b29380", "fusion_lat": 0.0, "fusion_lon": 0.0, "rental_uris": {"android": "https://dc.lft.to/lastmile_qr_scan", "ios": "https://dc.lft.to/lastmile_qr_scan"}, "is_reserved": 0, "is_disabled": 0, "type": "electric_scooter", "bike_id": "eba1052aecf35c81e418904434b29380"}, {"lon": -77.0465725, "lat": 38.89335416666667, "name": "6d36c0f5bfebdd065152cc4e44503653", "fusion_lat": 0.0, "fusion_lon": 0.0, "rental_uris": {"android": "https://dc.lft.to/lastmile_qr_scan", "ios": "https://dc.lft.to/lastmile_qr_scan"}, "is_reserved": 0, "is_disabled": 0, "type": "electric_scooter", "bike_id": "6d36c0f5bfebdd065152cc4e44503653"}, {"lon": -77.04170983333333, "lat": 38.9062465, "name": "3f8280c8c9970438dbe8ac8db5d1b7d4", "fusion_lat": 0.0, "fusion_lon": 0.0, "rental_uris": {"android": "https://dc.lft.to/lastmile_qr_scan", "ios": "https://dc.lft.to/lastmile_qr_scan"}, "is_reserved": 0, "is_disabled": 0, "type": "electric_scooter", "bike_id": "3f8280c8c9970438dbe8ac8db5d1b7d4"}, {"lon": -77.04337316666667, "lat": 38.89820266666667, "name": "fbb6ec1433387883d2fe00e6e66e9d17", "fusion_lat": 0.0, "fusion_lon": 0.0, "rental_uris": {"android": "https://dc.lft.to/lastmile_qr_scan", "ios": "https://dc.lft.to/lastmile_qr_scan"}, "is_reserved": 0, "is_disabled": 0, "type": "electric_scooter", "bike_id": "fbb6ec1433387883d2fe00e6e66e9d17"}, {"lon": -77.02651933333334, "lat": 38.938576833333336, "name": "7335813a57ad52683d21eb23a4290e88", "fusion_lat": 0.0, "fusion_lon": 0.0, "rental_uris": {"android": "https://dc.lft.to/lastmile_qr_scan", "ios": "https://dc.lft.to/lastmile_qr_scan"}, "is_reserved": 0, "is_disabled": 0, "type": "electric_scooter", "bike_id": "7335813a57ad52683d21eb23a4290e88"}, {"lon": -77.02858833333333, "lat": 38.933446833333335, "name": "b0105a63f41dc512afcce7224c7b7f76", "fusion_lat": 0.0, "fusion_lon": 0.0, "rental_uris": {"android": "https://dc.lft.to/lastmile_qr_scan", "ios": "https://dc.lft.to/lastmile_qr_scan"}, "is_reserved": 0, "is_disabled": 0, "type": "electric_scooter", "bike_id": "b0105a63f41dc512afcce7224c7b7f76"}, {"lon": -77.02223966666666, "lat": 38.88600816666667, "name": "69b1f0303cbc0559890d7f73c51a8d3d", "fusion_lat": 0.0, "fusion_lon": 0.0, "rental_uris": {"android": "https://dc.lft.to/lastmile_qr_scan", "ios": "https://dc.lft.to/lastmile_qr_scan"}, "is_reserved": 0, "is_disabled": 0, "type": "electric_scooter", "bike_id": "69b1f0303cbc0559890d7f73c51a8d3d"}, {"lon": -77.09970266666667, "lat": 38.92243633333333, "name": "88c94679773036d5b7ac723a8807fd05", "fusion_lat": 0.0, "fusion_lon": 0.0, "rental_uris": {"android": "https://dc.lft.to/lastmile_qr_scan", "ios": "https://dc.lft.to/lastmile_qr_scan"}, "is_reserved": 0, "is_disabled": 0, "type": "electric_scooter", "bike_id": "88c94679773036d5b7ac723a8807fd05"}, {"lon": -76.966306, "lat": 38.94204333333333, "name": "0593ad616e4316a8dbe44478344a2af3", "fusion_lat": 0.0, "fusion_lon": 0.0, "rental_uris": {"android": "https://dc.lft.to/lastmile_qr_scan", "ios": "https://dc.lft.to/lastmile_qr_scan"}, "is_reserved": 0, "is_disabled": 0, "type": "electric_bike", "bike_id": "0593ad616e4316a8dbe44478344a2af3"}, {"lon": -77.02232066666667, "lat": 38.88738983333333, "name": "e4fad7e018097f6b59f16e123bb9364b", "fusion_lat": 0.0, "fusion_lon": 0.0, "rental_uris": {"android": "https://dc.lft.to/lastmile_qr_scan", "ios": "https://dc.lft.to/lastmile_qr_scan"}, "is_reserved": 0, "is_disabled": 0, "type": "electric_scooter", "bike_id": "e4fad7e018097f6b59f16e123bb9364b"}, {"lon": -77.07834683333333, "lat": 38.92668416666667, "name": "8c7e51ac41c7cf80e9c143ced19c30f3", "fusion_lat": 0.0, "fusion_lon": 0.0, "rental_uris": {"android": "https://dc.lft.to/lastmile_qr_scan", "ios": "https://dc.lft.to/lastmile_qr_scan"}, "is_reserved": 0, "is_disabled": 0, "type": "electric_scooter", "bike_id": "8c7e51ac41c7cf80e9c143ced19c30f3"}, {"lon": -76.937573, "lat": 38.890474166666664, "name": "2c3e39491b4b00a787ca15a9a74d5b0f", "fusion_lat": 0.0, "fusion_lon": 0.0, "rental_uris": {"android": "https://dc.lft.to/lastmile_qr_scan", "ios": "https://dc.lft.to/lastmile_qr_scan"}, "is_reserved": 0, "is_disabled": 0, "type": "electric_scooter", "bike_id": "2c3e39491b4b00a787ca15a9a74d5b0f"}, {"lon": -77.02186666666667, "lat": 38.913273333333336, "name": "1da12c97106c748fe9479bf180d09e1d", "fusion_lat": 0.0, "fusion_lon": 0.0, "rental_uris": {"android": "https://dc.lft.to/lastmile_qr_scan", "ios": "https://dc.lft.to/lastmile_qr_scan"}, "is_reserved": 0, "is_disabled": 0, "type": "electric_scooter", "bike_id": "1da12c97106c748fe9479bf180d09e1d"}, {"lon": -77.0470865, "lat": 38.9209695, "name": "5913f88cff176826fca201ff256de183", "fusion_lat": 0.0, "fusion_lon": 0.0, "rental_uris": {"android": "https://dc.lft.to/lastmile_qr_scan", "ios": "https://dc.lft.to/lastmile_qr_scan"}, "is_reserved": 0, "is_disabled": 0, "type": "electric_scooter", "bike_id": "5913f88cff176826fca201ff256de183"}, {"lon": -77.0240805, "lat": 38.90983266666667, "name": "3f4138b29f934a533edbdad12f31bb0f", "fusion_lat": 0.0, "fusion_lon": 0.0, "rental_uris": {"android": "https://dc.lft.to/lastmile_qr_scan", "ios": "https://dc.lft.to/lastmile_qr_scan"}, "is_reserved": 0, "is_disabled": 0, "type": "electric_scooter", "bike_id": "3f4138b29f934a533edbdad12f31bb0f"}, {"lon": -77.034201, "lat": 38.92097183333333, "name": "9e2490c95513f39599bee9a74e4c296f", "fusion_lat": 0.0, "fusion_lon": 0.0, "rental_uris": {"android": "https://dc.lft.to/lastmile_qr_scan", "ios": "https://dc.lft.to/lastmile_qr_scan"}, "is_reserved": 0, "is_disabled": 0, "type": "electric_scooter", "bike_id": "9e2490c95513f39599bee9a74e4c296f"}, {"lon": -77.02992983333333, "lat": 38.91696016666667, "name": "0d149d5ae5eec339611d25f00def1dec", "fusion_lat": 0.0, "fusion_lon": 0.0, "rental_uris": {"android": "https://dc.lft.to/lastmile_qr_scan", "ios": "https://dc.lft.to/lastmile_qr_scan"}, "is_reserved": 0, "is_disabled": 0, "type": "electric_scooter", "bike_id": "0d149d5ae5eec339611d25f00def1dec"}, {"lon": -77.036992, "lat": 38.916911999999996, "name": "5aa17c8ad843c11a72c49f62177e5469", "fusion_lat": 0.0, "fusion_lon": 0.0, "rental_uris": {"android": "https://dc.lft.to/lastmile_qr_scan", "ios": "https://dc.lft.to/lastmile_qr_scan"}, "is_reserved": 0, "is_disabled": 0, "type": "electric_scooter", "bike_id": "5aa17c8ad843c11a72c49f62177e5469"}, {"lon": -77.04554716666667, "lat": 38.920675833333334, "name": "4cbbe58070ed77ec7a7d25e7c383f988", "fusion_lat": 0.0, "fusion_lon": 0.0, "rental_uris": {"android": "https://dc.lft.to/lastmile_qr_scan", "ios": "https://dc.lft.to/lastmile_qr_scan"}, "is_reserved": 0, "is_disabled": 0, "type": "electric_scooter", "bike_id": "4cbbe58070ed77ec7a7d25e7c383f988"}, {"lon": -77.029749, "lat": 38.91677333333333, "name": "321219d957c87075ec3f1cae89c9a48e", "fusion_lat": 0.0, "fusion_lon": 0.0, "rental_uris": {"android": "https://dc.lft.to/lastmile_qr_scan", "ios": "https://dc.lft.to/lastmile_qr_scan"}, "is_reserved": 0, "is_disabled": 0, "type": "electric_scooter", "bike_id": "321219d957c87075ec3f1cae89c9a48e"}, {"lon": -77.0420235, "lat": 38.92720116666667, "name": "2945003f3cb3cbb2a2582f3d7d69bf2c", "fusion_lat": 0.0, "fusion_lon": 0.0, "rental_uris": {"android": "https://dc.lft.to/lastmile_qr_scan", "ios": "https://dc.lft.to/lastmile_qr_scan"}, "is_reserved": 0, "is_disabled": 0, "type": "electric_scooter", "bike_id": "2945003f3cb3cbb2a2582f3d7d69bf2c"}, {"lon": -77.04872433333334, "lat": 38.904769, "name": "2f55a75495d3fa3d4838fdf88a23f196", "fusion_lat": 0.0, "fusion_lon": 0.0, "rental_uris": {"android": "https://dc.lft.to/lastmile_qr_scan", "ios": "https://dc.lft.to/lastmile_qr_scan"}, "is_reserved": 0, "is_disabled": 0, "type": "electric_scooter", "bike_id": "2f55a75495d3fa3d4838fdf88a23f196"}, {"lon": -77.033115, "lat": 38.908280500000004, "name": "8292223252877e939e78b5e519628698", "fusion_lat": 0.0, "fusion_lon": 0.0, "rental_uris": {"android": "https://dc.lft.to/lastmile_qr_scan", "ios": "https://dc.lft.to/lastmile_qr_scan"}, "is_reserved": 0, "is_disabled": 0, "type": "electric_scooter", "bike_id": "8292223252877e939e78b5e519628698"}, {"lon": -77.04639833333333, "lat": 38.892236, "name": "05886789fcffd32fb33cecc9f4797aa7", "fusion_lat": 0.0, "fusion_lon": 0.0, "rental_uris": {"android": "https://dc.lft.to/lastmile_qr_scan", "ios": "https://dc.lft.to/lastmile_qr_scan"}, "is_reserved": 0, "is_disabled": 0, "type": "electric_scooter", "bike_id": "05886789fcffd32fb33cecc9f4797aa7"}, {"lon": -77.02307183333333, "lat": 38.908885166666664, "name": "60d879d3e0a0bbe8c0fa9aae2650d1e4", "fusion_lat": 0.0, "fusion_lon": 0.0, "rental_uris": {"android": "https://dc.lft.to/lastmile_qr_scan", "ios": "https://dc.lft.to/lastmile_qr_scan"}, "is_reserved": 0, "is_disabled": 0, "type": "electric_scooter", "bike_id": "60d879d3e0a0bbe8c0fa9aae2650d1e4"}, {"lon": -76.98851333333333, "lat": 38.90343383333333, "name": "b1716c87d3be44256957d6821c55ded4", "fusion_lat": 0.0, "fusion_lon": 0.0, "rental_uris": {"android": "https://dc.lft.to/lastmile_qr_scan", "ios": "https://dc.lft.to/lastmile_qr_scan"}, "is_reserved": 0, "is_disabled": 0, "type": "electric_scooter", "bike_id": "b1716c87d3be44256957d6821c55ded4"}, {"lon": -77.04446633333333, "lat": 38.912597833333336, "name": "3c17a27e35798a1aaa5334505602f8e7", "fusion_lat": 0.0, "fusion_lon": 0.0, "rental_uris": {"android": "https://dc.lft.to/lastmile_qr_scan", "ios": "https://dc.lft.to/lastmile_qr_scan"}, "is_reserved": 0, "is_disabled": 0, "type": "electric_scooter", "bike_id": "3c17a27e35798a1aaa5334505602f8e7"}, {"lon": -77.03590316666667, "lat": 38.90702016666667, "name": "6c6265ed73037b4701fdb66a2654a074", "fusion_lat": 0.0, "fusion_lon": 0.0, "rental_uris": {"android": "https://dc.lft.to/lastmile_qr_scan", "ios": "https://dc.lft.to/lastmile_qr_scan"}, "is_reserved": 0, "is_disabled": 0, "type": "electric_scooter", "bike_id": "6c6265ed73037b4701fdb66a2654a074"}, {"lon": -77.00104266666666, "lat": 38.894293, "name": "572501739d995f6dc6d1b757fc7415a2", "fusion_lat": 0.0, "fusion_lon": 0.0, "rental_uris": {"android": "https://dc.lft.to/lastmile_qr_scan", "ios": "https://dc.lft.to/lastmile_qr_scan"}, "is_reserved": 0, "is_disabled": 0, "type": "electric_scooter", "bike_id": "572501739d995f6dc6d1b757fc7415a2"}, {"lon": -77.02539283333333, "lat": 38.94093516666667, "name": "0d3c0bd13cb591176927c1e80c8fa119", "fusion_lat": 0.0, "fusion_lon": 0.0, "rental_uris": {"android": "https://dc.lft.to/lastmile_qr_scan", "ios": "https://dc.lft.to/lastmile_qr_scan"}, "is_reserved": 0, "is_disabled": 0, "type": "electric_scooter", "bike_id": "0d3c0bd13cb591176927c1e80c8fa119"}, {"lon": -77.01878366666666, "lat": 38.90970516666667, "name": "d400dcbf547903fae1668e4f8d00b7a8", "fusion_lat": 0.0, "fusion_lon": 0.0, "rental_uris": {"android": "https://dc.lft.to/lastmile_qr_scan", "ios": "https://dc.lft.to/lastmile_qr_scan"}, "is_reserved": 0, "is_disabled": 0, "type": "electric_scooter", "bike_id": "d400dcbf547903fae1668e4f8d00b7a8"}, {"lon": -77.046238, "lat": 38.902569, "name": "43e1efbcae24955fd0f348ac39081b37", "fusion_lat": 0.0, "fusion_lon": 0.0, "rental_uris": {"android": "https://dc.lft.to/lastmile_qr_scan", "ios": "https://dc.lft.to/lastmile_qr_scan"}, "is_reserved": 0, "is_disabled": 0, "type": "electric_scooter", "bike_id": "43e1efbcae24955fd0f348ac39081b37"}, {"lon": -77.0819585, "lat": 38.855532, "name": "e7c2d0b99dc3f01d3a915dda175143a8", "fusion_lat": 0.0, "fusion_lon": 0.0, "rental_uris": {"android": "https://dc.lft.to/lastmile_qr_scan", "ios": "https://dc.lft.to/lastmile_qr_scan"}, "is_reserved": 0, "is_disabled": 0, "type": "electric_bike", "bike_id": "e7c2d0b99dc3f01d3a915dda175143a8"}, {"lon": -77.02744983333334, "lat": 38.9284645, "name": "5973e97e7056d01ebb244e5ae8b9c01e", "fusion_lat": 0.0, "fusion_lon": 0.0, "rental_uris": {"android": "https://dc.lft.to/lastmile_qr_scan", "ios": "https://dc.lft.to/lastmile_qr_scan"}, "is_reserved": 0, "is_disabled": 0, "type": "electric_scooter", "bike_id": "5973e97e7056d01ebb244e5ae8b9c01e"}, {"lon": -77.03299533333333, "lat": 38.9221415, "name": "e74277a403d49e64452ef6bf19a99735", "fusion_lat": 0.0, "fusion_lon": 0.0, "rental_uris": {"android": "https://dc.lft.to/lastmile_qr_scan", "ios": "https://dc.lft.to/lastmile_qr_scan"}, "is_reserved": 0, "is_disabled": 0, "type": "electric_scooter", "bike_id": "e74277a403d49e64452ef6bf19a99735"}, {"lon": -77.0379395, "lat": 38.905625666666666, "name": "d31bf3139c8a4f3b65715c3b26683109", "fusion_lat": 0.0, "fusion_lon": 0.0, "rental_uris": {"android": "https://dc.lft.to/lastmile_qr_scan", "ios": "https://dc.lft.to/lastmile_qr_scan"}, "is_reserved": 0, "is_disabled": 0, "type": "electric_scooter", "bike_id": "d31bf3139c8a4f3b65715c3b26683109"}, {"lon": -77.02826383333333, "lat": 38.93273766666667, "name": "afed5c1a9ba2c97b8f31cf5a5f137d16", "fusion_lat": 0.0, "fusion_lon": 0.0, "rental_uris": {"android": "https://dc.lft.to/lastmile_qr_scan", "ios": "https://dc.lft.to/lastmile_qr_scan"}, "is_reserved": 0, "is_disabled": 0, "type": "electric_scooter", "bike_id": "afed5c1a9ba2c97b8f31cf5a5f137d16"}, {"lon": -77.02705416666667, "lat": 38.8982405, "name": "af91ffaedba396a150c5af3b656645aa", "fusion_lat": 0.0, "fusion_lon": 0.0, "rental_uris": {"android": "https://dc.lft.to/lastmile_qr_scan", "ios": "https://dc.lft.to/lastmile_qr_scan"}, "is_reserved": 0, "is_disabled": 0, "type": "electric_scooter", "bike_id": "af91ffaedba396a150c5af3b656645aa"}, {"lon": -77.0313655, "lat": 38.91562966666667, "name": "20c64202ee22d953910e4887ac285784", "fusion_lat": 0.0, "fusion_lon": 0.0, "rental_uris": {"android": "https://dc.lft.to/lastmile_qr_scan", "ios": "https://dc.lft.to/lastmile_qr_scan"}, "is_reserved": 0, "is_disabled": 0, "type": "electric_scooter", "bike_id": "20c64202ee22d953910e4887ac285784"}, {"lon": -76.947819, "lat": 38.894383166666664, "name": "4c63bb170f7b3e4c736754c3f7c2a3b0", "fusion_lat": 0.0, "fusion_lon": 0.0, "rental_uris": {"android": "https://dc.lft.to/lastmile_qr_scan", "ios": "https://dc.lft.to/lastmile_qr_scan"}, "is_reserved": 0, "is_disabled": 0, "type": "electric_bike", "bike_id": "4c63bb170f7b3e4c736754c3f7c2a3b0"}, {"lon": -77.0123445, "lat": 38.915481, "name": "a8d54d23f31e100769959ed225cc701f", "fusion_lat": 0.0, "fusion_lon": 0.0, "rental_uris": {"android": "https://dc.lft.to/lastmile_qr_scan", "ios": "https://dc.lft.to/lastmile_qr_scan"}, "is_reserved": 0, "is_disabled": 0, "type": "electric_scooter", "bike_id": "a8d54d23f31e100769959ed225cc701f"}, {"lon": -77.36085183333333, "lat": 38.939504166666666, "name": "865d9eef686f078f23c94df4c2e30254", "fusion_lat": 0.0, "fusion_lon": 0.0, "rental_uris": {"android": "https://dc.lft.to/lastmile_qr_scan", "ios": "https://dc.lft.to/lastmile_qr_scan"}, "is_reserved": 0, "is_disabled": 0, "type": "electric_bike", "bike_id": "865d9eef686f078f23c94df4c2e30254"}, {"lon": -77.00913016666667, "lat": 38.90990033333333, "name": "733b98520ec1ef231a7cb13ebaf069eb", "fusion_lat": 0.0, "fusion_lon": 0.0, "rental_uris": {"android": "https://dc.lft.to/lastmile_qr_scan", "ios": "https://dc.lft.to/lastmile_qr_scan"}, "is_reserved": 0, "is_disabled": 0, "type": "electric_scooter", "bike_id": "733b98520ec1ef231a7cb13ebaf069eb"}, {"lon": -76.97997566666666, "lat": 38.87745916666667, "name": "1b54c48025e2c23310e672b249e77c49", "fusion_lat": 0.0, "fusion_lon": 0.0, "rental_uris": {"android": "https://dc.lft.to/lastmile_qr_scan", "ios": "https://dc.lft.to/lastmile_qr_scan"}, "is_reserved": 0, "is_disabled": 0, "type": "electric_bike", "bike_id": "1b54c48025e2c23310e672b249e77c49"}, {"lon": -77.06093383333334, "lat": 38.90522283333333, "name": "1c86be9ea9141e67184021a0dad2c840", "fusion_lat": 0.0, "fusion_lon": 0.0, "rental_uris": {"android": "https://dc.lft.to/lastmile_qr_scan", "ios": "https://dc.lft.to/lastmile_qr_scan"}, "is_reserved": 0, "is_disabled": 0, "type": "electric_scooter", "bike_id": "1c86be9ea9141e67184021a0dad2c840"}, {"lon": -77.02979083333334, "lat": 38.922530333333334, "name": "2a39439eae6860f910b53734d6336358", "fusion_lat": 0.0, "fusion_lon": 0.0, "rental_uris": {"android": "https://dc.lft.to/lastmile_qr_scan", "ios": "https://dc.lft.to/lastmile_qr_scan"}, "is_reserved": 0, "is_disabled": 0, "type": "electric_scooter", "bike_id": "2a39439eae6860f910b53734d6336358"}, {"lon": -76.981245, "lat": 38.8966795, "name": "a603684f360043831a61449fcb201f5d", "fusion_lat": 0.0, "fusion_lon": 0.0, "rental_uris": {"android": "https://dc.lft.to/lastmile_qr_scan", "ios": "https://dc.lft.to/lastmile_qr_scan"}, "is_reserved": 0, "is_disabled": 0, "type": "electric_bike", "bike_id": "a603684f360043831a61449fcb201f5d"}, {"lon": -77.02528966666667, "lat": 38.9212545, "name": "abee25982a16a7875608155d50561f3f", "fusion_lat": 0.0, "fusion_lon": 0.0, "rental_uris": {"android": "https://dc.lft.to/lastmile_qr_scan", "ios": "https://dc.lft.to/lastmile_qr_scan"}, "is_reserved": 0, "is_disabled": 0, "type": "electric_scooter", "bike_id": "abee25982a16a7875608155d50561f3f"}, {"lon": -77.00705266666667, "lat": 38.905561, "name": "43323c5506390313d6b7b1f70fd78b2d", "fusion_lat": 0.0, "fusion_lon": 0.0, "rental_uris": {"android": "https://dc.lft.to/lastmile_qr_scan", "ios": "https://dc.lft.to/lastmile_qr_scan"}, "is_reserved": 0, "is_disabled": 0, "type": "electric_scooter", "bike_id": "43323c5506390313d6b7b1f70fd78b2d"}, {"lon": -77.0277035, "lat": 38.892025333333336, "name": "9b6d604f42f76ceb4e34b52cec0dc3d7", "fusion_lat": 0.0, "fusion_lon": 0.0, "rental_uris": {"android": "https://dc.lft.to/lastmile_qr_scan", "ios": "https://dc.lft.to/lastmile_qr_scan"}, "is_reserved": 0, "is_disabled": 0, "type": "electric_scooter", "bike_id": "9b6d604f42f76ceb4e34b52cec0dc3d7"}, {"lon": -76.94935216666667, "lat": 38.894779666666665, "name": "68789fe07e5d7290ec91ec2d06af7395", "fusion_lat": 0.0, "fusion_lon": 0.0, "rental_uris": {"android": "https://dc.lft.to/lastmile_qr_scan", "ios": "https://dc.lft.to/lastmile_qr_scan"}, "is_reserved": 0, "is_disabled": 0, "type": "electric_scooter", "bike_id": "68789fe07e5d7290ec91ec2d06af7395"}, {"lon": -77.11205916666667, "lat": 38.81216833333333, "name": "35211903baac3f3ad4429269ae15a28c", "fusion_lat": 0.0, "fusion_lon": 0.0, "rental_uris": {"android": "https://dc.lft.to/lastmile_qr_scan", "ios": "https://dc.lft.to/lastmile_qr_scan"}, "is_reserved": 0, "is_disabled": 0, "type": "electric_bike", "bike_id": "35211903baac3f3ad4429269ae15a28c"}, {"lon": -77.02831266666666, "lat": 38.895344333333334, "name": "f455dc92104f27333b10543524c87b95", "fusion_lat": 0.0, "fusion_lon": 0.0, "rental_uris": {"android": "https://dc.lft.to/lastmile_qr_scan", "ios": "https://dc.lft.to/lastmile_qr_scan"}, "is_reserved": 0, "is_disabled": 0, "type": "electric_scooter", "bike_id": "f455dc92104f27333b10543524c87b95"}, {"lon": -77.02205666666667, "lat": 38.88714216666666, "name": "63229e32f36bc7855011f1f9f4561230", "fusion_lat": 0.0, "fusion_lon": 0.0, "rental_uris": {"android": "https://dc.lft.to/lastmile_qr_scan", "ios": "https://dc.lft.to/lastmile_qr_scan"}, "is_reserved": 0, "is_disabled": 0, "type": "electric_scooter", "bike_id": "63229e32f36bc7855011f1f9f4561230"}, {"lon": -77.02228616666666, "lat": 38.878696166666664, "name": "b92d0b65e0afe531181047983d9f3253", "fusion_lat": 0.0, "fusion_lon": 0.0, "rental_uris": {"android": "https://dc.lft.to/lastmile_qr_scan", "ios": "https://dc.lft.to/lastmile_qr_scan"}, "is_reserved": 0, "is_disabled": 0, "type": "electric_scooter", "bike_id": "b92d0b65e0afe531181047983d9f3253"}, {"lon": -76.95255133333333, "lat": 38.90692033333333, "name": "ce108a950a6dafff552a558e491e2270", "fusion_lat": 0.0, "fusion_lon": 0.0, "rental_uris": {"android": "https://dc.lft.to/lastmile_qr_scan", "ios": "https://dc.lft.to/lastmile_qr_scan"}, "is_reserved": 0, "is_disabled": 0, "type": "electric_bike", "bike_id": "ce108a950a6dafff552a558e491e2270"}, {"lon": -77.02163933333334, "lat": 38.8862205, "name": "887d168d8831f8f79e61e07588fa6f4f", "fusion_lat": 0.0, "fusion_lon": 0.0, "rental_uris": {"android": "https://dc.lft.to/lastmile_qr_scan", "ios": "https://dc.lft.to/lastmile_qr_scan"}, "is_reserved": 0, "is_disabled": 0, "type": "electric_scooter", "bike_id": "887d168d8831f8f79e61e07588fa6f4f"}, {"lon": -77.02984133333334, "lat": 38.89569316666667, "name": "ceaae40cdd3df9b423fe44feb2b6443c", "fusion_lat": 0.0, "fusion_lon": 0.0, "rental_uris": {"android": "https://dc.lft.to/lastmile_qr_scan", "ios": "https://dc.lft.to/lastmile_qr_scan"}, "is_reserved": 0, "is_disabled": 0, "type": "electric_scooter", "bike_id": "ceaae40cdd3df9b423fe44feb2b6443c"}, {"lon": -77.114234, "lat": 38.84287033333333, "name": "c092e44b0afbacfd4a4cb29a78b949bd", "fusion_lat": 0.0, "fusion_lon": 0.0, "rental_uris": {"android": "https://dc.lft.to/lastmile_qr_scan", "ios": "https://dc.lft.to/lastmile_qr_scan"}, "is_reserved": 0, "is_disabled": 0, "type": "electric_bike", "bike_id": "c092e44b0afbacfd4a4cb29a78b949bd"}, {"lon": -77.05094833333334, "lat": 38.81328366666666, "name": "8380682f0faf2ab234c3e9233ef8b947", "fusion_lat": 0.0, "fusion_lon": 0.0, "rental_uris": {"android": "https://dc.lft.to/lastmile_qr_scan", "ios": "https://dc.lft.to/lastmile_qr_scan"}, "is_reserved": 0, "is_disabled": 0, "type": "electric_bike", "bike_id": "8380682f0faf2ab234c3e9233ef8b947"}, {"lon": -77.0136295, "lat": 38.914156166666665, "name": "4b52bc2296552d1ce147373031598cea", "fusion_lat": 0.0, "fusion_lon": 0.0, "rental_uris": {"android": "https://dc.lft.to/lastmile_qr_scan", "ios": "https://dc.lft.to/lastmile_qr_scan"}, "is_reserved": 0, "is_disabled": 0, "type": "electric_scooter", "bike_id": "4b52bc2296552d1ce147373031598cea"}, {"lon": -77.02176733333333, "lat": 38.918776666666666, "name": "3bca1aa20f2f7737dccfd11cec378944", "fusion_lat": 0.0, "fusion_lon": 0.0, "rental_uris": {"android": "https://dc.lft.to/lastmile_qr_scan", "ios": "https://dc.lft.to/lastmile_qr_scan"}, "is_reserved": 0, "is_disabled": 0, "type": "electric_scooter", "bike_id": "3bca1aa20f2f7737dccfd11cec378944"}, {"lon": -77.03704133333333, "lat": 38.916627, "name": "adccdec1611b8e7636fe5d8b24417377", "fusion_lat": 0.0, "fusion_lon": 0.0, "rental_uris": {"android": "https://dc.lft.to/lastmile_qr_scan", "ios": "https://dc.lft.to/lastmile_qr_scan"}, "is_reserved": 0, "is_disabled": 0, "type": "electric_scooter", "bike_id": "adccdec1611b8e7636fe5d8b24417377"}, {"lon": -77.02901766666666, "lat": 38.88429416666666, "name": "a6480487204c60db1e97f17746323219", "fusion_lat": 0.0, "fusion_lon": 0.0, "rental_uris": {"android": "https://dc.lft.to/lastmile_qr_scan", "ios": "https://dc.lft.to/lastmile_qr_scan"}, "is_reserved": 0, "is_disabled": 0, "type": "electric_scooter", "bike_id": "a6480487204c60db1e97f17746323219"}, {"lon": -77.0009325, "lat": 38.87370516666667, "name": "52c20af6e05a7f022ee9255c9c6050ca", "fusion_lat": 0.0, "fusion_lon": 0.0, "rental_uris": {"android": "https://dc.lft.to/lastmile_qr_scan", "ios": "https://dc.lft.to/lastmile_qr_scan"}, "is_reserved": 0, "is_disabled": 0, "type": "electric_scooter", "bike_id": "52c20af6e05a7f022ee9255c9c6050ca"}, {"lon": -77.07913116666667, "lat": 38.83925466666667, "name": "b090ae5af3d00cdad04a89983a38758f", "fusion_lat": 0.0, "fusion_lon": 0.0, "rental_uris": {"android": "https://dc.lft.to/lastmile_qr_scan", "ios": "https://dc.lft.to/lastmile_qr_scan"}, "is_reserved": 0, "is_disabled": 0, "type": "electric_bike", "bike_id": "b090ae5af3d00cdad04a89983a38758f"}, {"lon": -77.0153445, "lat": 38.88735583333333, "name": "d8b0d465152b18a1384de236d039c18c", "fusion_lat": 0.0, "fusion_lon": 0.0, "rental_uris": {"android": "https://dc.lft.to/lastmile_qr_scan", "ios": "https://dc.lft.to/lastmile_qr_scan"}, "is_reserved": 0, "is_disabled": 0, "type": "electric_scooter", "bike_id": "d8b0d465152b18a1384de236d039c18c"}, {"lon": -77.027854, "lat": 38.9182715, "name": "3bf10ac899de8afba5cd1d6a944ebfb1", "fusion_lat": 0.0, "fusion_lon": 0.0, "rental_uris": {"android": "https://dc.lft.to/lastmile_qr_scan", "ios": "https://dc.lft.to/lastmile_qr_scan"}, "is_reserved": 0, "is_disabled": 0, "type": "electric_scooter", "bike_id": "3bf10ac899de8afba5cd1d6a944ebfb1"}, {"lon": -76.97612016666666, "lat": 38.91308933333333, "name": "75e6df8cb9c29e80e760cd92b9b5f6e3", "fusion_lat": 0.0, "fusion_lon": 0.0, "rental_uris": {"android": "https://dc.lft.to/lastmile_qr_scan", "ios": "https://dc.lft.to/lastmile_qr_scan"}, "is_reserved": 0, "is_disabled": 0, "type": "electric_bike", "bike_id": "75e6df8cb9c29e80e760cd92b9b5f6e3"}, {"lon": -76.971891, "lat": 38.912622999999996, "name": "dac5b0ad322be545af3a5fb0a76bc12c", "fusion_lat": 0.0, "fusion_lon": 0.0, "rental_uris": {"android": "https://dc.lft.to/lastmile_qr_scan", "ios": "https://dc.lft.to/lastmile_qr_scan"}, "is_reserved": 0, "is_disabled": 0, "type": "electric_scooter", "bike_id": "dac5b0ad322be545af3a5fb0a76bc12c"}, {"lon": -77.03226633333334, "lat": 38.90041, "name": "2e34c635ae69fd3a73ea770c93947ff8", "fusion_lat": 0.0, "fusion_lon": 0.0, "rental_uris": {"android": "https://dc.lft.to/lastmile_qr_scan", "ios": "https://dc.lft.to/lastmile_qr_scan"}, "is_reserved": 0, "is_disabled": 0, "type": "electric_scooter", "bike_id": "2e34c635ae69fd3a73ea770c93947ff8"}, {"lon": -76.99032683333333, "lat": 38.8587275, "name": "34fb296da28ecc1ddd78d65905a6d1b1", "fusion_lat": 0.0, "fusion_lon": 0.0, "rental_uris": {"android": "https://dc.lft.to/lastmile_qr_scan", "ios": "https://dc.lft.to/lastmile_qr_scan"}, "is_reserved": 0, "is_disabled": 0, "type": "electric_scooter", "bike_id": "34fb296da28ecc1ddd78d65905a6d1b1"}, {"lon": -77.043963, "lat": 38.9227755, "name": "ae9db0f646104e6aabde10b87c5e3ce8", "fusion_lat": 0.0, "fusion_lon": 0.0, "rental_uris": {"android": "https://dc.lft.to/lastmile_qr_scan", "ios": "https://dc.lft.to/lastmile_qr_scan"}, "is_reserved": 0, "is_disabled": 0, "type": "electric_scooter", "bike_id": "ae9db0f646104e6aabde10b87c5e3ce8"}, {"lon": -77.02403166666667, "lat": 38.887396333333335, "name": "6cf00b25c55aa5d4fcfe5e0fdf52ec39", "fusion_lat": 0.0, "fusion_lon": 0.0, "rental_uris": {"android": "https://dc.lft.to/lastmile_qr_scan", "ios": "https://dc.lft.to/lastmile_qr_scan"}, "is_reserved": 0, "is_disabled": 0, "type": "electric_scooter", "bike_id": "6cf00b25c55aa5d4fcfe5e0fdf52ec39"}, {"lon": -77.109184, "lat": 39.05203366666667, "name": "98131cee802d19ad7b18adfcb65e8545", "fusion_lat": 0.0, "fusion_lon": 0.0, "rental_uris": {"android": "https://dc.lft.to/lastmile_qr_scan", "ios": "https://dc.lft.to/lastmile_qr_scan"}, "is_reserved": 0, "is_disabled": 0, "type": "electric_bike", "bike_id": "98131cee802d19ad7b18adfcb65e8545"}, {"lon": -77.010755, "lat": 38.87105733333333, "name": "1251b3c3af302316eb30c56cbc2a7bfe", "fusion_lat": 0.0, "fusion_lon": 0.0, "rental_uris": {"android": "https://dc.lft.to/lastmile_qr_scan", "ios": "https://dc.lft.to/lastmile_qr_scan"}, "is_reserved": 0, "is_disabled": 0, "type": "electric_scooter", "bike_id": "1251b3c3af302316eb30c56cbc2a7bfe"}, {"lon": -77.0182075, "lat": 38.908114166666664, "name": "821e73195299f92cfab9158ca2490732", "fusion_lat": 0.0, "fusion_lon": 0.0, "rental_uris": {"android": "https://dc.lft.to/lastmile_qr_scan", "ios": "https://dc.lft.to/lastmile_qr_scan"}, "is_reserved": 0, "is_disabled": 0, "type": "electric_scooter", "bike_id": "821e73195299f92cfab9158ca2490732"}, {"lon": -77.02225416666667, "lat": 38.88622066666667, "name": "cfd1853db2ff6bef49708c0a4ddd5f8b", "fusion_lat": 0.0, "fusion_lon": 0.0, "rental_uris": {"android": "https://dc.lft.to/lastmile_qr_scan", "ios": "https://dc.lft.to/lastmile_qr_scan"}, "is_reserved": 0, "is_disabled": 0, "type": "electric_bike", "bike_id": "cfd1853db2ff6bef49708c0a4ddd5f8b"}, {"lon": -77.02316833333333, "lat": 38.88719016666667, "name": "2cbe81d0156789ebff8e65e162db4ddf", "fusion_lat": 0.0, "fusion_lon": 0.0, "rental_uris": {"android": "https://dc.lft.to/lastmile_qr_scan", "ios": "https://dc.lft.to/lastmile_qr_scan"}, "is_reserved": 0, "is_disabled": 0, "type": "electric_scooter", "bike_id": "2cbe81d0156789ebff8e65e162db4ddf"}, {"lon": -77.00088583333333, "lat": 38.87369666666667, "name": "36592830871a60223b1c6572b0dc23cb", "fusion_lat": 0.0, "fusion_lon": 0.0, "rental_uris": {"android": "https://dc.lft.to/lastmile_qr_scan", "ios": "https://dc.lft.to/lastmile_qr_scan"}, "is_reserved": 0, "is_disabled": 0, "type": "electric_scooter", "bike_id": "36592830871a60223b1c6572b0dc23cb"}, {"lon": -77.0301315, "lat": 38.934866166666666, "name": "739bf022d13950fed6b53458d0e94172", "fusion_lat": 0.0, "fusion_lon": 0.0, "rental_uris": {"android": "https://dc.lft.to/lastmile_qr_scan", "ios": "https://dc.lft.to/lastmile_qr_scan"}, "is_reserved": 0, "is_disabled": 0, "type": "electric_bike", "bike_id": "739bf022d13950fed6b53458d0e94172"}, {"lon": -77.03003066666666, "lat": 38.90004533333333, "name": "007368458c6803d10f689bea75e54446", "fusion_lat": 0.0, "fusion_lon": 0.0, "rental_uris": {"android": "https://dc.lft.to/lastmile_qr_scan", "ios": "https://dc.lft.to/lastmile_qr_scan"}, "is_reserved": 0, "is_disabled": 0, "type": "electric_scooter", "bike_id": "007368458c6803d10f689bea75e54446"}, {"lon": -77.03376483333334, "lat": 38.887529666666666, "name": "57ac528e5273d42e52733e63342d3e6f", "fusion_lat": 0.0, "fusion_lon": 0.0, "rental_uris": {"android": "https://dc.lft.to/lastmile_qr_scan", "ios": "https://dc.lft.to/lastmile_qr_scan"}, "is_reserved": 0, "is_disabled": 0, "type": "electric_scooter", "bike_id": "57ac528e5273d42e52733e63342d3e6f"}, {"lon": -77.04329583333333, "lat": 38.90515116666667, "name": "eba7a204a180c66b59718a339d8ccab3", "fusion_lat": 0.0, "fusion_lon": 0.0, "rental_uris": {"android": "https://dc.lft.to/lastmile_qr_scan", "ios": "https://dc.lft.to/lastmile_qr_scan"}, "is_reserved": 0, "is_disabled": 0, "type": "electric_scooter", "bike_id": "eba7a204a180c66b59718a339d8ccab3"}, {"lon": -77.0199505, "lat": 38.913422, "name": "c0d71cb3cbcf5bdb30439fb730a08d93", "fusion_lat": 0.0, "fusion_lon": 0.0, "rental_uris": {"android": "https://dc.lft.to/lastmile_qr_scan", "ios": "https://dc.lft.to/lastmile_qr_scan"}, "is_reserved": 0, "is_disabled": 0, "type": "electric_scooter", "bike_id": "c0d71cb3cbcf5bdb30439fb730a08d93"}, {"lon": -77.02382516666667, "lat": 38.91158466666667, "name": "003982ac0d90630c3d9beca4f11e57fb", "fusion_lat": 0.0, "fusion_lon": 0.0, "rental_uris": {"android": "https://dc.lft.to/lastmile_qr_scan", "ios": "https://dc.lft.to/lastmile_qr_scan"}, "is_reserved": 0, "is_disabled": 0, "type": "electric_scooter", "bike_id": "003982ac0d90630c3d9beca4f11e57fb"}, {"lon": -77.03226716666667, "lat": 38.89368233333333, "name": "0bf795ea5ae004e00fbeadcbcabbd3b1", "fusion_lat": 0.0, "fusion_lon": 0.0, "rental_uris": {"android": "https://dc.lft.to/lastmile_qr_scan", "ios": "https://dc.lft.to/lastmile_qr_scan"}, "is_reserved": 0, "is_disabled": 0, "type": "electric_scooter", "bike_id": "0bf795ea5ae004e00fbeadcbcabbd3b1"}, {"lon": -77.0344355, "lat": 38.90718833333333, "name": "b26e5080686a1df53d2c5a13333005c1", "fusion_lat": 0.0, "fusion_lon": 0.0, "rental_uris": {"android": "https://dc.lft.to/lastmile_qr_scan", "ios": "https://dc.lft.to/lastmile_qr_scan"}, "is_reserved": 0, "is_disabled": 0, "type": "electric_scooter", "bike_id": "b26e5080686a1df53d2c5a13333005c1"}, {"lon": -76.9553555, "lat": 38.888691, "name": "1a4daa8f6f8bfbd9a119fa67456a6544", "fusion_lat": 0.0, "fusion_lon": 0.0, "rental_uris": {"android": "https://dc.lft.to/lastmile_qr_scan", "ios": "https://dc.lft.to/lastmile_qr_scan"}, "is_reserved": 0, "is_disabled": 0, "type": "electric_scooter", "bike_id": "1a4daa8f6f8bfbd9a119fa67456a6544"}, {"lon": -77.03988733333334, "lat": 38.830438666666666, "name": "d36f9f3a7349154f80ec4184d2240927", "fusion_lat": 0.0, "fusion_lon": 0.0, "rental_uris": {"android": "https://dc.lft.to/lastmile_qr_scan", "ios": "https://dc.lft.to/lastmile_qr_scan"}, "is_reserved": 0, "is_disabled": 0, "type": "electric_bike", "bike_id": "d36f9f3a7349154f80ec4184d2240927"}, {"lon": -76.94948016666666, "lat": 38.88319283333333, "name": "3a73865482ac10f67051bd6aba901dfb", "fusion_lat": 0.0, "fusion_lon": 0.0, "rental_uris": {"android": "https://dc.lft.to/lastmile_qr_scan", "ios": "https://dc.lft.to/lastmile_qr_scan"}, "is_reserved": 0, "is_disabled": 0, "type": "electric_scooter", "bike_id": "3a73865482ac10f67051bd6aba901dfb"}, {"lon": -77.02462033333333, "lat": 38.906251166666664, "name": "29a087407dd50f1f54e1947f380dd894", "fusion_lat": 0.0, "fusion_lon": 0.0, "rental_uris": {"android": "https://dc.lft.to/lastmile_qr_scan", "ios": "https://dc.lft.to/lastmile_qr_scan"}, "is_reserved": 0, "is_disabled": 0, "type": "electric_bike", "bike_id": "29a087407dd50f1f54e1947f380dd894"}, {"lon": -77.032913, "lat": 38.956533, "name": "52ca2deffd2d179a63bf3fda005806f2", "fusion_lat": 0.0, "fusion_lon": 0.0, "rental_uris": {"android": "https://dc.lft.to/lastmile_qr_scan", "ios": "https://dc.lft.to/lastmile_qr_scan"}, "is_reserved": 0, "is_disabled": 0, "type": "electric_scooter", "bike_id": "52ca2deffd2d179a63bf3fda005806f2"}, {"lon": -77.09552016666666, "lat": 38.837294, "name": "61a029f529b3a6a8077e033a8fd82255", "fusion_lat": 0.0, "fusion_lon": 0.0, "rental_uris": {"android": "https://dc.lft.to/lastmile_qr_scan", "ios": "https://dc.lft.to/lastmile_qr_scan"}, "is_reserved": 0, "is_disabled": 0, "type": "electric_bike", "bike_id": "61a029f529b3a6a8077e033a8fd82255"}, {"lon": -76.99785533333333, "lat": 38.844210833333335, "name": "8292eac472cf5e493cc433bc9579041b", "fusion_lat": 0.0, "fusion_lon": 0.0, "rental_uris": {"android": "https://dc.lft.to/lastmile_qr_scan", "ios": "https://dc.lft.to/lastmile_qr_scan"}, "is_reserved": 0, "is_disabled": 0, "type": "electric_scooter", "bike_id": "8292eac472cf5e493cc433bc9579041b"}, {"lon": -77.042932, "lat": 38.90727616666667, "name": "55079cad198470f66e47f7336a889376", "fusion_lat": 0.0, "fusion_lon": 0.0, "rental_uris": {"android": "https://dc.lft.to/lastmile_qr_scan", "ios": "https://dc.lft.to/lastmile_qr_scan"}, "is_reserved": 0, "is_disabled": 0, "type": "electric_scooter", "bike_id": "55079cad198470f66e47f7336a889376"}, {"lon": -77.03674, "lat": 38.91251583333333, "name": "04c38df908e2854328444512f936fcfb", "fusion_lat": 0.0, "fusion_lon": 0.0, "rental_uris": {"android": "https://dc.lft.to/lastmile_qr_scan", "ios": "https://dc.lft.to/lastmile_qr_scan"}, "is_reserved": 0, "is_disabled": 0, "type": "electric_scooter", "bike_id": "04c38df908e2854328444512f936fcfb"}, {"lon": -77.00374766666667, "lat": 38.836091333333336, "name": "88c4322b8fac807c7bd5ee7b33ec4e89", "fusion_lat": 0.0, "fusion_lon": 0.0, "rental_uris": {"android": "https://dc.lft.to/lastmile_qr_scan", "ios": "https://dc.lft.to/lastmile_qr_scan"}, "is_reserved": 0, "is_disabled": 0, "type": "electric_bike", "bike_id": "88c4322b8fac807c7bd5ee7b33ec4e89"}, {"lon": -77.05731633333333, "lat": 38.93370066666667, "name": "7c71b241c18d38df3137e16fcabe1c58", "fusion_lat": 0.0, "fusion_lon": 0.0, "rental_uris": {"android": "https://dc.lft.to/lastmile_qr_scan", "ios": "https://dc.lft.to/lastmile_qr_scan"}, "is_reserved": 0, "is_disabled": 0, "type": "electric_scooter", "bike_id": "7c71b241c18d38df3137e16fcabe1c58"}, {"lon": -77.00757583333333, "lat": 38.92674933333333, "name": "93d11af8abf8a64f72316edc961f269e", "fusion_lat": 0.0, "fusion_lon": 0.0, "rental_uris": {"android": "https://dc.lft.to/lastmile_qr_scan", "ios": "https://dc.lft.to/lastmile_qr_scan"}, "is_reserved": 0, "is_disabled": 0, "type": "electric_scooter", "bike_id": "93d11af8abf8a64f72316edc961f269e"}, {"lon": -77.02401966666666, "lat": 38.909837333333336, "name": "0219807613bb342c14e00353f878f09a", "fusion_lat": 0.0, "fusion_lon": 0.0, "rental_uris": {"android": "https://dc.lft.to/lastmile_qr_scan", "ios": "https://dc.lft.to/lastmile_qr_scan"}, "is_reserved": 0, "is_disabled": 0, "type": "electric_scooter", "bike_id": "0219807613bb342c14e00353f878f09a"}, {"lon": -77.01385016666667, "lat": 38.919493833333334, "name": "fd00915823044084f03b609a64e44add", "fusion_lat": 0.0, "fusion_lon": 0.0, "rental_uris": {"android": "https://dc.lft.to/lastmile_qr_scan", "ios": "https://dc.lft.to/lastmile_qr_scan"}, "is_reserved": 0, "is_disabled": 0, "type": "electric_scooter", "bike_id": "fd00915823044084f03b609a64e44add"}, {"lon": -77.03774816666666, "lat": 38.92558533333333, "name": "ee82fd6a8d0392f81e42494aed4572da", "fusion_lat": 0.0, "fusion_lon": 0.0, "rental_uris": {"android": "https://dc.lft.to/lastmile_qr_scan", "ios": "https://dc.lft.to/lastmile_qr_scan"}, "is_reserved": 0, "is_disabled": 0, "type": "electric_scooter", "bike_id": "ee82fd6a8d0392f81e42494aed4572da"}, {"lon": -77.02344333333333, "lat": 38.96206166666666, "name": "b4b0c69a7d3f9439fa58a6a8911b748f", "fusion_lat": 0.0, "fusion_lon": 0.0, "rental_uris": {"android": "https://dc.lft.to/lastmile_qr_scan", "ios": "https://dc.lft.to/lastmile_qr_scan"}, "is_reserved": 0, "is_disabled": 0, "type": "electric_scooter", "bike_id": "b4b0c69a7d3f9439fa58a6a8911b748f"}, {"lon": -76.99548433333334, "lat": 38.88417783333333, "name": "21258feb004c83b55c6efb9f48fb1b89", "fusion_lat": 0.0, "fusion_lon": 0.0, "rental_uris": {"android": "https://dc.lft.to/lastmile_qr_scan", "ios": "https://dc.lft.to/lastmile_qr_scan"}, "is_reserved": 0, "is_disabled": 0, "type": "electric_scooter", "bike_id": "21258feb004c83b55c6efb9f48fb1b89"}, {"lon": -77.0229185, "lat": 38.9156825, "name": "d26b70c7cf06c9228dd1a0f502941df4", "fusion_lat": 0.0, "fusion_lon": 0.0, "rental_uris": {"android": "https://dc.lft.to/lastmile_qr_scan", "ios": "https://dc.lft.to/lastmile_qr_scan"}, "is_reserved": 0, "is_disabled": 0, "type": "electric_scooter", "bike_id": "d26b70c7cf06c9228dd1a0f502941df4"}, {"lon": -77.02601516666667, "lat": 38.887359000000004, "name": "7a4418212e52fc375cce9c20245f9409", "fusion_lat": 0.0, "fusion_lon": 0.0, "rental_uris": {"android": "https://dc.lft.to/lastmile_qr_scan", "ios": "https://dc.lft.to/lastmile_qr_scan"}, "is_reserved": 0, "is_disabled": 0, "type": "electric_scooter", "bike_id": "7a4418212e52fc375cce9c20245f9409"}, {"lon": -77.0004915, "lat": 38.907205833333336, "name": "8203b975f8636fdbd4d8c3dac7b30441", "fusion_lat": 0.0, "fusion_lon": 0.0, "rental_uris": {"android": "https://dc.lft.to/lastmile_qr_scan", "ios": "https://dc.lft.to/lastmile_qr_scan"}, "is_reserved": 0, "is_disabled": 0, "type": "electric_scooter", "bike_id": "8203b975f8636fdbd4d8c3dac7b30441"}, {"lon": -77.005225, "lat": 38.928861, "name": "1e768865726f6f74cd6a0ce097c49ea9", "fusion_lat": 0.0, "fusion_lon": 0.0, "rental_uris": {"android": "https://dc.lft.to/lastmile_qr_scan", "ios": "https://dc.lft.to/lastmile_qr_scan"}, "is_reserved": 0, "is_disabled": 0, "type": "electric_scooter", "bike_id": "1e768865726f6f74cd6a0ce097c49ea9"}, {"lon": -77.03864016666667, "lat": 38.9079875, "name": "b6b7c60d972f847770f5b95c36748be5", "fusion_lat": 0.0, "fusion_lon": 0.0, "rental_uris": {"android": "https://dc.lft.to/lastmile_qr_scan", "ios": "https://dc.lft.to/lastmile_qr_scan"}, "is_reserved": 0, "is_disabled": 0, "type": "electric_scooter", "bike_id": "b6b7c60d972f847770f5b95c36748be5"}, {"lon": -77.0213565, "lat": 38.90308433333333, "name": "e60b261125866d959c7cbd61adfa390c", "fusion_lat": 0.0, "fusion_lon": 0.0, "rental_uris": {"android": "https://dc.lft.to/lastmile_qr_scan", "ios": "https://dc.lft.to/lastmile_qr_scan"}, "is_reserved": 0, "is_disabled": 0, "type": "electric_scooter", "bike_id": "e60b261125866d959c7cbd61adfa390c"}, {"lon": -77.00753, "lat": 38.871123833333336, "name": "5f211d02781682e86e78192aa690f67a", "fusion_lat": 0.0, "fusion_lon": 0.0, "rental_uris": {"android": "https://dc.lft.to/lastmile_qr_scan", "ios": "https://dc.lft.to/lastmile_qr_scan"}, "is_reserved": 0, "is_disabled": 0, "type": "electric_scooter", "bike_id": "5f211d02781682e86e78192aa690f67a"}, {"lon": -77.353138, "lat": 38.95000016666667, "name": "37644fddcd69b0c82791e4fd930993f1", "fusion_lat": 0.0, "fusion_lon": 0.0, "rental_uris": {"android": "https://dc.lft.to/lastmile_qr_scan", "ios": "https://dc.lft.to/lastmile_qr_scan"}, "is_reserved": 0, "is_disabled": 0, "type": "electric_bike", "bike_id": "37644fddcd69b0c82791e4fd930993f1"}, {"lon": -77.0384285, "lat": 38.931354666666664, "name": "26bf6a803c2072cf39f950ca61e1e7b3", "fusion_lat": 0.0, "fusion_lon": 0.0, "rental_uris": {"android": "https://dc.lft.to/lastmile_qr_scan", "ios": "https://dc.lft.to/lastmile_qr_scan"}, "is_reserved": 0, "is_disabled": 0, "type": "electric_scooter", "bike_id": "26bf6a803c2072cf39f950ca61e1e7b3"}, {"lon": -76.93179116666667, "lat": 38.89885683333333, "name": "3494cfbf776ef4930be9be08671fca85", "fusion_lat": 0.0, "fusion_lon": 0.0, "rental_uris": {"android": "https://dc.lft.to/lastmile_qr_scan", "ios": "https://dc.lft.to/lastmile_qr_scan"}, "is_reserved": 0, "is_disabled": 0, "type": "electric_scooter", "bike_id": "3494cfbf776ef4930be9be08671fca85"}, {"lon": -77.027284, "lat": 38.951290666666665, "name": "f2ed2f4e1f959094098e1a9fd04701a9", "fusion_lat": 0.0, "fusion_lon": 0.0, "rental_uris": {"android": "https://dc.lft.to/lastmile_qr_scan", "ios": "https://dc.lft.to/lastmile_qr_scan"}, "is_reserved": 0, "is_disabled": 0, "type": "electric_scooter", "bike_id": "f2ed2f4e1f959094098e1a9fd04701a9"}, {"lon": -77.00725916666667, "lat": 38.8849015, "name": "1117a99148b5470dcdc2c9ed2f0a294d", "fusion_lat": 0.0, "fusion_lon": 0.0, "rental_uris": {"android": "https://dc.lft.to/lastmile_qr_scan", "ios": "https://dc.lft.to/lastmile_qr_scan"}, "is_reserved": 0, "is_disabled": 0, "type": "electric_scooter", "bike_id": "1117a99148b5470dcdc2c9ed2f0a294d"}, {"lon": -76.988652, "lat": 38.900243333333336, "name": "53e62d6aebb07c6b3e2b61bebbb42a0b", "fusion_lat": 0.0, "fusion_lon": 0.0, "rental_uris": {"android": "https://dc.lft.to/lastmile_qr_scan", "ios": "https://dc.lft.to/lastmile_qr_scan"}, "is_reserved": 0, "is_disabled": 0, "type": "electric_scooter", "bike_id": "53e62d6aebb07c6b3e2b61bebbb42a0b"}, {"lon": -76.94633066666667, "lat": 38.946216666666665, "name": "4c7ecb9769a07dd63ec5d5bf72668a12", "fusion_lat": 0.0, "fusion_lon": 0.0, "rental_uris": {"android": "https://dc.lft.to/lastmile_qr_scan", "ios": "https://dc.lft.to/lastmile_qr_scan"}, "is_reserved": 0, "is_disabled": 0, "type": "electric_bike", "bike_id": "4c7ecb9769a07dd63ec5d5bf72668a12"}, {"lon": -77.00215633333333, "lat": 38.90063216666667, "name": "85727cc991e2b36f5b93bda55ebecd54", "fusion_lat": 0.0, "fusion_lon": 0.0, "rental_uris": {"android": "https://dc.lft.to/lastmile_qr_scan", "ios": "https://dc.lft.to/lastmile_qr_scan"}, "is_reserved": 0, "is_disabled": 0, "type": "electric_scooter", "bike_id": "85727cc991e2b36f5b93bda55ebecd54"}, {"lon": -77.0183935, "lat": 38.913445, "name": "7d66d94ef2a6c41511681314353dc1c4", "fusion_lat": 0.0, "fusion_lon": 0.0, "rental_uris": {"android": "https://dc.lft.to/lastmile_qr_scan", "ios": "https://dc.lft.to/lastmile_qr_scan"}, "is_reserved": 0, "is_disabled": 0, "type": "electric_scooter", "bike_id": "7d66d94ef2a6c41511681314353dc1c4"}, {"lon": -77.02200466666666, "lat": 38.91687616666667, "name": "84141314d552f9ae9611856e5eaebada", "fusion_lat": 0.0, "fusion_lon": 0.0, "rental_uris": {"android": "https://dc.lft.to/lastmile_qr_scan", "ios": "https://dc.lft.to/lastmile_qr_scan"}, "is_reserved": 0, "is_disabled": 0, "type": "electric_scooter", "bike_id": "84141314d552f9ae9611856e5eaebada"}, {"lon": -77.04227033333333, "lat": 38.91113333333333, "name": "d27a6df36bda7841e9c240fe451bf226", "fusion_lat": 0.0, "fusion_lon": 0.0, "rental_uris": {"android": "https://dc.lft.to/lastmile_qr_scan", "ios": "https://dc.lft.to/lastmile_qr_scan"}, "is_reserved": 0, "is_disabled": 0, "type": "electric_scooter", "bike_id": "d27a6df36bda7841e9c240fe451bf226"}, {"lon": -76.98129533333334, "lat": 38.891948666666664, "name": "ec2ca25682678b853dce441a89ac4162", "fusion_lat": 0.0, "fusion_lon": 0.0, "rental_uris": {"android": "https://dc.lft.to/lastmile_qr_scan", "ios": "https://dc.lft.to/lastmile_qr_scan"}, "is_reserved": 0, "is_disabled": 0, "type": "electric_scooter", "bike_id": "ec2ca25682678b853dce441a89ac4162"}, {"lon": -77.04640933333333, "lat": 38.89229566666667, "name": "782414a93fb438457f969a2e639ef928", "fusion_lat": 0.0, "fusion_lon": 0.0, "rental_uris": {"android": "https://dc.lft.to/lastmile_qr_scan", "ios": "https://dc.lft.to/lastmile_qr_scan"}, "is_reserved": 0, "is_disabled": 0, "type": "electric_scooter", "bike_id": "782414a93fb438457f969a2e639ef928"}, {"lon": -77.0628375, "lat": 38.904547666666666, "name": "18449f767bf8ecf2bebad0da76dbd65f", "fusion_lat": 0.0, "fusion_lon": 0.0, "rental_uris": {"android": "https://dc.lft.to/lastmile_qr_scan", "ios": "https://dc.lft.to/lastmile_qr_scan"}, "is_reserved": 0, "is_disabled": 0, "type": "electric_scooter", "bike_id": "18449f767bf8ecf2bebad0da76dbd65f"}, {"lon": -76.99500833333333, "lat": 38.8624435, "name": "a913e2132798d03f6aad4dd6b00112c7", "fusion_lat": 0.0, "fusion_lon": 0.0, "rental_uris": {"android": "https://dc.lft.to/lastmile_qr_scan", "ios": "https://dc.lft.to/lastmile_qr_scan"}, "is_reserved": 0, "is_disabled": 0, "type": "electric_scooter", "bike_id": "a913e2132798d03f6aad4dd6b00112c7"}, {"lon": -77.042623, "lat": 38.93410316666667, "name": "936cb4b0042b4486851fea05d2d876df", "fusion_lat": 0.0, "fusion_lon": 0.0, "rental_uris": {"android": "https://dc.lft.to/lastmile_qr_scan", "ios": "https://dc.lft.to/lastmile_qr_scan"}, "is_reserved": 0, "is_disabled": 0, "type": "electric_scooter", "bike_id": "936cb4b0042b4486851fea05d2d876df"},