{"data": {"bikes": [{"rental_uris": {"ios": "https://dc.lft.to/lastmile_qr_scan", "android": "https://dc.lft.to/lastmile_qr_scan"}, "type": "electric_scooter", "name": "a2474b99338db310e133200ba532a2e1", "is_reserved": 0, "lon": -77.02817583333334, "is_disabled": 0, "fusion_lat": 0.0, "lat": 38.90286966666667, "bike_id": "a2474b99338db310e133200ba532a2e1", "fusion_lon": 0.0}, {"rental_uris": {"ios": "https://dc.lft.to/lastmile_qr_scan", "android": "https://dc.lft.to/lastmile_qr_scan"}, "type": "electric_scooter", "name": "1fc290e0968195714a1a7b9fb1d32e6a", "is_reserved": 0, "lon": -76.98577033333333, "is_disabled": 0, "fusion_lat": 0.0, "lat": 38.854461666666666, "bike_id": "1fc290e0968195714a1a7b9fb1d32e6a", "fusion_lon": 0.0}, {"rental_uris": {"ios": "https://dc.lft.to/lastmile_qr_scan", "android": "https://dc.lft.to/lastmile_qr_scan"}, "type": "electric_bike", "name": "876a4a4e89705bfb7656d2dff914376f", "is_reserved": 0, "lon": -76.99999166666667, "is_disabled": 0, "fusion_lat": 0.0, "lat": 38.923883000000004, "bike_id": "876a4a4e89705bfb7656d2dff914376f", "fusion_lon": 0.0}, {"rental_uris": {"ios": "https://dc.lft.to/lastmile_qr_scan", "android": "https://dc.lft.to/lastmile_qr_scan"}, "type": "electric_scooter", "name": "1707f7564513962c589424783fb458ad", "is_reserved": 0, "lon": -77.02392616666667, "is_disabled": 0, "fusion_lat": 0.0, "lat": 38.90568616666667, "bike_id": "1707f7564513962c589424783fb458ad", "fusion_lon": 0.0}, {"rental_uris": {"ios": "https://dc.lft.to/lastmile_qr_scan", "android": "https://dc.lft.to/lastmile_qr_scan"}, "type": "electric_scooter", "name": "ce2354638e62dcaf8dfb1bb93c3922ef", "is_reserved": 0, "lon": -77.04129166666667, "is_disabled": 0, "fusion_lat": 0.0, "lat": 38.930991, "bike_id": "ce2354638e62dcaf8dfb1bb93c3922ef", "fusion_lon": 0.0}, {"rental_uris": {"ios": "https://dc.lft.to/lastmile_qr_scan", "android": "https://dc.lft.to/lastmile_qr_scan"}, "type": "electric_scooter", "name": "ca08ba45f82e2e32753260dcaec6ff52", "is_reserved": 0, "lon": -77.02353516666666, "is_disabled": 0, "fusion_lat": 0.0, "lat": 38.94523933333333, "bike_id": "ca08ba45f82e2e32753260dcaec6ff52", "fusion_lon": 0.0}, {"rental_uris": {"ios": "https://dc.lft.to/lastmile_qr_scan", "android": "https://dc.lft.to/lastmile_qr_scan"}, "type": "electric_scooter", "name": "de6bb0c353f7be06a96466d7bb5b0089", "is_reserved": 0, "lon": -77.0450545, "is_disabled": 0, "fusion_lat": 0.0, "lat": 38.89224016666667, "bike_id": "de6bb0c353f7be06a96466d7bb5b0089", "fusion_lon": 0.0}, {"rental_uris": {"ios": "https://dc.lft.to/lastmile_qr_scan", "android": "https://dc.lft.to/lastmile_qr_scan"}, "type": "electric_scooter", "name": "313eca7e3f2838ff7104c53ad6872b1a", "is_reserved": 0, "lon": -77.03027983333334, "is_disabled": 0, "fusion_lat": 0.0, "lat": 38.9224325, "bike_id": "313eca7e3f2838ff7104c53ad6872b1a", "fusion_lon": 0.0}, {"rental_uris": {"ios": "https://dc.lft.to/lastmile_qr_scan", "android": "https://dc.lft.to/lastmile_qr_scan"}, "type": "electric_scooter", "name": "8cfec0e4ac1fbe52eaa86d0a95c7bfd9", "is_reserved": 0, "lon": -77.02714183333333, "is_disabled": 0, "fusion_lat": 0.0, "lat": 38.9059955, "bike_id": "8cfec0e4ac1fbe52eaa86d0a95c7bfd9", "fusion_lon": 0.0}, {"rental_uris": {"ios": "https://dc.lft.to/lastmile_qr_scan", "android": "https://dc.lft.to/lastmile_qr_scan"}, "type": "electric_scooter", "name": "922edb9781d0875b8382c7bca1839c01", "is_reserved": 0, "lon": -77.02221566666667, "is_disabled": 0, "fusion_lat": 0.0, "lat": 38.89354383333333, "bike_id": "922edb9781d0875b8382c7bca1839c01", "fusion_lon": 0.0}, {"rental_uris": {"ios": "https://dc.lft.to/lastmile_qr_scan", "android": "https://dc.lft.to/lastmile_qr_scan"}, "type": "electric_scooter", "name": "7c051f4b7441ab4a753126c83e6c01d2", "is_reserved": 0, "lon": -77.03870833333333, "is_disabled": 0, "fusion_lat": 0.0, "lat": 38.921524833333336, "bike_id": "7c051f4b7441ab4a753126c83e6c01d2", "fusion_lon": 0.0}, {"rental_uris": {"ios": "https://dc.lft.to/lastmile_qr_scan", "android": "https://dc.lft.to/lastmile_qr_scan"}, "type": "electric_scooter", "name": "0118398ac0af1cca0fd07fd113a3e0d6", "is_reserved": 0, "lon": -76.99874683333333, "is_disabled": 0, "fusion_lat": 0.0, "lat": 38.9002455, "bike_id": "0118398ac0af1cca0fd07fd113a3e0d6", "fusion_lon": 0.0}, {"rental_uris": {"ios": "https://dc.lft.to/lastmile_qr_scan", "android": "https://dc.lft.to/lastmile_qr_scan"}, "type": "electric_bike", "name": "1b6f99c265c580b059e577d686278148", "is_reserved": 0, "lon": -77.01223933333333, "is_disabled": 0, "fusion_lat": 0.0, "lat": 38.9508095, "bike_id": "1b6f99c265c580b059e577d686278148", "fusion_lon": 0.0}, {"rental_uris": {"ios": "https://dc.lft.to/lastmile_qr_scan", "android": "https://dc.lft.to/lastmile_qr_scan"}, "type": "electric_scooter", "name": "716f26cc5d059127d301bd9b961d2b18", "is_reserved": 0, "lon": -77.04268383333333, "is_disabled": 0, "fusion_lat": 0.0, "lat": 38.922996833333336, "bike_id": "716f26cc5d059127d301bd9b961d2b18", "fusion_lon": 0.0}, {"rental_uris": {"ios": "https://dc.lft.to/lastmile_qr_scan", "android": "https://dc.lft.to/lastmile_qr_scan"}, "type": "electric_scooter", "name": "0477ac330bd32825d73b1f635436ee3e", "is_reserved": 0, "lon": -76.976535, "is_disabled": 0, "fusion_lat": 0.0, "lat": 38.903628499999996, "bike_id": "0477ac330bd32825d73b1f635436ee3e", "fusion_lon": 0.0}, {"rental_uris": {"ios": "https://dc.lft.to/lastmile_qr_scan", "android": "https://dc.lft.to/lastmile_qr_scan"}, "type": "electric_scooter", "name": "b3b2fce943f2f6ab6c90fe99f738f1aa", "is_reserved": 0, "lon": -77.02778316666667, "is_disabled": 0, "fusion_lat": 0.0, "lat": 38.965797333333335, "bike_id": "b3b2fce943f2f6ab6c90fe99f738f1aa", "fusion_lon": 0.0}, {"rental_uris": {"ios": "https://dc.lft.to/lastmile_qr_scan", "android": "https://dc.lft.to/lastmile_qr_scan"}, "type": "electric_scooter", "name": "9821b60db962ea3fbef4430f93b0d545", "is_reserved": 0, "lon": -76.9416255, "is_disabled": 0, "fusion_lat": 0.0, "lat": 38.90178683333333, "bike_id": "9821b60db962ea3fbef4430f93b0d545", "fusion_lon": 0.0}, {"rental_uris": {"ios": "https://dc.lft.to/lastmile_qr_scan", "android": "https://dc.lft.to/lastmile_qr_scan"}, "type": "electric_scooter", "name": "d7cb1216370a3f3bd72ea448a5c15b14", "is_reserved": 0, "lon": -77.02696416666667, "is_disabled": 0, "fusion_lat": 0.0, "lat": 38.91800666666666, "bike_id": "d7cb1216370a3f3bd72ea448a5c15b14", "fusion_lon": 0.0}, {"rental_uris": {"ios": "https://dc.lft.to/lastmile_qr_scan", "android": "https://dc.lft.to/lastmile_qr_scan"}, "type": "electric_scooter", "name": "fa8a0fc4274ad70eccc6bc921cc75dd2", "is_reserved": 0, "lon": -77.032715, "is_disabled": 0, "fusion_lat": 0.0, "lat": 38.921566166666665, "bike_id": "fa8a0fc4274ad70eccc6bc921cc75dd2", "fusion_lon": 0.0}, {"rental_uris": {"ios": "https://dc.lft.to/lastmile_qr_scan", "android": "https://dc.lft.to/lastmile_qr_scan"}, "type": "electric_scooter", "name": "95cb2b3ec40601d4a7a77980ae354610", "is_reserved": 0, "lon": -77.02188966666667, "is_disabled": 0, "fusion_lat": 0.0, "lat": 38.911194333333334, "bike_id": "95cb2b3ec40601d4a7a77980ae354610", "fusion_lon": 0.0}, {"rental_uris": {"ios": "https://dc.lft.to/lastmile_qr_scan", "android": "https://dc.lft.to/lastmile_qr_scan"}, "type": "electric_scooter", "name": "03bd2c920723d9852187bebbd9358565", "is_reserved": 0, "lon": -77.04096366666667, "is_disabled": 0, "fusion_lat": 0.0, "lat": 38.92081833333334, "bike_id": "03bd2c920723d9852187bebbd9358565", "fusion_lon": 0.0}, {"rental_uris": {"ios": "https://dc.lft.to/lastmile_qr_scan", "android": "https://dc.lft.to/lastmile_qr_scan"}, "type": "electric_scooter", "name": "7ad3aa4ebb22d7e4d614e1c4a5320281", "is_reserved": 0, "lon": -77.00761666666666, "is_disabled": 0, "fusion_lat": 0.0, "lat": 38.87116666666667, "bike_id": "7ad3aa4ebb22d7e4d614e1c4a5320281", "fusion_lon": 0.0}, {"rental_uris": {"ios": "https://dc.lft.to/lastmile_qr_scan", "android": "https://dc.lft.to/lastmile_qr_scan"}, "type": "electric_scooter", "name": "cb4899561beac9f4ba572cbc8b23031d", "is_reserved": 0, "lon": -77.01776166666667, "is_disabled": 0, "fusion_lat": 0.0, "lat": 38.87916416666667, "bike_id": "cb4899561beac9f4ba572cbc8b23031d", "fusion_lon": 0.0}, {"rental_uris": {"ios": "https://dc.lft.to/lastmile_qr_scan", "android": "https://dc.lft.to/lastmile_qr_scan"}, "type": "electric_bike", "name": "6d0f9df40ab8d9c873587f98fa458007", "is_reserved": 0, "lon": -77.09964366666667, "is_disabled": 0, "fusion_lat": 0.0, "lat": 38.857907, "bike_id": "6d0f9df40ab8d9c873587f98fa458007", "fusion_lon": 0.0}, {"rental_uris": {"ios": "https://dc.lft.to/lastmile_qr_scan", "android": "https://dc.lft.to/lastmile_qr_scan"}, "type": "electric_scooter", "name": "e906c29f7c892b192ae350c011b88b4a", "is_reserved": 0, "lon": -77.01454766666667, "is_disabled": 0, "fusion_lat": 0.0, "lat": 38.91776266666667, "bike_id": "e906c29f7c892b192ae350c011b88b4a", "fusion_lon": 0.0}, {"rental_uris": {"ios": "https://dc.lft.to/lastmile_qr_scan", "android": "https://dc.lft.to/lastmile_qr_scan"}, "type": "electric_scooter", "name": "64521756d49a52e5f83030c1113ae115", "is_reserved": 0, "lon": -77.02355266666666, "is_disabled": 0, "fusion_lat": 0.0, "lat": 38.941979333333336, "bike_id": "64521756d49a52e5f83030c1113ae115", "fusion_lon": 0.0}, {"rental_uris": {"ios": "https://dc.lft.to/lastmile_qr_scan", "android": "https://dc.lft.to/lastmile_qr_scan"}, "type": "electric_scooter", "name": "fb4ae7d78da35086c21ea542dad5a4ae", "is_reserved": 0, "lon": -77.005729, "is_disabled": 0, "fusion_lat": 0.0, "lat": 38.90669316666666, "bike_id": "fb4ae7d78da35086c21ea542dad5a4ae", "fusion_lon": 0.0}, {"rental_uris": {"ios": "https://dc.lft.to/lastmile_qr_scan", "android": "https://dc.lft.to/lastmile_qr_scan"}, "type": "electric_scooter", "name": "60e64dd3b0114fff109618e1a5db0d2d", "is_reserved": 0, "lon": -76.9289275, "is_disabled": 0, "fusion_lat": 0.0, "lat": 38.87941033333333, "bike_id": "60e64dd3b0114fff109618e1a5db0d2d", "fusion_lon": 0.0}, {"rental_uris": {"ios": "https://dc.lft.to/lastmile_qr_scan", "android": "https://dc.lft.to/lastmile_qr_scan"}, "type": "electric_scooter", "name": "0c3cc84705d59b4de57c1aab4adfbba8", "is_reserved": 0, "lon": -77.000369, "is_disabled": 0, "fusion_lat": 0.0, "lat": 38.90012566666667, "bike_id": "0c3cc84705d59b4de57c1aab4adfbba8", "fusion_lon": 0.0}, {"rental_uris": {"ios": "https://dc.lft.to/lastmile_qr_scan", "android": "https://dc.lft.to/lastmile_qr_scan"}, "type": "electric_scooter", "name": "fc3dd3d41ecda4fb69ba570cb3c30d6d", "is_reserved": 0, "lon": -77.03665, "is_disabled": 0, "fusion_lat": 0.0, "lat": 38.92352533333333, "bike_id": "fc3dd3d41ecda4fb69ba570cb3c30d6d", "fusion_lon": 0.0}, {"rental_uris": {"ios": "https://dc.lft.to/lastmile_qr_scan", "android": "https://dc.lft.to/lastmile_qr_scan"}, "type": "electric_scooter", "name": "e5cebd4719b2b65d901fde69e6c8ab5d", "is_reserved": 0, "lon": -77.04029016666667, "is_disabled": 0, "fusion_lat": 0.0, "lat": 38.924447, "bike_id": "e5cebd4719b2b65d901fde69e6c8ab5d", "fusion_lon": 0.0}, {"rental_uris": {"ios": "https://dc.lft.to/lastmile_qr_scan", "android": "https://dc.lft.to/lastmile_qr_scan"}, "type": "electric_scooter", "name": "a20ec3697e2eb6186a36fbb66f281174", "is_reserved": 0, "lon": -76.98490916666667, "is_disabled": 0, "fusion_lat": 0.0, "lat": 38.903590333333334, "bike_id": "a20ec3697e2eb6186a36fbb66f281174", "fusion_lon": 0.0}, {"rental_uris": {"ios": "https://dc.lft.to/lastmile_qr_scan", "android": "https://dc.lft.to/lastmile_qr_scan"}, "type": "electric_scooter", "name": "0586a2a45c6826b55a63f2b9b0a86e8e", "is_reserved": 0, "lon": -77.01143033333334, "is_disabled": 0, "fusion_lat": 0.0, "lat": 38.906414, "bike_id": "0586a2a45c6826b55a63f2b9b0a86e8e", "fusion_lon": 0.0}, {"rental_uris": {"ios": "https://dc.lft.to/lastmile_qr_scan", "android": "https://dc.lft.to/lastmile_qr_scan"}, "type": "electric_scooter", "name": "37dd53e73c18b88902f625f627350658", "is_reserved": 0, "lon": -77.032639, "is_disabled": 0, "fusion_lat": 0.0, "lat": 38.9045515, "bike_id": "37dd53e73c18b88902f625f627350658", "fusion_lon": 0.0}, {"rental_uris": {"ios": "https://dc.lft.to/lastmile_qr_scan", "android": "https://dc.lft.to/lastmile_qr_scan"}, "type": "electric_scooter", "name": "a779207614edfe6aa3c9f8393c1638a2", "is_reserved": 0, "lon": -77.04748833333333, "is_disabled": 0, "fusion_lat": 0.0, "lat": 38.91773933333333, "bike_id": "a779207614edfe6aa3c9f8393c1638a2", "fusion_lon": 0.0}, {"rental_uris": {"ios": "https://dc.lft.to/lastmile_qr_scan", "android": "https://dc.lft.to/lastmile_qr_scan"}, "type": "electric_scooter", "name": "9751cf82e523971f77a97bdf77f2b09a", "is_reserved": 0, "lon": -77.01882933333333, "is_disabled": 0, "fusion_lat": 0.0, "lat": 38.9023495, "bike_id": "9751cf82e523971f77a97bdf77f2b09a", "fusion_lon": 0.0}, {"rental_uris": {"ios": "https://dc.lft.to/lastmile_qr_scan", "android": "https://dc.lft.to/lastmile_qr_scan"}, "type": "electric_scooter", "name": "832c671368c6f1d4c9bad29fe807275b", "is_reserved": 0, "lon": -77.06679016666666, "is_disabled": 0, "fusion_lat": 0.0, "lat": 38.90378883333333, "bike_id": "832c671368c6f1d4c9bad29fe807275b", "fusion_lon": 0.0}, {"rental_uris": {"ios": "https://dc.lft.to/lastmile_qr_scan", "android": "https://dc.lft.to/lastmile_qr_scan"}, "type": "electric_bike", "name": "38b21c13a25213f56e12e098fc4de96b", "is_reserved": 0, "lon": -76.9180525, "is_disabled": 0, "fusion_lat": 0.0, "lat": 39.0000555, "bike_id": "38b21c13a25213f56e12e098fc4de96b", "fusion_lon": 0.0}, {"rental_uris": {"ios": "https://dc.lft.to/lastmile_qr_scan", "android": "https://dc.lft.to/lastmile_qr_scan"}, "type": "electric_scooter", "name": "e21b1f4bae11c0c22f6bca290b5ca1f1", "is_reserved": 0, "lon": -77.02628733333333, "is_disabled": 0, "fusion_lat": 0.0, "lat": 38.92465933333333, "bike_id": "e21b1f4bae11c0c22f6bca290b5ca1f1", "fusion_lon": 0.0}, {"rental_uris": {"ios": "https://dc.lft.to/lastmile_qr_scan", "android": "https://dc.lft.to/lastmile_qr_scan"}, "type": "electric_scooter", "name": "cb97baf317f7f101dc59514812001099", "is_reserved": 0, "lon": -77.0005075, "is_disabled": 0, "fusion_lat": 0.0, "lat": 38.87923983333334, "bike_id": "cb97baf317f7f101dc59514812001099", "fusion_lon": 0.0}, {"rental_uris": {"ios": "https://dc.lft.to/lastmile_qr_scan", "android": "https://dc.lft.to/lastmile_qr_scan"}, "type": "electric_scooter", "name": "f8f6be33006b429582588253a971c8fe", "is_reserved": 0, "lon": -77.02712533333333, "is_disabled": 0, "fusion_lat": 0.0, "lat": 38.9176625, "bike_id": "f8f6be33006b429582588253a971c8fe", "fusion_lon": 0.0}, {"rental_uris": {"ios": "https://dc.lft.to/lastmile_qr_scan", "android": "https://dc.lft.to/lastmile_qr_scan"}, "type": "electric_scooter", "name": "2b3dd984638b25613d6a1dc83b17adaa", "is_reserved": 0, "lon": -77.04357366666666, "is_disabled": 0, "fusion_lat": 0.0, "lat": 38.922383833333335, "bike_id": "2b3dd984638b25613d6a1dc83b17adaa", "fusion_lon": 0.0}, {"rental_uris": {"ios": "https://dc.lft.to/lastmile_qr_scan", "android": "https://dc.lft.to/lastmile_qr_scan"}, "type": "electric_scooter", "name": "fcb9384b8d8d4d4deb52d97564a8cfca", "is_reserved": 0, "lon": -77.0317785, "is_disabled": 0, "fusion_lat": 0.0, "lat": 38.91335733333333, "bike_id": "fcb9384b8d8d4d4deb52d97564a8cfca", "fusion_lon": 0.0}, {"rental_uris": {"ios": "https://dc.lft.to/lastmile_qr_scan", "android": "https://dc.lft.to/lastmile_qr_scan"}, "type": "electric_scooter", "name": "097b4f56652b866b0ec5b79240729f83", "is_reserved": 0, "lon": -77.04173883333333, "is_disabled": 0, "fusion_lat": 0.0, "lat": 38.911908333333336, "bike_id": "097b4f56652b866b0ec5b79240729f83", "fusion_lon": 0.0}, {"rental_uris": {"ios": "https://dc.lft.to/lastmile_qr_scan", "android": "https://dc.lft.to/lastmile_qr_scan"}, "type": "electric_scooter", "name": "78bea4a79532fb402cc8528bc987629b", "is_reserved": 0, "lon": -77.03849933333333, "is_disabled": 0, "fusion_lat": 0.0, "lat": 38.926436, "bike_id": "78bea4a79532fb402cc8528bc987629b", "fusion_lon": 0.0}, {"rental_uris": {"ios": "https://dc.lft.to/lastmile_qr_scan", "android": "https://dc.lft.to/lastmile_qr_scan"}, "type": "electric_scooter", "name": "c90020891182bb6392d74c8253340d25", "is_reserved": 0, "lon": -77.01797983333333, "is_disabled": 0, "fusion_lat": 0.0, "lat": 38.8859775, "bike_id": "c90020891182bb6392d74c8253340d25", "fusion_lon": 0.0}, {"rental_uris": {"ios": "https://dc.lft.to/lastmile_qr_scan", "android": "https://dc.lft.to/lastmile_qr_scan"}, "type": "electric_scooter", "name": "0f148f0f92fd1dfb430f633332627ee6", "is_reserved": 0, "lon": -77.00625133333334, "is_disabled": 0, "fusion_lat": 0.0, "lat": 38.871675833333335, "bike_id": "0f148f0f92fd1dfb430f633332627ee6", "fusion_lon": 0.0}, {"rental_uris": {"ios": "https://dc.lft.to/lastmile_qr_scan", "android": "https://dc.lft.to/lastmile_qr_scan"}, "type": "electric_scooter", "name": "f7f3294ae2d1a40cd989a3e243d2aab8", "is_reserved": 0, "lon": -77.02690533333333, "is_disabled": 0, "fusion_lat": 0.0, "lat": 38.90838516666667, "bike_id": "f7f3294ae2d1a40cd989a3e243d2aab8", "fusion_lon": 0.0}, {"rental_uris": {"ios": "https://dc.lft.to/lastmile_qr_scan", "android": "https://dc.lft.to/lastmile_qr_scan"}, "type": "electric_bike", "name": "15f027844a3a9219943384f07e3617e0", "is_reserved": 0, "lon": -77.13232416666666, "is_disabled": 0, "fusion_lat": 0.0, "lat": 38.804500833333336, "bike_id": "15f027844a3a9219943384f07e3617e0", "fusion_lon": 0.0}, {"rental_uris": {"ios": "https://dc.lft.to/lastmile_qr_scan", "android": "https://dc.lft.to/lastmile_qr_scan"}, "type": "electric_bike", "name": "a46d992cc537ed12c2374315a9977c4e", "is_reserved": 0, "lon": -76.9834335, "is_disabled": 0, "fusion_lat": 0.0, "lat": 38.86265233333334, "bike_id": "a46d992cc537ed12c2374315a9977c4e", "fusion_lon": 0.0}, {"rental_uris": {"ios": "https://dc.lft.to/lastmile_qr_scan", "android": "https://dc.lft.to/lastmile_qr_scan"}, "type": "electric_bike", "name": "762a0eee5149924f7d1e67bf638976cd", "is_reserved": 0, "lon": -77.10732766666666, "is_disabled": 0, "fusion_lat": 0.0, "lat": 38.8551475, "bike_id": "762a0eee5149924f7d1e67bf638976cd", "fusion_lon": 0.0}, {"rental_uris": {"ios": "https://dc.lft.to/lastmile_qr_scan", "android": "https://dc.lft.to/lastmile_qr_scan"}, "type": "electric_scooter", "name": "0e74ab9d2e12325f35a2e9358bf42257", "is_reserved": 0, "lon": -77.02224666666666, "is_disabled": 0, "fusion_lat": 0.0, "lat": 38.920665666666665, "bike_id": "0e74ab9d2e12325f35a2e9358bf42257", "fusion_lon": 0.0}, {"rental_uris": {"ios": "https://dc.lft.to/lastmile_qr_scan", "android": "https://dc.lft.to/lastmile_qr_scan"}, "type": "electric_scooter", "name": "ee17589e2e6e815dbccaeeafa0cef0bb", "is_reserved": 0, "lon": -77.01839283333334, "is_disabled": 0, "fusion_lat": 0.0, "lat": 38.8995055, "bike_id": "ee17589e2e6e815dbccaeeafa0cef0bb", "fusion_lon": 0.0}, {"rental_uris": {"ios": "https://dc.lft.to/lastmile_qr_scan", "android": "https://dc.lft.to/lastmile_qr_scan"}, "type": "electric_scooter", "name": "e3a8efe2a66f990569d31a54fe8c55f8", "is_reserved": 0, "lon": -77.02567533333334, "is_disabled": 0, "fusion_lat": 0.0, "lat": 38.9257535, "bike_id": "e3a8efe2a66f990569d31a54fe8c55f8", "fusion_lon": 0.0}, {"rental_uris": {"ios": "https://dc.lft.to/lastmile_qr_scan", "android": "https://dc.lft.to/lastmile_qr_scan"}, "type": "electric_scooter", "name": "a26a5ae68093d7ea170e22612b9a5fe7", "is_reserved": 0, "lon": -77.03064516666667, "is_disabled": 0, "fusion_lat": 0.0, "lat": 38.926699, "bike_id": "a26a5ae68093d7ea170e22612b9a5fe7", "fusion_lon": 0.0}, {"rental_uris": {"ios": "https://dc.lft.to/lastmile_qr_scan", "android": "https://dc.lft.to/lastmile_qr_scan"}, "type": "electric_scooter", "name": "66a5d3d67b0ec685d22ce689021081d6", "is_reserved": 0, "lon": -77.042243, "is_disabled": 0, "fusion_lat": 0.0, "lat": 38.92139733333333, "bike_id": "66a5d3d67b0ec685d22ce689021081d6", "fusion_lon": 0.0}, {"rental_uris": {"ios": "https://dc.lft.to/lastmile_qr_scan", "android": "https://dc.lft.to/lastmile_qr_scan"}, "type": "electric_scooter", "name": "dc51875e0c6d5e5f6c1cf3857121bfdd", "is_reserved": 0, "lon": -77.03745066666667, "is_disabled": 0, "fusion_lat": 0.0, "lat": 38.9290375, "bike_id": "dc51875e0c6d5e5f6c1cf3857121bfdd", "fusion_lon": 0.0}, {"rental_uris": {"ios": "https://dc.lft.to/lastmile_qr_scan", "android": "https://dc.lft.to/lastmile_qr_scan"}, "type": "electric_scooter", "name": "5fa7d0fbf66fb2401f59065bd3c1fd84", "is_reserved": 0, "lon": -77.0484995, "is_disabled": 0, "fusion_lat": 0.0, "lat": 38.905471666666664, "bike_id": "5fa7d0fbf66fb2401f59065bd3c1fd84", "fusion_lon": 0.0}, {"rental_uris": {"ios": "https://dc.lft.to/lastmile_qr_scan", "android": "https://dc.lft.to/lastmile_qr_scan"}, "type": "electric_bike", "name": "be0bc5120e3ce5441a5e0b468d6d252e", "is_reserved": 0, "lon": -76.99078483333334, "is_disabled": 0, "fusion_lat": 0.0, "lat": 38.834506833333336, "bike_id": "be0bc5120e3ce5441a5e0b468d6d252e", "fusion_lon": 0.0}, {"rental_uris": {"ios": "https://dc.lft.to/lastmile_qr_scan", "android": "https://dc.lft.to/lastmile_qr_scan"}, "type": "electric_scooter", "name": "754861d83375cea86b9f1423f9663c88", "is_reserved": 0, "lon": -77.0250585, "is_disabled": 0, "fusion_lat": 0.0, "lat": 38.904166833333335, "bike_id": "754861d83375cea86b9f1423f9663c88", "fusion_lon": 0.0}, {"rental_uris": {"ios": "https://dc.lft.to/lastmile_qr_scan", "android": "https://dc.lft.to/lastmile_qr_scan"}, "type": "electric_scooter", "name": "8ad9f2c82f1a2618095da4b1ba856aa8", "is_reserved": 0, "lon": -76.98106966666667, "is_disabled": 0, "fusion_lat": 0.0, "lat": 38.90249, "bike_id": "8ad9f2c82f1a2618095da4b1ba856aa8", "fusion_lon": 0.0}, {"rental_uris": {"ios": "https://dc.lft.to/lastmile_qr_scan", "android": "https://dc.lft.to/lastmile_qr_scan"}, "type": "electric_scooter", "name": "152f85efa13a84acfa84727675613ba2", "is_reserved": 0, "lon": -76.93132533333333, "is_disabled": 0, "fusion_lat": 0.0, "lat": 38.87638583333333, "bike_id": "152f85efa13a84acfa84727675613ba2", "fusion_lon": 0.0}, {"rental_uris": {"ios": "https://dc.lft.to/lastmile_qr_scan", "android": "https://dc.lft.to/lastmile_qr_scan"}, "type": "electric_bike", "name": "f695e01e4b035d4c1e7dcb236d68b97a", "is_reserved": 0, "lon": -77.11355033333334, "is_disabled": 0, "fusion_lat": 0.0, "lat": 38.841965, "bike_id": "f695e01e4b035d4c1e7dcb236d68b97a", "fusion_lon": 0.0}, {"rental_uris": {"ios": "https://dc.lft.to/lastmile_qr_scan", "android": "https://dc.lft.to/lastmile_qr_scan"}, "type": "electric_scooter", "name": "e5594e10f35d1dcc7398f0ee24f79e22", "is_reserved": 0, "lon": -77.03220783333333, "is_disabled": 0, "fusion_lat": 0.0, "lat": 38.90728633333333, "bike_id": "e5594e10f35d1dcc7398f0ee24f79e22", "fusion_lon": 0.0}, {"rental_uris": {"ios": "https://dc.lft.to/lastmile_qr_scan", "android": "https://dc.lft.to/lastmile_qr_scan"}, "type": "electric_scooter", "name": "8aad4d1b28ec661ddec9f5a76748f9fa", "is_reserved": 0, "lon": -77.00121916666667, "is_disabled": 0, "fusion_lat": 0.0, "lat": 38.90859616666667, "bike_id": "8aad4d1b28ec661ddec9f5a76748f9fa", "fusion_lon": 0.0}, {"rental_uris": {"ios": "https://dc.lft.to/lastmile_qr_scan", "android": "https://dc.lft.to/lastmile_qr_scan"}, "type": "electric_scooter", "name": "3c3145bce0dfe785e42c53ac77371517", "is_reserved": 0, "lon": -77.00515533333333, "is_disabled": 0, "fusion_lat": 0.0, "lat": 38.879233166666666, "bike_id": "3c3145bce0dfe785e42c53ac77371517", "fusion_lon": 0.0}, {"rental_uris": {"ios": "https://dc.lft.to/lastmile_qr_scan", "android": "https://dc.lft.to/lastmile_qr_scan"}, "type": "electric_scooter", "name": "43f9993d0edece75b0651cf4b3fabf85", "is_reserved": 0, "lon": -77.032736, "is_disabled": 0, "fusion_lat": 0.0, "lat": 38.93259466666667, "bike_id": "43f9993d0edece75b0651cf4b3fabf85", "fusion_lon": 0.0}, {"rental_uris": {"ios": "https://dc.lft.to/lastmile_qr_scan", "android": "https://dc.lft.to/lastmile_qr_scan"}, "type": "electric_scooter", "name": "f028b5ca1198961ab5d982dc5e5ab624", "is_reserved": 0, "lon": -76.97370483333333, "is_disabled": 0, "fusion_lat": 0.0, "lat": 38.849918, "bike_id": "f028b5ca1198961ab5d982dc5e5ab624", "fusion_lon": 0.0}, {"rental_uris": {"ios": "https://dc.lft.to/lastmile_qr_scan", "android": "https://dc.lft.to/lastmile_qr_scan"}, "type": "electric_scooter", "name": "a948a80a49230f27b88ac177ff18712c", "is_reserved": 0, "lon": -77.044857, "is_disabled": 0, "fusion_lat": 0.0, "lat": 38.907924333333334, "bike_id": "a948a80a49230f27b88ac177ff18712c", "fusion_lon": 0.0}, {"rental_uris": {"ios": "https://dc.lft.to/lastmile_qr_scan", "android": "https://dc.lft.to/lastmile_qr_scan"}, "type": "electric_scooter", "name": "92774c065e04447278e66e3a0acf054c", "is_reserved": 0, "lon": -77.03638516666666, "is_disabled": 0, "fusion_lat": 0.0, "lat": 38.91826283333333, "bike_id": "92774c065e04447278e66e3a0acf054c", "fusion_lon": 0.0}, {"rental_uris": {"ios": "https://dc.lft.to/lastmile_qr_scan", "android": "https://dc.lft.to/lastmile_qr_scan"}, "type": "electric_bike", "name": "28dff1600a491a571936f920591920f1", "is_reserved": 0, "lon": -77.04292333333333, "is_disabled": 0, "fusion_lat": 0.0, "lat": 39.0342155, "bike_id": "28dff1600a491a571936f920591920f1", "fusion_lon": 0.0}, {"rental_uris": {"ios": "https://dc.lft.to/lastmile_qr_scan", "android": "https://dc.lft.to/lastmile_qr_scan"}, "type": "electric_scooter", "name": "ab3cbb6671dbdab6d8ede3067bc2a05a", "is_reserved": 0, "lon": -77.01019616666666, "is_disabled": 0, "fusion_lat": 0.0, "lat": 38.906453666666664, "bike_id": "ab3cbb6671dbdab6d8ede3067bc2a05a", "fusion_lon": 0.0}, {"rental_uris": {"ios": "https://dc.lft.to/lastmile_qr_scan", "android": "https://dc.lft.to/lastmile_qr_scan"}, "type": "electric_scooter", "name": "97424ecef5e9033b15179c5b2a2a2d09", "is_reserved": 0, "lon": -77.07448966666666, "is_disabled": 0, "fusion_lat": 0.0, "lat": 38.93779583333333, "bike_id": "97424ecef5e9033b15179c5b2a2a2d09", "fusion_lon": 0.0}, {"rental_uris": {"ios": "https://dc.lft.to/lastmile_qr_scan", "android": "https://dc.lft.to/lastmile_qr_scan"}, "type": "electric_scooter", "name": "0e3e75d5ad563b2c95a352e64ef48a57", "is_reserved": 0, "lon": -77.00206633333333, "is_disabled": 0, "fusion_lat": 0.0, "lat": 38.914584, "bike_id": "0e3e75d5ad563b2c95a352e64ef48a57", "fusion_lon": 0.0}, {"rental_uris": {"ios": "https://dc.lft.to/lastmile_qr_scan", "android": "https://dc.lft.to/lastmile_qr_scan"}, "type": "electric_scooter", "name": "7d569924a0ab252f4dfdbcfd60a6ec97", "is_reserved": 0, "lon": -77.017724, "is_disabled": 0, "fusion_lat": 0.0, "lat": 38.900334666666666, "bike_id": "7d569924a0ab252f4dfdbcfd60a6ec97", "fusion_lon": 0.0}, {"rental_uris": {"ios": "https://dc.lft.to/lastmile_qr_scan", "android": "https://dc.lft.to/lastmile_qr_scan"}, "type": "electric_scooter", "name": "d611136a1f998a9bca0a6ab333dc4cb0", "is_reserved": 0, "lon": -76.993477, "is_disabled": 0, "fusion_lat": 0.0, "lat": 38.87690083333333, "bike_id": "d611136a1f998a9bca0a6ab333dc4cb0", "fusion_lon": 0.0}, {"rental_uris": {"ios": "https://dc.lft.to/lastmile_qr_scan", "android": "https://dc.lft.to/lastmile_qr_scan"}, "type": "electric_scooter", "name": "83d0fd1e2c94bc3b20a1d740741e57ae", "is_reserved": 0, "lon": -76.934311, "is_disabled": 0, "fusion_lat": 0.0, "lat": 38.89347183333334, "bike_id": "83d0fd1e2c94bc3b20a1d740741e57ae", "fusion_lon": 0.0}, {"rental_uris": {"ios": "https://dc.lft.to/lastmile_qr_scan", "android": "https://dc.lft.to/lastmile_qr_scan"}, "type": "electric_scooter", "name": "f09da26e76ecee2eadb351271abc68eb", "is_reserved": 0, "lon": -77.02832383333333, "is_disabled": 0, "fusion_lat": 0.0, "lat": 38.91018966666667, "bike_id": "f09da26e76ecee2eadb351271abc68eb", "fusion_lon": 0.0}, {"rental_uris": {"ios": "https://dc.lft.to/lastmile_qr_scan", "android": "https://dc.lft.to/lastmile_qr_scan"}, "type": "electric_scooter", "name": "acdb6ec5b5f9aaf38a7aee73fe99dba5", "is_reserved": 0, "lon": -77.033677, "is_disabled": 0, "fusion_lat": 0.0, "lat": 38.899146, "bike_id": "acdb6ec5b5f9aaf38a7aee73fe99dba5", "fusion_lon": 0.0}, {"rental_uris": {"ios": "https://dc.lft.to/lastmile_qr_scan", "android": "https://dc.lft.to/lastmile_qr_scan"}, "type": "electric_bike", "name": "3085b39843e2ee064837d37309d0c297", "is_reserved": 0, "lon": -77.01223766666666, "is_disabled": 0, "fusion_lat": 0.0, "lat": 38.950742166666664, "bike_id": "3085b39843e2ee064837d37309d0c297", "fusion_lon": 0.0}, {"rental_uris": {"ios": "https://dc.lft.to/lastmile_qr_scan", "android": "https://dc.lft.to/lastmile_qr_scan"}, "type": "electric_scooter", "name": "dbf3412a3efb30810e36bb5c5f7da2e0", "is_reserved": 0, "lon": -77.02302233333333, "is_disabled": 0, "fusion_lat": 0.0, "lat": 38.918412833333335, "bike_id": "dbf3412a3efb30810e36bb5c5f7da2e0", "fusion_lon": 0.0}, {"rental_uris": {"ios": "https://dc.lft.to/lastmile_qr_scan", "android": "https://dc.lft.to/lastmile_qr_scan"}, "type": "electric_scooter", "name": "07b97a28b375b8a9cbd2357c3e296257", "is_reserved": 0, "lon": -77.03296333333333, "is_disabled": 0, "fusion_lat": 0.0, "lat": 38.90720483333333, "bike_id": "07b97a28b375b8a9cbd2357c3e296257", "fusion_lon": 0.0}, {"rental_uris": {"ios": "https://dc.lft.to/lastmile_qr_scan", "android": "https://dc.lft.to/lastmile_qr_scan"}, "type": "electric_scooter", "name": "1d6ef9afad91c93c0bc20450c93c18e8", "is_reserved": 0, "lon": -77.01195666666666, "is_disabled": 0, "fusion_lat": 0.0, "lat": 38.90025266666667, "bike_id": "1d6ef9afad91c93c0bc20450c93c18e8", "fusion_lon": 0.0}, {"rental_uris": {"ios": "https://dc.lft.to/lastmile_qr_scan", "android": "https://dc.lft.to/lastmile_qr_scan"}, "type": "electric_bike", "name": "62a5ce5cbd24c1d021231f2acf1b0870", "is_reserved": 0, "lon": -76.99674733333333, "is_disabled": 0, "fusion_lat": 0.0, "lat": 38.8381315, "bike_id": "62a5ce5cbd24c1d021231f2acf1b0870", "fusion_lon": 0.0}, {"rental_uris": {"ios": "https://dc.lft.to/lastmile_qr_scan", "android": "https://dc.lft.to/lastmile_qr_scan"}, "type": "electric_scooter", "name": "1b28cf93aacbac919f9a73bd79c312e4", "is_reserved": 0, "lon": -77.034735, "is_disabled": 0, "fusion_lat": 0.0, "lat": 38.92156933333333, "bike_id": "1b28cf93aacbac919f9a73bd79c312e4", "fusion_lon": 0.0}, {"rental_uris": {"ios": "https://dc.lft.to/lastmile_qr_scan", "android": "https://dc.lft.to/lastmile_qr_scan"}, "type": "electric_scooter", "name": "1ee95512252de79a20a0e4d865d3431c", "is_reserved": 0, "lon": -77.0416545, "is_disabled": 0, "fusion_lat": 0.0, "lat": 38.90371283333333, "bike_id": "1ee95512252de79a20a0e4d865d3431c", "fusion_lon": 0.0}, {"rental_uris": {"ios": "https://dc.lft.to/lastmile_qr_scan", "android": "https://dc.lft.to/lastmile_qr_scan"}, "type": "electric_scooter", "name": "63f733f9693b361b49e8cb26a131276b", "is_reserved": 0, "lon": -77.03857483333333, "is_disabled": 0, "fusion_lat": 0.0, "lat": 38.917130666666665, "bike_id": "63f733f9693b361b49e8cb26a131276b", "fusion_lon": 0.0}, {"rental_uris": {"ios": "https://dc.lft.to/lastmile_qr_scan", "android": "https://dc.lft.to/lastmile_qr_scan"}, "type": "electric_scooter", "name": "c3a9863baa1913a16bfce9df1697c2b8", "is_reserved": 0, "lon": -77.02132516666667, "is_disabled": 0, "fusion_lat": 0.0, "lat": 38.92798783333333, "bike_id": "c3a9863baa1913a16bfce9df1697c2b8", "fusion_lon": 0.0}, {"rental_uris": {"ios": "https://dc.lft.to/lastmile_qr_scan", "android": "https://dc.lft.to/lastmile_qr_scan"}, "type": "electric_scooter", "name": "ff7ade8fca51a200342d20e18e2ef445", "is_reserved": 0, "lon": -77.0235645, "is_disabled": 0, "fusion_lat": 0.0, "lat": 38.92058333333333, "bike_id": "ff7ade8fca51a200342d20e18e2ef445", "fusion_lon": 0.0}, {"rental_uris": {"ios": "https://dc.lft.to/lastmile_qr_scan", "android": "https://dc.lft.to/lastmile_qr_scan"}, "type": "electric_scooter", "name": "98c77214b12dd3fe538d1d8a2062bc71", "is_reserved": 0, "lon": -77.0685695, "is_disabled": 0, "fusion_lat": 0.0, "lat": 38.904170666666666, "bike_id": "98c77214b12dd3fe538d1d8a2062bc71", "fusion_lon": 0.0}, {"rental_uris": {"ios": "https://dc.lft.to/lastmile_qr_scan", "android": "https://dc.lft.to/lastmile_qr_scan"}, "type": "electric_scooter", "name": "a171ffed6bbd3a4f1744bff8da2922cc", "is_reserved": 0, "lon": -77.01758266666667, "is_disabled": 0, "fusion_lat": 0.0, "lat": 38.876841166666665, "bike_id": "a171ffed6bbd3a4f1744bff8da2922cc", "fusion_lon": 0.0}, {"rental_uris": {"ios": "https://dc.lft.to/lastmile_qr_scan", "android": "https://dc.lft.to/lastmile_qr_scan"}, "type": "electric_scooter", "name": "01755ad30d835af401a3d658de8e1e16", "is_reserved": 0, "lon": -77.0240255, "is_disabled": 0, "fusion_lat": 0.0, "lat": 38.93382966666667, "bike_id": "01755ad30d835af401a3d658de8e1e16", "fusion_lon": 0.0}, {"rental_uris": {"ios": "https://dc.lft.to/lastmile_qr_scan", "android": "https://dc.lft.to/lastmile_qr_scan"}, "type": "electric_scooter", "name": "8f6ffa28544b1df1177046329f084f58", "is_reserved": 0, "lon": -77.02434966666667, "is_disabled": 0, "fusion_lat": 0.0, "lat": 38.937348166666666, "bike_id": "8f6ffa28544b1df1177046329f084f58", "fusion_lon": 0.0}, {"rental_uris": {"ios": "https://dc.lft.to/lastmile_qr_scan", "android": "https://dc.lft.to/lastmile_qr_scan"}, "type": "electric_scooter", "name": "51faadddcb7de1f39ec46fa716c2a735", "is_reserved": 0, "lon": -77.03849916666667, "is_disabled": 0, "fusion_lat": 0.0, "lat": 38.911734833333334, "bike_id": "51faadddcb7de1f39ec46fa716c2a735", "fusion_lon": 0.0}, {"rental_uris": {"ios": "https://dc.lft.to/lastmile_qr_scan", "android": "https://dc.lft.to/lastmile_qr_scan"}, "type": "electric_scooter", "name": "681b26e918e92aa47f483a904438e007", "is_reserved": 0, "lon": -77.0129045, "is_disabled": 0, "fusion_lat": 0.0, "lat": 38.90179783333333, "bike_id": "681b26e918e92aa47f483a904438e007", "fusion_lon": 0.0}, {"rental_uris": {"ios": "https://dc.lft.to/lastmile_qr_scan", "android": "https://dc.lft.to/lastmile_qr_scan"}, "type": "electric_scooter", "name": "252f62abe6e945fac3d13c2da388e55c", "is_reserved": 0, "lon": -77.03023433333334, "is_disabled": 0, "fusion_lat": 0.0, "lat": 38.9266875, "bike_id": "252f62abe6e945fac3d13c2da388e55c", "fusion_lon": 0.0}, {"rental_uris": {"ios": "https://dc.lft.to/lastmile_qr_scan", "android": "https://dc.lft.to/lastmile_qr_scan"}, "type": "electric_scooter", "name": "0378ab0f8fd4b96c4138242d22911e8e", "is_reserved": 0, "lon": -76.99903083333334, "is_disabled": 0, "fusion_lat": 0.0, "lat": 38.937485833333334, "bike_id": "0378ab0f8fd4b96c4138242d22911e8e", "fusion_lon": 0.0}, {"rental_uris": {"ios": "https://dc.lft.to/lastmile_qr_scan", "android": "https://dc.lft.to/lastmile_qr_scan"}, "type": "electric_bike", "name": "6af3e46bde83cfc255b4ebf51453caec", "is_reserved": 0, "lon": -76.98690766666667, "is_disabled": 0, "fusion_lat": 0.0, "lat": 38.94474683333333, "bike_id": "6af3e46bde83cfc255b4ebf51453caec", "fusion_lon": 0.0}, {"rental_uris": {"ios": "https://dc.lft.to/lastmile_qr_scan", "android": "https://dc.lft.to/lastmile_qr_scan"}, "type": "electric_scooter", "name": "caefd4b1ddafae78408410f710be1f5e", "is_reserved": 0, "lon": -76.9835555, "is_disabled": 0, "fusion_lat": 0.0, "lat": 38.887437166666665, "bike_id": "caefd4b1ddafae78408410f710be1f5e", "fusion_lon": 0.0}, {"rental_uris": {"ios": "https://dc.lft.to/lastmile_qr_scan", "android": "https://dc.lft.to/lastmile_qr_scan"}, "type": "electric_scooter", "name": "ab6af8ff86c2d668b908086b8f0216be", "is_reserved": 0, "lon": -77.04503116666666, "is_disabled": 0, "fusion_lat": 0.0, "lat": 38.89728, "bike_id": "ab6af8ff86c2d668b908086b8f0216be", "fusion_lon": 0.0}, {"rental_uris": {"ios": "https://dc.lft.to/lastmile_qr_scan", "android": "https://dc.lft.to/lastmile_qr_scan"}, "type": "electric_scooter", "name": "18aa0e41a7557ac3f1ebd5760888819c", "is_reserved": 0, "lon": -77.01697166666666, "is_disabled": 0, "fusion_lat": 0.0, "lat": 38.904694166666665, "bike_id": "18aa0e41a7557ac3f1ebd5760888819c", "fusion_lon": 0.0}, {"rental_uris": {"ios": "https://dc.lft.to/lastmile_qr_scan", "android": "https://dc.lft.to/lastmile_qr_scan"}, "type": "electric_scooter", "name": "80bbf3928edf3d04e1186a03da73e020", "is_reserved": 0, "lon": -77.01768233333334, "is_disabled": 0, "fusion_lat": 0.0, "lat": 38.8862465, "bike_id": "80bbf3928edf3d04e1186a03da73e020", "fusion_lon": 0.0}, {"rental_uris": {"ios": "https://dc.lft.to/lastmile_qr_scan", "android": "https://dc.lft.to/lastmile_qr_scan"}, "type": "electric_scooter", "name": "2016b32a73134120c9a61875f41b170f", "is_reserved": 0, "lon": -77.02595633333334, "is_disabled": 0, "fusion_lat": 0.0, "lat": 38.91400866666667, "bike_id": "2016b32a73134120c9a61875f41b170f", "fusion_lon": 0.0}, {"rental_uris": {"ios": "https://dc.lft.to/lastmile_qr_scan", "android": "https://dc.lft.to/lastmile_qr_scan"}, "type": "electric_bike", "name": "588e8bdeaec149941bd095b90c004410", "is_reserved": 0, "lon": -76.98823416666667, "is_disabled": 0, "fusion_lat": 0.0, "lat": 38.842744, "bike_id": "588e8bdeaec149941bd095b90c004410", "fusion_lon": 0.0}, {"rental_uris": {"ios": "https://dc.lft.to/lastmile_qr_scan", "android": "https://dc.lft.to/lastmile_qr_scan"}, "type": "electric_scooter", "name": "6bcc8406b5cdcfb6b11ae2a920f37d9c", "is_reserved": 0, "lon": -76.98338183333334, "is_disabled": 0, "fusion_lat": 0.0, "lat": 38.90089066666667, "bike_id": "6bcc8406b5cdcfb6b11ae2a920f37d9c", "fusion_lon": 0.0}, {"rental_uris": {"ios": "https://dc.lft.to/lastmile_qr_scan", "android": "https://dc.lft.to/lastmile_qr_scan"}, "type": "electric_scooter", "name": "4a2186114703b1d2fee367f2ca541c68", "is_reserved": 0, "lon": -77.03823433333334, "is_disabled": 0, "fusion_lat": 0.0, "lat": 38.914897333333336, "bike_id": "4a2186114703b1d2fee367f2ca541c68", "fusion_lon": 0.0}, {"rental_uris": {"ios": "https://dc.lft.to/lastmile_qr_scan", "android": "https://dc.lft.to/lastmile_qr_scan"}, "type": "electric_scooter", "name": "4c80c6abaeb5431bbddec5b0898e62e9", "is_reserved": 0, "lon": -77.04632983333333, "is_disabled": 0, "fusion_lat": 0.0, "lat": 38.89724916666667, "bike_id": "4c80c6abaeb5431bbddec5b0898e62e9", "fusion_lon": 0.0}, {"rental_uris": {"ios": "https://dc.lft.to/lastmile_qr_scan", "android": "https://dc.lft.to/lastmile_qr_scan"}, "type": "electric_scooter", "name": "b2e1ea10be084cc1dad3fa264996d376", "is_reserved": 0, "lon": -77.02809783333333, "is_disabled": 0, "fusion_lat": 0.0, "lat": 38.899495333333334, "bike_id": "b2e1ea10be084cc1dad3fa264996d376", "fusion_lon": 0.0}, {"rental_uris": {"ios": "https://dc.lft.to/lastmile_qr_scan", "android": "https://dc.lft.to/lastmile_qr_scan"}, "type": "electric_scooter", "name": "1e5d81b5ba6df6ef2806b82591b815bd", "is_reserved": 0, "lon": -77.0230335, "is_disabled": 0, "fusion_lat": 0.0, "lat": 38.918415, "bike_id": "1e5d81b5ba6df6ef2806b82591b815bd", "fusion_lon": 0.0}, {"rental_uris": {"ios": "https://dc.lft.to/lastmile_qr_scan", "android": "https://dc.lft.to/lastmile_qr_scan"}, "type": "electric_scooter", "name": "52eb47292f8556aab4e75f8cc0e4697b", "is_reserved": 0, "lon": -77.028166, "is_disabled": 0, "fusion_lat": 0.0, "lat": 38.923725, "bike_id": "52eb47292f8556aab4e75f8cc0e4697b", "fusion_lon": 0.0}, {"rental_uris": {"ios": "https://dc.lft.to/lastmile_qr_scan", "android": "https://dc.lft.to/lastmile_qr_scan"}, "type": "electric_bike", "name": "3e973f71c2d233a379639e7b1123b332", "is_reserved": 0, "lon": -76.97618783333333, "is_disabled": 0, "fusion_lat": 0.0, "lat": 38.89289383333333, "bike_id": "3e973f71c2d233a379639e7b1123b332", "fusion_lon": 0.0}, {"rental_uris": {"ios": "https://dc.lft.to/lastmile_qr_scan", "android": "https://dc.lft.to/lastmile_qr_scan"}, "type": "electric_scooter", "name": "44719981b984d85609e7afff00c016a2", "is_reserved": 0, "lon": -77.0362245, "is_disabled": 0, "fusion_lat": 0.0, "lat": 38.92657066666666, "bike_id": "44719981b984d85609e7afff00c016a2", "fusion_lon": 0.0}, {"rental_uris": {"ios": "https://dc.lft.to/lastmile_qr_scan", "android": "https://dc.lft.to/lastmile_qr_scan"}, "type": "electric_scooter", "name": "128168d17339073d7b2415b1e453507d", "is_reserved": 0, "lon": -77.019183, "is_disabled": 0, "fusion_lat": 0.0, "lat": 38.905574666666666, "bike_id": "128168d17339073d7b2415b1e453507d", "fusion_lon": 0.0}, {"rental_uris": {"ios": "https://dc.lft.to/lastmile_qr_scan", "android": "https://dc.lft.to/lastmile_qr_scan"}, "type": "electric_bike", "name": "07c297d09a084c162e7c96584336d60f", "is_reserved": 0, "lon": -77.221931, "is_disabled": 0, "fusion_lat": 0.0, "lat": 38.87174733333333, "bike_id": "07c297d09a084c162e7c96584336d60f", "fusion_lon": 0.0}, {"rental_uris": {"ios": "https://dc.lft.to/lastmile_qr_scan", "android": "https://dc.lft.to/lastmile_qr_scan"}, "type": "electric_scooter", "name": "4cfbcab96c5ea9f6cbbe093f7f0357ad", "is_reserved": 0, "lon": -77.00694183333333, "is_disabled": 0, "fusion_lat": 0.0, "lat": 38.905379333333336, "bike_id": "4cfbcab96c5ea9f6cbbe093f7f0357ad", "fusion_lon": 0.0}, {"rental_uris": {"ios": "https://dc.lft.to/lastmile_qr_scan", "android": "https://dc.lft.to/lastmile_qr_scan"}, "type": "electric_scooter", "name": "115cb10286069397d3d49470ba024123", "is_reserved": 0, "lon": -77.04173933333334, "is_disabled": 0, "fusion_lat": 0.0, "lat": 38.91831916666667, "bike_id": "115cb10286069397d3d49470ba024123", "fusion_lon": 0.0}, {"rental_uris": {"ios": "https://dc.lft.to/lastmile_qr_scan", "android": "https://dc.lft.to/lastmile_qr_scan"}, "type": "electric_scooter", "name": "23dc2b2500180e60b30141bb64001b72", "is_reserved": 0, "lon": -77.02558116666667, "is_disabled": 0, "fusion_lat": 0.0, "lat": 38.92031866666667, "bike_id": "23dc2b2500180e60b30141bb64001b72", "fusion_lon": 0.0}, {"rental_uris": {"ios": "https://dc.lft.to/lastmile_qr_scan", "android": "https://dc.lft.to/lastmile_qr_scan"}, "type": "electric_scooter", "name": "fc5ccae3862ca975fe83184d2d1dfd0e", "is_reserved": 0, "lon": -77.00931216666666, "is_disabled": 0, "fusion_lat": 0.0, "lat": 38.87118666666667, "bike_id": "fc5ccae3862ca975fe83184d2d1dfd0e", "fusion_lon": 0.0}, {"rental_uris": {"ios": "https://dc.lft.to/lastmile_qr_scan", "android": "https://dc.lft.to/lastmile_qr_scan"}, "type": "electric_scooter", "name": "ad5badc9ebcf66450c1f95177b14e515", "is_reserved": 0, "lon": -77.0025405, "is_disabled": 0, "fusion_lat": 0.0, "lat": 38.912542, "bike_id": "ad5badc9ebcf66450c1f95177b14e515", "fusion_lon": 0.0}, {"rental_uris": {"ios": "https://dc.lft.to/lastmile_qr_scan", "android": "https://dc.lft.to/lastmile_qr_scan"}, "type": "electric_scooter", "name": "aed57f01627e565e1d36cac389afadbc", "is_reserved": 0, "lon": -77.01874283333333, "is_disabled": 0, "fusion_lat": 0.0, "lat": 38.877111, "bike_id": "aed57f01627e565e1d36cac389afadbc", "fusion_lon": 0.0}, {"rental_uris": {"ios": "https://dc.lft.to/lastmile_qr_scan", "android": "https://dc.lft.to/lastmile_qr_scan"}, "type": "electric_scooter", "name": "9538d25c28bd8698ee9026b3bd034628", "is_reserved": 0, "lon": -77.02108616666666, "is_disabled": 0, "fusion_lat": 0.0, "lat": 38.9271645, "bike_id": "9538d25c28bd8698ee9026b3bd034628", "fusion_lon": 0.0}, {"rental_uris": {"ios": "https://dc.lft.to/lastmile_qr_scan", "android": "https://dc.lft.to/lastmile_qr_scan"}, "type": "electric_bike", "name": "7334b8bd3194382f62bd7a860eddad2e", "is_reserved": 0, "lon": -77.03881833333334, "is_disabled": 0, "fusion_lat": 0.0, "lat": 39.0263605, "bike_id": "7334b8bd3194382f62bd7a860eddad2e", "fusion_lon": 0.0}, {"rental_uris": {"ios": "https://dc.lft.to/lastmile_qr_scan", "android": "https://dc.lft.to/lastmile_qr_scan"}, "type": "electric_bike", "name": "bdaff0581d7d92640f5e97ab895dd266", "is_reserved": 0, "lon": -77.096213, "is_disabled": 0, "fusion_lat": 0.0, "lat": 38.95246866666667, "bike_id": "bdaff0581d7d92640f5e97ab895dd266", "fusion_lon": 0.0}, {"rental_uris": {"ios": "https://dc.lft.to/lastmile_qr_scan", "android": "https://dc.lft.to/lastmile_qr_scan"}, "type": "electric_scooter", "name": "827562064116e5891d9ea1d5e772befe", "is_reserved": 0, "lon": -77.0606065, "is_disabled": 0, "fusion_lat": 0.0, "lat": 38.88607316666667, "bike_id": "827562064116e5891d9ea1d5e772befe", "fusion_lon": 0.0}, {"rental_uris": {"ios": "https://dc.lft.to/lastmile_qr_scan", "android": "https://dc.lft.to/lastmile_qr_scan"}, "type": "electric_bike", "name": "caf8ed1a8083ffa6cea67b12573b4324", "is_reserved": 0, "lon": -77.12740716666667, "is_disabled": 0, "fusion_lat": 0.0, "lat": 38.895656833333334, "bike_id": "caf8ed1a8083ffa6cea67b12573b4324", "fusion_lon": 0.0}, {"rental_uris": {"ios": "https://dc.lft.to/lastmile_qr_scan", "android": "https://dc.lft.to/lastmile_qr_scan"}, "type": "electric_scooter", "name": "e164bf212a7a2b4e2d61f9e35d5fb618", "is_reserved": 0, "lon": -77.0295655, "is_disabled": 0, "fusion_lat": 0.0, "lat": 38.916952333333334, "bike_id": "e164bf212a7a2b4e2d61f9e35d5fb618", "fusion_lon": 0.0}, {"rental_uris": {"ios": "https://dc.lft.to/lastmile_qr_scan", "android": "https://dc.lft.to/lastmile_qr_scan"}, "type": "electric_scooter", "name": "064bfb25d6ad157fd2558786f525ba21", "is_reserved": 0, "lon": -77.02688933333333, "is_disabled": 0, "fusion_lat": 0.0, "lat": 38.972415833333336, "bike_id": "064bfb25d6ad157fd2558786f525ba21", "fusion_lon": 0.0}, {"rental_uris": {"ios": "https://dc.lft.to/lastmile_qr_scan", "android": "https://dc.lft.to/lastmile_qr_scan"}, "type": "electric_scooter", "name": "b45184e899ba9286635f84950a7aa6a8", "is_reserved": 0, "lon": -77.02266683333333, "is_disabled": 0, "fusion_lat": 0.0, "lat": 38.918320333333334, "bike_id": "b45184e899ba9286635f84950a7aa6a8", "fusion_lon": 0.0}, {"rental_uris": {"ios": "https://dc.lft.to/lastmile_qr_scan", "android": "https://dc.lft.to/lastmile_qr_scan"}, "type": "electric_scooter", "name": "033b37b1c41c090cc7965e45a35faa3a", "is_reserved": 0, "lon": -77.03836866666667, "is_disabled": 0, "fusion_lat": 0.0, "lat": 38.909795833333334, "bike_id": "033b37b1c41c090cc7965e45a35faa3a", "fusion_lon": 0.0}, {"rental_uris": {"ios": "https://dc.lft.to/lastmile_qr_scan", "android": "https://dc.lft.to/lastmile_qr_scan"}, "type": "electric_scooter", "name": "8089fbfb514580850a9bacd265733c5a", "is_reserved": 0, "lon": -77.030518, "is_disabled": 0, "fusion_lat": 0.0, "lat": 38.89727416666667, "bike_id": "8089fbfb514580850a9bacd265733c5a", "fusion_lon": 0.0}, {"rental_uris": {"ios": "https://dc.lft.to/lastmile_qr_scan", "android": "https://dc.lft.to/lastmile_qr_scan"}, "type": "electric_scooter", "name": "050d813c787d74aa77cb8dd454f41041", "is_reserved": 0, "lon": -77.04437316666667, "is_disabled": 0, "fusion_lat": 0.0, "lat": 38.91267366666667, "bike_id": "050d813c787d74aa77cb8dd454f41041", "fusion_lon": 0.0}, {"rental_uris": {"ios": "https://dc.lft.to/lastmile_qr_scan", "android": "https://dc.lft.to/lastmile_qr_scan"}, "type": "electric_scooter", "name": "83dff341a8b912e166ffad3e5af225cd", "is_reserved": 0, "lon": -76.98280016666666, "is_disabled": 0, "fusion_lat": 0.0, "lat": 38.9034025, "bike_id": "83dff341a8b912e166ffad3e5af225cd", "fusion_lon": 0.0}, {"rental_uris": {"ios": "https://dc.lft.to/lastmile_qr_scan", "android": "https://dc.lft.to/lastmile_qr_scan"}, "type": "electric_scooter", "name": "911d077c70645a6fa9e13d1d517ac6a9", "is_reserved": 0, "lon": -77.00197716666666, "is_disabled": 0, "fusion_lat": 0.0, "lat": 38.90035616666667, "bike_id": "911d077c70645a6fa9e13d1d517ac6a9", "fusion_lon": 0.0}, {"rental_uris": {"ios": "https://dc.lft.to/lastmile_qr_scan", "android": "https://dc.lft.to/lastmile_qr_scan"}, "type": "electric_scooter", "name": "0c9658442606cd3cba2784088653280d", "is_reserved": 0, "lon": -77.03082383333333, "is_disabled": 0, "fusion_lat": 0.0, "lat": 38.92379416666667, "bike_id": "0c9658442606cd3cba2784088653280d", "fusion_lon": 0.0}, {"rental_uris": {"ios": "https://dc.lft.to/lastmile_qr_scan", "android": "https://dc.lft.to/lastmile_qr_scan"}, "type": "electric_scooter", "name": "4f293dd8f5ed86198e3cdc57a625b5b9", "is_reserved": 0, "lon": -77.02923266666667, "is_disabled": 0, "fusion_lat": 0.0, "lat": 38.897554, "bike_id": "4f293dd8f5ed86198e3cdc57a625b5b9", "fusion_lon": 0.0}, {"rental_uris": {"ios": "https://dc.lft.to/lastmile_qr_scan", "android": "https://dc.lft.to/lastmile_qr_scan"}, "type": "electric_scooter", "name": "98a2913b8311d1ca51a4152899fd8cd2", "is_reserved": 0, "lon": -77.0610055, "is_disabled": 0, "fusion_lat": 0.0, "lat": 38.93703933333333, "bike_id": "98a2913b8311d1ca51a4152899fd8cd2", "fusion_lon": 0.0}, {"rental_uris": {"ios": "https://dc.lft.to/lastmile_qr_scan", "android": "https://dc.lft.to/lastmile_qr_scan"}, "type": "electric_scooter", "name": "5a1fa6e28013672eb915963ccf5369e5", "is_reserved": 0, "lon": -77.0244435, "is_disabled": 0, "fusion_lat": 0.0, "lat": 38.956394833333334, "bike_id": "5a1fa6e28013672eb915963ccf5369e5", "fusion_lon": 0.0}, {"rental_uris": {"ios": "https://dc.lft.to/lastmile_qr_scan", "android": "https://dc.lft.to/lastmile_qr_scan"}, "type": "electric_scooter", "name": "d36d883016dd55ed28e9f68391f3b926", "is_reserved": 0, "lon": -77.0728945, "is_disabled": 0, "fusion_lat": 0.0, "lat": 38.91438316666667, "bike_id": "d36d883016dd55ed28e9f68391f3b926", "fusion_lon": 0.0}, {"rental_uris": {"ios": "https://dc.lft.to/lastmile_qr_scan", "android": "https://dc.lft.to/lastmile_qr_scan"}, "type": "electric_scooter", "name": "2333f1a3f2508f57306dc189645bf453", "is_reserved": 0, "lon": -77.03651766666667, "is_disabled": 0, "fusion_lat": 0.0, "lat": 38.95460716666667, "bike_id": "2333f1a3f2508f57306dc189645bf453", "fusion_lon": 0.0}, {"rental_uris": {"ios": "https://dc.lft.to/lastmile_qr_scan", "android": "https://dc.lft.to/lastmile_qr_scan"}, "type": "electric_scooter", "name": "bdc6c598a599843cb1d07a69cc2a0625", "is_reserved": 0, "lon": -77.07088383333334, "is_disabled": 0, "fusion_lat": 0.0, "lat": 38.95324033333333, "bike_id": "bdc6c598a599843cb1d07a69cc2a0625", "fusion_lon": 0.0}, {"rental_uris": {"ios": "https://dc.lft.to/lastmile_qr_scan", "android": "https://dc.lft.to/lastmile_qr_scan"}, "type": "electric_scooter", "name": "8d2be9d2a53f092b50370ff97e84b536", "is_reserved": 0, "lon": -77.04676066666667, "is_disabled": 0, "fusion_lat": 0.0, "lat": 38.892258166666664, "bike_id": "8d2be9d2a53f092b50370ff97e84b536", "fusion_lon": 0.0}, {"rental_uris": {"ios": "https://dc.lft.to/lastmile_qr_scan", "android": "https://dc.lft.to/lastmile_qr_scan"}, "type": "electric_scooter", "name": "970c50acd5168604df54e4582b340495", "is_reserved": 0, "lon": -77.01988916666667, "is_disabled": 0, "fusion_lat": 0.0, "lat": 38.876061666666665, "bike_id": "970c50acd5168604df54e4582b340495", "fusion_lon": 0.0}, {"rental_uris": {"ios": "https://dc.lft.to/lastmile_qr_scan", "android": "https://dc.lft.to/lastmile_qr_scan"}, "type": "electric_scooter", "name": "14a213084a3c4f145be09b469b7a9072", "is_reserved": 0, "lon": -77.0419525, "is_disabled": 0, "fusion_lat": 0.0, "lat": 38.922063, "bike_id": "14a213084a3c4f145be09b469b7a9072", "fusion_lon": 0.0}, {"rental_uris": {"ios": "https://dc.lft.to/lastmile_qr_scan", "android": "https://dc.lft.to/lastmile_qr_scan"}, "type": "electric_scooter", "name": "d86d97f4a04093cb4df18e7ce180df47", "is_reserved": 0, "lon": -76.99557666666666, "is_disabled": 0, "fusion_lat": 0.0, "lat": 38.926837166666665, "bike_id": "d86d97f4a04093cb4df18e7ce180df47", "fusion_lon": 0.0}, {"rental_uris": {"ios": "https://dc.lft.to/lastmile_qr_scan", "android": "https://dc.lft.to/lastmile_qr_scan"}, "type": "electric_scooter", "name": "609ba38f07f0b774892735a140bac027", "is_reserved": 0, "lon": -77.0530925, "is_disabled": 0, "fusion_lat": 0.0, "lat": 38.90251933333333, "bike_id": "609ba38f07f0b774892735a140bac027", "fusion_lon": 0.0}, {"rental_uris": {"ios": "https://dc.lft.to/lastmile_qr_scan", "android": "https://dc.lft.to/lastmile_qr_scan"}, "type": "electric_scooter", "name": "6eb9edba0dd5a74389fb87c815bb8fa5", "is_reserved": 0, "lon": -76.98728116666666, "is_disabled": 0, "fusion_lat": 0.0, "lat": 38.84222333333334, "bike_id": "6eb9edba0dd5a74389fb87c815bb8fa5", "fusion_lon": 0.0}, {"rental_uris": {"ios": "https://dc.lft.to/lastmile_qr_scan", "android": "https://dc.lft.to/lastmile_qr_scan"}, "type": "electric_scooter", "name": "e4c18b1499de251fe5fa5f8b25458c32", "is_reserved": 0, "lon": -77.04337633333333, "is_disabled": 0, "fusion_lat": 0.0, "lat": 38.922391166666664, "bike_id": "e4c18b1499de251fe5fa5f8b25458c32", "fusion_lon": 0.0}, {"rental_uris": {"ios": "https://dc.lft.to/lastmile_qr_scan", "android": "https://dc.lft.to/lastmile_qr_scan"}, "type": "electric_scooter", "name": "e7a3615cfa8a32e0121c9a6f338336cb", "is_reserved": 0, "lon": -77.05520883333334, "is_disabled": 0, "fusion_lat": 0.0, "lat": 38.90771766666667, "bike_id": "e7a3615cfa8a32e0121c9a6f338336cb", "fusion_lon": 0.0}, {"rental_uris": {"ios": "https://dc.lft.to/lastmile_qr_scan", "android": "https://dc.lft.to/lastmile_qr_scan"}, "type": "electric_scooter", "name": "c774acf492fbb9d22bf81b6c30b42b9e", "is_reserved": 0, "lon": -76.929226, "is_disabled": 0, "fusion_lat": 0.0, "lat": 38.886552333333334, "bike_id": "c774acf492fbb9d22bf81b6c30b42b9e", "fusion_lon": 0.0}, {"rental_uris": {"ios": "https://dc.lft.to/lastmile_qr_scan", "android": "https://dc.lft.to/lastmile_qr_scan"}, "type": "electric_scooter", "name": "73e98adfc58a2f4308844f0e26e2ba4a", "is_reserved": 0, "lon": -76.97132616666667, "is_disabled": 0, "fusion_lat": 0.0, "lat": 38.878629333333336, "bike_id": "73e98adfc58a2f4308844f0e26e2ba4a", "fusion_lon": 0.0}, {"rental_uris": {"ios": "https://dc.lft.to/lastmile_qr_scan", "android": "https://dc.lft.to/lastmile_qr_scan"}, "type": "electric_scooter", "name": "9125680aef8f79f3c7147402351f27b2", "is_reserved": 0, "lon": -77.01986433333333, "is_disabled": 0, "fusion_lat": 0.0, "lat": 38.930738, "bike_id": "9125680aef8f79f3c7147402351f27b2", "fusion_lon": 0.0}, {"rental_uris": {"ios": "https://dc.lft.to/lastmile_qr_scan", "android": "https://dc.lft.to/lastmile_qr_scan"}, "type": "electric_bike", "name": "016a04be33839558e16f2ad5cc868160", "is_reserved": 0, "lon": -76.95061216666667, "is_disabled": 0, "fusion_lat": 0.0, "lat": 39.085091, "bike_id": "016a04be33839558e16f2ad5cc868160", "fusion_lon": 0.0}, {"rental_uris": {"ios": "https://dc.lft.to/lastmile_qr_scan", "android": "https://dc.lft.to/lastmile_qr_scan"}, "type": "electric_scooter", "name": "5ac9576754f4d737a48ac936b72fc6bb", "is_reserved": 0, "lon": -77.01993716666667, "is_disabled": 0, "fusion_lat": 0.0, "lat": 38.930507, "bike_id": "5ac9576754f4d737a48ac936b72fc6bb", "fusion_lon": 0.0}, {"rental_uris": {"ios": "https://dc.lft.to/lastmile_qr_scan", "android": "https://dc.lft.to/lastmile_qr_scan"}, "type": "electric_scooter", "name": "4d5ba214195144fa6bd7e310b019e662", "is_reserved": 0, "lon": -77.03998533333333, "is_disabled": 0, "fusion_lat": 0.0, "lat": 38.91411766666667, "bike_id": "4d5ba214195144fa6bd7e310b019e662", "fusion_lon": 0.0}, {"rental_uris": {"ios": "https://dc.lft.to/lastmile_qr_scan", "android": "https://dc.lft.to/lastmile_qr_scan"}, "type": "electric_scooter", "name": "01d4e4c425ec120ff4958a27ec279f76", "is_reserved": 0, "lon": -77.024026, "is_disabled": 0, "fusion_lat": 0.0, "lat": 38.927577666666664, "bike_id": "01d4e4c425ec120ff4958a27ec279f76", "fusion_lon": 0.0}, {"rental_uris": {"ios": "https://dc.lft.to/lastmile_qr_scan", "android": "https://dc.lft.to/lastmile_qr_scan"}, "type": "electric_scooter", "name": "48629b440823c6a9c8f60cad8f87c1d6", "is_reserved": 0, "lon": -77.02390366666667, "is_disabled": 0, "fusion_lat": 0.0, "lat": 38.91713083333333, "bike_id": "48629b440823c6a9c8f60cad8f87c1d6", "fusion_lon": 0.0}, {"rental_uris": {"ios": "https://dc.lft.to/lastmile_qr_scan", "android": "https://dc.lft.to/lastmile_qr_scan"}, "type": "electric_scooter", "name": "4d9e54348dd49ba68a89a44fd735fffe", "is_reserved": 0, "lon": -77.074009, "is_disabled": 0, "fusion_lat": 0.0, "lat": 38.9374605, "bike_id": "4d9e54348dd49ba68a89a44fd735fffe", "fusion_lon": 0.0}, {"rental_uris": {"ios": "https://dc.lft.to/lastmile_qr_scan", "android": "https://dc.lft.to/lastmile_qr_scan"}, "type": "electric_scooter", "name": "137b5f942c9d1f3db225062ee6547016", "is_reserved": 0, "lon": -77.03125683333333, "is_disabled": 0, "fusion_lat": 0.0, "lat": 38.923707, "bike_id": "137b5f942c9d1f3db225062ee6547016", "fusion_lon": 0.0}, {"rental_uris": {"ios": "https://dc.lft.to/lastmile_qr_scan", "android": "https://dc.lft.to/lastmile_qr_scan"}, "type": "electric_scooter", "name": "ddce0f18300ac61d63815e2e2c5257bf", "is_reserved": 0, "lon": -77.02355416666667, "is_disabled": 0, "fusion_lat": 0.0, "lat": 38.945213833333334, "bike_id": "ddce0f18300ac61d63815e2e2c5257bf", "fusion_lon": 0.0}, {"rental_uris": {"ios": "https://dc.lft.to/lastmile_qr_scan", "android": "https://dc.lft.to/lastmile_qr_scan"}, "type": "electric_scooter", "name": "de423538176a854f9222fda9af5580d4", "is_reserved": 0, "lon": -76.99387466666667, "is_disabled": 0, "fusion_lat": 0.0, "lat": 38.91009283333333, "bike_id": "de423538176a854f9222fda9af5580d4", "fusion_lon": 0.0}, {"rental_uris": {"ios": "https://dc.lft.to/lastmile_qr_scan", "android": "https://dc.lft.to/lastmile_qr_scan"}, "type": "electric_scooter", "name": "83600541ec11c944696da22cfd075df9", "is_reserved": 0, "lon": -77.05003216666667, "is_disabled": 0, "fusion_lat": 0.0, "lat": 38.89774766666667, "bike_id": "83600541ec11c944696da22cfd075df9", "fusion_lon": 0.0}, {"rental_uris": {"ios": "https://dc.lft.to/lastmile_qr_scan", "android": "https://dc.lft.to/lastmile_qr_scan"}, "type": "electric_scooter", "name": "51ee7106c4cd09c3cbb05085ee8b6b93", "is_reserved": 0, "lon": -76.99621716666667, "is_disabled": 0, "fusion_lat": 0.0, "lat": 38.9044765, "bike_id": "51ee7106c4cd09c3cbb05085ee8b6b93", "fusion_lon": 0.0}, {"rental_uris": {"ios": "https://dc.lft.to/lastmile_qr_scan", "android": "https://dc.lft.to/lastmile_qr_scan"}, "type": "electric_scooter", "name": "8bc484d5a91d724fe8c6b1b084c4bb37", "is_reserved": 0, "lon": -76.981834, "is_disabled": 0, "fusion_lat": 0.0, "lat": 38.9058055, "bike_id": "8bc484d5a91d724fe8c6b1b084c4bb37", "fusion_lon": 0.0}, {"rental_uris": {"ios": "https://dc.lft.to/lastmile_qr_scan", "android": "https://dc.lft.to/lastmile_qr_scan"}, "type": "electric_bike", "name": "68aca6b30d0533542435fb41fd5c3be8", "is_reserved": 0, "lon": -77.11316716666667, "is_disabled": 0, "fusion_lat": 0.0, "lat": 38.85589316666667, "bike_id": "68aca6b30d0533542435fb41fd5c3be8", "fusion_lon": 0.0}, {"rental_uris": {"ios": "https://dc.lft.to/lastmile_qr_scan", "android": "https://dc.lft.to/lastmile_qr_scan"}, "type": "electric_scooter", "name": "bc7cd7fa2683f1a36e320f053b39a44a", "is_reserved": 0, "lon": -77.03955866666666, "is_disabled": 0, "fusion_lat": 0.0, "lat": 38.91362983333333, "bike_id": "bc7cd7fa2683f1a36e320f053b39a44a", "fusion_lon": 0.0}, {"rental_uris": {"ios": "https://dc.lft.to/lastmile_qr_scan", "android": "https://dc.lft.to/lastmile_qr_scan"}, "type": "electric_scooter", "name": "2568b3c9cd4e67d1119cbfb39772beb1", "is_reserved": 0, "lon": -77.04639533333334, "is_disabled": 0, "fusion_lat": 0.0, "lat": 38.89653916666666, "bike_id": "2568b3c9cd4e67d1119cbfb39772beb1", "fusion_lon": 0.0}, {"rental_uris": {"ios": "https://dc.lft.to/lastmile_qr_scan", "android": "https://dc.lft.to/lastmile_qr_scan"}, "type": "electric_scooter", "name": "52e319bd72a5cc8d245e35691d886cab", "is_reserved": 0, "lon": -77.02882533333333, "is_disabled": 0, "fusion_lat": 0.0, "lat": 38.90310783333334, "bike_id": "52e319bd72a5cc8d245e35691d886cab", "fusion_lon": 0.0}, {"rental_uris": {"ios": "https://dc.lft.to/lastmile_qr_scan", "android": "https://dc.lft.to/lastmile_qr_scan"}, "type": "electric_scooter", "name": "4ba740bced2a47e75a6369820e671aa0", "is_reserved": 0, "lon": -77.02691116666666, "is_disabled": 0, "fusion_lat": 0.0, "lat": 38.9052535, "bike_id": "4ba740bced2a47e75a6369820e671aa0", "fusion_lon": 0.0}, {"rental_uris": {"ios": "https://dc.lft.to/lastmile_qr_scan", "android": "https://dc.lft.to/lastmile_qr_scan"}, "type": "electric_scooter", "name": "148c599c03e3fe6aee7f3a7e538ac04a", "is_reserved": 0, "lon": -77.046302, "is_disabled": 0, "fusion_lat": 0.0, "lat": 38.90670016666667, "bike_id": "148c599c03e3fe6aee7f3a7e538ac04a", "fusion_lon": 0.0}, {"rental_uris": {"ios": "https://dc.lft.to/lastmile_qr_scan", "android": "https://dc.lft.to/lastmile_qr_scan"}, "type": "electric_scooter", "name": "eed29d1cec3e36f4b9b7c74884d669ca", "is_reserved": 0, "lon": -77.02456833333333, "is_disabled": 0, "fusion_lat": 0.0, "lat": 38.95773583333333, "bike_id": "eed29d1cec3e36f4b9b7c74884d669ca", "fusion_lon": 0.0}, {"rental_uris": {"ios": "https://dc.lft.to/lastmile_qr_scan", "android": "https://dc.lft.to/lastmile_qr_scan"}, "type": "electric_scooter", "name": "8fab800919a5cb1906e892364e0f5f4a", "is_reserved": 0, "lon": -77.00549533333333, "is_disabled": 0, "fusion_lat": 0.0, "lat": 38.8790185, "bike_id": "8fab800919a5cb1906e892364e0f5f4a", "fusion_lon": 0.0}, {"rental_uris": {"ios": "https://dc.lft.to/lastmile_qr_scan", "android": "https://dc.lft.to/lastmile_qr_scan"}, "type": "electric_bike", "name": "cf9c1932f9f06405bca8ce719e5dfc76", "is_reserved": 0, "lon": -77.02030616666667, "is_disabled": 0, "fusion_lat": 0.0, "lat": 38.96557983333334, "bike_id": "cf9c1932f9f06405bca8ce719e5dfc76", "fusion_lon": 0.0}, {"rental_uris": {"ios": "https://dc.lft.to/lastmile_qr_scan", "android": "https://dc.lft.to/lastmile_qr_scan"}, "type": "electric_bike", "name": "daec8b5eb2f934b5588925925d4dda7e", "is_reserved": 0, "lon": -76.98286366666666, "is_disabled": 0, "fusion_lat": 0.0, "lat": 38.846794333333335, "bike_id": "daec8b5eb2f934b5588925925d4dda7e", "fusion_lon": 0.0}, {"rental_uris": {"ios": "https://dc.lft.to/lastmile_qr_scan", "android": "https://dc.lft.to/lastmile_qr_scan"}, "type": "electric_scooter", "name": "e4b9f5e428dadb6bef54cfac0639c28b", "is_reserved": 0, "lon": -77.0375515, "is_disabled": 0, "fusion_lat": 0.0, "lat": 38.935984, "bike_id": "e4b9f5e428dadb6bef54cfac0639c28b", "fusion_lon": 0.0}, {"rental_uris": {"ios": "https://dc.lft.to/lastmile_qr_scan", "android": "https://dc.lft.to/lastmile_qr_scan"}, "type": "electric_scooter", "name": "adffe80718281f5dcd15d34bfacdb906", "is_reserved": 0, "lon": -77.01432616666666, "is_disabled": 0, "fusion_lat": 0.0, "lat": 38.9023325, "bike_id": "adffe80718281f5dcd15d34bfacdb906", "fusion_lon": 0.0}, {"rental_uris": {"ios": "https://dc.lft.to/lastmile_qr_scan", "android": "https://dc.lft.to/lastmile_qr_scan"}, "type": "electric_scooter", "name": "a088cba647034805e86a75aa6868de81", "is_reserved": 0, "lon": -77.0326615, "is_disabled": 0, "fusion_lat": 0.0, "lat": 38.93247133333333, "bike_id": "a088cba647034805e86a75aa6868de81", "fusion_lon": 0.0}, {"rental_uris": {"ios": "https://dc.lft.to/lastmile_qr_scan", "android": "https://dc.lft.to/lastmile_qr_scan"}, "type": "electric_scooter", "name": "c005cca053e29959d275b72b7b9d6706", "is_reserved": 0, "lon": -77.00158333333333, "is_disabled": 0, "fusion_lat": 0.0, "lat": 38.8213215, "bike_id": "c005cca053e29959d275b72b7b9d6706", "fusion_lon": 0.0}, {"rental_uris": {"ios": "https://dc.lft.to/lastmile_qr_scan", "android": "https://dc.lft.to/lastmile_qr_scan"}, "type": "electric_scooter", "name": "e1acb4aded407d8affcaa7e1769d00d8", "is_reserved": 0, "lon": -77.01339083333333, "is_disabled": 0, "fusion_lat": 0.0, "lat": 38.9191005, "bike_id": "e1acb4aded407d8affcaa7e1769d00d8", "fusion_lon": 0.0}, {"rental_uris": {"ios": "https://dc.lft.to/lastmile_qr_scan", "android": "https://dc.lft.to/lastmile_qr_scan"}, "type": "electric_scooter", "name": "44cdb1eab1d1439c3f0ee2a9772a6c32", "is_reserved": 0, "lon": -77.0755595, "is_disabled": 0, "fusion_lat": 0.0, "lat": 38.90640116666667, "bike_id": "44cdb1eab1d1439c3f0ee2a9772a6c32", "fusion_lon": 0.0}, {"rental_uris": {"ios": "https://dc.lft.to/lastmile_qr_scan", "android": "https://dc.lft.to/lastmile_qr_scan"}, "type": "electric_bike", "name": "358a11351a03c48a1d794882322e3192", "is_reserved": 0, "lon": -76.95159016666666, "is_disabled": 0, "fusion_lat": 0.0, "lat": 39.0843535, "bike_id": "358a11351a03c48a1d794882322e3192", "fusion_lon": 0.0}, {"rental_uris": {"ios": "https://dc.lft.to/lastmile_qr_scan", "android": "https://dc.lft.to/lastmile_qr_scan"}, "type": "electric_scooter", "name": "d599e9b7724e70aab04db8bb6117c525", "is_reserved": 0, "lon": -77.02231783333333, "is_disabled": 0, "fusion_lat": 0.0, "lat": 38.891965666666664, "bike_id": "d599e9b7724e70aab04db8bb6117c525", "fusion_lon": 0.0}, {"rental_uris": {"ios": "https://dc.lft.to/lastmile_qr_scan", "android": "https://dc.lft.to/lastmile_qr_scan"}, "type": "electric_scooter", "name": "41f0ddb19d9d579a9de95f86787a19ad", "is_reserved": 0, "lon": -77.07233733333334, "is_disabled": 0, "fusion_lat": 0.0, "lat": 38.934355833333335, "bike_id": "41f0ddb19d9d579a9de95f86787a19ad", "fusion_lon": 0.0}, {"rental_uris": {"ios": "https://dc.lft.to/lastmile_qr_scan", "android": "https://dc.lft.to/lastmile_qr_scan"}, "type": "electric_scooter", "name": "58bc82b82c0414536fa74f3e7a5733fa", "is_reserved": 0, "lon": -77.02665466666667, "is_disabled": 0, "fusion_lat": 0.0, "lat": 38.89624383333334, "bike_id": "58bc82b82c0414536fa74f3e7a5733fa", "fusion_lon": 0.0}, {"rental_uris": {"ios": "https://dc.lft.to/lastmile_qr_scan", "android": "https://dc.lft.to/lastmile_qr_scan"}, "type": "electric_scooter", "name": "f8eb2f2a393ceeb331f65822ff5be136", "is_reserved": 0, "lon": -77.0194725, "is_disabled": 0, "fusion_lat": 0.0, "lat": 38.95044866666667, "bike_id": "f8eb2f2a393ceeb331f65822ff5be136", "fusion_lon": 0.0}, {"rental_uris": {"ios": "https://dc.lft.to/lastmile_qr_scan", "android": "https://dc.lft.to/lastmile_qr_scan"}, "type": "electric_scooter", "name": "edc7796d78af5d02d7c73f7e5f45ca67", "is_reserved": 0, "lon": -77.04693183333333, "is_disabled": 0, "fusion_lat": 0.0, "lat": 38.920625, "bike_id": "edc7796d78af5d02d7c73f7e5f45ca67", "fusion_lon": 0.0}, {"rental_uris": {"ios": "https://dc.lft.to/lastmile_qr_scan", "android": "https://dc.lft.to/lastmile_qr_scan"}, "type": "electric_scooter", "name": "b755b51871b867cc0c29000c8ae0c5dd", "is_reserved": 0, "lon": -77.02404233333333, "is_disabled": 0, "fusion_lat": 0.0, "lat": 38.90966483333333, "bike_id": "b755b51871b867cc0c29000c8ae0c5dd", "fusion_lon": 0.0}, {"rental_uris": {"ios": "https://dc.lft.to/lastmile_qr_scan", "android": "https://dc.lft.to/lastmile_qr_scan"}, "type": "electric_scooter", "name": "10c845b936d8ae304332ebb34c3bd8a4", "is_reserved": 0, "lon": -77.01176166666667, "is_disabled": 0, "fusion_lat": 0.0, "lat": 38.951503833333334, "bike_id": "10c845b936d8ae304332ebb34c3bd8a4", "fusion_lon": 0.0}, {"rental_uris": {"ios": "https://dc.lft.to/lastmile_qr_scan", "android": "https://dc.lft.to/lastmile_qr_scan"}, "type": "electric_scooter", "name": "d93820ccaba5ff25e9cfafb52d0b6233", "is_reserved": 0, "lon": -77.03234783333333, "is_disabled": 0, "fusion_lat": 0.0, "lat": 38.929059333333335, "bike_id": "d93820ccaba5ff25e9cfafb52d0b6233", "fusion_lon": 0.0}, {"rental_uris": {"ios": "https://dc.lft.to/lastmile_qr_scan", "android": "https://dc.lft.to/lastmile_qr_scan"}, "type": "electric_bike", "name": "236c9696dbca12d404710fa7139e4e5b", "is_reserved": 0, "lon": -76.97537983333334, "is_disabled": 0, "fusion_lat": 0.0, "lat": 38.904294166666666, "bike_id": "236c9696dbca12d404710fa7139e4e5b", "fusion_lon": 0.0}, {"rental_uris": {"ios": "https://dc.lft.to/lastmile_qr_scan", "android": "https://dc.lft.to/lastmile_qr_scan"}, "type": "electric_bike", "name": "49ae99123895f7083affb2be620235c1", "is_reserved": 0, "lon": -77.01843866666667, "is_disabled": 0, "fusion_lat": 0.0, "lat": 38.9310585, "bike_id": "49ae99123895f7083affb2be620235c1", "fusion_lon": 0.0}, {"rental_uris": {"ios": "https://dc.lft.to/lastmile_qr_scan", "android": "https://dc.lft.to/lastmile_qr_scan"}, "type": "electric_scooter", "name": "f4f3718bc991849cae95b0706b753010", "is_reserved": 0, "lon": -77.02036933333333, "is_disabled": 0, "fusion_lat": 0.0, "lat": 38.894309, "bike_id": "f4f3718bc991849cae95b0706b753010", "fusion_lon": 0.0}, {"rental_uris": {"ios": "https://dc.lft.to/lastmile_qr_scan", "android": "https://dc.lft.to/lastmile_qr_scan"}, "type": "electric_scooter", "name": "f15e664420991f10a369f57f7ebf493e", "is_reserved": 0, "lon": -77.03472783333333, "is_disabled": 0, "fusion_lat": 0.0, "lat": 38.905670666666666, "bike_id": "f15e664420991f10a369f57f7ebf493e", "fusion_lon": 0.0}, {"rental_uris": {"ios": "https://dc.lft.to/lastmile_qr_scan", "android": "https://dc.lft.to/lastmile_qr_scan"}, "type": "electric_scooter", "name": "66343aaa762c46a64e3cd25fcf67840d", "is_reserved": 0, "lon": -77.043859, "is_disabled": 0, "fusion_lat": 0.0, "lat": 38.897428833333336, "bike_id": "66343aaa762c46a64e3cd25fcf67840d", "fusion_lon": 0.0}, {"rental_uris": {"ios": "https://dc.lft.to/lastmile_qr_scan", "android": "https://dc.lft.to/lastmile_qr_scan"}, "type": "electric_bike", "name": "55f6254984a6dad7c2696d228b915b9f", "is_reserved": 0, "lon": -76.9836895, "is_disabled": 0, "fusion_lat": 0.0, "lat": 38.9149695, "bike_id": "55f6254984a6dad7c2696d228b915b9f", "fusion_lon": 0.0}, {"rental_uris": {"ios": "https://dc.lft.to/lastmile_qr_scan", "android": "https://dc.lft.to/lastmile_qr_scan"}, "type": "electric_bike", "name": "1fe6c5f5609494497c1642bbc41f9fcb", "is_reserved": 0, "lon": -77.0282405, "is_disabled": 0, "fusion_lat": 0.0, "lat": 38.96559583333333, "bike_id": "1fe6c5f5609494497c1642bbc41f9fcb", "fusion_lon": 0.0}, {"rental_uris": {"ios": "https://dc.lft.to/lastmile_qr_scan", "android": "https://dc.lft.to/lastmile_qr_scan"}, "type": "electric_bike", "name": "3b98a494165e5436d01dbc7e6f4feaca", "is_reserved": 0, "lon": -77.00510383333334, "is_disabled": 0, "fusion_lat": 0.0, "lat": 38.879266666666666, "bike_id": "3b98a494165e5436d01dbc7e6f4feaca", "fusion_lon": 0.0}, {"rental_uris": {"ios": "https://dc.lft.to/lastmile_qr_scan", "android": "https://dc.lft.to/lastmile_qr_scan"}, "type": "electric_scooter", "name": "d8332efd375b4b3bdb67b67f4e4bcdf4", "is_reserved": 0, "lon": -77.048528, "is_disabled": 0, "fusion_lat": 0.0, "lat": 38.900725666666666, "bike_id": "d8332efd375b4b3bdb67b67f4e4bcdf4", "fusion_lon": 0.0}, {"rental_uris": {"ios": "https://dc.lft.to/lastmile_qr_scan", "android": "https://dc.lft.to/lastmile_qr_scan"}, "type": "electric_scooter", "name": "f67287f8bd0d5431ea7b3642cd36119a", "is_reserved": 0, "lon": -77.0858975, "is_disabled": 0, "fusion_lat": 0.0, "lat": 38.9086425, "bike_id": "f67287f8bd0d5431ea7b3642cd36119a", "fusion_lon": 0.0}, {"rental_uris": {"ios": "https://dc.lft.to/lastmile_qr_scan", "android": "https://dc.lft.to/lastmile_qr_scan"}, "type": "electric_scooter", "name": "a88e36d6c2ab44c2303b43616ac35b6b", "is_reserved": 0, "lon": -76.984998, "is_disabled": 0, "fusion_lat": 0.0, "lat": 38.920054666666665, "bike_id": "a88e36d6c2ab44c2303b43616ac35b6b", "fusion_lon": 0.0}, {"rental_uris": {"ios": "https://dc.lft.to/lastmile_qr_scan", "android": "https://dc.lft.to/lastmile_qr_scan"}, "type": "electric_scooter", "name": "18205cba0548b60a22aedc3627addb02", "is_reserved": 0, "lon": -77.03724516666666, "is_disabled": 0, "fusion_lat": 0.0, "lat": 38.920195166666666, "bike_id": "18205cba0548b60a22aedc3627addb02", "fusion_lon": 0.0}, {"rental_uris": {"ios": "https://dc.lft.to/lastmile_qr_scan", "android": "https://dc.lft.to/lastmile_qr_scan"}, "type": "electric_scooter", "name": "9d949bc661a15fd716cbe0e9efec94b4", "is_reserved": 0, "lon": -76.98539916666667, "is_disabled": 0, "fusion_lat": 0.0, "lat": 38.8584515, "bike_id": "9d949bc661a15fd716cbe0e9efec94b4", "fusion_lon": 0.0}, {"rental_uris": {"ios": "https://dc.lft.to/lastmile_qr_scan", "android": "https://dc.lft.to/lastmile_qr_scan"}, "type": "electric_scooter", "name": "b910332c753ae754a60f1f5c2341a68f", "is_reserved": 0, "lon": -77.00872083333333, "is_disabled": 0, "fusion_lat": 0.0, "lat": 38.9117685, "bike_id": "b910332c753ae754a60f1f5c2341a68f", "fusion_lon": 0.0}, {"rental_uris": {"ios": "https://dc.lft.to/lastmile_qr_scan", "android": "https://dc.lft.to/lastmile_qr_scan"}, "type": "electric_scooter", "name": "5f9e5e483bf414c72d9ef95f7250403c", "is_reserved": 0, "lon": -77.030204, "is_disabled": 0, "fusion_lat": 0.0, "lat": 38.878488833333336, "bike_id": "5f9e5e483bf414c72d9ef95f7250403c", "fusion_lon": 0.0}, {"rental_uris": {"ios": "https://dc.lft.to/lastmile_qr_scan", "android": "https://dc.lft.to/lastmile_qr_scan"}, "type": "electric_scooter", "name": "77e721a6100a566ecda217c1b15d0508", "is_reserved": 0, "lon": -77.02412566666666, "is_disabled": 0, "fusion_lat": 0.0, "lat": 38.9280845, "bike_id": "77e721a6100a566ecda217c1b15d0508", "fusion_lon": 0.0}, {"rental_uris": {"ios": "https://dc.lft.to/lastmile_qr_scan", "android": "https://dc.lft.to/lastmile_qr_scan"}, "type": "electric_scooter", "name": "e583e97f78696400650181cee334787d", "is_reserved": 0, "lon": -77.01174683333333, "is_disabled": 0, "fusion_lat": 0.0, "lat": 38.8969745, "bike_id": "e583e97f78696400650181cee334787d", "fusion_lon": 0.0}, {"rental_uris": {"ios": "https://dc.lft.to/lastmile_qr_scan", "android": "https://dc.lft.to/lastmile_qr_scan"}, "type": "electric_scooter", "name": "1a8881f8c9a3f2294f26b1e625ff25ee", "is_reserved": 0, "lon": -76.92659383333333, "is_disabled": 0, "fusion_lat": 0.0, "lat": 38.88233916666667, "bike_id": "1a8881f8c9a3f2294f26b1e625ff25ee", "fusion_lon": 0.0}, {"rental_uris": {"ios": "https://dc.lft.to/lastmile_qr_scan", "android": "https://dc.lft.to/lastmile_qr_scan"}, "type": "electric_scooter", "name": "e134c436330e35ca0b665bd45eaccd36", "is_reserved": 0, "lon": -77.029127, "is_disabled": 0, "fusion_lat": 0.0, "lat": 38.93454533333333, "bike_id": "e134c436330e35ca0b665bd45eaccd36", "fusion_lon": 0.0}, {"rental_uris": {"ios": "https://dc.lft.to/lastmile_qr_scan", "android": "https://dc.lft.to/lastmile_qr_scan"}, "type": "electric_scooter", "name": "d9b0e590808d32c874990a130c8f7726", "is_reserved": 0, "lon": -77.05354316666667, "is_disabled": 0, "fusion_lat": 0.0, "lat": 38.89876833333334, "bike_id": "d9b0e590808d32c874990a130c8f7726", "fusion_lon": 0.0}, {"rental_uris": {"ios": "https://dc.lft.to/lastmile_qr_scan", "android": "https://dc.lft.to/lastmile_qr_scan"}, "type": "electric_scooter", "name": "74b94559378972b1c2e59d5e2cea6992", "is_reserved": 0, "lon": -77.031701, "is_disabled": 0, "fusion_lat": 0.0, "lat": 38.916251833333334, "bike_id": "74b94559378972b1c2e59d5e2cea6992", "fusion_lon": 0.0}, {"rental_uris": {"ios": "https://dc.lft.to/lastmile_qr_scan", "android": "https://dc.lft.to/lastmile_qr_scan"}, "type": "electric_scooter", "name": "0aa684771c4dd0d0ae0743b8ec6ad304", "is_reserved": 0, "lon": -77.03355183333333, "is_disabled": 0, "fusion_lat": 0.0, "lat": 38.9215015, "bike_id": "0aa684771c4dd0d0ae0743b8ec6ad304", "fusion_lon": 0.0}, {"rental_uris": {"ios": "https://dc.lft.to/lastmile_qr_scan", "android": "https://dc.lft.to/lastmile_qr_scan"}, "type": "electric_bike", "name": "3d2c966df573e5003463ea110cdb2bba", "is_reserved": 0, "lon": -77.0724195, "is_disabled": 0, "fusion_lat": 0.0, "lat": 38.813644833333335, "bike_id": "3d2c966df573e5003463ea110cdb2bba", "fusion_lon": 0.0}, {"rental_uris": {"ios": "https://dc.lft.to/lastmile_qr_scan", "android": "https://dc.lft.to/lastmile_qr_scan"}, "type": "electric_scooter", "name": "e4386e2fbe69942e8d9e2849794298e4", "is_reserved": 0, "lon": -77.01504333333334, "is_disabled": 0, "fusion_lat": 0.0, "lat": 38.901416166666664, "bike_id": "e4386e2fbe69942e8d9e2849794298e4", "fusion_lon": 0.0}, {"rental_uris": {"ios": "https://dc.lft.to/lastmile_qr_scan", "android": "https://dc.lft.to/lastmile_qr_scan"}, "type": "electric_scooter", "name": "fb678a62b1cad658cfb44003d6c772a2", "is_reserved": 0, "lon": -77.03779366666667, "is_disabled": 0, "fusion_lat": 0.0, "lat": 38.92570466666667, "bike_id": "fb678a62b1cad658cfb44003d6c772a2", "fusion_lon": 0.0}, {"rental_uris": {"ios": "https://dc.lft.to/lastmile_qr_scan", "android": "https://dc.lft.to/lastmile_qr_scan"}, "type": "electric_scooter", "name": "6d37d7b71be87f846b9b0801820df729", "is_reserved": 0, "lon": -77.0441135, "is_disabled": 0, "fusion_lat": 0.0, "lat": 38.9258345, "bike_id": "6d37d7b71be87f846b9b0801820df729", "fusion_lon": 0.0}, {"rental_uris": {"ios": "https://dc.lft.to/lastmile_qr_scan", "android": "https://dc.lft.to/lastmile_qr_scan"}, "type": "electric_scooter", "name": "637961aa0d33c970c1f16fcfe97c7053", "is_reserved": 0, "lon": -76.99012433333333, "is_disabled": 0, "fusion_lat": 0.0, "lat": 38.903881, "bike_id": "637961aa0d33c970c1f16fcfe97c7053", "fusion_lon": 0.0}, {"rental_uris": {"ios": "https://dc.lft.to/lastmile_qr_scan", "android": "https://dc.lft.to/lastmile_qr_scan"}, "type": "electric_scooter", "name": "329dec9f55a4b9395b43863a56455c89", "is_reserved": 0, "lon": -77.01919116666667, "is_disabled": 0, "fusion_lat": 0.0, "lat": 38.90238466666667, "bike_id": "329dec9f55a4b9395b43863a56455c89", "fusion_lon": 0.0}, {"rental_uris": {"ios": "https://dc.lft.to/lastmile_qr_scan", "android": "https://dc.lft.to/lastmile_qr_scan"}, "type": "electric_scooter", "name": "296a96b4c39debba58770b4120967b24", "is_reserved": 0, "lon": -77.0371515, "is_disabled": 0, "fusion_lat": 0.0, "lat": 38.92642383333333, "bike_id": "296a96b4c39debba58770b4120967b24", "fusion_lon": 0.0}, {"rental_uris": {"ios": "https://dc.lft.to/lastmile_qr_scan", "android": "https://dc.lft.to/lastmile_qr_scan"}, "type": "electric_scooter", "name": "a01469cd8219d741ea1cf0b53e08edff", "is_reserved": 0, "lon": -77.03500433333333, "is_disabled": 0, "fusion_lat": 0.0, "lat": 38.91868616666667, "bike_id": "a01469cd8219d741ea1cf0b53e08edff", "fusion_lon": 0.0}, {"rental_uris": {"ios": "https://dc.lft.to/lastmile_qr_scan", "android": "https://dc.lft.to/lastmile_qr_scan"}, "type": "electric_scooter", "name": "1aa14256de80a8deb9f2ad34fe600068", "is_reserved": 0, "lon": -77.00058816666666, "is_disabled": 0, "fusion_lat": 0.0, "lat": 38.87684566666667, "bike_id": "1aa14256de80a8deb9f2ad34fe600068", "fusion_lon": 0.0}, {"rental_uris": {"ios": "https://dc.lft.to/lastmile_qr_scan", "android": "https://dc.lft.to/lastmile_qr_scan"}, "type": "electric_scooter", "name": "88c405d31c577c23772f96f5e5d7742d", "is_reserved": 0, "lon": -77.02171683333333, "is_disabled": 0, "fusion_lat": 0.0, "lat": 38.92501583333333, "bike_id": "88c405d31c577c23772f96f5e5d7742d", "fusion_lon": 0.0}, {"rental_uris": {"ios": "https://dc.lft.to/lastmile_qr_scan", "android": "https://dc.lft.to/lastmile_qr_scan"}, "type": "electric_scooter", "name": "867a4bc2b97ff74d6f5f61eef1a41f18", "is_reserved": 0, "lon": -77.063221, "is_disabled": 0, "fusion_lat": 0.0, "lat": 38.943648333333336, "bike_id": "867a4bc2b97ff74d6f5f61eef1a41f18", "fusion_lon": 0.0}, {"rental_uris": {"ios": "https://dc.lft.to/lastmile_qr_scan", "android": "https://dc.lft.to/lastmile_qr_scan"}, "type": "electric_scooter", "name": "1bec521218ca015a5a82cb75a9c7349c", "is_reserved": 0, "lon": -77.0318295, "is_disabled": 0, "fusion_lat": 0.0, "lat": 38.906845, "bike_id": "1bec521218ca015a5a82cb75a9c7349c", "fusion_lon": 0.0}, {"rental_uris": {"ios": "https://dc.lft.to/lastmile_qr_scan", "android": "https://dc.lft.to/lastmile_qr_scan"}, "type": "electric_scooter", "name": "76fa1569898e6b72692da42fe432960c", "is_reserved": 0, "lon": -77.00914166666666, "is_disabled": 0, "fusion_lat": 0.0, "lat": 38.91237366666667, "bike_id": "76fa1569898e6b72692da42fe432960c", "fusion_lon": 0.0}, {"rental_uris": {"ios": "https://dc.lft.to/lastmile_qr_scan", "android": "https://dc.lft.to/lastmile_qr_scan"}, "type": "electric_scooter", "name": "e4bd8b7cc2d30377f08a5bd5d9a0868a", "is_reserved": 0, "lon": -77.0123015, "is_disabled": 0, "fusion_lat": 0.0, "lat": 38.9157545, "bike_id": "e4bd8b7cc2d30377f08a5bd5d9a0868a", "fusion_lon": 0.0}, {"rental_uris": {"ios": "https://dc.lft.to/lastmile_qr_scan", "android": "https://dc.lft.to/lastmile_qr_scan"}, "type": "electric_scooter", "name": "fd3d4014bac353f87376f380c857dd66", "is_reserved": 0, "lon": -77.03425033333333, "is_disabled": 0, "fusion_lat": 0.0, "lat": 38.9191235, "bike_id": "fd3d4014bac353f87376f380c857dd66", "fusion_lon": 0.0}, {"rental_uris": {"ios": "https://dc.lft.to/lastmile_qr_scan", "android": "https://dc.lft.to/lastmile_qr_scan"}, "type": "electric_scooter", "name": "02ad9783e610d28d4a16ab2cc0f8edb0", "is_reserved": 0, "lon": -77.0184335, "is_disabled": 0, "fusion_lat": 0.0, "lat": 38.9053265, "bike_id": "02ad9783e610d28d4a16ab2cc0f8edb0", "fusion_lon": 0.0}, {"rental_uris": {"ios": "https://dc.lft.to/lastmile_qr_scan", "android": "https://dc.lft.to/lastmile_qr_scan"}, "type": "electric_scooter", "name": "d4595166f7efe09ead9db085d44fcad0", "is_reserved": 0, "lon": -77.03497883333333, "is_disabled": 0, "fusion_lat": 0.0, "lat": 38.91553833333333, "bike_id": "d4595166f7efe09ead9db085d44fcad0", "fusion_lon": 0.0}, {"rental_uris": {"ios": "https://dc.lft.to/lastmile_qr_scan", "android": "https://dc.lft.to/lastmile_qr_scan"}, "type": "electric_scooter", "name": "fea00a93df1075f19685c888ccf5d563", "is_reserved": 0, "lon": -77.01015816666667, "is_disabled": 0, "fusion_lat": 0.0, "lat": 38.91253483333333, "bike_id": "fea00a93df1075f19685c888ccf5d563", "fusion_lon": 0.0}, {"rental_uris": {"ios": "https://dc.lft.to/lastmile_qr_scan", "android": "https://dc.lft.to/lastmile_qr_scan"}, "type": "electric_scooter", "name": "876b3f873c8f2839840200bbc49bef0f", "is_reserved": 0, "lon": -77.04731916666667, "is_disabled": 0, "fusion_lat": 0.0, "lat": 38.895536666666665, "bike_id": "876b3f873c8f2839840200bbc49bef0f", "fusion_lon": 0.0}, {"rental_uris": {"ios": "https://dc.lft.to/lastmile_qr_scan", "android": "https://dc.lft.to/lastmile_qr_scan"}, "type": "electric_scooter", "name": "92ab62b9eb3195e16a30fb7cb81352d4", "is_reserved": 0, "lon": -77.02692933333333, "is_disabled": 0, "fusion_lat": 0.0, "lat": 38.9084, "bike_id": "92ab62b9eb3195e16a30fb7cb81352d4", "fusion_lon": 0.0}, {"rental_uris": {"ios": "https://dc.lft.to/lastmile_qr_scan", "android": "https://dc.lft.to/lastmile_qr_scan"}, "type": "electric_scooter", "name": "037bcc9975d2a900cdf1e8bded44fe02", "is_reserved": 0, "lon": -77.0376785, "is_disabled": 0, "fusion_lat": 0.0, "lat": 38.92331566666667, "bike_id": "037bcc9975d2a900cdf1e8bded44fe02", "fusion_lon": 0.0}, {"rental_uris": {"ios": "https://dc.lft.to/lastmile_qr_scan", "android": "https://dc.lft.to/lastmile_qr_scan"}, "type": "electric_scooter", "name": "b46f10a75ec68ff31fa27943d19f6ae7", "is_reserved": 0, "lon": -77.02576183333333, "is_disabled": 0, "fusion_lat": 0.0, "lat": 38.88713683333334, "bike_id": "b46f10a75ec68ff31fa27943d19f6ae7", "fusion_lon": 0.0}, {"rental_uris": {"ios": "https://dc.lft.to/lastmile_qr_scan", "android": "https://dc.lft.to/lastmile_qr_scan"}, "type": "electric_scooter", "name": "8309af638acad52dd88c12b460fbba1e", "is_reserved": 0, "lon": -77.03658166666666, "is_disabled": 0, "fusion_lat": 0.0, "lat": 38.922813833333336, "bike_id": "8309af638acad52dd88c12b460fbba1e", "fusion_lon": 0.0}, {"rental_uris": {"ios": "https://dc.lft.to/lastmile_qr_scan", "android": "https://dc.lft.to/lastmile_qr_scan"}, "type": "electric_scooter", "name": "0fb10e4860aad1209e1a34b16f7bc97a", "is_reserved": 0, "lon": -77.0289695, "is_disabled": 0, "fusion_lat": 0.0, "lat": 38.940419166666665, "bike_id": "0fb10e4860aad1209e1a34b16f7bc97a", "fusion_lon": 0.0}, {"rental_uris": {"ios": "https://dc.lft.to/lastmile_qr_scan", "android": "https://dc.lft.to/lastmile_qr_scan"}, "type": "electric_scooter", "name": "990a44f88ae0f1fb5c7f2dfa362565bb", "is_reserved": 0, "lon": -76.97043866666667, "is_disabled": 0, "fusion_lat": 0.0, "lat": 38.873216666666664, "bike_id": "990a44f88ae0f1fb5c7f2dfa362565bb", "fusion_lon": 0.0}, {"rental_uris": {"ios": "https://dc.lft.to/lastmile_qr_scan", "android": "https://dc.lft.to/lastmile_qr_scan"}, "type": "electric_scooter", "name": "0f599d84e12db45f0d49aedea20a4044", "is_reserved": 0, "lon": -77.02158616666667, "is_disabled": 0, "fusion_lat": 0.0, "lat": 38.894972, "bike_id": "0f599d84e12db45f0d49aedea20a4044", "fusion_lon": 0.0}, {"rental_uris": {"ios": "https://dc.lft.to/lastmile_qr_scan", "android": "https://dc.lft.to/lastmile_qr_scan"}, "type": "electric_scooter", "name": "39a7c08eea449a6bba86f19bab67ad65", "is_reserved": 0, "lon": -77.03522166666667, "is_disabled": 0, "fusion_lat": 0.0, "lat": 38.92385183333333, "bike_id": "39a7c08eea449a6bba86f19bab67ad65", "fusion_lon": 0.0}, {"rental_uris": {"ios": "https://dc.lft.to/lastmile_qr_scan", "android": "https://dc.lft.to/lastmile_qr_scan"}, "type": "electric_scooter", "name": "f8d1c8a4f8871cc6fefc143b1d075f1e", "is_reserved": 0, "lon": -77.03234733333333, "is_disabled": 0, "fusion_lat": 0.0, "lat": 38.91043483333333, "bike_id": "f8d1c8a4f8871cc6fefc143b1d075f1e", "fusion_lon": 0.0}, {"rental_uris": {"ios": "https://dc.lft.to/lastmile_qr_scan", "android": "https://dc.lft.to/lastmile_qr_scan"}, "type": "electric_scooter", "name": "0f246c6fdd208d694574134e795f9fbb", "is_reserved": 0, "lon": -77.02056333333333, "is_disabled": 0, "fusion_lat": 0.0, "lat": 38.90846783333333, "bike_id": "0f246c6fdd208d694574134e795f9fbb", "fusion_lon": 0.0}, {"rental_uris": {"ios": "https://dc.lft.to/lastmile_qr_scan", "android": "https://dc.lft.to/lastmile_qr_scan"}, "type": "electric_scooter", "name": "189c9cb27cdf767ecf8ce43ea2e2adbd", "is_reserved": 0, "lon": -77.00878216666666, "is_disabled": 0, "fusion_lat": 0.0, "lat": 38.9155065, "bike_id": "189c9cb27cdf767ecf8ce43ea2e2adbd", "fusion_lon": 0.0}, {"rental_uris": {"ios": "https://dc.lft.to/lastmile_qr_scan", "android": "https://dc.lft.to/lastmile_qr_scan"}, "type": "electric_scooter", "name": "c1cffe38541c69076b9fbc67d367f5a6", "is_reserved": 0, "lon": -77.0384775, "is_disabled": 0, "fusion_lat": 0.0, "lat": 38.908777666666666, "bike_id": "c1cffe38541c69076b9fbc67d367f5a6", "fusion_lon": 0.0}, {"rental_uris": {"ios": "https://dc.lft.to/lastmile_qr_scan", "android": "https://dc.lft.to/lastmile_qr_scan"}, "type": "electric_scooter", "name": "6967f91d5f6f3c6b6ac9525f6dd448c0", "is_reserved": 0, "lon": -77.01871133333333, "is_disabled": 0, "fusion_lat": 0.0, "lat": 38.930539, "bike_id": "6967f91d5f6f3c6b6ac9525f6dd448c0", "fusion_lon": 0.0}, {"rental_uris": {"ios": "https://dc.lft.to/lastmile_qr_scan", "android": "https://dc.lft.to/lastmile_qr_scan"}, "type": "electric_scooter", "name": "4190875da26d81c7452c01c5ab40ebf5", "is_reserved": 0, "lon": -77.05325416666666, "is_disabled": 0, "fusion_lat": 0.0, "lat": 38.902264333333335, "bike_id": "4190875da26d81c7452c01c5ab40ebf5", "fusion_lon": 0.0}, {"rental_uris": {"ios": "https://dc.lft.to/lastmile_qr_scan", "android": "https://dc.lft.to/lastmile_qr_scan"}, "type": "electric_scooter", "name": "7cef8c0f055a0ca9126036d3d6e2c2d2", "is_reserved": 0, "lon": -76.937443, "is_disabled": 0, "fusion_lat": 0.0, "lat": 38.8900695, "bike_id": "7cef8c0f055a0ca9126036d3d6e2c2d2", "fusion_lon": 0.0}, {"rental_uris": {"ios": "https://dc.lft.to/lastmile_qr_scan", "android": "https://dc.lft.to/lastmile_qr_scan"}, "type": "electric_scooter", "name": "e40557399c618eb802b221f5112bd8cd", "is_reserved": 0, "lon": -77.0417485, "is_disabled": 0, "fusion_lat": 0.0, "lat": 38.903696, "bike_id": "e40557399c618eb802b221f5112bd8cd", "fusion_lon": 0.0}, {"rental_uris": {"ios": "https://dc.lft.to/lastmile_qr_scan", "android": "https://dc.lft.to/lastmile_qr_scan"}, "type": "electric_scooter", "name": "a4fbec3a3f9908afac96e04cc914e2ad", "is_reserved": 0, "lon": -77.022754, "is_disabled": 0, "fusion_lat": 0.0, "lat": 38.924268166666664, "bike_id": "a4fbec3a3f9908afac96e04cc914e2ad", "fusion_lon": 0.0}, {"rental_uris": {"ios": "https://dc.lft.to/lastmile_qr_scan", "android": "https://dc.lft.to/lastmile_qr_scan"}, "type": "electric_bike", "name": "695ad8adff809a2da4a196b2b11ec157", "is_reserved": 0, "lon": -77.06698383333334, "is_disabled": 0, "fusion_lat": 0.0, "lat": 38.83168716666667, "bike_id": "695ad8adff809a2da4a196b2b11ec157", "fusion_lon": 0.0}, {"rental_uris": {"ios": "https://dc.lft.to/lastmile_qr_scan", "android": "https://dc.lft.to/lastmile_qr_scan"}, "type": "electric_scooter", "name": "20f8c6198e8b27930c68ee7f5b287deb", "is_reserved": 0, "lon": -77.008144, "is_disabled": 0, "fusion_lat": 0.0, "lat": 38.878423833333336, "bike_id": "20f8c6198e8b27930c68ee7f5b287deb", "fusion_lon": 0.0}, {"rental_uris": {"ios": "https://dc.lft.to/lastmile_qr_scan", "android": "https://dc.lft.to/lastmile_qr_scan"}, "type": "electric_scooter", "name": "7ada5a8112a01a23ffaabd61438dd71f", "is_reserved": 0, "lon": -77.03658016666667, "is_disabled": 0, "fusion_lat": 0.0, "lat": 38.903949, "bike_id": "7ada5a8112a01a23ffaabd61438dd71f", "fusion_lon": 0.0}, {"rental_uris": {"ios": "https://dc.lft.to/lastmile_qr_scan", "android": "https://dc.lft.to/lastmile_qr_scan"}, "type": "electric_scooter", "name": "3cb6fae865e7c9cb9b91a4fce8bcb346", "is_reserved": 0, "lon": -77.01753716666667, "is_disabled": 0, "fusion_lat": 0.0, "lat": 38.876857666666666, "bike_id": "3cb6fae865e7c9cb9b91a4fce8bcb346", "fusion_lon": 0.0}, {"rental_uris": {"ios": "https://dc.lft.to/lastmile_qr_scan", "android": "https://dc.lft.to/lastmile_qr_scan"}, "type": "electric_scooter", "name": "e2c367f78d28f78096cb163ff838e102", "is_reserved": 0, "lon": -77.02788616666666, "is_disabled": 0, "fusion_lat": 0.0, "lat": 38.95603333333333, "bike_id": "e2c367f78d28f78096cb163ff838e102", "fusion_lon": 0.0}, {"rental_uris": {"ios": "https://dc.lft.to/lastmile_qr_scan", "android": "https://dc.lft.to/lastmile_qr_scan"}, "type": "electric_scooter", "name": "dceb9053cbc5b802de0ebb43c4e4d981", "is_reserved": 0, "lon": -77.01423033333333, "is_disabled": 0, "fusion_lat": 0.0, "lat": 38.92027683333333, "bike_id": "dceb9053cbc5b802de0ebb43c4e4d981", "fusion_lon": 0.0}, {"rental_uris": {"ios": "https://dc.lft.to/lastmile_qr_scan", "android": "https://dc.lft.to/lastmile_qr_scan"}, "type": "electric_scooter", "name": "388df2f4cf74ad02be267fe081a85a79", "is_reserved": 0, "lon": -77.012114, "is_disabled": 0, "fusion_lat": 0.0, "lat": 38.90166283333333, "bike_id": "388df2f4cf74ad02be267fe081a85a79", "fusion_lon": 0.0}, {"rental_uris": {"ios": "https://dc.lft.to/lastmile_qr_scan", "android": "https://dc.lft.to/lastmile_qr_scan"}, "type": "electric_scooter", "name": "65f234c2e2043419eb4f29be7218e1b3", "is_reserved": 0, "lon": -77.03782233333334, "is_disabled": 0, "fusion_lat": 0.0, "lat": 38.9232575, "bike_id": "65f234c2e2043419eb4f29be7218e1b3", "fusion_lon": 0.0}, {"rental_uris": {"ios": "https://dc.lft.to/lastmile_qr_scan", "android": "https://dc.lft.to/lastmile_qr_scan"}, "type": "electric_scooter", "name": "0a27ed4ec520f5ad6e86d36e20dc126d", "is_reserved": 0, "lon": -77.04457666666667, "is_disabled": 0, "fusion_lat": 0.0, "lat": 38.903462166666664, "bike_id": "0a27ed4ec520f5ad6e86d36e20dc126d", "fusion_lon": 0.0}, {"rental_uris": {"ios": "https://dc.lft.to/lastmile_qr_scan", "android": "https://dc.lft.to/lastmile_qr_scan"}, "type": "electric_scooter", "name": "6ff03c8943461577935ac650eb35a791", "is_reserved": 0, "lon": -77.02715333333333, "is_disabled": 0, "fusion_lat": 0.0, "lat": 38.910137, "bike_id": "6ff03c8943461577935ac650eb35a791", "fusion_lon": 0.0}, {"rental_uris": {"ios": "https://dc.lft.to/lastmile_qr_scan", "android": "https://dc.lft.to/lastmile_qr_scan"}, "type": "electric_scooter", "name": "f418801c4097c2e002020d7a9e19c58a", "is_reserved": 0, "lon": -76.98543216666667, "is_disabled": 0, "fusion_lat": 0.0, "lat": 38.879965, "bike_id": "f418801c4097c2e002020d7a9e19c58a", "fusion_lon": 0.0}, {"rental_uris": {"ios": "https://dc.lft.to/lastmile_qr_scan", "android": "https://dc.lft.to/lastmile_qr_scan"}, "type": "electric_scooter", "name": "6d050f8c0decdde9aba5690f7dd85e5b", "is_reserved": 0, "lon": -77.043298, "is_disabled": 0, "fusion_lat": 0.0, "lat": 38.9080735, "bike_id": "6d050f8c0decdde9aba5690f7dd85e5b", "fusion_lon": 0.0}, {"rental_uris": {"ios": "https://dc.lft.to/lastmile_qr_scan", "android": "https://dc.lft.to/lastmile_qr_scan"}, "type": "electric_scooter", "name": "de45bc694a51331e868be416af80b4a9", "is_reserved": 0, "lon": -76.98702983333334, "is_disabled": 0, "fusion_lat": 0.0, "lat": 38.859606166666666, "bike_id": "de45bc694a51331e868be416af80b4a9", "fusion_lon": 0.0}, {"rental_uris": {"ios": "https://dc.lft.to/lastmile_qr_scan", "android": "https://dc.lft.to/lastmile_qr_scan"}, "type": "electric_scooter", "name": "b0fc562a66bc87b43447a42f07c1cd79", "is_reserved": 0, "lon": -77.0012495, "is_disabled": 0, "fusion_lat": 0.0, "lat": 38.87795283333333, "bike_id": "b0fc562a66bc87b43447a42f07c1cd79", "fusion_lon": 0.0}, {"rental_uris": {"ios": "https://dc.lft.to/lastmile_qr_scan", "android": "https://dc.lft.to/lastmile_qr_scan"}, "type": "electric_scooter", "name": "9d5db1a66f5df8a233010b28508f1e9f", "is_reserved": 0, "lon": -76.99512016666667, "is_disabled": 0, "fusion_lat": 0.0, "lat": 38.88984983333334, "bike_id": "9d5db1a66f5df8a233010b28508f1e9f", "fusion_lon": 0.0}, {"rental_uris": {"ios": "https://dc.lft.to/lastmile_qr_scan", "android": "https://dc.lft.to/lastmile_qr_scan"}, "type": "electric_scooter", "name": "fdd2c29f5129e12b5de5ac9af663cf52", "is_reserved": 0, "lon": -77.08192116666666, "is_disabled": 0, "fusion_lat": 0.0, "lat": 38.9331845, "bike_id": "fdd2c29f5129e12b5de5ac9af663cf52", "fusion_lon": 0.0}, {"rental_uris": {"ios": "https://dc.lft.to/lastmile_qr_scan", "android": "https://dc.lft.to/lastmile_qr_scan"}, "type": "electric_scooter", "name": "7c3346dcda619fef875e0482dbb2e1b1", "is_reserved": 0, "lon": -77.03186483333333, "is_disabled": 0, "fusion_lat": 0.0, "lat": 38.919302333333334, "bike_id": "7c3346dcda619fef875e0482dbb2e1b1", "fusion_lon": 0.0}, {"rental_uris": {"ios": "https://dc.lft.to/lastmile_qr_scan", "android": "https://dc.lft.to/lastmile_qr_scan"}, "type": "electric_scooter", "name": "b31053a1dee205d9722e9fc646a0309b", "is_reserved": 0, "lon": -77.01179216666667, "is_disabled": 0, "fusion_lat": 0.0, "lat": 38.910941, "bike_id": "b31053a1dee205d9722e9fc646a0309b", "fusion_lon": 0.0}, {"rental_uris": {"ios": "https://dc.lft.to/lastmile_qr_scan", "android": "https://dc.lft.to/lastmile_qr_scan"}, "type": "electric_scooter", "name": "e60a1cbd72d130f24ac376696f5ff251", "is_reserved": 0, "lon": -77.0569465, "is_disabled": 0, "fusion_lat": 0.0, "lat": 38.93714033333333, "bike_id": "e60a1cbd72d130f24ac376696f5ff251", "fusion_lon": 0.0}, {"rental_uris": {"ios": "https://dc.lft.to/lastmile_qr_scan", "android": "https://dc.lft.to/lastmile_qr_scan"}, "type": "electric_scooter", "name": "a5840f0d456099ac07c70ce79cb71ef9", "is_reserved": 0, "lon": -77.0195565, "is_disabled": 0, "fusion_lat": 0.0, "lat": 38.931311, "bike_id": "a5840f0d456099ac07c70ce79cb71ef9", "fusion_lon": 0.0}, {"rental_uris": {"ios": "https://dc.lft.to/lastmile_qr_scan", "android": "https://dc.lft.to/lastmile_qr_scan"}, "type": "electric_scooter", "name": "1dde733bd04e6a2d86aa8c2e500f2c72", "is_reserved": 0, "lon": -77.02161733333334, "is_disabled": 0, "fusion_lat": 0.0, "lat": 38.9161205, "bike_id": "1dde733bd04e6a2d86aa8c2e500f2c72", "fusion_lon": 0.0}, {"rental_uris": {"ios": "https://dc.lft.to/lastmile_qr_scan", "android": "https://dc.lft.to/lastmile_qr_scan"}, "type": "electric_scooter", "name": "309c5a570bc8642db1b1b23a59cf645d", "is_reserved": 0, "lon": -77.01714216666667, "is_disabled": 0, "fusion_lat": 0.0, "lat": 38.914093666666666, "bike_id": "309c5a570bc8642db1b1b23a59cf645d", "fusion_lon": 0.0}, {"rental_uris": {"ios": "https://dc.lft.to/lastmile_qr_scan", "android": "https://dc.lft.to/lastmile_qr_scan"}, "type": "electric_scooter", "name": "8a39f37b85da2c1316bf454b87fe75d4", "is_reserved": 0, "lon": -77.03019483333334, "is_disabled": 0, "fusion_lat": 0.0, "lat": 38.931164833333334, "bike_id": "8a39f37b85da2c1316bf454b87fe75d4", "fusion_lon": 0.0}, {"rental_uris": {"ios": "https://dc.lft.to/lastmile_qr_scan", "android": "https://dc.lft.to/lastmile_qr_scan"}, "type": "electric_scooter", "name": "0cfa159360a3df082b0070d6ba5d6559", "is_reserved": 0, "lon": -77.03841833333334, "is_disabled": 0, "fusion_lat": 0.0, "lat": 38.9128, "bike_id": "0cfa159360a3df082b0070d6ba5d6559", "fusion_lon": 0.0}, {"rental_uris": {"ios": "https://dc.lft.to/lastmile_qr_scan", "android": "https://dc.lft.to/lastmile_qr_scan"}, "type": "electric_scooter", "name": "e72244cd6b72999b9569d4dea637a90a", "is_reserved": 0, "lon": -77.023896, "is_disabled": 0, "fusion_lat": 0.0, "lat": 38.92074866666667, "bike_id": "e72244cd6b72999b9569d4dea637a90a", "fusion_lon": 0.0}, {"rental_uris": {"ios": "https://dc.lft.to/lastmile_qr_scan", "android": "https://dc.lft.to/lastmile_qr_scan"}, "type": "electric_scooter", "name": "22a03786e8210c274540e11e9610b92d", "is_reserved": 0, "lon": -77.03036683333333, "is_disabled": 0, "fusion_lat": 0.0, "lat": 38.99030116666667, "bike_id": "22a03786e8210c274540e11e9610b92d", "fusion_lon": 0.0}, {"rental_uris": {"ios": "https://dc.lft.to/lastmile_qr_scan", "android": "https://dc.lft.to/lastmile_qr_scan"}, "type": "electric_scooter", "name": "be6d7b2f6251bc7bd569c2043eaa64f6", "is_reserved": 0, "lon": -76.9936075, "is_disabled": 0, "fusion_lat": 0.0, "lat": 38.9003715, "bike_id": "be6d7b2f6251bc7bd569c2043eaa64f6", "fusion_lon": 0.0}, {"rental_uris": {"ios": "https://dc.lft.to/lastmile_qr_scan", "android": "https://dc.lft.to/lastmile_qr_scan"}, "type": "electric_scooter", "name": "7ee8115e431f6ac5a64b7b97788fe071", "is_reserved": 0, "lon": -76.93741866666667, "is_disabled": 0, "fusion_lat": 0.0, "lat": 38.89009716666666, "bike_id": "7ee8115e431f6ac5a64b7b97788fe071", "fusion_lon": 0.0}, {"rental_uris": {"ios": "https://dc.lft.to/lastmile_qr_scan", "android": "https://dc.lft.to/lastmile_qr_scan"}, "type": "electric_scooter", "name": "83e716459c8b1fc01adc7b98880f1593", "is_reserved": 0, "lon": -77.023083, "is_disabled": 0, "fusion_lat": 0.0, "lat": 38.898599833333336, "bike_id": "83e716459c8b1fc01adc7b98880f1593", "fusion_lon": 0.0}, {"rental_uris": {"ios": "https://dc.lft.to/lastmile_qr_scan", "android": "https://dc.lft.to/lastmile_qr_scan"}, "type": "electric_scooter", "name": "eee34fff5f0a75e29ca76955df2fa0b8", "is_reserved": 0, "lon": -77.034237, "is_disabled": 0, "fusion_lat": 0.0, "lat": 38.91187466666667, "bike_id": "eee34fff5f0a75e29ca76955df2fa0b8", "fusion_lon": 0.0}, {"rental_uris": {"ios": "https://dc.lft.to/lastmile_qr_scan", "android": "https://dc.lft.to/lastmile_qr_scan"}, "type": "electric_bike", "name": "c47c53115a307509d073ebdf778d0219", "is_reserved": 0, "lon": -76.9770165, "is_disabled": 0, "fusion_lat": 0.0, "lat": 38.822051333333334, "bike_id": "c47c53115a307509d073ebdf778d0219", "fusion_lon": 0.0}, {"rental_uris": {"ios": "https://dc.lft.to/lastmile_qr_scan", "android": "https://dc.lft.to/lastmile_qr_scan"}, "type": "electric_scooter", "name": "0c606c5771163f58894d3e5b23c81d67", "is_reserved": 0, "lon": -77.02831333333333, "is_disabled": 0, "fusion_lat": 0.0, "lat": 38.8873645, "bike_id": "0c606c5771163f58894d3e5b23c81d67", "fusion_lon": 0.0}, {"rental_uris": {"ios": "https://dc.lft.to/lastmile_qr_scan", "android": "https://dc.lft.to/lastmile_qr_scan"}, "type": "electric_scooter", "name": "1640a59a752f49356d65c859f426f913", "is_reserved": 0, "lon": -77.04841266666666, "is_disabled": 0, "fusion_lat": 0.0, "lat": 38.909663333333334, "bike_id": "1640a59a752f49356d65c859f426f913", "fusion_lon": 0.0}, {"rental_uris": {"ios": "https://dc.lft.to/lastmile_qr_scan", "android": "https://dc.lft.to/lastmile_qr_scan"}, "type": "electric_scooter", "name": "f3990e8e895544d0801bd52df647f341", "is_reserved": 0, "lon": -77.040695, "is_disabled": 0, "fusion_lat": 0.0, "lat": 38.91592716666667, "bike_id": "f3990e8e895544d0801bd52df647f341", "fusion_lon": 0.0}, {"rental_uris": {"ios": "https://dc.lft.to/lastmile_qr_scan", "android": "https://dc.lft.to/lastmile_qr_scan"}, "type": "electric_scooter", "name": "28e3aa0aee6f8fefe10c9ded29d61514", "is_reserved": 0, "lon": -76.997225, "is_disabled": 0, "fusion_lat": 0.0, "lat": 38.9203745, "bike_id": "28e3aa0aee6f8fefe10c9ded29d61514", "fusion_lon": 0.0}, {"rental_uris": {"ios": "https://dc.lft.to/lastmile_qr_scan", "android": "https://dc.lft.to/lastmile_qr_scan"}, "type": "electric_scooter", "name": "e2e8eae4f001439a95a01388b994209b", "is_reserved": 0, "lon": -77.03854633333333, "is_disabled": 0, "fusion_lat": 0.0, "lat": 38.924696833333336, "bike_id": "e2e8eae4f001439a95a01388b994209b", "fusion_lon": 0.0},