{"data": {"bikes": [{"bike_id": "c52eab0cb4fedbe9bab94283d3b5aeb5", "fusion_lon": 0.0, "type": "electric_scooter", "name": "c52eab0cb4fedbe9bab94283d3b5aeb5", "rental_uris": {"android": "https://dc.lft.to/lastmile_qr_scan", "ios": "https://dc.lft.to/lastmile_qr_scan"}, "fusion_lat": 0.0, "lat": 38.860737666666665, "is_disabled": 0, "lon": -76.99028033333333, "is_reserved": 0}, {"bike_id": "4673cc23c1093d9f1e29181aaace063a", "fusion_lon": 0.0, "type": "electric_scooter", "name": "4673cc23c1093d9f1e29181aaace063a", "rental_uris": {"android": "https://dc.lft.to/lastmile_qr_scan", "ios": "https://dc.lft.to/lastmile_qr_scan"}, "fusion_lat": 0.0, "lat": 38.877761666666665, "is_disabled": 0, "lon": -77.01441633333333, "is_reserved": 0}, {"bike_id": "56c9001c42e8b4724d70862865e3ac5e", "fusion_lon": 0.0, "type": "electric_bike", "name": "56c9001c42e8b4724d70862865e3ac5e", "rental_uris": {"android": "https://dc.lft.to/lastmile_qr_scan", "ios": "https://dc.lft.to/lastmile_qr_scan"}, "fusion_lat": 0.0, "lat": 39.05347416666667, "is_disabled": 0, "lon": -77.135992, "is_reserved": 0}, {"bike_id": "f900d7bb9c2d2e728d8be2199b366ffc", "fusion_lon": 0.0, "type": "electric_scooter", "name": "f900d7bb9c2d2e728d8be2199b366ffc", "rental_uris": {"android": "https://dc.lft.to/lastmile_qr_scan", "ios": "https://dc.lft.to/lastmile_qr_scan"}, "fusion_lat": 0.0, "lat": 38.92911483333334, "is_disabled": 0, "lon": -77.03619783333333, "is_reserved": 0}, {"bike_id": "2d991e73fb49374b326218d75c74875e", "fusion_lon": 0.0, "type": "electric_scooter", "name": "2d991e73fb49374b326218d75c74875e", "rental_uris": {"android": "https://dc.lft.to/lastmile_qr_scan", "ios": "https://dc.lft.to/lastmile_qr_scan"}, "fusion_lat": 0.0, "lat": 38.844978166666664, "is_disabled": 0, "lon": -76.98757383333333, "is_reserved": 0}, {"bike_id": "b611add2ad4ce5b4df09fd8dbff804da", "fusion_lon": 0.0, "type": "electric_scooter", "name": "b611add2ad4ce5b4df09fd8dbff804da", "rental_uris": {"android": "https://dc.lft.to/lastmile_qr_scan", "ios": "https://dc.lft.to/lastmile_qr_scan"}, "fusion_lat": 0.0, "lat": 38.911756, "is_disabled": 0, "lon": -77.03662233333333, "is_reserved": 0}, {"bike_id": "7f38b6e1f0ec76059d6d5532bcf582f5", "fusion_lon": 0.0, "type": "electric_scooter", "name": "7f38b6e1f0ec76059d6d5532bcf582f5", "rental_uris": {"android": "https://dc.lft.to/lastmile_qr_scan", "ios": "https://dc.lft.to/lastmile_qr_scan"}, "fusion_lat": 0.0, "lat": 38.892225833333335, "is_disabled": 0, "lon": -77.026326, "is_reserved": 0}, {"bike_id": "8e12a8a46e749dd5c74ae6145f2f0b06", "fusion_lon": 0.0, "type": "electric_scooter", "name": "8e12a8a46e749dd5c74ae6145f2f0b06", "rental_uris": {"android": "https://dc.lft.to/lastmile_qr_scan", "ios": "https://dc.lft.to/lastmile_qr_scan"}, "fusion_lat": 0.0, "lat": 38.928648833333334, "is_disabled": 0, "lon": -77.03481033333334, "is_reserved": 0}, {"bike_id": "2326d3fa3f9e3372814b1b2f3f624aaf", "fusion_lon": 0.0, "type": "electric_scooter", "name": "2326d3fa3f9e3372814b1b2f3f624aaf", "rental_uris": {"android": "https://dc.lft.to/lastmile_qr_scan", "ios": "https://dc.lft.to/lastmile_qr_scan"}, "fusion_lat": 0.0, "lat": 38.885001333333335, "is_disabled": 0, "lon": -77.03359666666667, "is_reserved": 0}, {"bike_id": "69c9489ce3f4f23f7f795a755f95dbef", "fusion_lon": 0.0, "type": "electric_scooter", "name": "69c9489ce3f4f23f7f795a755f95dbef", "rental_uris": {"android": "https://dc.lft.to/lastmile_qr_scan", "ios": "https://dc.lft.to/lastmile_qr_scan"}, "fusion_lat": 0.0, "lat": 38.92157016666667, "is_disabled": 0, "lon": -77.03381766666666, "is_reserved": 0}, {"bike_id": "00e0197302107e5cb25daade2325e24f", "fusion_lon": 0.0, "type": "electric_scooter", "name": "00e0197302107e5cb25daade2325e24f", "rental_uris": {"android": "https://dc.lft.to/lastmile_qr_scan", "ios": "https://dc.lft.to/lastmile_qr_scan"}, "fusion_lat": 0.0, "lat": 38.92125516666667, "is_disabled": 0, "lon": -77.04574533333333, "is_reserved": 0}, {"bike_id": "a94fff706eb8e33de8bad875bc896a00", "fusion_lon": 0.0, "type": "electric_scooter", "name": "a94fff706eb8e33de8bad875bc896a00", "rental_uris": {"android": "https://dc.lft.to/lastmile_qr_scan", "ios": "https://dc.lft.to/lastmile_qr_scan"}, "fusion_lat": 0.0, "lat": 38.882992333333334, "is_disabled": 0, "lon": -76.94857366666666, "is_reserved": 0}, {"bike_id": "b146e5ada58c4d79eef4075db3e71875", "fusion_lon": 0.0, "type": "electric_scooter", "name": "b146e5ada58c4d79eef4075db3e71875", "rental_uris": {"android": "https://dc.lft.to/lastmile_qr_scan", "ios": "https://dc.lft.to/lastmile_qr_scan"}, "fusion_lat": 0.0, "lat": 38.894841666666665, "is_disabled": 0, "lon": -76.99519416666666, "is_reserved": 0}, {"bike_id": "074f81f69bd7075fb8b01bd93d275f0a", "fusion_lon": 0.0, "type": "electric_scooter", "name": "074f81f69bd7075fb8b01bd93d275f0a", "rental_uris": {"android": "https://dc.lft.to/lastmile_qr_scan", "ios": "https://dc.lft.to/lastmile_qr_scan"}, "fusion_lat": 0.0, "lat": 38.85760583333333, "is_disabled": 0, "lon": -76.99327183333334, "is_reserved": 0}, {"bike_id": "9ef6004b4e577ea080d66a6ee7088eb3", "fusion_lon": 0.0, "type": "electric_scooter", "name": "9ef6004b4e577ea080d66a6ee7088eb3", "rental_uris": {"android": "https://dc.lft.to/lastmile_qr_scan", "ios": "https://dc.lft.to/lastmile_qr_scan"}, "fusion_lat": 0.0, "lat": 38.8969285, "is_disabled": 0, "lon": -76.99270383333334, "is_reserved": 0}, {"bike_id": "4318c73264246a8f6492c6ae6e9bbcb6", "fusion_lon": 0.0, "type": "electric_scooter", "name": "4318c73264246a8f6492c6ae6e9bbcb6", "rental_uris": {"android": "https://dc.lft.to/lastmile_qr_scan", "ios": "https://dc.lft.to/lastmile_qr_scan"}, "fusion_lat": 0.0, "lat": 38.89884383333333, "is_disabled": 0, "lon": -76.93175816666667, "is_reserved": 0}, {"bike_id": "0906b8d0cb4eafc9570189455b5ae2b9", "fusion_lon": 0.0, "type": "electric_scooter", "name": "0906b8d0cb4eafc9570189455b5ae2b9", "rental_uris": {"android": "https://dc.lft.to/lastmile_qr_scan", "ios": "https://dc.lft.to/lastmile_qr_scan"}, "fusion_lat": 0.0, "lat": 38.94410933333333, "is_disabled": 0, "lon": -77.05521866666666, "is_reserved": 0}, {"bike_id": "af9f9caeeda1769d4df240befbdc9e02", "fusion_lon": 0.0, "type": "electric_scooter", "name": "af9f9caeeda1769d4df240befbdc9e02", "rental_uris": {"android": "https://dc.lft.to/lastmile_qr_scan", "ios": "https://dc.lft.to/lastmile_qr_scan"}, "fusion_lat": 0.0, "lat": 38.894867, "is_disabled": 0, "lon": -76.94845216666667, "is_reserved": 0}, {"bike_id": "c33cf4c79d3df65f123772ecda7adb2f", "fusion_lon": 0.0, "type": "electric_scooter", "name": "c33cf4c79d3df65f123772ecda7adb2f", "rental_uris": {"android": "https://dc.lft.to/lastmile_qr_scan", "ios": "https://dc.lft.to/lastmile_qr_scan"}, "fusion_lat": 0.0, "lat": 38.926754833333334, "is_disabled": 0, "lon": -77.03591716666666, "is_reserved": 0}, {"bike_id": "ddcc4ac5d336d4e629e5e62cf527dd92", "fusion_lon": 0.0, "type": "electric_scooter", "name": "ddcc4ac5d336d4e629e5e62cf527dd92", "rental_uris": {"android": "https://dc.lft.to/lastmile_qr_scan", "ios": "https://dc.lft.to/lastmile_qr_scan"}, "fusion_lat": 0.0, "lat": 38.9260955, "is_disabled": 0, "lon": -77.0528795, "is_reserved": 0}, {"bike_id": "6f59ace46213c18b353aba6b98b16afe", "fusion_lon": 0.0, "type": "electric_scooter", "name": "6f59ace46213c18b353aba6b98b16afe", "rental_uris": {"android": "https://dc.lft.to/lastmile_qr_scan", "ios": "https://dc.lft.to/lastmile_qr_scan"}, "fusion_lat": 0.0, "lat": 38.911551, "is_disabled": 0, "lon": -77.032033, "is_reserved": 0}, {"bike_id": "df2d38da13c4a6964a55e4deff38e34e", "fusion_lon": 0.0, "type": "electric_scooter", "name": "df2d38da13c4a6964a55e4deff38e34e", "rental_uris": {"android": "https://dc.lft.to/lastmile_qr_scan", "ios": "https://dc.lft.to/lastmile_qr_scan"}, "fusion_lat": 0.0, "lat": 38.90258466666667, "is_disabled": 0, "lon": -77.03432266666667, "is_reserved": 0}, {"bike_id": "bf97e3d78820e0602ce97d49f5ed2871", "fusion_lon": 0.0, "type": "electric_scooter", "name": "bf97e3d78820e0602ce97d49f5ed2871", "rental_uris": {"android": "https://dc.lft.to/lastmile_qr_scan", "ios": "https://dc.lft.to/lastmile_qr_scan"}, "fusion_lat": 0.0, "lat": 38.907170666666666, "is_disabled": 0, "lon": -77.0477135, "is_reserved": 0}, {"bike_id": "608a93a6dabdfc4a5c2ca895951071e1", "fusion_lon": 0.0, "type": "electric_scooter", "name": "608a93a6dabdfc4a5c2ca895951071e1", "rental_uris": {"android": "https://dc.lft.to/lastmile_qr_scan", "ios": "https://dc.lft.to/lastmile_qr_scan"}, "fusion_lat": 0.0, "lat": 38.894712, "is_disabled": 0, "lon": -76.93332233333334, "is_reserved": 0}, {"bike_id": "53fc16da8bf2270a2d61c87e0f967014", "fusion_lon": 0.0, "type": "electric_scooter", "name": "53fc16da8bf2270a2d61c87e0f967014", "rental_uris": {"android": "https://dc.lft.to/lastmile_qr_scan", "ios": "https://dc.lft.to/lastmile_qr_scan"}, "fusion_lat": 0.0, "lat": 38.925181, "is_disabled": 0, "lon": -77.03642316666667, "is_reserved": 0}, {"bike_id": "f64aaf8dd33d968658b4102bdf2d4e27", "fusion_lon": 0.0, "type": "electric_scooter", "name": "f64aaf8dd33d968658b4102bdf2d4e27", "rental_uris": {"android": "https://dc.lft.to/lastmile_qr_scan", "ios": "https://dc.lft.to/lastmile_qr_scan"}, "fusion_lat": 0.0, "lat": 38.89833616666667, "is_disabled": 0, "lon": -77.02825583333333, "is_reserved": 0}, {"bike_id": "f5fd592d97d32918609a63289ea85906", "fusion_lon": 0.0, "type": "electric_scooter", "name": "f5fd592d97d32918609a63289ea85906", "rental_uris": {"android": "https://dc.lft.to/lastmile_qr_scan", "ios": "https://dc.lft.to/lastmile_qr_scan"}, "fusion_lat": 0.0, "lat": 38.8842955, "is_disabled": 0, "lon": -76.95760383333334, "is_reserved": 0}, {"bike_id": "b3ba78cd5223a2d9fa247ec22a68b4a1", "fusion_lon": 0.0, "type": "electric_scooter", "name": "b3ba78cd5223a2d9fa247ec22a68b4a1", "rental_uris": {"android": "https://dc.lft.to/lastmile_qr_scan", "ios": "https://dc.lft.to/lastmile_qr_scan"}, "fusion_lat": 0.0, "lat": 38.9061405, "is_disabled": 0, "lon": -77.03730516666667, "is_reserved": 0}, {"bike_id": "ffec27678eb2ae03fee1df89f8b916d5", "fusion_lon": 0.0, "type": "electric_scooter", "name": "ffec27678eb2ae03fee1df89f8b916d5", "rental_uris": {"android": "https://dc.lft.to/lastmile_qr_scan", "ios": "https://dc.lft.to/lastmile_qr_scan"}, "fusion_lat": 0.0, "lat": 38.928875, "is_disabled": 0, "lon": -77.02642883333333, "is_reserved": 0}, {"bike_id": "1b2e8d6b538d2eac1979bc1af933eb25", "fusion_lon": 0.0, "type": "electric_scooter", "name": "1b2e8d6b538d2eac1979bc1af933eb25", "rental_uris": {"android": "https://dc.lft.to/lastmile_qr_scan", "ios": "https://dc.lft.to/lastmile_qr_scan"}, "fusion_lat": 0.0, "lat": 38.883945, "is_disabled": 0, "lon": -76.97464566666666, "is_reserved": 0}, {"bike_id": "6f3f00bece9da6439975571f839e5e46", "fusion_lon": 0.0, "type": "electric_scooter", "name": "6f3f00bece9da6439975571f839e5e46", "rental_uris": {"android": "https://dc.lft.to/lastmile_qr_scan", "ios": "https://dc.lft.to/lastmile_qr_scan"}, "fusion_lat": 0.0, "lat": 38.901332833333335, "is_disabled": 0, "lon": -77.03315433333333, "is_reserved": 0}, {"bike_id": "3428558c4f59594d9f698516ace7cc24", "fusion_lon": 0.0, "type": "electric_scooter", "name": "3428558c4f59594d9f698516ace7cc24", "rental_uris": {"android": "https://dc.lft.to/lastmile_qr_scan", "ios": "https://dc.lft.to/lastmile_qr_scan"}, "fusion_lat": 0.0, "lat": 38.90764933333333, "is_disabled": 0, "lon": -77.03213833333334, "is_reserved": 0}, {"bike_id": "4a947b5cab38fcb1e0490a52911dcfee", "fusion_lon": 0.0, "type": "electric_bike", "name": "4a947b5cab38fcb1e0490a52911dcfee", "rental_uris": {"android": "https://dc.lft.to/lastmile_qr_scan", "ios": "https://dc.lft.to/lastmile_qr_scan"}, "fusion_lat": 0.0, "lat": 38.94197366666667, "is_disabled": 0, "lon": -77.02428133333333, "is_reserved": 0}, {"bike_id": "a7b2440068f020a1199f55937562f8b3", "fusion_lon": 0.0, "type": "electric_scooter", "name": "a7b2440068f020a1199f55937562f8b3", "rental_uris": {"android": "https://dc.lft.to/lastmile_qr_scan", "ios": "https://dc.lft.to/lastmile_qr_scan"}, "fusion_lat": 0.0, "lat": 38.933621, "is_disabled": 0, "lon": -77.03742933333334, "is_reserved": 0}, {"bike_id": "12b99f557640b9d3b8f391a348fb848f", "fusion_lon": 0.0, "type": "electric_bike", "name": "12b99f557640b9d3b8f391a348fb848f", "rental_uris": {"android": "https://dc.lft.to/lastmile_qr_scan", "ios": "https://dc.lft.to/lastmile_qr_scan"}, "fusion_lat": 0.0, "lat": 38.892816, "is_disabled": 0, "lon": -76.97631066666666, "is_reserved": 0}, {"bike_id": "58e3122297f6f5496b41ed3509e091e4", "fusion_lon": 0.0, "type": "electric_bike", "name": "58e3122297f6f5496b41ed3509e091e4", "rental_uris": {"android": "https://dc.lft.to/lastmile_qr_scan", "ios": "https://dc.lft.to/lastmile_qr_scan"}, "fusion_lat": 0.0, "lat": 38.956163333333336, "is_disabled": 0, "lon": -77.03608016666666, "is_reserved": 0}, {"bike_id": "f9aeb38e2356b9d790575434e8b6e589", "fusion_lon": 0.0, "type": "electric_scooter", "name": "f9aeb38e2356b9d790575434e8b6e589", "rental_uris": {"android": "https://dc.lft.to/lastmile_qr_scan", "ios": "https://dc.lft.to/lastmile_qr_scan"}, "fusion_lat": 0.0, "lat": 38.87783316666667, "is_disabled": 0, "lon": -76.9940855, "is_reserved": 0}, {"bike_id": "2126936552368c3f5c65f21469ed74c3", "fusion_lon": 0.0, "type": "electric_scooter", "name": "2126936552368c3f5c65f21469ed74c3", "rental_uris": {"android": "https://dc.lft.to/lastmile_qr_scan", "ios": "https://dc.lft.to/lastmile_qr_scan"}, "fusion_lat": 0.0, "lat": 38.908736833333336, "is_disabled": 0, "lon": -77.00369066666667, "is_reserved": 0}, {"bike_id": "b42b001e41158670cc46a968bc089d3a", "fusion_lon": 0.0, "type": "electric_scooter", "name": "b42b001e41158670cc46a968bc089d3a", "rental_uris": {"android": "https://dc.lft.to/lastmile_qr_scan", "ios": "https://dc.lft.to/lastmile_qr_scan"}, "fusion_lat": 0.0, "lat": 38.92905783333333, "is_disabled": 0, "lon": -77.06399233333333, "is_reserved": 0}, {"bike_id": "750f6e6d7640fd9d0d1742c33ab1d14e", "fusion_lon": 0.0, "type": "electric_scooter", "name": "750f6e6d7640fd9d0d1742c33ab1d14e", "rental_uris": {"android": "https://dc.lft.to/lastmile_qr_scan", "ios": "https://dc.lft.to/lastmile_qr_scan"}, "fusion_lat": 0.0, "lat": 38.8992315, "is_disabled": 0, "lon": -76.98607333333334, "is_reserved": 0}, {"bike_id": "6774ef2dde932fd664e9a4c110114803", "fusion_lon": 0.0, "type": "electric_scooter", "name": "6774ef2dde932fd664e9a4c110114803", "rental_uris": {"android": "https://dc.lft.to/lastmile_qr_scan", "ios": "https://dc.lft.to/lastmile_qr_scan"}, "fusion_lat": 0.0, "lat": 38.898850333333336, "is_disabled": 0, "lon": -77.05299633333334, "is_reserved": 0}, {"bike_id": "f7374e42881b54060affeffca56ebbaa", "fusion_lon": 0.0, "type": "electric_scooter", "name": "f7374e42881b54060affeffca56ebbaa", "rental_uris": {"android": "https://dc.lft.to/lastmile_qr_scan", "ios": "https://dc.lft.to/lastmile_qr_scan"}, "fusion_lat": 0.0, "lat": 38.9118195, "is_disabled": 0, "lon": -77.04505466666667, "is_reserved": 0}, {"bike_id": "a0337b20715842d909b39ed155f3037d", "fusion_lon": 0.0, "type": "electric_scooter", "name": "a0337b20715842d909b39ed155f3037d", "rental_uris": {"android": "https://dc.lft.to/lastmile_qr_scan", "ios": "https://dc.lft.to/lastmile_qr_scan"}, "fusion_lat": 0.0, "lat": 38.9337025, "is_disabled": 0, "lon": -77.057295, "is_reserved": 0}, {"bike_id": "42210f4e8871d2850cc311b856e06f10", "fusion_lon": 0.0, "type": "electric_scooter", "name": "42210f4e8871d2850cc311b856e06f10", "rental_uris": {"android": "https://dc.lft.to/lastmile_qr_scan", "ios": "https://dc.lft.to/lastmile_qr_scan"}, "fusion_lat": 0.0, "lat": 38.9267785, "is_disabled": 0, "lon": -77.0076005, "is_reserved": 0}, {"bike_id": "790a07f83148d251f9f2e73ae6bffb96", "fusion_lon": 0.0, "type": "electric_scooter", "name": "790a07f83148d251f9f2e73ae6bffb96", "rental_uris": {"android": "https://dc.lft.to/lastmile_qr_scan", "ios": "https://dc.lft.to/lastmile_qr_scan"}, "fusion_lat": 0.0, "lat": 38.90959983333333, "is_disabled": 0, "lon": -77.0404065, "is_reserved": 0}, {"bike_id": "0bb614ab21b86e5037046170cafd7f09", "fusion_lon": 0.0, "type": "electric_scooter", "name": "0bb614ab21b86e5037046170cafd7f09", "rental_uris": {"android": "https://dc.lft.to/lastmile_qr_scan", "ios": "https://dc.lft.to/lastmile_qr_scan"}, "fusion_lat": 0.0, "lat": 38.90297416666667, "is_disabled": 0, "lon": -77.0345545, "is_reserved": 0}, {"bike_id": "a66b0aa832d767708710d1880d390cfc", "fusion_lon": 0.0, "type": "electric_scooter", "name": "a66b0aa832d767708710d1880d390cfc", "rental_uris": {"android": "https://dc.lft.to/lastmile_qr_scan", "ios": "https://dc.lft.to/lastmile_qr_scan"}, "fusion_lat": 0.0, "lat": 38.8848445, "is_disabled": 0, "lon": -77.02166066666666, "is_reserved": 0}, {"bike_id": "d9effc0800e16538ce6856341a5c3766", "fusion_lon": 0.0, "type": "electric_scooter", "name": "d9effc0800e16538ce6856341a5c3766", "rental_uris": {"android": "https://dc.lft.to/lastmile_qr_scan", "ios": "https://dc.lft.to/lastmile_qr_scan"}, "fusion_lat": 0.0, "lat": 38.92223883333333, "is_disabled": 0, "lon": -77.0433955, "is_reserved": 0}, {"bike_id": "e1c09d45175bab5e6cde2ffe31c77a16", "fusion_lon": 0.0, "type": "electric_bike", "name": "e1c09d45175bab5e6cde2ffe31c77a16", "rental_uris": {"android": "https://dc.lft.to/lastmile_qr_scan", "ios": "https://dc.lft.to/lastmile_qr_scan"}, "fusion_lat": 0.0, "lat": 38.88115783333333, "is_disabled": 0, "lon": -77.11148383333334, "is_reserved": 0}, {"bike_id": "0e57a23688153c63b05b5536d6d63fe6", "fusion_lon": 0.0, "type": "electric_scooter", "name": "0e57a23688153c63b05b5536d6d63fe6", "rental_uris": {"android": "https://dc.lft.to/lastmile_qr_scan", "ios": "https://dc.lft.to/lastmile_qr_scan"}, "fusion_lat": 0.0, "lat": 38.90039066666667, "is_disabled": 0, "lon": -76.99626616666667, "is_reserved": 0}, {"bike_id": "f6dc99920addddc5775f8c6aaf86d58c", "fusion_lon": 0.0, "type": "electric_scooter", "name": "f6dc99920addddc5775f8c6aaf86d58c", "rental_uris": {"android": "https://dc.lft.to/lastmile_qr_scan", "ios": "https://dc.lft.to/lastmile_qr_scan"}, "fusion_lat": 0.0, "lat": 38.93588283333333, "is_disabled": 0, "lon": -77.01942633333333, "is_reserved": 0}, {"bike_id": "cad29c5dee8716edcd76009979fca190", "fusion_lon": 0.0, "type": "electric_scooter", "name": "cad29c5dee8716edcd76009979fca190", "rental_uris": {"android": "https://dc.lft.to/lastmile_qr_scan", "ios": "https://dc.lft.to/lastmile_qr_scan"}, "fusion_lat": 0.0, "lat": 38.9018375, "is_disabled": 0, "lon": -77.022191, "is_reserved": 0}, {"bike_id": "c3c3783220025bf0245b5ce3a62b10cf", "fusion_lon": 0.0, "type": "electric_scooter", "name": "c3c3783220025bf0245b5ce3a62b10cf", "rental_uris": {"android": "https://dc.lft.to/lastmile_qr_scan", "ios": "https://dc.lft.to/lastmile_qr_scan"}, "fusion_lat": 0.0, "lat": 38.931034, "is_disabled": 0, "lon": -77.0379765, "is_reserved": 0}, {"bike_id": "4e15bf11c84bd37b7ff7993c83478d0a", "fusion_lon": 0.0, "type": "electric_scooter", "name": "4e15bf11c84bd37b7ff7993c83478d0a", "rental_uris": {"android": "https://dc.lft.to/lastmile_qr_scan", "ios": "https://dc.lft.to/lastmile_qr_scan"}, "fusion_lat": 0.0, "lat": 38.91989183333333, "is_disabled": 0, "lon": -77.03977216666667, "is_reserved": 0}, {"bike_id": "9770b53c6a55b54f0e417b62fbbe749e", "fusion_lon": 0.0, "type": "electric_scooter", "name": "9770b53c6a55b54f0e417b62fbbe749e", "rental_uris": {"android": "https://dc.lft.to/lastmile_qr_scan", "ios": "https://dc.lft.to/lastmile_qr_scan"}, "fusion_lat": 0.0, "lat": 38.89953416666667, "is_disabled": 0, "lon": -76.98567716666666, "is_reserved": 0}, {"bike_id": "7ed92e746ed577aa0d4da8c47aeee87e", "fusion_lon": 0.0, "type": "electric_scooter", "name": "7ed92e746ed577aa0d4da8c47aeee87e", "rental_uris": {"android": "https://dc.lft.to/lastmile_qr_scan", "ios": "https://dc.lft.to/lastmile_qr_scan"}, "fusion_lat": 0.0, "lat": 38.8841925, "is_disabled": 0, "lon": -76.99544983333334, "is_reserved": 0}, {"bike_id": "578f11d7b6bb725c565ccfe1d56ec64f", "fusion_lon": 0.0, "type": "electric_scooter", "name": "578f11d7b6bb725c565ccfe1d56ec64f", "rental_uris": {"android": "https://dc.lft.to/lastmile_qr_scan", "ios": "https://dc.lft.to/lastmile_qr_scan"}, "fusion_lat": 0.0, "lat": 38.962088333333334, "is_disabled": 0, "lon": -77.02342133333333, "is_reserved": 0}, {"bike_id": "54a19fb0468721b0b939a2722fab4f50", "fusion_lon": 0.0, "type": "electric_scooter", "name": "54a19fb0468721b0b939a2722fab4f50", "rental_uris": {"android": "https://dc.lft.to/lastmile_qr_scan", "ios": "https://dc.lft.to/lastmile_qr_scan"}, "fusion_lat": 0.0, "lat": 38.905910166666665, "is_disabled": 0, "lon": -77.0627795, "is_reserved": 0}, {"bike_id": "73736c2959fbc1998f115cf9438c034c", "fusion_lon": 0.0, "type": "electric_scooter", "name": "73736c2959fbc1998f115cf9438c034c", "rental_uris": {"android": "https://dc.lft.to/lastmile_qr_scan", "ios": "https://dc.lft.to/lastmile_qr_scan"}, "fusion_lat": 0.0, "lat": 38.9385745, "is_disabled": 0, "lon": -77.02463916666666, "is_reserved": 0}, {"bike_id": "9aa71bf99b7cf2f69221449c39c8b125", "fusion_lon": 0.0, "type": "electric_scooter", "name": "9aa71bf99b7cf2f69221449c39c8b125", "rental_uris": {"android": "https://dc.lft.to/lastmile_qr_scan", "ios": "https://dc.lft.to/lastmile_qr_scan"}, "fusion_lat": 0.0, "lat": 38.8771845, "is_disabled": 0, "lon": -77.00736516666667, "is_reserved": 0}, {"bike_id": "1bab838634e76eb28d1395e3dd7e21eb", "fusion_lon": 0.0, "type": "electric_scooter", "name": "1bab838634e76eb28d1395e3dd7e21eb", "rental_uris": {"android": "https://dc.lft.to/lastmile_qr_scan", "ios": "https://dc.lft.to/lastmile_qr_scan"}, "fusion_lat": 0.0, "lat": 38.868911, "is_disabled": 0, "lon": -76.9830915, "is_reserved": 0}, {"bike_id": "ee74a6f837132475053c562b4169aebf", "fusion_lon": 0.0, "type": "electric_scooter", "name": "ee74a6f837132475053c562b4169aebf", "rental_uris": {"android": "https://dc.lft.to/lastmile_qr_scan", "ios": "https://dc.lft.to/lastmile_qr_scan"}, "fusion_lat": 0.0, "lat": 38.897184, "is_disabled": 0, "lon": -77.03162783333333, "is_reserved": 0}, {"bike_id": "7ac55e5f768fde215d86e6516294b5e2", "fusion_lon": 0.0, "type": "electric_bike", "name": "7ac55e5f768fde215d86e6516294b5e2", "rental_uris": {"android": "https://dc.lft.to/lastmile_qr_scan", "ios": "https://dc.lft.to/lastmile_qr_scan"}, "fusion_lat": 0.0, "lat": 38.861632, "is_disabled": 0, "lon": -77.13094583333333, "is_reserved": 0}, {"bike_id": "5fb8fb4c7c74af725fa98269c20ffb91", "fusion_lon": 0.0, "type": "electric_scooter", "name": "5fb8fb4c7c74af725fa98269c20ffb91", "rental_uris": {"android": "https://dc.lft.to/lastmile_qr_scan", "ios": "https://dc.lft.to/lastmile_qr_scan"}, "fusion_lat": 0.0, "lat": 38.9220145, "is_disabled": 0, "lon": -77.04259283333333, "is_reserved": 0}, {"bike_id": "ec7ff2379b8f0cd1d60b0a833ba21ee0", "fusion_lon": 0.0, "type": "electric_scooter", "name": "ec7ff2379b8f0cd1d60b0a833ba21ee0", "rental_uris": {"android": "https://dc.lft.to/lastmile_qr_scan", "ios": "https://dc.lft.to/lastmile_qr_scan"}, "fusion_lat": 0.0, "lat": 38.88737166666667, "is_disabled": 0, "lon": -77.03181883333333, "is_reserved": 0}, {"bike_id": "d55f5447721966251dea5df07fe93795", "fusion_lon": 0.0, "type": "electric_scooter", "name": "d55f5447721966251dea5df07fe93795", "rental_uris": {"android": "https://dc.lft.to/lastmile_qr_scan", "ios": "https://dc.lft.to/lastmile_qr_scan"}, "fusion_lat": 0.0, "lat": 38.9329255, "is_disabled": 0, "lon": -77.02443066666666, "is_reserved": 0}, {"bike_id": "e8bd2c78f15337b26bde910866d6a145", "fusion_lon": 0.0, "type": "electric_scooter", "name": "e8bd2c78f15337b26bde910866d6a145", "rental_uris": {"android": "https://dc.lft.to/lastmile_qr_scan", "ios": "https://dc.lft.to/lastmile_qr_scan"}, "fusion_lat": 0.0, "lat": 38.9224145, "is_disabled": 0, "lon": -77.03516783333333, "is_reserved": 0}, {"bike_id": "6eadb0672cf1099b60035a03a1e0b4e3", "fusion_lon": 0.0, "type": "electric_scooter", "name": "6eadb0672cf1099b60035a03a1e0b4e3", "rental_uris": {"android": "https://dc.lft.to/lastmile_qr_scan", "ios": "https://dc.lft.to/lastmile_qr_scan"}, "fusion_lat": 0.0, "lat": 38.9036365, "is_disabled": 0, "lon": -77.01111816666666, "is_reserved": 0}, {"bike_id": "b58951f4292afa11d73c97a9b46ad9b2", "fusion_lon": 0.0, "type": "electric_bike", "name": "b58951f4292afa11d73c97a9b46ad9b2", "rental_uris": {"android": "https://dc.lft.to/lastmile_qr_scan", "ios": "https://dc.lft.to/lastmile_qr_scan"}, "fusion_lat": 0.0, "lat": 38.935022333333336, "is_disabled": 0, "lon": -76.94960983333333, "is_reserved": 0}, {"bike_id": "243b9a65960dd306b61bb5919dcd7218", "fusion_lon": 0.0, "type": "electric_scooter", "name": "243b9a65960dd306b61bb5919dcd7218", "rental_uris": {"android": "https://dc.lft.to/lastmile_qr_scan", "ios": "https://dc.lft.to/lastmile_qr_scan"}, "fusion_lat": 0.0, "lat": 38.916019166666665, "is_disabled": 0, "lon": -77.02819416666667, "is_reserved": 0}, {"bike_id": "7b90fb5507e37adbcfef625b280a0935", "fusion_lon": 0.0, "type": "electric_bike", "name": "7b90fb5507e37adbcfef625b280a0935", "rental_uris": {"android": "https://dc.lft.to/lastmile_qr_scan", "ios": "https://dc.lft.to/lastmile_qr_scan"}, "fusion_lat": 0.0, "lat": 38.923248666666666, "is_disabled": 0, "lon": -77.03805816666667, "is_reserved": 0}, {"bike_id": "ebd30e7908bea7318fda1867dcf8ddda", "fusion_lon": 0.0, "type": "electric_bike", "name": "ebd30e7908bea7318fda1867dcf8ddda", "rental_uris": {"android": "https://dc.lft.to/lastmile_qr_scan", "ios": "https://dc.lft.to/lastmile_qr_scan"}, "fusion_lat": 0.0, "lat": 38.9176775, "is_disabled": 0, "lon": -77.0101785, "is_reserved": 0}, {"bike_id": "a0840b831589091c50b374c00d5c4e36", "fusion_lon": 0.0, "type": "electric_scooter", "name": "a0840b831589091c50b374c00d5c4e36", "rental_uris": {"android": "https://dc.lft.to/lastmile_qr_scan", "ios": "https://dc.lft.to/lastmile_qr_scan"}, "fusion_lat": 0.0, "lat": 38.907593, "is_disabled": 0, "lon": -77.03210466666667, "is_reserved": 0}, {"bike_id": "5fd51baf900a1a6436c7a8eeec7b262f", "fusion_lon": 0.0, "type": "electric_scooter", "name": "5fd51baf900a1a6436c7a8eeec7b262f", "rental_uris": {"android": "https://dc.lft.to/lastmile_qr_scan", "ios": "https://dc.lft.to/lastmile_qr_scan"}, "fusion_lat": 0.0, "lat": 38.8921715, "is_disabled": 0, "lon": -77.02717833333334, "is_reserved": 0}, {"bike_id": "ab37c91dc5be9294d6f47b69093d47e4", "fusion_lon": 0.0, "type": "electric_scooter", "name": "ab37c91dc5be9294d6f47b69093d47e4", "rental_uris": {"android": "https://dc.lft.to/lastmile_qr_scan", "ios": "https://dc.lft.to/lastmile_qr_scan"}, "fusion_lat": 0.0, "lat": 38.874594, "is_disabled": 0, "lon": -77.00608166666666, "is_reserved": 0}, {"bike_id": "b398696769ee23327b1c590660b00659", "fusion_lon": 0.0, "type": "electric_scooter", "name": "b398696769ee23327b1c590660b00659", "rental_uris": {"android": "https://dc.lft.to/lastmile_qr_scan", "ios": "https://dc.lft.to/lastmile_qr_scan"}, "fusion_lat": 0.0, "lat": 38.927403, "is_disabled": 0, "lon": -77.0254065, "is_reserved": 0}, {"bike_id": "4efb7e4b6fa583b5ca99fda24d8ffbb0", "fusion_lon": 0.0, "type": "electric_scooter", "name": "4efb7e4b6fa583b5ca99fda24d8ffbb0", "rental_uris": {"android": "https://dc.lft.to/lastmile_qr_scan", "ios": "https://dc.lft.to/lastmile_qr_scan"}, "fusion_lat": 0.0, "lat": 38.921299833333336, "is_disabled": 0, "lon": -77.04597733333334, "is_reserved": 0}, {"bike_id": "10eb849381e8f05374facdaf031b4b1a", "fusion_lon": 0.0, "type": "electric_scooter", "name": "10eb849381e8f05374facdaf031b4b1a", "rental_uris": {"android": "https://dc.lft.to/lastmile_qr_scan", "ios": "https://dc.lft.to/lastmile_qr_scan"}, "fusion_lat": 0.0, "lat": 38.93518483333333, "is_disabled": 0, "lon": -77.02544616666667, "is_reserved": 0}, {"bike_id": "9357885d12726562edab9843084cbb6e", "fusion_lon": 0.0, "type": "electric_bike", "name": "9357885d12726562edab9843084cbb6e", "rental_uris": {"android": "https://dc.lft.to/lastmile_qr_scan", "ios": "https://dc.lft.to/lastmile_qr_scan"}, "fusion_lat": 0.0, "lat": 38.9856295, "is_disabled": 0, "lon": -76.9883175, "is_reserved": 0}, {"bike_id": "33d3be31ddb366d0829b1d443055a34d", "fusion_lon": 0.0, "type": "electric_scooter", "name": "33d3be31ddb366d0829b1d443055a34d", "rental_uris": {"android": "https://dc.lft.to/lastmile_qr_scan", "ios": "https://dc.lft.to/lastmile_qr_scan"}, "fusion_lat": 0.0, "lat": 38.87474533333334, "is_disabled": 0, "lon": -77.00683266666667, "is_reserved": 0}, {"bike_id": "0d94e33b4ef0ecd255238cf4bcebcad0", "fusion_lon": 0.0, "type": "electric_scooter", "name": "0d94e33b4ef0ecd255238cf4bcebcad0", "rental_uris": {"android": "https://dc.lft.to/lastmile_qr_scan", "ios": "https://dc.lft.to/lastmile_qr_scan"}, "fusion_lat": 0.0, "lat": 38.906476, "is_disabled": 0, "lon": -77.0179535, "is_reserved": 0}, {"bike_id": "84847dabcd082726ad97a3c18219fc38", "fusion_lon": 0.0, "type": "electric_scooter", "name": "84847dabcd082726ad97a3c18219fc38", "rental_uris": {"android": "https://dc.lft.to/lastmile_qr_scan", "ios": "https://dc.lft.to/lastmile_qr_scan"}, "fusion_lat": 0.0, "lat": 38.901721, "is_disabled": 0, "lon": -77.02215983333333, "is_reserved": 0}, {"bike_id": "8e8b0c0ebc2923b50beb0c3b3624c494", "fusion_lon": 0.0, "type": "electric_scooter", "name": "8e8b0c0ebc2923b50beb0c3b3624c494", "rental_uris": {"android": "https://dc.lft.to/lastmile_qr_scan", "ios": "https://dc.lft.to/lastmile_qr_scan"}, "fusion_lat": 0.0, "lat": 38.90064116666667, "is_disabled": 0, "lon": -77.05071633333333, "is_reserved": 0}, {"bike_id": "9fd9a1e45f1d861061b718c1348edf99", "fusion_lon": 0.0, "type": "electric_scooter", "name": "9fd9a1e45f1d861061b718c1348edf99", "rental_uris": {"android": "https://dc.lft.to/lastmile_qr_scan", "ios": "https://dc.lft.to/lastmile_qr_scan"}, "fusion_lat": 0.0, "lat": 38.89991333333333, "is_disabled": 0, "lon": -77.01925116666666, "is_reserved": 0}, {"bike_id": "b8b65d184c1caf7a975865b8adaa7843", "fusion_lon": 0.0, "type": "electric_scooter", "name": "b8b65d184c1caf7a975865b8adaa7843", "rental_uris": {"android": "https://dc.lft.to/lastmile_qr_scan", "ios": "https://dc.lft.to/lastmile_qr_scan"}, "fusion_lat": 0.0, "lat": 38.93325733333333, "is_disabled": 0, "lon": -77.02351433333334, "is_reserved": 0}, {"bike_id": "b0dd666ba99b375012c4413dc36b70fa", "fusion_lon": 0.0, "type": "electric_scooter", "name": "b0dd666ba99b375012c4413dc36b70fa", "rental_uris": {"android": "https://dc.lft.to/lastmile_qr_scan", "ios": "https://dc.lft.to/lastmile_qr_scan"}, "fusion_lat": 0.0, "lat": 38.9007755, "is_disabled": 0, "lon": -77.04823616666667, "is_reserved": 0}, {"bike_id": "cf4b858343e3b74293ea3481f5d9d100", "fusion_lon": 0.0, "type": "electric_bike", "name": "cf4b858343e3b74293ea3481f5d9d100", "rental_uris": {"android": "https://dc.lft.to/lastmile_qr_scan", "ios": "https://dc.lft.to/lastmile_qr_scan"}, "fusion_lat": 0.0, "lat": 38.91966266666667, "is_disabled": 0, "lon": -76.99950883333334, "is_reserved": 0}, {"bike_id": "60f4b03d423928804681b07e9d5c79c4", "fusion_lon": 0.0, "type": "electric_scooter", "name": "60f4b03d423928804681b07e9d5c79c4", "rental_uris": {"android": "https://dc.lft.to/lastmile_qr_scan", "ios": "https://dc.lft.to/lastmile_qr_scan"}, "fusion_lat": 0.0, "lat": 38.917891833333336, "is_disabled": 0, "lon": -77.04255116666667, "is_reserved": 0}, {"bike_id": "468413861383046da19342164e42dc3e", "fusion_lon": 0.0, "type": "electric_bike", "name": "468413861383046da19342164e42dc3e", "rental_uris": {"android": "https://dc.lft.to/lastmile_qr_scan", "ios": "https://dc.lft.to/lastmile_qr_scan"}, "fusion_lat": 0.0, "lat": 38.848996166666666, "is_disabled": 0, "lon": -77.10117266666667, "is_reserved": 0}, {"bike_id": "9d2fc345fe891a10fea00a80c97de96f", "fusion_lon": 0.0, "type": "electric_scooter", "name": "9d2fc345fe891a10fea00a80c97de96f", "rental_uris": {"android": "https://dc.lft.to/lastmile_qr_scan", "ios": "https://dc.lft.to/lastmile_qr_scan"}, "fusion_lat": 0.0, "lat": 38.888633666666664, "is_disabled": 0, "lon": -76.996042, "is_reserved": 0}, {"bike_id": "f953bd228925a3b77647743e05c2f751", "fusion_lon": 0.0, "type": "electric_scooter", "name": "f953bd228925a3b77647743e05c2f751", "rental_uris": {"android": "https://dc.lft.to/lastmile_qr_scan", "ios": "https://dc.lft.to/lastmile_qr_scan"}, "fusion_lat": 0.0, "lat": 38.92821266666667, "is_disabled": 0, "lon": -77.02162233333334, "is_reserved": 0}, {"bike_id": "383bd37b55c4e76b94f46fa1c81238c4", "fusion_lon": 0.0, "type": "electric_scooter", "name": "383bd37b55c4e76b94f46fa1c81238c4", "rental_uris": {"android": "https://dc.lft.to/lastmile_qr_scan", "ios": "https://dc.lft.to/lastmile_qr_scan"}, "fusion_lat": 0.0, "lat": 38.859748333333336, "is_disabled": 0, "lon": -76.98416433333334, "is_reserved": 0}, {"bike_id": "848fcf01ec084f4b9700e54ea3bd58c4", "fusion_lon": 0.0, "type": "electric_scooter", "name": "848fcf01ec084f4b9700e54ea3bd58c4", "rental_uris": {"android": "https://dc.lft.to/lastmile_qr_scan", "ios": "https://dc.lft.to/lastmile_qr_scan"}, "fusion_lat": 0.0, "lat": 38.907664833333335, "is_disabled": 0, "lon": -77.04521733333333, "is_reserved": 0}, {"bike_id": "904bbe3f8ba876b8df7624fb9fa5cb70", "fusion_lon": 0.0, "type": "electric_bike", "name": "904bbe3f8ba876b8df7624fb9fa5cb70", "rental_uris": {"android": "https://dc.lft.to/lastmile_qr_scan", "ios": "https://dc.lft.to/lastmile_qr_scan"}, "fusion_lat": 0.0, "lat": 38.92847116666667, "is_disabled": 0, "lon": -77.10511283333334, "is_reserved": 0}, {"bike_id": "63901fcbb11695001ddec0c8d4a60a03", "fusion_lon": 0.0, "type": "electric_scooter", "name": "63901fcbb11695001ddec0c8d4a60a03", "rental_uris": {"android": "https://dc.lft.to/lastmile_qr_scan", "ios": "https://dc.lft.to/lastmile_qr_scan"}, "fusion_lat": 0.0, "lat": 38.91894283333333, "is_disabled": 0, "lon": -77.02434783333334, "is_reserved": 0}, {"bike_id": "d0db1cc48b446899acbd99458e4a1209", "fusion_lon": 0.0, "type": "electric_scooter", "name": "d0db1cc48b446899acbd99458e4a1209", "rental_uris": {"android": "https://dc.lft.to/lastmile_qr_scan", "ios": "https://dc.lft.to/lastmile_qr_scan"}, "fusion_lat": 0.0, "lat": 38.94288866666667, "is_disabled": 0, "lon": -77.02764166666667, "is_reserved": 0}, {"bike_id": "71034a31052e74870cb615723c75479a", "fusion_lon": 0.0, "type": "electric_scooter", "name": "71034a31052e74870cb615723c75479a", "rental_uris": {"android": "https://dc.lft.to/lastmile_qr_scan", "ios": "https://dc.lft.to/lastmile_qr_scan"}, "fusion_lat": 0.0, "lat": 38.89934483333333, "is_disabled": 0, "lon": -77.05526966666666, "is_reserved": 0}, {"bike_id": "98ac95a8a82ca456129c4c82bf45bfe1", "fusion_lon": 0.0, "type": "electric_scooter", "name": "98ac95a8a82ca456129c4c82bf45bfe1", "rental_uris": {"android": "https://dc.lft.to/lastmile_qr_scan", "ios": "https://dc.lft.to/lastmile_qr_scan"}, "fusion_lat": 0.0, "lat": 38.900374666666664, "is_disabled": 0, "lon": -76.99609083333333, "is_reserved": 0}, {"bike_id": "362b8c3651060f3a7eb199255da4cad1", "fusion_lon": 0.0, "type": "electric_scooter", "name": "362b8c3651060f3a7eb199255da4cad1", "rental_uris": {"android": "https://dc.lft.to/lastmile_qr_scan", "ios": "https://dc.lft.to/lastmile_qr_scan"}, "fusion_lat": 0.0, "lat": 38.91714283333334, "is_disabled": 0, "lon": -77.03860866666666, "is_reserved": 0}, {"bike_id": "b214ec787e87317a5a906181c9b75b93", "fusion_lon": 0.0, "type": "electric_scooter", "name": "b214ec787e87317a5a906181c9b75b93", "rental_uris": {"android": "https://dc.lft.to/lastmile_qr_scan", "ios": "https://dc.lft.to/lastmile_qr_scan"}, "fusion_lat": 0.0, "lat": 38.91694833333333, "is_disabled": 0, "lon": -77.00801883333334, "is_reserved": 0}, {"bike_id": "7a773d13b72bbc7ce0441fcb5168cbc3", "fusion_lon": 0.0, "type": "electric_scooter", "name": "7a773d13b72bbc7ce0441fcb5168cbc3", "rental_uris": {"android": "https://dc.lft.to/lastmile_qr_scan", "ios": "https://dc.lft.to/lastmile_qr_scan"}, "fusion_lat": 0.0, "lat": 38.92644333333333, "is_disabled": 0, "lon": -77.0370235, "is_reserved": 0}, {"bike_id": "45d69c24cf691840bd2d0c881f5b64d2", "fusion_lon": 0.0, "type": "electric_scooter", "name": "45d69c24cf691840bd2d0c881f5b64d2", "rental_uris": {"android": "https://dc.lft.to/lastmile_qr_scan", "ios": "https://dc.lft.to/lastmile_qr_scan"}, "fusion_lat": 0.0, "lat": 38.92845166666667, "is_disabled": 0, "lon": -77.01586666666667, "is_reserved": 0}, {"bike_id": "324945f04906396582ef1947a4cf9bf3", "fusion_lon": 0.0, "type": "electric_bike", "name": "324945f04906396582ef1947a4cf9bf3", "rental_uris": {"android": "https://dc.lft.to/lastmile_qr_scan", "ios": "https://dc.lft.to/lastmile_qr_scan"}, "fusion_lat": 0.0, "lat": 38.89578383333333, "is_disabled": 0, "lon": -76.976215, "is_reserved": 0}, {"bike_id": "9b5dc6aa75bd88a965584b553e6e6971", "fusion_lon": 0.0, "type": "electric_scooter", "name": "9b5dc6aa75bd88a965584b553e6e6971", "rental_uris": {"android": "https://dc.lft.to/lastmile_qr_scan", "ios": "https://dc.lft.to/lastmile_qr_scan"}, "fusion_lat": 0.0, "lat": 38.872436666666665, "is_disabled": 0, "lon": -77.01064833333334, "is_reserved": 0}, {"bike_id": "356f5f6337e7fd9864c4b68df9b0bd7e", "fusion_lon": 0.0, "type": "electric_scooter", "name": "356f5f6337e7fd9864c4b68df9b0bd7e", "rental_uris": {"android": "https://dc.lft.to/lastmile_qr_scan", "ios": "https://dc.lft.to/lastmile_qr_scan"}, "fusion_lat": 0.0, "lat": 38.9388285, "is_disabled": 0, "lon": -77.02482916666666, "is_reserved": 0}, {"bike_id": "9161c5bb7ae1146d49322dbb275dbfe9", "fusion_lon": 0.0, "type": "electric_scooter", "name": "9161c5bb7ae1146d49322dbb275dbfe9", "rental_uris": {"android": "https://dc.lft.to/lastmile_qr_scan", "ios": "https://dc.lft.to/lastmile_qr_scan"}, "fusion_lat": 0.0, "lat": 38.930021833333335, "is_disabled": 0, "lon": -77.03278933333333, "is_reserved": 0}, {"bike_id": "708dbc1032f1ef7173b56636c092b7d2", "fusion_lon": 0.0, "type": "electric_scooter", "name": "708dbc1032f1ef7173b56636c092b7d2", "rental_uris": {"android": "https://dc.lft.to/lastmile_qr_scan", "ios": "https://dc.lft.to/lastmile_qr_scan"}, "fusion_lat": 0.0, "lat": 38.91549366666667, "is_disabled": 0, "lon": -77.02207083333333, "is_reserved": 0}, {"bike_id": "151d2c91d6e45af03f7292d4bacca258", "fusion_lon": 0.0, "type": "electric_scooter", "name": "151d2c91d6e45af03f7292d4bacca258", "rental_uris": {"android": "https://dc.lft.to/lastmile_qr_scan", "ios": "https://dc.lft.to/lastmile_qr_scan"}, "fusion_lat": 0.0, "lat": 38.890106, "is_disabled": 0, "lon": -76.93740666666666, "is_reserved": 0}, {"bike_id": "58d3767b1a6dd03db79f441ef52d8b28", "fusion_lon": 0.0, "type": "electric_scooter", "name": "58d3767b1a6dd03db79f441ef52d8b28", "rental_uris": {"android": "https://dc.lft.to/lastmile_qr_scan", "ios": "https://dc.lft.to/lastmile_qr_scan"}, "fusion_lat": 0.0, "lat": 38.924242166666666, "is_disabled": 0, "lon": -77.03625383333333, "is_reserved": 0}, {"bike_id": "5e0360d2083d591f07b9feffa2073645", "fusion_lon": 0.0, "type": "electric_scooter", "name": "5e0360d2083d591f07b9feffa2073645", "rental_uris": {"android": "https://dc.lft.to/lastmile_qr_scan", "ios": "https://dc.lft.to/lastmile_qr_scan"}, "fusion_lat": 0.0, "lat": 38.957612, "is_disabled": 0, "lon": -77.01590183333333, "is_reserved": 0}, {"bike_id": "45391abb19e9ccfbbe9fc02c45b66789", "fusion_lon": 0.0, "type": "electric_scooter", "name": "45391abb19e9ccfbbe9fc02c45b66789", "rental_uris": {"android": "https://dc.lft.to/lastmile_qr_scan", "ios": "https://dc.lft.to/lastmile_qr_scan"}, "fusion_lat": 0.0, "lat": 38.927124, "is_disabled": 0, "lon": -77.02395566666667, "is_reserved": 0}, {"bike_id": "e0727e042587e97aea2e908b392fdbee", "fusion_lon": 0.0, "type": "electric_scooter", "name": "e0727e042587e97aea2e908b392fdbee", "rental_uris": {"android": "https://dc.lft.to/lastmile_qr_scan", "ios": "https://dc.lft.to/lastmile_qr_scan"}, "fusion_lat": 0.0, "lat": 38.921043166666664, "is_disabled": 0, "lon": -77.04368516666666, "is_reserved": 0}, {"bike_id": "f431d5fe617954b8751143827b903074", "fusion_lon": 0.0, "type": "electric_scooter", "name": "f431d5fe617954b8751143827b903074", "rental_uris": {"android": "https://dc.lft.to/lastmile_qr_scan", "ios": "https://dc.lft.to/lastmile_qr_scan"}, "fusion_lat": 0.0, "lat": 38.8913575, "is_disabled": 0, "lon": -76.95182833333334, "is_reserved": 0}, {"bike_id": "8bbb9a522bc6a3c1e24b6be119e24a4b", "fusion_lon": 0.0, "type": "electric_scooter", "name": "8bbb9a522bc6a3c1e24b6be119e24a4b", "rental_uris": {"android": "https://dc.lft.to/lastmile_qr_scan", "ios": "https://dc.lft.to/lastmile_qr_scan"}, "fusion_lat": 0.0, "lat": 38.906257, "is_disabled": 0, "lon": -77.005738, "is_reserved": 0}, {"bike_id": "9aa7e0c126d421c77805786aad31932b", "fusion_lon": 0.0, "type": "electric_scooter", "name": "9aa7e0c126d421c77805786aad31932b", "rental_uris": {"android": "https://dc.lft.to/lastmile_qr_scan", "ios": "https://dc.lft.to/lastmile_qr_scan"}, "fusion_lat": 0.0, "lat": 38.90864916666666, "is_disabled": 0, "lon": -77.0125335, "is_reserved": 0}, {"bike_id": "84709dd22f72a4312dd08ac041019422", "fusion_lon": 0.0, "type": "electric_scooter", "name": "84709dd22f72a4312dd08ac041019422", "rental_uris": {"android": "https://dc.lft.to/lastmile_qr_scan", "ios": "https://dc.lft.to/lastmile_qr_scan"}, "fusion_lat": 0.0, "lat": 38.93328533333333, "is_disabled": 0, "lon": -77.03276, "is_reserved": 0}, {"bike_id": "fe2449095c492058d1ed8c3df7a30e05", "fusion_lon": 0.0, "type": "electric_scooter", "name": "fe2449095c492058d1ed8c3df7a30e05", "rental_uris": {"android": "https://dc.lft.to/lastmile_qr_scan", "ios": "https://dc.lft.to/lastmile_qr_scan"}, "fusion_lat": 0.0, "lat": 38.926445666666666, "is_disabled": 0, "lon": -77.03703916666667, "is_reserved": 0}, {"bike_id": "5c4e6d0f07deb8fb332f2fb3832ed22e", "fusion_lon": 0.0, "type": "electric_scooter", "name": "5c4e6d0f07deb8fb332f2fb3832ed22e", "rental_uris": {"android": "https://dc.lft.to/lastmile_qr_scan", "ios": "https://dc.lft.to/lastmile_qr_scan"}, "fusion_lat": 0.0, "lat": 38.8747945, "is_disabled": 0, "lon": -76.96522783333333, "is_reserved": 0}, {"bike_id": "b2ed90877cd2970f77f31d201b6d9bac", "fusion_lon": 0.0, "type": "electric_scooter", "name": "b2ed90877cd2970f77f31d201b6d9bac", "rental_uris": {"android": "https://dc.lft.to/lastmile_qr_scan", "ios": "https://dc.lft.to/lastmile_qr_scan"}, "fusion_lat": 0.0, "lat": 38.92271366666667, "is_disabled": 0, "lon": -76.9942375, "is_reserved": 0}, {"bike_id": "d4f146e0869739041010b4fe3d930f49", "fusion_lon": 0.0, "type": "electric_scooter", "name": "d4f146e0869739041010b4fe3d930f49", "rental_uris": {"android": "https://dc.lft.to/lastmile_qr_scan", "ios": "https://dc.lft.to/lastmile_qr_scan"}, "fusion_lat": 0.0, "lat": 38.950022, "is_disabled": 0, "lon": -77.02705866666666, "is_reserved": 0}, {"bike_id": "2b766dfa412a302f96ed68c27910d9b3", "fusion_lon": 0.0, "type": "electric_scooter", "name": "2b766dfa412a302f96ed68c27910d9b3", "rental_uris": {"android": "https://dc.lft.to/lastmile_qr_scan", "ios": "https://dc.lft.to/lastmile_qr_scan"}, "fusion_lat": 0.0, "lat": 38.92447716666667, "is_disabled": 0, "lon": -77.052337, "is_reserved": 0}, {"bike_id": "776778c1936d2caa0bf2503c32b7446c", "fusion_lon": 0.0, "type": "electric_scooter", "name": "776778c1936d2caa0bf2503c32b7446c", "rental_uris": {"android": "https://dc.lft.to/lastmile_qr_scan", "ios": "https://dc.lft.to/lastmile_qr_scan"}, "fusion_lat": 0.0, "lat": 38.912696333333336, "is_disabled": 0, "lon": -77.0222305, "is_reserved": 0}, {"bike_id": "15502a62e2fb32f44302fc89920dc1e1", "fusion_lon": 0.0, "type": "electric_scooter", "name": "15502a62e2fb32f44302fc89920dc1e1", "rental_uris": {"android": "https://dc.lft.to/lastmile_qr_scan", "ios": "https://dc.lft.to/lastmile_qr_scan"}, "fusion_lat": 0.0, "lat": 38.91710166666667, "is_disabled": 0, "lon": -77.03866916666666, "is_reserved": 0}, {"bike_id": "1c714de1d1beb02fce287062f33e96fb", "fusion_lon": 0.0, "type": "electric_scooter", "name": "1c714de1d1beb02fce287062f33e96fb", "rental_uris": {"android": "https://dc.lft.to/lastmile_qr_scan", "ios": "https://dc.lft.to/lastmile_qr_scan"}, "fusion_lat": 0.0, "lat": 38.90020633333334, "is_disabled": 0, "lon": -76.98853583333333, "is_reserved": 0}, {"bike_id": "80a2f5140720ca14b57c5e3cb5fbc522", "fusion_lon": 0.0, "type": "electric_scooter", "name": "80a2f5140720ca14b57c5e3cb5fbc522", "rental_uris": {"android": "https://dc.lft.to/lastmile_qr_scan", "ios": "https://dc.lft.to/lastmile_qr_scan"}, "fusion_lat": 0.0, "lat": 38.919432666666665, "is_disabled": 0, "lon": -77.01357716666666, "is_reserved": 0}, {"bike_id": "82909158e249cbf538ef4506502ec383", "fusion_lon": 0.0, "type": "electric_scooter", "name": "82909158e249cbf538ef4506502ec383", "rental_uris": {"android": "https://dc.lft.to/lastmile_qr_scan", "ios": "https://dc.lft.to/lastmile_qr_scan"}, "fusion_lat": 0.0, "lat": 38.90845183333333, "is_disabled": 0, "lon": -77.02599533333333, "is_reserved": 0}, {"bike_id": "ba98df087c5fd9ef876a52b5aaa63e53", "fusion_lon": 0.0, "type": "electric_scooter", "name": "ba98df087c5fd9ef876a52b5aaa63e53", "rental_uris": {"android": "https://dc.lft.to/lastmile_qr_scan", "ios": "https://dc.lft.to/lastmile_qr_scan"}, "fusion_lat": 0.0, "lat": 38.8571875, "is_disabled": 0, "lon": -76.9709535, "is_reserved": 0}, {"bike_id": "7436581a20f84a4436f0dee5218d5ac8", "fusion_lon": 0.0, "type": "electric_scooter", "name": "7436581a20f84a4436f0dee5218d5ac8", "rental_uris": {"android": "https://dc.lft.to/lastmile_qr_scan", "ios": "https://dc.lft.to/lastmile_qr_scan"}, "fusion_lat": 0.0, "lat": 38.89672216666666, "is_disabled": 0, "lon": -77.032512, "is_reserved": 0}, {"bike_id": "7b04fd1bac8d849f783f84ed6667b9d1", "fusion_lon": 0.0, "type": "electric_scooter", "name": "7b04fd1bac8d849f783f84ed6667b9d1", "rental_uris": {"android": "https://dc.lft.to/lastmile_qr_scan", "ios": "https://dc.lft.to/lastmile_qr_scan"}, "fusion_lat": 0.0, "lat": 38.9290405, "is_disabled": 0, "lon": -77.04378916666667, "is_reserved": 0}, {"bike_id": "40e7a6f0226fc84f0a0cec69d2574cc0", "fusion_lon": 0.0, "type": "electric_scooter", "name": "40e7a6f0226fc84f0a0cec69d2574cc0", "rental_uris": {"android": "https://dc.lft.to/lastmile_qr_scan", "ios": "https://dc.lft.to/lastmile_qr_scan"}, "fusion_lat": 0.0, "lat": 38.895131666666664, "is_disabled": 0, "lon": -77.02681966666667, "is_reserved": 0}, {"bike_id": "f6fefac4e377448e905c41962939e4f7", "fusion_lon": 0.0, "type": "electric_scooter", "name": "f6fefac4e377448e905c41962939e4f7", "rental_uris": {"android": "https://dc.lft.to/lastmile_qr_scan", "ios": "https://dc.lft.to/lastmile_qr_scan"}, "fusion_lat": 0.0, "lat": 38.921872, "is_disabled": 0, "lon": -77.04004933333333, "is_reserved": 0}, {"bike_id": "13e7d3dd8ebf41cd825e847941049edb", "fusion_lon": 0.0, "type": "electric_scooter", "name": "13e7d3dd8ebf41cd825e847941049edb", "rental_uris": {"android": "https://dc.lft.to/lastmile_qr_scan", "ios": "https://dc.lft.to/lastmile_qr_scan"}, "fusion_lat": 0.0, "lat": 38.912590333333334, "is_disabled": 0, "lon": -77.03873866666666, "is_reserved": 0}, {"bike_id": "c340f891783229205b558bb00f7cbd1b", "fusion_lon": 0.0, "type": "electric_scooter", "name": "c340f891783229205b558bb00f7cbd1b", "rental_uris": {"android": "https://dc.lft.to/lastmile_qr_scan", "ios": "https://dc.lft.to/lastmile_qr_scan"}, "fusion_lat": 0.0, "lat": 38.91184633333334, "is_disabled": 0, "lon": -77.00260583333333, "is_reserved": 0}, {"bike_id": "6b04e96a5c8dd0c2162acd85d8ed736a", "fusion_lon": 0.0, "type": "electric_scooter", "name": "6b04e96a5c8dd0c2162acd85d8ed736a", "rental_uris": {"android": "https://dc.lft.to/lastmile_qr_scan", "ios": "https://dc.lft.to/lastmile_qr_scan"}, "fusion_lat": 0.0, "lat": 38.89609166666666, "is_disabled": 0, "lon": -76.956602, "is_reserved": 0}, {"bike_id": "40d7536dcc11dd8e2a01ca5e655e5cbf", "fusion_lon": 0.0, "type": "electric_bike", "name": "40d7536dcc11dd8e2a01ca5e655e5cbf", "rental_uris": {"android": "https://dc.lft.to/lastmile_qr_scan", "ios": "https://dc.lft.to/lastmile_qr_scan"}, "fusion_lat": 0.0, "lat": 38.901010666666664, "is_disabled": 0, "lon": -77.03167416666666, "is_reserved": 0}, {"bike_id": "503c87d81d0e0a9501ca16c02be56d03", "fusion_lon": 0.0, "type": "electric_bike", "name": "503c87d81d0e0a9501ca16c02be56d03", "rental_uris": {"android": "https://dc.lft.to/lastmile_qr_scan", "ios": "https://dc.lft.to/lastmile_qr_scan"}, "fusion_lat": 0.0, "lat": 38.9574065, "is_disabled": 0, "lon": -76.97252616666667, "is_reserved": 0}, {"bike_id": "b139f61abac1a087d41ed691e8362e6a", "fusion_lon": 0.0, "type": "electric_scooter", "name": "b139f61abac1a087d41ed691e8362e6a", "rental_uris": {"android": "https://dc.lft.to/lastmile_qr_scan", "ios": "https://dc.lft.to/lastmile_qr_scan"}, "fusion_lat": 0.0, "lat": 38.924612, "is_disabled": 0, "lon": -77.07825066666666, "is_reserved": 0}, {"bike_id": "d19b7e1792332939bf704dcbe9487f80", "fusion_lon": 0.0, "type": "electric_scooter", "name": "d19b7e1792332939bf704dcbe9487f80", "rental_uris": {"android": "https://dc.lft.to/lastmile_qr_scan", "ios": "https://dc.lft.to/lastmile_qr_scan"}, "fusion_lat": 0.0, "lat": 38.898262, "is_disabled": 0, "lon": -76.946551, "is_reserved": 0}, {"bike_id": "321b487edc001c63d59b7f82361f5296", "fusion_lon": 0.0, "type": "electric_scooter", "name": "321b487edc001c63d59b7f82361f5296", "rental_uris": {"android": "https://dc.lft.to/lastmile_qr_scan", "ios": "https://dc.lft.to/lastmile_qr_scan"}, "fusion_lat": 0.0, "lat": 38.897243333333336, "is_disabled": 0, "lon": -77.03350133333333, "is_reserved": 0}, {"bike_id": "5875dc51b4b4809765a3aa899cc38c73", "fusion_lon": 0.0, "type": "electric_bike", "name": "5875dc51b4b4809765a3aa899cc38c73", "rental_uris": {"android": "https://dc.lft.to/lastmile_qr_scan", "ios": "https://dc.lft.to/lastmile_qr_scan"}, "fusion_lat": 0.0, "lat": 38.89352216666666, "is_disabled": 0, "lon": -77.187416, "is_reserved": 0}, {"bike_id": "8dddfbfcfb3bfd0ea3ac447ecdd2a8f7", "fusion_lon": 0.0, "type": "electric_scooter", "name": "8dddfbfcfb3bfd0ea3ac447ecdd2a8f7", "rental_uris": {"android": "https://dc.lft.to/lastmile_qr_scan", "ios": "https://dc.lft.to/lastmile_qr_scan"}, "fusion_lat": 0.0, "lat": 38.90282, "is_disabled": 0, "lon": -77.0346815, "is_reserved": 0}, {"bike_id": "1a0646bdec7cba490541a7bd073451f4", "fusion_lon": 0.0, "type": "electric_bike", "name": "1a0646bdec7cba490541a7bd073451f4", "rental_uris": {"android": "https://dc.lft.to/lastmile_qr_scan", "ios": "https://dc.lft.to/lastmile_qr_scan"}, "fusion_lat": 0.0, "lat": 38.83193583333333, "is_disabled": 0, "lon": -77.076912, "is_reserved": 0}, {"bike_id": "55563abfc2a91ec5a06919b045510f0c", "fusion_lon": 0.0, "type": "electric_scooter", "name": "55563abfc2a91ec5a06919b045510f0c", "rental_uris": {"android": "https://dc.lft.to/lastmile_qr_scan", "ios": "https://dc.lft.to/lastmile_qr_scan"}, "fusion_lat": 0.0, "lat": 38.95614233333333, "is_disabled": 0, "lon": -77.0281655, "is_reserved": 0}, {"bike_id": "7279165d530d1e32f3b9dc175da85bf1", "fusion_lon": 0.0, "type": "electric_bike", "name": "7279165d530d1e32f3b9dc175da85bf1", "rental_uris": {"android": "https://dc.lft.to/lastmile_qr_scan", "ios": "https://dc.lft.to/lastmile_qr_scan"}, "fusion_lat": 0.0, "lat": 38.94430116666667, "is_disabled": 0, "lon": -76.9873935, "is_reserved": 0}, {"bike_id": "17ed3f20ec8e9823f21ede7b4de8fc96", "fusion_lon": 0.0, "type": "electric_scooter", "name": "17ed3f20ec8e9823f21ede7b4de8fc96", "rental_uris": {"android": "https://dc.lft.to/lastmile_qr_scan", "ios": "https://dc.lft.to/lastmile_qr_scan"}, "fusion_lat": 0.0, "lat": 38.92419733333333, "is_disabled": 0, "lon": -77.0562705, "is_reserved": 0}, {"bike_id": "14b1d883d37cc5fde43e49f07742bb12", "fusion_lon": 0.0, "type": "electric_scooter", "name": "14b1d883d37cc5fde43e49f07742bb12", "rental_uris": {"android": "https://dc.lft.to/lastmile_qr_scan", "ios": "https://dc.lft.to/lastmile_qr_scan"}, "fusion_lat": 0.0, "lat": 38.90369233333333, "is_disabled": 0, "lon": -77.06769133333333, "is_reserved": 0}, {"bike_id": "9c7faa309785dd24d91bd9b098aa162d", "fusion_lon": 0.0, "type": "electric_scooter", "name": "9c7faa309785dd24d91bd9b098aa162d", "rental_uris": {"android": "https://dc.lft.to/lastmile_qr_scan", "ios": "https://dc.lft.to/lastmile_qr_scan"}, "fusion_lat": 0.0, "lat": 38.9126495, "is_disabled": 0, "lon": -77.045577, "is_reserved": 0}, {"bike_id": "6ffb44198a251bdf999a86d8f67f1f84", "fusion_lon": 0.0, "type": "electric_scooter", "name": "6ffb44198a251bdf999a86d8f67f1f84", "rental_uris": {"android": "https://dc.lft.to/lastmile_qr_scan", "ios": "https://dc.lft.to/lastmile_qr_scan"}, "fusion_lat": 0.0, "lat": 38.90231766666667, "is_disabled": 0, "lon": -77.04777883333334, "is_reserved": 0}, {"bike_id": "4513584cc19b3fcc4d694e166cf5d92d", "fusion_lon": 0.0, "type": "electric_scooter", "name": "4513584cc19b3fcc4d694e166cf5d92d", "rental_uris": {"android": "https://dc.lft.to/lastmile_qr_scan", "ios": "https://dc.lft.to/lastmile_qr_scan"}, "fusion_lat": 0.0, "lat": 38.90111916666667, "is_disabled": 0, "lon": -77.048754, "is_reserved": 0}, {"bike_id": "7c8cea9d76627c1bb3a8140bd371d7b6", "fusion_lon": 0.0, "type": "electric_scooter", "name": "7c8cea9d76627c1bb3a8140bd371d7b6", "rental_uris": {"android": "https://dc.lft.to/lastmile_qr_scan", "ios": "https://dc.lft.to/lastmile_qr_scan"}, "fusion_lat": 0.0, "lat": 38.920897833333335, "is_disabled": 0, "lon": -77.07562933333334, "is_reserved": 0}, {"bike_id": "94d33d333d68806b3514fd731cfacb9b", "fusion_lon": 0.0, "type": "electric_scooter", "name": "94d33d333d68806b3514fd731cfacb9b", "rental_uris": {"android": "https://dc.lft.to/lastmile_qr_scan", "ios": "https://dc.lft.to/lastmile_qr_scan"}, "fusion_lat": 0.0, "lat": 38.87921516666667, "is_disabled": 0, "lon": -76.99165283333333, "is_reserved": 0}, {"bike_id": "34ee04f72d9df59e0baa9bd9ddc393fb", "fusion_lon": 0.0, "type": "electric_bike", "name": "34ee04f72d9df59e0baa9bd9ddc393fb", "rental_uris": {"android": "https://dc.lft.to/lastmile_qr_scan", "ios": "https://dc.lft.to/lastmile_qr_scan"}, "fusion_lat": 0.0, "lat": 38.89189733333333, "is_disabled": 0, "lon": -77.12266083333333, "is_reserved": 0}, {"bike_id": "49bf2662252f781df23c6f2cf6098a00", "fusion_lon": 0.0, "type": "electric_bike", "name": "49bf2662252f781df23c6f2cf6098a00", "rental_uris": {"android": "https://dc.lft.to/lastmile_qr_scan", "ios": "https://dc.lft.to/lastmile_qr_scan"}, "fusion_lat": 0.0, "lat": 38.828701833333334, "is_disabled": 0, "lon": -77.11228533333333, "is_reserved": 0}, {"bike_id": "56618f7d417353458e534abd193f02b0", "fusion_lon": 0.0, "type": "electric_bike", "name": "56618f7d417353458e534abd193f02b0", "rental_uris": {"android": "https://dc.lft.to/lastmile_qr_scan", "ios": "https://dc.lft.to/lastmile_qr_scan"}, "fusion_lat": 0.0, "lat": 38.95549316666666, "is_disabled": 0, "lon": -76.93539866666667, "is_reserved": 0}, {"bike_id": "0368bace1d79dc68f19326ab1323f429", "fusion_lon": 0.0, "type": "electric_scooter", "name": "0368bace1d79dc68f19326ab1323f429", "rental_uris": {"android": "https://dc.lft.to/lastmile_qr_scan", "ios": "https://dc.lft.to/lastmile_qr_scan"}, "fusion_lat": 0.0, "lat": 38.9572325, "is_disabled": 0, "lon": -77.03571766666667, "is_reserved": 0}, {"bike_id": "6e31403f43d51018e2ce3096519687bc", "fusion_lon": 0.0, "type": "electric_scooter", "name": "6e31403f43d51018e2ce3096519687bc", "rental_uris": {"android": "https://dc.lft.to/lastmile_qr_scan", "ios": "https://dc.lft.to/lastmile_qr_scan"}, "fusion_lat": 0.0, "lat": 38.9022835, "is_disabled": 0, "lon": -77.0475975, "is_reserved": 0}, {"bike_id": "004243e3024d2095bf8dd084d2c01f91", "fusion_lon": 0.0, "type": "electric_scooter", "name": "004243e3024d2095bf8dd084d2c01f91", "rental_uris": {"android": "https://dc.lft.to/lastmile_qr_scan", "ios": "https://dc.lft.to/lastmile_qr_scan"}, "fusion_lat": 0.0, "lat": 38.90555883333333, "is_disabled": 0, "lon": -77.010994, "is_reserved": 0}, {"bike_id": "e6b9dee4529caa096f20bf249cc5d74e", "fusion_lon": 0.0, "type": "electric_scooter", "name": "e6b9dee4529caa096f20bf249cc5d74e", "rental_uris": {"android": "https://dc.lft.to/lastmile_qr_scan", "ios": "https://dc.lft.to/lastmile_qr_scan"}, "fusion_lat": 0.0, "lat": 38.8922625, "is_disabled": 0, "lon": -77.04866866666667, "is_reserved": 0}, {"bike_id": "f8451fb06d63b75a8d1b2f9ed2c6d60e", "fusion_lon": 0.0, "type": "electric_scooter", "name": "f8451fb06d63b75a8d1b2f9ed2c6d60e", "rental_uris": {"android": "https://dc.lft.to/lastmile_qr_scan", "ios": "https://dc.lft.to/lastmile_qr_scan"}, "fusion_lat": 0.0, "lat": 38.915516333333336, "is_disabled": 0, "lon": -77.02431716666666, "is_reserved": 0}, {"bike_id": "7d1dc426eebfcaefb032c60a81ead2cd", "fusion_lon": 0.0, "type": "electric_scooter", "name": "7d1dc426eebfcaefb032c60a81ead2cd", "rental_uris": {"android": "https://dc.lft.to/lastmile_qr_scan", "ios": "https://dc.lft.to/lastmile_qr_scan"}, "fusion_lat": 0.0, "lat": 38.92380983333334, "is_disabled": 0, "lon": -77.04090966666666, "is_reserved": 0}, {"bike_id": "8d94acd64d65ab75635b92e3a8ebe539", "fusion_lon": 0.0, "type": "electric_scooter", "name": "8d94acd64d65ab75635b92e3a8ebe539", "rental_uris": {"android": "https://dc.lft.to/lastmile_qr_scan", "ios": "https://dc.lft.to/lastmile_qr_scan"}, "fusion_lat": 0.0, "lat": 38.93591966666666, "is_disabled": 0, "lon": -77.03366566666666, "is_reserved": 0}, {"bike_id": "ab8da4d8c628d551bed2c19985dd25de", "fusion_lon": 0.0, "type": "electric_scooter", "name": "ab8da4d8c628d551bed2c19985dd25de", "rental_uris": {"android": "https://dc.lft.to/lastmile_qr_scan", "ios": "https://dc.lft.to/lastmile_qr_scan"}, "fusion_lat": 0.0, "lat": 38.89619066666667, "is_disabled": 0, "lon": -76.99932166666666, "is_reserved": 0}, {"bike_id": "fffec493d8b63a45cdd1a760b44cfbbf", "fusion_lon": 0.0, "type": "electric_scooter", "name": "fffec493d8b63a45cdd1a760b44cfbbf", "rental_uris": {"android": "https://dc.lft.to/lastmile_qr_scan", "ios": "https://dc.lft.to/lastmile_qr_scan"}, "fusion_lat": 0.0, "lat": 38.905716166666664, "is_disabled": 0, "lon": -77.06267816666667, "is_reserved": 0}, {"bike_id": "d7c9e42a55e0ad40773bc1d4c64aefff", "fusion_lon": 0.0, "type": "electric_scooter", "name": "d7c9e42a55e0ad40773bc1d4c64aefff", "rental_uris": {"android": "https://dc.lft.to/lastmile_qr_scan", "ios": "https://dc.lft.to/lastmile_qr_scan"}, "fusion_lat": 0.0, "lat": 38.93322833333333, "is_disabled": 0, "lon": -77.037998, "is_reserved": 0}, {"bike_id": "84c81d7fd9487f895a8d9c9321a8c314", "fusion_lon": 0.0, "type": "electric_scooter", "name": "84c81d7fd9487f895a8d9c9321a8c314", "rental_uris": {"android": "https://dc.lft.to/lastmile_qr_scan", "ios": "https://dc.lft.to/lastmile_qr_scan"}, "fusion_lat": 0.0, "lat": 38.894075666666666, "is_disabled": 0, "lon": -76.98565566666667, "is_reserved": 0}, {"bike_id": "bedf112460bb9dca3b7dc7c7782a3262", "fusion_lon": 0.0, "type": "electric_scooter", "name": "bedf112460bb9dca3b7dc7c7782a3262", "rental_uris": {"android": "https://dc.lft.to/lastmile_qr_scan", "ios": "https://dc.lft.to/lastmile_qr_scan"}, "fusion_lat": 0.0, "lat": 38.9044135, "is_disabled": 0, "lon": -77.028841, "is_reserved": 0}, {"bike_id": "bdc4ef1f5c9cd0ee54fb6bacd766c0c8", "fusion_lon": 0.0, "type": "electric_scooter", "name": "bdc4ef1f5c9cd0ee54fb6bacd766c0c8", "rental_uris": {"android": "https://dc.lft.to/lastmile_qr_scan", "ios": "https://dc.lft.to/lastmile_qr_scan"}, "fusion_lat": 0.0, "lat": 38.925058, "is_disabled": 0, "lon": -77.025814, "is_reserved": 0}, {"bike_id": "aff6b3a2c493a5d54fe6048c12784d01", "fusion_lon": 0.0, "type": "electric_scooter", "name": "aff6b3a2c493a5d54fe6048c12784d01", "rental_uris": {"android": "https://dc.lft.to/lastmile_qr_scan", "ios": "https://dc.lft.to/lastmile_qr_scan"}, "fusion_lat": 0.0, "lat": 38.91906183333333, "is_disabled": 0, "lon": -77.02136216666666, "is_reserved": 0}, {"bike_id": "4eadcfcbd12afd6e6b3c06c2340418be", "fusion_lon": 0.0, "type": "electric_scooter", "name": "4eadcfcbd12afd6e6b3c06c2340418be", "rental_uris": {"android": "https://dc.lft.to/lastmile_qr_scan", "ios": "https://dc.lft.to/lastmile_qr_scan"}, "fusion_lat": 0.0, "lat": 38.95130183333333, "is_disabled": 0, "lon": -77.02726233333334, "is_reserved": 0}, {"bike_id": "300ae50d2e86c6b53e03954f9e4640d7", "fusion_lon": 0.0, "type": "electric_scooter", "name": "300ae50d2e86c6b53e03954f9e4640d7", "rental_uris": {"android": "https://dc.lft.to/lastmile_qr_scan", "ios": "https://dc.lft.to/lastmile_qr_scan"}, "fusion_lat": 0.0, "lat": 38.918159, "is_disabled": 0, "lon": -77.03291666666667, "is_reserved": 0}, {"bike_id": "8699196f1bac16d3693ada2424ed3eca", "fusion_lon": 0.0, "type": "electric_scooter", "name": "8699196f1bac16d3693ada2424ed3eca", "rental_uris": {"android": "https://dc.lft.to/lastmile_qr_scan", "ios": "https://dc.lft.to/lastmile_qr_scan"}, "fusion_lat": 0.0, "lat": 38.90874733333333, "is_disabled": 0, "lon": -77.03227333333334, "is_reserved": 0}, {"bike_id": "092fa5b234b02fea4217716176414b26", "fusion_lon": 0.0, "type": "electric_scooter", "name": "092fa5b234b02fea4217716176414b26", "rental_uris": {"android": "https://dc.lft.to/lastmile_qr_scan", "ios": "https://dc.lft.to/lastmile_qr_scan"}, "fusion_lat": 0.0, "lat": 38.905019, "is_disabled": 0, "lon": -77.02956266666666, "is_reserved": 0}, {"bike_id": "9826ac01e7c863f739bee9c3d1aa2968", "fusion_lon": 0.0, "type": "electric_scooter", "name": "9826ac01e7c863f739bee9c3d1aa2968", "rental_uris": {"android": "https://dc.lft.to/lastmile_qr_scan", "ios": "https://dc.lft.to/lastmile_qr_scan"}, "fusion_lat": 0.0, "lat": 38.930475333333334, "is_disabled": 0, "lon": -77.03634483333333, "is_reserved": 0}, {"bike_id": "4c0072f7a366871270c5475cb6193a84", "fusion_lon": 0.0, "type": "electric_scooter", "name": "4c0072f7a366871270c5475cb6193a84", "rental_uris": {"android": "https://dc.lft.to/lastmile_qr_scan", "ios": "https://dc.lft.to/lastmile_qr_scan"}, "fusion_lat": 0.0, "lat": 38.902174, "is_disabled": 0, "lon": -76.99018916666667, "is_reserved": 0}, {"bike_id": "90b445eb9fced65efabf3bdc71a5899e", "fusion_lon": 0.0, "type": "electric_scooter", "name": "90b445eb9fced65efabf3bdc71a5899e", "rental_uris": {"android": "https://dc.lft.to/lastmile_qr_scan", "ios": "https://dc.lft.to/lastmile_qr_scan"}, "fusion_lat": 0.0, "lat": 38.926352666666666, "is_disabled": 0, "lon": -77.02518033333334, "is_reserved": 0}, {"bike_id": "9d26c2465e162a839153ab8f35300294", "fusion_lon": 0.0, "type": "electric_scooter", "name": "9d26c2465e162a839153ab8f35300294", "rental_uris": {"android": "https://dc.lft.to/lastmile_qr_scan", "ios": "https://dc.lft.to/lastmile_qr_scan"}, "fusion_lat": 0.0, "lat": 38.90786333333333, "is_disabled": 0, "lon": -77.030493, "is_reserved": 0}, {"bike_id": "6b2d89f9f18ad6537f1fa3d1ed53f75d", "fusion_lon": 0.0, "type": "electric_scooter", "name": "6b2d89f9f18ad6537f1fa3d1ed53f75d", "rental_uris": {"android": "https://dc.lft.to/lastmile_qr_scan", "ios": "https://dc.lft.to/lastmile_qr_scan"}, "fusion_lat": 0.0, "lat": 38.8746945, "is_disabled": 0, "lon": -77.0053585, "is_reserved": 0}, {"bike_id": "b4fd1e4df59148a5864f4b3985793141", "fusion_lon": 0.0, "type": "electric_scooter", "name": "b4fd1e4df59148a5864f4b3985793141", "rental_uris": {"android": "https://dc.lft.to/lastmile_qr_scan", "ios": "https://dc.lft.to/lastmile_qr_scan"}, "fusion_lat": 0.0, "lat": 38.8997575, "is_disabled": 0, "lon": -76.937592, "is_reserved": 0}, {"bike_id": "6db628fcd486fee59d5ec86a6571ff57", "fusion_lon": 0.0, "type": "electric_scooter", "name": "6db628fcd486fee59d5ec86a6571ff57", "rental_uris": {"android": "https://dc.lft.to/lastmile_qr_scan", "ios": "https://dc.lft.to/lastmile_qr_scan"}, "fusion_lat": 0.0, "lat": 38.9171825, "is_disabled": 0, "lon": -77.02702133333334, "is_reserved": 0}, {"bike_id": "0e0a5053b422c0d937a8fb3bd25031c2", "fusion_lon": 0.0, "type": "electric_bike", "name": "0e0a5053b422c0d937a8fb3bd25031c2", "rental_uris": {"android": "https://dc.lft.to/lastmile_qr_scan", "ios": "https://dc.lft.to/lastmile_qr_scan"}, "fusion_lat": 0.0, "lat": 38.990441833333335, "is_disabled": 0, "lon": -77.0694605, "is_reserved": 0}, {"bike_id": "5bb8b8d5221c6a672a4419d949056bca", "fusion_lon": 0.0, "type": "electric_bike", "name": "5bb8b8d5221c6a672a4419d949056bca", "rental_uris": {"android": "https://dc.lft.to/lastmile_qr_scan", "ios": "https://dc.lft.to/lastmile_qr_scan"}, "fusion_lat": 0.0, "lat": 38.906274, "is_disabled": 0, "lon": -76.98608633333333, "is_reserved": 0}, {"bike_id": "f273a761009ea570932d5e115909439e", "fusion_lon": 0.0, "type": "electric_scooter", "name": "f273a761009ea570932d5e115909439e", "rental_uris": {"android": "https://dc.lft.to/lastmile_qr_scan", "ios": "https://dc.lft.to/lastmile_qr_scan"}, "fusion_lat": 0.0, "lat": 38.911902833333336, "is_disabled": 0, "lon": -77.038607, "is_reserved": 0}, {"bike_id": "b1ba93852d0b133e52dcfb0b6ec7c846", "fusion_lon": 0.0, "type": "electric_scooter", "name": "b1ba93852d0b133e52dcfb0b6ec7c846", "rental_uris": {"android": "https://dc.lft.to/lastmile_qr_scan", "ios": "https://dc.lft.to/lastmile_qr_scan"}, "fusion_lat": 0.0, "lat": 38.9351995, "is_disabled": 0, "lon": -77.033962, "is_reserved": 0}, {"bike_id": "fdc7a2f1fa4e09fbe540606b4b7728e2", "fusion_lon": 0.0, "type": "electric_scooter", "name": "fdc7a2f1fa4e09fbe540606b4b7728e2", "rental_uris": {"android": "https://dc.lft.to/lastmile_qr_scan", "ios": "https://dc.lft.to/lastmile_qr_scan"}, "fusion_lat": 0.0, "lat": 38.9188455, "is_disabled": 0, "lon": -77.02186166666667, "is_reserved": 0}, {"bike_id": "1d4d9ed8fc889e75d6c49a275750304b", "fusion_lon": 0.0, "type": "electric_scooter", "name": "1d4d9ed8fc889e75d6c49a275750304b", "rental_uris": {"android": "https://dc.lft.to/lastmile_qr_scan", "ios": "https://dc.lft.to/lastmile_qr_scan"}, "fusion_lat": 0.0, "lat": 38.89221383333334, "is_disabled": 0, "lon": -77.0268655, "is_reserved": 0}, {"bike_id": "4c59e7b03a4c431b8743f771817045c8", "fusion_lon": 0.0, "type": "electric_scooter", "name": "4c59e7b03a4c431b8743f771817045c8", "rental_uris": {"android": "https://dc.lft.to/lastmile_qr_scan", "ios": "https://dc.lft.to/lastmile_qr_scan"}, "fusion_lat": 0.0, "lat": 38.895172, "is_disabled": 0, "lon": -76.949001, "is_reserved": 0}, {"bike_id": "26b6b62a26523f9bd60683db16c5e30c", "fusion_lon": 0.0, "type": "electric_scooter", "name": "26b6b62a26523f9bd60683db16c5e30c", "rental_uris": {"android": "https://dc.lft.to/lastmile_qr_scan", "ios": "https://dc.lft.to/lastmile_qr_scan"}, "fusion_lat": 0.0, "lat": 38.8803245, "is_disabled": 0, "lon": -76.99626866666667, "is_reserved": 0}, {"bike_id": "c90ec44675b2645acf72431f72402a3b", "fusion_lon": 0.0, "type": "electric_scooter", "name": "c90ec44675b2645acf72431f72402a3b", "rental_uris": {"android": "https://dc.lft.to/lastmile_qr_scan", "ios": "https://dc.lft.to/lastmile_qr_scan"}, "fusion_lat": 0.0, "lat": 38.8987915, "is_disabled": 0, "lon": -76.93163666666666, "is_reserved": 0}, {"bike_id": "c3da86dcd539cc638d0201eb35b9f3f6", "fusion_lon": 0.0, "type": "electric_bike", "name": "c3da86dcd539cc638d0201eb35b9f3f6", "rental_uris": {"android": "https://dc.lft.to/lastmile_qr_scan", "ios": "https://dc.lft.to/lastmile_qr_scan"}, "fusion_lat": 0.0, "lat": 38.8287165, "is_disabled": 0, "lon": -77.11221883333333, "is_reserved": 0}, {"bike_id": "e9997517835fa9096c80f688f046312c", "fusion_lon": 0.0, "type": "electric_scooter", "name": "e9997517835fa9096c80f688f046312c", "rental_uris": {"android": "https://dc.lft.to/lastmile_qr_scan", "ios": "https://dc.lft.to/lastmile_qr_scan"}, "fusion_lat": 0.0, "lat": 38.898258, "is_disabled": 0, "lon": -77.03332833333333, "is_reserved": 0}, {"bike_id": "a862bbac06d20b67bf3c2d0ec94c4872", "fusion_lon": 0.0, "type": "electric_scooter", "name": "a862bbac06d20b67bf3c2d0ec94c4872", "rental_uris": {"android": "https://dc.lft.to/lastmile_qr_scan", "ios": "https://dc.lft.to/lastmile_qr_scan"}, "fusion_lat": 0.0, "lat": 38.92139183333333, "is_disabled": 0, "lon": -77.0095875, "is_reserved": 0}, {"bike_id": "5593ca91b054250a90c0c749a67ff767", "fusion_lon": 0.0, "type": "electric_bike", "name": "5593ca91b054250a90c0c749a67ff767", "rental_uris": {"android": "https://dc.lft.to/lastmile_qr_scan", "ios": "https://dc.lft.to/lastmile_qr_scan"}, "fusion_lat": 0.0, "lat": 38.9909085, "is_disabled": 0, "lon": -76.87496616666667, "is_reserved": 0}, {"bike_id": "771f6bb0ab802d16d5045c291ad09eaf", "fusion_lon": 0.0, "type": "electric_scooter", "name": "771f6bb0ab802d16d5045c291ad09eaf", "rental_uris": {"android": "https://dc.lft.to/lastmile_qr_scan", "ios": "https://dc.lft.to/lastmile_qr_scan"}, "fusion_lat": 0.0, "lat": 38.91841133333333, "is_disabled": 0, "lon": -76.96555433333333, "is_reserved": 0}, {"bike_id": "981e625c17e452bce7639f00b979ec64", "fusion_lon": 0.0, "type": "electric_scooter", "name": "981e625c17e452bce7639f00b979ec64", "rental_uris": {"android": "https://dc.lft.to/lastmile_qr_scan", "ios": "https://dc.lft.to/lastmile_qr_scan"}, "fusion_lat": 0.0, "lat": 38.904786666666666, "is_disabled": 0, "lon": -77.0200605, "is_reserved": 0}, {"bike_id": "02eeea28d930f014746ec2ab1187bb54", "fusion_lon": 0.0, "type": "electric_scooter", "name": "02eeea28d930f014746ec2ab1187bb54", "rental_uris": {"android": "https://dc.lft.to/lastmile_qr_scan", "ios": "https://dc.lft.to/lastmile_qr_scan"}, "fusion_lat": 0.0, "lat": 38.93663683333333, "is_disabled": 0, "lon": -77.032648, "is_reserved": 0}, {"bike_id": "a392cda46662dbebd93b2b014fd3861c", "fusion_lon": 0.0, "type": "electric_scooter", "name": "a392cda46662dbebd93b2b014fd3861c", "rental_uris": {"android": "https://dc.lft.to/lastmile_qr_scan", "ios": "https://dc.lft.to/lastmile_qr_scan"}, "fusion_lat": 0.0, "lat": 38.923600666666665, "is_disabled": 0, "lon": -77.050359, "is_reserved": 0}, {"bike_id": "5d43a3c5f24048f843ef32a09d7be447", "fusion_lon": 0.0, "type": "electric_bike", "name": "5d43a3c5f24048f843ef32a09d7be447", "rental_uris": {"android": "https://dc.lft.to/lastmile_qr_scan", "ios": "https://dc.lft.to/lastmile_qr_scan"}, "fusion_lat": 0.0, "lat": 38.9156465, "is_disabled": 0, "lon": -77.00200633333333, "is_reserved": 0}, {"bike_id": "1ece67a594c1daccb521dd02b5407d02", "fusion_lon": 0.0, "type": "electric_scooter", "name": "1ece67a594c1daccb521dd02b5407d02", "rental_uris": {"android": "https://dc.lft.to/lastmile_qr_scan", "ios": "https://dc.lft.to/lastmile_qr_scan"}, "fusion_lat": 0.0, "lat": 38.901386333333335, "is_disabled": 0, "lon": -76.99416716666667, "is_reserved": 0}, {"bike_id": "d2f1af211fbfc0fb857c5555c987a22a", "fusion_lon": 0.0, "type": "electric_scooter", "name": "d2f1af211fbfc0fb857c5555c987a22a", "rental_uris": {"android": "https://dc.lft.to/lastmile_qr_scan", "ios": "https://dc.lft.to/lastmile_qr_scan"}, "fusion_lat": 0.0, "lat": 38.914778, "is_disabled": 0, "lon": -77.01454416666667, "is_reserved": 0}, {"bike_id": "6ddf6acde8e01c97c9c595bd0c210c0b", "fusion_lon": 0.0, "type": "electric_scooter", "name": "6ddf6acde8e01c97c9c595bd0c210c0b", "rental_uris": {"android": "https://dc.lft.to/lastmile_qr_scan", "ios": "https://dc.lft.to/lastmile_qr_scan"}, "fusion_lat": 0.0, "lat": 38.89965683333333, "is_disabled": 0, "lon": -76.93433266666666, "is_reserved": 0}, {"bike_id": "90547d94697602a166393d1fe0ab468d", "fusion_lon": 0.0, "type": "electric_scooter", "name": "90547d94697602a166393d1fe0ab468d", "rental_uris": {"android": "https://dc.lft.to/lastmile_qr_scan", "ios": "https://dc.lft.to/lastmile_qr_scan"}, "fusion_lat": 0.0, "lat": 38.908014666666666, "is_disabled": 0, "lon": -77.05144533333333, "is_reserved": 0}, {"bike_id": "3a4615601e976f0adaf7963e3ba7ea77", "fusion_lon": 0.0, "type": "electric_scooter", "name": "3a4615601e976f0adaf7963e3ba7ea77", "rental_uris": {"android": "https://dc.lft.to/lastmile_qr_scan", "ios": "https://dc.lft.to/lastmile_qr_scan"}, "fusion_lat": 0.0, "lat": 38.933507, "is_disabled": 0, "lon": -76.99436716666666, "is_reserved": 0}, {"bike_id": "4e498628f5b7f26c74b64fbbc06d6311", "fusion_lon": 0.0, "type": "electric_scooter", "name": "4e498628f5b7f26c74b64fbbc06d6311", "rental_uris": {"android": "https://dc.lft.to/lastmile_qr_scan", "ios": "https://dc.lft.to/lastmile_qr_scan"}, "fusion_lat": 0.0, "lat": 38.90708816666667, "is_disabled": 0, "lon": -77.04288283333334, "is_reserved": 0}, {"bike_id": "6317fd8d3c12baaf99378a1412919f2d", "fusion_lon": 0.0, "type": "electric_scooter", "name": "6317fd8d3c12baaf99378a1412919f2d", "rental_uris": {"android": "https://dc.lft.to/lastmile_qr_scan", "ios": "https://dc.lft.to/lastmile_qr_scan"}, "fusion_lat": 0.0, "lat": 38.90508, "is_disabled": 0, "lon": -77.029813, "is_reserved": 0}, {"bike_id": "6bd2a69fc08846da7e5e27e3456fd4de", "fusion_lon": 0.0, "type": "electric_scooter", "name": "6bd2a69fc08846da7e5e27e3456fd4de", "rental_uris": {"android": "https://dc.lft.to/lastmile_qr_scan", "ios": "https://dc.lft.to/lastmile_qr_scan"}, "fusion_lat": 0.0, "lat": 38.902334833333335, "is_disabled": 0, "lon": -77.01913916666666, "is_reserved": 0}, {"bike_id": "aa99320b4088779a8ecfed530874064f", "fusion_lon": 0.0, "type": "electric_scooter", "name": "aa99320b4088779a8ecfed530874064f", "rental_uris": {"android": "https://dc.lft.to/lastmile_qr_scan", "ios": "https://dc.lft.to/lastmile_qr_scan"}, "fusion_lat": 0.0, "lat": 38.851602166666666, "is_disabled": 0, "lon": -76.99460633333334, "is_reserved": 0}, {"bike_id": "8c10fb241d2b03cdf689e0056b722821", "fusion_lon": 0.0, "type": "electric_scooter", "name": "8c10fb241d2b03cdf689e0056b722821", "rental_uris": {"android": "https://dc.lft.to/lastmile_qr_scan", "ios": "https://dc.lft.to/lastmile_qr_scan"}, "fusion_lat": 0.0, "lat": 38.905865, "is_disabled": 0, "lon": -77.00583866666666, "is_reserved": 0}, {"bike_id": "fd9ac27a6e19d9aab944021b31dd125c", "fusion_lon": 0.0, "type": "electric_bike", "name": "fd9ac27a6e19d9aab944021b31dd125c", "rental_uris": {"android": "https://dc.lft.to/lastmile_qr_scan", "ios": "https://dc.lft.to/lastmile_qr_scan"}, "fusion_lat": 0.0, "lat": 38.94915783333333, "is_disabled": 0, "lon": -77.078444, "is_reserved": 0}, {"bike_id": "88b646a8dd9055d28d9d2ec5ae47193a", "fusion_lon": 0.0, "type": "electric_scooter", "name": "88b646a8dd9055d28d9d2ec5ae47193a", "rental_uris": {"android": "https://dc.lft.to/lastmile_qr_scan", "ios": "https://dc.lft.to/lastmile_qr_scan"}, "fusion_lat": 0.0, "lat": 38.903504, "is_disabled": 0, "lon": -77.01882616666667, "is_reserved": 0}, {"bike_id": "84c3ab458fd58b1ee78b01cb84603ded", "fusion_lon": 0.0, "type": "electric_bike", "name": "84c3ab458fd58b1ee78b01cb84603ded", "rental_uris": {"android": "https://dc.lft.to/lastmile_qr_scan", "ios": "https://dc.lft.to/lastmile_qr_scan"}, "fusion_lat": 0.0, "lat": 38.95968833333333, "is_disabled": 0, "lon": -76.98144266666667, "is_reserved": 0}, {"bike_id": "2f3eb25eebec55460cf2f77de7657f2c", "fusion_lon": 0.0, "type": "electric_scooter", "name": "2f3eb25eebec55460cf2f77de7657f2c", "rental_uris": {"android": "https://dc.lft.to/lastmile_qr_scan", "ios": "https://dc.lft.to/lastmile_qr_scan"}, "fusion_lat": 0.0, "lat": 38.906894, "is_disabled": 0, "lon": -76.986082, "is_reserved": 0}, {"bike_id": "5dc4a89976f3f82bed7639bad0ea9293", "fusion_lon": 0.0, "type": "electric_scooter", "name": "5dc4a89976f3f82bed7639bad0ea9293", "rental_uris": {"android": "https://dc.lft.to/lastmile_qr_scan", "ios": "https://dc.lft.to/lastmile_qr_scan"}, "fusion_lat": 0.0, "lat": 38.91447433333333, "is_disabled": 0, "lon": -77.02211333333334, "is_reserved": 0}, {"bike_id": "854b993399f7ea5ca07ce7466b2859b3", "fusion_lon": 0.0, "type": "electric_scooter", "name": "854b993399f7ea5ca07ce7466b2859b3", "rental_uris": {"android": "https://dc.lft.to/lastmile_qr_scan", "ios": "https://dc.lft.to/lastmile_qr_scan"}, "fusion_lat": 0.0, "lat": 38.9003965, "is_disabled": 0, "lon": -77.01229283333333, "is_reserved": 0}, {"bike_id": "526fee2e6cb02f07ee2e617ba866a047", "fusion_lon": 0.0, "type": "electric_scooter", "name": "526fee2e6cb02f07ee2e617ba866a047", "rental_uris": {"android": "https://dc.lft.to/lastmile_qr_scan", "ios": "https://dc.lft.to/lastmile_qr_scan"}, "fusion_lat": 0.0, "lat": 38.87078016666667, "is_disabled": 0, "lon": -77.01118066666666, "is_reserved": 0}, {"bike_id": "644dd6ffb416d15ed70a3ca3647a8af3", "fusion_lon": 0.0, "type": "electric_bike", "name": "644dd6ffb416d15ed70a3ca3647a8af3", "rental_uris": {"android": "https://dc.lft.to/lastmile_qr_scan", "ios": "https://dc.lft.to/lastmile_qr_scan"}, "fusion_lat": 0.0, "lat": 38.9473005, "is_disabled": 0, "lon": -76.95679133333333, "is_reserved": 0}, {"bike_id": "414194bf54cdf293955f2e2923a781a4", "fusion_lon": 0.0, "type": "electric_scooter", "name": "414194bf54cdf293955f2e2923a781a4", "rental_uris": {"android": "https://dc.lft.to/lastmile_qr_scan", "ios": "https://dc.lft.to/lastmile_qr_scan"}, "fusion_lat": 0.0, "lat": 38.887926666666665, "is_disabled": 0, "lon": -76.951108, "is_reserved": 0}, {"bike_id": "1d265148464d1b9b426ac72097db792e", "fusion_lon": 0.0, "type": "electric_scooter", "name": "1d265148464d1b9b426ac72097db792e", "rental_uris": {"android": "https://dc.lft.to/lastmile_qr_scan", "ios": "https://dc.lft.to/lastmile_qr_scan"}, "fusion_lat": 0.0, "lat": 38.918538166666664, "is_disabled": 0, "lon": -77.04839783333334, "is_reserved": 0}, {"bike_id": "6ce98b85f012a01efb5b5c1a1b2e2a96", "fusion_lon": 0.0, "type": "electric_bike", "name": "6ce98b85f012a01efb5b5c1a1b2e2a96", "rental_uris": {"android": "https://dc.lft.to/lastmile_qr_scan", "ios": "https://dc.lft.to/lastmile_qr_scan"}, "fusion_lat": 0.0, "lat": 38.8484425, "is_disabled": 0, "lon": -77.08050266666666, "is_reserved": 0}, {"bike_id": "70a462532efceef505ed1c787071cb3f", "fusion_lon": 0.0, "type": "electric_scooter", "name": "70a462532efceef505ed1c787071cb3f", "rental_uris": {"android": "https://dc.lft.to/lastmile_qr_scan", "ios": "https://dc.lft.to/lastmile_qr_scan"}, "fusion_lat": 0.0, "lat": 38.91179916666667, "is_disabled": 0, "lon": -77.02092083333334, "is_reserved": 0}, {"bike_id": "7ecff403d14431f7d2a6d57bd312fcb3", "fusion_lon": 0.0, "type": "electric_scooter", "name": "7ecff403d14431f7d2a6d57bd312fcb3", "rental_uris": {"android": "https://dc.lft.to/lastmile_qr_scan", "ios": "https://dc.lft.to/lastmile_qr_scan"}, "fusion_lat": 0.0, "lat": 38.9159265, "is_disabled": 0, "lon": -77.016553, "is_reserved": 0}, {"bike_id": "fafc01f82f2045d33968aa29425512b8", "fusion_lon": 0.0, "type": "electric_scooter", "name": "fafc01f82f2045d33968aa29425512b8", "rental_uris": {"android": "https://dc.lft.to/lastmile_qr_scan", "ios": "https://dc.lft.to/lastmile_qr_scan"}, "fusion_lat": 0.0, "lat": 38.904659, "is_disabled": 0, "lon": -77.0320625, "is_reserved": 0}, {"bike_id": "82beb042148b288ccf48cd0215c8ce41", "fusion_lon": 0.0, "type": "electric_scooter", "name": "82beb042148b288ccf48cd0215c8ce41", "rental_uris": {"android": "https://dc.lft.to/lastmile_qr_scan", "ios": "https://dc.lft.to/lastmile_qr_scan"}, "fusion_lat": 0.0, "lat": 38.89881833333333, "is_disabled": 0, "lon": -76.93178616666667, "is_reserved": 0}, {"bike_id": "ab0c4f6ee93a8abb4d2800161e7b6e56", "fusion_lon": 0.0, "type": "electric_scooter", "name": "ab0c4f6ee93a8abb4d2800161e7b6e56", "rental_uris": {"android": "https://dc.lft.to/lastmile_qr_scan", "ios": "https://dc.lft.to/lastmile_qr_scan"}, "fusion_lat": 0.0, "lat": 38.903595, "is_disabled": 0, "lon": -77.02151966666666, "is_reserved": 0}, {"bike_id": "04f5dc4067fe4da113cf6f209019c64b", "fusion_lon": 0.0, "type": "electric_scooter", "name": "04f5dc4067fe4da113cf6f209019c64b", "rental_uris": {"android": "https://dc.lft.to/lastmile_qr_scan", "ios": "https://dc.lft.to/lastmile_qr_scan"}, "fusion_lat": 0.0, "lat": 38.90699883333333, "is_disabled": 0, "lon": -76.98703066666667, "is_reserved": 0}, {"bike_id": "f7eb67843a74728b63f7ed7f7036f595", "fusion_lon": 0.0, "type": "electric_scooter", "name": "f7eb67843a74728b63f7ed7f7036f595", "rental_uris": {"android": "https://dc.lft.to/lastmile_qr_scan", "ios": "https://dc.lft.to/lastmile_qr_scan"}, "fusion_lat": 0.0, "lat": 38.88741866666667, "is_disabled": 0, "lon": -77.02833333333334, "is_reserved": 0}, {"bike_id": "ffb9abe92560cba6838aa5f9e58edc23", "fusion_lon": 0.0, "type": "electric_scooter", "name": "ffb9abe92560cba6838aa5f9e58edc23", "rental_uris": {"android": "https://dc.lft.to/lastmile_qr_scan", "ios": "https://dc.lft.to/lastmile_qr_scan"}, "fusion_lat": 0.0, "lat": 38.8947745, "is_disabled": 0, "lon": -77.04542983333333, "is_reserved": 0}, {"bike_id": "fd5d18ac687000ea462e06fbb2f5b279", "fusion_lon": 0.0, "type": "electric_scooter", "name": "fd5d18ac687000ea462e06fbb2f5b279", "rental_uris": {"android": "https://dc.lft.to/lastmile_qr_scan", "ios": "https://dc.lft.to/lastmile_qr_scan"}, "fusion_lat": 0.0, "lat": 38.93741383333333, "is_disabled": 0, "lon": -77.03492633333333, "is_reserved": 0}, {"bike_id": "f2ec7fb4ba5dbf5f757160b89559c42d", "fusion_lon": 0.0, "type": "electric_scooter", "name": "f2ec7fb4ba5dbf5f757160b89559c42d", "rental_uris": {"android": "https://dc.lft.to/lastmile_qr_scan", "ios": "https://dc.lft.to/lastmile_qr_scan"}, "fusion_lat": 0.0, "lat": 38.935508166666665, "is_disabled": 0, "lon": -77.03460883333334, "is_reserved": 0}, {"bike_id": "13f9a8da91a7d2e9891b49c499db2433", "fusion_lon": 0.0, "type": "electric_scooter", "name": "13f9a8da91a7d2e9891b49c499db2433", "rental_uris": {"android": "https://dc.lft.to/lastmile_qr_scan", "ios": "https://dc.lft.to/lastmile_qr_scan"}, "fusion_lat": 0.0, "lat": 38.92031633333333, "is_disabled": 0, "lon": -76.97021216666667, "is_reserved": 0}, {"bike_id": "e79f1507be859499aec68d310a54904a", "fusion_lon": 0.0, "type": "electric_scooter", "name": "e79f1507be859499aec68d310a54904a", "rental_uris": {"android": "https://dc.lft.to/lastmile_qr_scan", "ios": "https://dc.lft.to/lastmile_qr_scan"}, "fusion_lat": 0.0, "lat": 38.9002205, "is_disabled": 0, "lon": -77.04499616666666, "is_reserved": 0}, {"bike_id": "65ba1ed7892e91c64f54147882f8c0a2", "fusion_lon": 0.0, "type": "electric_scooter", "name": "65ba1ed7892e91c64f54147882f8c0a2", "rental_uris": {"android": "https://dc.lft.to/lastmile_qr_scan", "ios": "https://dc.lft.to/lastmile_qr_scan"}, "fusion_lat": 0.0, "lat": 38.89832583333333, "is_disabled": 0, "lon": -77.03335, "is_reserved": 0}, {"bike_id": "2b66d8b4f76f4b3ec80e397813935502", "fusion_lon": 0.0, "type": "electric_bike", "name": "2b66d8b4f76f4b3ec80e397813935502", "rental_uris": {"android": "https://dc.lft.to/lastmile_qr_scan", "ios": "https://dc.lft.to/lastmile_qr_scan"}, "fusion_lat": 0.0, "lat": 38.8964145, "is_disabled": 0, "lon": -76.94790583333334, "is_reserved": 0}, {"bike_id": "373c53a0a1ac54484ebc8ec7a435a3c6", "fusion_lon": 0.0, "type": "electric_scooter", "name": "373c53a0a1ac54484ebc8ec7a435a3c6", "rental_uris": {"android": "https://dc.lft.to/lastmile_qr_scan", "ios": "https://dc.lft.to/lastmile_qr_scan"}, "fusion_lat": 0.0, "lat": 38.922167333333334, "is_disabled": 0, "lon": -77.03751983333333, "is_reserved": 0}, {"bike_id": "a1330bd7cd67ae0f6d8de68d80dc9df4", "fusion_lon": 0.0, "type": "electric_scooter", "name": "a1330bd7cd67ae0f6d8de68d80dc9df4", "rental_uris": {"android": "https://dc.lft.to/lastmile_qr_scan", "ios": "https://dc.lft.to/lastmile_qr_scan"}, "fusion_lat": 0.0, "lat": 38.8428535, "is_disabled": 0, "lon": -76.99083016666667, "is_reserved": 0}, {"bike_id": "be9587d95ca19bb995b554a9ca4ea93f", "fusion_lon": 0.0, "type": "electric_scooter", "name": "be9587d95ca19bb995b554a9ca4ea93f", "rental_uris": {"android": "https://dc.lft.to/lastmile_qr_scan", "ios": "https://dc.lft.to/lastmile_qr_scan"}, "fusion_lat": 0.0, "lat": 38.8925395, "is_disabled": 0, "lon": -77.0318275, "is_reserved": 0}, {"bike_id": "9c8cb7a68b7693bd0d00dd6bebf12549", "fusion_lon": 0.0, "type": "electric_scooter", "name": "9c8cb7a68b7693bd0d00dd6bebf12549", "rental_uris": {"android": "https://dc.lft.to/lastmile_qr_scan", "ios": "https://dc.lft.to/lastmile_qr_scan"}, "fusion_lat": 0.0, "lat": 38.9089855, "is_disabled": 0, "lon": -77.04345283333333, "is_reserved": 0}, {"bike_id": "6077beb843e0784c3f511fac2455d671", "fusion_lon": 0.0, "type": "electric_scooter", "name": "6077beb843e0784c3f511fac2455d671", "rental_uris": {"android": "https://dc.lft.to/lastmile_qr_scan", "ios": "https://dc.lft.to/lastmile_qr_scan"}, "fusion_lat": 0.0, "lat": 38.92991816666667, "is_disabled": 0, "lon": -77.0105795, "is_reserved": 0}, {"bike_id": "353ca9181b3681401a3bfa519c275b25", "fusion_lon": 0.0, "type": "electric_scooter", "name": "353ca9181b3681401a3bfa519c275b25", "rental_uris": {"android": "https://dc.lft.to/lastmile_qr_scan", "ios": "https://dc.lft.to/lastmile_qr_scan"}, "fusion_lat": 0.0, "lat": 38.8792445, "is_disabled": 0, "lon": -76.99169166666667, "is_reserved": 0}, {"bike_id": "ab2964c57e9ec9d79caf1944217905ca", "fusion_lon": 0.0, "type": "electric_scooter", "name": "ab2964c57e9ec9d79caf1944217905ca", "rental_uris": {"android": "https://dc.lft.to/lastmile_qr_scan", "ios": "https://dc.lft.to/lastmile_qr_scan"}, "fusion_lat": 0.0, "lat": 38.920679666666665, "is_disabled": 0, "lon": -77.04377366666667, "is_reserved": 0}, {"bike_id": "a739ab79b7aba7bc41ad7acec3fb7e62", "fusion_lon": 0.0, "type": "electric_scooter", "name": "a739ab79b7aba7bc41ad7acec3fb7e62", "rental_uris": {"android": "https://dc.lft.to/lastmile_qr_scan", "ios": "https://dc.lft.to/lastmile_qr_scan"}, "fusion_lat": 0.0, "lat": 38.918434500000004, "is_disabled": 0, "lon": -76.96555833333333, "is_reserved": 0}, {"bike_id": "0116b815f00414f36727d7b227f0be39", "fusion_lon": 0.0, "type": "electric_scooter", "name": "0116b815f00414f36727d7b227f0be39", "rental_uris": {"android": "https://dc.lft.to/lastmile_qr_scan", "ios": "https://dc.lft.to/lastmile_qr_scan"}, "fusion_lat": 0.0, "lat": 38.898414333333335, "is_disabled": 0, "lon": -77.03934633333333, "is_reserved": 0}, {"bike_id": "626de966e483bb7807cec8f67def1de2", "fusion_lon": 0.0, "type": "electric_scooter", "name": "626de966e483bb7807cec8f67def1de2", "rental_uris": {"android": "https://dc.lft.to/lastmile_qr_scan", "ios": "https://dc.lft.to/lastmile_qr_scan"}, "fusion_lat": 0.0, "lat": 38.921595833333335, "is_disabled": 0, "lon": -77.03388216666667, "is_reserved": 0}, {"bike_id": "f874dc6d23ee43b5f7d3663e921de980", "fusion_lon": 0.0, "type": "electric_scooter", "name": "f874dc6d23ee43b5f7d3663e921de980", "rental_uris": {"android": "https://dc.lft.to/lastmile_qr_scan", "ios": "https://dc.lft.to/lastmile_qr_scan"}, "fusion_lat": 0.0, "lat": 38.904613, "is_disabled": 0, "lon": -77.034687, "is_reserved": 0}, {"bike_id": "99b89485c3619e13816785df387bd5b8", "fusion_lon": 0.0, "type": "electric_scooter", "name": "99b89485c3619e13816785df387bd5b8", "rental_uris": {"android": "https://dc.lft.to/lastmile_qr_scan", "ios": "https://dc.lft.to/lastmile_qr_scan"}, "fusion_lat": 0.0, "lat": 38.892421, "is_disabled": 0, "lon": -77.02794933333334, "is_reserved": 0}, {"bike_id": "18724040e40e6474c77e789f91ed1789", "fusion_lon": 0.0, "type": "electric_scooter", "name": "18724040e40e6474c77e789f91ed1789", "rental_uris": {"android": "https://dc.lft.to/lastmile_qr_scan", "ios": "https://dc.lft.to/lastmile_qr_scan"}, "fusion_lat": 0.0, "lat": 38.90249633333333, "is_disabled": 0, "lon": -77.02646316666667, "is_reserved": 0}, {"bike_id": "ac12635402a8efaeedd31a95488c193b", "fusion_lon": 0.0, "type": "electric_bike", "name": "ac12635402a8efaeedd31a95488c193b", "rental_uris": {"android": "https://dc.lft.to/lastmile_qr_scan", "ios": "https://dc.lft.to/lastmile_qr_scan"}, "fusion_lat": 0.0, "lat": 38.973802, "is_disabled": 0, "lon": -77.06478966666667, "is_reserved": 0}, {"bike_id": "72e2b800b746bc21cc31c9f557e764eb", "fusion_lon": 0.0, "type": "electric_scooter", "name": "72e2b800b746bc21cc31c9f557e764eb", "rental_uris": {"android": "https://dc.lft.to/lastmile_qr_scan", "ios": "https://dc.lft.to/lastmile_qr_scan"}, "fusion_lat": 0.0, "lat": 38.909743666666664, "is_disabled": 0, "lon": -77.02183416666666, "is_reserved": 0}, {"bike_id": "3b4c91fdc56babac672bc481aca58dd9", "fusion_lon": 0.0, "type": "electric_scooter", "name": "3b4c91fdc56babac672bc481aca58dd9", "rental_uris": {"android": "https://dc.lft.to/lastmile_qr_scan", "ios": "https://dc.lft.to/lastmile_qr_scan"}, "fusion_lat": 0.0, "lat": 38.934292666666664, "is_disabled": 0, "lon": -77.0584915, "is_reserved": 0}, {"bike_id": "38949b3e48162446008d8a16af343db6", "fusion_lon": 0.0, "type": "electric_scooter", "name": "38949b3e48162446008d8a16af343db6", "rental_uris": {"android": "https://dc.lft.to/lastmile_qr_scan", "ios": "https://dc.lft.to/lastmile_qr_scan"}, "fusion_lat": 0.0, "lat": 38.88406283333333, "is_disabled": 0, "lon": -77.0304745, "is_reserved": 0}, {"bike_id": "af14b6478d3e610ef74924563546a855", "fusion_lon": 0.0, "type": "electric_scooter", "name": "af14b6478d3e610ef74924563546a855", "rental_uris": {"android": "https://dc.lft.to/lastmile_qr_scan", "ios": "https://dc.lft.to/lastmile_qr_scan"}, "fusion_lat": 0.0, "lat": 38.90376366666667, "is_disabled": 0, "lon": -77.06763633333334, "is_reserved": 0}, {"bike_id": "50fd1ff9f5034900c61b443adcb28285", "fusion_lon": 0.0, "type": "electric_scooter", "name": "50fd1ff9f5034900c61b443adcb28285", "rental_uris": {"android": "https://dc.lft.to/lastmile_qr_scan", "ios": "https://dc.lft.to/lastmile_qr_scan"}, "fusion_lat": 0.0, "lat": 38.91265816666667, "is_disabled": 0, "lon": -77.03133066666666, "is_reserved": 0}, {"bike_id": "bfb49c220c041771e781580e040e55d0", "fusion_lon": 0.0, "type": "electric_scooter", "name": "bfb49c220c041771e781580e040e55d0", "rental_uris": {"android": "https://dc.lft.to/lastmile_qr_scan", "ios": "https://dc.lft.to/lastmile_qr_scan"}, "fusion_lat": 0.0, "lat": 38.92847583333333, "is_disabled": 0, "lon": -77.0142115, "is_reserved": 0}, {"bike_id": "e1c3790f3e8854d9d2bae375541e12f2", "fusion_lon": 0.0, "type": "electric_scooter", "name": "e1c3790f3e8854d9d2bae375541e12f2", "rental_uris": {"android": "https://dc.lft.to/lastmile_qr_scan", "ios": "https://dc.lft.to/lastmile_qr_scan"}, "fusion_lat": 0.0, "lat": 38.8640565, "is_disabled": 0, "lon": -76.990297, "is_reserved": 0}, {"bike_id": "1500ebd80776b65d314532c962c84289", "fusion_lon": 0.0, "type": "electric_scooter", "name": "1500ebd80776b65d314532c962c84289", "rental_uris": {"android": "https://dc.lft.to/lastmile_qr_scan", "ios": "https://dc.lft.to/lastmile_qr_scan"}, "fusion_lat": 0.0, "lat": 38.908167166666665, "is_disabled": 0, "lon": -77.006029, "is_reserved": 0}, {"bike_id": "a7afd81f961393fdeb8f3e2c909472a8", "fusion_lon": 0.0, "type": "electric_scooter", "name": "a7afd81f961393fdeb8f3e2c909472a8", "rental_uris": {"android": "https://dc.lft.to/lastmile_qr_scan", "ios": "https://dc.lft.to/lastmile_qr_scan"}, "fusion_lat": 0.0, "lat": 38.943672, "is_disabled": 0, "lon": -77.06093383333334, "is_reserved": 0}, {"bike_id": "07e3654edcce2448f67800e299dfb50d", "fusion_lon": 0.0, "type": "electric_scooter", "name": "07e3654edcce2448f67800e299dfb50d", "rental_uris": {"android": "https://dc.lft.to/lastmile_qr_scan", "ios": "https://dc.lft.to/lastmile_qr_scan"}, "fusion_lat": 0.0, "lat": 38.89548716666667, "is_disabled": 0, "lon": -76.991595, "is_reserved": 0}, {"bike_id": "6b4d0af16854f0e9aadafec81b112f9a", "fusion_lon": 0.0, "type": "electric_scooter", "name": "6b4d0af16854f0e9aadafec81b112f9a", "rental_uris": {"android": "https://dc.lft.to/lastmile_qr_scan", "ios": "https://dc.lft.to/lastmile_qr_scan"}, "fusion_lat": 0.0, "lat": 38.92233866666667, "is_disabled": 0, "lon": -77.04615233333334, "is_reserved": 0}, {"bike_id": "424b6b4de85686d5f48d528cc1f7fb93", "fusion_lon": 0.0, "type": "electric_scooter", "name": "424b6b4de85686d5f48d528cc1f7fb93", "rental_uris": {"android": "https://dc.lft.to/lastmile_qr_scan", "ios": "https://dc.lft.to/lastmile_qr_scan"}, "fusion_lat": 0.0, "lat": 38.92448183333333, "is_disabled": 0, "lon": -77.02026766666667, "is_reserved": 0}, {"bike_id": "1b0bf4355fc84bbac2f6a773267a03d6", "fusion_lon": 0.0, "type": "electric_scooter", "name": "1b0bf4355fc84bbac2f6a773267a03d6", "rental_uris": {"android": "https://dc.lft.to/lastmile_qr_scan", "ios": "https://dc.lft.to/lastmile_qr_scan"}, "fusion_lat": 0.0, "lat": 38.9042775, "is_disabled": 0, "lon": -77.05006416666667, "is_reserved": 0}, {"bike_id": "ebb4e2d834d8a193b0650b9f581b5fad", "fusion_lon": 0.0, "type": "electric_scooter", "name": "ebb4e2d834d8a193b0650b9f581b5fad", "rental_uris": {"android": "https://dc.lft.to/lastmile_qr_scan", "ios": "https://dc.lft.to/lastmile_qr_scan"}, "fusion_lat": 0.0, "lat": 38.881797, "is_disabled": 0, "lon": -77.02814116666667, "is_reserved": 0}, {"bike_id": "ebb11b8941cf78db5700a7d883769615", "fusion_lon": 0.0, "type": "electric_scooter", "name": "ebb11b8941cf78db5700a7d883769615", "rental_uris": {"android": "https://dc.lft.to/lastmile_qr_scan", "ios": "https://dc.lft.to/lastmile_qr_scan"}, "fusion_lat": 0.0, "lat": 38.89368366666667, "is_disabled": 0, "lon": -76.94968616666667, "is_reserved": 0}, {"bike_id": "4aaf3a9ccb0deeb18007b2a25696027b", "fusion_lon": 0.0, "type": "electric_scooter", "name": "4aaf3a9ccb0deeb18007b2a25696027b", "rental_uris": {"android": "https://dc.lft.to/lastmile_qr_scan", "ios": "https://dc.lft.to/lastmile_qr_scan"}, "fusion_lat": 0.0, "lat": 38.89880383333333, "is_disabled": 0, "lon": -76.9315715, "is_reserved": 0}, {"bike_id": "78359cab1146ef1276285872694f15fb", "fusion_lon": 0.0, "type": "electric_scooter", "name": "78359cab1146ef1276285872694f15fb", "rental_uris": {"android": "https://dc.lft.to/lastmile_qr_scan", "ios": "https://dc.lft.to/lastmile_qr_scan"}, "fusion_lat": 0.0, "lat": 38.911104, "is_disabled": 0, "lon": -77.038308, "is_reserved": 0}, {"bike_id": "e8ed6ae20c4d9e518fbc4b87a27d2324", "fusion_lon": 0.0, "type": "electric_scooter", "name": "e8ed6ae20c4d9e518fbc4b87a27d2324", "rental_uris": {"android": "https://dc.lft.to/lastmile_qr_scan", "ios": "https://dc.lft.to/lastmile_qr_scan"}, "fusion_lat": 0.0, "lat": 38.92403766666666, "is_disabled": 0, "lon": -77.025421, "is_reserved": 0}, {"bike_id": "c10caa4e8942ce510fc0e70136afb874", "fusion_lon": 0.0, "type": "electric_scooter", "name": "c10caa4e8942ce510fc0e70136afb874", "rental_uris": {"android": "https://dc.lft.to/lastmile_qr_scan", "ios": "https://dc.lft.to/lastmile_qr_scan"}, "fusion_lat": 0.0, "lat": 38.918522, "is_disabled": 0, "lon": -77.041804, "is_reserved": 0}, {"bike_id": "a775045907b681e6f48c58e19baf7104", "fusion_lon": 0.0, "type": "electric_scooter", "name": "a775045907b681e6f48c58e19baf7104", "rental_uris": {"android": "https://dc.lft.to/lastmile_qr_scan", "ios": "https://dc.lft.to/lastmile_qr_scan"}, "fusion_lat": 0.0, "lat": 38.92362133333334, "is_disabled": 0, "lon": -77.0512345, "is_reserved": 0}, {"bike_id": "f6f4fe812b8b22f1d29cd0f865f232e5", "fusion_lon": 0.0, "type": "electric_scooter", "name": "f6f4fe812b8b22f1d29cd0f865f232e5", "rental_uris": {"android": "https://dc.lft.to/lastmile_qr_scan", "ios": "https://dc.lft.to/lastmile_qr_scan"}, "fusion_lat": 0.0, "lat": 38.91171383333333, "is_disabled": 0, "lon": -76.98766833333333, "is_reserved": 0}, {"bike_id": "ffe8cfad48ee319ead359b5a6e07bdda", "fusion_lon": 0.0, "type": "electric_scooter", "name": "ffe8cfad48ee319ead359b5a6e07bdda", "rental_uris": {"android": "https://dc.lft.to/lastmile_qr_scan", "ios": "https://dc.lft.to/lastmile_qr_scan"}, "fusion_lat": 0.0, "lat": 38.903523, "is_disabled": 0, "lon": -77.02905766666667, "is_reserved": 0}, {"bike_id": "94dae718075f7c362111b64bb9cf17f5", "fusion_lon": 0.0, "type": "electric_scooter", "name": "94dae718075f7c362111b64bb9cf17f5", "rental_uris": {"android": "https://dc.lft.to/lastmile_qr_scan", "ios": "https://dc.lft.to/lastmile_qr_scan"}, "fusion_lat": 0.0, "lat": 38.904298, "is_disabled": 0, "lon": -77.04647866666667, "is_reserved": 0}, {"bike_id": "fb2b185efd9c03ec75e56710b31b2006", "fusion_lon": 0.0, "type": "electric_scooter", "name": "fb2b185efd9c03ec75e56710b31b2006", "rental_uris": {"android": "https://dc.lft.to/lastmile_qr_scan", "ios": "https://dc.lft.to/lastmile_qr_scan"}, "fusion_lat": 0.0, "lat": 38.9079265, "is_disabled": 0, "lon": -76.94119433333333, "is_reserved": 0}, {"bike_id": "cf6dcdeb955b8e2a7a930421210ef87e", "fusion_lon": 0.0, "type": "electric_scooter", "name": "cf6dcdeb955b8e2a7a930421210ef87e", "rental_uris": {"android": "https://dc.lft.to/lastmile_qr_scan", "ios": "https://dc.lft.to/lastmile_qr_scan"}, "fusion_lat": 0.0, "lat": 38.89836233333333, "is_disabled": 0, "lon": -77.01779183333333, "is_reserved": 0}, {"bike_id": "54ed259fb519db13406fb57930c6443d", "fusion_lon": 0.0, "type": "electric_scooter", "name": "54ed259fb519db13406fb57930c6443d", "rental_uris": {"android": "https://dc.lft.to/lastmile_qr_scan", "ios": "https://dc.lft.to/lastmile_qr_scan"}, "fusion_lat": 0.0, "lat": 38.90289033333333, "is_disabled": 0, "lon": -76.93656416666667, "is_reserved": 0}, {"bike_id": "27124633e68a6094d76241d188309093", "fusion_lon": 0.0, "type": "electric_bike", "name": "27124633e68a6094d76241d188309093", "rental_uris": {"android": "https://dc.lft.to/lastmile_qr_scan", "ios": "https://dc.lft.to/lastmile_qr_scan"}, "fusion_lat": 0.0, "lat": 38.888162666666666, "is_disabled": 0, "lon": -77.12749483333333, "is_reserved": 0}, {"bike_id": "97d801529a00b1efb070e529f69b0714", "fusion_lon": 0.0, "type": "electric_scooter", "name": "97d801529a00b1efb070e529f69b0714", "rental_uris": {"android": "https://dc.lft.to/lastmile_qr_scan", "ios": "https://dc.lft.to/lastmile_qr_scan"}, "fusion_lat": 0.0, "lat": 38.914147666666665, "is_disabled": 0, "lon": -77.04019566666666, "is_reserved": 0}, {"bike_id": "5a10e68e3892d5c18c8098f089fed043", "fusion_lon": 0.0, "type": "electric_scooter", "name": "5a10e68e3892d5c18c8098f089fed043", "rental_uris": {"android": "https://dc.lft.to/lastmile_qr_scan", "ios": "https://dc.lft.to/lastmile_qr_scan"}, "fusion_lat": 0.0, "lat": 38.88742283333333, "is_disabled": 0, "lon": -77.02398266666667, "is_reserved": 0}, {"bike_id": "7814cf7eca4aafd1d42a57b5dbe8579a", "fusion_lon": 0.0, "type": "electric_scooter", "name": "7814cf7eca4aafd1d42a57b5dbe8579a", "rental_uris": {"android": "https://dc.lft.to/lastmile_qr_scan", "ios": "https://dc.lft.to/lastmile_qr_scan"}, "fusion_lat": 0.0, "lat": 38.91076283333334, "is_disabled": 0, "lon": -77.0220875, "is_reserved": 0}, {"bike_id": "9d73587749402ca1c31f2de026db2c53", "fusion_lon": 0.0, "type": "electric_scooter", "name": "9d73587749402ca1c31f2de026db2c53", "rental_uris": {"android": "https://dc.lft.to/lastmile_qr_scan", "ios": "https://dc.lft.to/lastmile_qr_scan"}, "fusion_lat": 0.0, "lat": 38.85569683333333, "is_disabled": 0, "lon": -76.986878, "is_reserved": 0}, {"bike_id": "7fbddc4f48b1f4c386dd2dff8aae0117", "fusion_lon": 0.0, "type": "electric_scooter", "name": "7fbddc4f48b1f4c386dd2dff8aae0117", "rental_uris": {"android": "https://dc.lft.to/lastmile_qr_scan", "ios": "https://dc.lft.to/lastmile_qr_scan"}, "fusion_lat": 0.0, "lat": 38.942219333333334, "is_disabled": 0, "lon": -77.06168016666666, "is_reserved": 0}, {"bike_id": "fcc0e8a49da5de8a0b88ae114b45cfb7", "fusion_lon": 0.0, "type": "electric_scooter", "name": "fcc0e8a49da5de8a0b88ae114b45cfb7", "rental_uris": {"android": "https://dc.lft.to/lastmile_qr_scan", "ios": "https://dc.lft.to/lastmile_qr_scan"}, "fusion_lat": 0.0, "lat": 38.90484, "is_disabled": 0, "lon": -77.029645, "is_reserved": 0}, {"bike_id": "93360f7a8c76a579f8d47f7673fa6f91", "fusion_lon": 0.0, "type": "electric_scooter", "name": "93360f7a8c76a579f8d47f7673fa6f91", "rental_uris": {"android": "https://dc.lft.to/lastmile_qr_scan", "ios": "https://dc.lft.to/lastmile_qr_scan"}, "fusion_lat": 0.0, "lat": 38.91479866666667, "is_disabled": 0, "lon": -77.01324883333334, "is_reserved": 0}, {"bike_id": "4d411801ac0bf39eca7236ebec1d98a2", "fusion_lon": 0.0, "type": "electric_scooter", "name": "4d411801ac0bf39eca7236ebec1d98a2", "rental_uris": {"android": "https://dc.lft.to/lastmile_qr_scan", "ios": "https://dc.lft.to/lastmile_qr_scan"}, "fusion_lat": 0.0, "lat": 38.91456983333333, "is_disabled": 0, "lon": -77.04149983333333, "is_reserved": 0}, {"bike_id": "a6a6c642b74ece4c116e237c504541d7", "fusion_lon": 0.0, "type": "electric_bike", "name": "a6a6c642b74ece4c116e237c504541d7", "rental_uris": {"android": "https://dc.lft.to/lastmile_qr_scan", "ios": "https://dc.lft.to/lastmile_qr_scan"}, "fusion_lat": 0.0, "lat": 38.84301116666666, "is_disabled": 0, "lon": -77.114334, "is_reserved": 0},