{"data": {"bikes": [{"type": "electric_scooter", "name": "70603d840a88681d5f70ac0eacec2c84", "rental_uris": {"ios": "https://dc.lft.to/lastmile_qr_scan", "android": "https://dc.lft.to/lastmile_qr_scan"}, "fusion_lon": 0.0, "lat": 38.90307116666666, "is_disabled": 0, "bike_id": "70603d840a88681d5f70ac0eacec2c84", "fusion_lat": 0.0, "is_reserved": 0, "lon": -77.06026916666667}, {"type": "electric_bike", "name": "526ef65495bea136b1823d510f96090f", "rental_uris": {"ios": "https://dc.lft.to/lastmile_qr_scan", "android": "https://dc.lft.to/lastmile_qr_scan"}, "fusion_lon": 0.0, "lat": 38.81995633333333, "is_disabled": 0, "bike_id": "526ef65495bea136b1823d510f96090f", "fusion_lat": 0.0, "is_reserved": 0, "lon": -76.99817866666666}, {"type": "electric_scooter", "name": "bbb0af77a89597e4b11cf0ff40cedb70", "rental_uris": {"ios": "https://dc.lft.to/lastmile_qr_scan", "android": "https://dc.lft.to/lastmile_qr_scan"}, "fusion_lon": 0.0, "lat": 38.866302166666664, "is_disabled": 0, "bike_id": "bbb0af77a89597e4b11cf0ff40cedb70", "fusion_lat": 0.0, "is_reserved": 0, "lon": -76.9871355}, {"type": "electric_scooter", "name": "1bf5e91d4bb6b1f6be3c7d31cb3bb841", "rental_uris": {"ios": "https://dc.lft.to/lastmile_qr_scan", "android": "https://dc.lft.to/lastmile_qr_scan"}, "fusion_lon": 0.0, "lat": 38.87854766666667, "is_disabled": 0, "bike_id": "1bf5e91d4bb6b1f6be3c7d31cb3bb841", "fusion_lat": 0.0, "is_reserved": 0, "lon": -77.01907866666667}, {"type": "electric_scooter", "name": "d517b89e898c31d0e088f2240b860501", "rental_uris": {"ios": "https://dc.lft.to/lastmile_qr_scan", "android": "https://dc.lft.to/lastmile_qr_scan"}, "fusion_lon": 0.0, "lat": 38.90530416666667, "is_disabled": 0, "bike_id": "d517b89e898c31d0e088f2240b860501", "fusion_lat": 0.0, "is_reserved": 0, "lon": -77.057687}, {"type": "electric_scooter", "name": "698773ae952327c2ce40193c2540a1bb", "rental_uris": {"ios": "https://dc.lft.to/lastmile_qr_scan", "android": "https://dc.lft.to/lastmile_qr_scan"}, "fusion_lon": 0.0, "lat": 38.90003466666667, "is_disabled": 0, "bike_id": "698773ae952327c2ce40193c2540a1bb", "fusion_lat": 0.0, "is_reserved": 0, "lon": -77.01998516666667}, {"type": "electric_scooter", "name": "5d9384ce87929be54f636ce6042958e7", "rental_uris": {"ios": "https://dc.lft.to/lastmile_qr_scan", "android": "https://dc.lft.to/lastmile_qr_scan"}, "fusion_lon": 0.0, "lat": 38.907134, "is_disabled": 0, "bike_id": "5d9384ce87929be54f636ce6042958e7", "fusion_lat": 0.0, "is_reserved": 0, "lon": -77.02947816666666}, {"type": "electric_scooter", "name": "f22c714118867e39d582c6ac918f4996", "rental_uris": {"ios": "https://dc.lft.to/lastmile_qr_scan", "android": "https://dc.lft.to/lastmile_qr_scan"}, "fusion_lon": 0.0, "lat": 38.873638666666665, "is_disabled": 0, "bike_id": "f22c714118867e39d582c6ac918f4996", "fusion_lat": 0.0, "is_reserved": 0, "lon": -77.00581666666666}, {"type": "electric_bike", "name": "eac0ccef016e9883a9e9ca01a042a307", "rental_uris": {"ios": "https://dc.lft.to/lastmile_qr_scan", "android": "https://dc.lft.to/lastmile_qr_scan"}, "fusion_lon": 0.0, "lat": 38.8904305, "is_disabled": 0, "bike_id": "eac0ccef016e9883a9e9ca01a042a307", "fusion_lat": 0.0, "is_reserved": 0, "lon": -77.18396633333333}, {"type": "electric_scooter", "name": "c351bc413d93fa566484dc035daef114", "rental_uris": {"ios": "https://dc.lft.to/lastmile_qr_scan", "android": "https://dc.lft.to/lastmile_qr_scan"}, "fusion_lon": 0.0, "lat": 38.914167, "is_disabled": 0, "bike_id": "c351bc413d93fa566484dc035daef114", "fusion_lat": 0.0, "is_reserved": 0, "lon": -77.03870083333334}, {"type": "electric_scooter", "name": "3dce24b7339b107f9152927864a5fa4e", "rental_uris": {"ios": "https://dc.lft.to/lastmile_qr_scan", "android": "https://dc.lft.to/lastmile_qr_scan"}, "fusion_lon": 0.0, "lat": 38.9310175, "is_disabled": 0, "bike_id": "3dce24b7339b107f9152927864a5fa4e", "fusion_lat": 0.0, "is_reserved": 0, "lon": -77.0346475}, {"type": "electric_scooter", "name": "cdab3bc13ea10ba5843a64a3bd4cba33", "rental_uris": {"ios": "https://dc.lft.to/lastmile_qr_scan", "android": "https://dc.lft.to/lastmile_qr_scan"}, "fusion_lon": 0.0, "lat": 38.918645, "is_disabled": 0, "bike_id": "cdab3bc13ea10ba5843a64a3bd4cba33", "fusion_lat": 0.0, "is_reserved": 0, "lon": -77.025965}, {"type": "electric_scooter", "name": "aeff715ed31a8c1c975bf91bfc68d035", "rental_uris": {"ios": "https://dc.lft.to/lastmile_qr_scan", "android": "https://dc.lft.to/lastmile_qr_scan"}, "fusion_lon": 0.0, "lat": 38.903864166666665, "is_disabled": 0, "bike_id": "aeff715ed31a8c1c975bf91bfc68d035", "fusion_lat": 0.0, "is_reserved": 0, "lon": -77.01649283333333}, {"type": "electric_scooter", "name": "04d97f7e174bacbcf843a9642b942d8a", "rental_uris": {"ios": "https://dc.lft.to/lastmile_qr_scan", "android": "https://dc.lft.to/lastmile_qr_scan"}, "fusion_lon": 0.0, "lat": 38.884018833333336, "is_disabled": 0, "bike_id": "04d97f7e174bacbcf843a9642b942d8a", "fusion_lat": 0.0, "is_reserved": 0, "lon": -76.98616266666667}, {"type": "electric_scooter", "name": "18f1c3fcd40107380f9f727f8fcf70fe", "rental_uris": {"ios": "https://dc.lft.to/lastmile_qr_scan", "android": "https://dc.lft.to/lastmile_qr_scan"}, "fusion_lon": 0.0, "lat": 38.9243795, "is_disabled": 0, "bike_id": "18f1c3fcd40107380f9f727f8fcf70fe", "fusion_lat": 0.0, "is_reserved": 0, "lon": -77.03409483333333}, {"type": "electric_scooter", "name": "14e7c0ab0ebbe77156860e50485cd04b", "rental_uris": {"ios": "https://dc.lft.to/lastmile_qr_scan", "android": "https://dc.lft.to/lastmile_qr_scan"}, "fusion_lon": 0.0, "lat": 38.92381, "is_disabled": 0, "bike_id": "14e7c0ab0ebbe77156860e50485cd04b", "fusion_lat": 0.0, "is_reserved": 0, "lon": -77.03100033333334}, {"type": "electric_scooter", "name": "fa3ebdd775f4ae7d1ef37f83e63002bb", "rental_uris": {"ios": "https://dc.lft.to/lastmile_qr_scan", "android": "https://dc.lft.to/lastmile_qr_scan"}, "fusion_lon": 0.0, "lat": 38.899488, "is_disabled": 0, "bike_id": "fa3ebdd775f4ae7d1ef37f83e63002bb", "fusion_lat": 0.0, "is_reserved": 0, "lon": -76.98164766666666}, {"type": "electric_scooter", "name": "d68e6e931969aeebcc15c37414168e06", "rental_uris": {"ios": "https://dc.lft.to/lastmile_qr_scan", "android": "https://dc.lft.to/lastmile_qr_scan"}, "fusion_lon": 0.0, "lat": 38.9133855, "is_disabled": 0, "bike_id": "d68e6e931969aeebcc15c37414168e06", "fusion_lat": 0.0, "is_reserved": 0, "lon": -77.030186}, {"type": "electric_scooter", "name": "452eecec36317e3e5315db57d06746f3", "rental_uris": {"ios": "https://dc.lft.to/lastmile_qr_scan", "android": "https://dc.lft.to/lastmile_qr_scan"}, "fusion_lon": 0.0, "lat": 38.93056716666667, "is_disabled": 0, "bike_id": "452eecec36317e3e5315db57d06746f3", "fusion_lat": 0.0, "is_reserved": 0, "lon": -77.018636}, {"type": "electric_scooter", "name": "26134b7f9e39f998113838f6a3a4d599", "rental_uris": {"ios": "https://dc.lft.to/lastmile_qr_scan", "android": "https://dc.lft.to/lastmile_qr_scan"}, "fusion_lon": 0.0, "lat": 38.8841305, "is_disabled": 0, "bike_id": "26134b7f9e39f998113838f6a3a4d599", "fusion_lat": 0.0, "is_reserved": 0, "lon": -76.957617}, {"type": "electric_bike", "name": "e067678147423f7fd6ea6c53cdd16d33", "rental_uris": {"ios": "https://dc.lft.to/lastmile_qr_scan", "android": "https://dc.lft.to/lastmile_qr_scan"}, "fusion_lon": 0.0, "lat": 38.797002, "is_disabled": 0, "bike_id": "e067678147423f7fd6ea6c53cdd16d33", "fusion_lat": 0.0, "is_reserved": 0, "lon": -77.00370033333333}, {"type": "electric_scooter", "name": "4099c9c94b3e5a12078483380547fd02", "rental_uris": {"ios": "https://dc.lft.to/lastmile_qr_scan", "android": "https://dc.lft.to/lastmile_qr_scan"}, "fusion_lon": 0.0, "lat": 38.924458333333334, "is_disabled": 0, "bike_id": "4099c9c94b3e5a12078483380547fd02", "fusion_lat": 0.0, "is_reserved": 0, "lon": -77.02149533333333}, {"type": "electric_scooter", "name": "147b1f06b53eb0408519b33935dd1ea3", "rental_uris": {"ios": "https://dc.lft.to/lastmile_qr_scan", "android": "https://dc.lft.to/lastmile_qr_scan"}, "fusion_lon": 0.0, "lat": 38.927859833333336, "is_disabled": 0, "bike_id": "147b1f06b53eb0408519b33935dd1ea3", "fusion_lat": 0.0, "is_reserved": 0, "lon": -77.02097933333333}, {"type": "electric_scooter", "name": "cef11a05a2c5501476463b11e8451b21", "rental_uris": {"ios": "https://dc.lft.to/lastmile_qr_scan", "android": "https://dc.lft.to/lastmile_qr_scan"}, "fusion_lon": 0.0, "lat": 38.916345166666666, "is_disabled": 0, "bike_id": "cef11a05a2c5501476463b11e8451b21", "fusion_lat": 0.0, "is_reserved": 0, "lon": -77.03206233333333}, {"type": "electric_scooter", "name": "a9d5e252a2480d42f9c875bbf75577b2", "rental_uris": {"ios": "https://dc.lft.to/lastmile_qr_scan", "android": "https://dc.lft.to/lastmile_qr_scan"}, "fusion_lon": 0.0, "lat": 38.8871775, "is_disabled": 0, "bike_id": "a9d5e252a2480d42f9c875bbf75577b2", "fusion_lat": 0.0, "is_reserved": 0, "lon": -76.99690733333334}, {"type": "electric_scooter", "name": "dbb5a2782360c4675c747bd3b2fef1d2", "rental_uris": {"ios": "https://dc.lft.to/lastmile_qr_scan", "android": "https://dc.lft.to/lastmile_qr_scan"}, "fusion_lon": 0.0, "lat": 38.865547, "is_disabled": 0, "bike_id": "dbb5a2782360c4675c747bd3b2fef1d2", "fusion_lat": 0.0, "is_reserved": 0, "lon": -76.97862983333333}, {"type": "electric_bike", "name": "9b6a8086da651d8beb7c7b2299bfc4e8", "rental_uris": {"ios": "https://dc.lft.to/lastmile_qr_scan", "android": "https://dc.lft.to/lastmile_qr_scan"}, "fusion_lon": 0.0, "lat": 38.89209, "is_disabled": 0, "bike_id": "9b6a8086da651d8beb7c7b2299bfc4e8", "fusion_lat": 0.0, "is_reserved": 0, "lon": -76.9602925}, {"type": "electric_scooter", "name": "de32258b52685160d916e33e90ff4f8a", "rental_uris": {"ios": "https://dc.lft.to/lastmile_qr_scan", "android": "https://dc.lft.to/lastmile_qr_scan"}, "fusion_lon": 0.0, "lat": 38.92042933333333, "is_disabled": 0, "bike_id": "de32258b52685160d916e33e90ff4f8a", "fusion_lat": 0.0, "is_reserved": 0, "lon": -77.0797895}, {"type": "electric_scooter", "name": "3679edd2c92986b273c93885f9b324b8", "rental_uris": {"ios": "https://dc.lft.to/lastmile_qr_scan", "android": "https://dc.lft.to/lastmile_qr_scan"}, "fusion_lon": 0.0, "lat": 38.898875333333336, "is_disabled": 0, "bike_id": "3679edd2c92986b273c93885f9b324b8", "fusion_lat": 0.0, "is_reserved": 0, "lon": -77.018719}, {"type": "electric_scooter", "name": "ddb20ff2c541375911ff522c2a98f56c", "rental_uris": {"ios": "https://dc.lft.to/lastmile_qr_scan", "android": "https://dc.lft.to/lastmile_qr_scan"}, "fusion_lon": 0.0, "lat": 38.90158816666667, "is_disabled": 0, "bike_id": "ddb20ff2c541375911ff522c2a98f56c", "fusion_lat": 0.0, "is_reserved": 0, "lon": -76.97628733333333}, {"type": "electric_bike", "name": "0ec02a649802de791cb2a4d0e69f2129", "rental_uris": {"ios": "https://dc.lft.to/lastmile_qr_scan", "android": "https://dc.lft.to/lastmile_qr_scan"}, "fusion_lon": 0.0, "lat": 38.81331083333333, "is_disabled": 0, "bike_id": "0ec02a649802de791cb2a4d0e69f2129", "fusion_lat": 0.0, "is_reserved": 0, "lon": -77.05095733333333}, {"type": "electric_scooter", "name": "798d7110afa07be454d379d0537796af", "rental_uris": {"ios": "https://dc.lft.to/lastmile_qr_scan", "android": "https://dc.lft.to/lastmile_qr_scan"}, "fusion_lon": 0.0, "lat": 38.9212165, "is_disabled": 0, "bike_id": "798d7110afa07be454d379d0537796af", "fusion_lat": 0.0, "is_reserved": 0, "lon": -77.02415316666666}, {"type": "electric_scooter", "name": "5cb0bf8568bf81dc2fd290bb647482ca", "rental_uris": {"ios": "https://dc.lft.to/lastmile_qr_scan", "android": "https://dc.lft.to/lastmile_qr_scan"}, "fusion_lon": 0.0, "lat": 38.92131916666666, "is_disabled": 0, "bike_id": "5cb0bf8568bf81dc2fd290bb647482ca", "fusion_lat": 0.0, "is_reserved": 0, "lon": -77.03659116666667}, {"type": "electric_scooter", "name": "2b9af41cd1147d615e547b13050977b0", "rental_uris": {"ios": "https://dc.lft.to/lastmile_qr_scan", "android": "https://dc.lft.to/lastmile_qr_scan"}, "fusion_lon": 0.0, "lat": 38.924467166666666, "is_disabled": 0, "bike_id": "2b9af41cd1147d615e547b13050977b0", "fusion_lat": 0.0, "is_reserved": 0, "lon": -77.05242183333333}, {"type": "electric_scooter", "name": "79b008f638f06725cef7d9fc8f86a249", "rental_uris": {"ios": "https://dc.lft.to/lastmile_qr_scan", "android": "https://dc.lft.to/lastmile_qr_scan"}, "fusion_lon": 0.0, "lat": 38.914599333333335, "is_disabled": 0, "bike_id": "79b008f638f06725cef7d9fc8f86a249", "fusion_lat": 0.0, "is_reserved": 0, "lon": -77.021323}, {"type": "electric_bike", "name": "ef4cd8038b3986a8712d94aac734cde8", "rental_uris": {"ios": "https://dc.lft.to/lastmile_qr_scan", "android": "https://dc.lft.to/lastmile_qr_scan"}, "fusion_lon": 0.0, "lat": 38.88244183333333, "is_disabled": 0, "bike_id": "ef4cd8038b3986a8712d94aac734cde8", "fusion_lat": 0.0, "is_reserved": 0, "lon": -76.96261133333333}, {"type": "electric_bike", "name": "478d0a7fe67ea6c68d9824e00d1d21de", "rental_uris": {"ios": "https://dc.lft.to/lastmile_qr_scan", "android": "https://dc.lft.to/lastmile_qr_scan"}, "fusion_lon": 0.0, "lat": 38.93636983333333, "is_disabled": 0, "bike_id": "478d0a7fe67ea6c68d9824e00d1d21de", "fusion_lat": 0.0, "is_reserved": 0, "lon": -77.036893}, {"type": "electric_scooter", "name": "fbbb6a64610bb2e623228462bbd5d8e3", "rental_uris": {"ios": "https://dc.lft.to/lastmile_qr_scan", "android": "https://dc.lft.to/lastmile_qr_scan"}, "fusion_lon": 0.0, "lat": 38.929529, "is_disabled": 0, "bike_id": "fbbb6a64610bb2e623228462bbd5d8e3", "fusion_lat": 0.0, "is_reserved": 0, "lon": -77.055269}, {"type": "electric_scooter", "name": "3f25a7429ed322b258632451ce85f753", "rental_uris": {"ios": "https://dc.lft.to/lastmile_qr_scan", "android": "https://dc.lft.to/lastmile_qr_scan"}, "fusion_lon": 0.0, "lat": 38.924728333333334, "is_disabled": 0, "bike_id": "3f25a7429ed322b258632451ce85f753", "fusion_lat": 0.0, "is_reserved": 0, "lon": -77.02668316666667}, {"type": "electric_scooter", "name": "56893feece13afa29c61f7d7efd1d9ac", "rental_uris": {"ios": "https://dc.lft.to/lastmile_qr_scan", "android": "https://dc.lft.to/lastmile_qr_scan"}, "fusion_lon": 0.0, "lat": 38.87566266666666, "is_disabled": 0, "bike_id": "56893feece13afa29c61f7d7efd1d9ac", "fusion_lat": 0.0, "is_reserved": 0, "lon": -77.00933266666667}, {"type": "electric_scooter", "name": "95610bf965acba1c5e678ab7f836b964", "rental_uris": {"ios": "https://dc.lft.to/lastmile_qr_scan", "android": "https://dc.lft.to/lastmile_qr_scan"}, "fusion_lon": 0.0, "lat": 38.884446833333335, "is_disabled": 0, "bike_id": "95610bf965acba1c5e678ab7f836b964", "fusion_lat": 0.0, "is_reserved": 0, "lon": -76.99626716666667}, {"type": "electric_scooter", "name": "1c5a1f436915442532263275725af2a8", "rental_uris": {"ios": "https://dc.lft.to/lastmile_qr_scan", "android": "https://dc.lft.to/lastmile_qr_scan"}, "fusion_lon": 0.0, "lat": 38.927931, "is_disabled": 0, "bike_id": "1c5a1f436915442532263275725af2a8", "fusion_lat": 0.0, "is_reserved": 0, "lon": -76.95559866666666}, {"type": "electric_scooter", "name": "e7ae81df0b28493a72f53730fd72e103", "rental_uris": {"ios": "https://dc.lft.to/lastmile_qr_scan", "android": "https://dc.lft.to/lastmile_qr_scan"}, "fusion_lon": 0.0, "lat": 38.87972033333333, "is_disabled": 0, "bike_id": "e7ae81df0b28493a72f53730fd72e103", "fusion_lat": 0.0, "is_reserved": 0, "lon": -77.0241865}, {"type": "electric_scooter", "name": "1ce9ab4d5bb7dfb77af0b757e3770121", "rental_uris": {"ios": "https://dc.lft.to/lastmile_qr_scan", "android": "https://dc.lft.to/lastmile_qr_scan"}, "fusion_lon": 0.0, "lat": 38.901468, "is_disabled": 0, "bike_id": "1ce9ab4d5bb7dfb77af0b757e3770121", "fusion_lat": 0.0, "is_reserved": 0, "lon": -77.03577933333334}, {"type": "electric_scooter", "name": "c07a2eccfe951912147c551c67396aff", "rental_uris": {"ios": "https://dc.lft.to/lastmile_qr_scan", "android": "https://dc.lft.to/lastmile_qr_scan"}, "fusion_lon": 0.0, "lat": 38.9215365, "is_disabled": 0, "bike_id": "c07a2eccfe951912147c551c67396aff", "fusion_lat": 0.0, "is_reserved": 0, "lon": -77.033793}, {"type": "electric_scooter", "name": "26f21f8a9fcc99868966e3916d610e64", "rental_uris": {"ios": "https://dc.lft.to/lastmile_qr_scan", "android": "https://dc.lft.to/lastmile_qr_scan"}, "fusion_lon": 0.0, "lat": 38.90866366666667, "is_disabled": 0, "bike_id": "26f21f8a9fcc99868966e3916d610e64", "fusion_lat": 0.0, "is_reserved": 0, "lon": -76.93337183333334}, {"type": "electric_scooter", "name": "3ccf17ccd810fdc0d583541be809da54", "rental_uris": {"ios": "https://dc.lft.to/lastmile_qr_scan", "android": "https://dc.lft.to/lastmile_qr_scan"}, "fusion_lon": 0.0, "lat": 38.907879, "is_disabled": 0, "bike_id": "3ccf17ccd810fdc0d583541be809da54", "fusion_lat": 0.0, "is_reserved": 0, "lon": -76.994251}, {"type": "electric_scooter", "name": "12ef3ba2cbd6af353e24fe6e51912f3b", "rental_uris": {"ios": "https://dc.lft.to/lastmile_qr_scan", "android": "https://dc.lft.to/lastmile_qr_scan"}, "fusion_lon": 0.0, "lat": 38.92143033333333, "is_disabled": 0, "bike_id": "12ef3ba2cbd6af353e24fe6e51912f3b", "fusion_lat": 0.0, "is_reserved": 0, "lon": -77.03498466666667}, {"type": "electric_scooter", "name": "e2bf7f1f6f7f5c1df8dbc1b18c51091b", "rental_uris": {"ios": "https://dc.lft.to/lastmile_qr_scan", "android": "https://dc.lft.to/lastmile_qr_scan"}, "fusion_lon": 0.0, "lat": 38.9062695, "is_disabled": 0, "bike_id": "e2bf7f1f6f7f5c1df8dbc1b18c51091b", "fusion_lat": 0.0, "is_reserved": 0, "lon": -77.03570316666666}, {"type": "electric_scooter", "name": "bb8f97fc37905227da6af887eec8f097", "rental_uris": {"ios": "https://dc.lft.to/lastmile_qr_scan", "android": "https://dc.lft.to/lastmile_qr_scan"}, "fusion_lon": 0.0, "lat": 38.9446375, "is_disabled": 0, "bike_id": "bb8f97fc37905227da6af887eec8f097", "fusion_lat": 0.0, "is_reserved": 0, "lon": -77.00658316666667}, {"type": "electric_scooter", "name": "39cb5e422fe16cd60912e1ce5f3979ed", "rental_uris": {"ios": "https://dc.lft.to/lastmile_qr_scan", "android": "https://dc.lft.to/lastmile_qr_scan"}, "fusion_lon": 0.0, "lat": 38.8852845, "is_disabled": 0, "bike_id": "39cb5e422fe16cd60912e1ce5f3979ed", "fusion_lat": 0.0, "is_reserved": 0, "lon": -77.0152815}, {"type": "electric_scooter", "name": "b4e3d944ea061e7b3b1e67889867cb5c", "rental_uris": {"ios": "https://dc.lft.to/lastmile_qr_scan", "android": "https://dc.lft.to/lastmile_qr_scan"}, "fusion_lon": 0.0, "lat": 38.936332666666665, "is_disabled": 0, "bike_id": "b4e3d944ea061e7b3b1e67889867cb5c", "fusion_lat": 0.0, "is_reserved": 0, "lon": -77.0366035}, {"type": "electric_scooter", "name": "fb2cec4d6100815574441240ffe0a697", "rental_uris": {"ios": "https://dc.lft.to/lastmile_qr_scan", "android": "https://dc.lft.to/lastmile_qr_scan"}, "fusion_lon": 0.0, "lat": 38.91695433333334, "is_disabled": 0, "bike_id": "fb2cec4d6100815574441240ffe0a697", "fusion_lat": 0.0, "is_reserved": 0, "lon": -77.03051866666667}, {"type": "electric_scooter", "name": "4c5e2922067fdb2f868f00318b51ad06", "rental_uris": {"ios": "https://dc.lft.to/lastmile_qr_scan", "android": "https://dc.lft.to/lastmile_qr_scan"}, "fusion_lon": 0.0, "lat": 38.92771, "is_disabled": 0, "bike_id": "4c5e2922067fdb2f868f00318b51ad06", "fusion_lat": 0.0, "is_reserved": 0, "lon": -77.0267715}, {"type": "electric_scooter", "name": "79d22464e7214f62f9b6b7afae25ce91", "rental_uris": {"ios": "https://dc.lft.to/lastmile_qr_scan", "android": "https://dc.lft.to/lastmile_qr_scan"}, "fusion_lon": 0.0, "lat": 38.90159416666667, "is_disabled": 0, "bike_id": "79d22464e7214f62f9b6b7afae25ce91", "fusion_lat": 0.0, "is_reserved": 0, "lon": -77.013247}, {"type": "electric_scooter", "name": "8efe314e90a4fad4d1afc272b99f46ca", "rental_uris": {"ios": "https://dc.lft.to/lastmile_qr_scan", "android": "https://dc.lft.to/lastmile_qr_scan"}, "fusion_lon": 0.0, "lat": 38.91227633333333, "is_disabled": 0, "bike_id": "8efe314e90a4fad4d1afc272b99f46ca", "fusion_lat": 0.0, "is_reserved": 0, "lon": -76.98788583333334}, {"type": "electric_scooter", "name": "ceff16c8c41f1ba6e833661c8c8a5398", "rental_uris": {"ios": "https://dc.lft.to/lastmile_qr_scan", "android": "https://dc.lft.to/lastmile_qr_scan"}, "fusion_lon": 0.0, "lat": 38.892213166666664, "is_disabled": 0, "bike_id": "ceff16c8c41f1ba6e833661c8c8a5398", "fusion_lat": 0.0, "is_reserved": 0, "lon": -77.04378533333333}, {"type": "electric_scooter", "name": "b370cf0e7c33a14a1b6407e9ee7206af", "rental_uris": {"ios": "https://dc.lft.to/lastmile_qr_scan", "android": "https://dc.lft.to/lastmile_qr_scan"}, "fusion_lon": 0.0, "lat": 38.89223783333333, "is_disabled": 0, "bike_id": "b370cf0e7c33a14a1b6407e9ee7206af", "fusion_lat": 0.0, "is_reserved": 0, "lon": -77.03339283333334}, {"type": "electric_scooter", "name": "3d914bc6dd544d1f7863c181aebf0c51", "rental_uris": {"ios": "https://dc.lft.to/lastmile_qr_scan", "android": "https://dc.lft.to/lastmile_qr_scan"}, "fusion_lon": 0.0, "lat": 38.86503616666667, "is_disabled": 0, "bike_id": "3d914bc6dd544d1f7863c181aebf0c51", "fusion_lat": 0.0, "is_reserved": 0, "lon": -76.9900055}, {"type": "electric_scooter", "name": "cedfcad8142164ba646acb2da1b9a1af", "rental_uris": {"ios": "https://dc.lft.to/lastmile_qr_scan", "android": "https://dc.lft.to/lastmile_qr_scan"}, "fusion_lon": 0.0, "lat": 38.93607883333333, "is_disabled": 0, "bike_id": "cedfcad8142164ba646acb2da1b9a1af", "fusion_lat": 0.0, "is_reserved": 0, "lon": -77.05860383333334}, {"type": "electric_scooter", "name": "4408181e9406b08eb8ecfe4375cf54bb", "rental_uris": {"ios": "https://dc.lft.to/lastmile_qr_scan", "android": "https://dc.lft.to/lastmile_qr_scan"}, "fusion_lon": 0.0, "lat": 38.897883666666665, "is_disabled": 0, "bike_id": "4408181e9406b08eb8ecfe4375cf54bb", "fusion_lat": 0.0, "is_reserved": 0, "lon": -76.9312155}, {"type": "electric_scooter", "name": "18764c65a6ffeed6aee93215cbe89a2b", "rental_uris": {"ios": "https://dc.lft.to/lastmile_qr_scan", "android": "https://dc.lft.to/lastmile_qr_scan"}, "fusion_lon": 0.0, "lat": 38.91558966666667, "is_disabled": 0, "bike_id": "18764c65a6ffeed6aee93215cbe89a2b", "fusion_lat": 0.0, "is_reserved": 0, "lon": -77.02354916666667}, {"type": "electric_scooter", "name": "47b15f061937b36cb8994c046dc28ec9", "rental_uris": {"ios": "https://dc.lft.to/lastmile_qr_scan", "android": "https://dc.lft.to/lastmile_qr_scan"}, "fusion_lon": 0.0, "lat": 38.90157516666667, "is_disabled": 0, "bike_id": "47b15f061937b36cb8994c046dc28ec9", "fusion_lat": 0.0, "is_reserved": 0, "lon": -76.9806945}, {"type": "electric_scooter", "name": "fa0b6c5578ce4f6b5d72ea75fd95be47", "rental_uris": {"ios": "https://dc.lft.to/lastmile_qr_scan", "android": "https://dc.lft.to/lastmile_qr_scan"}, "fusion_lon": 0.0, "lat": 38.90452466666667, "is_disabled": 0, "bike_id": "fa0b6c5578ce4f6b5d72ea75fd95be47", "fusion_lat": 0.0, "is_reserved": 0, "lon": -77.01902366666667}, {"type": "electric_scooter", "name": "2948d017ee8f0b8c1c8718ca818bc661", "rental_uris": {"ios": "https://dc.lft.to/lastmile_qr_scan", "android": "https://dc.lft.to/lastmile_qr_scan"}, "fusion_lon": 0.0, "lat": 38.92975283333333, "is_disabled": 0, "bike_id": "2948d017ee8f0b8c1c8718ca818bc661", "fusion_lat": 0.0, "is_reserved": 0, "lon": -77.05503616666667}, {"type": "electric_scooter", "name": "7d6b7da8e87f0264e545c633f736d3ea", "rental_uris": {"ios": "https://dc.lft.to/lastmile_qr_scan", "android": "https://dc.lft.to/lastmile_qr_scan"}, "fusion_lon": 0.0, "lat": 38.9027205, "is_disabled": 0, "bike_id": "7d6b7da8e87f0264e545c633f736d3ea", "fusion_lat": 0.0, "is_reserved": 0, "lon": -77.035314}, {"type": "electric_scooter", "name": "edeb863a7f428f7f0de5dce5fe05c2dd", "rental_uris": {"ios": "https://dc.lft.to/lastmile_qr_scan", "android": "https://dc.lft.to/lastmile_qr_scan"}, "fusion_lon": 0.0, "lat": 38.973716, "is_disabled": 0, "bike_id": "edeb863a7f428f7f0de5dce5fe05c2dd", "fusion_lat": 0.0, "is_reserved": 0, "lon": -77.0185215}, {"type": "electric_scooter", "name": "96e8392a45a81af95972d441fdf19d6c", "rental_uris": {"ios": "https://dc.lft.to/lastmile_qr_scan", "android": "https://dc.lft.to/lastmile_qr_scan"}, "fusion_lon": 0.0, "lat": 38.908263, "is_disabled": 0, "bike_id": "96e8392a45a81af95972d441fdf19d6c", "fusion_lat": 0.0, "is_reserved": 0, "lon": -77.04348466666667}, {"type": "electric_scooter", "name": "823b800749859f92a3e672113e6b23e3", "rental_uris": {"ios": "https://dc.lft.to/lastmile_qr_scan", "android": "https://dc.lft.to/lastmile_qr_scan"}, "fusion_lon": 0.0, "lat": 38.9247225, "is_disabled": 0, "bike_id": "823b800749859f92a3e672113e6b23e3", "fusion_lat": 0.0, "is_reserved": 0, "lon": -77.038264}, {"type": "electric_scooter", "name": "50fca008fdc160c35860ee46842b9052", "rental_uris": {"ios": "https://dc.lft.to/lastmile_qr_scan", "android": "https://dc.lft.to/lastmile_qr_scan"}, "fusion_lon": 0.0, "lat": 38.92835683333333, "is_disabled": 0, "bike_id": "50fca008fdc160c35860ee46842b9052", "fusion_lat": 0.0, "is_reserved": 0, "lon": -77.01415166666666}, {"type": "electric_scooter", "name": "6e1cd5fc6f1bcec1e600f36bf0c12230", "rental_uris": {"ios": "https://dc.lft.to/lastmile_qr_scan", "android": "https://dc.lft.to/lastmile_qr_scan"}, "fusion_lon": 0.0, "lat": 38.8922355, "is_disabled": 0, "bike_id": "6e1cd5fc6f1bcec1e600f36bf0c12230", "fusion_lat": 0.0, "is_reserved": 0, "lon": -77.04195916666667}, {"type": "electric_scooter", "name": "2f6a6912e9e4fa973087b5e22ec7ebfc", "rental_uris": {"ios": "https://dc.lft.to/lastmile_qr_scan", "android": "https://dc.lft.to/lastmile_qr_scan"}, "fusion_lon": 0.0, "lat": 38.916258666666664, "is_disabled": 0, "bike_id": "2f6a6912e9e4fa973087b5e22ec7ebfc", "fusion_lat": 0.0, "is_reserved": 0, "lon": -77.04004366666666}, {"type": "electric_scooter", "name": "b98bb9019edfd5265eeb11672290f00e", "rental_uris": {"ios": "https://dc.lft.to/lastmile_qr_scan", "android": "https://dc.lft.to/lastmile_qr_scan"}, "fusion_lon": 0.0, "lat": 38.927946, "is_disabled": 0, "bike_id": "b98bb9019edfd5265eeb11672290f00e", "fusion_lat": 0.0, "is_reserved": 0, "lon": -77.0315265}, {"type": "electric_scooter", "name": "938f3814f8788f9b7df354d123ff93f9", "rental_uris": {"ios": "https://dc.lft.to/lastmile_qr_scan", "android": "https://dc.lft.to/lastmile_qr_scan"}, "fusion_lon": 0.0, "lat": 38.902619333333334, "is_disabled": 0, "bike_id": "938f3814f8788f9b7df354d123ff93f9", "fusion_lat": 0.0, "is_reserved": 0, "lon": -77.01841233333333}, {"type": "electric_scooter", "name": "1a9cf20599393eb305fbfc2538bf8f6b", "rental_uris": {"ios": "https://dc.lft.to/lastmile_qr_scan", "android": "https://dc.lft.to/lastmile_qr_scan"}, "fusion_lon": 0.0, "lat": 38.9549455, "is_disabled": 0, "bike_id": "1a9cf20599393eb305fbfc2538bf8f6b", "fusion_lat": 0.0, "is_reserved": 0, "lon": -77.01727633333333}, {"type": "electric_bike", "name": "ee76f7a963865af6e808b1fdcc7dc2f6", "rental_uris": {"ios": "https://dc.lft.to/lastmile_qr_scan", "android": "https://dc.lft.to/lastmile_qr_scan"}, "fusion_lon": 0.0, "lat": 38.864681, "is_disabled": 0, "bike_id": "ee76f7a963865af6e808b1fdcc7dc2f6", "fusion_lat": 0.0, "is_reserved": 0, "lon": -76.945333}, {"type": "electric_scooter", "name": "21f1b58aa6241dfb8772fb4b45e2b7fd", "rental_uris": {"ios": "https://dc.lft.to/lastmile_qr_scan", "android": "https://dc.lft.to/lastmile_qr_scan"}, "fusion_lon": 0.0, "lat": 38.91350516666667, "is_disabled": 0, "bike_id": "21f1b58aa6241dfb8772fb4b45e2b7fd", "fusion_lat": 0.0, "is_reserved": 0, "lon": -77.0318465}, {"type": "electric_scooter", "name": "12a123ad320e0810cfd5edf931ded0d2", "rental_uris": {"ios": "https://dc.lft.to/lastmile_qr_scan", "android": "https://dc.lft.to/lastmile_qr_scan"}, "fusion_lon": 0.0, "lat": 38.92349633333333, "is_disabled": 0, "bike_id": "12a123ad320e0810cfd5edf931ded0d2", "fusion_lat": 0.0, "is_reserved": 0, "lon": -77.03520983333334}, {"type": "electric_scooter", "name": "07c4a4f7a9b0730bd42089260e6c388f", "rental_uris": {"ios": "https://dc.lft.to/lastmile_qr_scan", "android": "https://dc.lft.to/lastmile_qr_scan"}, "fusion_lon": 0.0, "lat": 38.90976466666667, "is_disabled": 0, "bike_id": "07c4a4f7a9b0730bd42089260e6c388f", "fusion_lat": 0.0, "is_reserved": 0, "lon": -77.0487275}, {"type": "electric_scooter", "name": "616b78040b60f72ec3bc5cfbc63885b5", "rental_uris": {"ios": "https://dc.lft.to/lastmile_qr_scan", "android": "https://dc.lft.to/lastmile_qr_scan"}, "fusion_lon": 0.0, "lat": 38.928412333333334, "is_disabled": 0, "bike_id": "616b78040b60f72ec3bc5cfbc63885b5", "fusion_lat": 0.0, "is_reserved": 0, "lon": -77.033005}, {"type": "electric_scooter", "name": "38620bd2decb073b3c2042832b8d6a52", "rental_uris": {"ios": "https://dc.lft.to/lastmile_qr_scan", "android": "https://dc.lft.to/lastmile_qr_scan"}, "fusion_lon": 0.0, "lat": 38.9038495, "is_disabled": 0, "bike_id": "38620bd2decb073b3c2042832b8d6a52", "fusion_lat": 0.0, "is_reserved": 0, "lon": -77.016477}, {"type": "electric_scooter", "name": "3d9f89616c52152c780105062fe5c551", "rental_uris": {"ios": "https://dc.lft.to/lastmile_qr_scan", "android": "https://dc.lft.to/lastmile_qr_scan"}, "fusion_lon": 0.0, "lat": 38.89856983333333, "is_disabled": 0, "bike_id": "3d9f89616c52152c780105062fe5c551", "fusion_lat": 0.0, "is_reserved": 0, "lon": -76.9463955}, {"type": "electric_bike", "name": "c73541504f59490dc4ad4ca39c1edc5f", "rental_uris": {"ios": "https://dc.lft.to/lastmile_qr_scan", "android": "https://dc.lft.to/lastmile_qr_scan"}, "fusion_lon": 0.0, "lat": 38.900289666666666, "is_disabled": 0, "bike_id": "c73541504f59490dc4ad4ca39c1edc5f", "fusion_lat": 0.0, "is_reserved": 0, "lon": -76.98869333333333}, {"type": "electric_scooter", "name": "af964d36fbc526d072185a5456781340", "rental_uris": {"ios": "https://dc.lft.to/lastmile_qr_scan", "android": "https://dc.lft.to/lastmile_qr_scan"}, "fusion_lon": 0.0, "lat": 38.93056, "is_disabled": 0, "bike_id": "af964d36fbc526d072185a5456781340", "fusion_lat": 0.0, "is_reserved": 0, "lon": -77.023581}, {"type": "electric_scooter", "name": "a4778dd7d347bce718c27e05080705fb", "rental_uris": {"ios": "https://dc.lft.to/lastmile_qr_scan", "android": "https://dc.lft.to/lastmile_qr_scan"}, "fusion_lon": 0.0, "lat": 38.934591, "is_disabled": 0, "bike_id": "a4778dd7d347bce718c27e05080705fb", "fusion_lat": 0.0, "is_reserved": 0, "lon": -77.04121866666667}, {"type": "electric_scooter", "name": "81bfdfd172bba07a677e188878407597", "rental_uris": {"ios": "https://dc.lft.to/lastmile_qr_scan", "android": "https://dc.lft.to/lastmile_qr_scan"}, "fusion_lon": 0.0, "lat": 38.866845166666664, "is_disabled": 0, "bike_id": "81bfdfd172bba07a677e188878407597", "fusion_lat": 0.0, "is_reserved": 0, "lon": -76.9856545}, {"type": "electric_scooter", "name": "d3ee1db4e9944b00a242eb1ddc8fcb0d", "rental_uris": {"ios": "https://dc.lft.to/lastmile_qr_scan", "android": "https://dc.lft.to/lastmile_qr_scan"}, "fusion_lon": 0.0, "lat": 38.884880333333335, "is_disabled": 0, "bike_id": "d3ee1db4e9944b00a242eb1ddc8fcb0d", "fusion_lat": 0.0, "is_reserved": 0, "lon": -77.0071115}, {"type": "electric_scooter", "name": "dd3d1ccf95174f1b8095844a0e9173a2", "rental_uris": {"ios": "https://dc.lft.to/lastmile_qr_scan", "android": "https://dc.lft.to/lastmile_qr_scan"}, "fusion_lon": 0.0, "lat": 38.91088833333333, "is_disabled": 0, "bike_id": "dd3d1ccf95174f1b8095844a0e9173a2", "fusion_lat": 0.0, "is_reserved": 0, "lon": -77.03846316666667}, {"type": "electric_scooter", "name": "31e12a8ab0ba3b9dbb1501614e302570", "rental_uris": {"ios": "https://dc.lft.to/lastmile_qr_scan", "android": "https://dc.lft.to/lastmile_qr_scan"}, "fusion_lon": 0.0, "lat": 38.912553333333335, "is_disabled": 0, "bike_id": "31e12a8ab0ba3b9dbb1501614e302570", "fusion_lat": 0.0, "is_reserved": 0, "lon": -77.03834683333334}, {"type": "electric_bike", "name": "93479857d2295ea70f376925d641c119", "rental_uris": {"ios": "https://dc.lft.to/lastmile_qr_scan", "android": "https://dc.lft.to/lastmile_qr_scan"}, "fusion_lon": 0.0, "lat": 38.9475545, "is_disabled": 0, "bike_id": "93479857d2295ea70f376925d641c119", "fusion_lat": 0.0, "is_reserved": 0, "lon": -77.02371383333333}, {"type": "electric_scooter", "name": "67603eca45a9c3ad11777207214cd6c6", "rental_uris": {"ios": "https://dc.lft.to/lastmile_qr_scan", "android": "https://dc.lft.to/lastmile_qr_scan"}, "fusion_lon": 0.0, "lat": 38.892965, "is_disabled": 0, "bike_id": "67603eca45a9c3ad11777207214cd6c6", "fusion_lat": 0.0, "is_reserved": 0, "lon": -76.97525283333333}, {"type": "electric_scooter", "name": "424b86ea6b4c31b894bd513e5aa74514", "rental_uris": {"ios": "https://dc.lft.to/lastmile_qr_scan", "android": "https://dc.lft.to/lastmile_qr_scan"}, "fusion_lon": 0.0, "lat": 38.90165433333333, "is_disabled": 0, "bike_id": "424b86ea6b4c31b894bd513e5aa74514", "fusion_lat": 0.0, "is_reserved": 0, "lon": -77.01317166666666}, {"type": "electric_scooter", "name": "605d2227f3cc7be3d10e5f91b8bfd8e5", "rental_uris": {"ios": "https://dc.lft.to/lastmile_qr_scan", "android": "https://dc.lft.to/lastmile_qr_scan"}, "fusion_lon": 0.0, "lat": 38.90192966666667, "is_disabled": 0, "bike_id": "605d2227f3cc7be3d10e5f91b8bfd8e5", "fusion_lat": 0.0, "is_reserved": 0, "lon": -76.98199566666666}, {"type": "electric_scooter", "name": "af93bf7ffaf1a13211cc7d98819b13ec", "rental_uris": {"ios": "https://dc.lft.to/lastmile_qr_scan", "android": "https://dc.lft.to/lastmile_qr_scan"}, "fusion_lon": 0.0, "lat": 38.912997, "is_disabled": 0, "bike_id": "af93bf7ffaf1a13211cc7d98819b13ec", "fusion_lat": 0.0, "is_reserved": 0, "lon": -77.0487545}, {"type": "electric_scooter", "name": "ea9f2daa4b10226bca3ee9174df8fb63", "rental_uris": {"ios": "https://dc.lft.to/lastmile_qr_scan", "android": "https://dc.lft.to/lastmile_qr_scan"}, "fusion_lon": 0.0, "lat": 38.935562166666664, "is_disabled": 0, "bike_id": "ea9f2daa4b10226bca3ee9174df8fb63", "fusion_lat": 0.0, "is_reserved": 0, "lon": -77.0818925}, {"type": "electric_scooter", "name": "bb60fcfbadba0fab10ab26e3913cb6d4", "rental_uris": {"ios": "https://dc.lft.to/lastmile_qr_scan", "android": "https://dc.lft.to/lastmile_qr_scan"}, "fusion_lon": 0.0, "lat": 38.907143833333336, "is_disabled": 0, "bike_id": "bb60fcfbadba0fab10ab26e3913cb6d4", "fusion_lat": 0.0, "is_reserved": 0, "lon": -77.02563516666666}, {"type": "electric_scooter", "name": "b153f36a2137508e9ff388b02bad2f30", "rental_uris": {"ios": "https://dc.lft.to/lastmile_qr_scan", "android": "https://dc.lft.to/lastmile_qr_scan"}, "fusion_lon": 0.0, "lat": 38.91906733333333, "is_disabled": 0, "bike_id": "b153f36a2137508e9ff388b02bad2f30", "fusion_lat": 0.0, "is_reserved": 0, "lon": -77.03442466666667}, {"type": "electric_scooter", "name": "8dcb672f9181283034a0e3c6bd1d2e6d", "rental_uris": {"ios": "https://dc.lft.to/lastmile_qr_scan", "android": "https://dc.lft.to/lastmile_qr_scan"}, "fusion_lon": 0.0, "lat": 38.884492333333334, "is_disabled": 0, "bike_id": "8dcb672f9181283034a0e3c6bd1d2e6d", "fusion_lat": 0.0, "is_reserved": 0, "lon": -76.95100683333334}, {"type": "electric_scooter", "name": "839e09e7513df4077bdecb66e0b9009c", "rental_uris": {"ios": "https://dc.lft.to/lastmile_qr_scan", "android": "https://dc.lft.to/lastmile_qr_scan"}, "fusion_lon": 0.0, "lat": 38.892861333333336, "is_disabled": 0, "bike_id": "839e09e7513df4077bdecb66e0b9009c", "fusion_lat": 0.0, "is_reserved": 0, "lon": -76.98308483333334}, {"type": "electric_scooter", "name": "5ad9a06f12fdcc2b9d18a259df9e4112", "rental_uris": {"ios": "https://dc.lft.to/lastmile_qr_scan", "android": "https://dc.lft.to/lastmile_qr_scan"}, "fusion_lon": 0.0, "lat": 38.920791333333334, "is_disabled": 0, "bike_id": "5ad9a06f12fdcc2b9d18a259df9e4112", "fusion_lat": 0.0, "is_reserved": 0, "lon": -77.04089083333334}, {"type": "electric_scooter", "name": "1017e890fa11cfaba05e28011e65594a", "rental_uris": {"ios": "https://dc.lft.to/lastmile_qr_scan", "android": "https://dc.lft.to/lastmile_qr_scan"}, "fusion_lon": 0.0, "lat": 38.86165866666666, "is_disabled": 0, "bike_id": "1017e890fa11cfaba05e28011e65594a", "fusion_lat": 0.0, "is_reserved": 0, "lon": -76.98367833333333}, {"type": "electric_scooter", "name": "2b9231c83ffda70c90c662c3a558cbed", "rental_uris": {"ios": "https://dc.lft.to/lastmile_qr_scan", "android": "https://dc.lft.to/lastmile_qr_scan"}, "fusion_lon": 0.0, "lat": 38.9432815, "is_disabled": 0, "bike_id": "2b9231c83ffda70c90c662c3a558cbed", "fusion_lat": 0.0, "is_reserved": 0, "lon": -77.013122}, {"type": "electric_scooter", "name": "c1ff4f458409176d41f60565227e42b6", "rental_uris": {"ios": "https://dc.lft.to/lastmile_qr_scan", "android": "https://dc.lft.to/lastmile_qr_scan"}, "fusion_lon": 0.0, "lat": 38.908039333333335, "is_disabled": 0, "bike_id": "c1ff4f458409176d41f60565227e42b6", "fusion_lat": 0.0, "is_reserved": 0, "lon": -77.06446933333334}, {"type": "electric_scooter", "name": "a2b46210cf2ddaeef800745026473741", "rental_uris": {"ios": "https://dc.lft.to/lastmile_qr_scan", "android": "https://dc.lft.to/lastmile_qr_scan"}, "fusion_lon": 0.0, "lat": 38.892235166666666, "is_disabled": 0, "bike_id": "a2b46210cf2ddaeef800745026473741", "fusion_lat": 0.0, "is_reserved": 0, "lon": -77.043768}, {"type": "electric_scooter", "name": "2fd3fae2722bb19bcd7d0ad8c65ffba0", "rental_uris": {"ios": "https://dc.lft.to/lastmile_qr_scan", "android": "https://dc.lft.to/lastmile_qr_scan"}, "fusion_lon": 0.0, "lat": 38.920577333333334, "is_disabled": 0, "bike_id": "2fd3fae2722bb19bcd7d0ad8c65ffba0", "fusion_lat": 0.0, "is_reserved": 0, "lon": -77.02374583333334}, {"type": "electric_scooter", "name": "fee498bf44faccf238992d3a946300d9", "rental_uris": {"ios": "https://dc.lft.to/lastmile_qr_scan", "android": "https://dc.lft.to/lastmile_qr_scan"}, "fusion_lon": 0.0, "lat": 38.928256833333336, "is_disabled": 0, "bike_id": "fee498bf44faccf238992d3a946300d9", "fusion_lat": 0.0, "is_reserved": 0, "lon": -77.054392}, {"type": "electric_scooter", "name": "4d1cbe955ef4c8dbaa2ba089d604cfd2", "rental_uris": {"ios": "https://dc.lft.to/lastmile_qr_scan", "android": "https://dc.lft.to/lastmile_qr_scan"}, "fusion_lon": 0.0, "lat": 38.94979766666667, "is_disabled": 0, "bike_id": "4d1cbe955ef4c8dbaa2ba089d604cfd2", "fusion_lat": 0.0, "is_reserved": 0, "lon": -77.06612433333333}, {"type": "electric_scooter", "name": "42ce6716b538d6616ff7a421eab69523", "rental_uris": {"ios": "https://dc.lft.to/lastmile_qr_scan", "android": "https://dc.lft.to/lastmile_qr_scan"}, "fusion_lon": 0.0, "lat": 38.902351333333336, "is_disabled": 0, "bike_id": "42ce6716b538d6616ff7a421eab69523", "fusion_lat": 0.0, "is_reserved": 0, "lon": -77.05336233333334}, {"type": "electric_scooter", "name": "29ae43a6d680f46f2bf38d676f77ebac", "rental_uris": {"ios": "https://dc.lft.to/lastmile_qr_scan", "android": "https://dc.lft.to/lastmile_qr_scan"}, "fusion_lon": 0.0, "lat": 38.93529616666667, "is_disabled": 0, "bike_id": "29ae43a6d680f46f2bf38d676f77ebac", "fusion_lat": 0.0, "is_reserved": 0, "lon": -77.02350633333333}, {"type": "electric_scooter", "name": "b042474c0058afb83a5f6d88ce7802a5", "rental_uris": {"ios": "https://dc.lft.to/lastmile_qr_scan", "android": "https://dc.lft.to/lastmile_qr_scan"}, "fusion_lon": 0.0, "lat": 38.8923525, "is_disabled": 0, "bike_id": "b042474c0058afb83a5f6d88ce7802a5", "fusion_lat": 0.0, "is_reserved": 0, "lon": -77.04875633333333}, {"type": "electric_scooter", "name": "65421e6d514ecb912b54b9f867ec3a9e", "rental_uris": {"ios": "https://dc.lft.to/lastmile_qr_scan", "android": "https://dc.lft.to/lastmile_qr_scan"}, "fusion_lon": 0.0, "lat": 38.88162066666666, "is_disabled": 0, "bike_id": "65421e6d514ecb912b54b9f867ec3a9e", "fusion_lat": 0.0, "is_reserved": 0, "lon": -77.0270895}, {"type": "electric_scooter", "name": "ece3240b6f55bd3a7f1c9a476e1d367c", "rental_uris": {"ios": "https://dc.lft.to/lastmile_qr_scan", "android": "https://dc.lft.to/lastmile_qr_scan"}, "fusion_lon": 0.0, "lat": 38.85546016666667, "is_disabled": 0, "bike_id": "ece3240b6f55bd3a7f1c9a476e1d367c", "fusion_lat": 0.0, "is_reserved": 0, "lon": -76.97175266666666}, {"type": "electric_scooter", "name": "9ca8aa57e8b7e2ac416b1ec753acd07f", "rental_uris": {"ios": "https://dc.lft.to/lastmile_qr_scan", "android": "https://dc.lft.to/lastmile_qr_scan"}, "fusion_lon": 0.0, "lat": 38.898635, "is_disabled": 0, "bike_id": "9ca8aa57e8b7e2ac416b1ec753acd07f", "fusion_lat": 0.0, "is_reserved": 0, "lon": -77.02043083333334}, {"type": "electric_scooter", "name": "767473ada3a127f953097ad3f332be90", "rental_uris": {"ios": "https://dc.lft.to/lastmile_qr_scan", "android": "https://dc.lft.to/lastmile_qr_scan"}, "fusion_lon": 0.0, "lat": 38.9071155, "is_disabled": 0, "bike_id": "767473ada3a127f953097ad3f332be90", "fusion_lat": 0.0, "is_reserved": 0, "lon": -77.034424}, {"type": "electric_scooter", "name": "dfb930d41986b12e6a102d5914abc81f", "rental_uris": {"ios": "https://dc.lft.to/lastmile_qr_scan", "android": "https://dc.lft.to/lastmile_qr_scan"}, "fusion_lon": 0.0, "lat": 38.913846666666664, "is_disabled": 0, "bike_id": "dfb930d41986b12e6a102d5914abc81f", "fusion_lat": 0.0, "is_reserved": 0, "lon": -77.03213233333334}, {"type": "electric_scooter", "name": "e4dfa72f712c34427682218477972e90", "rental_uris": {"ios": "https://dc.lft.to/lastmile_qr_scan", "android": "https://dc.lft.to/lastmile_qr_scan"}, "fusion_lon": 0.0, "lat": 38.9211915, "is_disabled": 0, "bike_id": "e4dfa72f712c34427682218477972e90", "fusion_lat": 0.0, "is_reserved": 0, "lon": -77.036553}, {"type": "electric_scooter", "name": "75b16f8b6f3c13072fd70dd61683b515", "rental_uris": {"ios": "https://dc.lft.to/lastmile_qr_scan", "android": "https://dc.lft.to/lastmile_qr_scan"}, "fusion_lon": 0.0, "lat": 38.90980966666667, "is_disabled": 0, "bike_id": "75b16f8b6f3c13072fd70dd61683b515", "fusion_lat": 0.0, "is_reserved": 0, "lon": -77.03444316666666}, {"type": "electric_scooter", "name": "7a8a8493ade443a3b5093c260c806650", "rental_uris": {"ios": "https://dc.lft.to/lastmile_qr_scan", "android": "https://dc.lft.to/lastmile_qr_scan"}, "fusion_lon": 0.0, "lat": 38.922743833333335, "is_disabled": 0, "bike_id": "7a8a8493ade443a3b5093c260c806650", "fusion_lat": 0.0, "is_reserved": 0, "lon": -77.03271433333333}, {"type": "electric_scooter", "name": "54affed96a3085362ed612cc85f208b9", "rental_uris": {"ios": "https://dc.lft.to/lastmile_qr_scan", "android": "https://dc.lft.to/lastmile_qr_scan"}, "fusion_lon": 0.0, "lat": 38.9013215, "is_disabled": 0, "bike_id": "54affed96a3085362ed612cc85f208b9", "fusion_lat": 0.0, "is_reserved": 0, "lon": -77.04626633333334}, {"type": "electric_scooter", "name": "a9e91e5bb517809b727f1748fe3b48f6", "rental_uris": {"ios": "https://dc.lft.to/lastmile_qr_scan", "android": "https://dc.lft.to/lastmile_qr_scan"}, "fusion_lon": 0.0, "lat": 38.9130265, "is_disabled": 0, "bike_id": "a9e91e5bb517809b727f1748fe3b48f6", "fusion_lat": 0.0, "is_reserved": 0, "lon": -77.03204866666667}, {"type": "electric_scooter", "name": "e915ea7c9682d61722ae43eed97b5dfb", "rental_uris": {"ios": "https://dc.lft.to/lastmile_qr_scan", "android": "https://dc.lft.to/lastmile_qr_scan"}, "fusion_lon": 0.0, "lat": 38.906377166666665, "is_disabled": 0, "bike_id": "e915ea7c9682d61722ae43eed97b5dfb", "fusion_lat": 0.0, "is_reserved": 0, "lon": -77.03463333333333}, {"type": "electric_scooter", "name": "f3f6057c4ef10f38fdbd1588b2345a5a", "rental_uris": {"ios": "https://dc.lft.to/lastmile_qr_scan", "android": "https://dc.lft.to/lastmile_qr_scan"}, "fusion_lon": 0.0, "lat": 38.909464166666666, "is_disabled": 0, "bike_id": "f3f6057c4ef10f38fdbd1588b2345a5a", "fusion_lat": 0.0, "is_reserved": 0, "lon": -77.02398716666667}, {"type": "electric_scooter", "name": "9907de56cf968890d95b7b8ee63b88b2", "rental_uris": {"ios": "https://dc.lft.to/lastmile_qr_scan", "android": "https://dc.lft.to/lastmile_qr_scan"}, "fusion_lon": 0.0, "lat": 38.90679766666667, "is_disabled": 0, "bike_id": "9907de56cf968890d95b7b8ee63b88b2", "fusion_lat": 0.0, "is_reserved": 0, "lon": -77.070933}, {"type": "electric_scooter", "name": "23e436c78d8b2287e94a064104613509", "rental_uris": {"ios": "https://dc.lft.to/lastmile_qr_scan", "android": "https://dc.lft.to/lastmile_qr_scan"}, "fusion_lon": 0.0, "lat": 38.927079666666664, "is_disabled": 0, "bike_id": "23e436c78d8b2287e94a064104613509", "fusion_lat": 0.0, "is_reserved": 0, "lon": -77.02437333333333}, {"type": "electric_scooter", "name": "d15781ade77236ed68f719889dc044ad", "rental_uris": {"ios": "https://dc.lft.to/lastmile_qr_scan", "android": "https://dc.lft.to/lastmile_qr_scan"}, "fusion_lon": 0.0, "lat": 38.923172, "is_disabled": 0, "bike_id": "d15781ade77236ed68f719889dc044ad", "fusion_lat": 0.0, "is_reserved": 0, "lon": -77.04523366666666}, {"type": "electric_scooter", "name": "e1c9d3978fed38bfb548cc9f605bf5c8", "rental_uris": {"ios": "https://dc.lft.to/lastmile_qr_scan", "android": "https://dc.lft.to/lastmile_qr_scan"}, "fusion_lon": 0.0, "lat": 38.905751, "is_disabled": 0, "bike_id": "e1c9d3978fed38bfb548cc9f605bf5c8", "fusion_lat": 0.0, "is_reserved": 0, "lon": -77.00393916666667}, {"type": "electric_scooter", "name": "7741de485d4bbf6973d40ef2e9f862fd", "rental_uris": {"ios": "https://dc.lft.to/lastmile_qr_scan", "android": "https://dc.lft.to/lastmile_qr_scan"}, "fusion_lon": 0.0, "lat": 38.843196666666664, "is_disabled": 0, "bike_id": "7741de485d4bbf6973d40ef2e9f862fd", "fusion_lat": 0.0, "is_reserved": 0, "lon": -76.999465}, {"type": "electric_scooter", "name": "1c3ef438692f5f2b6a23093b3a72a83b", "rental_uris": {"ios": "https://dc.lft.to/lastmile_qr_scan", "android": "https://dc.lft.to/lastmile_qr_scan"}, "fusion_lon": 0.0, "lat": 38.8848765, "is_disabled": 0, "bike_id": "1c3ef438692f5f2b6a23093b3a72a83b", "fusion_lat": 0.0, "is_reserved": 0, "lon": -76.95649916666666}, {"type": "electric_bike", "name": "aa826c31f2fec33ff1a21c0d524750aa", "rental_uris": {"ios": "https://dc.lft.to/lastmile_qr_scan", "android": "https://dc.lft.to/lastmile_qr_scan"}, "fusion_lon": 0.0, "lat": 38.839466, "is_disabled": 0, "bike_id": "aa826c31f2fec33ff1a21c0d524750aa", "fusion_lat": 0.0, "is_reserved": 0, "lon": -77.08759716666667}, {"type": "electric_scooter", "name": "adf095e57f4d3bdb8741e0c77324ede5", "rental_uris": {"ios": "https://dc.lft.to/lastmile_qr_scan", "android": "https://dc.lft.to/lastmile_qr_scan"}, "fusion_lon": 0.0, "lat": 38.91137966666667, "is_disabled": 0, "bike_id": "adf095e57f4d3bdb8741e0c77324ede5", "fusion_lat": 0.0, "is_reserved": 0, "lon": -77.0280625}, {"type": "electric_scooter", "name": "e8d6e6ce9832fc677a6d261a6fa9b0b9", "rental_uris": {"ios": "https://dc.lft.to/lastmile_qr_scan", "android": "https://dc.lft.to/lastmile_qr_scan"}, "fusion_lon": 0.0, "lat": 38.92825933333334, "is_disabled": 0, "bike_id": "e8d6e6ce9832fc677a6d261a6fa9b0b9", "fusion_lat": 0.0, "is_reserved": 0, "lon": -77.0262225}, {"type": "electric_scooter", "name": "8b1daf5e83afa99f9be90b0b23b2e7c1", "rental_uris": {"ios": "https://dc.lft.to/lastmile_qr_scan", "android": "https://dc.lft.to/lastmile_qr_scan"}, "fusion_lon": 0.0, "lat": 38.921251166666664, "is_disabled": 0, "bike_id": "8b1daf5e83afa99f9be90b0b23b2e7c1", "fusion_lat": 0.0, "is_reserved": 0, "lon": -77.04127183333334}, {"type": "electric_scooter", "name": "6f626a6472baca82e11d1d679d38cccd", "rental_uris": {"ios": "https://dc.lft.to/lastmile_qr_scan", "android": "https://dc.lft.to/lastmile_qr_scan"}, "fusion_lon": 0.0, "lat": 38.9236325, "is_disabled": 0, "bike_id": "6f626a6472baca82e11d1d679d38cccd", "fusion_lat": 0.0, "is_reserved": 0, "lon": -77.033421}, {"type": "electric_scooter", "name": "f39e09adea12db9d37b0fa50163de2ce", "rental_uris": {"ios": "https://dc.lft.to/lastmile_qr_scan", "android": "https://dc.lft.to/lastmile_qr_scan"}, "fusion_lon": 0.0, "lat": 38.922198, "is_disabled": 0, "bike_id": "f39e09adea12db9d37b0fa50163de2ce", "fusion_lat": 0.0, "is_reserved": 0, "lon": -77.02415483333333}, {"type": "electric_scooter", "name": "cd3bbb8678a131d625603a7155c975cc", "rental_uris": {"ios": "https://dc.lft.to/lastmile_qr_scan", "android": "https://dc.lft.to/lastmile_qr_scan"}, "fusion_lon": 0.0, "lat": 38.93664183333333, "is_disabled": 0, "bike_id": "cd3bbb8678a131d625603a7155c975cc", "fusion_lat": 0.0, "is_reserved": 0, "lon": -77.02386433333334}, {"type": "electric_scooter", "name": "f5c0f46715460d6c9cdb1f05d469b6de", "rental_uris": {"ios": "https://dc.lft.to/lastmile_qr_scan", "android": "https://dc.lft.to/lastmile_qr_scan"}, "fusion_lon": 0.0, "lat": 38.91736316666667, "is_disabled": 0, "bike_id": "f5c0f46715460d6c9cdb1f05d469b6de", "fusion_lat": 0.0, "is_reserved": 0, "lon": -77.03181816666667}, {"type": "electric_scooter", "name": "0191f442c35c85e16da5d3b34159f0bc", "rental_uris": {"ios": "https://dc.lft.to/lastmile_qr_scan", "android": "https://dc.lft.to/lastmile_qr_scan"}, "fusion_lon": 0.0, "lat": 38.89617916666667, "is_disabled": 0, "bike_id": "0191f442c35c85e16da5d3b34159f0bc", "fusion_lat": 0.0, "is_reserved": 0, "lon": -76.98572133333333}, {"type": "electric_scooter", "name": "09af32fc0a4811e1bee7c54aea00c648", "rental_uris": {"ios": "https://dc.lft.to/lastmile_qr_scan", "android": "https://dc.lft.to/lastmile_qr_scan"}, "fusion_lon": 0.0, "lat": 38.952459833333336, "is_disabled": 0, "bike_id": "09af32fc0a4811e1bee7c54aea00c648", "fusion_lat": 0.0, "is_reserved": 0, "lon": -77.02377466666667}, {"type": "electric_scooter", "name": "3fed0bee1820e5867c578bc5d9aa8cd4", "rental_uris": {"ios": "https://dc.lft.to/lastmile_qr_scan", "android": "https://dc.lft.to/lastmile_qr_scan"}, "fusion_lon": 0.0, "lat": 38.88335466666667, "is_disabled": 0, "bike_id": "3fed0bee1820e5867c578bc5d9aa8cd4", "fusion_lat": 0.0, "is_reserved": 0, "lon": -77.01752633333334}, {"type": "electric_scooter", "name": "6007fc1a5bc37e8a5b722a529c538d40", "rental_uris": {"ios": "https://dc.lft.to/lastmile_qr_scan", "android": "https://dc.lft.to/lastmile_qr_scan"}, "fusion_lon": 0.0, "lat": 38.89233083333333, "is_disabled": 0, "bike_id": "6007fc1a5bc37e8a5b722a529c538d40", "fusion_lat": 0.0, "is_reserved": 0, "lon": -77.043614}, {"type": "electric_scooter", "name": "3cccd3378447d8878e76254302bb05de", "rental_uris": {"ios": "https://dc.lft.to/lastmile_qr_scan", "android": "https://dc.lft.to/lastmile_qr_scan"}, "fusion_lon": 0.0, "lat": 38.90751366666667, "is_disabled": 0, "bike_id": "3cccd3378447d8878e76254302bb05de", "fusion_lat": 0.0, "is_reserved": 0, "lon": -77.000321}, {"type": "electric_scooter", "name": "a36e44b7a4abd8ac72e6cef78de36e52", "rental_uris": {"ios": "https://dc.lft.to/lastmile_qr_scan", "android": "https://dc.lft.to/lastmile_qr_scan"}, "fusion_lon": 0.0, "lat": 38.967288333333336, "is_disabled": 0, "bike_id": "a36e44b7a4abd8ac72e6cef78de36e52", "fusion_lat": 0.0, "is_reserved": 0, "lon": -77.00918566666667}, {"type": "electric_bike", "name": "248aa9007624f4a6116aaa3ffe7f1d77", "rental_uris": {"ios": "https://dc.lft.to/lastmile_qr_scan", "android": "https://dc.lft.to/lastmile_qr_scan"}, "fusion_lon": 0.0, "lat": 38.88407483333334, "is_disabled": 0, "bike_id": "248aa9007624f4a6116aaa3ffe7f1d77", "fusion_lat": 0.0, "is_reserved": 0, "lon": -76.96062783333333}, {"type": "electric_scooter", "name": "4bbf3a9fafb0b4b951ecacfca12e200d", "rental_uris": {"ios": "https://dc.lft.to/lastmile_qr_scan", "android": "https://dc.lft.to/lastmile_qr_scan"}, "fusion_lon": 0.0, "lat": 38.87877966666667, "is_disabled": 0, "bike_id": "4bbf3a9fafb0b4b951ecacfca12e200d", "fusion_lat": 0.0, "is_reserved": 0, "lon": -76.98223966666667}, {"type": "electric_scooter", "name": "c2bfc684314697ba21a861f739422eba", "rental_uris": {"ios": "https://dc.lft.to/lastmile_qr_scan", "android": "https://dc.lft.to/lastmile_qr_scan"}, "fusion_lon": 0.0, "lat": 38.905962333333335, "is_disabled": 0, "bike_id": "c2bfc684314697ba21a861f739422eba", "fusion_lat": 0.0, "is_reserved": 0, "lon": -77.051423}, {"type": "electric_scooter", "name": "159be2eaf3421791c3a9b4a10a90bf68", "rental_uris": {"ios": "https://dc.lft.to/lastmile_qr_scan", "android": "https://dc.lft.to/lastmile_qr_scan"}, "fusion_lon": 0.0, "lat": 38.924329666666665, "is_disabled": 0, "bike_id": "159be2eaf3421791c3a9b4a10a90bf68", "fusion_lat": 0.0, "is_reserved": 0, "lon": -77.04030883333333}, {"type": "electric_scooter", "name": "4bd014a9e8baa1c98d5a9a0731129111", "rental_uris": {"ios": "https://dc.lft.to/lastmile_qr_scan", "android": "https://dc.lft.to/lastmile_qr_scan"}, "fusion_lon": 0.0, "lat": 38.90807366666667, "is_disabled": 0, "bike_id": "4bd014a9e8baa1c98d5a9a0731129111", "fusion_lat": 0.0, "is_reserved": 0, "lon": -77.03448716666666}, {"type": "electric_scooter", "name": "356e61b8c1e4e683d70326c2abff6481", "rental_uris": {"ios": "https://dc.lft.to/lastmile_qr_scan", "android": "https://dc.lft.to/lastmile_qr_scan"}, "fusion_lon": 0.0, "lat": 38.896276666666665, "is_disabled": 0, "bike_id": "356e61b8c1e4e683d70326c2abff6481", "fusion_lat": 0.0, "is_reserved": 0, "lon": -77.02661316666666}, {"type": "electric_scooter", "name": "9b7485bf9aaf60b388d8303160db0149", "rental_uris": {"ios": "https://dc.lft.to/lastmile_qr_scan", "android": "https://dc.lft.to/lastmile_qr_scan"}, "fusion_lon": 0.0, "lat": 38.896312333333334, "is_disabled": 0, "bike_id": "9b7485bf9aaf60b388d8303160db0149", "fusion_lat": 0.0, "is_reserved": 0, "lon": -77.02856383333334}, {"type": "electric_scooter", "name": "778b409e94569ed3ea68668f90ffcf91", "rental_uris": {"ios": "https://dc.lft.to/lastmile_qr_scan", "android": "https://dc.lft.to/lastmile_qr_scan"}, "fusion_lon": 0.0, "lat": 38.9248715, "is_disabled": 0, "bike_id": "778b409e94569ed3ea68668f90ffcf91", "fusion_lat": 0.0, "is_reserved": 0, "lon": -77.10162066666666}, {"type": "electric_scooter", "name": "637d4db581c324ce81efb0c41835d85d", "rental_uris": {"ios": "https://dc.lft.to/lastmile_qr_scan", "android": "https://dc.lft.to/lastmile_qr_scan"}, "fusion_lon": 0.0, "lat": 38.9027065, "is_disabled": 0, "bike_id": "637d4db581c324ce81efb0c41835d85d", "fusion_lat": 0.0, "is_reserved": 0, "lon": -77.01763383333333}, {"type": "electric_scooter", "name": "78a205e46707cc6d44a91d09ad490894", "rental_uris": {"ios": "https://dc.lft.to/lastmile_qr_scan", "android": "https://dc.lft.to/lastmile_qr_scan"}, "fusion_lon": 0.0, "lat": 38.921203166666665, "is_disabled": 0, "bike_id": "78a205e46707cc6d44a91d09ad490894", "fusion_lat": 0.0, "is_reserved": 0, "lon": -77.00920233333333}, {"type": "electric_scooter", "name": "ab75532a66082e293370afec98e71c82", "rental_uris": {"ios": "https://dc.lft.to/lastmile_qr_scan", "android": "https://dc.lft.to/lastmile_qr_scan"}, "fusion_lon": 0.0, "lat": 38.867253, "is_disabled": 0, "bike_id": "ab75532a66082e293370afec98e71c82", "fusion_lat": 0.0, "is_reserved": 0, "lon": -76.98700033333333}, {"type": "electric_scooter", "name": "66027b13767051e50d89cd05f31dff92", "rental_uris": {"ios": "https://dc.lft.to/lastmile_qr_scan", "android": "https://dc.lft.to/lastmile_qr_scan"}, "fusion_lon": 0.0, "lat": 38.91214266666667, "is_disabled": 0, "bike_id": "66027b13767051e50d89cd05f31dff92", "fusion_lat": 0.0, "is_reserved": 0, "lon": -77.04494233333334}, {"type": "electric_scooter", "name": "c6202a8fd86e39e063cb7c777a081409", "rental_uris": {"ios": "https://dc.lft.to/lastmile_qr_scan", "android": "https://dc.lft.to/lastmile_qr_scan"}, "fusion_lon": 0.0, "lat": 38.88491166666667, "is_disabled": 0, "bike_id": "c6202a8fd86e39e063cb7c777a081409", "fusion_lat": 0.0, "is_reserved": 0, "lon": -77.0071235}, {"type": "electric_scooter", "name": "7ef837c3f13a4c22e81344657729dce4", "rental_uris": {"ios": "https://dc.lft.to/lastmile_qr_scan", "android": "https://dc.lft.to/lastmile_qr_scan"}, "fusion_lon": 0.0, "lat": 38.9231545, "is_disabled": 0, "bike_id": "7ef837c3f13a4c22e81344657729dce4", "fusion_lat": 0.0, "is_reserved": 0, "lon": -77.0401685}, {"type": "electric_scooter", "name": "adbc49eda7b7fa617a981228f9f5d209", "rental_uris": {"ios": "https://dc.lft.to/lastmile_qr_scan", "android": "https://dc.lft.to/lastmile_qr_scan"}, "fusion_lon": 0.0, "lat": 38.901311666666665, "is_disabled": 0, "bike_id": "adbc49eda7b7fa617a981228f9f5d209", "fusion_lat": 0.0, "is_reserved": 0, "lon": -77.01633183333334}, {"type": "electric_scooter", "name": "fe68456c205bb3e8c6d29c0f0f273f11", "rental_uris": {"ios": "https://dc.lft.to/lastmile_qr_scan", "android": "https://dc.lft.to/lastmile_qr_scan"}, "fusion_lon": 0.0, "lat": 38.919989, "is_disabled": 0, "bike_id": "fe68456c205bb3e8c6d29c0f0f273f11", "fusion_lat": 0.0, "is_reserved": 0, "lon": -77.03220883333333}, {"type": "electric_scooter", "name": "8513cf7da952aafe5b0597afd71bd441", "rental_uris": {"ios": "https://dc.lft.to/lastmile_qr_scan", "android": "https://dc.lft.to/lastmile_qr_scan"}, "fusion_lon": 0.0, "lat": 38.917430333333336, "is_disabled": 0, "bike_id": "8513cf7da952aafe5b0597afd71bd441", "fusion_lat": 0.0, "is_reserved": 0, "lon": -77.03186866666667}, {"type": "electric_scooter", "name": "5d1fa00718a3cf58eed349d6ad955e29", "rental_uris": {"ios": "https://dc.lft.to/lastmile_qr_scan", "android": "https://dc.lft.to/lastmile_qr_scan"}, "fusion_lon": 0.0, "lat": 38.92617466666667, "is_disabled": 0, "bike_id": "5d1fa00718a3cf58eed349d6ad955e29", "fusion_lat": 0.0, "is_reserved": 0, "lon": -77.02222633333334}, {"type": "electric_scooter", "name": "3a53632cd7dc739e260a4d160dc2272c", "rental_uris": {"ios": "https://dc.lft.to/lastmile_qr_scan", "android": "https://dc.lft.to/lastmile_qr_scan"}, "fusion_lon": 0.0, "lat": 38.90975, "is_disabled": 0, "bike_id": "3a53632cd7dc739e260a4d160dc2272c", "fusion_lat": 0.0, "is_reserved": 0, "lon": -77.03813333333333}, {"type": "electric_scooter", "name": "de72ebcf30aa9f4813781f3436c2e3f7", "rental_uris": {"ios": "https://dc.lft.to/lastmile_qr_scan", "android": "https://dc.lft.to/lastmile_qr_scan"}, "fusion_lon": 0.0, "lat": 38.903643333333335, "is_disabled": 0, "bike_id": "de72ebcf30aa9f4813781f3436c2e3f7", "fusion_lat": 0.0, "is_reserved": 0, "lon": -77.00342116666667}, {"type": "electric_scooter", "name": "9ceca9b11fb7943ec72467d4afa4a098", "rental_uris": {"ios": "https://dc.lft.to/lastmile_qr_scan", "android": "https://dc.lft.to/lastmile_qr_scan"}, "fusion_lon": 0.0, "lat": 38.90333116666667, "is_disabled": 0, "bike_id": "9ceca9b11fb7943ec72467d4afa4a098", "fusion_lat": 0.0, "is_reserved": 0, "lon": -77.038521}, {"type": "electric_scooter", "name": "e84ddd60e297b8a5f82ed1aa1d208aee", "rental_uris": {"ios": "https://dc.lft.to/lastmile_qr_scan", "android": "https://dc.lft.to/lastmile_qr_scan"}, "fusion_lon": 0.0, "lat": 38.902491833333336, "is_disabled": 0, "bike_id": "e84ddd60e297b8a5f82ed1aa1d208aee", "fusion_lat": 0.0, "is_reserved": 0, "lon": -77.0059035}, {"type": "electric_scooter", "name": "1e2af091dca2951ce92ac6dbc26a3d37", "rental_uris": {"ios": "https://dc.lft.to/lastmile_qr_scan", "android": "https://dc.lft.to/lastmile_qr_scan"}, "fusion_lon": 0.0, "lat": 38.91088583333333, "is_disabled": 0, "bike_id": "1e2af091dca2951ce92ac6dbc26a3d37", "fusion_lat": 0.0, "is_reserved": 0, "lon": -77.038434}, {"type": "electric_scooter", "name": "be7e6242374e2b98cedc3a63a30036b4", "rental_uris": {"ios": "https://dc.lft.to/lastmile_qr_scan", "android": "https://dc.lft.to/lastmile_qr_scan"}, "fusion_lon": 0.0, "lat": 38.8778655, "is_disabled": 0, "bike_id": "be7e6242374e2b98cedc3a63a30036b4", "fusion_lat": 0.0, "is_reserved": 0, "lon": -76.99410333333333}, {"type": "electric_scooter", "name": "2fc23c7c274a6910a967df7be34d36ad", "rental_uris": {"ios": "https://dc.lft.to/lastmile_qr_scan", "android": "https://dc.lft.to/lastmile_qr_scan"}, "fusion_lon": 0.0, "lat": 38.914833333333334, "is_disabled": 0, "bike_id": "2fc23c7c274a6910a967df7be34d36ad", "fusion_lat": 0.0, "is_reserved": 0, "lon": -77.00645683333333}, {"type": "electric_scooter", "name": "f321861b814bd5feb2bfa144286d76e6", "rental_uris": {"ios": "https://dc.lft.to/lastmile_qr_scan", "android": "https://dc.lft.to/lastmile_qr_scan"}, "fusion_lon": 0.0, "lat": 38.89952316666667, "is_disabled": 0, "bike_id": "f321861b814bd5feb2bfa144286d76e6", "fusion_lat": 0.0, "is_reserved": 0, "lon": -77.04160833333333}, {"type": "electric_scooter", "name": "90d89cfb7b9267ad290a76301df6f536", "rental_uris": {"ios": "https://dc.lft.to/lastmile_qr_scan", "android": "https://dc.lft.to/lastmile_qr_scan"}, "fusion_lon": 0.0, "lat": 38.89235383333333, "is_disabled": 0, "bike_id": "90d89cfb7b9267ad290a76301df6f536", "fusion_lat": 0.0, "is_reserved": 0, "lon": -77.0487615}, {"type": "electric_scooter", "name": "11b946afe1121674f594342fd3128a08", "rental_uris": {"ios": "https://dc.lft.to/lastmile_qr_scan", "android": "https://dc.lft.to/lastmile_qr_scan"}, "fusion_lon": 0.0, "lat": 38.92211983333333, "is_disabled": 0, "bike_id": "11b946afe1121674f594342fd3128a08", "fusion_lat": 0.0, "is_reserved": 0, "lon": -77.03518133333333}, {"type": "electric_scooter", "name": "9672204c67489dee19b5bfd8569df0ab", "rental_uris": {"ios": "https://dc.lft.to/lastmile_qr_scan", "android": "https://dc.lft.to/lastmile_qr_scan"}, "fusion_lon": 0.0, "lat": 38.93374416666666, "is_disabled": 0, "bike_id": "9672204c67489dee19b5bfd8569df0ab", "fusion_lat": 0.0, "is_reserved": 0, "lon": -77.03690183333333}, {"type": "electric_scooter", "name": "c6669362c9c483621e07bcf3dce3605d", "rental_uris": {"ios": "https://dc.lft.to/lastmile_qr_scan", "android": "https://dc.lft.to/lastmile_qr_scan"}, "fusion_lon": 0.0, "lat": 38.904093833333334, "is_disabled": 0, "bike_id": "c6669362c9c483621e07bcf3dce3605d", "fusion_lat": 0.0, "is_reserved": 0, "lon": -76.973296}, {"type": "electric_scooter", "name": "7a090e1020c4ab2f02c5b8d9936f9d9d", "rental_uris": {"ios": "https://dc.lft.to/lastmile_qr_scan", "android": "https://dc.lft.to/lastmile_qr_scan"}, "fusion_lon": 0.0, "lat": 38.918615, "is_disabled": 0, "bike_id": "7a090e1020c4ab2f02c5b8d9936f9d9d", "fusion_lat": 0.0, "is_reserved": 0, "lon": -77.03222616666666}, {"type": "electric_scooter", "name": "98fecfec2798573354993f57eecba05d", "rental_uris": {"ios": "https://dc.lft.to/lastmile_qr_scan", "android": "https://dc.lft.to/lastmile_qr_scan"}, "fusion_lon": 0.0, "lat": 38.92824916666667, "is_disabled": 0, "bike_id": "98fecfec2798573354993f57eecba05d", "fusion_lat": 0.0, "is_reserved": 0, "lon": -77.0225845}, {"type": "electric_scooter", "name": "7a5f30fbc9ba8e8ac25805e325301658", "rental_uris": {"ios": "https://dc.lft.to/lastmile_qr_scan", "android": "https://dc.lft.to/lastmile_qr_scan"}, "fusion_lon": 0.0, "lat": 38.9398845, "is_disabled": 0, "bike_id": "7a5f30fbc9ba8e8ac25805e325301658", "fusion_lat": 0.0, "is_reserved": 0, "lon": -77.01892783333334}, {"type": "electric_scooter", "name": "fbd382a8f1eb1086b984d5eea72f89d3", "rental_uris": {"ios": "https://dc.lft.to/lastmile_qr_scan", "android": "https://dc.lft.to/lastmile_qr_scan"}, "fusion_lon": 0.0, "lat": 38.93879, "is_disabled": 0, "bike_id": "fbd382a8f1eb1086b984d5eea72f89d3", "fusion_lat": 0.0, "is_reserved": 0, "lon": -77.02465383333333}, {"type": "electric_scooter", "name": "eaf359b38b5a4ddfdbce86a0877b621b", "rental_uris": {"ios": "https://dc.lft.to/lastmile_qr_scan", "android": "https://dc.lft.to/lastmile_qr_scan"}, "fusion_lon": 0.0, "lat": 38.92870666666666, "is_disabled": 0, "bike_id": "eaf359b38b5a4ddfdbce86a0877b621b", "fusion_lat": 0.0, "is_reserved": 0, "lon": -77.03350583333334}, {"type": "electric_scooter", "name": "e28eefbf4499d9b6ce8cb57d2699b6e5", "rental_uris": {"ios": "https://dc.lft.to/lastmile_qr_scan", "android": "https://dc.lft.to/lastmile_qr_scan"}, "fusion_lon": 0.0, "lat": 38.892299333333334, "is_disabled": 0, "bike_id": "e28eefbf4499d9b6ce8cb57d2699b6e5", "fusion_lat": 0.0, "is_reserved": 0, "lon": -77.04999716666667}, {"type": "electric_bike", "name": "5af748b1fe21f59a98a956c59b056961", "rental_uris": {"ios": "https://dc.lft.to/lastmile_qr_scan", "android": "https://dc.lft.to/lastmile_qr_scan"}, "fusion_lon": 0.0, "lat": 38.9257195, "is_disabled": 0, "bike_id": "5af748b1fe21f59a98a956c59b056961", "fusion_lat": 0.0, "is_reserved": 0, "lon": -77.0436705}, {"type": "electric_scooter", "name": "6eaaab5962dba9d2d6f31baa956b9905", "rental_uris": {"ios": "https://dc.lft.to/lastmile_qr_scan", "android": "https://dc.lft.to/lastmile_qr_scan"}, "fusion_lon": 0.0, "lat": 38.93062333333334, "is_disabled": 0, "bike_id": "6eaaab5962dba9d2d6f31baa956b9905", "fusion_lat": 0.0, "is_reserved": 0, "lon": -77.02836633333334}, {"type": "electric_scooter", "name": "12554e23d4db80cf8bc61bd05aca34f0", "rental_uris": {"ios": "https://dc.lft.to/lastmile_qr_scan", "android": "https://dc.lft.to/lastmile_qr_scan"}, "fusion_lon": 0.0, "lat": 38.91717033333333, "is_disabled": 0, "bike_id": "12554e23d4db80cf8bc61bd05aca34f0", "fusion_lat": 0.0, "is_reserved": 0, "lon": -77.01207166666667}, {"type": "electric_scooter", "name": "cad3c6f6063fe85c2f6c048a3f4c489f", "rental_uris": {"ios": "https://dc.lft.to/lastmile_qr_scan", "android": "https://dc.lft.to/lastmile_qr_scan"}, "fusion_lon": 0.0, "lat": 38.917161, "is_disabled": 0, "bike_id": "cad3c6f6063fe85c2f6c048a3f4c489f", "fusion_lat": 0.0, "is_reserved": 0, "lon": -77.036637}, {"type": "electric_scooter", "name": "87a5761ece910cfaa2afb5a8548956ef", "rental_uris": {"ios": "https://dc.lft.to/lastmile_qr_scan", "android": "https://dc.lft.to/lastmile_qr_scan"}, "fusion_lon": 0.0, "lat": 38.90820316666667, "is_disabled": 0, "bike_id": "87a5761ece910cfaa2afb5a8548956ef", "fusion_lat": 0.0, "is_reserved": 0, "lon": -77.0549675}, {"type": "electric_scooter", "name": "3131c1e202a5676a7a4cdaa93d16be72", "rental_uris": {"ios": "https://dc.lft.to/lastmile_qr_scan", "android": "https://dc.lft.to/lastmile_qr_scan"}, "fusion_lon": 0.0, "lat": 38.93183166666667, "is_disabled": 0, "bike_id": "3131c1e202a5676a7a4cdaa93d16be72", "fusion_lat": 0.0, "is_reserved": 0, "lon": -77.0429685}, {"type": "electric_scooter", "name": "a87b6663da516aef69c2d84d8f1afe19", "rental_uris": {"ios": "https://dc.lft.to/lastmile_qr_scan", "android": "https://dc.lft.to/lastmile_qr_scan"}, "fusion_lon": 0.0, "lat": 38.894927833333334, "is_disabled": 0, "bike_id": "a87b6663da516aef69c2d84d8f1afe19", "fusion_lat": 0.0, "is_reserved": 0, "lon": -77.015139}, {"type": "electric_scooter", "name": "e06ae63616590f239d5ec71b85f05d34", "rental_uris": {"ios": "https://dc.lft.to/lastmile_qr_scan", "android": "https://dc.lft.to/lastmile_qr_scan"}, "fusion_lon": 0.0, "lat": 38.937397, "is_disabled": 0, "bike_id": "e06ae63616590f239d5ec71b85f05d34", "fusion_lat": 0.0, "is_reserved": 0, "lon": -77.03620116666667}, {"type": "electric_scooter", "name": "9a53307181f89ae76bd4ba4d1a381ff7", "rental_uris": {"ios": "https://dc.lft.to/lastmile_qr_scan", "android": "https://dc.lft.to/lastmile_qr_scan"}, "fusion_lon": 0.0, "lat": 38.884559833333334, "is_disabled": 0, "bike_id": "9a53307181f89ae76bd4ba4d1a381ff7", "fusion_lat": 0.0, "is_reserved": 0, "lon": -76.9983775}, {"type": "electric_scooter", "name": "363f98096d456694f921c019e583400b", "rental_uris": {"ios": "https://dc.lft.to/lastmile_qr_scan", "android": "https://dc.lft.to/lastmile_qr_scan"}, "fusion_lon": 0.0, "lat": 38.9211815, "is_disabled": 0, "bike_id": "363f98096d456694f921c019e583400b", "fusion_lat": 0.0, "is_reserved": 0, "lon": -77.03658916666667}, {"type": "electric_scooter", "name": "3b088c87e0c8d7581e9ecdb7bf59416a", "rental_uris": {"ios": "https://dc.lft.to/lastmile_qr_scan", "android": "https://dc.lft.to/lastmile_qr_scan"}, "fusion_lon": 0.0, "lat": 38.918295, "is_disabled": 0, "bike_id": "3b088c87e0c8d7581e9ecdb7bf59416a", "fusion_lat": 0.0, "is_reserved": 0, "lon": -77.04516083333333}, {"type": "electric_scooter", "name": "e5add8d0611cdf08400a14d0fcee08cd", "rental_uris": {"ios": "https://dc.lft.to/lastmile_qr_scan", "android": "https://dc.lft.to/lastmile_qr_scan"}, "fusion_lon": 0.0, "lat": 38.896714833333334, "is_disabled": 0, "bike_id": "e5add8d0611cdf08400a14d0fcee08cd", "fusion_lat": 0.0, "is_reserved": 0, "lon": -77.0321895}, {"type": "electric_scooter", "name": "dc142303fa4fb24c069d14ad5f500ea6", "rental_uris": {"ios": "https://dc.lft.to/lastmile_qr_scan", "android": "https://dc.lft.to/lastmile_qr_scan"}, "fusion_lon": 0.0, "lat": 38.893725, "is_disabled": 0, "bike_id": "dc142303fa4fb24c069d14ad5f500ea6", "fusion_lat": 0.0, "is_reserved": 0, "lon": -77.01966666666667}, {"type": "electric_scooter", "name": "f3abfc3e18e7edb32e4463f9bcd9bb99", "rental_uris": {"ios": "https://dc.lft.to/lastmile_qr_scan", "android": "https://dc.lft.to/lastmile_qr_scan"}, "fusion_lon": 0.0, "lat": 38.90028933333333, "is_disabled": 0, "bike_id": "f3abfc3e18e7edb32e4463f9bcd9bb99", "fusion_lat": 0.0, "is_reserved": 0, "lon": -76.98749633333334}, {"type": "electric_scooter", "name": "96a038ce66e2ca46fb2c68536b50652b", "rental_uris": {"ios": "https://dc.lft.to/lastmile_qr_scan", "android": "https://dc.lft.to/lastmile_qr_scan"}, "fusion_lon": 0.0, "lat": 38.8843745, "is_disabled": 0, "bike_id": "96a038ce66e2ca46fb2c68536b50652b", "fusion_lat": 0.0, "is_reserved": 0, "lon": -77.01534616666666}, {"type": "electric_scooter", "name": "db7b71326254590affc5632ac52b2250", "rental_uris": {"ios": "https://dc.lft.to/lastmile_qr_scan", "android": "https://dc.lft.to/lastmile_qr_scan"}, "fusion_lon": 0.0, "lat": 38.941334, "is_disabled": 0, "bike_id": "db7b71326254590affc5632ac52b2250", "fusion_lat": 0.0, "is_reserved": 0, "lon": -77.01543216666667}, {"type": "electric_scooter", "name": "2d6f03fb383ae9b5171b0dbf33e0fae0", "rental_uris": {"ios": "https://dc.lft.to/lastmile_qr_scan", "android": "https://dc.lft.to/lastmile_qr_scan"}, "fusion_lon": 0.0, "lat": 38.938972, "is_disabled": 0, "bike_id": "2d6f03fb383ae9b5171b0dbf33e0fae0", "fusion_lat": 0.0, "is_reserved": 0, "lon": -77.033292}, {"type": "electric_scooter", "name": "8686a76a17cc6af87f05d43726b5ccdc", "rental_uris": {"ios": "https://dc.lft.to/lastmile_qr_scan", "android": "https://dc.lft.to/lastmile_qr_scan"}, "fusion_lon": 0.0, "lat": 38.9251725, "is_disabled": 0, "bike_id": "8686a76a17cc6af87f05d43726b5ccdc", "fusion_lat": 0.0, "is_reserved": 0, "lon": -77.05124383333333}, {"type": "electric_scooter", "name": "0d7c581b0684739c32aab838bc3a431a", "rental_uris": {"ios": "https://dc.lft.to/lastmile_qr_scan", "android": "https://dc.lft.to/lastmile_qr_scan"}, "fusion_lon": 0.0, "lat": 38.913052, "is_disabled": 0, "bike_id": "0d7c581b0684739c32aab838bc3a431a", "fusion_lat": 0.0, "is_reserved": 0, "lon": -77.031969}, {"type": "electric_scooter", "name": "94aff90ae471c05b8145d1a044d4d36a", "rental_uris": {"ios": "https://dc.lft.to/lastmile_qr_scan", "android": "https://dc.lft.to/lastmile_qr_scan"}, "fusion_lon": 0.0, "lat": 38.920428, "is_disabled": 0, "bike_id": "94aff90ae471c05b8145d1a044d4d36a", "fusion_lat": 0.0, "is_reserved": 0, "lon": -77.01794933333333}, {"type": "electric_bike", "name": "0167bd2bed6b4e6766c330e953ed8b10", "rental_uris": {"ios": "https://dc.lft.to/lastmile_qr_scan", "android": "https://dc.lft.to/lastmile_qr_scan"}, "fusion_lon": 0.0, "lat": 38.8578985, "is_disabled": 0, "bike_id": "0167bd2bed6b4e6766c330e953ed8b10", "fusion_lat": 0.0, "is_reserved": 0, "lon": -77.09964683333334}, {"type": "electric_scooter", "name": "76734b15bae4c9e99eba6be326ed075e", "rental_uris": {"ios": "https://dc.lft.to/lastmile_qr_scan", "android": "https://dc.lft.to/lastmile_qr_scan"}, "fusion_lon": 0.0, "lat": 38.885041, "is_disabled": 0, "bike_id": "76734b15bae4c9e99eba6be326ed075e", "fusion_lat": 0.0, "is_reserved": 0, "lon": -76.99756466666666}, {"type": "electric_bike", "name": "f75c9c3b5f62887de2733cd1de69f89f", "rental_uris": {"ios": "https://dc.lft.to/lastmile_qr_scan", "android": "https://dc.lft.to/lastmile_qr_scan"}, "fusion_lon": 0.0, "lat": 38.89813183333333, "is_disabled": 0, "bike_id": "f75c9c3b5f62887de2733cd1de69f89f", "fusion_lat": 0.0, "is_reserved": 0, "lon": -76.99074166666666}, {"type": "electric_bike", "name": "bca4605eede56c151a1e3450ae4c875d", "rental_uris": {"ios": "https://dc.lft.to/lastmile_qr_scan", "android": "https://dc.lft.to/lastmile_qr_scan"}, "fusion_lon": 0.0, "lat": 38.93048666666667, "is_disabled": 0, "bike_id": "bca4605eede56c151a1e3450ae4c875d", "fusion_lat": 0.0, "is_reserved": 0, "lon": -76.9584105}, {"type": "electric_bike", "name": "492f889a689903ac9902d056d76b479a", "rental_uris": {"ios": "https://dc.lft.to/lastmile_qr_scan", "android": "https://dc.lft.to/lastmile_qr_scan"}, "fusion_lon": 0.0, "lat": 38.816136, "is_disabled": 0, "bike_id": "492f889a689903ac9902d056d76b479a", "fusion_lat": 0.0, "is_reserved": 0, "lon": -76.99664633333333}, {"type": "electric_scooter", "name": "ab390af47bdab453572b348b2883f2da", "rental_uris": {"ios": "https://dc.lft.to/lastmile_qr_scan", "android": "https://dc.lft.to/lastmile_qr_scan"}, "fusion_lon": 0.0, "lat": 38.91768883333334, "is_disabled": 0, "bike_id": "ab390af47bdab453572b348b2883f2da", "fusion_lat": 0.0, "is_reserved": 0, "lon": -77.01911466666667}, {"type": "electric_bike", "name": "0c707e73004f07c9ff20c5eeb13d81c0", "rental_uris": {"ios": "https://dc.lft.to/lastmile_qr_scan", "android": "https://dc.lft.to/lastmile_qr_scan"}, "fusion_lon": 0.0, "lat": 39.014173166666666, "is_disabled": 0, "bike_id": "0c707e73004f07c9ff20c5eeb13d81c0", "fusion_lat": 0.0, "is_reserved": 0, "lon": -77.04497683333334}, {"type": "electric_scooter", "name": "266731eaaab1bccda38142d127fb8ad8", "rental_uris": {"ios": "https://dc.lft.to/lastmile_qr_scan", "android": "https://dc.lft.to/lastmile_qr_scan"}, "fusion_lon": 0.0, "lat": 38.909137666666666, "is_disabled": 0, "bike_id": "266731eaaab1bccda38142d127fb8ad8", "fusion_lat": 0.0, "is_reserved": 0, "lon": -76.986328}, {"type": "electric_scooter", "name": "b72b5fd2bc3e97419487865695c2f831", "rental_uris": {"ios": "https://dc.lft.to/lastmile_qr_scan", "android": "https://dc.lft.to/lastmile_qr_scan"}, "fusion_lon": 0.0, "lat": 38.8952165, "is_disabled": 0, "bike_id": "b72b5fd2bc3e97419487865695c2f831", "fusion_lat": 0.0, "is_reserved": 0, "lon": -77.00206816666666}, {"type": "electric_scooter", "name": "935421a029c50d04f992c75d0d42c54d", "rental_uris": {"ios": "https://dc.lft.to/lastmile_qr_scan", "android": "https://dc.lft.to/lastmile_qr_scan"}, "fusion_lon": 0.0, "lat": 38.93861366666667, "is_disabled": 0, "bike_id": "935421a029c50d04f992c75d0d42c54d", "fusion_lat": 0.0, "is_reserved": 0, "lon": -77.02632266666667}, {"type": "electric_bike", "name": "add511a19b80105aefebf701daf79f38", "rental_uris": {"ios": "https://dc.lft.to/lastmile_qr_scan", "android": "https://dc.lft.to/lastmile_qr_scan"}, "fusion_lon": 0.0, "lat": 38.984606166666666, "is_disabled": 0, "bike_id": "add511a19b80105aefebf701daf79f38", "fusion_lat": 0.0, "is_reserved": 0, "lon": -76.970549}, {"type": "electric_scooter", "name": "1ea3a2d608c6313f84ec14671e09a7e6", "rental_uris": {"ios": "https://dc.lft.to/lastmile_qr_scan", "android": "https://dc.lft.to/lastmile_qr_scan"}, "fusion_lon": 0.0, "lat": 38.918461, "is_disabled": 0, "bike_id": "1ea3a2d608c6313f84ec14671e09a7e6", "fusion_lat": 0.0, "is_reserved": 0, "lon": -77.02299333333333}, {"type": "electric_scooter", "name": "95967d84a4e1cc90bb8e48505a3778ba", "rental_uris": {"ios": "https://dc.lft.to/lastmile_qr_scan", "android": "https://dc.lft.to/lastmile_qr_scan"}, "fusion_lon": 0.0, "lat": 38.939922, "is_disabled": 0, "bike_id": "95967d84a4e1cc90bb8e48505a3778ba", "fusion_lat": 0.0, "is_reserved": 0, "lon": -77.03266733333334}, {"type": "electric_bike", "name": "c12af07ec8a6c6ac600bf0c43e332c3e", "rental_uris": {"ios": "https://dc.lft.to/lastmile_qr_scan", "android": "https://dc.lft.to/lastmile_qr_scan"}, "fusion_lon": 0.0, "lat": 38.8826065, "is_disabled": 0, "bike_id": "c12af07ec8a6c6ac600bf0c43e332c3e", "fusion_lat": 0.0, "is_reserved": 0, "lon": -76.91037233333333}, {"type": "electric_scooter", "name": "0fa043d536724317f9a65565f91838a8", "rental_uris": {"ios": "https://dc.lft.to/lastmile_qr_scan", "android": "https://dc.lft.to/lastmile_qr_scan"}, "fusion_lon": 0.0, "lat": 38.887667666666665, "is_disabled": 0, "bike_id": "0fa043d536724317f9a65565f91838a8", "fusion_lat": 0.0, "is_reserved": 0, "lon": -76.97748633333333}, {"type": "electric_scooter", "name": "f7d6b28816a6b01d8e4a76d391accb6b", "rental_uris": {"ios": "https://dc.lft.to/lastmile_qr_scan", "android": "https://dc.lft.to/lastmile_qr_scan"}, "fusion_lon": 0.0, "lat": 38.91056666666667, "is_disabled": 0, "bike_id": "f7d6b28816a6b01d8e4a76d391accb6b", "fusion_lat": 0.0, "is_reserved": 0, "lon": -76.98521683333334}, {"type": "electric_scooter", "name": "a3fb5fe2f43fbbdea0fe4ab1ed7b7007", "rental_uris": {"ios": "https://dc.lft.to/lastmile_qr_scan", "android": "https://dc.lft.to/lastmile_qr_scan"}, "fusion_lon": 0.0, "lat": 38.90416583333333, "is_disabled": 0, "bike_id": "a3fb5fe2f43fbbdea0fe4ab1ed7b7007", "fusion_lat": 0.0, "is_reserved": 0, "lon": -77.04355333333334}, {"type": "electric_scooter", "name": "822061ebee0a3d316661322938586447", "rental_uris": {"ios": "https://dc.lft.to/lastmile_qr_scan", "android": "https://dc.lft.to/lastmile_qr_scan"}, "fusion_lon": 0.0, "lat": 38.9063345, "is_disabled": 0, "bike_id": "822061ebee0a3d316661322938586447", "fusion_lat": 0.0, "is_reserved": 0, "lon": -77.04146633333333}, {"type": "electric_scooter", "name": "dd0b2906698e54f3a112d6cb7f1c3419", "rental_uris": {"ios": "https://dc.lft.to/lastmile_qr_scan", "android": "https://dc.lft.to/lastmile_qr_scan"}, "fusion_lon": 0.0, "lat": 38.89134966666667, "is_disabled": 0, "bike_id": "dd0b2906698e54f3a112d6cb7f1c3419", "fusion_lat": 0.0, "is_reserved": 0, "lon": -76.990872}, {"type": "electric_bike", "name": "4587e74a10550340760081d32a482432", "rental_uris": {"ios": "https://dc.lft.to/lastmile_qr_scan", "android": "https://dc.lft.to/lastmile_qr_scan"}, "fusion_lon": 0.0, "lat": 38.85315533333333, "is_disabled": 0, "bike_id": "4587e74a10550340760081d32a482432", "fusion_lat": 0.0, "is_reserved": 0, "lon": -76.98010716666667}, {"type": "electric_scooter", "name": "698f25e98bdab7987e5557bcd5641a04", "rental_uris": {"ios": "https://dc.lft.to/lastmile_qr_scan", "android": "https://dc.lft.to/lastmile_qr_scan"}, "fusion_lon": 0.0, "lat": 38.92679566666666, "is_disabled": 0, "bike_id": "698f25e98bdab7987e5557bcd5641a04", "fusion_lat": 0.0, "is_reserved": 0, "lon": -77.03792333333334}, {"type": "electric_scooter", "name": "1038bfc946694b137c955bee9383b9b8", "rental_uris": {"ios": "https://dc.lft.to/lastmile_qr_scan", "android": "https://dc.lft.to/lastmile_qr_scan"}, "fusion_lon": 0.0, "lat": 38.90317133333333, "is_disabled": 0, "bike_id": "1038bfc946694b137c955bee9383b9b8", "fusion_lat": 0.0, "is_reserved": 0, "lon": -76.9942855}, {"type": "electric_scooter", "name": "24a809207b1e658592f424f9e2be7e8b", "rental_uris": {"ios": "https://dc.lft.to/lastmile_qr_scan", "android": "https://dc.lft.to/lastmile_qr_scan"}, "fusion_lon": 0.0, "lat": 38.9081235, "is_disabled": 0, "bike_id": "24a809207b1e658592f424f9e2be7e8b", "fusion_lat": 0.0, "is_reserved": 0, "lon": -77.034448}, {"type": "electric_scooter", "name": "62637dc02dafaeda6002d08e3777220a", "rental_uris": {"ios": "https://dc.lft.to/lastmile_qr_scan", "android": "https://dc.lft.to/lastmile_qr_scan"}, "fusion_lon": 0.0, "lat": 38.917269166666664, "is_disabled": 0, "bike_id": "62637dc02dafaeda6002d08e3777220a", "fusion_lat": 0.0, "is_reserved": 0, "lon": -77.02586883333333}, {"type": "electric_scooter", "name": "2e97533e6567d83bdb2abc1558fb9717", "rental_uris": {"ios": "https://dc.lft.to/lastmile_qr_scan", "android": "https://dc.lft.to/lastmile_qr_scan"}, "fusion_lon": 0.0, "lat": 38.91610516666667, "is_disabled": 0, "bike_id": "2e97533e6567d83bdb2abc1558fb9717", "fusion_lat": 0.0, "is_reserved": 0, "lon": -77.04618816666667}, {"type": "electric_scooter", "name": "f0136a3389518db0ef89506c4362f4af", "rental_uris": {"ios": "https://dc.lft.to/lastmile_qr_scan", "android": "https://dc.lft.to/lastmile_qr_scan"}, "fusion_lon": 0.0, "lat": 38.93399733333333, "is_disabled": 0, "bike_id": "f0136a3389518db0ef89506c4362f4af", "fusion_lat": 0.0, "is_reserved": 0, "lon": -77.05744183333333}, {"type": "electric_scooter", "name": "f6db1eee1feb05bbde21b00ad533d8b5", "rental_uris": {"ios": "https://dc.lft.to/lastmile_qr_scan", "android": "https://dc.lft.to/lastmile_qr_scan"}, "fusion_lon": 0.0, "lat": 38.914145833333336, "is_disabled": 0, "bike_id": "f6db1eee1feb05bbde21b00ad533d8b5", "fusion_lat": 0.0, "is_reserved": 0, "lon": -77.02366616666667}, {"type": "electric_scooter", "name": "b93ddda4211ab14642ef189160a8da15", "rental_uris": {"ios": "https://dc.lft.to/lastmile_qr_scan", "android": "https://dc.lft.to/lastmile_qr_scan"}, "fusion_lon": 0.0, "lat": 38.9209115, "is_disabled": 0, "bike_id": "b93ddda4211ab14642ef189160a8da15", "fusion_lat": 0.0, "is_reserved": 0, "lon": -77.022514}, {"type": "electric_scooter", "name": "16d8436db0e3f889c1b7c0aa63b0d511", "rental_uris": {"ios": "https://dc.lft.to/lastmile_qr_scan", "android": "https://dc.lft.to/lastmile_qr_scan"}, "fusion_lon": 0.0, "lat": 38.90136616666667, "is_disabled": 0, "bike_id": "16d8436db0e3f889c1b7c0aa63b0d511", "fusion_lat": 0.0, "is_reserved": 0, "lon": -77.0279655}, {"type": "electric_scooter", "name": "b6649633b1c4b25e1544a6f2a18945b4", "rental_uris": {"ios": "https://dc.lft.to/lastmile_qr_scan", "android": "https://dc.lft.to/lastmile_qr_scan"}, "fusion_lon": 0.0, "lat": 38.92362033333333, "is_disabled": 0, "bike_id": "b6649633b1c4b25e1544a6f2a18945b4", "fusion_lat": 0.0, "is_reserved": 0, "lon": -77.0505535}, {"type": "electric_scooter", "name": "2b59c4dbddccf0846d8df9bf77aab2be", "rental_uris": {"ios": "https://dc.lft.to/lastmile_qr_scan", "android": "https://dc.lft.to/lastmile_qr_scan"}, "fusion_lon": 0.0, "lat": 38.89361383333333, "is_disabled": 0, "bike_id": "2b59c4dbddccf0846d8df9bf77aab2be", "fusion_lat": 0.0, "is_reserved": 0, "lon": -76.92596516666667}, {"type": "electric_scooter", "name": "df8a0c06433eb678e42749cf0e3b3e18", "rental_uris": {"ios": "https://dc.lft.to/lastmile_qr_scan", "android": "https://dc.lft.to/lastmile_qr_scan"}, "fusion_lon": 0.0, "lat": 38.900227666666666, "is_disabled": 0, "bike_id": "df8a0c06433eb678e42749cf0e3b3e18", "fusion_lat": 0.0, "is_reserved": 0, "lon": -77.0069265}, {"type": "electric_scooter", "name": "677c18ebe33a29b816b1572b6bcb349d", "rental_uris": {"ios": "https://dc.lft.to/lastmile_qr_scan", "android": "https://dc.lft.to/lastmile_qr_scan"}, "fusion_lon": 0.0, "lat": 38.90823283333334, "is_disabled": 0, "bike_id": "677c18ebe33a29b816b1572b6bcb349d", "fusion_lat": 0.0, "is_reserved": 0, "lon": -77.04348666666667}, {"type": "electric_scooter", "name": "c8b6e580f797975abe8b1ab2470f922c", "rental_uris": {"ios": "https://dc.lft.to/lastmile_qr_scan", "android": "https://dc.lft.to/lastmile_qr_scan"}, "fusion_lon": 0.0, "lat": 38.91715383333333, "is_disabled": 0, "bike_id": "c8b6e580f797975abe8b1ab2470f922c", "fusion_lat": 0.0, "is_reserved": 0, "lon": -77.03462}, {"type": "electric_bike", "name": "a0fc4bf6ef82c9d422a53cb4e7955159", "rental_uris": {"ios": "https://dc.lft.to/lastmile_qr_scan", "android": "https://dc.lft.to/lastmile_qr_scan"}, "fusion_lon": 0.0, "lat": 38.9631405, "is_disabled": 0, "bike_id": "a0fc4bf6ef82c9d422a53cb4e7955159", "fusion_lat": 0.0, "is_reserved": 0, "lon": -77.07489233333334}, {"type": "electric_scooter", "name": "0cbbd4919e82cb6e4ae7a5e2da71666c", "rental_uris": {"ios": "https://dc.lft.to/lastmile_qr_scan", "android": "https://dc.lft.to/lastmile_qr_scan"}, "fusion_lon": 0.0, "lat": 38.9001625, "is_disabled": 0, "bike_id": "0cbbd4919e82cb6e4ae7a5e2da71666c", "fusion_lat": 0.0, "is_reserved": 0, "lon": -77.00185933333333}, {"type": "electric_scooter", "name": "62436d680674f3b3b29be09c9a97b7c5", "rental_uris": {"ios": "https://dc.lft.to/lastmile_qr_scan", "android": "https://dc.lft.to/lastmile_qr_scan"}, "fusion_lon": 0.0, "lat": 38.91698183333333, "is_disabled": 0, "bike_id": "62436d680674f3b3b29be09c9a97b7c5", "fusion_lat": 0.0, "is_reserved": 0, "lon": -77.04216966666667}, {"type": "electric_scooter", "name": "a7af0e2f3d4cb077761162ffe33b1044", "rental_uris": {"ios": "https://dc.lft.to/lastmile_qr_scan", "android": "https://dc.lft.to/lastmile_qr_scan"}, "fusion_lon": 0.0, "lat": 38.905086833333336, "is_disabled": 0, "bike_id": "a7af0e2f3d4cb077761162ffe33b1044", "fusion_lat": 0.0, "is_reserved": 0, "lon": -77.0298425}, {"type": "electric_bike", "name": "85f84a6f01df2d01458e65e2d9b59318", "rental_uris": {"ios": "https://dc.lft.to/lastmile_qr_scan", "android": "https://dc.lft.to/lastmile_qr_scan"}, "fusion_lon": 0.0, "lat": 38.8245785, "is_disabled": 0, "bike_id": "85f84a6f01df2d01458e65e2d9b59318", "fusion_lat": 0.0, "is_reserved": 0, "lon": -77.00794916666666}, {"type": "electric_scooter", "name": "8faa8ebec4c3ab5202e84346265cdb09", "rental_uris": {"ios": "https://dc.lft.to/lastmile_qr_scan", "android": "https://dc.lft.to/lastmile_qr_scan"}, "fusion_lon": 0.0, "lat": 38.86462933333333, "is_disabled": 0, "bike_id": "8faa8ebec4c3ab5202e84346265cdb09", "fusion_lat": 0.0, "is_reserved": 0, "lon": -77.01270033333333}, {"type": "electric_scooter", "name": "6fd5813641ec454a8c9346f98039fa63", "rental_uris": {"ios": "https://dc.lft.to/lastmile_qr_scan", "android": "https://dc.lft.to/lastmile_qr_scan"}, "fusion_lon": 0.0, "lat": 38.887653, "is_disabled": 0, "bike_id": "6fd5813641ec454a8c9346f98039fa63", "fusion_lat": 0.0, "is_reserved": 0, "lon": -76.97750683333334}, {"type": "electric_scooter", "name": "14fa178d11ac1a88c3e4636ee704e81e", "rental_uris": {"ios": "https://dc.lft.to/lastmile_qr_scan", "android": "https://dc.lft.to/lastmile_qr_scan"}, "fusion_lon": 0.0, "lat": 38.92078333333333, "is_disabled": 0, "bike_id": "14fa178d11ac1a88c3e4636ee704e81e", "fusion_lat": 0.0, "is_reserved": 0, "lon": -77.035009}, {"type": "electric_scooter", "name": "7ef503360604ef42fe085aac332771ee", "rental_uris": {"ios": "https://dc.lft.to/lastmile_qr_scan", "android": "https://dc.lft.to/lastmile_qr_scan"}, "fusion_lon": 0.0, "lat": 38.9148875, "is_disabled": 0, "bike_id": "7ef503360604ef42fe085aac332771ee", "fusion_lat": 0.0, "is_reserved": 0, "lon": -77.048353}, {"type": "electric_scooter", "name": "8ad166e41387d729526ac15380812853", "rental_uris": {"ios": "https://dc.lft.to/lastmile_qr_scan", "android": "https://dc.lft.to/lastmile_qr_scan"}, "fusion_lon": 0.0, "lat": 38.923146, "is_disabled": 0, "bike_id": "8ad166e41387d729526ac15380812853", "fusion_lat": 0.0, "is_reserved": 0, "lon": -77.041125}, {"type": "electric_scooter", "name": "3cc6f135399fa11e4dc7007062fbbf57", "rental_uris": {"ios": "https://dc.lft.to/lastmile_qr_scan", "android": "https://dc.lft.to/lastmile_qr_scan"}, "fusion_lon": 0.0, "lat": 38.900349, "is_disabled": 0, "bike_id": "3cc6f135399fa11e4dc7007062fbbf57", "fusion_lat": 0.0, "is_reserved": 0, "lon": -77.01289033333333}, {"type": "electric_scooter", "name": "34057688b334b3624a59ef86fab6fba1", "rental_uris": {"ios": "https://dc.lft.to/lastmile_qr_scan", "android": "https://dc.lft.to/lastmile_qr_scan"}, "fusion_lon": 0.0, "lat": 38.912630666666665, "is_disabled": 0, "bike_id": "34057688b334b3624a59ef86fab6fba1", "fusion_lat": 0.0, "is_reserved": 0, "lon": -77.04841133333333}, {"type": "electric_scooter", "name": "7ded564abc7eca524bb6759ac9ac6bc7", "rental_uris": {"ios": "https://dc.lft.to/lastmile_qr_scan", "android": "https://dc.lft.to/lastmile_qr_scan"}, "fusion_lon": 0.0, "lat": 38.909557666666664, "is_disabled": 0, "bike_id": "7ded564abc7eca524bb6759ac9ac6bc7", "fusion_lat": 0.0, "is_reserved": 0, "lon": -76.98546633333333}, {"type": "electric_scooter", "name": "bba9bf77dd036f2a001266a4da32dc74", "rental_uris": {"ios": "https://dc.lft.to/lastmile_qr_scan", "android": "https://dc.lft.to/lastmile_qr_scan"}, "fusion_lon": 0.0, "lat": 38.89594, "is_disabled": 0, "bike_id": "bba9bf77dd036f2a001266a4da32dc74", "fusion_lat": 0.0, "is_reserved": 0, "lon": -77.025867}, {"type": "electric_scooter", "name": "cf739d716b62d777d9860b52d056ff4d", "rental_uris": {"ios": "https://dc.lft.to/lastmile_qr_scan", "android": "https://dc.lft.to/lastmile_qr_scan"}, "fusion_lon": 0.0, "lat": 38.9491265, "is_disabled": 0, "bike_id": "cf739d716b62d777d9860b52d056ff4d", "fusion_lat": 0.0, "is_reserved": 0, "lon": -77.06627483333334}, {"type": "electric_bike", "name": "11573a4e8a23a65cc40d2646ed373f58", "rental_uris": {"ios": "https://dc.lft.to/lastmile_qr_scan", "android": "https://dc.lft.to/lastmile_qr_scan"}, "fusion_lon": 0.0, "lat": 38.8651465, "is_disabled": 0, "bike_id": "11573a4e8a23a65cc40d2646ed373f58", "fusion_lat": 0.0, "is_reserved": 0, "lon": -77.12940766666667}, {"type": "electric_scooter", "name": "ef0b8922e70e049e4b526cfc79ac1daf", "rental_uris": {"ios": "https://dc.lft.to/lastmile_qr_scan", "android": "https://dc.lft.to/lastmile_qr_scan"}, "fusion_lon": 0.0, "lat": 38.899814, "is_disabled": 0, "bike_id": "ef0b8922e70e049e4b526cfc79ac1daf", "fusion_lat": 0.0, "is_reserved": 0, "lon": -77.00911683333334}, {"type": "electric_scooter", "name": "d800abbc8396e69fb72750bd8bd7fa85", "rental_uris": {"ios": "https://dc.lft.to/lastmile_qr_scan", "android": "https://dc.lft.to/lastmile_qr_scan"}, "fusion_lon": 0.0, "lat": 38.909602666666665, "is_disabled": 0, "bike_id": "d800abbc8396e69fb72750bd8bd7fa85", "fusion_lat": 0.0, "is_reserved": 0, "lon": -77.022822}, {"type": "electric_scooter", "name": "1cd1af6357a4559599190a53749c166a", "rental_uris": {"ios": "https://dc.lft.to/lastmile_qr_scan", "android": "https://dc.lft.to/lastmile_qr_scan"}, "fusion_lon": 0.0, "lat": 38.921602666666665, "is_disabled": 0, "bike_id": "1cd1af6357a4559599190a53749c166a", "fusion_lat": 0.0, "is_reserved": 0, "lon": -77.033288}, {"type": "electric_scooter", "name": "8b7c08d945b27880e8dfd8c22256b29d", "rental_uris": {"ios": "https://dc.lft.to/lastmile_qr_scan", "android": "https://dc.lft.to/lastmile_qr_scan"}, "fusion_lon": 0.0, "lat": 38.866824, "is_disabled": 0, "bike_id": "8b7c08d945b27880e8dfd8c22256b29d", "fusion_lat": 0.0, "is_reserved": 0, "lon": -76.98565}, {"type": "electric_scooter", "name": "34a7799146bbac2c29a05ea23b656cf1", "rental_uris": {"ios": "https://dc.lft.to/lastmile_qr_scan", "android": "https://dc.lft.to/lastmile_qr_scan"}, "fusion_lon": 0.0, "lat": 38.931935333333335, "is_disabled": 0, "bike_id": "34a7799146bbac2c29a05ea23b656cf1", "fusion_lat": 0.0, "is_reserved": 0, "lon": -77.02354733333334}, {"type": "electric_scooter", "name": "049cc84f0944deb57d2c119ef713cc14", "rental_uris": {"ios": "https://dc.lft.to/lastmile_qr_scan", "android": "https://dc.lft.to/lastmile_qr_scan"}, "fusion_lon": 0.0, "lat": 38.890589166666665, "is_disabled": 0, "bike_id": "049cc84f0944deb57d2c119ef713cc14", "fusion_lat": 0.0, "is_reserved": 0, "lon": -76.9444945}, {"type": "electric_scooter", "name": "d84e059553990f17538097a2d9461424", "rental_uris": {"ios": "https://dc.lft.to/lastmile_qr_scan", "android": "https://dc.lft.to/lastmile_qr_scan"}, "fusion_lon": 0.0, "lat": 38.93303433333333, "is_disabled": 0, "bike_id": "d84e059553990f17538097a2d9461424", "fusion_lat": 0.0, "is_reserved": 0, "lon": -77.02138016666666}, {"type": "electric_scooter", "name": "c14b5700a1b3e6c0089c6279fabcf4c3", "rental_uris": {"ios": "https://dc.lft.to/lastmile_qr_scan", "android": "https://dc.lft.to/lastmile_qr_scan"}, "fusion_lon": 0.0, "lat": 38.92055533333333, "is_disabled": 0, "bike_id": "c14b5700a1b3e6c0089c6279fabcf4c3", "fusion_lat": 0.0, "is_reserved": 0, "lon": -77.02369916666666}, {"type": "electric_bike", "name": "5137604e1af08a6c4f28c9bf72be227c", "rental_uris": {"ios": "https://dc.lft.to/lastmile_qr_scan", "android": "https://dc.lft.to/lastmile_qr_scan"}, "fusion_lon": 0.0, "lat": 38.8749155, "is_disabled": 0, "bike_id": "5137604e1af08a6c4f28c9bf72be227c", "fusion_lat": 0.0, "is_reserved": 0, "lon": -77.21124633333334}, {"type": "electric_scooter", "name": "8982f4548d782842002f292d0032f321", "rental_uris": {"ios": "https://dc.lft.to/lastmile_qr_scan", "android": "https://dc.lft.to/lastmile_qr_scan"}, "fusion_lon": 0.0, "lat": 38.91879983333333, "is_disabled": 0, "bike_id": "8982f4548d782842002f292d0032f321", "fusion_lat": 0.0, "is_reserved": 0, "lon": -77.035058}, {"type": "electric_bike", "name": "b2d09b77d9815a56574b9016b6c3ff1a", "rental_uris": {"ios": "https://dc.lft.to/lastmile_qr_scan", "android": "https://dc.lft.to/lastmile_qr_scan"}, "fusion_lon": 0.0, "lat": 38.879790666666665, "is_disabled": 0, "bike_id": "b2d09b77d9815a56574b9016b6c3ff1a", "fusion_lat": 0.0, "is_reserved": 0, "lon": -76.91604383333333}, {"type": "electric_scooter", "name": "fbdb9293d509c56339de75e42831016d", "rental_uris": {"ios": "https://dc.lft.to/lastmile_qr_scan", "android": "https://dc.lft.to/lastmile_qr_scan"}, "fusion_lon": 0.0, "lat": 38.905718, "is_disabled": 0, "bike_id": "fbdb9293d509c56339de75e42831016d", "fusion_lat": 0.0, "is_reserved": 0, "lon": -77.00575283333333}, {"type": "electric_scooter", "name": "b777056a19595cc9c04d31dd58604151", "rental_uris": {"ios": "https://dc.lft.to/lastmile_qr_scan", "android": "https://dc.lft.to/lastmile_qr_scan"}, "fusion_lon": 0.0, "lat": 38.89741183333334, "is_disabled": 0, "bike_id": "b777056a19595cc9c04d31dd58604151", "fusion_lat": 0.0, "is_reserved": 0, "lon": -77.04542133333334}, {"type": "electric_scooter", "name": "c617ce9b8a4fb072d85342ada2155db9", "rental_uris": {"ios": "https://dc.lft.to/lastmile_qr_scan", "android": "https://dc.lft.to/lastmile_qr_scan"}, "fusion_lon": 0.0, "lat": 38.93263183333333, "is_disabled": 0, "bike_id": "c617ce9b8a4fb072d85342ada2155db9", "fusion_lat": 0.0, "is_reserved": 0, "lon": -77.02097083333334}, {"type": "electric_bike", "name": "f9321a7c39e4b391432d51d57dca552a", "rental_uris": {"ios": "https://dc.lft.to/lastmile_qr_scan", "android": "https://dc.lft.to/lastmile_qr_scan"}, "fusion_lon": 0.0, "lat": 38.935995, "is_disabled": 0, "bike_id": "f9321a7c39e4b391432d51d57dca552a", "fusion_lat": 0.0, "is_reserved": 0, "lon": -77.02116616666666}, {"type": "electric_scooter", "name": "f7fb3a5e503fd1e1a295fda2466eb4cd", "rental_uris": {"ios": "https://dc.lft.to/lastmile_qr_scan", "android": "https://dc.lft.to/lastmile_qr_scan"}, "fusion_lon": 0.0, "lat": 38.94353733333333, "is_disabled": 0, "bike_id": "f7fb3a5e503fd1e1a295fda2466eb4cd", "fusion_lat": 0.0, "is_reserved": 0, "lon": -77.0612665}, {"type": "electric_scooter", "name": "76d1e9a780e8be0b2914e279af15c3e7", "rental_uris": {"ios": "https://dc.lft.to/lastmile_qr_scan", "android": "https://dc.lft.to/lastmile_qr_scan"}, "fusion_lon": 0.0, "lat": 38.91710783333333, "is_disabled": 0, "bike_id": "76d1e9a780e8be0b2914e279af15c3e7", "fusion_lat": 0.0, "is_reserved": 0, "lon": -77.02317616666667}, {"type": "electric_bike", "name": "c72a7728af3d0d1b7edefbbde131b573", "rental_uris": {"ios": "https://dc.lft.to/lastmile_qr_scan", "android": "https://dc.lft.to/lastmile_qr_scan"}, "fusion_lon": 0.0, "lat": 38.89614383333333, "is_disabled": 0, "bike_id": "c72a7728af3d0d1b7edefbbde131b573", "fusion_lat": 0.0, "is_reserved": 0, "lon": -76.90748266666667}, {"type": "electric_scooter", "name": "1eb75f1e4dcadbb061c2c39e8f0d1f0e", "rental_uris": {"ios": "https://dc.lft.to/lastmile_qr_scan", "android": "https://dc.lft.to/lastmile_qr_scan"}, "fusion_lon": 0.0, "lat": 38.9170435, "is_disabled": 0, "bike_id": "1eb75f1e4dcadbb061c2c39e8f0d1f0e", "fusion_lat": 0.0, "is_reserved": 0, "lon": -77.0229575}, {"type": "electric_scooter", "name": "fe4f40a5fc8159200628b4387e0a25e8", "rental_uris": {"ios": "https://dc.lft.to/lastmile_qr_scan", "android": "https://dc.lft.to/lastmile_qr_scan"}, "fusion_lon": 0.0, "lat": 38.91548566666667, "is_disabled": 0, "bike_id": "fe4f40a5fc8159200628b4387e0a25e8", "fusion_lat": 0.0, "is_reserved": 0, "lon": -77.03854716666666}, {"type": "electric_bike", "name": "1e3ddd253bf830fa2cb48718582daf19", "rental_uris": {"ios": "https://dc.lft.to/lastmile_qr_scan", "android": "https://dc.lft.to/lastmile_qr_scan"}, "fusion_lon": 0.0, "lat": 38.84610283333333, "is_disabled": 0, "bike_id": "1e3ddd253bf830fa2cb48718582daf19", "fusion_lat": 0.0, "is_reserved": 0, "lon": -76.96909416666666}, {"type": "electric_scooter", "name": "e679d1c22ad18064a036170047ceb352", "rental_uris": {"ios": "https://dc.lft.to/lastmile_qr_scan", "android": "https://dc.lft.to/lastmile_qr_scan"}, "fusion_lon": 0.0, "lat": 38.9199005, "is_disabled": 0, "bike_id": "e679d1c22ad18064a036170047ceb352", "fusion_lat": 0.0, "is_reserved": 0, "lon": -77.01784433333333}, {"type": "electric_bike", "name": "a6f10fbac8a9bd8f5f2f5efc9dbfd1de", "rental_uris": {"ios": "https://dc.lft.to/lastmile_qr_scan", "android": "https://dc.lft.to/lastmile_qr_scan"}, "fusion_lon": 0.0, "lat": 38.864018, "is_disabled": 0, "bike_id": "a6f10fbac8a9bd8f5f2f5efc9dbfd1de", "fusion_lat": 0.0, "is_reserved": 0, "lon": -77.0635795}, {"type": "electric_scooter", "name": "ff0ee03e21ccdb533c241ac8e1dc34b4", "rental_uris": {"ios": "https://dc.lft.to/lastmile_qr_scan", "android": "https://dc.lft.to/lastmile_qr_scan"}, "fusion_lon": 0.0, "lat": 38.9215815, "is_disabled": 0, "bike_id": "ff0ee03e21ccdb533c241ac8e1dc34b4", "fusion_lat": 0.0, "is_reserved": 0, "lon": -77.033852}, {"type": "electric_scooter", "name": "c4d813a280d18f59d56a9356d6114c07", "rental_uris": {"ios": "https://dc.lft.to/lastmile_qr_scan", "android": "https://dc.lft.to/lastmile_qr_scan"}, "fusion_lon": 0.0, "lat": 38.92219133333333, "is_disabled": 0, "bike_id": "c4d813a280d18f59d56a9356d6114c07", "fusion_lat": 0.0, "is_reserved": 0, "lon": -77.02212333333334}, {"type": "electric_scooter", "name": "2e1f58f5741c31834b8a387ac97968fa", "rental_uris": {"ios": "https://dc.lft.to/lastmile_qr_scan", "android": "https://dc.lft.to/lastmile_qr_scan"}, "fusion_lon": 0.0, "lat": 38.90961, "is_disabled": 0, "bike_id": "2e1f58f5741c31834b8a387ac97968fa", "fusion_lat": 0.0, "is_reserved": 0, "lon": -77.03300966666667}, {"type": "electric_scooter", "name": "9f32444b55dc8a8327b980d079087610", "rental_uris": {"ios": "https://dc.lft.to/lastmile_qr_scan", "android": "https://dc.lft.to/lastmile_qr_scan"}, "fusion_lon": 0.0, "lat": 38.9110655, "is_disabled": 0, "bike_id": "9f32444b55dc8a8327b980d079087610", "fusion_lat": 0.0, "is_reserved": 0, "lon": -77.0422665}, {"type": "electric_scooter", "name": "63c0616c3b7d6c4ae9f91901b7c3542a", "rental_uris": {"ios": "https://dc.lft.to/lastmile_qr_scan", "android": "https://dc.lft.to/lastmile_qr_scan"}, "fusion_lon": 0.0, "lat": 38.9208235, "is_disabled": 0, "bike_id": "63c0616c3b7d6c4ae9f91901b7c3542a", "fusion_lat": 0.0, "is_reserved": 0, "lon": -77.018294}, {"type": "electric_scooter", "name": "7cd2a108d871abe5e6b59606f657f7ec", "rental_uris": {"ios": "https://dc.lft.to/lastmile_qr_scan", "android": "https://dc.lft.to/lastmile_qr_scan"}, "fusion_lon": 0.0, "lat": 38.921179, "is_disabled": 0, "bike_id": "7cd2a108d871abe5e6b59606f657f7ec", "fusion_lat": 0.0, "is_reserved": 0, "lon": -77.031978}, {"type": "electric_scooter", "name": "9e54f1a3759ef14dc9cd64fa389995f1", "rental_uris": {"ios": "https://dc.lft.to/lastmile_qr_scan", "android": "https://dc.lft.to/lastmile_qr_scan"}, "fusion_lon": 0.0, "lat": 38.928470833333336, "is_disabled": 0, "bike_id": "9e54f1a3759ef14dc9cd64fa389995f1", "fusion_lat": 0.0, "is_reserved": 0, "lon": -76.99599716666667}, {"type": "electric_bike", "name": "72172ec2cb74e497bbd9ce67515619b9", "rental_uris": {"ios": "https://dc.lft.to/lastmile_qr_scan", "android": "https://dc.lft.to/lastmile_qr_scan"}, "fusion_lon": 0.0, "lat": 38.800147333333335, "is_disabled": 0, "bike_id": "72172ec2cb74e497bbd9ce67515619b9", "fusion_lat": 0.0, "is_reserved": 0, "lon": -77.05483916666667}, {"type": "electric_scooter", "name": "bf44a33bfc73d03fd3ed9fc9a4a6da8f", "rental_uris": {"ios": "https://dc.lft.to/lastmile_qr_scan", "android": "https://dc.lft.to/lastmile_qr_scan"}, "fusion_lon": 0.0, "lat": 38.84733033333333, "is_disabled": 0, "bike_id": "bf44a33bfc73d03fd3ed9fc9a4a6da8f", "fusion_lat": 0.0, "is_reserved": 0, "lon": -76.9825295}, {"type": "electric_scooter", "name": "953fec9eccd1d36c1a5567674ca5b57e", "rental_uris": {"ios": "https://dc.lft.to/lastmile_qr_scan", "android": "https://dc.lft.to/lastmile_qr_scan"}, "fusion_lon": 0.0, "lat": 38.91429683333333, "is_disabled": 0, "bike_id": "953fec9eccd1d36c1a5567674ca5b57e", "fusion_lat": 0.0, "is_reserved": 0, "lon": -77.03183366666667}, {"type": "electric_scooter", "name": "0e2d87c7e3cd5c2db623cf5d3909462e", "rental_uris": {"ios": "https://dc.lft.to/lastmile_qr_scan", "android": "https://dc.lft.to/lastmile_qr_scan"}, "fusion_lon": 0.0, "lat": 38.87775666666667, "is_disabled": 0, "bike_id": "0e2d87c7e3cd5c2db623cf5d3909462e", "fusion_lat": 0.0, "is_reserved": 0, "lon": -77.00814816666667}, {"type": "electric_scooter", "name": "c27c8a2480d0f8761b666b8490ec7825", "rental_uris": {"ios": "https://dc.lft.to/lastmile_qr_scan", "android": "https://dc.lft.to/lastmile_qr_scan"},