{"data": {"bikes": [{"is_reserved": 0, "type": "electric_scooter", "bike_id": "bbbcc4ccffad2fb7c8532477739ec1f9", "lat": 38.9595445, "lon": -77.072565, "rental_uris": {"android": "https://dc.lft.to/lastmile_qr_scan", "ios": "https://dc.lft.to/lastmile_qr_scan"}, "is_disabled": 0, "fusion_lat": 0.0, "name": "bbbcc4ccffad2fb7c8532477739ec1f9", "fusion_lon": 0.0}, {"is_reserved": 0, "type": "electric_scooter", "bike_id": "e8d73bf5bb06f14dabccb1483113e1e8", "lat": 38.896059, "lon": -77.02625233333333, "rental_uris": {"android": "https://dc.lft.to/lastmile_qr_scan", "ios": "https://dc.lft.to/lastmile_qr_scan"}, "is_disabled": 0, "fusion_lat": 0.0, "name": "e8d73bf5bb06f14dabccb1483113e1e8", "fusion_lon": 0.0}, {"is_reserved": 0, "type": "electric_scooter", "bike_id": "f704150679fc89c6e64f99cf6a82632a", "lat": 38.900133833333335, "lon": -76.99167383333334, "rental_uris": {"android": "https://dc.lft.to/lastmile_qr_scan", "ios": "https://dc.lft.to/lastmile_qr_scan"}, "is_disabled": 0, "fusion_lat": 0.0, "name": "f704150679fc89c6e64f99cf6a82632a", "fusion_lon": 0.0}, {"is_reserved": 0, "type": "electric_scooter", "bike_id": "238c6b251d7316f9512df7d7721cda2c", "lat": 38.911908, "lon": -77.00722866666666, "rental_uris": {"android": "https://dc.lft.to/lastmile_qr_scan", "ios": "https://dc.lft.to/lastmile_qr_scan"}, "is_disabled": 0, "fusion_lat": 0.0, "name": "238c6b251d7316f9512df7d7721cda2c", "fusion_lon": 0.0}, {"is_reserved": 0, "type": "electric_bike", "bike_id": "a70a1236b273a44097d3d4624b9faab4", "lat": 38.896997666666664, "lon": -77.0049175, "rental_uris": {"android": "https://dc.lft.to/lastmile_qr_scan", "ios": "https://dc.lft.to/lastmile_qr_scan"}, "is_disabled": 0, "fusion_lat": 0.0, "name": "a70a1236b273a44097d3d4624b9faab4", "fusion_lon": 0.0}, {"is_reserved": 0, "type": "electric_scooter", "bike_id": "976c2af6d3934e61afcec836078cc6c2", "lat": 38.887279666666664, "lon": -77.022059, "rental_uris": {"android": "https://dc.lft.to/lastmile_qr_scan", "ios": "https://dc.lft.to/lastmile_qr_scan"}, "is_disabled": 0, "fusion_lat": 0.0, "name": "976c2af6d3934e61afcec836078cc6c2", "fusion_lon": 0.0}, {"is_reserved": 0, "type": "electric_scooter", "bike_id": "b738cd6cff307e1bae19cd9490d3fabb", "lat": 38.900142833333334, "lon": -77.01025633333333, "rental_uris": {"android": "https://dc.lft.to/lastmile_qr_scan", "ios": "https://dc.lft.to/lastmile_qr_scan"}, "is_disabled": 0, "fusion_lat": 0.0, "name": "b738cd6cff307e1bae19cd9490d3fabb", "fusion_lon": 0.0}, {"is_reserved": 0, "type": "electric_scooter", "bike_id": "93efe4304fd3138bc94f177f6868ef86", "lat": 38.88756466666667, "lon": -76.99613, "rental_uris": {"android": "https://dc.lft.to/lastmile_qr_scan", "ios": "https://dc.lft.to/lastmile_qr_scan"}, "is_disabled": 0, "fusion_lat": 0.0, "name": "93efe4304fd3138bc94f177f6868ef86", "fusion_lon": 0.0}, {"is_reserved": 0, "type": "electric_scooter", "bike_id": "b7b14943a47ed9fa7454b6dc49aa88cb", "lat": 38.90536983333333, "lon": -77.04173433333334, "rental_uris": {"android": "https://dc.lft.to/lastmile_qr_scan", "ios": "https://dc.lft.to/lastmile_qr_scan"}, "is_disabled": 0, "fusion_lat": 0.0, "name": "b7b14943a47ed9fa7454b6dc49aa88cb", "fusion_lon": 0.0}, {"is_reserved": 0, "type": "electric_scooter", "bike_id": "dd64e94231e0366587c5ef59c4a0353e", "lat": 38.917493, "lon": -77.040721, "rental_uris": {"android": "https://dc.lft.to/lastmile_qr_scan", "ios": "https://dc.lft.to/lastmile_qr_scan"}, "is_disabled": 0, "fusion_lat": 0.0, "name": "dd64e94231e0366587c5ef59c4a0353e", "fusion_lon": 0.0}, {"is_reserved": 0, "type": "electric_scooter", "bike_id": "a9df608b248b7e605c225565d12d1781", "lat": 38.90837883333333, "lon": -77.043411, "rental_uris": {"android": "https://dc.lft.to/lastmile_qr_scan", "ios": "https://dc.lft.to/lastmile_qr_scan"}, "is_disabled": 0, "fusion_lat": 0.0, "name": "a9df608b248b7e605c225565d12d1781", "fusion_lon": 0.0}, {"is_reserved": 0, "type": "electric_scooter", "bike_id": "1a6469c1ae7877b8863fa1fb87530b23", "lat": 38.907687, "lon": -77.04518633333333, "rental_uris": {"android": "https://dc.lft.to/lastmile_qr_scan", "ios": "https://dc.lft.to/lastmile_qr_scan"}, "is_disabled": 0, "fusion_lat": 0.0, "name": "1a6469c1ae7877b8863fa1fb87530b23", "fusion_lon": 0.0}, {"is_reserved": 0, "type": "electric_scooter", "bike_id": "387d57c88e51b39f59213a11f6477ad2", "lat": 38.92491066666667, "lon": -77.02125366666667, "rental_uris": {"android": "https://dc.lft.to/lastmile_qr_scan", "ios": "https://dc.lft.to/lastmile_qr_scan"}, "is_disabled": 0, "fusion_lat": 0.0, "name": "387d57c88e51b39f59213a11f6477ad2", "fusion_lon": 0.0}, {"is_reserved": 0, "type": "electric_scooter", "bike_id": "0dae1e5c6cd29e7e021541ef878cedc1", "lat": 38.9148815, "lon": -77.02181333333333, "rental_uris": {"android": "https://dc.lft.to/lastmile_qr_scan", "ios": "https://dc.lft.to/lastmile_qr_scan"}, "is_disabled": 0, "fusion_lat": 0.0, "name": "0dae1e5c6cd29e7e021541ef878cedc1", "fusion_lon": 0.0}, {"is_reserved": 0, "type": "electric_scooter", "bike_id": "3edbaff47e93ccf2b7990dfde4ed4b66", "lat": 38.92056766666666, "lon": -77.04181166666666, "rental_uris": {"android": "https://dc.lft.to/lastmile_qr_scan", "ios": "https://dc.lft.to/lastmile_qr_scan"}, "is_disabled": 0, "fusion_lat": 0.0, "name": "3edbaff47e93ccf2b7990dfde4ed4b66", "fusion_lon": 0.0}, {"is_reserved": 0, "type": "electric_bike", "bike_id": "d848673dee48eb8c4af36ffb6b61c725", "lat": 39.085951333333334, "lon": -77.1227185, "rental_uris": {"android": "https://dc.lft.to/lastmile_qr_scan", "ios": "https://dc.lft.to/lastmile_qr_scan"}, "is_disabled": 0, "fusion_lat": 0.0, "name": "d848673dee48eb8c4af36ffb6b61c725", "fusion_lon": 0.0}, {"is_reserved": 0, "type": "electric_scooter", "bike_id": "37e26da3c9bd118e729da779a929216a", "lat": 38.905894, "lon": -77.0363825, "rental_uris": {"android": "https://dc.lft.to/lastmile_qr_scan", "ios": "https://dc.lft.to/lastmile_qr_scan"}, "is_disabled": 0, "fusion_lat": 0.0, "name": "37e26da3c9bd118e729da779a929216a", "fusion_lon": 0.0}, {"is_reserved": 0, "type": "electric_scooter", "bike_id": "29cffd5c87ea4e7c69fc1aef687b4a2d", "lat": 38.917102166666666, "lon": -77.0321595, "rental_uris": {"android": "https://dc.lft.to/lastmile_qr_scan", "ios": "https://dc.lft.to/lastmile_qr_scan"}, "is_disabled": 0, "fusion_lat": 0.0, "name": "29cffd5c87ea4e7c69fc1aef687b4a2d", "fusion_lon": 0.0}, {"is_reserved": 0, "type": "electric_scooter", "bike_id": "8d8b42369b06ee1863e3ee45ed4df9dc", "lat": 38.91868433333333, "lon": -77.013473, "rental_uris": {"android": "https://dc.lft.to/lastmile_qr_scan", "ios": "https://dc.lft.to/lastmile_qr_scan"}, "is_disabled": 0, "fusion_lat": 0.0, "name": "8d8b42369b06ee1863e3ee45ed4df9dc", "fusion_lon": 0.0}, {"is_reserved": 0, "type": "electric_scooter", "bike_id": "3889e1489496b8ac7c7c014d6239ab2c", "lat": 38.922609, "lon": -77.0366355, "rental_uris": {"android": "https://dc.lft.to/lastmile_qr_scan", "ios": "https://dc.lft.to/lastmile_qr_scan"}, "is_disabled": 0, "fusion_lat": 0.0, "name": "3889e1489496b8ac7c7c014d6239ab2c", "fusion_lon": 0.0}, {"is_reserved": 0, "type": "electric_scooter", "bike_id": "7730ed79cb8bce2cb3b4de72571748fa", "lat": 38.966513666666664, "lon": -77.0089295, "rental_uris": {"android": "https://dc.lft.to/lastmile_qr_scan", "ios": "https://dc.lft.to/lastmile_qr_scan"}, "is_disabled": 0, "fusion_lat": 0.0, "name": "7730ed79cb8bce2cb3b4de72571748fa", "fusion_lon": 0.0}, {"is_reserved": 0, "type": "electric_scooter", "bike_id": "055543890ad482157afb5bbbb665f053", "lat": 38.93582716666667, "lon": -77.024326, "rental_uris": {"android": "https://dc.lft.to/lastmile_qr_scan", "ios": "https://dc.lft.to/lastmile_qr_scan"}, "is_disabled": 0, "fusion_lat": 0.0, "name": "055543890ad482157afb5bbbb665f053", "fusion_lon": 0.0}, {"is_reserved": 0, "type": "electric_scooter", "bike_id": "04c98b26f3ab98f4b350b8e21922c569", "lat": 38.926132, "lon": -77.021564, "rental_uris": {"android": "https://dc.lft.to/lastmile_qr_scan", "ios": "https://dc.lft.to/lastmile_qr_scan"}, "is_disabled": 0, "fusion_lat": 0.0, "name": "04c98b26f3ab98f4b350b8e21922c569", "fusion_lon": 0.0}, {"is_reserved": 0, "type": "electric_scooter", "bike_id": "fd3aa87cdec46d3c86c5a1173076d5c2", "lat": 38.9001725, "lon": -77.0450485, "rental_uris": {"android": "https://dc.lft.to/lastmile_qr_scan", "ios": "https://dc.lft.to/lastmile_qr_scan"}, "is_disabled": 0, "fusion_lat": 0.0, "name": "fd3aa87cdec46d3c86c5a1173076d5c2", "fusion_lon": 0.0}, {"is_reserved": 0, "type": "electric_scooter", "bike_id": "27ec8a5d55f89d5c9dfb6277afac5498", "lat": 38.899947166666664, "lon": -77.027102, "rental_uris": {"android": "https://dc.lft.to/lastmile_qr_scan", "ios": "https://dc.lft.to/lastmile_qr_scan"}, "is_disabled": 0, "fusion_lat": 0.0, "name": "27ec8a5d55f89d5c9dfb6277afac5498", "fusion_lon": 0.0}, {"is_reserved": 0, "type": "electric_bike", "bike_id": "9aecdd9c9b7df81afe7ba3aaffb2d43e", "lat": 38.99556666666667, "lon": -77.07442283333333, "rental_uris": {"android": "https://dc.lft.to/lastmile_qr_scan", "ios": "https://dc.lft.to/lastmile_qr_scan"}, "is_disabled": 0, "fusion_lat": 0.0, "name": "9aecdd9c9b7df81afe7ba3aaffb2d43e", "fusion_lon": 0.0}, {"is_reserved": 0, "type": "electric_scooter", "bike_id": "5760953d0a6d11107e09f1c4c2eb2fed", "lat": 38.920741, "lon": -77.02389316666667, "rental_uris": {"android": "https://dc.lft.to/lastmile_qr_scan", "ios": "https://dc.lft.to/lastmile_qr_scan"}, "is_disabled": 0, "fusion_lat": 0.0, "name": "5760953d0a6d11107e09f1c4c2eb2fed", "fusion_lon": 0.0}, {"is_reserved": 0, "type": "electric_scooter", "bike_id": "07e4f93cc5755021df8e4014c0bb7041", "lat": 38.9524675, "lon": -77.02392483333334, "rental_uris": {"android": "https://dc.lft.to/lastmile_qr_scan", "ios": "https://dc.lft.to/lastmile_qr_scan"}, "is_disabled": 0, "fusion_lat": 0.0, "name": "07e4f93cc5755021df8e4014c0bb7041", "fusion_lon": 0.0}, {"is_reserved": 0, "type": "electric_bike", "bike_id": "dfc95d543e0613b747dd5a051bd0ac94", "lat": 38.78400416666667, "lon": -77.1206655, "rental_uris": {"android": "https://dc.lft.to/lastmile_qr_scan", "ios": "https://dc.lft.to/lastmile_qr_scan"}, "is_disabled": 0, "fusion_lat": 0.0, "name": "dfc95d543e0613b747dd5a051bd0ac94", "fusion_lon": 0.0}, {"is_reserved": 0, "type": "electric_scooter", "bike_id": "264eabb28770cdc14c853272f8c5d983", "lat": 38.88324583333333, "lon": -77.00956683333334, "rental_uris": {"android": "https://dc.lft.to/lastmile_qr_scan", "ios": "https://dc.lft.to/lastmile_qr_scan"}, "is_disabled": 0, "fusion_lat": 0.0, "name": "264eabb28770cdc14c853272f8c5d983", "fusion_lon": 0.0}, {"is_reserved": 0, "type": "electric_scooter", "bike_id": "cb80dff2547c077e6c88ffc1faa5df6e", "lat": 38.901794333333335, "lon": -77.003462, "rental_uris": {"android": "https://dc.lft.to/lastmile_qr_scan", "ios": "https://dc.lft.to/lastmile_qr_scan"}, "is_disabled": 0, "fusion_lat": 0.0, "name": "cb80dff2547c077e6c88ffc1faa5df6e", "fusion_lon": 0.0}, {"is_reserved": 0, "type": "electric_scooter", "bike_id": "c8192db6b718b64ed91d58b4bc1d21d2", "lat": 38.9371915, "lon": -77.032577, "rental_uris": {"android": "https://dc.lft.to/lastmile_qr_scan", "ios": "https://dc.lft.to/lastmile_qr_scan"}, "is_disabled": 0, "fusion_lat": 0.0, "name": "c8192db6b718b64ed91d58b4bc1d21d2", "fusion_lon": 0.0}, {"is_reserved": 0, "type": "electric_scooter", "bike_id": "b3a09a2ad3ec6ebe8bcd66222fd9370c", "lat": 38.91814733333333, "lon": -77.03250566666667, "rental_uris": {"android": "https://dc.lft.to/lastmile_qr_scan", "ios": "https://dc.lft.to/lastmile_qr_scan"}, "is_disabled": 0, "fusion_lat": 0.0, "name": "b3a09a2ad3ec6ebe8bcd66222fd9370c", "fusion_lon": 0.0}, {"is_reserved": 0, "type": "electric_scooter", "bike_id": "8f42ae231ce0ec93e1be8ddb84ef1246", "lat": 38.900167333333336, "lon": -77.04495316666667, "rental_uris": {"android": "https://dc.lft.to/lastmile_qr_scan", "ios": "https://dc.lft.to/lastmile_qr_scan"}, "is_disabled": 0, "fusion_lat": 0.0, "name": "8f42ae231ce0ec93e1be8ddb84ef1246", "fusion_lon": 0.0}, {"is_reserved": 0, "type": "electric_scooter", "bike_id": "5f7bbe7541ea1438bd184117de6bccd0", "lat": 38.920675, "lon": -77.04553266666667, "rental_uris": {"android": "https://dc.lft.to/lastmile_qr_scan", "ios": "https://dc.lft.to/lastmile_qr_scan"}, "is_disabled": 0, "fusion_lat": 0.0, "name": "5f7bbe7541ea1438bd184117de6bccd0", "fusion_lon": 0.0}, {"is_reserved": 0, "type": "electric_scooter", "bike_id": "07d288468a24f394fd9824f94a462904", "lat": 38.924915166666665, "lon": -77.05215716666666, "rental_uris": {"android": "https://dc.lft.to/lastmile_qr_scan", "ios": "https://dc.lft.to/lastmile_qr_scan"}, "is_disabled": 0, "fusion_lat": 0.0, "name": "07d288468a24f394fd9824f94a462904", "fusion_lon": 0.0}, {"is_reserved": 0, "type": "electric_scooter", "bike_id": "9305a8ad2e1a417d72e20404a8b0a419", "lat": 38.90016933333333, "lon": -76.99623166666666, "rental_uris": {"android": "https://dc.lft.to/lastmile_qr_scan", "ios": "https://dc.lft.to/lastmile_qr_scan"}, "is_disabled": 0, "fusion_lat": 0.0, "name": "9305a8ad2e1a417d72e20404a8b0a419", "fusion_lon": 0.0}, {"is_reserved": 0, "type": "electric_scooter", "bike_id": "13989906d13b7c898c506b01142e11a1", "lat": 38.90012733333333, "lon": -76.9962275, "rental_uris": {"android": "https://dc.lft.to/lastmile_qr_scan", "ios": "https://dc.lft.to/lastmile_qr_scan"}, "is_disabled": 0, "fusion_lat": 0.0, "name": "13989906d13b7c898c506b01142e11a1", "fusion_lon": 0.0}, {"is_reserved": 0, "type": "electric_bike", "bike_id": "06368d84d860267cc01379ef28fcaefe", "lat": 38.884182833333334, "lon": -76.95763233333334, "rental_uris": {"android": "https://dc.lft.to/lastmile_qr_scan", "ios": "https://dc.lft.to/lastmile_qr_scan"}, "is_disabled": 0, "fusion_lat": 0.0, "name": "06368d84d860267cc01379ef28fcaefe", "fusion_lon": 0.0}, {"is_reserved": 0, "type": "electric_scooter", "bike_id": "29d9cb3216b4df850004032a8f0a855f", "lat": 38.9061885, "lon": -77.025925, "rental_uris": {"android": "https://dc.lft.to/lastmile_qr_scan", "ios": "https://dc.lft.to/lastmile_qr_scan"}, "is_disabled": 0, "fusion_lat": 0.0, "name": "29d9cb3216b4df850004032a8f0a855f", "fusion_lon": 0.0}, {"is_reserved": 0, "type": "electric_scooter", "bike_id": "dc278c44b133fd65cde25f2ad1dfc00a", "lat": 38.96141216666667, "lon": -77.02810266666667, "rental_uris": {"android": "https://dc.lft.to/lastmile_qr_scan", "ios": "https://dc.lft.to/lastmile_qr_scan"}, "is_disabled": 0, "fusion_lat": 0.0, "name": "dc278c44b133fd65cde25f2ad1dfc00a", "fusion_lon": 0.0}, {"is_reserved": 0, "type": "electric_scooter", "bike_id": "078643ce364f1095ffe612821a38d61a", "lat": 38.895458166666664, "lon": -76.98337816666667, "rental_uris": {"android": "https://dc.lft.to/lastmile_qr_scan", "ios": "https://dc.lft.to/lastmile_qr_scan"}, "is_disabled": 0, "fusion_lat": 0.0, "name": "078643ce364f1095ffe612821a38d61a", "fusion_lon": 0.0}, {"is_reserved": 0, "type": "electric_scooter", "bike_id": "9306221917b2c46763f525ebfb9b4bd1", "lat": 38.90497283333333, "lon": -77.0601735, "rental_uris": {"android": "https://dc.lft.to/lastmile_qr_scan", "ios": "https://dc.lft.to/lastmile_qr_scan"}, "is_disabled": 0, "fusion_lat": 0.0, "name": "9306221917b2c46763f525ebfb9b4bd1", "fusion_lon": 0.0}, {"is_reserved": 0, "type": "electric_scooter", "bike_id": "8dd95926acc7dd5130a11dae18fd3f81", "lat": 38.901388833333336, "lon": -76.9911765, "rental_uris": {"android": "https://dc.lft.to/lastmile_qr_scan", "ios": "https://dc.lft.to/lastmile_qr_scan"}, "is_disabled": 0, "fusion_lat": 0.0, "name": "8dd95926acc7dd5130a11dae18fd3f81", "fusion_lon": 0.0}, {"is_reserved": 0, "type": "electric_scooter", "bike_id": "2b74aa50d9309f57b92013fa311f8dd1", "lat": 38.860216333333334, "lon": -76.97002466666666, "rental_uris": {"android": "https://dc.lft.to/lastmile_qr_scan", "ios": "https://dc.lft.to/lastmile_qr_scan"}, "is_disabled": 0, "fusion_lat": 0.0, "name": "2b74aa50d9309f57b92013fa311f8dd1", "fusion_lon": 0.0}, {"is_reserved": 0, "type": "electric_scooter", "bike_id": "5c76a685444f7865f2f5b2a9c67290fc", "lat": 38.924193, "lon": -77.02006916666667, "rental_uris": {"android": "https://dc.lft.to/lastmile_qr_scan", "ios": "https://dc.lft.to/lastmile_qr_scan"}, "is_disabled": 0, "fusion_lat": 0.0, "name": "5c76a685444f7865f2f5b2a9c67290fc", "fusion_lon": 0.0}, {"is_reserved": 0, "type": "electric_scooter", "bike_id": "98053fcd43b2ac12314aeccf2304782c", "lat": 38.951824333333334, "lon": -77.01259333333333, "rental_uris": {"android": "https://dc.lft.to/lastmile_qr_scan", "ios": "https://dc.lft.to/lastmile_qr_scan"}, "is_disabled": 0, "fusion_lat": 0.0, "name": "98053fcd43b2ac12314aeccf2304782c", "fusion_lon": 0.0}, {"is_reserved": 0, "type": "electric_scooter", "bike_id": "c90974628c6be7d83390200e24655449", "lat": 38.9097345, "lon": -77.011068, "rental_uris": {"android": "https://dc.lft.to/lastmile_qr_scan", "ios": "https://dc.lft.to/lastmile_qr_scan"}, "is_disabled": 0, "fusion_lat": 0.0, "name": "c90974628c6be7d83390200e24655449", "fusion_lon": 0.0}, {"is_reserved": 0, "type": "electric_scooter", "bike_id": "812381a079aaa53adacf2ecb69e1a22e", "lat": 38.930761, "lon": -77.02817016666667, "rental_uris": {"android": "https://dc.lft.to/lastmile_qr_scan", "ios": "https://dc.lft.to/lastmile_qr_scan"}, "is_disabled": 0, "fusion_lat": 0.0, "name": "812381a079aaa53adacf2ecb69e1a22e", "fusion_lon": 0.0}, {"is_reserved": 0, "type": "electric_scooter", "bike_id": "0ba9067cb7d1023ac67130af12e46dd1", "lat": 38.9359305, "lon": -77.0570965, "rental_uris": {"android": "https://dc.lft.to/lastmile_qr_scan", "ios": "https://dc.lft.to/lastmile_qr_scan"}, "is_disabled": 0, "fusion_lat": 0.0, "name": "0ba9067cb7d1023ac67130af12e46dd1", "fusion_lon": 0.0}, {"is_reserved": 0, "type": "electric_scooter", "bike_id": "301f005ab9f38e23fe35fe812966e8cd", "lat": 38.91097533333333, "lon": -77.02384983333333, "rental_uris": {"android": "https://dc.lft.to/lastmile_qr_scan", "ios": "https://dc.lft.to/lastmile_qr_scan"}, "is_disabled": 0, "fusion_lat": 0.0, "name": "301f005ab9f38e23fe35fe812966e8cd", "fusion_lon": 0.0}, {"is_reserved": 0, "type": "electric_scooter", "bike_id": "ec099b3dce36fb01e3d2216340ec1ebf", "lat": 38.931459833333335, "lon": -77.0382195, "rental_uris": {"android": "https://dc.lft.to/lastmile_qr_scan", "ios": "https://dc.lft.to/lastmile_qr_scan"}, "is_disabled": 0, "fusion_lat": 0.0, "name": "ec099b3dce36fb01e3d2216340ec1ebf", "fusion_lon": 0.0}, {"is_reserved": 0, "type": "electric_scooter", "bike_id": "ca7a989c0c767c1aa8fa206ae9e8060a", "lat": 38.932058, "lon": -77.0374245, "rental_uris": {"android": "https://dc.lft.to/lastmile_qr_scan", "ios": "https://dc.lft.to/lastmile_qr_scan"}, "is_disabled": 0, "fusion_lat": 0.0, "name": "ca7a989c0c767c1aa8fa206ae9e8060a", "fusion_lon": 0.0}, {"is_reserved": 0, "type": "electric_scooter", "bike_id": "e81232f409af325a3682602728020561", "lat": 38.927154333333334, "lon": -77.04045483333333, "rental_uris": {"android": "https://dc.lft.to/lastmile_qr_scan", "ios": "https://dc.lft.to/lastmile_qr_scan"}, "is_disabled": 0, "fusion_lat": 0.0, "name": "e81232f409af325a3682602728020561", "fusion_lon": 0.0}, {"is_reserved": 0, "type": "electric_bike", "bike_id": "48e9bfb6c0764a739139944b85a0bbe7", "lat": 38.97424083333333, "lon": -77.01259183333333, "rental_uris": {"android": "https://dc.lft.to/lastmile_qr_scan", "ios": "https://dc.lft.to/lastmile_qr_scan"}, "is_disabled": 0, "fusion_lat": 0.0, "name": "48e9bfb6c0764a739139944b85a0bbe7", "fusion_lon": 0.0}, {"is_reserved": 0, "type": "electric_scooter", "bike_id": "c4812dc02073a027a0278ca2d70f0e7a", "lat": 38.90091616666667, "lon": -77.04758516666666, "rental_uris": {"android": "https://dc.lft.to/lastmile_qr_scan", "ios": "https://dc.lft.to/lastmile_qr_scan"}, "is_disabled": 0, "fusion_lat": 0.0, "name": "c4812dc02073a027a0278ca2d70f0e7a", "fusion_lon": 0.0}, {"is_reserved": 0, "type": "electric_scooter", "bike_id": "847edfefaf2916f69809c63a8e8c2479", "lat": 38.925401, "lon": -77.02977583333333, "rental_uris": {"android": "https://dc.lft.to/lastmile_qr_scan", "ios": "https://dc.lft.to/lastmile_qr_scan"}, "is_disabled": 0, "fusion_lat": 0.0, "name": "847edfefaf2916f69809c63a8e8c2479", "fusion_lon": 0.0}, {"is_reserved": 0, "type": "electric_scooter", "bike_id": "fe5703af04f20f14acbb0a7703a00981", "lat": 38.89729366666667, "lon": -77.00373783333333, "rental_uris": {"android": "https://dc.lft.to/lastmile_qr_scan", "ios": "https://dc.lft.to/lastmile_qr_scan"}, "is_disabled": 0, "fusion_lat": 0.0, "name": "fe5703af04f20f14acbb0a7703a00981", "fusion_lon": 0.0}, {"is_reserved": 0, "type": "electric_scooter", "bike_id": "012d57a5f34d55212ff5117bc83eec65", "lat": 38.91562866666666, "lon": -77.02118433333334, "rental_uris": {"android": "https://dc.lft.to/lastmile_qr_scan", "ios": "https://dc.lft.to/lastmile_qr_scan"}, "is_disabled": 0, "fusion_lat": 0.0, "name": "012d57a5f34d55212ff5117bc83eec65", "fusion_lon": 0.0}, {"is_reserved": 0, "type": "electric_scooter", "bike_id": "6e51cc31bca1baf72498e4dae99fea9e", "lat": 38.912634833333335, "lon": -77.0015605, "rental_uris": {"android": "https://dc.lft.to/lastmile_qr_scan", "ios": "https://dc.lft.to/lastmile_qr_scan"}, "is_disabled": 0, "fusion_lat": 0.0, "name": "6e51cc31bca1baf72498e4dae99fea9e", "fusion_lon": 0.0}, {"is_reserved": 0, "type": "electric_scooter", "bike_id": "b59caf0b644da55531a97880087c5f04", "lat": 38.914054, "lon": -77.022078, "rental_uris": {"android": "https://dc.lft.to/lastmile_qr_scan", "ios": "https://dc.lft.to/lastmile_qr_scan"}, "is_disabled": 0, "fusion_lat": 0.0, "name": "b59caf0b644da55531a97880087c5f04", "fusion_lon": 0.0}, {"is_reserved": 0, "type": "electric_scooter", "bike_id": "214b198e6c0641d5aa835921ea47fc5f", "lat": 38.92606216666667, "lon": -77.0215205, "rental_uris": {"android": "https://dc.lft.to/lastmile_qr_scan", "ios": "https://dc.lft.to/lastmile_qr_scan"}, "is_disabled": 0, "fusion_lat": 0.0, "name": "214b198e6c0641d5aa835921ea47fc5f", "fusion_lon": 0.0}, {"is_reserved": 0, "type": "electric_bike", "bike_id": "bf821875d90209bd0ca02777fb0eb42b", "lat": 38.95955166666667, "lon": -77.0198125, "rental_uris": {"android": "https://dc.lft.to/lastmile_qr_scan", "ios": "https://dc.lft.to/lastmile_qr_scan"}, "is_disabled": 0, "fusion_lat": 0.0, "name": "bf821875d90209bd0ca02777fb0eb42b", "fusion_lon": 0.0}, {"is_reserved": 0, "type": "electric_scooter", "bike_id": "5de3596d66fbe535f30720485b3cd6d4", "lat": 38.88443066666667, "lon": -76.957641, "rental_uris": {"android": "https://dc.lft.to/lastmile_qr_scan", "ios": "https://dc.lft.to/lastmile_qr_scan"}, "is_disabled": 0, "fusion_lat": 0.0, "name": "5de3596d66fbe535f30720485b3cd6d4", "fusion_lon": 0.0}, {"is_reserved": 0, "type": "electric_scooter", "bike_id": "3a247cf8b97c86afbff07e8cee97fda6", "lat": 38.9156215, "lon": -77.03094766666666, "rental_uris": {"android": "https://dc.lft.to/lastmile_qr_scan", "ios": "https://dc.lft.to/lastmile_qr_scan"}, "is_disabled": 0, "fusion_lat": 0.0, "name": "3a247cf8b97c86afbff07e8cee97fda6", "fusion_lon": 0.0}, {"is_reserved": 0, "type": "electric_scooter", "bike_id": "691364ed7676189bc104737aeab727ab", "lat": 38.862160333333335, "lon": -76.97914133333333, "rental_uris": {"android": "https://dc.lft.to/lastmile_qr_scan", "ios": "https://dc.lft.to/lastmile_qr_scan"}, "is_disabled": 0, "fusion_lat": 0.0, "name": "691364ed7676189bc104737aeab727ab", "fusion_lon": 0.0}, {"is_reserved": 0, "type": "electric_scooter", "bike_id": "f81729afbc4e211069b5cc10750cd724", "lat": 38.896808666666665, "lon": -77.00515216666666, "rental_uris": {"android": "https://dc.lft.to/lastmile_qr_scan", "ios": "https://dc.lft.to/lastmile_qr_scan"}, "is_disabled": 0, "fusion_lat": 0.0, "name": "f81729afbc4e211069b5cc10750cd724", "fusion_lon": 0.0}, {"is_reserved": 0, "type": "electric_scooter", "bike_id": "9f2ee1e6722177629aa530a173ab0988", "lat": 38.919256833333336, "lon": -77.03421033333333, "rental_uris": {"android": "https://dc.lft.to/lastmile_qr_scan", "ios": "https://dc.lft.to/lastmile_qr_scan"}, "is_disabled": 0, "fusion_lat": 0.0, "name": "9f2ee1e6722177629aa530a173ab0988", "fusion_lon": 0.0}, {"is_reserved": 0, "type": "electric_scooter", "bike_id": "71f8509544ee4b827fbe7cc582fe18dc", "lat": 38.93720483333333, "lon": -77.03260883333333, "rental_uris": {"android": "https://dc.lft.to/lastmile_qr_scan", "ios": "https://dc.lft.to/lastmile_qr_scan"}, "is_disabled": 0, "fusion_lat": 0.0, "name": "71f8509544ee4b827fbe7cc582fe18dc", "fusion_lon": 0.0}, {"is_reserved": 0, "type": "electric_scooter", "bike_id": "0d09d45c16012ee4f527ddd264b5ffd4", "lat": 38.886077, "lon": -76.9881985, "rental_uris": {"android": "https://dc.lft.to/lastmile_qr_scan", "ios": "https://dc.lft.to/lastmile_qr_scan"}, "is_disabled": 0, "fusion_lat": 0.0, "name": "0d09d45c16012ee4f527ddd264b5ffd4", "fusion_lon": 0.0}, {"is_reserved": 0, "type": "electric_scooter", "bike_id": "50413b1a038fe1703b4fa502afbc9df4", "lat": 38.9246065, "lon": -77.05225916666667, "rental_uris": {"android": "https://dc.lft.to/lastmile_qr_scan", "ios": "https://dc.lft.to/lastmile_qr_scan"}, "is_disabled": 0, "fusion_lat": 0.0, "name": "50413b1a038fe1703b4fa502afbc9df4", "fusion_lon": 0.0}, {"is_reserved": 0, "type": "electric_scooter", "bike_id": "3b673c51a71c79421f7c839e5ccb1ab2", "lat": 38.92836583333333, "lon": -77.00606583333334, "rental_uris": {"android": "https://dc.lft.to/lastmile_qr_scan", "ios": "https://dc.lft.to/lastmile_qr_scan"}, "is_disabled": 0, "fusion_lat": 0.0, "name": "3b673c51a71c79421f7c839e5ccb1ab2", "fusion_lon": 0.0}, {"is_reserved": 0, "type": "electric_scooter", "bike_id": "c96bd82b86bffc77751b88b110b7fbf4", "lat": 38.896154833333334, "lon": -77.04412483333333, "rental_uris": {"android": "https://dc.lft.to/lastmile_qr_scan", "ios": "https://dc.lft.to/lastmile_qr_scan"}, "is_disabled": 0, "fusion_lat": 0.0, "name": "c96bd82b86bffc77751b88b110b7fbf4", "fusion_lon": 0.0}, {"is_reserved": 0, "type": "electric_scooter", "bike_id": "4894004251d0fc84f0c0c6f3ce9a8055", "lat": 38.8997375, "lon": -77.01618933333333, "rental_uris": {"android": "https://dc.lft.to/lastmile_qr_scan", "ios": "https://dc.lft.to/lastmile_qr_scan"}, "is_disabled": 0, "fusion_lat": 0.0, "name": "4894004251d0fc84f0c0c6f3ce9a8055", "fusion_lon": 0.0}, {"is_reserved": 0, "type": "electric_scooter", "bike_id": "3c405f5ebc3d88687f20c1706d55bac8", "lat": 38.904121333333336, "lon": -76.97327016666667, "rental_uris": {"android": "https://dc.lft.to/lastmile_qr_scan", "ios": "https://dc.lft.to/lastmile_qr_scan"}, "is_disabled": 0, "fusion_lat": 0.0, "name": "3c405f5ebc3d88687f20c1706d55bac8", "fusion_lon": 0.0}, {"is_reserved": 0, "type": "electric_scooter", "bike_id": "3281fac58684a7bf1e418447168f4075", "lat": 38.920335666666666, "lon": -77.0172145, "rental_uris": {"android": "https://dc.lft.to/lastmile_qr_scan", "ios": "https://dc.lft.to/lastmile_qr_scan"}, "is_disabled": 0, "fusion_lat": 0.0, "name": "3281fac58684a7bf1e418447168f4075", "fusion_lon": 0.0}, {"is_reserved": 0, "type": "electric_scooter", "bike_id": "a77357baadabad885c9df6ec931601ca", "lat": 38.903841666666665, "lon": -77.04183766666667, "rental_uris": {"android": "https://dc.lft.to/lastmile_qr_scan", "ios": "https://dc.lft.to/lastmile_qr_scan"}, "is_disabled": 0, "fusion_lat": 0.0, "name": "a77357baadabad885c9df6ec931601ca", "fusion_lon": 0.0}, {"is_reserved": 0, "type": "electric_scooter", "bike_id": "09414c6e88269f465e2891522f4bd1a5", "lat": 38.908521666666665, "lon": -77.01016583333333, "rental_uris": {"android": "https://dc.lft.to/lastmile_qr_scan", "ios": "https://dc.lft.to/lastmile_qr_scan"}, "is_disabled": 0, "fusion_lat": 0.0, "name": "09414c6e88269f465e2891522f4bd1a5", "fusion_lon": 0.0}, {"is_reserved": 0, "type": "electric_scooter", "bike_id": "89e81b6df38fadf0e8c97a5dae3bf324", "lat": 38.917829166666664, "lon": -77.041016, "rental_uris": {"android": "https://dc.lft.to/lastmile_qr_scan", "ios": "https://dc.lft.to/lastmile_qr_scan"}, "is_disabled": 0, "fusion_lat": 0.0, "name": "89e81b6df38fadf0e8c97a5dae3bf324", "fusion_lon": 0.0}, {"is_reserved": 0, "type": "electric_scooter", "bike_id": "5a176bf82a2a0016bbb87d1b9722a8b9", "lat": 38.91071383333333, "lon": -77.04087883333334, "rental_uris": {"android": "https://dc.lft.to/lastmile_qr_scan", "ios": "https://dc.lft.to/lastmile_qr_scan"}, "is_disabled": 0, "fusion_lat": 0.0, "name": "5a176bf82a2a0016bbb87d1b9722a8b9", "fusion_lon": 0.0}, {"is_reserved": 0, "type": "electric_scooter", "bike_id": "1d0eae06b0efb5d991fdeeaef368d088", "lat": 38.90686183333333, "lon": -77.01538083333334, "rental_uris": {"android": "https://dc.lft.to/lastmile_qr_scan", "ios": "https://dc.lft.to/lastmile_qr_scan"}, "is_disabled": 0, "fusion_lat": 0.0, "name": "1d0eae06b0efb5d991fdeeaef368d088", "fusion_lon": 0.0}, {"is_reserved": 0, "type": "electric_scooter", "bike_id": "41bd2de8e98e8177ac6827b59b592654", "lat": 38.899602333333334, "lon": -77.04482166666666, "rental_uris": {"android": "https://dc.lft.to/lastmile_qr_scan", "ios": "https://dc.lft.to/lastmile_qr_scan"}, "is_disabled": 0, "fusion_lat": 0.0, "name": "41bd2de8e98e8177ac6827b59b592654", "fusion_lon": 0.0}, {"is_reserved": 0, "type": "electric_scooter", "bike_id": "7345cc8d7a9530e295279ab7606ac4c4", "lat": 38.917097166666665, "lon": -77.03471533333334, "rental_uris": {"android": "https://dc.lft.to/lastmile_qr_scan", "ios": "https://dc.lft.to/lastmile_qr_scan"}, "is_disabled": 0, "fusion_lat": 0.0, "name": "7345cc8d7a9530e295279ab7606ac4c4", "fusion_lon": 0.0}, {"is_reserved": 0, "type": "electric_scooter", "bike_id": "2faedd70899e013b893b1540509bd554", "lat": 38.91561183333334, "lon": -77.036657, "rental_uris": {"android": "https://dc.lft.to/lastmile_qr_scan", "ios": "https://dc.lft.to/lastmile_qr_scan"}, "is_disabled": 0, "fusion_lat": 0.0, "name": "2faedd70899e013b893b1540509bd554", "fusion_lon": 0.0}, {"is_reserved": 0, "type": "electric_scooter", "bike_id": "66201473f51eb20e1a4ec2ccacbe2576", "lat": 38.93633416666667, "lon": -77.06483183333333, "rental_uris": {"android": "https://dc.lft.to/lastmile_qr_scan", "ios": "https://dc.lft.to/lastmile_qr_scan"}, "is_disabled": 0, "fusion_lat": 0.0, "name": "66201473f51eb20e1a4ec2ccacbe2576", "fusion_lon": 0.0}, {"is_reserved": 0, "type": "electric_scooter", "bike_id": "6c57154bc9d4db5677d7633a31869c8d", "lat": 38.912638, "lon": -77.01879916666667, "rental_uris": {"android": "https://dc.lft.to/lastmile_qr_scan", "ios": "https://dc.lft.to/lastmile_qr_scan"}, "is_disabled": 0, "fusion_lat": 0.0, "name": "6c57154bc9d4db5677d7633a31869c8d", "fusion_lon": 0.0}, {"is_reserved": 0, "type": "electric_scooter", "bike_id": "615e5c7139cd91df8b52ca88aacb9337", "lat": 38.896112, "lon": -77.00524966666667, "rental_uris": {"android": "https://dc.lft.to/lastmile_qr_scan", "ios": "https://dc.lft.to/lastmile_qr_scan"}, "is_disabled": 0, "fusion_lat": 0.0, "name": "615e5c7139cd91df8b52ca88aacb9337", "fusion_lon": 0.0}, {"is_reserved": 0, "type": "electric_scooter", "bike_id": "786ed8650a4d00c4f99514dd923d4596", "lat": 38.898284, "lon": -77.0482605, "rental_uris": {"android": "https://dc.lft.to/lastmile_qr_scan", "ios": "https://dc.lft.to/lastmile_qr_scan"}, "is_disabled": 0, "fusion_lat": 0.0, "name": "786ed8650a4d00c4f99514dd923d4596", "fusion_lon": 0.0}, {"is_reserved": 0, "type": "electric_scooter", "bike_id": "1296c1f3090bb54769a33c4c1bf9ed03", "lat": 38.9201655, "lon": -77.031223, "rental_uris": {"android": "https://dc.lft.to/lastmile_qr_scan", "ios": "https://dc.lft.to/lastmile_qr_scan"}, "is_disabled": 0, "fusion_lat": 0.0, "name": "1296c1f3090bb54769a33c4c1bf9ed03", "fusion_lon": 0.0}, {"is_reserved": 0, "type": "electric_scooter", "bike_id": "6993bdde3f433ff32a32624ab92f708b", "lat": 38.9012645, "lon": -77.0336515, "rental_uris": {"android": "https://dc.lft.to/lastmile_qr_scan", "ios": "https://dc.lft.to/lastmile_qr_scan"}, "is_disabled": 0, "fusion_lat": 0.0, "name": "6993bdde3f433ff32a32624ab92f708b", "fusion_lon": 0.0}, {"is_reserved": 0, "type": "electric_scooter", "bike_id": "4eedee29e0422c99053ef3e842ad14fa", "lat": 38.93037316666667, "lon": -77.0831005, "rental_uris": {"android": "https://dc.lft.to/lastmile_qr_scan", "ios": "https://dc.lft.to/lastmile_qr_scan"}, "is_disabled": 0, "fusion_lat": 0.0, "name": "4eedee29e0422c99053ef3e842ad14fa", "fusion_lon": 0.0}, {"is_reserved": 0, "type": "electric_scooter", "bike_id": "ba35aa369a0139f0bc710c5eb27be815", "lat": 38.9162625, "lon": -77.03956066666667, "rental_uris": {"android": "https://dc.lft.to/lastmile_qr_scan", "ios": "https://dc.lft.to/lastmile_qr_scan"}, "is_disabled": 0, "fusion_lat": 0.0, "name": "ba35aa369a0139f0bc710c5eb27be815", "fusion_lon": 0.0}, {"is_reserved": 0, "type": "electric_scooter", "bike_id": "fba8c1f0e87a5a8b02b40532f9766505", "lat": 38.974993166666664, "lon": -77.0169275, "rental_uris": {"android": "https://dc.lft.to/lastmile_qr_scan", "ios": "https://dc.lft.to/lastmile_qr_scan"}, "is_disabled": 0, "fusion_lat": 0.0, "name": "fba8c1f0e87a5a8b02b40532f9766505", "fusion_lon": 0.0}, {"is_reserved": 0, "type": "electric_scooter", "bike_id": "d6897c1751ad2945e7dd8e02a6bd2040", "lat": 38.878393, "lon": -77.00723233333333, "rental_uris": {"android": "https://dc.lft.to/lastmile_qr_scan", "ios": "https://dc.lft.to/lastmile_qr_scan"}, "is_disabled": 0, "fusion_lat": 0.0, "name": "d6897c1751ad2945e7dd8e02a6bd2040", "fusion_lon": 0.0}, {"is_reserved": 0, "type": "electric_bike", "bike_id": "9a9d72b67f8f59bff1cd44cd3524df78", "lat": 38.92414316666667, "lon": -77.04073066666666, "rental_uris": {"android": "https://dc.lft.to/lastmile_qr_scan", "ios": "https://dc.lft.to/lastmile_qr_scan"}, "is_disabled": 0, "fusion_lat": 0.0, "name": "9a9d72b67f8f59bff1cd44cd3524df78", "fusion_lon": 0.0}, {"is_reserved": 0, "type": "electric_scooter", "bike_id": "66da4a9d337c3cec9148890c2868a2e5", "lat": 38.921598333333336, "lon": -77.03381366666666, "rental_uris": {"android": "https://dc.lft.to/lastmile_qr_scan", "ios": "https://dc.lft.to/lastmile_qr_scan"}, "is_disabled": 0, "fusion_lat": 0.0, "name": "66da4a9d337c3cec9148890c2868a2e5", "fusion_lon": 0.0}, {"is_reserved": 0, "type": "electric_scooter", "bike_id": "274722a39509ba379645fb2a5a4670b5", "lat": 38.930088, "lon": -77.02307333333333, "rental_uris": {"android": "https://dc.lft.to/lastmile_qr_scan", "ios": "https://dc.lft.to/lastmile_qr_scan"}, "is_disabled": 0, "fusion_lat": 0.0, "name": "274722a39509ba379645fb2a5a4670b5", "fusion_lon": 0.0}, {"is_reserved": 0, "type": "electric_scooter", "bike_id": "8dd1fb79a908f3ada9b6a4ba615d36ab", "lat": 38.91413566666667, "lon": -77.01874966666666, "rental_uris": {"android": "https://dc.lft.to/lastmile_qr_scan", "ios": "https://dc.lft.to/lastmile_qr_scan"}, "is_disabled": 0, "fusion_lat": 0.0, "name": "8dd1fb79a908f3ada9b6a4ba615d36ab", "fusion_lon": 0.0}, {"is_reserved": 0, "type": "electric_scooter", "bike_id": "b1e232a69301c23f4932035674aa1551", "lat": 38.91405566666667, "lon": -77.0317195, "rental_uris": {"android": "https://dc.lft.to/lastmile_qr_scan", "ios": "https://dc.lft.to/lastmile_qr_scan"}, "is_disabled": 0, "fusion_lat": 0.0, "name": "b1e232a69301c23f4932035674aa1551", "fusion_lon": 0.0}, {"is_reserved": 0, "type": "electric_scooter", "bike_id": "3bbb07d5cb25829d15ede5797544b880", "lat": 38.8829665, "lon": -76.948556, "rental_uris": {"android": "https://dc.lft.to/lastmile_qr_scan", "ios": "https://dc.lft.to/lastmile_qr_scan"}, "is_disabled": 0, "fusion_lat": 0.0, "name": "3bbb07d5cb25829d15ede5797544b880", "fusion_lon": 0.0}, {"is_reserved": 0, "type": "electric_scooter", "bike_id": "86a12a4b43a6820020281a044b2acc8a", "lat": 38.900719333333335, "lon": -77.04958783333333, "rental_uris": {"android": "https://dc.lft.to/lastmile_qr_scan", "ios": "https://dc.lft.to/lastmile_qr_scan"}, "is_disabled": 0, "fusion_lat": 0.0, "name": "86a12a4b43a6820020281a044b2acc8a", "fusion_lon": 0.0}, {"is_reserved": 0, "type": "electric_scooter", "bike_id": "62a10a639bdd92faabc15a4eb789cd08", "lat": 38.9202755, "lon": -77.01794983333333, "rental_uris": {"android": "https://dc.lft.to/lastmile_qr_scan", "ios": "https://dc.lft.to/lastmile_qr_scan"}, "is_disabled": 0, "fusion_lat": 0.0, "name": "62a10a639bdd92faabc15a4eb789cd08", "fusion_lon": 0.0}, {"is_reserved": 0, "type": "electric_scooter", "bike_id": "3ae4d3f4e9fef52885e6dfef2b82eb1b", "lat": 38.918668333333336, "lon": -77.0444725, "rental_uris": {"android": "https://dc.lft.to/lastmile_qr_scan", "ios": "https://dc.lft.to/lastmile_qr_scan"}, "is_disabled": 0, "fusion_lat": 0.0, "name": "3ae4d3f4e9fef52885e6dfef2b82eb1b", "fusion_lon": 0.0}, {"is_reserved": 0, "type": "electric_scooter", "bike_id": "af2facfdb93a8aeef47f3fed7f2027b7", "lat": 38.923031, "lon": -77.03018116666667, "rental_uris": {"android": "https://dc.lft.to/lastmile_qr_scan", "ios": "https://dc.lft.to/lastmile_qr_scan"}, "is_disabled": 0, "fusion_lat": 0.0, "name": "af2facfdb93a8aeef47f3fed7f2027b7", "fusion_lon": 0.0}, {"is_reserved": 0, "type": "electric_scooter", "bike_id": "5734472f6a9f39a78508a2be288473f8", "lat": 38.91109, "lon": -77.07348583333334, "rental_uris": {"android": "https://dc.lft.to/lastmile_qr_scan", "ios": "https://dc.lft.to/lastmile_qr_scan"}, "is_disabled": 0, "fusion_lat": 0.0, "name": "5734472f6a9f39a78508a2be288473f8", "fusion_lon": 0.0}, {"is_reserved": 0, "type": "electric_scooter", "bike_id": "6e0d3e14cd9776b05de6be8f4a7aa721", "lat": 38.927783833333336, "lon": -77.03228833333333, "rental_uris": {"android": "https://dc.lft.to/lastmile_qr_scan", "ios": "https://dc.lft.to/lastmile_qr_scan"}, "is_disabled": 0, "fusion_lat": 0.0, "name": "6e0d3e14cd9776b05de6be8f4a7aa721", "fusion_lon": 0.0}, {"is_reserved": 0, "type": "electric_scooter", "bike_id": "e3b516aced39efefad29c14ebef289fc", "lat": 38.89433016666667, "lon": -77.03968133333333, "rental_uris": {"android": "https://dc.lft.to/lastmile_qr_scan", "ios": "https://dc.lft.to/lastmile_qr_scan"}, "is_disabled": 0, "fusion_lat": 0.0, "name": "e3b516aced39efefad29c14ebef289fc", "fusion_lon": 0.0}, {"is_reserved": 0, "type": "electric_scooter", "bike_id": "d7d970c7eddf15abf9cdf586690791dd", "lat": 38.91583583333333, "lon": -77.01238733333334, "rental_uris": {"android": "https://dc.lft.to/lastmile_qr_scan", "ios": "https://dc.lft.to/lastmile_qr_scan"}, "is_disabled": 0, "fusion_lat": 0.0, "name": "d7d970c7eddf15abf9cdf586690791dd", "fusion_lon": 0.0}, {"is_reserved": 0, "type": "electric_scooter", "bike_id": "99e1a162aa7810c2ca2de1d0ea1421b2", "lat": 38.898310333333335, "lon": -77.02857083333333, "rental_uris": {"android": "https://dc.lft.to/lastmile_qr_scan", "ios": "https://dc.lft.to/lastmile_qr_scan"}, "is_disabled": 0, "fusion_lat": 0.0, "name": "99e1a162aa7810c2ca2de1d0ea1421b2", "fusion_lon": 0.0}, {"is_reserved": 0, "type": "electric_scooter", "bike_id": "a059982ae46050a9293f8f51cc0b6de0", "lat": 38.92792633333333, "lon": -77.0435375, "rental_uris": {"android": "https://dc.lft.to/lastmile_qr_scan", "ios": "https://dc.lft.to/lastmile_qr_scan"}, "is_disabled": 0, "fusion_lat": 0.0, "name": "a059982ae46050a9293f8f51cc0b6de0", "fusion_lon": 0.0}, {"is_reserved": 0, "type": "electric_scooter", "bike_id": "db3543897249c00de3e8dab13c4b645e", "lat": 38.91388666666667, "lon": -76.98410883333334, "rental_uris": {"android": "https://dc.lft.to/lastmile_qr_scan", "ios": "https://dc.lft.to/lastmile_qr_scan"}, "is_disabled": 0, "fusion_lat": 0.0, "name": "db3543897249c00de3e8dab13c4b645e", "fusion_lon": 0.0}, {"is_reserved": 0, "type": "electric_scooter", "bike_id": "47b0ec0d0c5d58804dd9403d5c0e676b", "lat": 38.92402216666667, "lon": -77.0505845, "rental_uris": {"android": "https://dc.lft.to/lastmile_qr_scan", "ios": "https://dc.lft.to/lastmile_qr_scan"}, "is_disabled": 0, "fusion_lat": 0.0, "name": "47b0ec0d0c5d58804dd9403d5c0e676b", "fusion_lon": 0.0}, {"is_reserved": 0, "type": "electric_scooter", "bike_id": "687ca362ab6081eccf92ef40726a6a90", "lat": 38.918833, "lon": -77.04173616666667, "rental_uris": {"android": "https://dc.lft.to/lastmile_qr_scan", "ios": "https://dc.lft.to/lastmile_qr_scan"}, "is_disabled": 0, "fusion_lat": 0.0, "name": "687ca362ab6081eccf92ef40726a6a90", "fusion_lon": 0.0}, {"is_reserved": 0, "type": "electric_bike", "bike_id": "15b93344e132bdfb5a7c9db58099d58b", "lat": 38.94266283333333, "lon": -76.9906305, "rental_uris": {"android": "https://dc.lft.to/lastmile_qr_scan", "ios": "https://dc.lft.to/lastmile_qr_scan"}, "is_disabled": 0, "fusion_lat": 0.0, "name": "15b93344e132bdfb5a7c9db58099d58b", "fusion_lon": 0.0}, {"is_reserved": 0, "type": "electric_scooter", "bike_id": "b3ac235eac63cb1c020a42bcf8bba099", "lat": 38.90851416666667, "lon": -77.06347083333333, "rental_uris": {"android": "https://dc.lft.to/lastmile_qr_scan", "ios": "https://dc.lft.to/lastmile_qr_scan"}, "is_disabled": 0, "fusion_lat": 0.0, "name": "b3ac235eac63cb1c020a42bcf8bba099", "fusion_lon": 0.0}, {"is_reserved": 0, "type": "electric_scooter", "bike_id": "c542ebc5899fb3245646208b05406bd4", "lat": 38.898993833333336, "lon": -77.033537, "rental_uris": {"android": "https://dc.lft.to/lastmile_qr_scan", "ios": "https://dc.lft.to/lastmile_qr_scan"}, "is_disabled": 0, "fusion_lat": 0.0, "name": "c542ebc5899fb3245646208b05406bd4", "fusion_lon": 0.0}, {"is_reserved": 0, "type": "electric_scooter", "bike_id": "ff9325f5ee9c90a7753e076c5b0d8fd1", "lat": 38.89225416666667, "lon": -77.04998533333334, "rental_uris": {"android": "https://dc.lft.to/lastmile_qr_scan", "ios": "https://dc.lft.to/lastmile_qr_scan"}, "is_disabled": 0, "fusion_lat": 0.0, "name": "ff9325f5ee9c90a7753e076c5b0d8fd1", "fusion_lon": 0.0}, {"is_reserved": 0, "type": "electric_scooter", "bike_id": "1e68faae891a25d54045a4d43d6c3c9a", "lat": 38.911187166666664, "lon": -77.03292266666666, "rental_uris": {"android": "https://dc.lft.to/lastmile_qr_scan", "ios": "https://dc.lft.to/lastmile_qr_scan"}, "is_disabled": 0, "fusion_lat": 0.0, "name": "1e68faae891a25d54045a4d43d6c3c9a", "fusion_lon": 0.0}, {"is_reserved": 0, "type": "electric_bike", "bike_id": "1bfa43b0d169bc68836cab15a81d8134", "lat": 38.973151, "lon": -76.99478533333334, "rental_uris": {"android": "https://dc.lft.to/lastmile_qr_scan", "ios": "https://dc.lft.to/lastmile_qr_scan"}, "is_disabled": 0, "fusion_lat": 0.0, "name": "1bfa43b0d169bc68836cab15a81d8134", "fusion_lon": 0.0}, {"is_reserved": 0, "type": "electric_scooter", "bike_id": "5e5d6d5a7876b558dde93c9a09fe538f", "lat": 38.928194833333336, "lon": -77.06220083333334, "rental_uris": {"android": "https://dc.lft.to/lastmile_qr_scan", "ios": "https://dc.lft.to/lastmile_qr_scan"}, "is_disabled": 0, "fusion_lat": 0.0, "name": "5e5d6d5a7876b558dde93c9a09fe538f", "fusion_lon": 0.0}, {"is_reserved": 0, "type": "electric_scooter", "bike_id": "f3b695522d5ebf905cc8c20298bdb3cc", "lat": 38.93595583333333, "lon": -77.03367866666666, "rental_uris": {"android": "https://dc.lft.to/lastmile_qr_scan", "ios": "https://dc.lft.to/lastmile_qr_scan"}, "is_disabled": 0, "fusion_lat": 0.0, "name": "f3b695522d5ebf905cc8c20298bdb3cc", "fusion_lon": 0.0}, {"is_reserved": 0, "type": "electric_scooter", "bike_id": "42a8a804bbc6db6052d2d1ec3dde22f4", "lat": 38.89225783333333, "lon": -77.03185133333334, "rental_uris": {"android": "https://dc.lft.to/lastmile_qr_scan", "ios": "https://dc.lft.to/lastmile_qr_scan"}, "is_disabled": 0, "fusion_lat": 0.0, "name": "42a8a804bbc6db6052d2d1ec3dde22f4", "fusion_lon": 0.0}, {"is_reserved": 0, "type": "electric_scooter", "bike_id": "ba2d6dd48670a084a042aa09496157f0", "lat": 38.901338, "lon": -77.03356383333333, "rental_uris": {"android": "https://dc.lft.to/lastmile_qr_scan", "ios": "https://dc.lft.to/lastmile_qr_scan"}, "is_disabled": 0, "fusion_lat": 0.0, "name": "ba2d6dd48670a084a042aa09496157f0", "fusion_lon": 0.0}, {"is_reserved": 0, "type": "electric_scooter", "bike_id": "81ceca144c11f8156e6019b528af68ff", "lat": 38.9148915, "lon": -77.03190416666666, "rental_uris": {"android": "https://dc.lft.to/lastmile_qr_scan", "ios": "https://dc.lft.to/lastmile_qr_scan"}, "is_disabled": 0, "fusion_lat": 0.0, "name": "81ceca144c11f8156e6019b528af68ff", "fusion_lon": 0.0}, {"is_reserved": 0, "type": "electric_scooter", "bike_id": "d196a8f95a0b0401bc113ee477b40f35", "lat": 38.895419833333335, "lon": -77.03004216666666, "rental_uris": {"android": "https://dc.lft.to/lastmile_qr_scan", "ios": "https://dc.lft.to/lastmile_qr_scan"}, "is_disabled": 0, "fusion_lat": 0.0, "name": "d196a8f95a0b0401bc113ee477b40f35", "fusion_lon": 0.0}, {"is_reserved": 0, "type": "electric_scooter", "bike_id": "014739392da1677aa5505e52bb96c5e0", "lat": 38.89223416666667, "lon": -77.0332585, "rental_uris": {"android": "https://dc.lft.to/lastmile_qr_scan", "ios": "https://dc.lft.to/lastmile_qr_scan"}, "is_disabled": 0, "fusion_lat": 0.0, "name": "014739392da1677aa5505e52bb96c5e0", "fusion_lon": 0.0}, {"is_reserved": 0, "type": "electric_scooter", "bike_id": "03b97c7d134fc55497de7083c928f9c4", "lat": 38.898874166666666, "lon": -76.98000416666666, "rental_uris": {"android": "https://dc.lft.to/lastmile_qr_scan", "ios": "https://dc.lft.to/lastmile_qr_scan"}, "is_disabled": 0, "fusion_lat": 0.0, "name": "03b97c7d134fc55497de7083c928f9c4", "fusion_lon": 0.0}, {"is_reserved": 0, "type": "electric_scooter", "bike_id": "b0e374f53c909baeddd022f324dd52e2", "lat": 38.91418733333333, "lon": -77.0282785, "rental_uris": {"android": "https://dc.lft.to/lastmile_qr_scan", "ios": "https://dc.lft.to/lastmile_qr_scan"}, "is_disabled": 0, "fusion_lat": 0.0, "name": "b0e374f53c909baeddd022f324dd52e2", "fusion_lon": 0.0}, {"is_reserved": 0, "type": "electric_scooter", "bike_id": "f49c8a2330b1c7b6af461866d728d02c", "lat": 38.924625166666665, "lon": -77.03955016666667, "rental_uris": {"android": "https://dc.lft.to/lastmile_qr_scan", "ios": "https://dc.lft.to/lastmile_qr_scan"}, "is_disabled": 0, "fusion_lat": 0.0, "name": "f49c8a2330b1c7b6af461866d728d02c", "fusion_lon": 0.0}, {"is_reserved": 0, "type": "electric_scooter", "bike_id": "9499506da8f30bf538e05ed6bd402b49", "lat": 38.88728283333333, "lon": -77.022037, "rental_uris": {"android": "https://dc.lft.to/lastmile_qr_scan", "ios": "https://dc.lft.to/lastmile_qr_scan"}, "is_disabled": 0, "fusion_lat": 0.0, "name": "9499506da8f30bf538e05ed6bd402b49", "fusion_lon": 0.0}, {"is_reserved": 0, "type": "electric_scooter", "bike_id": "1344b63d17df38185ade914e98abe41d", "lat": 38.89973583333333, "lon": -77.02104533333333, "rental_uris": {"android": "https://dc.lft.to/lastmile_qr_scan", "ios": "https://dc.lft.to/lastmile_qr_scan"}, "is_disabled": 0, "fusion_lat": 0.0, "name": "1344b63d17df38185ade914e98abe41d", "fusion_lon": 0.0}, {"is_reserved": 0, "type": "electric_bike", "bike_id": "6c4aac4ae7c55b4718034bc151a97242", "lat": 38.88207833333333, "lon": -77.1115865, "rental_uris": {"android": "https://dc.lft.to/lastmile_qr_scan", "ios": "https://dc.lft.to/lastmile_qr_scan"}, "is_disabled": 0, "fusion_lat": 0.0, "name": "6c4aac4ae7c55b4718034bc151a97242", "fusion_lon": 0.0}, {"is_reserved": 0, "type": "electric_scooter", "bike_id": "3bcc937c4fb024c170908720af961c94", "lat": 38.911852333333336, "lon": -77.044876, "rental_uris": {"android": "https://dc.lft.to/lastmile_qr_scan", "ios": "https://dc.lft.to/lastmile_qr_scan"}, "is_disabled": 0, "fusion_lat": 0.0, "name": "3bcc937c4fb024c170908720af961c94", "fusion_lon": 0.0}, {"is_reserved": 0, "type": "electric_scooter", "bike_id": "f7182363035dce22e8ae2b626bd3cfed", "lat": 38.930789, "lon": -77.03742966666667, "rental_uris": {"android": "https://dc.lft.to/lastmile_qr_scan", "ios": "https://dc.lft.to/lastmile_qr_scan"}, "is_disabled": 0, "fusion_lat": 0.0, "name": "f7182363035dce22e8ae2b626bd3cfed", "fusion_lon": 0.0}, {"is_reserved": 0, "type": "electric_scooter", "bike_id": "1ac006db68e2023bbcaa985753f321df", "lat": 38.92853316666667, "lon": -77.03737233333334, "rental_uris": {"android": "https://dc.lft.to/lastmile_qr_scan", "ios": "https://dc.lft.to/lastmile_qr_scan"}, "is_disabled": 0, "fusion_lat": 0.0, "name": "1ac006db68e2023bbcaa985753f321df", "fusion_lon": 0.0}, {"is_reserved": 0, "type": "electric_scooter", "bike_id": "73c2d7dd10da465466377dfaa8f70480", "lat": 38.899859, "lon": -77.02708116666666, "rental_uris": {"android": "https://dc.lft.to/lastmile_qr_scan", "ios": "https://dc.lft.to/lastmile_qr_scan"}, "is_disabled": 0, "fusion_lat": 0.0, "name": "73c2d7dd10da465466377dfaa8f70480", "fusion_lon": 0.0}, {"is_reserved": 0, "type": "electric_scooter", "bike_id": "142b6cf6e92a477834f6a5788e6298b3", "lat": 38.88782916666667, "lon": -76.97711016666666, "rental_uris": {"android": "https://dc.lft.to/lastmile_qr_scan", "ios": "https://dc.lft.to/lastmile_qr_scan"}, "is_disabled": 0, "fusion_lat": 0.0, "name": "142b6cf6e92a477834f6a5788e6298b3", "fusion_lon": 0.0}, {"is_reserved": 0, "type": "electric_scooter", "bike_id": "ac5bcee1438bb938ce2e4204ee02daab", "lat": 38.87299466666666, "lon": -77.0155885, "rental_uris": {"android": "https://dc.lft.to/lastmile_qr_scan", "ios": "https://dc.lft.to/lastmile_qr_scan"}, "is_disabled": 0, "fusion_lat": 0.0, "name": "ac5bcee1438bb938ce2e4204ee02daab", "fusion_lon": 0.0}, {"is_reserved": 0, "type": "electric_scooter", "bike_id": "bf5c94d78ebd919ed2c8e54ab2e4d6ea", "lat": 38.89919, "lon": -76.978308, "rental_uris": {"android": "https://dc.lft.to/lastmile_qr_scan", "ios": "https://dc.lft.to/lastmile_qr_scan"}, "is_disabled": 0, "fusion_lat": 0.0, "name": "bf5c94d78ebd919ed2c8e54ab2e4d6ea", "fusion_lon": 0.0}, {"is_reserved": 0, "type": "electric_scooter", "bike_id": "027dfde0cb6b2ec6bf527f07c5c967d5", "lat": 38.897200833333336, "lon": -77.022764, "rental_uris": {"android": "https://dc.lft.to/lastmile_qr_scan", "ios": "https://dc.lft.to/lastmile_qr_scan"}, "is_disabled": 0, "fusion_lat": 0.0, "name": "027dfde0cb6b2ec6bf527f07c5c967d5", "fusion_lon": 0.0}, {"is_reserved": 0, "type": "electric_scooter", "bike_id": "cb196041c21ba5a7154ceeb7096ca3d4", "lat": 38.8827025, "lon": -77.003498, "rental_uris": {"android": "https://dc.lft.to/lastmile_qr_scan", "ios": "https://dc.lft.to/lastmile_qr_scan"}, "is_disabled": 0, "fusion_lat": 0.0, "name": "cb196041c21ba5a7154ceeb7096ca3d4", "fusion_lon": 0.0}, {"is_reserved": 0, "type": "electric_scooter", "bike_id": "8dd34484955904cff3315007692ac191", "lat": 38.93130716666667, "lon": -77.03849933333333, "rental_uris": {"android": "https://dc.lft.to/lastmile_qr_scan", "ios": "https://dc.lft.to/lastmile_qr_scan"}, "is_disabled": 0, "fusion_lat": 0.0, "name": "8dd34484955904cff3315007692ac191", "fusion_lon": 0.0}, {"is_reserved": 0, "type": "electric_scooter", "bike_id": "28c377c0c2181edbdce3628565528968", "lat": 38.91798216666667, "lon": -77.034342, "rental_uris": {"android": "https://dc.lft.to/lastmile_qr_scan", "ios": "https://dc.lft.to/lastmile_qr_scan"}, "is_disabled": 0, "fusion_lat": 0.0, "name": "28c377c0c2181edbdce3628565528968", "fusion_lon": 0.0}, {"is_reserved": 0, "type": "electric_scooter", "bike_id": "c16e341e776626a31ecbdb5b3f655ad6", "lat": 38.895438, "lon": -77.03013833333333, "rental_uris": {"android": "https://dc.lft.to/lastmile_qr_scan", "ios": "https://dc.lft.to/lastmile_qr_scan"}, "is_disabled": 0, "fusion_lat": 0.0, "name": "c16e341e776626a31ecbdb5b3f655ad6", "fusion_lon": 0.0}, {"is_reserved": 0, "type": "electric_scooter", "bike_id": "8b911d06e08e80f3a491c721e24700b7", "lat": 38.937023333333336, "lon": -77.02117566666666, "rental_uris": {"android": "https://dc.lft.to/lastmile_qr_scan", "ios": "https://dc.lft.to/lastmile_qr_scan"}, "is_disabled": 0, "fusion_lat": 0.0, "name": "8b911d06e08e80f3a491c721e24700b7", "fusion_lon": 0.0}, {"is_reserved": 0, "type": "electric_scooter", "bike_id": "5f5194c4d332fd31e85fca992639f729", "lat": 38.923622, "lon": -77.0502895, "rental_uris": {"android": "https://dc.lft.to/lastmile_qr_scan", "ios": "https://dc.lft.to/lastmile_qr_scan"}, "is_disabled": 0, "fusion_lat": 0.0, "name": "5f5194c4d332fd31e85fca992639f729", "fusion_lon": 0.0}, {"is_reserved": 0, "type": "electric_scooter", "bike_id": "b5dd19052853a473c28c76dd7ccc6b6e", "lat": 38.925118, "lon": -77.02281883333333, "rental_uris": {"android": "https://dc.lft.to/lastmile_qr_scan", "ios": "https://dc.lft.to/lastmile_qr_scan"}, "is_disabled": 0, "fusion_lat": 0.0, "name": "b5dd19052853a473c28c76dd7ccc6b6e", "fusion_lon": 0.0}, {"is_reserved": 0, "type": "electric_scooter", "bike_id": "ac266a5a5dddded397d854ab778a869e", "lat": 38.92900483333333, "lon": -77.02500716666667, "rental_uris": {"android": "https://dc.lft.to/lastmile_qr_scan", "ios": "https://dc.lft.to/lastmile_qr_scan"}, "is_disabled": 0, "fusion_lat": 0.0, "name": "ac266a5a5dddded397d854ab778a869e", "fusion_lon": 0.0}, {"is_reserved": 0, "type": "electric_scooter", "bike_id": "f6709fa171dbfb03831288f612661ef5", "lat": 38.892277666666665, "lon": -77.04353533333334, "rental_uris": {"android": "https://dc.lft.to/lastmile_qr_scan", "ios": "https://dc.lft.to/lastmile_qr_scan"}, "is_disabled": 0, "fusion_lat": 0.0, "name": "f6709fa171dbfb03831288f612661ef5", "fusion_lon": 0.0}, {"is_reserved": 0, "type": "electric_scooter", "bike_id": "a64624c09084ef3324c27f5d42803e03", "lat": 38.915740666666665, "lon": -76.98377866666667, "rental_uris": {"android": "https://dc.lft.to/lastmile_qr_scan", "ios": "https://dc.lft.to/lastmile_qr_scan"}, "is_disabled": 0, "fusion_lat": 0.0, "name": "a64624c09084ef3324c27f5d42803e03", "fusion_lon": 0.0}, {"is_reserved": 0, "type": "electric_scooter", "bike_id": "78518f90935543c17a26c167a77d7b1e", "lat": 38.884754666666666, "lon": -77.02349666666667, "rental_uris": {"android": "https://dc.lft.to/lastmile_qr_scan", "ios": "https://dc.lft.to/lastmile_qr_scan"}, "is_disabled": 0, "fusion_lat": 0.0, "name": "78518f90935543c17a26c167a77d7b1e", "fusion_lon": 0.0}, {"is_reserved": 0, "type": "electric_scooter", "bike_id": "8108fff9a101414d9e362ccdcda470b6", "lat": 38.89727083333333, "lon": -76.99511516666666, "rental_uris": {"android": "https://dc.lft.to/lastmile_qr_scan", "ios": "https://dc.lft.to/lastmile_qr_scan"}, "is_disabled": 0, "fusion_lat": 0.0, "name": "8108fff9a101414d9e362ccdcda470b6", "fusion_lon": 0.0}, {"is_reserved": 0, "type": "electric_scooter", "bike_id": "8968ca701de01b2d3d24aade111b3754", "lat": 38.916423333333334, "lon": -77.03200866666667, "rental_uris": {"android": "https://dc.lft.to/lastmile_qr_scan", "ios": "https://dc.lft.to/lastmile_qr_scan"}, "is_disabled": 0, "fusion_lat": 0.0, "name": "8968ca701de01b2d3d24aade111b3754", "fusion_lon": 0.0}, {"is_reserved": 0, "type": "electric_bike", "bike_id": "f11a4c40d7408d61d344fb127ec60105", "lat": 38.85781083333333, "lon": -76.9875355, "rental_uris": {"android": "https://dc.lft.to/lastmile_qr_scan", "ios": "https://dc.lft.to/lastmile_qr_scan"}, "is_disabled": 0, "fusion_lat": 0.0, "name": "f11a4c40d7408d61d344fb127ec60105", "fusion_lon": 0.0}, {"is_reserved": 0, "type": "electric_scooter", "bike_id": "c8b5cd184bf4afb087a19cf6e4b36b40", "lat": 38.9164265, "lon": -77.0319275, "rental_uris": {"android": "https://dc.lft.to/lastmile_qr_scan", "ios": "https://dc.lft.to/lastmile_qr_scan"}, "is_disabled": 0, "fusion_lat": 0.0, "name": "c8b5cd184bf4afb087a19cf6e4b36b40", "fusion_lon": 0.0}, {"is_reserved": 0, "type": "electric_bike", "bike_id": "857166a6ed365e9a6b49bff321533439", "lat": 38.83031183333333, "lon": -77.0837685, "rental_uris": {"android": "https://dc.lft.to/lastmile_qr_scan", "ios": "https://dc.lft.to/lastmile_qr_scan"}, "is_disabled": 0, "fusion_lat": 0.0, "name": "857166a6ed365e9a6b49bff321533439", "fusion_lon": 0.0}, {"is_reserved": 0, "type": "electric_scooter", "bike_id": "e2ba910c2e86786533ea0b0aac6effbb", "lat": 38.94448783333333, "lon": -77.02797583333333, "rental_uris": {"android": "https://dc.lft.to/lastmile_qr_scan", "ios": "https://dc.lft.to/lastmile_qr_scan"}, "is_disabled": 0, "fusion_lat": 0.0, "name": "e2ba910c2e86786533ea0b0aac6effbb", "fusion_lon": 0.0}, {"is_reserved": 0, "type": "electric_scooter", "bike_id": "fa55eefabbdd67fbb3ce8a023fe0726c", "lat": 38.89196316666666, "lon": -77.02176016666667, "rental_uris": {"android": "https://dc.lft.to/lastmile_qr_scan", "ios": "https://dc.lft.to/lastmile_qr_scan"}, "is_disabled": 0, "fusion_lat": 0.0, "name": "fa55eefabbdd67fbb3ce8a023fe0726c", "fusion_lon": 0.0}, {"is_reserved": 0, "type": "electric_scooter", "bike_id": "d83c7ce8134e359baee0501a1468b0a7", "lat": 38.902104666666666, "lon": -77.0216885, "rental_uris": {"android": "https://dc.lft.to/lastmile_qr_scan", "ios": "https://dc.lft.to/lastmile_qr_scan"}, "is_disabled": 0, "fusion_lat": 0.0, "name": "d83c7ce8134e359baee0501a1468b0a7", "fusion_lon": 0.0}, {"is_reserved": 0, "type": "electric_bike", "bike_id": "7d898dca1f39cbe7c67c5f1ad94941f0", "lat": 38.89390483333333, "lon": -76.86848, "rental_uris": {"android": "https://dc.lft.to/lastmile_qr_scan", "ios": "https://dc.lft.to/lastmile_qr_scan"}, "is_disabled": 0, "fusion_lat": 0.0, "name": "7d898dca1f39cbe7c67c5f1ad94941f0", "fusion_lon": 0.0}, {"is_reserved": 0, "type": "electric_scooter", "bike_id": "4f5c20189ac8584bf9826f2666cf0d5c", "lat": 38.92331266666667, "lon": -77.00890583333333, "rental_uris": {"android": "https://dc.lft.to/lastmile_qr_scan", "ios": "https://dc.lft.to/lastmile_qr_scan"}, "is_disabled": 0, "fusion_lat": 0.0, "name": "4f5c20189ac8584bf9826f2666cf0d5c", "fusion_lon": 0.0}, {"is_reserved": 0, "type": "electric_scooter", "bike_id": "0765ced66db90c7fad01a391c72b6f67", "lat": 38.90002966666667, "lon": -77.02713816666666, "rental_uris": {"android": "https://dc.lft.to/lastmile_qr_scan", "ios": "https://dc.lft.to/lastmile_qr_scan"}, "is_disabled": 0, "fusion_lat": 0.0, "name": "0765ced66db90c7fad01a391c72b6f67", "fusion_lon": 0.0}, {"is_reserved": 0, "type": "electric_scooter", "bike_id": "834dccae22e7ebda508e2e4aac7eafff", "lat": 38.91844283333333, "lon": -77.0410965, "rental_uris": {"android": "https://dc.lft.to/lastmile_qr_scan", "ios": "https://dc.lft.to/lastmile_qr_scan"}, "is_disabled": 0, "fusion_lat": 0.0, "name": "834dccae22e7ebda508e2e4aac7eafff", "fusion_lon": 0.0}, {"is_reserved": 0, "type": "electric_scooter", "bike_id": "b11f7fc5d5b12d305bb03cd25c0602c2", "lat": 38.92414616666667, "lon": -77.02007316666666, "rental_uris": {"android": "https://dc.lft.to/lastmile_qr_scan", "ios": "https://dc.lft.to/lastmile_qr_scan"}, "is_disabled": 0, "fusion_lat": 0.0, "name": "b11f7fc5d5b12d305bb03cd25c0602c2", "fusion_lon": 0.0}, {"is_reserved": 0, "type": "electric_scooter", "bike_id": "766e1f8f286a436976fe1b60e084e37a", "lat": 38.905506, "lon": -77.04162033333333, "rental_uris": {"android": "https://dc.lft.to/lastmile_qr_scan", "ios": "https://dc.lft.to/lastmile_qr_scan"}, "is_disabled": 0, "fusion_lat": 0.0, "name": "766e1f8f286a436976fe1b60e084e37a", "fusion_lon": 0.0}, {"is_reserved": 0, "type": "electric_scooter", "bike_id": "8d48c83cc137c6df5581cca64b0d007c", "lat": 38.904959, "lon": -77.02951983333334, "rental_uris": {"android": "https://dc.lft.to/lastmile_qr_scan", "ios": "https://dc.lft.to/lastmile_qr_scan"}, "is_disabled": 0, "fusion_lat": 0.0, "name": "8d48c83cc137c6df5581cca64b0d007c", "fusion_lon": 0.0}, {"is_reserved": 0, "type": "electric_scooter", "bike_id": "7456af3b368b722b9180d990f3ab2169", "lat": 38.93891283333333, "lon": -77.03262016666666, "rental_uris": {"android": "https://dc.lft.to/lastmile_qr_scan", "ios": "https://dc.lft.to/lastmile_qr_scan"}, "is_disabled": 0, "fusion_lat": 0.0, "name": "7456af3b368b722b9180d990f3ab2169", "fusion_lon": 0.0}, {"is_reserved": 0, "type": "electric_scooter", "bike_id": "c75c9d1401d5214070cfd2d0132931e7", "lat": 38.852246666666666, "lon": -76.99427216666666, "rental_uris": {"android": "https://dc.lft.to/lastmile_qr_scan", "ios": "https://dc.lft.to/lastmile_qr_scan"}, "is_disabled": 0, "fusion_lat": 0.0, "name": "c75c9d1401d5214070cfd2d0132931e7", "fusion_lon": 0.0}, {"is_reserved": 0, "type": "electric_scooter", "bike_id": "a668a34b96fd5aac327e53c72fc7a3f1", "lat": 38.9140585, "lon": -77.03223233333334, "rental_uris": {"android": "https://dc.lft.to/lastmile_qr_scan", "ios": "https://dc.lft.to/lastmile_qr_scan"}, "is_disabled": 0, "fusion_lat": 0.0, "name": "a668a34b96fd5aac327e53c72fc7a3f1", "fusion_lon": 0.0}, {"is_reserved": 0, "type": "electric_scooter", "bike_id": "50e03294c051159f37c8b981eeb84ab5", "lat": 38.899057666666664, "lon": -76.933656, "rental_uris": {"android": "https://dc.lft.to/lastmile_qr_scan", "ios": "https://dc.lft.to/lastmile_qr_scan"}, "is_disabled": 0, "fusion_lat": 0.0, "name": "50e03294c051159f37c8b981eeb84ab5", "fusion_lon": 0.0}, {"is_reserved": 0, "type": "electric_scooter", "bike_id": "d21d96008078ec59d79f0df7cbd975d3", "lat": 38.946560166666664, "lon": -77.03281566666666, "rental_uris": {"android": "https://dc.lft.to/lastmile_qr_scan", "ios": "https://dc.lft.to/lastmile_qr_scan"}, "is_disabled": 0, "fusion_lat": 0.0, "name": "d21d96008078ec59d79f0df7cbd975d3", "fusion_lon": 0.0}, {"is_reserved": 0, "type": "electric_scooter", "bike_id": "ca1638b4cd773c35c4fb970e4d83ed0d", "lat": 38.87658116666667, "lon": -77.00755016666666, "rental_uris": {"android": "https://dc.lft.to/lastmile_qr_scan", "ios": "https://dc.lft.to/lastmile_qr_scan"}, "is_disabled": 0, "fusion_lat": 0.0, "name": "ca1638b4cd773c35c4fb970e4d83ed0d", "fusion_lon": 0.0}, {"is_reserved": 0, "type": "electric_scooter", "bike_id": "4fc458fd56f9361aab286667c4c1d0e5", "lat": 38.907153, "lon": -77.00496783333334, "rental_uris": {"android": "https://dc.lft.to/lastmile_qr_scan", "ios": "https://dc.lft.to/lastmile_qr_scan"}, "is_disabled": 0, "fusion_lat": 0.0, "name": "4fc458fd56f9361aab286667c4c1d0e5", "fusion_lon": 0.0}, {"is_reserved": 0, "type": "electric_scooter", "bike_id": "d8d51f0cff14e726297c6a7e756bb4da", "lat": 38.92430816666667, "lon": -77.04043916666667, "rental_uris": {"android": "https://dc.lft.to/lastmile_qr_scan", "ios": "https://dc.lft.to/lastmile_qr_scan"}, "is_disabled": 0, "fusion_lat": 0.0, "name": "d8d51f0cff14e726297c6a7e756bb4da", "fusion_lon": 0.0}, {"is_reserved": 0, "type": "electric_scooter", "bike_id": "78dd7c6c7fb39aa07fb22f87610d0577", "lat": 38.916962833333336, "lon": -77.028983, "rental_uris": {"android": "https://dc.lft.to/lastmile_qr_scan", "ios": "https://dc.lft.to/lastmile_qr_scan"}, "is_disabled": 0, "fusion_lat": 0.0, "name": "78dd7c6c7fb39aa07fb22f87610d0577", "fusion_lon": 0.0}, {"is_reserved": 0, "type": "electric_scooter", "bike_id": "2b018d1cb7e171522b9a3ddff97321a0", "lat": 38.956273333333336, "lon": -77.0278165, "rental_uris": {"android": "https://dc.lft.to/lastmile_qr_scan", "ios": "https://dc.lft.to/lastmile_qr_scan"}, "is_disabled": 0, "fusion_lat": 0.0, "name": "2b018d1cb7e171522b9a3ddff97321a0", "fusion_lon": 0.0}, {"is_reserved": 0, "type": "electric_scooter", "bike_id": "fa8230ec43b67167b22e8aa8aae4464d", "lat": 38.918076166666665, "lon": -77.03301466666667, "rental_uris": {"android": "https://dc.lft.to/lastmile_qr_scan", "ios": "https://dc.lft.to/lastmile_qr_scan"}, "is_disabled": 0, "fusion_lat": 0.0, "name": "fa8230ec43b67167b22e8aa8aae4464d", "fusion_lon": 0.0}, {"is_reserved": 0, "type": "electric_scooter", "bike_id": "d4c97e4384ecf811d76adb91c04531aa", "lat": 38.894976666666665, "lon": -77.0020395, "rental_uris": {"android": "https://dc.lft.to/lastmile_qr_scan", "ios": "https://dc.lft.to/lastmile_qr_scan"}, "is_disabled": 0, "fusion_lat": 0.0, "name": "d4c97e4384ecf811d76adb91c04531aa", "fusion_lon": 0.0}, {"is_reserved": 0, "type": "electric_scooter", "bike_id": "b98a5ea946e96636595d790ff187ec31", "lat": 38.935553, "lon": -77.0221515, "rental_uris": {"android": "https://dc.lft.to/lastmile_qr_scan", "ios": "https://dc.lft.to/lastmile_qr_scan"}, "is_disabled": 0, "fusion_lat": 0.0, "name": "b98a5ea946e96636595d790ff187ec31", "fusion_lon": 0.0}, {"is_reserved": 0, "type": "electric_scooter", "bike_id": "97cc5c4c97032f18aad87edde1749264", "lat": 38.924479166666664, "lon": -77.04397466666667, "rental_uris": {"android": "https://dc.lft.to/lastmile_qr_scan", "ios": "https://dc.lft.to/lastmile_qr_scan"}, "is_disabled": 0, "fusion_lat": 0.0, "name": "97cc5c4c97032f18aad87edde1749264", "fusion_lon": 0.0}, {"is_reserved": 0, "type": "electric_scooter", "bike_id": "0c1cf794d337da8f9d0dee71eff20c94", "lat": 38.908607, "lon": -77.0235425, "rental_uris": {"android": "https://dc.lft.to/lastmile_qr_scan", "ios": "https://dc.lft.to/lastmile_qr_scan"}, "is_disabled": 0, "fusion_lat": 0.0, "name": "0c1cf794d337da8f9d0dee71eff20c94", "fusion_lon": 0.0}, {"is_reserved": 0, "type": "electric_scooter", "bike_id": "a7d4ac6a48f7b3b75cf08f68c86fbe44", "lat": 38.900692666666664, "lon": -76.92739866666666, "rental_uris": {"android": "https://dc.lft.to/lastmile_qr_scan", "ios": "https://dc.lft.to/lastmile_qr_scan"}, "is_disabled": 0, "fusion_lat": 0.0, "name": "a7d4ac6a48f7b3b75cf08f68c86fbe44", "fusion_lon": 0.0}, {"is_reserved": 0, "type": "electric_scooter", "bike_id": "fff26679dc166e300ce59ad0336bed8d", "lat": 38.9424055, "lon": -77.03583633333334, "rental_uris": {"android": "https://dc.lft.to/lastmile_qr_scan", "ios": "https://dc.lft.to/lastmile_qr_scan"}, "is_disabled": 0, "fusion_lat": 0.0, "name": "fff26679dc166e300ce59ad0336bed8d", "fusion_lon": 0.0}, {"is_reserved": 0, "type": "electric_scooter", "bike_id": "4ade1a0342e3199099a98a479b642c67", "lat": 38.93339783333333, "lon": -77.0238415, "rental_uris": {"android": "https://dc.lft.to/lastmile_qr_scan", "ios": "https://dc.lft.to/lastmile_qr_scan"}, "is_disabled": 0, "fusion_lat": 0.0, "name": "4ade1a0342e3199099a98a479b642c67", "fusion_lon": 0.0}, {"is_reserved": 0, "type": "electric_scooter", "bike_id": "222dc68af31a46c3651e94715185e4ab", "lat": 38.89220683333333, "lon": -77.01556283333333, "rental_uris": {"android": "https://dc.lft.to/lastmile_qr_scan", "ios": "https://dc.lft.to/lastmile_qr_scan"}, "is_disabled": 0, "fusion_lat": 0.0, "name": "222dc68af31a46c3651e94715185e4ab", "fusion_lon": 0.0}, {"is_reserved": 0, "type": "electric_scooter", "bike_id": "9777c52e47234f09fc282a5acc827831", "lat": 38.910017, "lon": -77.040037, "rental_uris": {"android": "https://dc.lft.to/lastmile_qr_scan", "ios": "https://dc.lft.to/lastmile_qr_scan"}, "is_disabled": 0, "fusion_lat": 0.0, "name": "9777c52e47234f09fc282a5acc827831", "fusion_lon": 0.0}, {"is_reserved": 0, "type": "electric_scooter", "bike_id": "dc80629e9fb85ee87c31c310bfc2868c", "lat": 38.87812, "lon": -76.99484133333333, "rental_uris": {"android": "https://dc.lft.to/lastmile_qr_scan", "ios": "https://dc.lft.to/lastmile_qr_scan"}, "is_disabled": 0, "fusion_lat": 0.0, "name": "dc80629e9fb85ee87c31c310bfc2868c", "fusion_lon": 0.0}, {"is_reserved": 0, "type": "electric_scooter", "bike_id": "8dfd1d97d4f3286667c4041554f1aaf6", "lat": 38.9306285, "lon": -77.03211783333333, "rental_uris": {"android": "https://dc.lft.to/lastmile_qr_scan", "ios": "https://dc.lft.to/lastmile_qr_scan"}, "is_disabled": 0, "fusion_lat": 0.0, "name": "8dfd1d97d4f3286667c4041554f1aaf6", "fusion_lon": 0.0}, {"is_reserved": 0, "type": "electric_scooter", "bike_id": "8b15e1f621f899b59c626882144761ab", "lat": 38.884366166666666, "lon": -76.9947485, "rental_uris": {"android": "https://dc.lft.to/lastmile_qr_scan", "ios": "https://dc.lft.to/lastmile_qr_scan"}, "is_disabled": 0, "fusion_lat": 0.0, "name": "8b15e1f621f899b59c626882144761ab", "fusion_lon": 0.0}, {"is_reserved": 0, "type": "electric_scooter", "bike_id": "035397e76cd9b0905171f1a44c85133a", "lat": 38.905378166666665, "lon": -77.00217333333333, "rental_uris": {"android": "https://dc.lft.to/lastmile_qr_scan", "ios": "https://dc.lft.to/lastmile_qr_scan"}, "is_disabled": 0, "fusion_lat": 0.0, "name": "035397e76cd9b0905171f1a44c85133a", "fusion_lon": 0.0}, {"is_reserved": 0, "type": "electric_scooter", "bike_id": "ac41b95c2614a4db907e7b15fe965d0f", "lat": 38.89886633333333, "lon": -76.9317565, "rental_uris": {"android": "https://dc.lft.to/lastmile_qr_scan", "ios": "https://dc.lft.to/lastmile_qr_scan"}, "is_disabled": 0, "fusion_lat": 0.0, "name": "ac41b95c2614a4db907e7b15fe965d0f", "fusion_lon": 0.0}, {"is_reserved": 0, "type": "electric_scooter", "bike_id": "d03e8eff871012abdd25b4fd3b7a247c", "lat": 38.93881416666667, "lon": -77.03284183333334, "rental_uris": {"android": "https://dc.lft.to/lastmile_qr_scan", "ios": "https://dc.lft.to/lastmile_qr_scan"}, "is_disabled": 0, "fusion_lat": 0.0, "name": "d03e8eff871012abdd25b4fd3b7a247c", "fusion_lon": 0.0}, {"is_reserved": 0, "type": "electric_scooter", "bike_id": "da308421990edd5427993ea1e4d2bbe8", "lat": 38.896201, "lon": -77.044085, "rental_uris": {"android": "https://dc.lft.to/lastmile_qr_scan", "ios": "https://dc.lft.to/lastmile_qr_scan"}, "is_disabled": 0, "fusion_lat": 0.0, "name": "da308421990edd5427993ea1e4d2bbe8", "fusion_lon": 0.0}, {"is_reserved": 0, "type": "electric_scooter", "bike_id": "2fe6daf726f1092199d6d5b5586d3f9c", "lat": 38.906548666666666, "lon": -77.04647116666666, "rental_uris": {"android": "https://dc.lft.to/lastmile_qr_scan", "ios": "https://dc.lft.to/lastmile_qr_scan"}, "is_disabled": 0, "fusion_lat": 0.0, "name": "2fe6daf726f1092199d6d5b5586d3f9c", "fusion_lon": 0.0}, {"is_reserved": 0, "type": "electric_scooter", "bike_id": "eb13071f7b65e7a9fa4d07ba1e3dd52e", "lat": 38.9295005, "lon": -77.00406383333333, "rental_uris": {"android": "https://dc.lft.to/lastmile_qr_scan", "ios": "https://dc.lft.to/lastmile_qr_scan"}, "is_disabled": 0, "fusion_lat": 0.0, "name": "eb13071f7b65e7a9fa4d07ba1e3dd52e", "fusion_lon": 0.0}, {"is_reserved": 0, "type": "electric_scooter", "bike_id": "bdb19ff2fa379266ebc411c9023abfbc", "lat": 38.907493333333335, "lon": -77.00304866666667, "rental_uris": {"android": "https://dc.lft.to/lastmile_qr_scan", "ios": "https://dc.lft.to/lastmile_qr_scan"}, "is_disabled": 0, "fusion_lat": 0.0, "name": "bdb19ff2fa379266ebc411c9023abfbc", "fusion_lon": 0.0}, {"is_reserved": 0, "type": "electric_scooter", "bike_id": "2382823f1f52af91e23b3cc5d665d39e", "lat": 38.918170333333336, "lon": -77.03026016666666, "rental_uris": {"android": "https://dc.lft.to/lastmile_qr_scan", "ios": "https://dc.lft.to/lastmile_qr_scan"}, "is_disabled": 0, "fusion_lat": 0.0, "name": "2382823f1f52af91e23b3cc5d665d39e", "fusion_lon": 0.0}, {"is_reserved": 0, "type": "electric_scooter", "bike_id": "7027149964e4586d5855a89c85d2c1f4", "lat": 38.92553383333333, "lon": -76.9814465, "rental_uris": {"android": "https://dc.lft.to/lastmile_qr_scan", "ios": "https://dc.lft.to/lastmile_qr_scan"}, "is_disabled": 0, "fusion_lat": 0.0, "name": "7027149964e4586d5855a89c85d2c1f4", "fusion_lon": 0.0}, {"is_reserved": 0, "type": "electric_scooter", "bike_id": "c0bdeaa331903a1ca444b98d4e05bc2b", "lat": 38.94321766666667, "lon": -77.06524933333333, "rental_uris": {"android": "https://dc.lft.to/lastmile_qr_scan", "ios": "https://dc.lft.to/lastmile_qr_scan"}, "is_disabled": 0, "fusion_lat": 0.0, "name": "c0bdeaa331903a1ca444b98d4e05bc2b", "fusion_lon": 0.0}, {"is_reserved": 0, "type": "electric_scooter", "bike_id": "467645d48d6fe9741c48de3a5ff73290", "lat": 38.933787833333334, "lon": -77.0203255, "rental_uris": {"android": "https://dc.lft.to/lastmile_qr_scan", "ios": "https://dc.lft.to/lastmile_qr_scan"}, "is_disabled": 0, "fusion_lat": 0.0, "name": "467645d48d6fe9741c48de3a5ff73290", "fusion_lon": 0.0}, {"is_reserved": 0, "type": "electric_scooter", "bike_id": "85bbf8736071bd69fafe8c7737ac4e45", "lat": 38.8728695, "lon": -77.0098635, "rental_uris": {"android": "https://dc.lft.to/lastmile_qr_scan", "ios": "https://dc.lft.to/lastmile_qr_scan"}, "is_disabled": 0, "fusion_lat": 0.0, "name": "85bbf8736071bd69fafe8c7737ac4e45", "fusion_lon": 0.0}, {"is_reserved": 0, "type": "electric_scooter", "bike_id": "dbe144866074c3cb57475f5d40af84cf", "lat": 38.9122345, "lon": -77.01119566666667, "rental_uris": {"android": "https://dc.lft.to/lastmile_qr_scan", "ios": "https://dc.lft.to/lastmile_qr_scan"}, "is_disabled": 0, "fusion_lat": 0.0, "name": "dbe144866074c3cb57475f5d40af84cf", "fusion_lon": 0.0}, {"is_reserved": 0, "type": "electric_scooter", "bike_id": "8fb861fd7493327a3703839f800479b5", "lat": 38.904449166666666, "lon": -77.06267666666666, "rental_uris": {"android": "https://dc.lft.to/lastmile_qr_scan", "ios": "https://dc.lft.to/lastmile_qr_scan"}, "is_disabled": 0, "fusion_lat": 0.0, "name": "8fb861fd7493327a3703839f800479b5", "fusion_lon": 0.0}, {"is_reserved": 0, "type": "electric_scooter", "bike_id": "6ddadedf21d29bda58c46454f1e065c5", "lat": 38.9181725, "lon": -77.0588935, "rental_uris": {"android": "https://dc.lft.to/lastmile_qr_scan", "ios": "https://dc.lft.to/lastmile_qr_scan"}, "is_disabled": 0, "fusion_lat": 0.0, "name": "6ddadedf21d29bda58c46454f1e065c5", "fusion_lon": 0.0}, {"is_reserved": 0, "type": "electric_scooter", "bike_id": "dee98f762c08ea708e410325c7435bd8", "lat": 38.892157, "lon": -77.01704916666667, "rental_uris": {"android": "https://dc.lft.to/lastmile_qr_scan", "ios": "https://dc.lft.to/lastmile_qr_scan"}, "is_disabled": 0, "fusion_lat": 0.0, "name": "dee98f762c08ea708e410325c7435bd8", "fusion_lon": 0.0}, {"is_reserved": 0, "type": "electric_scooter", "bike_id": "a54a08888c775c2803eb4571ed868595", "lat": 38.90281433333333, "lon": -77.02273966666667, "rental_uris": {"android": "https://dc.lft.to/lastmile_qr_scan", "ios": "https://dc.lft.to/lastmile_qr_scan"}, "is_disabled": 0, "fusion_lat": 0.0, "name": "a54a08888c775c2803eb4571ed868595", "fusion_lon": 0.0}, {"is_reserved": 0, "type": "electric_scooter", "bike_id": "6521f34e3ce19e74f30642ebcf5ef28b", "lat": 38.9126485, "lon": -77.03167416666666, "rental_uris": {"android": "https://dc.lft.to/lastmile_qr_scan", "ios": "https://dc.lft.to/lastmile_qr_scan"}, "is_disabled": 0, "fusion_lat": 0.0, "name": "6521f34e3ce19e74f30642ebcf5ef28b", "fusion_lon": 0.0}, {"is_reserved": 0, "type": "electric_scooter", "bike_id": "d60cda195c7d2c16d653bab3be795d85", "lat": 38.892215666666665, "lon": -77.033047, "rental_uris": {"android": "https://dc.lft.to/lastmile_qr_scan", "ios": "https://dc.lft.to/lastmile_qr_scan"}, "is_disabled": 0, "fusion_lat": 0.0, "name": "d60cda195c7d2c16d653bab3be795d85", "fusion_lon": 0.0}, {"is_reserved": 0, "type": "electric_scooter", "bike_id": "97a1ba892f4b7bae6bd8bdf3c6a4e1a6", "lat": 38.92584183333334, "lon": -76.9949485, "rental_uris": {"android": "https://dc.lft.to/lastmile_qr_scan", "ios": "https://dc.lft.to/lastmile_qr_scan"}, "is_disabled": 0, "fusion_lat": 0.0, "name": "97a1ba892f4b7bae6bd8bdf3c6a4e1a6", "fusion_lon": 0.0}, {"is_reserved": 0, "type": "electric_scooter", "bike_id": "a3b348e83dbee3c8e9c34b242fec44da", "lat": 38.88494416666666, "lon": -77.00712266666666, "rental_uris": {"android": "https://dc.lft.to/lastmile_qr_scan", "ios": "https://dc.lft.to/lastmile_qr_scan"}, "is_disabled": 0, "fusion_lat": 0.0, "name": "a3b348e83dbee3c8e9c34b242fec44da", "fusion_lon": 0.0}, {"is_reserved": 0, "type": "electric_scooter", "bike_id": "e2d17e1c2d303c3c6a4d6cb77c3a613d", "lat": 38.924355166666665, "lon": -77.03402633333333, "rental_uris": {"android": "https://dc.lft.to/lastmile_qr_scan", "ios": "https://dc.lft.to/lastmile_qr_scan"}, "is_disabled": 0, "fusion_lat": 0.0, "name": "e2d17e1c2d303c3c6a4d6cb77c3a613d", "fusion_lon": 0.0}, {"is_reserved": 0, "type": "electric_scooter", "bike_id": "989516e44da1494c18027c8bf5e13aed", "lat": 38.9245085, "lon": -77.03402983333334, "rental_uris": {"android": "https://dc.lft.to/lastmile_qr_scan", "ios": "https://dc.lft.to/lastmile_qr_scan"}, "is_disabled": 0, "fusion_lat": 0.0, "name": "989516e44da1494c18027c8bf5e13aed", "fusion_lon": 0.0}, {"is_reserved": 0, "type": "electric_bike", "bike_id": "3c5b8b24ff0be056b925bbabb928f4c5", "lat": 39.038129, "lon": -77.04224, "rental_uris": {"android": "https://dc.lft.to/lastmile_qr_scan", "ios": "https://dc.lft.to/lastmile_qr_scan"}, "is_disabled": 0, "fusion_lat": 0.0, "name": "3c5b8b24ff0be056b925bbabb928f4c5", "fusion_lon": 0.0}, {"is_reserved": 0, "type": "electric_scooter", "bike_id": "4bcae34a9667636f96c2f7ad4cad3498", "lat": 38.89220916666667, "lon": -77.0279655, "rental_uris": {"android": "https://dc.lft.to/lastmile_qr_scan", "ios": "https://dc.lft.to/lastmile_qr_scan"}, "is_disabled": 0, "fusion_lat": 0.0, "name": "4bcae34a9667636f96c2f7ad4cad3498", "fusion_lon": 0.0}, {"is_reserved": 0, "type": "electric_scooter", "bike_id": "cad23f53bed193961f5b45e17579924a", "lat": 38.912557666666665, "lon": -77.028135, "rental_uris": {"android": "https://dc.lft.to/lastmile_qr_scan", "ios": "https://dc.lft.to/lastmile_qr_scan"}, "is_disabled": 0, "fusion_lat": 0.0, "name": "cad23f53bed193961f5b45e17579924a", "fusion_lon": 0.0}, {"is_reserved": 0, "type": "electric_scooter", "bike_id": "6cedd145a5b8e571a8a70efd33d903a3", "lat": 38.90388, "lon": -77.01630066666667, "rental_uris": {"android": "https://dc.lft.to/lastmile_qr_scan", "ios": "https://dc.lft.to/lastmile_qr_scan"}, "is_disabled": 0, "fusion_lat": 0.0, "name": "6cedd145a5b8e571a8a70efd33d903a3", "fusion_lon": 0.0}, {"is_reserved": 0, "type": "electric_scooter", "bike_id": "4b4318e792de943670cdc724af33f4f3", "lat": 38.88611433333333, "lon": -76.99653016666667, "rental_uris": {"android": "https://dc.lft.to/lastmile_qr_scan", "ios": "https://dc.lft.to/lastmile_qr_scan"}, "is_disabled": 0, "fusion_lat": 0.0, "name": "4b4318e792de943670cdc724af33f4f3", "fusion_lon": 0.0}, {"is_reserved": 0, "type": "electric_scooter", "bike_id": "e6a0ddd47b613f3fb5e01cf70f46a1d7", "lat": 38.914963, "lon": -77.01998783333333, "rental_uris": {"android": "https://dc.lft.to/lastmile_qr_scan", "ios": "https://dc.lft.to/lastmile_qr_scan"}, "is_disabled": 0, "fusion_lat": 0.0, "name": "e6a0ddd47b613f3fb5e01cf70f46a1d7", "fusion_lon": 0.0}, {"is_reserved": 0, "type": "electric_bike", "bike_id": "c96f9b2b1ab0a330576e52de8e2061fd", "lat": 38.91706083333333, "lon": -77.05715966666666, "rental_uris": {"android": "https://dc.lft.to/lastmile_qr_scan", "ios": "https://dc.lft.to/lastmile_qr_scan"}, "is_disabled": 0, "fusion_lat": 0.0, "name": "c96f9b2b1ab0a330576e52de8e2061fd", "fusion_lon": 0.0}, {"is_reserved": 0, "type": "electric_scooter", "bike_id": "6fe391002f73b9543dc852697a69fe02", "lat": 38.93356966666666, "lon": -77.05726233333333, "rental_uris": {"android": "https://dc.lft.to/lastmile_qr_scan", "ios": "https://dc.lft.to/lastmile_qr_scan"}, "is_disabled": 0, "fusion_lat": 0.0, "name": "6fe391002f73b9543dc852697a69fe02", "fusion_lon": 0.0}, {"is_reserved": 0, "type": "electric_scooter", "bike_id": "3e929eee8980c9a9598fc8cc33759292", "lat": 38.910997333333334, "lon": -77.02195, "rental_uris": {"android": "https://dc.lft.to/lastmile_qr_scan", "ios": "https://dc.lft.to/lastmile_qr_scan"}, "is_disabled": 0, "fusion_lat": 0.0, "name": "3e929eee8980c9a9598fc8cc33759292", "fusion_lon": 0.0}, {"is_reserved": 0, "type": "electric_scooter", "bike_id": "1d9f78eb9b626577c38610cbca517a76", "lat": 38.911271166666666, "lon": -77.02200666666667, "rental_uris": {"android": "https://dc.lft.to/lastmile_qr_scan", "ios": "https://dc.lft.to/lastmile_qr_scan"}, "is_disabled": 0, "fusion_lat": 0.0, "name": "1d9f78eb9b626577c38610cbca517a76", "fusion_lon": 0.0}, {"is_reserved": 0, "type": "electric_scooter", "bike_id": "177f9dc2b0f71b672239a57b5b2aeb77", "lat": 38.8795925, "lon": -77.0236715, "rental_uris": {"android": "https://dc.lft.to/lastmile_qr_scan", "ios": "https://dc.lft.to/lastmile_qr_scan"}, "is_disabled": 0, "fusion_lat": 0.0, "name": "177f9dc2b0f71b672239a57b5b2aeb77", "fusion_lon": 0.0}, {"is_reserved": 0, "type": "electric_scooter", "bike_id": "865dc6ab3b9e3db0dbb9557c72b6d0b1", "lat": 38.93244633333333, "lon": -77.02940233333334, "rental_uris": {"android": "https://dc.lft.to/lastmile_qr_scan", "ios": "https://dc.lft.to/lastmile_qr_scan"}, "is_disabled": 0, "fusion_lat": 0.0, "name": "865dc6ab3b9e3db0dbb9557c72b6d0b1", "fusion_lon": 0.0}, {"is_reserved": 0, "type": "electric_scooter", "bike_id": "fa8097e88bffacdf9015b7219e230c0a", "lat": 38.92421483333333, "lon": -77.02010733333333, "rental_uris": {"android": "https://dc.lft.to/lastmile_qr_scan", "ios": "https://dc.lft.to/lastmile_qr_scan"}, "is_disabled": 0, "fusion_lat": 0.0, "name": "fa8097e88bffacdf9015b7219e230c0a", "fusion_lon": 0.0}, {"is_reserved": 0, "type": "electric_scooter", "bike_id": "b8ebbb7e321b99a4889a9ef9b604ce51", "lat": 38.93953783333333, "lon": -77.027539, "rental_uris": {"android": "https://dc.lft.to/lastmile_qr_scan", "ios": "https://dc.lft.to/lastmile_qr_scan"}, "is_disabled": 0, "fusion_lat": 0.0, "name": "b8ebbb7e321b99a4889a9ef9b604ce51", "fusion_lon": 0.0}, {"is_reserved": 0, "type": "electric_scooter", "bike_id": "af61f337a3ad9517331fd2c4d28056cc", "lat": 38.90547516666667, "lon": -77.03267383333333, "rental_uris": {"android": "https://dc.lft.to/lastmile_qr_scan", "ios": "https://dc.lft.to/lastmile_qr_scan"}, "is_disabled": 0, "fusion_lat": 0.0, "name": "af61f337a3ad9517331fd2c4d28056cc", "fusion_lon": 0.0}, {"is_reserved": 0, "type": "electric_scooter", "bike_id": "81c61bd4857faf4b23191a4f50f31cf2", "lat": 38.90798616666667, "lon": -77.042288, "rental_uris": {"android": "https://dc.lft.to/lastmile_qr_scan", "ios": "https://dc.lft.to/lastmile_qr_scan"}, "is_disabled": 0, "fusion_lat": 0.0, "name": "81c61bd4857faf4b23191a4f50f31cf2", "fusion_lon": 0.0}, {"is_reserved": 0, "type": "electric_scooter", "bike_id": "cd4c768a38f0b02ae8e0fc7657d4b0df", "lat": 38.91963116666667, "lon": -77.0221935, "rental_uris": {"android": "https://dc.lft.to/lastmile_qr_scan", "ios": "https://dc.lft.to/lastmile_qr_scan"}, "is_disabled": 0, "fusion_lat": 0.0, "name": "cd4c768a38f0b02ae8e0fc7657d4b0df", "fusion_lon": 0.0}, {"is_reserved": 0, "type": "electric_scooter", "bike_id": "0097135c763ce596f9b36d081ead5641", "lat": 38.9056685, "lon": -77.02409983333334, "rental_uris": {"android": "https://dc.lft.to/lastmile_qr_scan", "ios": "https://dc.lft.to/lastmile_qr_scan"}, "is_disabled": 0, "fusion_lat": 0.0, "name": "0097135c763ce596f9b36d081ead5641", "fusion_lon": 0.0}, {"is_reserved": 0, "type": "electric_scooter", "bike_id": "8c301fc636722e8323d6109fac9c1f0d", "lat": 38.927519, "lon": -77.0210585, "rental_uris": {"android": "https://dc.lft.to/lastmile_qr_scan", "ios": "https://dc.lft.to/lastmile_qr_scan"}, "is_disabled": 0, "fusion_lat": 0.0, "name": "8c301fc636722e8323d6109fac9c1f0d", "fusion_lon": 0.0}, {"is_reserved": 0, "type": "electric_scooter", "bike_id": "45c03a27918d506d153ffe2ab6d33407", "lat": 38.892515, "lon": -77.03956616666666, "rental_uris": {"android": "https://dc.lft.to/lastmile_qr_scan", "ios": "https://dc.lft.to/lastmile_qr_scan"}, "is_disabled": 0, "fusion_lat": 0.0, "name": "45c03a27918d506d153ffe2ab6d33407", "fusion_lon": 0.0}, {"is_reserved": 0, "type": "electric_scooter", "bike_id": "8f54fb1653b3c28faf72b33f71d56cb6", "lat": 38.897400833333336, "lon": -77.02198233333333, "rental_uris": {"android": "https://dc.lft.to/lastmile_qr_scan", "ios": "https://dc.lft.to/lastmile_qr_scan"}, "is_disabled": 0, "fusion_lat": 0.0, "name": "8f54fb1653b3c28faf72b33f71d56cb6", "fusion_lon": 0.0}, {"is_reserved": 0, "type": "electric_scooter", "bike_id": "fb012d510dc2d7dd75217e153f163610", "lat": 38.883745833333336, "lon": -76.99517466666667, "rental_uris": {"android": "https://dc.lft.to/lastmile_qr_scan", "ios": "https://dc.lft.to/lastmile_qr_scan"}, "is_disabled": 0, "fusion_lat": 0.0, "name": "fb012d510dc2d7dd75217e153f163610", "fusion_lon": 0.0}, {"is_reserved": 0, "type": "electric_scooter", "bike_id": "d1334ca0920c804443fdae1a5703158f", "lat": 38.93469916666667, "lon": -77.04157533333333, "rental_uris": {"android": "https://dc.lft.to/lastmile_qr_scan", "ios": "https://dc.lft.to/lastmile_qr_scan"}, "is_disabled": 0, "fusion_lat": 0.0, "name": "d1334ca0920c804443fdae1a5703158f", "fusion_lon": 0.0}, {"is_reserved": 0, "type": "electric_scooter", "bike_id": "9c2f61b4c8c29b469285457a5adeea1c", "lat": 38.95823583333333, "lon": -77.07641716666667, "rental_uris": {"android": "https://dc.lft.to/lastmile_qr_scan", "ios": "https://dc.lft.to/lastmile_qr_scan"}, "is_disabled": 0, "fusion_lat": 0.0, "name": "9c2f61b4c8c29b469285457a5adeea1c", "fusion_lon": 0.0}, {"is_reserved": 0, "type": "electric_bike", "bike_id": "63a8d4dfab3e9d5e5a1954e59b91ad5e", "lat": 38.989156, "lon": -77.02537783333334, "rental_uris": {"android": "https://dc.lft.to/lastmile_qr_scan", "ios": "https://dc.lft.to/lastmile_qr_scan"}, "is_disabled": 0, "fusion_lat": 0.0, "name": "63a8d4dfab3e9d5e5a1954e59b91ad5e", "fusion_lon": 0.0}, {"is_reserved": 0, "type": "electric_scooter", "bike_id": "a7012730d5d518c6b84fa270452d3a07", "lat": 38.892263666666665, "lon": -77.03340216666666, "rental_uris": {"android": "https://dc.lft.to/lastmile_qr_scan", "ios": "https://dc.lft.to/lastmile_qr_scan"}, "is_disabled": 0, "fusion_lat": 0.0, "name": "a7012730d5d518c6b84fa270452d3a07", "fusion_lon": 0.0}, {"is_reserved": 0, "type": "electric_scooter", "bike_id": "985adac6964a6abe04d0b7891957d5d2", "lat": 38.914054666666665, "lon": -77.04678016666666, "rental_uris": {"android": "https://dc.lft.to/lastmile_qr_scan", "ios": "https://dc.lft.to/lastmile_qr_scan"}, "is_disabled": 0, "fusion_lat": 0.0, "name": "985adac6964a6abe04d0b7891957d5d2", "fusion_lon": 0.0}, {"is_reserved": 0, "type": "electric_bike", "bike_id": "1fbaa40946ca46e093a3b22a9cf17c10", "lat": 38.898485666666666, "lon": -77.118578, "rental_uris": {"android": "https://dc.lft.to/lastmile_qr_scan", "ios": "https://dc.lft.to/lastmile_qr_scan"}, "is_disabled": 0, "fusion_lat": 0.0, "name": "1fbaa40946ca46e093a3b22a9cf17c10", "fusion_lon": 0.0}, {"is_reserved": 0, "type": "electric_scooter", "bike_id": "0c25e9d9492519cc608fcea4a06881f5", "lat": 38.92901666666667, "lon": -77.03748216666666, "rental_uris": {"android": "https://dc.lft.to/lastmile_qr_scan", "ios": "https://dc.lft.to/lastmile_qr_scan"}, "is_disabled": 0, "fusion_lat": 0.0, "name": "0c25e9d9492519cc608fcea4a06881f5", "fusion_lon": 0.0}, {"is_reserved": 0, "type": "electric_scooter", "bike_id": "a2916f084a0fe4de60a2120689bfcff4", "lat": 38.91530383333333, "lon": -77.01999216666667, "rental_uris": {"android": "https://dc.lft.to/lastmile_qr_scan", "ios": "https://dc.lft.to/lastmile_qr_scan"}, "is_disabled": 0, "fusion_lat": 0.0, "name": "a2916f084a0fe4de60a2120689bfcff4", "fusion_lon": 0.0}, {"is_reserved": 0, "type": "electric_scooter", "bike_id": "2f1199e6b721e5542d2edf989a35d426", "lat": 38.91802916666666, "lon": -77.0343615, "rental_uris": {"android": "https://dc.lft.to/lastmile_qr_scan", "ios": "https://dc.lft.to/lastmile_qr_scan"}, "is_disabled": 0, "fusion_lat": 0.0, "name": "2f1199e6b721e5542d2edf989a35d426", "fusion_lon": 0.0}, {"is_reserved": 0, "type": "electric_scooter", "bike_id": "ce90ad480795f8ce1768bb846645a9ce", "lat": 38.9007415, "lon": -77.048787, "rental_uris": {"android": "https://dc.lft.to/lastmile_qr_scan", "ios": "https://dc.lft.to/lastmile_qr_scan"}, "is_disabled": 0, "fusion_lat": 0.0, "name": "ce90ad480795f8ce1768bb846645a9ce", "fusion_lon": 0.0}, {"is_reserved": 0, "type": "electric_scooter", "bike_id": "3e1d5be0404b2abe501b0cd5fa40ded3", "lat": 38.926127666666666, "lon": -77.0215905, "rental_uris": {"android": "https://dc.lft.to/lastmile_qr_scan", "ios": "https://dc.lft.to/lastmile_qr_scan"}, "is_disabled": 0, "fusion_lat": 0.0, "name": "3e1d5be0404b2abe501b0cd5fa40ded3", "fusion_lon": 0.0}, {"is_reserved": 0, "type": "electric_bike", "bike_id": "b085f6440866a79d618eaeb78c77abb3", "lat": 38.941539, "lon": -77.001932, "rental_uris": {"android": "https://dc.lft.to/lastmile_qr_scan", "ios": "https://dc.lft.to/lastmile_qr_scan"}, "is_disabled": 0, "fusion_lat": 0.0, "name": "b085f6440866a79d618eaeb78c77abb3", "fusion_lon": 0.0}, {"is_reserved": 0, "type": "electric_bike", "bike_id": "d62a04349bf364c23acff143da1ec8a9", "lat": 38.84531583333333, "lon": -77.0764655, "rental_uris": {"android": "https://dc.lft.to/lastmile_qr_scan", "ios": "https://dc.lft.to/lastmile_qr_scan"}, "is_disabled": 0, "fusion_lat": 0.0, "name": "d62a04349bf364c23acff143da1ec8a9", "fusion_lon": 0.0}, {"is_reserved": 0, "type": "electric_scooter", "bike_id": "eeaa8c9f2fdf38750bd1cce8812dca90", "lat": 38.912607333333334, "lon": -77.00155733333334, "rental_uris": {"android": "https://dc.lft.to/lastmile_qr_scan", "ios": "https://dc.lft.to/lastmile_qr_scan"}, "is_disabled": 0, "fusion_lat": 0.0, "name": "eeaa8c9f2fdf38750bd1cce8812dca90", "fusion_lon": 0.0}, {"is_reserved": 0, "type": "electric_scooter", "bike_id": "7e10d09f2c844bc29f4b5c41b55918fc", "lat": 38.9269365, "lon": -77.02579083333333, "rental_uris": {"android": "https://dc.lft.to/lastmile_qr_scan", "ios": "https://dc.lft.to/lastmile_qr_scan"}, "is_disabled": 0, "fusion_lat": 0.0, "name": "7e10d09f2c844bc29f4b5c41b55918fc", "fusion_lon": 0.0}, {"is_reserved": 0, "type": "electric_scooter", "bike_id": "a87ee0fa96aa0183f67a12cee5eb298c", "lat": 38.925993166666665, "lon": -77.02489383333334, "rental_uris": {"android": "https://dc.lft.to/lastmile_qr_scan", "ios": "https://dc.lft.to/lastmile_qr_scan"}, "is_disabled": 0, "fusion_lat": 0.0, "name": "a87ee0fa96aa0183f67a12cee5eb298c", "fusion_lon": 0.0}, {"is_reserved": 0, "type": "electric_bike", "bike_id": "e1cd663fbe77eb84a79caae0ec97716b", "lat": 38.88247616666666, "lon": -76.9625825, "rental_uris": {"android": "https://dc.lft.to/lastmile_qr_scan", "ios": "https://dc.lft.to/lastmile_qr_scan"}, "is_disabled": 0, "fusion_lat": 0.0, "name": "e1cd663fbe77eb84a79caae0ec97716b", "fusion_lon": 0.0}, {"is_reserved": 0, "type": "electric_scooter", "bike_id": "740f830b748ce00f49fb032579dff8ff", "lat": 38.8968125, "lon": -77.050454, "rental_uris": {"android": "https://dc.lft.to/lastmile_qr_scan", "ios": "https://dc.lft.to/lastmile_qr_scan"}, "is_disabled": 0, "fusion_lat": 0.0, "name": "740f830b748ce00f49fb032579dff8ff", "fusion_lon": 0.0}, {"is_reserved": 0, "type": "electric_scooter", "bike_id": "e335d3c09755ef8d477ee41168f61196", "lat": 38.897056666666664, "lon": -77.004897, "rental_uris": {"android": "https://dc.lft.to/lastmile_qr_scan", "ios": "https://dc.lft.to/lastmile_qr_scan"}, "is_disabled": 0, "fusion_lat": 0.0, "name": "e335d3c09755ef8d477ee41168f61196", "fusion_lon": 0.0}, {"is_reserved": 0, "type": "electric_scooter", "bike_id": "c41bfd784725622274628ef61009d752", "lat": 38.91768783333333, "lon": -77.04058883333333, "rental_uris": {"android": "https://dc.lft.to/lastmile_qr_scan", "ios": "https://dc.lft.to/lastmile_qr_scan"}, "is_disabled": 0, "fusion_lat": 0.0, "name": "c41bfd784725622274628ef61009d752", "fusion_lon": 0.0}, {"is_reserved": 0, "type": "electric_bike", "bike_id": "96c28e51139dd222125751b0ecabb0ce", "lat": 38.8024895, "lon": -77.11438216666667, "rental_uris": {"android": "https://dc.lft.to/lastmile_qr_scan", "ios": "https://dc.lft.to/lastmile_qr_scan"}, "is_disabled": 0, "fusion_lat": 0.0, "name": "96c28e51139dd222125751b0ecabb0ce", "fusion_lon": 0.0}, {"is_reserved": 0, "type": "electric_scooter", "bike_id": "2994fe2468246923ae1e0b629b290962", "lat": 38.928632666666665, "lon": -77.02302983333334, "rental_uris": {"android": "https://dc.lft.to/lastmile_qr_scan", "ios": "https://dc.lft.to/lastmile_qr_scan"}, "is_disabled": 0, "fusion_lat": 0.0, "name": "2994fe2468246923ae1e0b629b290962", "fusion_lon": 0.0}, {"is_reserved": 0, "type": "electric_scooter", "bike_id": "f7c3e867c862919436c206c408024673", "lat": 38.865293666666666, "lon": -76.96903833333333, "rental_uris": {"android": "https://dc.lft.to/lastmile_qr_scan", "ios": "https://dc.lft.to/lastmile_qr_scan"}, "is_disabled": 0, "fusion_lat": 0.0, "name": "f7c3e867c862919436c206c408024673", "fusion_lon": 0.0}, {"is_reserved": 0, "type": "electric_scooter", "bike_id": "fd414ba1445911583d4300592eeb5e0e", "lat": 38.904961, "lon": -77.04861916666667, "rental_uris": {"android": "https://dc.lft.to/lastmile_qr_scan", "ios": "https://dc.lft.to/lastmile_qr_scan"}, "is_disabled": 0, "fusion_lat": 0.0, "name": "fd414ba1445911583d4300592eeb5e0e", "fusion_lon": 0.0}, {"is_reserved": 0, "type": "electric_scooter", "bike_id": "c33009af88546fad53346806892bbdb9", "lat": 38.90125583333333, "lon": -77.0336685, "rental_uris": {"android": "https://dc.lft.to/lastmile_qr_scan", "ios": "https://dc.lft.to/lastmile_qr_scan"}, "is_disabled": 0, "fusion_lat": 0.0, "name": "c33009af88546fad53346806892bbdb9", "fusion_lon": 0.0}, {"is_reserved": 0, "type": "electric_scooter", "bike_id": "9ff1bf9096798a9be6b5d0843ac2a996", "lat": 38.9155585, "lon": -77.0311665, "rental_uris": {"android": "https://dc.lft.to/lastmile_qr_scan", "ios": "https://dc.lft.to/lastmile_qr_scan"}, "is_disabled": 0, "fusion_lat": 0.0, "name": "9ff1bf9096798a9be6b5d0843ac2a996", "fusion_lon": 0.0}, {"is_reserved": 0, "type": "electric_scooter", "bike_id": "18eacb081a8656ab3e558db8d3d6c308", "lat": 38.896162333333336, "lon": -77.0441375, "rental_uris": {"android": "https://dc.lft.to/lastmile_qr_scan", "ios": "https://dc.lft.to/lastmile_qr_scan"}, "is_disabled": 0, "fusion_lat": 0.0, "name": "18eacb081a8656ab3e558db8d3d6c308", "fusion_lon": 0.0}, {"is_reserved": 0, "type": "electric_scooter", "bike_id": "85546cb2c8f17028ecc4abfc7e02e341", "lat": 38.91868766666666, "lon": -77.03654316666666, "rental_uris": {"android": "https://dc.lft.to/lastmile_qr_scan", "ios": "https://dc.lft.to/lastmile_qr_scan"}, "is_disabled": 0, "fusion_lat": 0.0, "name": "85546cb2c8f17028ecc4abfc7e02e341", "fusion_lon": 0.0}, {"is_reserved": 0, "type": "electric_scooter", "bike_id": "bad0013cb8acd0b14149122a79399463", "lat": 38.894262, "lon": -77.05594166666667, "rental_uris": {"android": "https://dc.lft.to/lastmile_qr_scan", "ios": "https://dc.lft.to/lastmile_qr_scan"}, "is_disabled": 0, "fusion_lat": 0.0, "name": "bad0013cb8acd0b14149122a79399463", "fusion_lon": 0.0}, {"is_reserved": 0, "type": "electric_scooter", "bike_id": "97c7d9f29ca216fa111f818aab71a503", "lat": 38.9237335, "lon": -77.01914916666666, "rental_uris": {"android": "https://dc.lft.to/lastmile_qr_scan", "ios": "https://dc.lft.to/lastmile_qr_scan"}, "is_disabled": 0, "fusion_lat": 0.0, "name": "97c7d9f29ca216fa111f818aab71a503", "fusion_lon": 0.0}, {"is_reserved": 0, "type": "electric_scooter", "bike_id": "d956b66e785e1d47d17d11ab7e0607cb", "lat": 38.922248333333336, "lon": -77.0424075, "rental_uris": {"android": "https://dc.lft.to/lastmile_qr_scan", "ios": "https://dc.lft.to/lastmile_qr_scan"}, "is_disabled": 0, "fusion_lat": 0.0, "name": "d956b66e785e1d47d17d11ab7e0607cb", "fusion_lon": 0.0}, {"is_reserved": 0, "type": "electric_scooter", "bike_id": "8657635ac512504b904725be3448deb9", "lat": 38.927686666666666, "lon": -77.02790916666666, "rental_uris": {"android": "https://dc.lft.to/lastmile_qr_scan", "ios": "https://dc.lft.to/lastmile_qr_scan"}, "is_disabled": 0, "fusion_lat": 0.0, "name": "8657635ac512504b904725be3448deb9", "fusion_lon": 0.0}, {"is_reserved": 0, "type": "electric_scooter", "bike_id": "bb32b3feec8ecdddefa15bb3422e6a18", "lat": 38.925075, "lon": -77.03879333333333, "rental_uris": {"android": "https://dc.lft.to/lastmile_qr_scan", "ios": "https://dc.lft.to/lastmile_qr_scan"}, "is_disabled": 0, "fusion_lat": 0.0, "name": "bb32b3feec8ecdddefa15bb3422e6a18", "fusion_lon": 0.0}, {"is_reserved": 0, "type": "electric_scooter", "bike_id": "86fe14493c4adc587527bb6e8082df5d", "lat": 38.94692333333333, "lon": -77.02243383333334, "rental_uris": {"android": "https://dc.lft.to/lastmile_qr_scan", "ios": "https://dc.lft.to/lastmile_qr_scan"}, "is_disabled": 0, "fusion_lat": 0.0, "name": "86fe14493c4adc587527bb6e8082df5d", "fusion_lon": 0.0}, {"is_reserved": 0, "type": "electric_scooter", "bike_id": "f247c8a2bc866080f7eb4a7f76f9784b", "lat": 38.9157035, "lon": -77.029723, "rental_uris": {"android": "https://dc.lft.to/lastmile_qr_scan", "ios": "https://dc.lft.to/lastmile_qr_scan"}, "is_disabled": 0, "fusion_lat": 0.0, "name": "f247c8a2bc866080f7eb4a7f76f9784b", "fusion_lon": 0.0}, {"is_reserved": 0, "type": "electric_scooter", "bike_id": "7a33056bb433e178702d6e4d8c8c85e0", "lat": 38.91268266666667, "lon": -77.0124635, "rental_uris": {"android": "https://dc.lft.to/lastmile_qr_scan", "ios": "https://dc.lft.to/lastmile_qr_scan"}, "is_disabled": 0, "fusion_lat": 0.0, "name": "7a33056bb433e178702d6e4d8c8c85e0", "fusion_lon": 0.0}, {"is_reserved": 0, "type": "electric_scooter", "bike_id": "883ab769d54ab6f60d61ae87c24c31a9", "lat": 38.892240666666666, "lon": -77.02417416666667, "rental_uris": {"android": "https://dc.lft.to/lastmile_qr_scan", "ios": "https://dc.lft.to/lastmile_qr_scan"}, "is_disabled": 0, "fusion_lat": 0.0, "name": "883ab769d54ab6f60d61ae87c24c31a9", "fusion_lon": 0.0}, {"is_reserved": 0, "type": "electric_scooter", "bike_id": "170f1b71808d0d16a9b6ea14ad039ee3", "lat": 38.922335333333336, "lon": -77.03346583333334, "rental_uris": {"android": "https://dc.lft.to/lastmile_qr_scan", "ios": "https://dc.lft.to/lastmile_qr_scan"}, "is_disabled": 0, "fusion_lat": 0.0, "name": "170f1b71808d0d16a9b6ea14ad039ee3", "fusion_lon": 0.0}, {"is_reserved": 0, "type": "electric_scooter", "bike_id": "3c68971440063ab0c36c30be13b6d2a7", "lat": 38.941821, "lon": -77.02490516666667, "rental_uris": {"android": "https://dc.lft.to/lastmile_qr_scan", "ios": "https://dc.lft.to/lastmile_qr_scan"}, "is_disabled": 0, "fusion_lat": 0.0, "name": "3c68971440063ab0c36c30be13b6d2a7", "fusion_lon": 0.0}, {"is_reserved": 0, "type": "electric_bike", "bike_id": "ae3d0d2fc9f899362277eb59ea8128e4", "lat": 38.831374833333335, "lon": -77.11341316666666, "rental_uris": {"android": "https://dc.lft.to/lastmile_qr_scan", "ios": "https://dc.lft.to/lastmile_qr_scan"}, "is_disabled": 0, "fusion_lat": 0.0, "name": "ae3d0d2fc9f899362277eb59ea8128e4", "fusion_lon": 0.0}, {"is_reserved": 0, "type": "electric_scooter", "bike_id": "d438956f18ee94892a34896b66481051", "lat": 38.905217666666665, "lon": -77.0653005, "rental_uris": {"android": "https://dc.lft.to/lastmile_qr_scan", "ios": "https://dc.lft.to/lastmile_qr_scan"}, "is_disabled": 0, "fusion_lat": 0.0, "name": "d438956f18ee94892a34896b66481051", "fusion_lon": 0.0}, {"is_reserved": 0, "type": "electric_scooter", "bike_id": "10a61cfcb36cbf7371d12b73afcbc64c", "lat": 38.901036, "lon": -77.03823433333334, "rental_uris": {"android": "https://dc.lft.to/lastmile_qr_scan", "ios": "https://dc.lft.to/lastmile_qr_scan"}, "is_disabled": 0, "fusion_lat": 0.0, "name": "10a61cfcb36cbf7371d12b73afcbc64c", "fusion_lon": 0.0}, {"is_reserved": 0, "type": "electric_scooter", "bike_id": "6a0725f5e45365ddd606b6fae2b30c78", "lat": 38.885102833333335, "lon": -77.01116716666667, "rental_uris": {"android": "https://dc.lft.to/lastmile_qr_scan", "ios": "https://dc.lft.to/lastmile_qr_scan"}, "is_disabled": 0, "fusion_lat": 0.0, "name": "6a0725f5e45365ddd606b6fae2b30c78", "fusion_lon": 0.0}, {"is_reserved": 0, "type": "electric_scooter", "bike_id": "4a9d3556795a9226e623f533ded48ff4", "lat": 38.88632, "lon": -77.01286316666666, "rental_uris": {"android": "https://dc.lft.to/lastmile_qr_scan", "ios": "https://dc.lft.to/lastmile_qr_scan"}, "is_disabled": 0, "fusion_lat": 0.0, "name": "4a9d3556795a9226e623f533ded48ff4", "fusion_lon": 0.0}, {"is_reserved": 0, "type": "electric_scooter", "bike_id": "21fd6f430b23b6cb4095773cdba74d9f", "lat": 38.88489916666666, "lon": -77.02088883333333, "rental_uris": {"android": "https://dc.lft.to/lastmile_qr_scan", "ios": "https://dc.lft.to/lastmile_qr_scan"}, "is_disabled": 0, "fusion_lat": 0.0, "name": "21fd6f430b23b6cb4095773cdba74d9f", "fusion_lon": 0.0}, {"is_reserved": 0, "type": "electric_scooter", "bike_id": "10105c652b339b912b1b2fc24af90883", "lat": 38.9016235, "lon": -77.04167266666667, "rental_uris": {"android": "https://dc.lft.to/lastmile_qr_scan", "ios": "https://dc.lft.to/lastmile_qr_scan"}, "is_disabled": 0, "fusion_lat": 0.0, "name": "10105c652b339b912b1b2fc24af90883", "fusion_lon": 0.0}, {"is_reserved": 0, "type": "electric_scooter", "bike_id": "ac2d0757c9198e3bb6f4ed0742d7a531", "lat": 38.898398666666665, "lon": -77.03241116666666, "rental_uris": {"android": "https://dc.lft.to/lastmile_qr_scan", "ios": "https://dc.lft.to/lastmile_qr_scan"}, "is_disabled": 0, "fusion_lat": 0.0, "name": "ac2d0757c9198e3bb6f4ed0742d7a531", "fusion_lon": 0.0}, {"is_reserved": 0, "type": "electric_scooter", "bike_id": "2b89ae33071775404f99f1757af6dd9f", "lat": 38.92417016666667, "lon": -77.0194375, "rental_uris": {"android": "https://dc.lft.to/lastmile_qr_scan", "ios": "https://dc.lft.to/lastmile_qr_scan"}, "is_disabled": 0, "fusion_lat": 0.0, "name": "2b89ae33071775404f99f1757af6dd9f", "fusion_lon": 0.0},