{"data": {"bikes": [{"lon": -76.9760405, "bike_id": "aa3c141752606ed36453e911730936f2", "lat": 38.8975245, "fusion_lon": 0.0, "fusion_lat": 0.0, "type": "electric_scooter", "name": "aa3c141752606ed36453e911730936f2", "is_disabled": 0, "rental_uris": {"ios": "https://dc.lft.to/lastmile_qr_scan", "android": "https://dc.lft.to/lastmile_qr_scan"}, "is_reserved": 0}, {"lon": -77.029622, "bike_id": "88907d0282e18ad569adbb4dd4b785ba", "lat": 38.92288633333333, "fusion_lon": 0.0, "fusion_lat": 0.0, "type": "electric_scooter", "name": "88907d0282e18ad569adbb4dd4b785ba", "is_disabled": 0, "rental_uris": {"ios": "https://dc.lft.to/lastmile_qr_scan", "android": "https://dc.lft.to/lastmile_qr_scan"}, "is_reserved": 0}, {"lon": -76.97890233333334, "bike_id": "8ad3e7a497ef66b2b4ecdc73e6533caf", "lat": 38.885369833333336, "fusion_lon": 0.0, "fusion_lat": 0.0, "type": "electric_scooter", "name": "8ad3e7a497ef66b2b4ecdc73e6533caf", "is_disabled": 0, "rental_uris": {"ios": "https://dc.lft.to/lastmile_qr_scan", "android": "https://dc.lft.to/lastmile_qr_scan"}, "is_reserved": 0}, {"lon": -76.98336016666667, "bike_id": "0d94125f5229e02fa02fabf13bac3999", "lat": 38.895476, "fusion_lon": 0.0, "fusion_lat": 0.0, "type": "electric_scooter", "name": "0d94125f5229e02fa02fabf13bac3999", "is_disabled": 0, "rental_uris": {"ios": "https://dc.lft.to/lastmile_qr_scan", "android": "https://dc.lft.to/lastmile_qr_scan"}, "is_reserved": 0}, {"lon": -77.0325005, "bike_id": "c09a6e4ee4f2443f5205277544ab83f2", "lat": 38.92769766666667, "fusion_lon": 0.0, "fusion_lat": 0.0, "type": "electric_scooter", "name": "c09a6e4ee4f2443f5205277544ab83f2", "is_disabled": 0, "rental_uris": {"ios": "https://dc.lft.to/lastmile_qr_scan", "android": "https://dc.lft.to/lastmile_qr_scan"}, "is_reserved": 0}, {"lon": -77.03161216666666, "bike_id": "038a7cb738c1c2f345fc42cb506375a7", "lat": 38.8921915, "fusion_lon": 0.0, "fusion_lat": 0.0, "type": "electric_scooter", "name": "038a7cb738c1c2f345fc42cb506375a7", "is_disabled": 0, "rental_uris": {"ios": "https://dc.lft.to/lastmile_qr_scan", "android": "https://dc.lft.to/lastmile_qr_scan"}, "is_reserved": 0}, {"lon": -77.02693583333334, "bike_id": "7b9a6e8b9c07ea70115f3bf8dfbc9d98", "lat": 38.902356, "fusion_lon": 0.0, "fusion_lat": 0.0, "type": "electric_scooter", "name": "7b9a6e8b9c07ea70115f3bf8dfbc9d98", "is_disabled": 0, "rental_uris": {"ios": "https://dc.lft.to/lastmile_qr_scan", "android": "https://dc.lft.to/lastmile_qr_scan"}, "is_reserved": 0}, {"lon": -76.99505966666666, "bike_id": "47a4ec9961b0f6165edf53e2fa0800a5", "lat": 38.897641166666666, "fusion_lon": 0.0, "fusion_lat": 0.0, "type": "electric_scooter", "name": "47a4ec9961b0f6165edf53e2fa0800a5", "is_disabled": 0, "rental_uris": {"ios": "https://dc.lft.to/lastmile_qr_scan", "android": "https://dc.lft.to/lastmile_qr_scan"}, "is_reserved": 0}, {"lon": -77.0175775, "bike_id": "afa41daccf1eaee52544289a50ae6813", "lat": 38.88193233333333, "fusion_lon": 0.0, "fusion_lat": 0.0, "type": "electric_scooter", "name": "afa41daccf1eaee52544289a50ae6813", "is_disabled": 0, "rental_uris": {"ios": "https://dc.lft.to/lastmile_qr_scan", "android": "https://dc.lft.to/lastmile_qr_scan"}, "is_reserved": 0}, {"lon": -76.99704466666667, "bike_id": "910b7221af9d06b02ecca581e185b6f8", "lat": 38.844297, "fusion_lon": 0.0, "fusion_lat": 0.0, "type": "electric_scooter", "name": "910b7221af9d06b02ecca581e185b6f8", "is_disabled": 0, "rental_uris": {"ios": "https://dc.lft.to/lastmile_qr_scan", "android": "https://dc.lft.to/lastmile_qr_scan"}, "is_reserved": 0}, {"lon": -77.00537466666667, "bike_id": "9d8be4136ba2bfafabfbe11ac320695a", "lat": 38.87544, "fusion_lon": 0.0, "fusion_lat": 0.0, "type": "electric_scooter", "name": "9d8be4136ba2bfafabfbe11ac320695a", "is_disabled": 0, "rental_uris": {"ios": "https://dc.lft.to/lastmile_qr_scan", "android": "https://dc.lft.to/lastmile_qr_scan"}, "is_reserved": 0}, {"lon": -77.01126766666667, "bike_id": "8a37f3e00de714143c1ec77b6e38ebe4", "lat": 38.895804, "fusion_lon": 0.0, "fusion_lat": 0.0, "type": "electric_scooter", "name": "8a37f3e00de714143c1ec77b6e38ebe4", "is_disabled": 0, "rental_uris": {"ios": "https://dc.lft.to/lastmile_qr_scan", "android": "https://dc.lft.to/lastmile_qr_scan"}, "is_reserved": 0}, {"lon": -77.1179875, "bike_id": "b0904f9879623dcf8cc973dd5557106a", "lat": 38.8737455, "fusion_lon": 0.0, "fusion_lat": 0.0, "type": "electric_bike", "name": "b0904f9879623dcf8cc973dd5557106a", "is_disabled": 0, "rental_uris": {"ios": "https://dc.lft.to/lastmile_qr_scan", "android": "https://dc.lft.to/lastmile_qr_scan"}, "is_reserved": 0}, {"lon": -77.02510016666666, "bike_id": "75ff52f6dc035d0d1dd6622f02ee3a58", "lat": 38.941994333333334, "fusion_lon": 0.0, "fusion_lat": 0.0, "type": "electric_scooter", "name": "75ff52f6dc035d0d1dd6622f02ee3a58", "is_disabled": 0, "rental_uris": {"ios": "https://dc.lft.to/lastmile_qr_scan", "android": "https://dc.lft.to/lastmile_qr_scan"}, "is_reserved": 0}, {"lon": -77.006421, "bike_id": "95ac9662ceb44131dac8476cff689914", "lat": 38.880703833333335, "fusion_lon": 0.0, "fusion_lat": 0.0, "type": "electric_scooter", "name": "95ac9662ceb44131dac8476cff689914", "is_disabled": 0, "rental_uris": {"ios": "https://dc.lft.to/lastmile_qr_scan", "android": "https://dc.lft.to/lastmile_qr_scan"}, "is_reserved": 0}, {"lon": -77.01591833333333, "bike_id": "e742f137c7460ea9c1c4ab8bf96f2f5c", "lat": 38.8721385, "fusion_lon": 0.0, "fusion_lat": 0.0, "type": "electric_scooter", "name": "e742f137c7460ea9c1c4ab8bf96f2f5c", "is_disabled": 0, "rental_uris": {"ios": "https://dc.lft.to/lastmile_qr_scan", "android": "https://dc.lft.to/lastmile_qr_scan"}, "is_reserved": 0}, {"lon": -77.02776866666666, "bike_id": "b0d7b0c0b82ef424c7db290077a9d408", "lat": 38.9621825, "fusion_lon": 0.0, "fusion_lat": 0.0, "type": "electric_scooter", "name": "b0d7b0c0b82ef424c7db290077a9d408", "is_disabled": 0, "rental_uris": {"ios": "https://dc.lft.to/lastmile_qr_scan", "android": "https://dc.lft.to/lastmile_qr_scan"}, "is_reserved": 0}, {"lon": -77.04337483333333, "bike_id": "100f011b433a29b3c85265d39544b1e1", "lat": 38.907999833333335, "fusion_lon": 0.0, "fusion_lat": 0.0, "type": "electric_scooter", "name": "100f011b433a29b3c85265d39544b1e1", "is_disabled": 0, "rental_uris": {"ios": "https://dc.lft.to/lastmile_qr_scan", "android": "https://dc.lft.to/lastmile_qr_scan"}, "is_reserved": 0}, {"lon": -77.0334015, "bike_id": "7a68ac27208846818c7da374f733f2a2", "lat": 38.8983845, "fusion_lon": 0.0, "fusion_lat": 0.0, "type": "electric_scooter", "name": "7a68ac27208846818c7da374f733f2a2", "is_disabled": 0, "rental_uris": {"ios": "https://dc.lft.to/lastmile_qr_scan", "android": "https://dc.lft.to/lastmile_qr_scan"}, "is_reserved": 0}, {"lon": -77.05110433333333, "bike_id": "21a2201cd133dcec9b306e07e344c940", "lat": 38.92306983333334, "fusion_lon": 0.0, "fusion_lat": 0.0, "type": "electric_scooter", "name": "21a2201cd133dcec9b306e07e344c940", "is_disabled": 0, "rental_uris": {"ios": "https://dc.lft.to/lastmile_qr_scan", "android": "https://dc.lft.to/lastmile_qr_scan"}, "is_reserved": 0}, {"lon": -77.03837883333334, "bike_id": "74de0662b7085c3fbcd84f96f7a4d1ab", "lat": 38.91010516666667, "fusion_lon": 0.0, "fusion_lat": 0.0, "type": "electric_scooter", "name": "74de0662b7085c3fbcd84f96f7a4d1ab", "is_disabled": 0, "rental_uris": {"ios": "https://dc.lft.to/lastmile_qr_scan", "android": "https://dc.lft.to/lastmile_qr_scan"}, "is_reserved": 0}, {"lon": -77.05471483333334, "bike_id": "8aac35dd29ca783054a5dd0358dbd75f", "lat": 38.89786133333333, "fusion_lon": 0.0, "fusion_lat": 0.0, "type": "electric_scooter", "name": "8aac35dd29ca783054a5dd0358dbd75f", "is_disabled": 0, "rental_uris": {"ios": "https://dc.lft.to/lastmile_qr_scan", "android": "https://dc.lft.to/lastmile_qr_scan"}, "is_reserved": 0}, {"lon": -77.0261935, "bike_id": "9aa8b620edaeb88a335a2a74de105a87", "lat": 38.92994783333333, "fusion_lon": 0.0, "fusion_lat": 0.0, "type": "electric_scooter", "name": "9aa8b620edaeb88a335a2a74de105a87", "is_disabled": 0, "rental_uris": {"ios": "https://dc.lft.to/lastmile_qr_scan", "android": "https://dc.lft.to/lastmile_qr_scan"}, "is_reserved": 0}, {"lon": -76.99373666666666, "bike_id": "63a5c7fa2553d12fb1d4213851164ed3", "lat": 38.971818666666664, "fusion_lon": 0.0, "fusion_lat": 0.0, "type": "electric_bike", "name": "63a5c7fa2553d12fb1d4213851164ed3", "is_disabled": 0, "rental_uris": {"ios": "https://dc.lft.to/lastmile_qr_scan", "android": "https://dc.lft.to/lastmile_qr_scan"}, "is_reserved": 0}, {"lon": -77.017712, "bike_id": "d96bb9320d5416ae7cc9fb1fb090b786", "lat": 38.9038655, "fusion_lon": 0.0, "fusion_lat": 0.0, "type": "electric_scooter", "name": "d96bb9320d5416ae7cc9fb1fb090b786", "is_disabled": 0, "rental_uris": {"ios": "https://dc.lft.to/lastmile_qr_scan", "android": "https://dc.lft.to/lastmile_qr_scan"}, "is_reserved": 0}, {"lon": -77.0034185, "bike_id": "5dc7077489f87399fe8cb10dd809b4d4", "lat": 38.89524316666667, "fusion_lon": 0.0, "fusion_lat": 0.0, "type": "electric_scooter", "name": "5dc7077489f87399fe8cb10dd809b4d4", "is_disabled": 0, "rental_uris": {"ios": "https://dc.lft.to/lastmile_qr_scan", "android": "https://dc.lft.to/lastmile_qr_scan"}, "is_reserved": 0}, {"lon": -76.99933300000001, "bike_id": "95a7bf021cfb74d8073931762c916940", "lat": 38.84297466666666, "fusion_lon": 0.0, "fusion_lat": 0.0, "type": "electric_scooter", "name": "95a7bf021cfb74d8073931762c916940", "is_disabled": 0, "rental_uris": {"ios": "https://dc.lft.to/lastmile_qr_scan", "android": "https://dc.lft.to/lastmile_qr_scan"}, "is_reserved": 0}, {"lon": -77.070046, "bike_id": "3d3a0fa07e2238ba140a5179e6e2a82e", "lat": 38.95845633333333, "fusion_lon": 0.0, "fusion_lat": 0.0, "type": "electric_scooter", "name": "3d3a0fa07e2238ba140a5179e6e2a82e", "is_disabled": 0, "rental_uris": {"ios": "https://dc.lft.to/lastmile_qr_scan", "android": "https://dc.lft.to/lastmile_qr_scan"}, "is_reserved": 0}, {"lon": -76.948747, "bike_id": "02438d3a62aac8a91c27ecb826e050dc", "lat": 38.8954885, "fusion_lon": 0.0, "fusion_lat": 0.0, "type": "electric_scooter", "name": "02438d3a62aac8a91c27ecb826e050dc", "is_disabled": 0, "rental_uris": {"ios": "https://dc.lft.to/lastmile_qr_scan", "android": "https://dc.lft.to/lastmile_qr_scan"}, "is_reserved": 0}, {"lon": -77.0316515, "bike_id": "1e22a65b3722a149294dac0fad62226d", "lat": 38.93600516666667, "fusion_lon": 0.0, "fusion_lat": 0.0, "type": "electric_scooter", "name": "1e22a65b3722a149294dac0fad62226d", "is_disabled": 0, "rental_uris": {"ios": "https://dc.lft.to/lastmile_qr_scan", "android": "https://dc.lft.to/lastmile_qr_scan"}, "is_reserved": 0}, {"lon": -77.0312145, "bike_id": "d8b37666c4f3ff073c89798e4665a48e", "lat": 38.9170415, "fusion_lon": 0.0, "fusion_lat": 0.0, "type": "electric_scooter", "name": "d8b37666c4f3ff073c89798e4665a48e", "is_disabled": 0, "rental_uris": {"ios": "https://dc.lft.to/lastmile_qr_scan", "android": "https://dc.lft.to/lastmile_qr_scan"}, "is_reserved": 0}, {"lon": -77.02718133333333, "bike_id": "68a1199ff76fe0bef705706a387d2c69", "lat": 38.972350166666665, "fusion_lon": 0.0, "fusion_lat": 0.0, "type": "electric_scooter", "name": "68a1199ff76fe0bef705706a387d2c69", "is_disabled": 0, "rental_uris": {"ios": "https://dc.lft.to/lastmile_qr_scan", "android": "https://dc.lft.to/lastmile_qr_scan"}, "is_reserved": 0}, {"lon": -77.0376405, "bike_id": "8425cc923c5777021d7b0c17b3bf488c", "lat": 38.9026445, "fusion_lon": 0.0, "fusion_lat": 0.0, "type": "electric_scooter", "name": "8425cc923c5777021d7b0c17b3bf488c", "is_disabled": 0, "rental_uris": {"ios": "https://dc.lft.to/lastmile_qr_scan", "android": "https://dc.lft.to/lastmile_qr_scan"}, "is_reserved": 0}, {"lon": -77.02085533333333, "bike_id": "aeebafe8773aeeed92ce1b4d25717b9e", "lat": 38.945224, "fusion_lon": 0.0, "fusion_lat": 0.0, "type": "electric_scooter", "name": "aeebafe8773aeeed92ce1b4d25717b9e", "is_disabled": 0, "rental_uris": {"ios": "https://dc.lft.to/lastmile_qr_scan", "android": "https://dc.lft.to/lastmile_qr_scan"}, "is_reserved": 0}, {"lon": -77.05258033333334, "bike_id": "45ba828d8e421735d496e1de4c583476", "lat": 38.923745, "fusion_lon": 0.0, "fusion_lat": 0.0, "type": "electric_scooter", "name": "45ba828d8e421735d496e1de4c583476", "is_disabled": 0, "rental_uris": {"ios": "https://dc.lft.to/lastmile_qr_scan", "android": "https://dc.lft.to/lastmile_qr_scan"}, "is_reserved": 0}, {"lon": -76.923717, "bike_id": "835ec7e67ce9b5a2f1429f95bc12d388", "lat": 38.88375, "fusion_lon": 0.0, "fusion_lat": 0.0, "type": "electric_bike", "name": "835ec7e67ce9b5a2f1429f95bc12d388", "is_disabled": 0, "rental_uris": {"ios": "https://dc.lft.to/lastmile_qr_scan", "android": "https://dc.lft.to/lastmile_qr_scan"}, "is_reserved": 0}, {"lon": -77.024357, "bike_id": "be0ae64b992aadfbca033fae8b6095a8", "lat": 38.916906166666664, "fusion_lon": 0.0, "fusion_lat": 0.0, "type": "electric_scooter", "name": "be0ae64b992aadfbca033fae8b6095a8", "is_disabled": 0, "rental_uris": {"ios": "https://dc.lft.to/lastmile_qr_scan", "android": "https://dc.lft.to/lastmile_qr_scan"}, "is_reserved": 0}, {"lon": -77.0806685, "bike_id": "12b857b76b38bbbf68ff894b3dc14847", "lat": 38.96315283333333, "fusion_lon": 0.0, "fusion_lat": 0.0, "type": "electric_bike", "name": "12b857b76b38bbbf68ff894b3dc14847", "is_disabled": 0, "rental_uris": {"ios": "https://dc.lft.to/lastmile_qr_scan", "android": "https://dc.lft.to/lastmile_qr_scan"}, "is_reserved": 0}, {"lon": -77.01414383333334, "bike_id": "b58e5b84e5bc5f96e632a880afacb637", "lat": 38.90649466666667, "fusion_lon": 0.0, "fusion_lat": 0.0, "type": "electric_scooter", "name": "b58e5b84e5bc5f96e632a880afacb637", "is_disabled": 0, "rental_uris": {"ios": "https://dc.lft.to/lastmile_qr_scan", "android": "https://dc.lft.to/lastmile_qr_scan"}, "is_reserved": 0}, {"lon": -77.00325716666667, "bike_id": "bce34077fa7cce51b253a9d6662cc67b", "lat": 38.902602333333334, "fusion_lon": 0.0, "fusion_lat": 0.0, "type": "electric_scooter", "name": "bce34077fa7cce51b253a9d6662cc67b", "is_disabled": 0, "rental_uris": {"ios": "https://dc.lft.to/lastmile_qr_scan", "android": "https://dc.lft.to/lastmile_qr_scan"}, "is_reserved": 0}, {"lon": -77.02466216666667, "bike_id": "601eee749db3a3c94a594518f6233465", "lat": 38.930870666666664, "fusion_lon": 0.0, "fusion_lat": 0.0, "type": "electric_scooter", "name": "601eee749db3a3c94a594518f6233465", "is_disabled": 0, "rental_uris": {"ios": "https://dc.lft.to/lastmile_qr_scan", "android": "https://dc.lft.to/lastmile_qr_scan"}, "is_reserved": 0}, {"lon": -77.0008195, "bike_id": "cf7605e9466a8b62cd19c0125718897d", "lat": 38.89470133333333, "fusion_lon": 0.0, "fusion_lat": 0.0, "type": "electric_scooter", "name": "cf7605e9466a8b62cd19c0125718897d", "is_disabled": 0, "rental_uris": {"ios": "https://dc.lft.to/lastmile_qr_scan", "android": "https://dc.lft.to/lastmile_qr_scan"}, "is_reserved": 0}, {"lon": -76.99030133333333, "bike_id": "406798b807bb3a6ffcd13d87bc926a7d", "lat": 38.902915166666666, "fusion_lon": 0.0, "fusion_lat": 0.0, "type": "electric_scooter", "name": "406798b807bb3a6ffcd13d87bc926a7d", "is_disabled": 0, "rental_uris": {"ios": "https://dc.lft.to/lastmile_qr_scan", "android": "https://dc.lft.to/lastmile_qr_scan"}, "is_reserved": 0}, {"lon": -77.04149933333333, "bike_id": "d458b00842d1929fcecb5afaa3e8f7bf", "lat": 38.9073885, "fusion_lon": 0.0, "fusion_lat": 0.0, "type": "electric_scooter", "name": "d458b00842d1929fcecb5afaa3e8f7bf", "is_disabled": 0, "rental_uris": {"ios": "https://dc.lft.to/lastmile_qr_scan", "android": "https://dc.lft.to/lastmile_qr_scan"}, "is_reserved": 0}, {"lon": -77.032656, "bike_id": "6bf98d5e156704c59a51fcd940f98812", "lat": 38.934439833333336, "fusion_lon": 0.0, "fusion_lat": 0.0, "type": "electric_scooter", "name": "6bf98d5e156704c59a51fcd940f98812", "is_disabled": 0, "rental_uris": {"ios": "https://dc.lft.to/lastmile_qr_scan", "android": "https://dc.lft.to/lastmile_qr_scan"}, "is_reserved": 0}, {"lon": -77.06399116666667, "bike_id": "fac32858a8564589930d1861754ec324", "lat": 38.943244666666665, "fusion_lon": 0.0, "fusion_lat": 0.0, "type": "electric_scooter", "name": "fac32858a8564589930d1861754ec324", "is_disabled": 0, "rental_uris": {"ios": "https://dc.lft.to/lastmile_qr_scan", "android": "https://dc.lft.to/lastmile_qr_scan"}, "is_reserved": 0}, {"lon": -76.99041316666667, "bike_id": "4da900f6031eb4d32b85d70d3d22c6ab", "lat": 38.863749166666665, "fusion_lon": 0.0, "fusion_lat": 0.0, "type": "electric_scooter", "name": "4da900f6031eb4d32b85d70d3d22c6ab", "is_disabled": 0, "rental_uris": {"ios": "https://dc.lft.to/lastmile_qr_scan", "android": "https://dc.lft.to/lastmile_qr_scan"}, "is_reserved": 0}, {"lon": -77.02279066666667, "bike_id": "cce48ccf5566d7a0e310d60dadf4964d", "lat": 38.9095795, "fusion_lon": 0.0, "fusion_lat": 0.0, "type": "electric_scooter", "name": "cce48ccf5566d7a0e310d60dadf4964d", "is_disabled": 0, "rental_uris": {"ios": "https://dc.lft.to/lastmile_qr_scan", "android": "https://dc.lft.to/lastmile_qr_scan"}, "is_reserved": 0}, {"lon": -77.03853583333333, "bike_id": "b851a10ac6cdf232e2f08470241f8e8a", "lat": 38.91663416666667, "fusion_lon": 0.0, "fusion_lat": 0.0, "type": "electric_scooter", "name": "b851a10ac6cdf232e2f08470241f8e8a", "is_disabled": 0, "rental_uris": {"ios": "https://dc.lft.to/lastmile_qr_scan", "android": "https://dc.lft.to/lastmile_qr_scan"}, "is_reserved": 0}, {"lon": -76.92201566666667, "bike_id": "f08e25f8a58956f5fdaa96af472bcaf6", "lat": 38.894978, "fusion_lon": 0.0, "fusion_lat": 0.0, "type": "electric_bike", "name": "f08e25f8a58956f5fdaa96af472bcaf6", "is_disabled": 0, "rental_uris": {"ios": "https://dc.lft.to/lastmile_qr_scan", "android": "https://dc.lft.to/lastmile_qr_scan"}, "is_reserved": 0}, {"lon": -77.0318685, "bike_id": "e60307c7388a1243be6f219c8b981578", "lat": 38.911772166666665, "fusion_lon": 0.0, "fusion_lat": 0.0, "type": "electric_scooter", "name": "e60307c7388a1243be6f219c8b981578", "is_disabled": 0, "rental_uris": {"ios": "https://dc.lft.to/lastmile_qr_scan", "android": "https://dc.lft.to/lastmile_qr_scan"}, "is_reserved": 0}, {"lon": -77.01800216666666, "bike_id": "b15cf45961c7f87b5e61aaa2230b7671", "lat": 38.921055833333334, "fusion_lon": 0.0, "fusion_lat": 0.0, "type": "electric_scooter", "name": "b15cf45961c7f87b5e61aaa2230b7671", "is_disabled": 0, "rental_uris": {"ios": "https://dc.lft.to/lastmile_qr_scan", "android": "https://dc.lft.to/lastmile_qr_scan"}, "is_reserved": 0}, {"lon": -77.04906716666666, "bike_id": "46a8ec7cad6c49dfbd13925460545191", "lat": 38.90354816666667, "fusion_lon": 0.0, "fusion_lat": 0.0, "type": "electric_scooter", "name": "46a8ec7cad6c49dfbd13925460545191", "is_disabled": 0, "rental_uris": {"ios": "https://dc.lft.to/lastmile_qr_scan", "android": "https://dc.lft.to/lastmile_qr_scan"}, "is_reserved": 0}, {"lon": -77.03351183333334, "bike_id": "a6ba239c87a01ec29752215debb5c0db", "lat": 38.902823, "fusion_lon": 0.0, "fusion_lat": 0.0, "type": "electric_scooter", "name": "a6ba239c87a01ec29752215debb5c0db", "is_disabled": 0, "rental_uris": {"ios": "https://dc.lft.to/lastmile_qr_scan", "android": "https://dc.lft.to/lastmile_qr_scan"}, "is_reserved": 0}, {"lon": -76.93738833333333, "bike_id": "681a6c1c6bcf979749a935faff8229d7", "lat": 38.890116666666664, "fusion_lon": 0.0, "fusion_lat": 0.0, "type": "electric_scooter", "name": "681a6c1c6bcf979749a935faff8229d7", "is_disabled": 0, "rental_uris": {"ios": "https://dc.lft.to/lastmile_qr_scan", "android": "https://dc.lft.to/lastmile_qr_scan"}, "is_reserved": 0}, {"lon": -77.01611716666666, "bike_id": "f538e7e2f846fcbfdda7e77c89d1b029", "lat": 38.919395, "fusion_lon": 0.0, "fusion_lat": 0.0, "type": "electric_scooter", "name": "f538e7e2f846fcbfdda7e77c89d1b029", "is_disabled": 0, "rental_uris": {"ios": "https://dc.lft.to/lastmile_qr_scan", "android": "https://dc.lft.to/lastmile_qr_scan"}, "is_reserved": 0}, {"lon": -77.036391, "bike_id": "b69d6f4d5ff6ad30785607e92367990d", "lat": 38.93175083333333, "fusion_lon": 0.0, "fusion_lat": 0.0, "type": "electric_scooter", "name": "b69d6f4d5ff6ad30785607e92367990d", "is_disabled": 0, "rental_uris": {"ios": "https://dc.lft.to/lastmile_qr_scan", "android": "https://dc.lft.to/lastmile_qr_scan"}, "is_reserved": 0}, {"lon": -77.04721916666666, "bike_id": "e768a0fcf5cab4e5934830b3f6df3417", "lat": 38.9111545, "fusion_lon": 0.0, "fusion_lat": 0.0, "type": "electric_scooter", "name": "e768a0fcf5cab4e5934830b3f6df3417", "is_disabled": 0, "rental_uris": {"ios": "https://dc.lft.to/lastmile_qr_scan", "android": "https://dc.lft.to/lastmile_qr_scan"}, "is_reserved": 0}, {"lon": -77.00451066666666, "bike_id": "13810f80e39194ad0d17b32b72887259", "lat": 38.910726, "fusion_lon": 0.0, "fusion_lat": 0.0, "type": "electric_scooter", "name": "13810f80e39194ad0d17b32b72887259", "is_disabled": 0, "rental_uris": {"ios": "https://dc.lft.to/lastmile_qr_scan", "android": "https://dc.lft.to/lastmile_qr_scan"}, "is_reserved": 0}, {"lon": -77.00350933333333, "bike_id": "f51979ee27195ce78a4ef673175ba2d4", "lat": 38.902704166666666, "fusion_lon": 0.0, "fusion_lat": 0.0, "type": "electric_scooter", "name": "f51979ee27195ce78a4ef673175ba2d4", "is_disabled": 0, "rental_uris": {"ios": "https://dc.lft.to/lastmile_qr_scan", "android": "https://dc.lft.to/lastmile_qr_scan"}, "is_reserved": 0}, {"lon": -77.00106116666667, "bike_id": "f4635fa13dbeba5477cca68e17cf8bc2", "lat": 38.90744466666666, "fusion_lon": 0.0, "fusion_lat": 0.0, "type": "electric_scooter", "name": "f4635fa13dbeba5477cca68e17cf8bc2", "is_disabled": 0, "rental_uris": {"ios": "https://dc.lft.to/lastmile_qr_scan", "android": "https://dc.lft.to/lastmile_qr_scan"}, "is_reserved": 0}, {"lon": -77.023567, "bike_id": "f008ae3a97afb806c132569cbc35ca73", "lat": 38.920470333333334, "fusion_lon": 0.0, "fusion_lat": 0.0, "type": "electric_scooter", "name": "f008ae3a97afb806c132569cbc35ca73", "is_disabled": 0, "rental_uris": {"ios": "https://dc.lft.to/lastmile_qr_scan", "android": "https://dc.lft.to/lastmile_qr_scan"}, "is_reserved": 0}, {"lon": -76.94878566666667, "bike_id": "801ea9be9c9bee45c9f26f1591b1fbf3", "lat": 38.895518, "fusion_lon": 0.0, "fusion_lat": 0.0, "type": "electric_scooter", "name": "801ea9be9c9bee45c9f26f1591b1fbf3", "is_disabled": 0, "rental_uris": {"ios": "https://dc.lft.to/lastmile_qr_scan", "android": "https://dc.lft.to/lastmile_qr_scan"}, "is_reserved": 0}, {"lon": -77.05079483333333, "bike_id": "842b4ed20daf4fe7cb881d9906242855", "lat": 38.89674983333333, "fusion_lon": 0.0, "fusion_lat": 0.0, "type": "electric_scooter", "name": "842b4ed20daf4fe7cb881d9906242855", "is_disabled": 0, "rental_uris": {"ios": "https://dc.lft.to/lastmile_qr_scan", "android": "https://dc.lft.to/lastmile_qr_scan"}, "is_reserved": 0}, {"lon": -77.02968183333333, "bike_id": "9b09f179534861364dc9e704f2cc9de4", "lat": 38.9125535, "fusion_lon": 0.0, "fusion_lat": 0.0, "type": "electric_scooter", "name": "9b09f179534861364dc9e704f2cc9de4", "is_disabled": 0, "rental_uris": {"ios": "https://dc.lft.to/lastmile_qr_scan", "android": "https://dc.lft.to/lastmile_qr_scan"}, "is_reserved": 0}, {"lon": -77.02419016666667, "bike_id": "1f29d46c9e7596beda46f3ae03df0d84", "lat": 38.917800666666665, "fusion_lon": 0.0, "fusion_lat": 0.0, "type": "electric_scooter", "name": "1f29d46c9e7596beda46f3ae03df0d84", "is_disabled": 0, "rental_uris": {"ios": "https://dc.lft.to/lastmile_qr_scan", "android": "https://dc.lft.to/lastmile_qr_scan"}, "is_reserved": 0}, {"lon": -77.036455, "bike_id": "74414a5b9b850a325ee4037c734b023d", "lat": 38.9028305, "fusion_lon": 0.0, "fusion_lat": 0.0, "type": "electric_scooter", "name": "74414a5b9b850a325ee4037c734b023d", "is_disabled": 0, "rental_uris": {"ios": "https://dc.lft.to/lastmile_qr_scan", "android": "https://dc.lft.to/lastmile_qr_scan"}, "is_reserved": 0}, {"lon": -77.02274333333334, "bike_id": "f2e788f89ec3806e913f54154d5da04b", "lat": 38.916359, "fusion_lon": 0.0, "fusion_lat": 0.0, "type": "electric_scooter", "name": "f2e788f89ec3806e913f54154d5da04b", "is_disabled": 0, "rental_uris": {"ios": "https://dc.lft.to/lastmile_qr_scan", "android": "https://dc.lft.to/lastmile_qr_scan"}, "is_reserved": 0}, {"lon": -76.98838533333333, "bike_id": "b91fad03767c162c826642033768fd5d", "lat": 38.842818666666666, "fusion_lon": 0.0, "fusion_lat": 0.0, "type": "electric_bike", "name": "b91fad03767c162c826642033768fd5d", "is_disabled": 0, "rental_uris": {"ios": "https://dc.lft.to/lastmile_qr_scan", "android": "https://dc.lft.to/lastmile_qr_scan"}, "is_reserved": 0}, {"lon": -77.042206, "bike_id": "9c2a82b8115e7adc0ad8c6c7137b7854", "lat": 38.911168833333335, "fusion_lon": 0.0, "fusion_lat": 0.0, "type": "electric_scooter", "name": "9c2a82b8115e7adc0ad8c6c7137b7854", "is_disabled": 0, "rental_uris": {"ios": "https://dc.lft.to/lastmile_qr_scan", "android": "https://dc.lft.to/lastmile_qr_scan"}, "is_reserved": 0}, {"lon": -77.01767333333333, "bike_id": "edba05986d5f406d93a7639b2513ac60", "lat": 38.902541166666666, "fusion_lon": 0.0, "fusion_lat": 0.0, "type": "electric_scooter", "name": "edba05986d5f406d93a7639b2513ac60", "is_disabled": 0, "rental_uris": {"ios": "https://dc.lft.to/lastmile_qr_scan", "android": "https://dc.lft.to/lastmile_qr_scan"}, "is_reserved": 0}, {"lon": -77.02362183333334, "bike_id": "9d5155a80b4bafc4425a55a7fdb5c863", "lat": 38.892191833333335, "fusion_lon": 0.0, "fusion_lat": 0.0, "type": "electric_scooter", "name": "9d5155a80b4bafc4425a55a7fdb5c863", "is_disabled": 0, "rental_uris": {"ios": "https://dc.lft.to/lastmile_qr_scan", "android": "https://dc.lft.to/lastmile_qr_scan"}, "is_reserved": 0}, {"lon": -76.97054566666667, "bike_id": "42e8846996f375674e74fd6f365add29", "lat": 38.897728, "fusion_lon": 0.0, "fusion_lat": 0.0, "type": "electric_scooter", "name": "42e8846996f375674e74fd6f365add29", "is_disabled": 0, "rental_uris": {"ios": "https://dc.lft.to/lastmile_qr_scan", "android": "https://dc.lft.to/lastmile_qr_scan"}, "is_reserved": 0}, {"lon": -77.000481, "bike_id": "d5c00014f2cd41df015054d33baab9bd", "lat": 38.923932, "fusion_lon": 0.0, "fusion_lat": 0.0, "type": "electric_scooter", "name": "d5c00014f2cd41df015054d33baab9bd", "is_disabled": 0, "rental_uris": {"ios": "https://dc.lft.to/lastmile_qr_scan", "android": "https://dc.lft.to/lastmile_qr_scan"}, "is_reserved": 0}, {"lon": -77.05724816666667, "bike_id": "deaae24b8eb872452432a451cc030be1", "lat": 38.93352133333333, "fusion_lon": 0.0, "fusion_lat": 0.0, "type": "electric_scooter", "name": "deaae24b8eb872452432a451cc030be1", "is_disabled": 0, "rental_uris": {"ios": "https://dc.lft.to/lastmile_qr_scan", "android": "https://dc.lft.to/lastmile_qr_scan"}, "is_reserved": 0}, {"lon": -77.00919116666667, "bike_id": "16de2d07da3e8110837b90976d11d77c", "lat": 38.89643016666667, "fusion_lon": 0.0, "fusion_lat": 0.0, "type": "electric_scooter", "name": "16de2d07da3e8110837b90976d11d77c", "is_disabled": 0, "rental_uris": {"ios": "https://dc.lft.to/lastmile_qr_scan", "android": "https://dc.lft.to/lastmile_qr_scan"}, "is_reserved": 0}, {"lon": -77.001536, "bike_id": "ce3bf3557993b4d2b8a519d106ebc090", "lat": 38.8898765, "fusion_lon": 0.0, "fusion_lat": 0.0, "type": "electric_scooter", "name": "ce3bf3557993b4d2b8a519d106ebc090", "is_disabled": 0, "rental_uris": {"ios": "https://dc.lft.to/lastmile_qr_scan", "android": "https://dc.lft.to/lastmile_qr_scan"}, "is_reserved": 0}, {"lon": -77.04618316666667, "bike_id": "c2afa3160470218b3a4e2c030cc1f7ca", "lat": 38.90550733333333, "fusion_lon": 0.0, "fusion_lat": 0.0, "type": "electric_scooter", "name": "c2afa3160470218b3a4e2c030cc1f7ca", "is_disabled": 0, "rental_uris": {"ios": "https://dc.lft.to/lastmile_qr_scan", "android": "https://dc.lft.to/lastmile_qr_scan"}, "is_reserved": 0}, {"lon": -77.0274295, "bike_id": "f726e7576f11e887a6178c078ec9de17", "lat": 38.92762366666667, "fusion_lon": 0.0, "fusion_lat": 0.0, "type": "electric_scooter", "name": "f726e7576f11e887a6178c078ec9de17", "is_disabled": 0, "rental_uris": {"ios": "https://dc.lft.to/lastmile_qr_scan", "android": "https://dc.lft.to/lastmile_qr_scan"}, "is_reserved": 0}, {"lon": -77.05339233333333, "bike_id": "7fbccf6d0590603447ea51e380db764a", "lat": 38.903484166666665, "fusion_lon": 0.0, "fusion_lat": 0.0, "type": "electric_scooter", "name": "7fbccf6d0590603447ea51e380db764a", "is_disabled": 0, "rental_uris": {"ios": "https://dc.lft.to/lastmile_qr_scan", "android": "https://dc.lft.to/lastmile_qr_scan"}, "is_reserved": 0}, {"lon": -77.024143, "bike_id": "823b36a6f689e70a58dc4c68545c295d", "lat": 38.9097145, "fusion_lon": 0.0, "fusion_lat": 0.0, "type": "electric_scooter", "name": "823b36a6f689e70a58dc4c68545c295d", "is_disabled": 0, "rental_uris": {"ios": "https://dc.lft.to/lastmile_qr_scan", "android": "https://dc.lft.to/lastmile_qr_scan"}, "is_reserved": 0}, {"lon": -77.013344, "bike_id": "4e1037114614fddd1af67ccdc4ad3328", "lat": 38.87921466666667, "fusion_lon": 0.0, "fusion_lat": 0.0, "type": "electric_scooter", "name": "4e1037114614fddd1af67ccdc4ad3328", "is_disabled": 0, "rental_uris": {"ios": "https://dc.lft.to/lastmile_qr_scan", "android": "https://dc.lft.to/lastmile_qr_scan"}, "is_reserved": 0}, {"lon": -77.0553805, "bike_id": "de7ed270185be9d47f3bebfceeeec81e", "lat": 38.934330333333335, "fusion_lon": 0.0, "fusion_lat": 0.0, "type": "electric_scooter", "name": "de7ed270185be9d47f3bebfceeeec81e", "is_disabled": 0, "rental_uris": {"ios": "https://dc.lft.to/lastmile_qr_scan", "android": "https://dc.lft.to/lastmile_qr_scan"}, "is_reserved": 0}, {"lon": -77.03501266666666, "bike_id": "8140892623ff46c3e24d6dbc7707ade9", "lat": 38.937514, "fusion_lon": 0.0, "fusion_lat": 0.0, "type": "electric_scooter", "name": "8140892623ff46c3e24d6dbc7707ade9", "is_disabled": 0, "rental_uris": {"ios": "https://dc.lft.to/lastmile_qr_scan", "android": "https://dc.lft.to/lastmile_qr_scan"}, "is_reserved": 0}, {"lon": -77.03866083333334, "bike_id": "20353aa006d0ae686a099c15ca90dfa6", "lat": 38.915564333333336, "fusion_lon": 0.0, "fusion_lat": 0.0, "type": "electric_scooter", "name": "20353aa006d0ae686a099c15ca90dfa6", "is_disabled": 0, "rental_uris": {"ios": "https://dc.lft.to/lastmile_qr_scan", "android": "https://dc.lft.to/lastmile_qr_scan"}, "is_reserved": 0}, {"lon": -76.9884205, "bike_id": "d07e0c9cae580578a643bf6913cfe8d2", "lat": 38.900659166666664, "fusion_lon": 0.0, "fusion_lat": 0.0, "type": "electric_scooter", "name": "d07e0c9cae580578a643bf6913cfe8d2", "is_disabled": 0, "rental_uris": {"ios": "https://dc.lft.to/lastmile_qr_scan", "android": "https://dc.lft.to/lastmile_qr_scan"}, "is_reserved": 0}, {"lon": -77.03846333333334, "bike_id": "da69051e2decc83904d8abf3f0e316e7", "lat": 38.90257866666666, "fusion_lon": 0.0, "fusion_lat": 0.0, "type": "electric_scooter", "name": "da69051e2decc83904d8abf3f0e316e7", "is_disabled": 0, "rental_uris": {"ios": "https://dc.lft.to/lastmile_qr_scan", "android": "https://dc.lft.to/lastmile_qr_scan"}, "is_reserved": 0}, {"lon": -77.0058835, "bike_id": "d9e23280fc3d50e0547f6919d53b31dc", "lat": 38.90608183333333, "fusion_lon": 0.0, "fusion_lat": 0.0, "type": "electric_scooter", "name": "d9e23280fc3d50e0547f6919d53b31dc", "is_disabled": 0, "rental_uris": {"ios": "https://dc.lft.to/lastmile_qr_scan", "android": "https://dc.lft.to/lastmile_qr_scan"}, "is_reserved": 0}, {"lon": -77.08460266666667, "bike_id": "b32aa12503ddc690c1473904ddaad773", "lat": 38.848193, "fusion_lon": 0.0, "fusion_lat": 0.0, "type": "electric_bike", "name": "b32aa12503ddc690c1473904ddaad773", "is_disabled": 0, "rental_uris": {"ios": "https://dc.lft.to/lastmile_qr_scan", "android": "https://dc.lft.to/lastmile_qr_scan"}, "is_reserved": 0}, {"lon": -77.01376933333333, "bike_id": "42af3045efb32518c67a27ac9373c603", "lat": 38.914950833333336, "fusion_lon": 0.0, "fusion_lat": 0.0, "type": "electric_scooter", "name": "42af3045efb32518c67a27ac9373c603", "is_disabled": 0, "rental_uris": {"ios": "https://dc.lft.to/lastmile_qr_scan", "android": "https://dc.lft.to/lastmile_qr_scan"}, "is_reserved": 0}, {"lon": -77.03244516666666, "bike_id": "2ceef80f2c72c92739ecea47b9fc66e0", "lat": 38.937640333333334, "fusion_lon": 0.0, "fusion_lat": 0.0, "type": "electric_scooter", "name": "2ceef80f2c72c92739ecea47b9fc66e0", "is_disabled": 0, "rental_uris": {"ios": "https://dc.lft.to/lastmile_qr_scan", "android": "https://dc.lft.to/lastmile_qr_scan"}, "is_reserved": 0}, {"lon": -77.04357983333334, "bike_id": "e3d0fd8b11a70692dd13c3400618ba8c", "lat": 38.907767166666666, "fusion_lon": 0.0, "fusion_lat": 0.0, "type": "electric_scooter", "name": "e3d0fd8b11a70692dd13c3400618ba8c", "is_disabled": 0, "rental_uris": {"ios": "https://dc.lft.to/lastmile_qr_scan", "android": "https://dc.lft.to/lastmile_qr_scan"}, "is_reserved": 0}, {"lon": -77.02808183333333, "bike_id": "8efbdad6eb41799678c8c8a30f9c6810", "lat": 38.932955166666666, "fusion_lon": 0.0, "fusion_lat": 0.0, "type": "electric_scooter", "name": "8efbdad6eb41799678c8c8a30f9c6810", "is_disabled": 0, "rental_uris": {"ios": "https://dc.lft.to/lastmile_qr_scan", "android": "https://dc.lft.to/lastmile_qr_scan"}, "is_reserved": 0}, {"lon": -77.03940883333334, "bike_id": "ddecc886041c3d36d3b6e75adc7ac9e6", "lat": 38.91557516666667, "fusion_lon": 0.0, "fusion_lat": 0.0, "type": "electric_scooter", "name": "ddecc886041c3d36d3b6e75adc7ac9e6", "is_disabled": 0, "rental_uris": {"ios": "https://dc.lft.to/lastmile_qr_scan", "android": "https://dc.lft.to/lastmile_qr_scan"}, "is_reserved": 0}, {"lon": -77.03408716666667, "bike_id": "09896ea87fcb2f936cd7c3600d80d53a", "lat": 38.9225455, "fusion_lon": 0.0, "fusion_lat": 0.0, "type": "electric_scooter", "name": "09896ea87fcb2f936cd7c3600d80d53a", "is_disabled": 0, "rental_uris": {"ios": "https://dc.lft.to/lastmile_qr_scan", "android": "https://dc.lft.to/lastmile_qr_scan"}, "is_reserved": 0}, {"lon": -77.0326885, "bike_id": "a85abf62852a6681763d859ff418085d", "lat": 38.91998183333333, "fusion_lon": 0.0, "fusion_lat": 0.0, "type": "electric_scooter", "name": "a85abf62852a6681763d859ff418085d", "is_disabled": 0, "rental_uris": {"ios": "https://dc.lft.to/lastmile_qr_scan", "android": "https://dc.lft.to/lastmile_qr_scan"}, "is_reserved": 0}, {"lon": -77.05863233333334, "bike_id": "588bffa9571b1801b848250424de5d80", "lat": 38.93605183333333, "fusion_lon": 0.0, "fusion_lat": 0.0, "type": "electric_scooter", "name": "588bffa9571b1801b848250424de5d80", "is_disabled": 0, "rental_uris": {"ios": "https://dc.lft.to/lastmile_qr_scan", "android": "https://dc.lft.to/lastmile_qr_scan"}, "is_reserved": 0}, {"lon": -77.04598483333334, "bike_id": "7a81e9478f2abab8f573a80307e4c185", "lat": 38.919305333333334, "fusion_lon": 0.0, "fusion_lat": 0.0, "type": "electric_scooter", "name": "7a81e9478f2abab8f573a80307e4c185", "is_disabled": 0, "rental_uris": {"ios": "https://dc.lft.to/lastmile_qr_scan", "android": "https://dc.lft.to/lastmile_qr_scan"}, "is_reserved": 0}, {"lon": -77.034476, "bike_id": "e2dbaab6202f51b22d6f6d19874d0778", "lat": 38.9072435, "fusion_lon": 0.0, "fusion_lat": 0.0, "type": "electric_scooter", "name": "e2dbaab6202f51b22d6f6d19874d0778", "is_disabled": 0, "rental_uris": {"ios": "https://dc.lft.to/lastmile_qr_scan", "android": "https://dc.lft.to/lastmile_qr_scan"}, "is_reserved": 0}, {"lon": -77.053345, "bike_id": "8c3ad37f6b5df46067c574597da7977b", "lat": 38.901421666666664, "fusion_lon": 0.0, "fusion_lat": 0.0, "type": "electric_scooter", "name": "8c3ad37f6b5df46067c574597da7977b", "is_disabled": 0, "rental_uris": {"ios": "https://dc.lft.to/lastmile_qr_scan", "android": "https://dc.lft.to/lastmile_qr_scan"}, "is_reserved": 0}, {"lon": -77.03518266666667, "bike_id": "62db4f2ee4cbae1f70b0fe8b6ab2792f", "lat": 38.923376, "fusion_lon": 0.0, "fusion_lat": 0.0, "type": "electric_scooter", "name": "62db4f2ee4cbae1f70b0fe8b6ab2792f", "is_disabled": 0, "rental_uris": {"ios": "https://dc.lft.to/lastmile_qr_scan", "android": "https://dc.lft.to/lastmile_qr_scan"}, "is_reserved": 0}, {"lon": -77.10596866666667, "bike_id": "1ee6dca6e7b788d795a9d91f818b3016", "lat": 38.90385166666667, "fusion_lon": 0.0, "fusion_lat": 0.0, "type": "electric_bike", "name": "1ee6dca6e7b788d795a9d91f818b3016", "is_disabled": 0, "rental_uris": {"ios": "https://dc.lft.to/lastmile_qr_scan", "android": "https://dc.lft.to/lastmile_qr_scan"}, "is_reserved": 0}, {"lon": -77.01205983333334, "bike_id": "e6b03dc1fe33a5778bb7ed2e34079f75", "lat": 38.919149166666664, "fusion_lon": 0.0, "fusion_lat": 0.0, "type": "electric_scooter", "name": "e6b03dc1fe33a5778bb7ed2e34079f75", "is_disabled": 0, "rental_uris": {"ios": "https://dc.lft.to/lastmile_qr_scan", "android": "https://dc.lft.to/lastmile_qr_scan"}, "is_reserved": 0}, {"lon": -77.02742433333333, "bike_id": "65795ca982c8c61bef57e97cdb7f3383", "lat": 38.94386266666667, "fusion_lon": 0.0, "fusion_lat": 0.0, "type": "electric_scooter", "name": "65795ca982c8c61bef57e97cdb7f3383", "is_disabled": 0, "rental_uris": {"ios": "https://dc.lft.to/lastmile_qr_scan", "android": "https://dc.lft.to/lastmile_qr_scan"}, "is_reserved": 0}, {"lon": -77.02206516666666, "bike_id": "1ca636ca1ff107c237c9817a87c409d3", "lat": 38.90041683333333, "fusion_lon": 0.0, "fusion_lat": 0.0, "type": "electric_scooter", "name": "1ca636ca1ff107c237c9817a87c409d3", "is_disabled": 0, "rental_uris": {"ios": "https://dc.lft.to/lastmile_qr_scan", "android": "https://dc.lft.to/lastmile_qr_scan"}, "is_reserved": 0}, {"lon": -77.01133333333334, "bike_id": "00cc04f9a076d6b0d9da24d8e40def35", "lat": 38.88522616666667, "fusion_lon": 0.0, "fusion_lat": 0.0, "type": "electric_scooter", "name": "00cc04f9a076d6b0d9da24d8e40def35", "is_disabled": 0, "rental_uris": {"ios": "https://dc.lft.to/lastmile_qr_scan", "android": "https://dc.lft.to/lastmile_qr_scan"}, "is_reserved": 0}, {"lon": -77.07418666666666, "bike_id": "e969ec03553da3b2d0850db199af7bce", "lat": 38.96267, "fusion_lon": 0.0, "fusion_lat": 0.0, "type": "electric_scooter", "name": "e969ec03553da3b2d0850db199af7bce", "is_disabled": 0, "rental_uris": {"ios": "https://dc.lft.to/lastmile_qr_scan", "android": "https://dc.lft.to/lastmile_qr_scan"}, "is_reserved": 0}, {"lon": -77.02585616666667, "bike_id": "6c30613af47d8a8c81802352c5ab81aa", "lat": 38.89229366666667, "fusion_lon": 0.0, "fusion_lat": 0.0, "type": "electric_scooter", "name": "6c30613af47d8a8c81802352c5ab81aa", "is_disabled": 0, "rental_uris": {"ios": "https://dc.lft.to/lastmile_qr_scan", "android": "https://dc.lft.to/lastmile_qr_scan"}, "is_reserved": 0}, {"lon": -77.047726, "bike_id": "882ea70ff30d9faa44f2ad03093ffb57", "lat": 38.91222333333333, "fusion_lon": 0.0, "fusion_lat": 0.0, "type": "electric_scooter", "name": "882ea70ff30d9faa44f2ad03093ffb57", "is_disabled": 0, "rental_uris": {"ios": "https://dc.lft.to/lastmile_qr_scan", "android": "https://dc.lft.to/lastmile_qr_scan"}, "is_reserved": 0}, {"lon": -77.03665066666667, "bike_id": "8d69901f6830f422590ba2cc31d88956", "lat": 38.91746216666667, "fusion_lon": 0.0, "fusion_lat": 0.0, "type": "electric_scooter", "name": "8d69901f6830f422590ba2cc31d88956", "is_disabled": 0, "rental_uris": {"ios": "https://dc.lft.to/lastmile_qr_scan", "android": "https://dc.lft.to/lastmile_qr_scan"}, "is_reserved": 0}, {"lon": -77.02410983333333, "bike_id": "1714810eddc3c4b3b71d21e0a5af3f90", "lat": 38.9042105, "fusion_lon": 0.0, "fusion_lat": 0.0, "type": "electric_scooter", "name": "1714810eddc3c4b3b71d21e0a5af3f90", "is_disabled": 0, "rental_uris": {"ios": "https://dc.lft.to/lastmile_qr_scan", "android": "https://dc.lft.to/lastmile_qr_scan"}, "is_reserved": 0}, {"lon": -77.02423283333333, "bike_id": "3b0b35e07119359fff88c34f3b33b972", "lat": 38.92657716666667, "fusion_lon": 0.0, "fusion_lat": 0.0, "type": "electric_scooter", "name": "3b0b35e07119359fff88c34f3b33b972", "is_disabled": 0, "rental_uris": {"ios": "https://dc.lft.to/lastmile_qr_scan", "android": "https://dc.lft.to/lastmile_qr_scan"}, "is_reserved": 0}, {"lon": -77.04124816666666, "bike_id": "b3022b9f87883811e6f796d6c84312df", "lat": 38.90607816666667, "fusion_lon": 0.0, "fusion_lat": 0.0, "type": "electric_scooter", "name": "b3022b9f87883811e6f796d6c84312df", "is_disabled": 0, "rental_uris": {"ios": "https://dc.lft.to/lastmile_qr_scan", "android": "https://dc.lft.to/lastmile_qr_scan"}, "is_reserved": 0}, {"lon": -76.97327666666666, "bike_id": "58706b6d3877133a0476d062fb7f2d05", "lat": 38.904075666666664, "fusion_lon": 0.0, "fusion_lat": 0.0, "type": "electric_scooter", "name": "58706b6d3877133a0476d062fb7f2d05", "is_disabled": 0, "rental_uris": {"ios": "https://dc.lft.to/lastmile_qr_scan", "android": "https://dc.lft.to/lastmile_qr_scan"}, "is_reserved": 0}, {"lon": -77.04741483333333, "bike_id": "2d8b5ad821ec045e9a54944aca48c0dc", "lat": 38.909583833333336, "fusion_lon": 0.0, "fusion_lat": 0.0, "type": "electric_scooter", "name": "2d8b5ad821ec045e9a54944aca48c0dc", "is_disabled": 0, "rental_uris": {"ios": "https://dc.lft.to/lastmile_qr_scan", "android": "https://dc.lft.to/lastmile_qr_scan"}, "is_reserved": 0}, {"lon": -77.00038466666666, "bike_id": "1b864a191006e050c60f4bcbe5f45779", "lat": 38.900083, "fusion_lon": 0.0, "fusion_lat": 0.0, "type": "electric_scooter", "name": "1b864a191006e050c60f4bcbe5f45779", "is_disabled": 0, "rental_uris": {"ios": "https://dc.lft.to/lastmile_qr_scan", "android": "https://dc.lft.to/lastmile_qr_scan"}, "is_reserved": 0}, {"lon": -77.02989033333333, "bike_id": "3ffb60de0e0ce202b1ab73d072276e06", "lat": 38.9743995, "fusion_lon": 0.0, "fusion_lat": 0.0, "type": "electric_bike", "name": "3ffb60de0e0ce202b1ab73d072276e06", "is_disabled": 0, "rental_uris": {"ios": "https://dc.lft.to/lastmile_qr_scan", "android": "https://dc.lft.to/lastmile_qr_scan"}, "is_reserved": 0}, {"lon": -77.048678, "bike_id": "611469b63ea0fcc28db28039ed4660f9", "lat": 38.892223, "fusion_lon": 0.0, "fusion_lat": 0.0, "type": "electric_scooter", "name": "611469b63ea0fcc28db28039ed4660f9", "is_disabled": 0, "rental_uris": {"ios": "https://dc.lft.to/lastmile_qr_scan", "android": "https://dc.lft.to/lastmile_qr_scan"}, "is_reserved": 0}, {"lon": -77.0188415, "bike_id": "ecf32aa21c5c7d97a9e40caafefb1356", "lat": 38.91483783333334, "fusion_lon": 0.0, "fusion_lat": 0.0, "type": "electric_scooter", "name": "ecf32aa21c5c7d97a9e40caafefb1356", "is_disabled": 0, "rental_uris": {"ios": "https://dc.lft.to/lastmile_qr_scan", "android": "https://dc.lft.to/lastmile_qr_scan"}, "is_reserved": 0}, {"lon": -76.997697, "bike_id": "c24f41e4a3da8619af1374e0d4c64cfb", "lat": 38.9244855, "fusion_lon": 0.0, "fusion_lat": 0.0, "type": "electric_scooter", "name": "c24f41e4a3da8619af1374e0d4c64cfb", "is_disabled": 0, "rental_uris": {"ios": "https://dc.lft.to/lastmile_qr_scan", "android": "https://dc.lft.to/lastmile_qr_scan"}, "is_reserved": 0}, {"lon": -77.02317516666666, "bike_id": "4f1390ff8e5f4a9e467035ea7bdb0002", "lat": 38.909690833333336, "fusion_lon": 0.0, "fusion_lat": 0.0, "type": "electric_scooter", "name": "4f1390ff8e5f4a9e467035ea7bdb0002", "is_disabled": 0, "rental_uris": {"ios": "https://dc.lft.to/lastmile_qr_scan", "android": "https://dc.lft.to/lastmile_qr_scan"}, "is_reserved": 0}, {"lon": -77.0512775, "bike_id": "0789f816b6ac16ee8da6ef96f68b53ee", "lat": 38.923668, "fusion_lon": 0.0, "fusion_lat": 0.0, "type": "electric_scooter", "name": "0789f816b6ac16ee8da6ef96f68b53ee", "is_disabled": 0, "rental_uris": {"ios": "https://dc.lft.to/lastmile_qr_scan", "android": "https://dc.lft.to/lastmile_qr_scan"}, "is_reserved": 0}, {"lon": -77.05863483333333, "bike_id": "5f8e5e090fa5fbb5033716f8984ba785", "lat": 38.93602633333333, "fusion_lon": 0.0, "fusion_lat": 0.0, "type": "electric_scooter", "name": "5f8e5e090fa5fbb5033716f8984ba785", "is_disabled": 0, "rental_uris": {"ios": "https://dc.lft.to/lastmile_qr_scan", "android": "https://dc.lft.to/lastmile_qr_scan"}, "is_reserved": 0}, {"lon": -77.00347266666667, "bike_id": "4209904068829dde1bc5bc9375f4607e", "lat": 38.89523483333333, "fusion_lon": 0.0, "fusion_lat": 0.0, "type": "electric_scooter", "name": "4209904068829dde1bc5bc9375f4607e", "is_disabled": 0, "rental_uris": {"ios": "https://dc.lft.to/lastmile_qr_scan", "android": "https://dc.lft.to/lastmile_qr_scan"}, "is_reserved": 0}, {"lon": -77.0306855, "bike_id": "31dac78dc5b57b458fe2f5947391a656", "lat": 38.885863, "fusion_lon": 0.0, "fusion_lat": 0.0, "type": "electric_scooter", "name": "31dac78dc5b57b458fe2f5947391a656", "is_disabled": 0, "rental_uris": {"ios": "https://dc.lft.to/lastmile_qr_scan", "android": "https://dc.lft.to/lastmile_qr_scan"}, "is_reserved": 0}, {"lon": -77.0211335, "bike_id": "0b41d631b2d19aa2bd389fc143411349", "lat": 38.930055333333335, "fusion_lon": 0.0, "fusion_lat": 0.0, "type": "electric_scooter", "name": "0b41d631b2d19aa2bd389fc143411349", "is_disabled": 0, "rental_uris": {"ios": "https://dc.lft.to/lastmile_qr_scan", "android": "https://dc.lft.to/lastmile_qr_scan"}, "is_reserved": 0}, {"lon": -77.05012016666667, "bike_id": "f0158ee534ed860cb82e5ea4bdb7861e", "lat": 38.897792333333335, "fusion_lon": 0.0, "fusion_lat": 0.0, "type": "electric_scooter", "name": "f0158ee534ed860cb82e5ea4bdb7861e", "is_disabled": 0, "rental_uris": {"ios": "https://dc.lft.to/lastmile_qr_scan", "android": "https://dc.lft.to/lastmile_qr_scan"}, "is_reserved": 0}, {"lon": -76.9888105, "bike_id": "8a2b65bc94b174872c56e34e6c9de1c4", "lat": 38.86657983333333, "fusion_lon": 0.0, "fusion_lat": 0.0, "type": "electric_scooter", "name": "8a2b65bc94b174872c56e34e6c9de1c4", "is_disabled": 0, "rental_uris": {"ios": "https://dc.lft.to/lastmile_qr_scan", "android": "https://dc.lft.to/lastmile_qr_scan"}, "is_reserved": 0}, {"lon": -77.0088725, "bike_id": "12b219e25cd1bcdad4a7f124ff47e9ae", "lat": 38.92273866666667, "fusion_lon": 0.0, "fusion_lat": 0.0, "type": "electric_scooter", "name": "12b219e25cd1bcdad4a7f124ff47e9ae", "is_disabled": 0, "rental_uris": {"ios": "https://dc.lft.to/lastmile_qr_scan", "android": "https://dc.lft.to/lastmile_qr_scan"}, "is_reserved": 0}, {"lon": -76.96553916666667, "bike_id": "8c3778a4ac9577ab7270e267adf3cb41", "lat": 38.91857616666667, "fusion_lon": 0.0, "fusion_lat": 0.0, "type": "electric_scooter", "name": "8c3778a4ac9577ab7270e267adf3cb41", "is_disabled": 0, "rental_uris": {"ios": "https://dc.lft.to/lastmile_qr_scan", "android": "https://dc.lft.to/lastmile_qr_scan"}, "is_reserved": 0}, {"lon": -77.02344366666667, "bike_id": "0e2a52c352fe4d935c8744f1318e4e14", "lat": 38.9173595, "fusion_lon": 0.0, "fusion_lat": 0.0, "type": "electric_scooter", "name": "0e2a52c352fe4d935c8744f1318e4e14", "is_disabled": 0, "rental_uris": {"ios": "https://dc.lft.to/lastmile_qr_scan", "android": "https://dc.lft.to/lastmile_qr_scan"}, "is_reserved": 0}, {"lon": -77.03402566666666, "bike_id": "d7190405c0a42af1c63375c211661a69", "lat": 38.926323833333335, "fusion_lon": 0.0, "fusion_lat": 0.0, "type": "electric_scooter", "name": "d7190405c0a42af1c63375c211661a69", "is_disabled": 0, "rental_uris": {"ios": "https://dc.lft.to/lastmile_qr_scan", "android": "https://dc.lft.to/lastmile_qr_scan"}, "is_reserved": 0}, {"lon": -77.01193383333333, "bike_id": "e5484b15e0ef89b11c3f999b405e7f99", "lat": 38.91550483333333, "fusion_lon": 0.0, "fusion_lat": 0.0, "type": "electric_scooter", "name": "e5484b15e0ef89b11c3f999b405e7f99", "is_disabled": 0, "rental_uris": {"ios": "https://dc.lft.to/lastmile_qr_scan", "android": "https://dc.lft.to/lastmile_qr_scan"}, "is_reserved": 0}, {"lon": -77.0386595, "bike_id": "7fe65e3d7fd964a322795da8654f2787", "lat": 38.915477333333335, "fusion_lon": 0.0, "fusion_lat": 0.0, "type": "electric_scooter", "name": "7fe65e3d7fd964a322795da8654f2787", "is_disabled": 0, "rental_uris": {"ios": "https://dc.lft.to/lastmile_qr_scan", "android": "https://dc.lft.to/lastmile_qr_scan"}, "is_reserved": 0}, {"lon": -77.018948, "bike_id": "197d4226ac8d7f567b6a6ad1fbcbb20c", "lat": 38.903001333333336, "fusion_lon": 0.0, "fusion_lat": 0.0, "type": "electric_bike", "name": "197d4226ac8d7f567b6a6ad1fbcbb20c", "is_disabled": 0, "rental_uris": {"ios": "https://dc.lft.to/lastmile_qr_scan", "android": "https://dc.lft.to/lastmile_qr_scan"}, "is_reserved": 0}, {"lon": -77.0287055, "bike_id": "7ee700217e46e6983b91ab0ed1505047", "lat": 38.904202833333336, "fusion_lon": 0.0, "fusion_lat": 0.0, "type": "electric_scooter", "name": "7ee700217e46e6983b91ab0ed1505047", "is_disabled": 0, "rental_uris": {"ios": "https://dc.lft.to/lastmile_qr_scan", "android": "https://dc.lft.to/lastmile_qr_scan"}, "is_reserved": 0}, {"lon": -77.23327966666666, "bike_id": "9aa583a6b38a9615b6f48ec7e885824d", "lat": 38.872724833333336, "fusion_lon": 0.0, "fusion_lat": 0.0, "type": "electric_bike", "name": "9aa583a6b38a9615b6f48ec7e885824d", "is_disabled": 0, "rental_uris": {"ios": "https://dc.lft.to/lastmile_qr_scan", "android": "https://dc.lft.to/lastmile_qr_scan"}, "is_reserved": 0}, {"lon": -77.05895283333334, "bike_id": "596deb4befb1e7bb3f94f327a82ed1bc", "lat": 38.9360385, "fusion_lon": 0.0, "fusion_lat": 0.0, "type": "electric_scooter", "name": "596deb4befb1e7bb3f94f327a82ed1bc", "is_disabled": 0, "rental_uris": {"ios": "https://dc.lft.to/lastmile_qr_scan", "android": "https://dc.lft.to/lastmile_qr_scan"}, "is_reserved": 0}, {"lon": -77.02708316666667, "bike_id": "bd5dc1cc63f4e95a46f317f4a5a13c84", "lat": 38.92777266666667, "fusion_lon": 0.0, "fusion_lat": 0.0, "type": "electric_scooter", "name": "bd5dc1cc63f4e95a46f317f4a5a13c84", "is_disabled": 0, "rental_uris": {"ios": "https://dc.lft.to/lastmile_qr_scan", "android": "https://dc.lft.to/lastmile_qr_scan"}, "is_reserved": 0}, {"lon": -77.036277, "bike_id": "2fe3e65103362c64f186b538ac38612b", "lat": 38.9481525, "fusion_lon": 0.0, "fusion_lat": 0.0, "type": "electric_scooter", "name": "2fe3e65103362c64f186b538ac38612b", "is_disabled": 0, "rental_uris": {"ios": "https://dc.lft.to/lastmile_qr_scan", "android": "https://dc.lft.to/lastmile_qr_scan"}, "is_reserved": 0}, {"lon": -76.972997, "bike_id": "e160fc85223b385ba826c4555c236e97", "lat": 38.916441666666664, "fusion_lon": 0.0, "fusion_lat": 0.0, "type": "electric_bike", "name": "e160fc85223b385ba826c4555c236e97", "is_disabled": 0, "rental_uris": {"ios": "https://dc.lft.to/lastmile_qr_scan", "android": "https://dc.lft.to/lastmile_qr_scan"}, "is_reserved": 0}, {"lon": -77.03259066666666, "bike_id": "0a1fda3798cd34a4801a3034fe9289d3", "lat": 38.903745666666666, "fusion_lon": 0.0, "fusion_lat": 0.0, "type": "electric_scooter", "name": "0a1fda3798cd34a4801a3034fe9289d3", "is_disabled": 0, "rental_uris": {"ios": "https://dc.lft.to/lastmile_qr_scan", "android": "https://dc.lft.to/lastmile_qr_scan"}, "is_reserved": 0}, {"lon": -77.02838916666667, "bike_id": "dd64d4ba8ad92a3c40de968e050d7d30", "lat": 38.887677, "fusion_lon": 0.0, "fusion_lat": 0.0, "type": "electric_scooter", "name": "dd64d4ba8ad92a3c40de968e050d7d30", "is_disabled": 0, "rental_uris": {"ios": "https://dc.lft.to/lastmile_qr_scan", "android": "https://dc.lft.to/lastmile_qr_scan"}, "is_reserved": 0}, {"lon": -77.23321633333333, "bike_id": "34deb4665ca114d8cb35323264e092ae", "lat": 38.8728115, "fusion_lon": 0.0, "fusion_lat": 0.0, "type": "electric_bike", "name": "34deb4665ca114d8cb35323264e092ae", "is_disabled": 0, "rental_uris": {"ios": "https://dc.lft.to/lastmile_qr_scan", "android": "https://dc.lft.to/lastmile_qr_scan"}, "is_reserved": 0}, {"lon": -77.01858183333333, "bike_id": "de531f9817a752f5469cfdb1e57ccc03", "lat": 38.92026166666667, "fusion_lon": 0.0, "fusion_lat": 0.0, "type": "electric_scooter", "name": "de531f9817a752f5469cfdb1e57ccc03", "is_disabled": 0, "rental_uris": {"ios": "https://dc.lft.to/lastmile_qr_scan", "android": "https://dc.lft.to/lastmile_qr_scan"}, "is_reserved": 0}, {"lon": -76.94998, "bike_id": "7ec986ab0647c9dcff2599d44cc6554a", "lat": 38.8937855, "fusion_lon": 0.0, "fusion_lat": 0.0, "type": "electric_scooter", "name": "7ec986ab0647c9dcff2599d44cc6554a", "is_disabled": 0, "rental_uris": {"ios": "https://dc.lft.to/lastmile_qr_scan", "android": "https://dc.lft.to/lastmile_qr_scan"}, "is_reserved": 0}, {"lon": -77.01635766666666, "bike_id": "f6ce4be7f8ff116ff51048d8e214e0f5", "lat": 38.928960000000004, "fusion_lon": 0.0, "fusion_lat": 0.0, "type": "electric_scooter", "name": "f6ce4be7f8ff116ff51048d8e214e0f5", "is_disabled": 0, "rental_uris": {"ios": "https://dc.lft.to/lastmile_qr_scan", "android": "https://dc.lft.to/lastmile_qr_scan"}, "is_reserved": 0}, {"lon": -76.9954265, "bike_id": "ae2312702fbd94d2f1f65c5035e3d3d9", "lat": 38.9267375, "fusion_lon": 0.0, "fusion_lat": 0.0, "type": "electric_scooter", "name": "ae2312702fbd94d2f1f65c5035e3d3d9", "is_disabled": 0, "rental_uris": {"ios": "https://dc.lft.to/lastmile_qr_scan", "android": "https://dc.lft.to/lastmile_qr_scan"}, "is_reserved": 0}, {"lon": -76.99545066666667, "bike_id": "d9bebf4f18da98b37e6432c5f2cfc79f", "lat": 38.862578166666665, "fusion_lon": 0.0, "fusion_lat": 0.0, "type": "electric_scooter", "name": "d9bebf4f18da98b37e6432c5f2cfc79f", "is_disabled": 0, "rental_uris": {"ios": "https://dc.lft.to/lastmile_qr_scan", "android": "https://dc.lft.to/lastmile_qr_scan"}, "is_reserved": 0}, {"lon": -77.02351983333334, "bike_id": "3ab6223d01e2af1237ab861024578206", "lat": 38.93536366666667, "fusion_lon": 0.0, "fusion_lat": 0.0, "type": "electric_scooter", "name": "3ab6223d01e2af1237ab861024578206", "is_disabled": 0, "rental_uris": {"ios": "https://dc.lft.to/lastmile_qr_scan", "android": "https://dc.lft.to/lastmile_qr_scan"}, "is_reserved": 0}, {"lon": -76.93733833333333, "bike_id": "cc58555b9bee9098fc6e49be9bc79b30", "lat": 38.89003066666667, "fusion_lon": 0.0, "fusion_lat": 0.0, "type": "electric_scooter", "name": "cc58555b9bee9098fc6e49be9bc79b30", "is_disabled": 0, "rental_uris": {"ios": "https://dc.lft.to/lastmile_qr_scan", "android": "https://dc.lft.to/lastmile_qr_scan"}, "is_reserved": 0}, {"lon": -77.02617783333334, "bike_id": "cf45659c0044bb7723317979148186e6", "lat": 38.896197666666666, "fusion_lon": 0.0, "fusion_lat": 0.0, "type": "electric_scooter", "name": "cf45659c0044bb7723317979148186e6", "is_disabled": 0, "rental_uris": {"ios": "https://dc.lft.to/lastmile_qr_scan", "android": "https://dc.lft.to/lastmile_qr_scan"}, "is_reserved": 0}, {"lon": -77.02993116666667, "bike_id": "ac34239707eb6c27d8b235d380275d42", "lat": 38.9246575, "fusion_lon": 0.0, "fusion_lat": 0.0, "type": "electric_scooter", "name": "ac34239707eb6c27d8b235d380275d42", "is_disabled": 0, "rental_uris": {"ios": "https://dc.lft.to/lastmile_qr_scan", "android": "https://dc.lft.to/lastmile_qr_scan"}, "is_reserved": 0}, {"lon": -77.02804016666667, "bike_id": "c76455ff1350f8dadef1d75c98721afc", "lat": 38.91098566666667, "fusion_lon": 0.0, "fusion_lat": 0.0, "type": "electric_scooter", "name": "c76455ff1350f8dadef1d75c98721afc", "is_disabled": 0, "rental_uris": {"ios": "https://dc.lft.to/lastmile_qr_scan", "android": "https://dc.lft.to/lastmile_qr_scan"}, "is_reserved": 0}, {"lon": -76.9313225, "bike_id": "a7bce0a1346bc8f2b15a9c7d08ac2c9b", "lat": 38.876085333333336, "fusion_lon": 0.0, "fusion_lat": 0.0, "type": "electric_scooter", "name": "a7bce0a1346bc8f2b15a9c7d08ac2c9b", "is_disabled": 0, "rental_uris": {"ios": "https://dc.lft.to/lastmile_qr_scan", "android": "https://dc.lft.to/lastmile_qr_scan"}, "is_reserved": 0}, {"lon": -77.03162883333333, "bike_id": "e2cc79a5ea314940357886ed15e016f3", "lat": 38.892146, "fusion_lon": 0.0, "fusion_lat": 0.0, "type": "electric_scooter", "name": "e2cc79a5ea314940357886ed15e016f3", "is_disabled": 0, "rental_uris": {"ios": "https://dc.lft.to/lastmile_qr_scan", "android": "https://dc.lft.to/lastmile_qr_scan"}, "is_reserved": 0}, {"lon": -77.05440983333334, "bike_id": "cab8bc90bcc4b6b7b121a66356f247bf", "lat": 38.928628833333335, "fusion_lon": 0.0, "fusion_lat": 0.0, "type": "electric_scooter", "name": "cab8bc90bcc4b6b7b121a66356f247bf", "is_disabled": 0, "rental_uris": {"ios": "https://dc.lft.to/lastmile_qr_scan", "android": "https://dc.lft.to/lastmile_qr_scan"}, "is_reserved": 0}, {"lon": -77.04907916666667, "bike_id": "520eb04776a48cf12c776fc982ef6305", "lat": 38.9034705, "fusion_lon": 0.0, "fusion_lat": 0.0, "type": "electric_scooter", "name": "520eb04776a48cf12c776fc982ef6305", "is_disabled": 0, "rental_uris": {"ios": "https://dc.lft.to/lastmile_qr_scan", "android": "https://dc.lft.to/lastmile_qr_scan"}, "is_reserved": 0}, {"lon": -77.05920266666666, "bike_id": "71660a418df1b09c7d73a1ba8e090cf5", "lat": 38.90384433333333, "fusion_lon": 0.0, "fusion_lat": 0.0, "type": "electric_scooter", "name": "71660a418df1b09c7d73a1ba8e090cf5", "is_disabled": 0, "rental_uris": {"ios": "https://dc.lft.to/lastmile_qr_scan", "android": "https://dc.lft.to/lastmile_qr_scan"}, "is_reserved": 0}, {"lon": -77.01849933333334, "bike_id": "c7c93a44ba9c5053411aa1032f0d56c7", "lat": 38.9126645, "fusion_lon": 0.0, "fusion_lat": 0.0, "type": "electric_scooter", "name": "c7c93a44ba9c5053411aa1032f0d56c7", "is_disabled": 0, "rental_uris": {"ios": "https://dc.lft.to/lastmile_qr_scan", "android": "https://dc.lft.to/lastmile_qr_scan"}, "is_reserved": 0}, {"lon": -77.04402666666667, "bike_id": "7b471a340f73f2dcd368257a65d50f56", "lat": 38.92101616666667, "fusion_lon": 0.0, "fusion_lat": 0.0, "type": "electric_scooter", "name": "7b471a340f73f2dcd368257a65d50f56", "is_disabled": 0, "rental_uris": {"ios": "https://dc.lft.to/lastmile_qr_scan", "android": "https://dc.lft.to/lastmile_qr_scan"}, "is_reserved": 0}, {"lon": -77.0148195, "bike_id": "7e8190e7d236f98dd8a02ca3fae304a6", "lat": 38.95868566666667, "fusion_lon": 0.0, "fusion_lat": 0.0, "type": "electric_scooter", "name": "7e8190e7d236f98dd8a02ca3fae304a6", "is_disabled": 0, "rental_uris": {"ios": "https://dc.lft.to/lastmile_qr_scan", "android": "https://dc.lft.to/lastmile_qr_scan"}, "is_reserved": 0}, {"lon": -77.11578366666667, "bike_id": "6216378d7da60b859f08562f879f596f", "lat": 38.993453333333335, "fusion_lon": 0.0, "fusion_lat": 0.0, "type": "electric_bike", "name": "6216378d7da60b859f08562f879f596f", "is_disabled": 0, "rental_uris": {"ios": "https://dc.lft.to/lastmile_qr_scan", "android": "https://dc.lft.to/lastmile_qr_scan"}, "is_reserved": 0}, {"lon": -77.02610016666667, "bike_id": "378669f58ea123f1f8201a703e1a88cc", "lat": 38.92984416666667, "fusion_lon": 0.0, "fusion_lat": 0.0, "type": "electric_scooter", "name": "378669f58ea123f1f8201a703e1a88cc", "is_disabled": 0, "rental_uris": {"ios": "https://dc.lft.to/lastmile_qr_scan", "android": "https://dc.lft.to/lastmile_qr_scan"}, "is_reserved": 0}, {"lon": -76.9802015, "bike_id": "f69c92fca2d6b8180384636329246ead", "lat": 38.8886205, "fusion_lon": 0.0, "fusion_lat": 0.0, "type": "electric_scooter", "name": "f69c92fca2d6b8180384636329246ead", "is_disabled": 0, "rental_uris": {"ios": "https://dc.lft.to/lastmile_qr_scan", "android": "https://dc.lft.to/lastmile_qr_scan"}, "is_reserved": 0}, {"lon": -77.03123733333334, "bike_id": "da18109d454ea4a046d6668cfc1cfbf0", "lat": 38.90429, "fusion_lon": 0.0, "fusion_lat": 0.0, "type": "electric_scooter", "name": "da18109d454ea4a046d6668cfc1cfbf0", "is_disabled": 0, "rental_uris": {"ios": "https://dc.lft.to/lastmile_qr_scan", "android": "https://dc.lft.to/lastmile_qr_scan"}, "is_reserved": 0}, {"lon": -77.13900866666667, "bike_id": "54ec832451cefe8f9ec80a49cc7e4aca", "lat": 38.89673883333333, "fusion_lon": 0.0, "fusion_lat": 0.0, "type": "electric_bike", "name": "54ec832451cefe8f9ec80a49cc7e4aca", "is_disabled": 0, "rental_uris": {"ios": "https://dc.lft.to/lastmile_qr_scan", "android": "https://dc.lft.to/lastmile_qr_scan"}, "is_reserved": 0}, {"lon": -77.05384783333334, "bike_id": "c4ad9ceaab7b09a1390d1689f7b0cd8b", "lat": 38.92727566666667, "fusion_lon": 0.0, "fusion_lat": 0.0, "type": "electric_scooter", "name": "c4ad9ceaab7b09a1390d1689f7b0cd8b", "is_disabled": 0, "rental_uris": {"ios": "https://dc.lft.to/lastmile_qr_scan", "android": "https://dc.lft.to/lastmile_qr_scan"}, "is_reserved": 0}, {"lon": -77.0302955, "bike_id": "57e2e8905355ba9312a7ae4d9039cf34", "lat": 38.8982115, "fusion_lon": 0.0, "fusion_lat": 0.0, "type": "electric_scooter", "name": "57e2e8905355ba9312a7ae4d9039cf34", "is_disabled": 0, "rental_uris": {"ios": "https://dc.lft.to/lastmile_qr_scan", "android": "https://dc.lft.to/lastmile_qr_scan"}, "is_reserved": 0}, {"lon": -77.013661, "bike_id": "4a0e773fbfb3ec166f45fda5eda91b48", "lat": 38.88702466666667, "fusion_lon": 0.0, "fusion_lat": 0.0, "type": "electric_scooter", "name": "4a0e773fbfb3ec166f45fda5eda91b48", "is_disabled": 0, "rental_uris": {"ios": "https://dc.lft.to/lastmile_qr_scan", "android": "https://dc.lft.to/lastmile_qr_scan"}, "is_reserved": 0}, {"lon": -77.02583583333333, "bike_id": "5399af05c3bc6f4a5e0edd86021b904e", "lat": 38.92731216666667, "fusion_lon": 0.0, "fusion_lat": 0.0, "type": "electric_scooter", "name": "5399af05c3bc6f4a5e0edd86021b904e", "is_disabled": 0, "rental_uris": {"ios": "https://dc.lft.to/lastmile_qr_scan", "android": "https://dc.lft.to/lastmile_qr_scan"}, "is_reserved": 0}, {"lon": -77.04602516666667, "bike_id": "952ab23cfdd00b761aa9978513428508", "lat": 38.9160845, "fusion_lon": 0.0, "fusion_lat": 0.0, "type": "electric_scooter", "name": "952ab23cfdd00b761aa9978513428508", "is_disabled": 0, "rental_uris": {"ios": "https://dc.lft.to/lastmile_qr_scan", "android": "https://dc.lft.to/lastmile_qr_scan"}, "is_reserved": 0}, {"lon": -77.0240075, "bike_id": "2ef863aa0dfef27105695a19a9956f9f", "lat": 38.919997, "fusion_lon": 0.0, "fusion_lat": 0.0, "type": "electric_scooter", "name": "2ef863aa0dfef27105695a19a9956f9f", "is_disabled": 0, "rental_uris": {"ios": "https://dc.lft.to/lastmile_qr_scan", "android": "https://dc.lft.to/lastmile_qr_scan"}, "is_reserved": 0}, {"lon": -77.02942233333333, "bike_id": "7b7fd2da7a9d5ade013b84195abbd530", "lat": 38.89845666666667, "fusion_lon": 0.0, "fusion_lat": 0.0, "type": "electric_scooter", "name": "7b7fd2da7a9d5ade013b84195abbd530", "is_disabled": 0, "rental_uris": {"ios": "https://dc.lft.to/lastmile_qr_scan", "android": "https://dc.lft.to/lastmile_qr_scan"}, "is_reserved": 0}, {"lon": -77.019616, "bike_id": "032e9d01db271224a17222f31a2a6ff6", "lat": 38.95227383333334, "fusion_lon": 0.0, "fusion_lat": 0.0, "type": "electric_scooter", "name": "032e9d01db271224a17222f31a2a6ff6", "is_disabled": 0, "rental_uris": {"ios": "https://dc.lft.to/lastmile_qr_scan", "android": "https://dc.lft.to/lastmile_qr_scan"}, "is_reserved": 0}, {"lon": -77.00555666666666, "bike_id": "cdb722c69cabecc01c3bf6fb5d112a7d", "lat": 38.87470116666667, "fusion_lon": 0.0, "fusion_lat": 0.0, "type": "electric_scooter", "name": "cdb722c69cabecc01c3bf6fb5d112a7d", "is_disabled": 0, "rental_uris": {"ios": "https://dc.lft.to/lastmile_qr_scan", "android": "https://dc.lft.to/lastmile_qr_scan"}, "is_reserved": 0}, {"lon": -77.007591, "bike_id": "78e15536df57a2549f4a65c6a40a144e", "lat": 38.87657033333333, "fusion_lon": 0.0, "fusion_lat": 0.0, "type": "electric_scooter", "name": "78e15536df57a2549f4a65c6a40a144e", "is_disabled": 0, "rental_uris": {"ios": "https://dc.lft.to/lastmile_qr_scan", "android": "https://dc.lft.to/lastmile_qr_scan"}, "is_reserved": 0}, {"lon": -76.98820616666667, "bike_id": "a01f56b00702795f3e90647f514686ee", "lat": 38.890753333333336, "fusion_lon": 0.0, "fusion_lat": 0.0, "type": "electric_scooter", "name": "a01f56b00702795f3e90647f514686ee", "is_disabled": 0, "rental_uris": {"ios": "https://dc.lft.to/lastmile_qr_scan", "android": "https://dc.lft.to/lastmile_qr_scan"}, "is_reserved": 0}, {"lon": -76.99593916666667, "bike_id": "f791f8ac2e328bd4eca6867b1aea7b49", "lat": 38.856988333333334, "fusion_lon": 0.0, "fusion_lat": 0.0, "type": "electric_scooter", "name": "f791f8ac2e328bd4eca6867b1aea7b49", "is_disabled": 0, "rental_uris": {"ios": "https://dc.lft.to/lastmile_qr_scan", "android": "https://dc.lft.to/lastmile_qr_scan"}, "is_reserved": 0}, {"lon": -76.98727066666666, "bike_id": "a69b5f71acd5cdae679bdf877dc46702", "lat": 38.867092166666666, "fusion_lon": 0.0, "fusion_lat": 0.0, "type": "electric_scooter", "name": "a69b5f71acd5cdae679bdf877dc46702", "is_disabled": 0, "rental_uris": {"ios": "https://dc.lft.to/lastmile_qr_scan", "android": "https://dc.lft.to/lastmile_qr_scan"}, "is_reserved": 0}, {"lon": -76.99174083333334, "bike_id": "a73adca5ba62b32f69a2b390ec1678a3", "lat": 38.905006166666666, "fusion_lon": 0.0, "fusion_lat": 0.0, "type": "electric_scooter", "name": "a73adca5ba62b32f69a2b390ec1678a3", "is_disabled": 0, "rental_uris": {"ios": "https://dc.lft.to/lastmile_qr_scan", "android": "https://dc.lft.to/lastmile_qr_scan"}, "is_reserved": 0}, {"lon": -77.106024, "bike_id": "59e14c64eca095a4bd85d75641e741a4", "lat": 38.928926, "fusion_lon": 0.0, "fusion_lat": 0.0, "type": "electric_bike", "name": "59e14c64eca095a4bd85d75641e741a4", "is_disabled": 0, "rental_uris": {"ios": "https://dc.lft.to/lastmile_qr_scan", "android": "https://dc.lft.to/lastmile_qr_scan"}, "is_reserved": 0}, {"lon": -77.0312425, "bike_id": "e9fbd596c294d9fc4d6b9000c4e818c4", "lat": 38.9170215, "fusion_lon": 0.0, "fusion_lat": 0.0, "type": "electric_scooter", "name": "e9fbd596c294d9fc4d6b9000c4e818c4", "is_disabled": 0, "rental_uris": {"ios": "https://dc.lft.to/lastmile_qr_scan", "android": "https://dc.lft.to/lastmile_qr_scan"}, "is_reserved": 0}, {"lon": -77.03195283333334, "bike_id": "6e92f74f4fe246ce198235561b6d670c", "lat": 38.920776333333336, "fusion_lon": 0.0, "fusion_lat": 0.0, "type": "electric_scooter", "name": "6e92f74f4fe246ce198235561b6d670c", "is_disabled": 0, "rental_uris": {"ios": "https://dc.lft.to/lastmile_qr_scan", "android": "https://dc.lft.to/lastmile_qr_scan"}, "is_reserved": 0}, {"lon": -77.0298385, "bike_id": "773fffb5abd5f464ec45697b6c941975", "lat": 38.94740083333333, "fusion_lon": 0.0, "fusion_lat": 0.0, "type": "electric_scooter", "name": "773fffb5abd5f464ec45697b6c941975", "is_disabled": 0, "rental_uris": {"ios": "https://dc.lft.to/lastmile_qr_scan", "android": "https://dc.lft.to/lastmile_qr_scan"}, "is_reserved": 0}, {"lon": -76.98595416666667, "bike_id": "ca906055d02a84f0d9b607e27295d3c5", "lat": 38.860617166666664, "fusion_lon": 0.0, "fusion_lat": 0.0, "type": "electric_scooter", "name": "ca906055d02a84f0d9b607e27295d3c5", "is_disabled": 0, "rental_uris": {"ios": "https://dc.lft.to/lastmile_qr_scan", "android": "https://dc.lft.to/lastmile_qr_scan"}, "is_reserved": 0}, {"lon": -77.04412433333333, "bike_id": "d946c32d6523038b96324d87ec9ecfc7", "lat": 38.9341925, "fusion_lon": 0.0, "fusion_lat": 0.0, "type": "electric_scooter", "name": "d946c32d6523038b96324d87ec9ecfc7", "is_disabled": 0, "rental_uris": {"ios": "https://dc.lft.to/lastmile_qr_scan", "android": "https://dc.lft.to/lastmile_qr_scan"}, "is_reserved": 0}, {"lon": -77.04706216666666, "bike_id": "e2d3a3108f6e51015952fa020f9a1027", "lat": 38.9212065, "fusion_lon": 0.0, "fusion_lat": 0.0, "type": "electric_scooter", "name": "e2d3a3108f6e51015952fa020f9a1027", "is_disabled": 0, "rental_uris": {"ios": "https://dc.lft.to/lastmile_qr_scan", "android": "https://dc.lft.to/lastmile_qr_scan"}, "is_reserved": 0}, {"lon": -76.96154716666666, "bike_id": "d9c6252e98612e4a6c68fccbc1c739aa", "lat": 38.88359116666667, "fusion_lon": 0.0, "fusion_lat": 0.0, "type": "electric_scooter", "name": "d9c6252e98612e4a6c68fccbc1c739aa", "is_disabled": 0, "rental_uris": {"ios": "https://dc.lft.to/lastmile_qr_scan", "android": "https://dc.lft.to/lastmile_qr_scan"}, "is_reserved": 0}, {"lon": -76.985334, "bike_id": "29ae6f8ca1c8b421e5cd60648fbd7b2c", "lat": 38.91019283333333, "fusion_lon": 0.0, "fusion_lat": 0.0, "type": "electric_scooter", "name": "29ae6f8ca1c8b421e5cd60648fbd7b2c", "is_disabled": 0, "rental_uris": {"ios": "https://dc.lft.to/lastmile_qr_scan", "android": "https://dc.lft.to/lastmile_qr_scan"}, "is_reserved": 0}, {"lon": -77.02967483333333, "bike_id": "6097e227bc92f9b011b521cb86b5a109", "lat": 38.931892833333336, "fusion_lon": 0.0, "fusion_lat": 0.0, "type": "electric_scooter", "name": "6097e227bc92f9b011b521cb86b5a109", "is_disabled": 0, "rental_uris": {"ios": "https://dc.lft.to/lastmile_qr_scan", "android": "https://dc.lft.to/lastmile_qr_scan"}, "is_reserved": 0}, {"lon": -77.0340905, "bike_id": "817f1008bb0ea773232fbf4406c3d2c6", "lat": 38.93419866666667, "fusion_lon": 0.0, "fusion_lat": 0.0, "type": "electric_scooter", "name": "817f1008bb0ea773232fbf4406c3d2c6", "is_disabled": 0, "rental_uris": {"ios": "https://dc.lft.to/lastmile_qr_scan", "android": "https://dc.lft.to/lastmile_qr_scan"}, "is_reserved": 0}, {"lon": -77.03325383333333, "bike_id": "c7ebeefec4c28fd000104c322d45af4e", "lat": 38.93897583333333, "fusion_lon": 0.0, "fusion_lat": 0.0, "type": "electric_scooter", "name": "c7ebeefec4c28fd000104c322d45af4e", "is_disabled": 0, "rental_uris": {"ios": "https://dc.lft.to/lastmile_qr_scan", "android": "https://dc.lft.to/lastmile_qr_scan"}, "is_reserved": 0}, {"lon": -77.03866483333333, "bike_id": "722297202d0f0d6b8d6a216656d702f3", "lat": 38.91553916666667, "fusion_lon": 0.0, "fusion_lat": 0.0, "type": "electric_scooter", "name": "722297202d0f0d6b8d6a216656d702f3", "is_disabled": 0, "rental_uris": {"ios": "https://dc.lft.to/lastmile_qr_scan", "android": "https://dc.lft.to/lastmile_qr_scan"}, "is_reserved": 0}, {"lon": -77.04553766666666, "bike_id": "ab813a7147a6cb09273ed393b0b0822b", "lat": 38.93409, "fusion_lon": 0.0, "fusion_lat": 0.0, "type": "electric_scooter", "name": "ab813a7147a6cb09273ed393b0b0822b", "is_disabled": 0, "rental_uris": {"ios": "https://dc.lft.to/lastmile_qr_scan", "android": "https://dc.lft.to/lastmile_qr_scan"}, "is_reserved": 0}, {"lon": -77.02341016666666, "bike_id": "ad97cb64b58589593a20fcd951cb6ffa", "lat": 38.917647333333335, "fusion_lon": 0.0, "fusion_lat": 0.0, "type": "electric_scooter", "name": "ad97cb64b58589593a20fcd951cb6ffa", "is_disabled": 0, "rental_uris": {"ios": "https://dc.lft.to/lastmile_qr_scan", "android": "https://dc.lft.to/lastmile_qr_scan"}, "is_reserved": 0}, {"lon": -77.017582, "bike_id": "2eaa0450490bd20f6064f63ca43adf5e", "lat": 38.903992333333335, "fusion_lon": 0.0, "fusion_lat": 0.0, "type": "electric_scooter", "name": "2eaa0450490bd20f6064f63ca43adf5e", "is_disabled": 0, "rental_uris": {"ios": "https://dc.lft.to/lastmile_qr_scan", "android": "https://dc.lft.to/lastmile_qr_scan"}, "is_reserved": 0}, {"lon": -77.03355333333333, "bike_id": "5e43b384aa2869ff6f69287c99c44a36", "lat": 38.89848166666667, "fusion_lon": 0.0, "fusion_lat": 0.0, "type": "electric_scooter", "name": "5e43b384aa2869ff6f69287c99c44a36", "is_disabled": 0, "rental_uris": {"ios": "https://dc.lft.to/lastmile_qr_scan", "android": "https://dc.lft.to/lastmile_qr_scan"}, "is_reserved": 0}, {"lon": -77.02277783333334, "bike_id": "b3d2a0242ed2b2d619cca38e9e5dd647", "lat": 38.926861833333334, "fusion_lon": 0.0, "fusion_lat": 0.0, "type": "electric_scooter", "name": "b3d2a0242ed2b2d619cca38e9e5dd647", "is_disabled": 0, "rental_uris": {"ios": "https://dc.lft.to/lastmile_qr_scan", "android": "https://dc.lft.to/lastmile_qr_scan"}, "is_reserved": 0}, {"lon": -76.96218616666667, "bike_id": "1279c2832ecfb2a06e4b31d701cb8002", "lat": 38.87780583333333, "fusion_lon": 0.0, "fusion_lat": 0.0, "type": "electric_scooter", "name": "1279c2832ecfb2a06e4b31d701cb8002", "is_disabled": 0, "rental_uris": {"ios": "https://dc.lft.to/lastmile_qr_scan", "android": "https://dc.lft.to/lastmile_qr_scan"}, "is_reserved": 0}, {"lon": -77.07326966666666, "bike_id": "f5b5e72212b7e82fd4ffb7629dcd50b7", "lat": 38.913968833333335, "fusion_lon": 0.0, "fusion_lat": 0.0, "type": "electric_scooter", "name": "f5b5e72212b7e82fd4ffb7629dcd50b7", "is_disabled": 0, "rental_uris": {"ios": "https://dc.lft.to/lastmile_qr_scan", "android": "https://dc.lft.to/lastmile_qr_scan"}, "is_reserved": 0}, {"lon": -77.03364383333333, "bike_id": "d94fc7ffc83bdd8f15ffb2d5519578e9", "lat": 38.935315833333334, "fusion_lon": 0.0, "fusion_lat": 0.0, "type": "electric_scooter", "name": "d94fc7ffc83bdd8f15ffb2d5519578e9", "is_disabled": 0, "rental_uris": {"ios": "https://dc.lft.to/lastmile_qr_scan", "android": "https://dc.lft.to/lastmile_qr_scan"}, "is_reserved": 0}, {"lon": -77.04247416666666, "bike_id": "b472c454e9b541f62abd2fb8508b409a", "lat": 38.92426433333333, "fusion_lon": 0.0, "fusion_lat": 0.0, "type": "electric_scooter", "name": "b472c454e9b541f62abd2fb8508b409a", "is_disabled": 0, "rental_uris": {"ios": "https://dc.lft.to/lastmile_qr_scan", "android": "https://dc.lft.to/lastmile_qr_scan"}, "is_reserved": 0}, {"lon": -77.03863433333333, "bike_id": "5cf5bf61a44bf084fdb4ac83a70bd8bd", "lat": 38.912539833333334, "fusion_lon": 0.0, "fusion_lat": 0.0, "type": "electric_scooter", "name": "5cf5bf61a44bf084fdb4ac83a70bd8bd", "is_disabled": 0, "rental_uris": {"ios": "https://dc.lft.to/lastmile_qr_scan", "android": "https://dc.lft.to/lastmile_qr_scan"}, "is_reserved": 0}, {"lon": -77.0348155, "bike_id": "46e0e436c3881572e5ce69573483072d", "lat": 38.924724499999996, "fusion_lon": 0.0, "fusion_lat": 0.0, "type": "electric_scooter", "name": "46e0e436c3881572e5ce69573483072d", "is_disabled": 0, "rental_uris": {"ios": "https://dc.lft.to/lastmile_qr_scan", "android": "https://dc.lft.to/lastmile_qr_scan"}, "is_reserved": 0}, {"lon": -77.07802649999999, "bike_id": "78a81b48a25b47813f61f46140fff544", "lat": 38.923655333333336, "fusion_lon": 0.0, "fusion_lat": 0.0, "type": "electric_scooter", "name": "78a81b48a25b47813f61f46140fff544", "is_disabled": 0, "rental_uris": {"ios": "https://dc.lft.to/lastmile_qr_scan", "android": "https://dc.lft.to/lastmile_qr_scan"}, "is_reserved": 0}, {"lon": -77.02398716666667, "bike_id": "b3eb3743a8d7363e2c3995bce6b8ffb0", "lat": 38.957072333333336, "fusion_lon": 0.0, "fusion_lat": 0.0, "type": "electric_scooter", "name": "b3eb3743a8d7363e2c3995bce6b8ffb0", "is_disabled": 0, "rental_uris": {"ios": "https://dc.lft.to/lastmile_qr_scan", "android": "https://dc.lft.to/lastmile_qr_scan"}, "is_reserved": 0}, {"lon": -77.05347533333334, "bike_id": "9de39f4cded332de91f9f449d0c44e29", "lat": 38.92704583333333, "fusion_lon": 0.0, "fusion_lat": 0.0, "type": "electric_scooter", "name": "9de39f4cded332de91f9f449d0c44e29", "is_disabled": 0, "rental_uris": {"ios": "https://dc.lft.to/lastmile_qr_scan", "android": "https://dc.lft.to/lastmile_qr_scan"}, "is_reserved": 0}, {"lon": -77.02288666666666, "bike_id": "95eecb01dbf2a4780609ee44334f24fa", "lat": 38.908844, "fusion_lon": 0.0, "fusion_lat": 0.0, "type": "electric_scooter", "name": "95eecb01dbf2a4780609ee44334f24fa", "is_disabled": 0, "rental_uris": {"ios": "https://dc.lft.to/lastmile_qr_scan", "android": "https://dc.lft.to/lastmile_qr_scan"}, "is_reserved": 0}, {"lon": -77.00794933333333, "bike_id": "f2448068b2c2ea969446eb137146b8f1", "lat": 38.906490833333336, "fusion_lon": 0.0, "fusion_lat": 0.0, "type": "electric_scooter", "name": "f2448068b2c2ea969446eb137146b8f1", "is_disabled": 0, "rental_uris": {"ios": "https://dc.lft.to/lastmile_qr_scan", "android": "https://dc.lft.to/lastmile_qr_scan"}, "is_reserved": 0}, {"lon": -76.92756216666666, "bike_id": "3c9217e25f9da1e584cf82b88e6eace5", "lat": 38.8805025, "fusion_lon": 0.0, "fusion_lat": 0.0, "type": "electric_scooter", "name": "3c9217e25f9da1e584cf82b88e6eace5", "is_disabled": 0, "rental_uris": {"ios": "https://dc.lft.to/lastmile_qr_scan", "android": "https://dc.lft.to/lastmile_qr_scan"}, "is_reserved": 0}, {"lon": -77.005819, "bike_id": "792dc19c798edcbd47a0fd750f953813", "lat": 38.90628783333333, "fusion_lon": 0.0, "fusion_lat": 0.0, "type": "electric_scooter", "name": "792dc19c798edcbd47a0fd750f953813", "is_disabled": 0, "rental_uris": {"ios": "https://dc.lft.to/lastmile_qr_scan", "android": "https://dc.lft.to/lastmile_qr_scan"}, "is_reserved": 0}, {"lon": -77.0512995, "bike_id": "fdaaf4f920680ab920e4a3f1201500c1", "lat": 38.923569, "fusion_lon": 0.0, "fusion_lat": 0.0, "type": "electric_scooter", "name": "fdaaf4f920680ab920e4a3f1201500c1", "is_disabled": 0, "rental_uris": {"ios": "https://dc.lft.to/lastmile_qr_scan", "android": "https://dc.lft.to/lastmile_qr_scan"}, "is_reserved": 0}, {"lon": -77.02489333333334, "bike_id": "7523f7fe7646d993017238649d64eee5", "lat": 38.93861716666667, "fusion_lon": 0.0, "fusion_lat": 0.0, "type": "electric_scooter", "name": "7523f7fe7646d993017238649d64eee5", "is_disabled": 0, "rental_uris": {"ios": "https://dc.lft.to/lastmile_qr_scan", "android": "https://dc.lft.to/lastmile_qr_scan"}, "is_reserved": 0}, {"lon": -77.0526705, "bike_id": "2433e2602b56a77f2d6b69c50dbd98ea", "lat": 38.91009016666667, "fusion_lon": 0.0, "fusion_lat": 0.0, "type": "electric_scooter", "name": "2433e2602b56a77f2d6b69c50dbd98ea", "is_disabled": 0, "rental_uris": {"ios": "https://dc.lft.to/lastmile_qr_scan", "android": "https://dc.lft.to/lastmile_qr_scan"}, "is_reserved": 0}, {"lon": -77.043989, "bike_id": "81649fa1798141713c7b4835bbef0299", "lat": 38.933257833333336, "fusion_lon": 0.0, "fusion_lat": 0.0, "type": "electric_scooter", "name": "81649fa1798141713c7b4835bbef0299", "is_disabled": 0, "rental_uris": {"ios": "https://dc.lft.to/lastmile_qr_scan", "android": "https://dc.lft.to/lastmile_qr_scan"}, "is_reserved": 0}, {"lon": -77.02289766666667, "bike_id": "50c9909b7369b82cfe12af03927fded1", "lat": 38.94474566666667, "fusion_lon": 0.0, "fusion_lat": 0.0, "type": "electric_bike", "name": "50c9909b7369b82cfe12af03927fded1", "is_disabled": 0, "rental_uris": {"ios": "https://dc.lft.to/lastmile_qr_scan", "android": "https://dc.lft.to/lastmile_qr_scan"}, "is_reserved": 0}, {"lon": -77.10330033333334, "bike_id": "1d33df8ee10de6b048f445519db48c72", "lat": 38.874144666666666, "fusion_lon": 0.0, "fusion_lat": 0.0, "type": "electric_bike", "name": "1d33df8ee10de6b048f445519db48c72", "is_disabled": 0, "rental_uris": {"ios": "https://dc.lft.to/lastmile_qr_scan", "android": "https://dc.lft.to/lastmile_qr_scan"}, "is_reserved": 0}, {"lon": -77.02000766666667, "bike_id": "1ea26115ace626404735bb45905c911b", "lat": 38.913633833333336, "fusion_lon": 0.0, "fusion_lat": 0.0, "type": "electric_scooter", "name": "1ea26115ace626404735bb45905c911b", "is_disabled": 0, "rental_uris": {"ios": "https://dc.lft.to/lastmile_qr_scan", "android": "https://dc.lft.to/lastmile_qr_scan"}, "is_reserved": 0}, {"lon": -77.02415866666666, "bike_id": "7124404bbff0d53c2e8aeb3beb3ebdb5", "lat": 38.909665333333336, "fusion_lon": 0.0, "fusion_lat": 0.0, "type": "electric_scooter", "name": "7124404bbff0d53c2e8aeb3beb3ebdb5", "is_disabled": 0, "rental_uris": {"ios": "https://dc.lft.to/lastmile_qr_scan", "android": "https://dc.lft.to/lastmile_qr_scan"}, "is_reserved": 0}, {"lon": -77.0832815, "bike_id": "2119864f61083b9512a7aad024db3850", "lat": 38.92988783333333, "fusion_lon": 0.0, "fusion_lat": 0.0, "type": "electric_scooter", "name": "2119864f61083b9512a7aad024db3850", "is_disabled": 0, "rental_uris": {"ios": "https://dc.lft.to/lastmile_qr_scan", "android": "https://dc.lft.to/lastmile_qr_scan"}, "is_reserved": 0}, {"lon": -77.03454816666667, "bike_id": "b332aa653377e843daaca1a06943f2c1", "lat": 38.90896133333333, "fusion_lon": 0.0, "fusion_lat": 0.0, "type": "electric_scooter", "name": "b332aa653377e843daaca1a06943f2c1", "is_disabled": 0, "rental_uris": {"ios": "https://dc.lft.to/lastmile_qr_scan", "android": "https://dc.lft.to/lastmile_qr_scan"}, "is_reserved": 0}, {"lon": -77.0399355, "bike_id": "079e52ecf3a3686f95faafdc1d921021", "lat": 38.92456133333334, "fusion_lon": 0.0, "fusion_lat": 0.0, "type": "electric_scooter", "name": "079e52ecf3a3686f95faafdc1d921021", "is_disabled": 0, "rental_uris": {"ios": "https://dc.lft.to/lastmile_qr_scan", "android": "https://dc.lft.to/lastmile_qr_scan"}, "is_reserved": 0}, {"lon": -77.04465433333333, "bike_id": "2aef697bc6499eaf9e5c43a04d62aaa7", "lat": 38.9156005, "fusion_lon": 0.0, "fusion_lat": 0.0, "type": "electric_scooter", "name": "2aef697bc6499eaf9e5c43a04d62aaa7", "is_disabled": 0, "rental_uris": {"ios": "https://dc.lft.to/lastmile_qr_scan", "android": "https://dc.lft.to/lastmile_qr_scan"}, "is_reserved": 0}, {"lon": -77.12651283333334, "bike_id": "c66927ae97a57b61357b860faf1991ce", "lat": 38.815131666666666, "fusion_lon": 0.0, "fusion_lat": 0.0, "type": "electric_bike", "name": "c66927ae97a57b61357b860faf1991ce", "is_disabled": 0, "rental_uris": {"ios": "https://dc.lft.to/lastmile_qr_scan", "android": "https://dc.lft.to/lastmile_qr_scan"}, "is_reserved": 0}, {"lon": -77.036624, "bike_id": "b75e135a7d31b8a9b354fd0fbf8a53e8", "lat": 38.921232833333335, "fusion_lon": 0.0, "fusion_lat": 0.0, "type": "electric_scooter", "name": "b75e135a7d31b8a9b354fd0fbf8a53e8", "is_disabled": 0, "rental_uris": {"ios": "https://dc.lft.to/lastmile_qr_scan", "android": "https://dc.lft.to/lastmile_qr_scan"}, "is_reserved": 0}, {"lon": -77.02192933333333, "bike_id": "3e954ac654767b11ba3efbdf08f42014", "lat": 38.9100695, "fusion_lon": 0.0, "fusion_lat": 0.0, "type": "electric_scooter", "name": "3e954ac654767b11ba3efbdf08f42014", "is_disabled": 0, "rental_uris": {"ios": "https://dc.lft.to/lastmile_qr_scan", "android": "https://dc.lft.to/lastmile_qr_scan"}, "is_reserved": 0}, {"lon": -76.92735616666667, "bike_id": "630e2358e1e92e30165ab445b5c7ff30", "lat": 38.889649, "fusion_lon": 0.0, "fusion_lat": 0.0, "type": "electric_scooter", "name": "630e2358e1e92e30165ab445b5c7ff30", "is_disabled": 0, "rental_uris": {"ios": "https://dc.lft.to/lastmile_qr_scan", "android": "https://dc.lft.to/lastmile_qr_scan"}, "is_reserved": 0}, {"lon": -77.0215185, "bike_id": "5b2ee2577698c93fb9ec0ca17ead8d05", "lat": 38.9259775, "fusion_lon": 0.0, "fusion_lat": 0.0, "type": "electric_bike", "name": "5b2ee2577698c93fb9ec0ca17ead8d05", "is_disabled": 0, "rental_uris": {"ios": "https://dc.lft.to/lastmile_qr_scan", "android": "https://dc.lft.to/lastmile_qr_scan"}, "is_reserved": 0}, {"lon": -77.019017, "bike_id": "8f7aa63f2bcb02ab870e59512c9c7b13", "lat": 38.905031666666666, "fusion_lon": 0.0, "fusion_lat": 0.0, "type": "electric_scooter", "name": "8f7aa63f2bcb02ab870e59512c9c7b13", "is_disabled": 0, "rental_uris": {"ios": "https://dc.lft.to/lastmile_qr_scan", "android": "https://dc.lft.to/lastmile_qr_scan"}, "is_reserved": 0}, {"lon": -77.01427066666666, "bike_id": "1b6ec914d34f9829c9c27d64d9415c1c", "lat": 38.87654233333333, "fusion_lon": 0.0, "fusion_lat": 0.0, "type": "electric_scooter", "name": "1b6ec914d34f9829c9c27d64d9415c1c", "is_disabled": 0, "rental_uris": {"ios": "https://dc.lft.to/lastmile_qr_scan", "android": "https://dc.lft.to/lastmile_qr_scan"}, "is_reserved": 0}, {"lon": -76.98551583333334, "bike_id": "c892f037467f38202851e72fb783c175", "lat": 38.920054, "fusion_lon": 0.0, "fusion_lat": 0.0, "type": "electric_scooter", "name": "c892f037467f38202851e72fb783c175", "is_disabled": 0, "rental_uris": {"ios": "https://dc.lft.to/lastmile_qr_scan", "android": "https://dc.lft.to/lastmile_qr_scan"}, "is_reserved": 0}, {"lon": -76.93349616666667, "bike_id": "b2d186b5cf53ba387701742f33f5edbd", "lat": 38.89902883333333, "fusion_lon": 0.0, "fusion_lat": 0.0, "type": "electric_scooter", "name": "b2d186b5cf53ba387701742f33f5edbd", "is_disabled": 0, "rental_uris": {"ios": "https://dc.lft.to/lastmile_qr_scan", "android": "https://dc.lft.to/lastmile_qr_scan"}, "is_reserved": 0}, {"lon": -76.98287416666666, "bike_id": "b88d9a64923c7c80b2d124747830394e", "lat": 38.90042616666667, "fusion_lon": 0.0, "fusion_lat": 0.0, "type": "electric_scooter", "name": "b88d9a64923c7c80b2d124747830394e", "is_disabled": 0, "rental_uris": {"ios": "https://dc.lft.to/lastmile_qr_scan", "android": "https://dc.lft.to/lastmile_qr_scan"}, "is_reserved": 0}, {"lon": -77.051286, "bike_id": "ad461e5eaf3f091516a084f7b4a7e470", "lat": 38.923607, "fusion_lon": 0.0, "fusion_lat": 0.0, "type": "electric_scooter", "name": "ad461e5eaf3f091516a084f7b4a7e470", "is_disabled": 0, "rental_uris": {"ios": "https://dc.lft.to/lastmile_qr_scan", "android": "https://dc.lft.to/lastmile_qr_scan"}, "is_reserved": 0}, {"lon": -77.051744, "bike_id": "f6d70622b44245ffd34589dabab8f11e", "lat": 38.92341733333333, "fusion_lon": 0.0, "fusion_lat": 0.0, "type": "electric_scooter", "name": "f6d70622b44245ffd34589dabab8f11e", "is_disabled": 0, "rental_uris": {"ios": "https://dc.lft.to/lastmile_qr_scan", "android": "https://dc.lft.to/lastmile_qr_scan"}, "is_reserved": 0}, {"lon": -77.02169783333333, "bike_id": "d3ec618572aba5060c24ed08a549f7fc", "lat": 38.88741683333333, "fusion_lon": 0.0, "fusion_lat": 0.0, "type": "electric_scooter", "name": "d3ec618572aba5060c24ed08a549f7fc", "is_disabled": 0, "rental_uris": {"ios": "https://dc.lft.to/lastmile_qr_scan", "android": "https://dc.lft.to/lastmile_qr_scan"}, "is_reserved": 0}, {"lon": -76.98601733333334, "bike_id": "d8e56ecf6ea7869c5b6ac9151cec59e7", "lat": 38.90620333333333, "fusion_lon": 0.0, "fusion_lat": 0.0, "type": "electric_bike", "name": "d8e56ecf6ea7869c5b6ac9151cec59e7", "is_disabled": 0, "rental_uris": {"ios": "https://dc.lft.to/lastmile_qr_scan", "android": "https://dc.lft.to/lastmile_qr_scan"}, "is_reserved": 0}, {"lon": -76.98876516666667, "bike_id": "fc8d0cb68cd884283a47a6c531baacc7", "lat": 38.86659133333333, "fusion_lon": 0.0, "fusion_lat": 0.0, "type": "electric_scooter", "name": "fc8d0cb68cd884283a47a6c531baacc7", "is_disabled": 0, "rental_uris": {"ios": "https://dc.lft.to/lastmile_qr_scan", "android": "https://dc.lft.to/lastmile_qr_scan"}, "is_reserved": 0}, {"lon": -77.02301, "bike_id": "fe577ec9acf4609a9a166eb3d808bec3", "lat": 38.940887000000004, "fusion_lon": 0.0, "fusion_lat": 0.0, "type": "electric_scooter", "name": "fe577ec9acf4609a9a166eb3d808bec3", "is_disabled": 0, "rental_uris": {"ios": "https://dc.lft.to/lastmile_qr_scan", "android": "https://dc.lft.to/lastmile_qr_scan"}, "is_reserved": 0}, {"lon": -77.049297, "bike_id": "2aecee8924a9e133e747f58310dfbfc9", "lat": 39.029328, "fusion_lon": 0.0, "fusion_lat": 0.0, "type": "electric_bike", "name": "2aecee8924a9e133e747f58310dfbfc9", "is_disabled": 0, "rental_uris": {"ios": "https://dc.lft.to/lastmile_qr_scan", "android": "https://dc.lft.to/lastmile_qr_scan"}, "is_reserved": 0}, {"lon": -77.0239685, "bike_id": "3d151fa5eedb55dfe9f4ad746f347431", "lat": 38.919939166666666, "fusion_lon": 0.0, "fusion_lat": 0.0, "type": "electric_scooter", "name": "3d151fa5eedb55dfe9f4ad746f347431", "is_disabled": 0, "rental_uris": {"ios": "https://dc.lft.to/lastmile_qr_scan", "android": "https://dc.lft.to/lastmile_qr_scan"}, "is_reserved": 0}, {"lon": -77.039964, "bike_id": "60b136008ec7f9c521c255bfd98edb0d", "lat": 38.9245365, "fusion_lon": 0.0, "fusion_lat": 0.0, "type": "electric_scooter", "name": "60b136008ec7f9c521c255bfd98edb0d", "is_disabled": 0, "rental_uris": {"ios": "https://dc.lft.to/lastmile_qr_scan", "android": "https://dc.lft.to/lastmile_qr_scan"}, "is_reserved": 0}, {"lon": -77.012232, "bike_id": "0f74176a4160522bf0edd4eef1807482", "lat": 38.890275, "fusion_lon": 0.0, "fusion_lat": 0.0, "type": "electric_scooter", "name": "0f74176a4160522bf0edd4eef1807482", "is_disabled": 0, "rental_uris": {"ios": "https://dc.lft.to/lastmile_qr_scan", "android": "https://dc.lft.to/lastmile_qr_scan"}, "is_reserved": 0}, {"lon": -77.02161033333333, "bike_id": "0ae3ac04f95a16b1ab239ec14407c22e", "lat": 38.892209, "fusion_lon": 0.0, "fusion_lat": 0.0, "type": "electric_scooter", "name": "0ae3ac04f95a16b1ab239ec14407c22e", "is_disabled": 0, "rental_uris": {"ios": "https://dc.lft.to/lastmile_qr_scan", "android": "https://dc.lft.to/lastmile_qr_scan"}, "is_reserved": 0}, {"lon": -77.0260125, "bike_id": "0339f29780f1345db1138ae55a69c0a6", "lat": 38.92653583333333, "fusion_lon": 0.0, "fusion_lat": 0.0, "type": "electric_scooter", "name": "0339f29780f1345db1138ae55a69c0a6", "is_disabled": 0, "rental_uris": {"ios": "https://dc.lft.to/lastmile_qr_scan", "android": "https://dc.lft.to/lastmile_qr_scan"}, "is_reserved": 0}, {"lon": -77.04653133333333, "bike_id": "ac3711e812b930e29102c737263cd18b", "lat": 38.903274333333336, "fusion_lon": 0.0, "fusion_lat": 0.0, "type": "electric_scooter", "name": "ac3711e812b930e29102c737263cd18b", "is_disabled": 0, "rental_uris": {"ios": "https://dc.lft.to/lastmile_qr_scan", "android": "https://dc.lft.to/lastmile_qr_scan"}, "is_reserved": 0}, {"lon": -77.00378133333334, "bike_id": "9fdfaca2a9eca2a02ac8fcaf0269bafb", "lat": 38.905942, "fusion_lon": 0.0, "fusion_lat": 0.0, "type": "electric_scooter", "name": "9fdfaca2a9eca2a02ac8fcaf0269bafb", "is_disabled": 0, "rental_uris": {"ios": "https://dc.lft.to/lastmile_qr_scan", "android": "https://dc.lft.to/lastmile_qr_scan"}, "is_reserved": 0}, {"lon": -77.04818916666666, "bike_id": "5b8a851a3b6cb58ec54089371af3c613", "lat": 38.91327783333333, "fusion_lon": 0.0, "fusion_lat": 0.0, "type": "electric_scooter", "name": "5b8a851a3b6cb58ec54089371af3c613", "is_disabled": 0, "rental_uris": {"ios": "https://dc.lft.to/lastmile_qr_scan", "android": "https://dc.lft.to/lastmile_qr_scan"}, "is_reserved": 0}, {"lon": -77.0238865, "bike_id": "65b1709da366a424fd939691be9960c8", "lat": 38.93483, "fusion_lon": 0.0, "fusion_lat": 0.0, "type": "electric_scooter", "name": "65b1709da366a424fd939691be9960c8", "is_disabled": 0, "rental_uris": {"ios": "https://dc.lft.to/lastmile_qr_scan", "android": "https://dc.lft.to/lastmile_qr_scan"}, "is_reserved": 0}, {"lon": -77.0242695, "bike_id": "630852ca142a5c7c757b132223faad4e", "lat": 38.9140265, "fusion_lon": 0.0, "fusion_lat": 0.0, "type": "electric_scooter", "name": "630852ca142a5c7c757b132223faad4e", "is_disabled": 0, "rental_uris": {"ios": "https://dc.lft.to/lastmile_qr_scan", "android": "https://dc.lft.to/lastmile_qr_scan"}, "is_reserved": 0}, {"lon": -77.03372616666667, "bike_id": "4e76f047538779668eb42ca78c85b90c", "lat": 38.93837766666667, "fusion_lon": 0.0, "fusion_lat": 0.0, "type": "electric_scooter", "name": "4e76f047538779668eb42ca78c85b90c", "is_disabled": 0, "rental_uris": {"ios": "https://dc.lft.to/lastmile_qr_scan", "android": "https://dc.lft.to/lastmile_qr_scan"}, "is_reserved": 0}, {"lon": -76.9864945, "bike_id": "b6b2b0afdfb5910b1f7a0f06dad0982d", "lat": 38.86739, "fusion_lon": 0.0, "fusion_lat": 0.0, "type": "electric_scooter", "name": "b6b2b0afdfb5910b1f7a0f06dad0982d", "is_disabled": 0, "rental_uris": {"ios": "https://dc.lft.to/lastmile_qr_scan", "android": "https://dc.lft.to/lastmile_qr_scan"}, "is_reserved": 0}, {"lon": -77.00556366666666, "bike_id": "c58ece8de8dc668d0983c8bb0c7f33f5", "lat": 38.874678333333335, "fusion_lon": 0.0, "fusion_lat": 0.0, "type": "electric_scooter", "name": "c58ece8de8dc668d0983c8bb0c7f33f5", "is_disabled": 0, "rental_uris": {"ios": "https://dc.lft.to/lastmile_qr_scan", "android": "https://dc.lft.to/lastmile_qr_scan"}, "is_reserved": 0}, {"lon": -77.0344725, "bike_id": "ea444903b0babc5ded6447298386206d", "lat": 38.934347333333335, "fusion_lon": 0.0, "fusion_lat": 0.0, "type": "electric_scooter", "name": "ea444903b0babc5ded6447298386206d", "is_disabled": 0, "rental_uris": {"ios": "https://dc.lft.to/lastmile_qr_scan", "android": "https://dc.lft.to/lastmile_qr_scan"}, "is_reserved": 0}, {"lon": -76.99881783333333, "bike_id": "52f5c9e34e85a8647e83c669294b3feb", "lat": 38.92053116666666, "fusion_lon": 0.0, "fusion_lat": 0.0, "type": "electric_scooter", "name": "52f5c9e34e85a8647e83c669294b3feb", "is_disabled": 0, "rental_uris": {"ios": "https://dc.lft.to/lastmile_qr_scan", "android": "https://dc.lft.to/lastmile_qr_scan"}, "is_reserved": 0}, {"lon": -77.01139016666667, "bike_id": "a7b16ac0cc308ab950be817713eca363", "lat": 38.895734833333336, "fusion_lon": 0.0, "fusion_lat": 0.0, "type": "electric_scooter", "name": "a7b16ac0cc308ab950be817713eca363", "is_disabled": 0, "rental_uris": {"ios": "https://dc.lft.to/lastmile_qr_scan", "android": "https://dc.lft.to/lastmile_qr_scan"}, "is_reserved": 0}, {"lon": -77.04892933333333, "bike_id": "e75bc935c24456e3c14c20d800d92682", "lat": 38.8923125, "fusion_lon": 0.0, "fusion_lat": 0.0, "type": "electric_scooter", "name": "e75bc935c24456e3c14c20d800d92682", "is_disabled": 0, "rental_uris": {"ios": "https://dc.lft.to/lastmile_qr_scan", "android": "https://dc.lft.to/lastmile_qr_scan"}, "is_reserved": 0}, {"lon": -77.04608883333333, "bike_id": "fd96d9db15ee687d863ee699f8bf786e", "lat": 38.90769, "fusion_lon": 0.0, "fusion_lat": 0.0, "type": "electric_scooter", "name": "fd96d9db15ee687d863ee699f8bf786e", "is_disabled": 0, "rental_uris": {"ios": "https://dc.lft.to/lastmile_qr_scan", "android": "https://dc.lft.to/lastmile_qr_scan"}, "is_reserved": 0}, {"lon": -77.02161516666666, "bike_id": "b3e58381d9a76ebd874993da71026da3", "lat": 38.90971183333333, "fusion_lon": 0.0, "fusion_lat": 0.0, "type": "electric_scooter", "name": "b3e58381d9a76ebd874993da71026da3", "is_disabled": 0, "rental_uris": {"ios": "https://dc.lft.to/lastmile_qr_scan", "android": "https://dc.lft.to/lastmile_qr_scan"}, "is_reserved": 0}, {"lon": -77.03280316666667, "bike_id": "ea088ecd925d1a41d9aa3ae5492ad855", "lat": 38.934543833333336, "fusion_lon": 0.0, "fusion_lat": 0.0, "type": "electric_scooter", "name": "ea088ecd925d1a41d9aa3ae5492ad855", "is_disabled": 0, "rental_uris": {"ios": "https://dc.lft.to/lastmile_qr_scan", "android": "https://dc.lft.to/lastmile_qr_scan"}, "is_reserved": 0}, {"lon": -76.95469033333333, "bike_id": "2d07ad4aa8e4f499e293b4877be919ae", "lat": 38.88653933333333, "fusion_lon": 0.0, "fusion_lat": 0.0, "type": "electric_scooter", "name": "2d07ad4aa8e4f499e293b4877be919ae", "is_disabled": 0, "rental_uris": {"ios": "https://dc.lft.to/lastmile_qr_scan", "android": "https://dc.lft.to/lastmile_qr_scan"}, "is_reserved": 0}, {"lon": -77.02500516666667, "bike_id": "c12d521b47288ecd5f5921ce19a704a2", "lat": 38.9259045, "fusion_lon": 0.0, "fusion_lat": 0.0, "type": "electric_scooter", "name": "c12d521b47288ecd5f5921ce19a704a2", "is_disabled": 0, "rental_uris": {"ios": "https://dc.lft.to/lastmile_qr_scan", "android": "https://dc.lft.to/lastmile_qr_scan"}, "is_reserved": 0}, {"lon": -77.119149, "bike_id": "c35760b5b0d47f5624655bb616aa84d2", "lat": 38.8763535, "fusion_lon": 0.0, "fusion_lat": 0.0, "type": "electric_bike", "name": "c35760b5b0d47f5624655bb616aa84d2", "is_disabled": 0, "rental_uris": {"ios": "https://dc.lft.to/lastmile_qr_scan", "android": "https://dc.lft.to/lastmile_qr_scan"}, "is_reserved": 0}, {"lon": -77.07008216666667, "bike_id": "6b32764a00b6d877a10a95eeeece5fe3", "lat": 38.90594316666667, "fusion_lon": 0.0, "fusion_lat": 0.0, "type": "electric_bike", "name": "6b32764a00b6d877a10a95eeeece5fe3", "is_disabled": 0, "rental_uris": {"ios": "https://dc.lft.to/lastmile_qr_scan", "android": "https://dc.lft.to/lastmile_qr_scan"}, "is_reserved": 0}, {"lon": -77.039741, "bike_id": "2a7a647a4718e95e31ed936c92cc9516", "lat": 38.92320766666667, "fusion_lon": 0.0, "fusion_lat": 0.0, "type": "electric_scooter", "name": "2a7a647a4718e95e31ed936c92cc9516", "is_disabled": 0, "rental_uris": {"ios": "https://dc.lft.to/lastmile_qr_scan", "android": "https://dc.lft.to/lastmile_qr_scan"}, "is_reserved": 0}, {"lon": -77.078138, "bike_id": "ed5a86a98a31c8d1915c2f75765e1e76", "lat": 38.92455416666667, "fusion_lon": 0.0, "fusion_lat": 0.0, "type": "electric_scooter", "name": "ed5a86a98a31c8d1915c2f75765e1e76", "is_disabled": 0, "rental_uris": {"ios": "https://dc.lft.to/lastmile_qr_scan", "android": "https://dc.lft.to/lastmile_qr_scan"}, "is_reserved": 0}, {"lon": -77.00922066666666, "bike_id": "679125ef63d0380237a1579a00795349", "lat": 38.910639833333335, "fusion_lon": 0.0, "fusion_lat": 0.0, "type": "electric_scooter", "name": "679125ef63d0380237a1579a00795349", "is_disabled": 0, "rental_uris": {"ios": "https://dc.lft.to/lastmile_qr_scan", "android": "https://dc.lft.to/lastmile_qr_scan"}, "is_reserved": 0}, {"lon": -77.034503, "bike_id": "9ee5984a93c0111f705ca7987f08964d", "lat": 38.91713416666666, "fusion_lon": 0.0, "fusion_lat": 0.0, "type": "electric_scooter", "name": "9ee5984a93c0111f705ca7987f08964d", "is_disabled": 0, "rental_uris": {"ios": "https://dc.lft.to/lastmile_qr_scan", "android": "https://dc.lft.to/lastmile_qr_scan"}, "is_reserved": 0}, {"lon": -77.00227066666666, "bike_id": "ea8477e7b17d24e229109ff508228e3d", "lat": 38.9024635, "fusion_lon": 0.0, "fusion_lat": 0.0, "type": "electric_scooter", "name": "ea8477e7b17d24e229109ff508228e3d", "is_disabled": 0, "rental_uris": {"ios": "https://dc.lft.to/lastmile_qr_scan", "android": "https://dc.lft.to/lastmile_qr_scan"}, "is_reserved": 0}, {"lon": -77.05333083333333, "bike_id": "b482a6b277853ac3f6a0067ac754a2c5", "lat": 38.898752, "fusion_lon": 0.0, "fusion_lat": 0.0, "type": "electric_scooter", "name": "b482a6b277853ac3f6a0067ac754a2c5", "is_disabled": 0, "rental_uris": {"ios": "https://dc.lft.to/lastmile_qr_scan", "android": "https://dc.lft.to/lastmile_qr_scan"}, "is_reserved": 0}, {"lon": -77.01768766666666, "bike_id": "0870461c22fea346ce7c737904561d36", "lat": 38.87212133333333, "fusion_lon": 0.0, "fusion_lat": 0.0, "type": "electric_scooter", "name": "0870461c22fea346ce7c737904561d36", "is_disabled": 0, "rental_uris": {"ios": "https://dc.lft.to/lastmile_qr_scan", "android": "https://dc.lft.to/lastmile_qr_scan"}, "is_reserved": 0}, {"lon": -77.00578433333334, "bike_id": "0632bcbfdc1941c3ca5860124b1e5c3c", "lat": 38.876802166666664, "fusion_lon": 0.0, "fusion_lat": 0.0, "type": "electric_scooter", "name": "0632bcbfdc1941c3ca5860124b1e5c3c", "is_disabled": 0, "rental_uris": {"ios": "https://dc.lft.to/lastmile_qr_scan", "android": "https://dc.lft.to/lastmile_qr_scan"}, "is_reserved": 0}, {"lon": -77.01046766666667, "bike_id": "2a1dadaab446216e895b654fac14bc70", "lat": 38.96352666666667, "fusion_lon": 0.0, "fusion_lat": 0.0, "type": "electric_scooter", "name": "2a1dadaab446216e895b654fac14bc70", "is_disabled": 0, "rental_uris": {"ios": "https://dc.lft.to/lastmile_qr_scan", "android": "https://dc.lft.to/lastmile_qr_scan"}, "is_reserved": 0}, {"lon": -77.02601716666666, "bike_id": "4426b27dafcdf62f2344e354198b0014", "lat": 38.92796666666667, "fusion_lon": 0.0, "fusion_lat": 0.0, "type": "electric_scooter", "name": "4426b27dafcdf62f2344e354198b0014", "is_disabled": 0, "rental_uris": {"ios": "https://dc.lft.to/lastmile_qr_scan", "android": "https://dc.lft.to/lastmile_qr_scan"}, "is_reserved": 0}, {"lon": -76.99838416666667, "bike_id": "b55822a07acdd4b254c1a8f598f39dc8", "lat": 38.90236616666667, "fusion_lon": 0.0, "fusion_lat": 0.0, "type": "electric_scooter", "name": "b55822a07acdd4b254c1a8f598f39dc8", "is_disabled": 0, "rental_uris": {"ios": "https://dc.lft.to/lastmile_qr_scan", "android": "https://dc.lft.to/lastmile_qr_scan"}, "is_reserved": 0}, {"lon": -77.038227, "bike_id": "b6999acfa26a48fdf343103e1c90d12a", "lat": 38.907784, "fusion_lon": 0.0, "fusion_lat": 0.0, "type": "electric_scooter", "name": "b6999acfa26a48fdf343103e1c90d12a", "is_disabled": 0, "rental_uris": {"ios": "https://dc.lft.to/lastmile_qr_scan", "android": "https://dc.lft.to/lastmile_qr_scan"}, "is_reserved": 0}, {"lon": -77.00535083333334, "bike_id": "c00046f0ec005efdc024593a6a36bed8", "lat": 38.878368333333334, "fusion_lon": 0.0, "fusion_lat": 0.0, "type": "electric_scooter", "name": "c00046f0ec005efdc024593a6a36bed8", "is_disabled": 0, "rental_uris": {"ios": "https://dc.lft.to/lastmile_qr_scan", "android": "https://dc.lft.to/lastmile_qr_scan"}, "is_reserved": 0}, {"lon": -77.0348105, "bike_id": "a96a4d124c5b979dac6afa41330628f3", "lat": 38.928677666666665, "fusion_lon": 0.0, "fusion_lat": 0.0, "type": "electric_scooter", "name": "a96a4d124c5b979dac6afa41330628f3", "is_disabled": 0, "rental_uris": {"ios": "https://dc.lft.to/lastmile_qr_scan", "android": "https://dc.lft.to/lastmile_qr_scan"}, "is_reserved": 0}, {"lon": -76.93172616666666, "bike_id": "18c07e7f87837e1eea5cc866c3bf8422", "lat": 38.898811333333335, "fusion_lon": 0.0, "fusion_lat": 0.0, "type": "electric_scooter", "name": "18c07e7f87837e1eea5cc866c3bf8422", "is_disabled": 0, "rental_uris": {"ios": "https://dc.lft.to/lastmile_qr_scan", "android": "https://dc.lft.to/lastmile_qr_scan"}, "is_reserved": 0}, {"lon": -76.94962116666666, "bike_id": "b5b3b4fd720de4eba219beeb4b1947fb", "lat": 38.894437833333335, "fusion_lon": 0.0, "fusion_lat": 0.0, "type": "electric_scooter", "name": "b5b3b4fd720de4eba219beeb4b1947fb", "is_disabled": 0, "rental_uris": {"ios": "https://dc.lft.to/lastmile_qr_scan", "android": "https://dc.lft.to/lastmile_qr_scan"}, "is_reserved": 0}, {"lon": -76.99473333333333, "bike_id": "f20ef28fcefa17bcf0d616126eb99969", "lat": 38.862153166666666, "fusion_lon": 0.0, "fusion_lat": 0.0, "type": "electric_scooter", "name": "f20ef28fcefa17bcf0d616126eb99969", "is_disabled": 0, "rental_uris": {"ios": "https://dc.lft.to/lastmile_qr_scan", "android": "https://dc.lft.to/lastmile_qr_scan"}, "is_reserved": 0},