{"data": {"bikes": [{"rental_uris": {"android": "https://dc.lft.to/lastmile_qr_scan", "ios": "https://dc.lft.to/lastmile_qr_scan"}, "type": "electric_scooter", "lon": -76.98336716666667, "name": "8021b8d3bb761b4d95c78ee9507adeaa", "bike_id": "8021b8d3bb761b4d95c78ee9507adeaa", "fusion_lat": 0.0, "is_reserved": 0, "lat": 38.862566, "fusion_lon": 0.0, "is_disabled": 0}, {"rental_uris": {"android": "https://dc.lft.to/lastmile_qr_scan", "ios": "https://dc.lft.to/lastmile_qr_scan"}, "type": "electric_scooter", "lon": -77.03475133333333, "name": "92d10b0bbea451b15207b337587c95ea", "bike_id": "92d10b0bbea451b15207b337587c95ea", "fusion_lat": 0.0, "is_reserved": 0, "lat": 38.91801616666667, "fusion_lon": 0.0, "is_disabled": 0}, {"rental_uris": {"android": "https://dc.lft.to/lastmile_qr_scan", "ios": "https://dc.lft.to/lastmile_qr_scan"}, "type": "electric_bike", "lon": -77.0779345, "name": "6f49f2e7fe34f9e9feca5ff5bbacbd9c", "bike_id": "6f49f2e7fe34f9e9feca5ff5bbacbd9c", "fusion_lat": 0.0, "is_reserved": 0, "lat": 38.845114333333335, "fusion_lon": 0.0, "is_disabled": 0}, {"rental_uris": {"android": "https://dc.lft.to/lastmile_qr_scan", "ios": "https://dc.lft.to/lastmile_qr_scan"}, "type": "electric_scooter", "lon": -77.0160655, "name": "f8a2733512daa45b1ca57ef49b80a496", "bike_id": "f8a2733512daa45b1ca57ef49b80a496", "fusion_lat": 0.0, "is_reserved": 0, "lat": 38.917552666666666, "fusion_lon": 0.0, "is_disabled": 0}, {"rental_uris": {"android": "https://dc.lft.to/lastmile_qr_scan", "ios": "https://dc.lft.to/lastmile_qr_scan"}, "type": "electric_scooter", "lon": -77.033007, "name": "658a30be932d7c72a865b290215f1276", "bike_id": "658a30be932d7c72a865b290215f1276", "fusion_lat": 0.0, "is_reserved": 0, "lat": 38.930603, "fusion_lon": 0.0, "is_disabled": 0}, {"rental_uris": {"android": "https://dc.lft.to/lastmile_qr_scan", "ios": "https://dc.lft.to/lastmile_qr_scan"}, "type": "electric_scooter", "lon": -76.98759166666666, "name": "71641d229a9740f6357b0514e5fdd9ce", "bike_id": "71641d229a9740f6357b0514e5fdd9ce", "fusion_lat": 0.0, "is_reserved": 0, "lat": 38.90806933333333, "fusion_lon": 0.0, "is_disabled": 0}, {"rental_uris": {"android": "https://dc.lft.to/lastmile_qr_scan", "ios": "https://dc.lft.to/lastmile_qr_scan"}, "type": "electric_scooter", "lon": -77.02303583333334, "name": "5e18ad85ad11179ce8457a9c95d6b5b9", "bike_id": "5e18ad85ad11179ce8457a9c95d6b5b9", "fusion_lat": 0.0, "is_reserved": 0, "lat": 38.9161565, "fusion_lon": 0.0, "is_disabled": 0}, {"rental_uris": {"android": "https://dc.lft.to/lastmile_qr_scan", "ios": "https://dc.lft.to/lastmile_qr_scan"}, "type": "electric_scooter", "lon": -77.0604265, "name": "51b9f1922316f4d3b11a620056a6509f", "bike_id": "51b9f1922316f4d3b11a620056a6509f", "fusion_lat": 0.0, "is_reserved": 0, "lat": 38.939076166666666, "fusion_lon": 0.0, "is_disabled": 0}, {"rental_uris": {"android": "https://dc.lft.to/lastmile_qr_scan", "ios": "https://dc.lft.to/lastmile_qr_scan"}, "type": "electric_scooter", "lon": -76.94121933333334, "name": "d558b7335fbc8f2036fafddc2546098c", "bike_id": "d558b7335fbc8f2036fafddc2546098c", "fusion_lat": 0.0, "is_reserved": 0, "lat": 38.907931833333336, "fusion_lon": 0.0, "is_disabled": 0}, {"rental_uris": {"android": "https://dc.lft.to/lastmile_qr_scan", "ios": "https://dc.lft.to/lastmile_qr_scan"}, "type": "electric_scooter", "lon": -77.03769216666667, "name": "c72c9b8d5479c51f1beb703927716cb8", "bike_id": "c72c9b8d5479c51f1beb703927716cb8", "fusion_lat": 0.0, "is_reserved": 0, "lat": 38.91699066666666, "fusion_lon": 0.0, "is_disabled": 0}, {"rental_uris": {"android": "https://dc.lft.to/lastmile_qr_scan", "ios": "https://dc.lft.to/lastmile_qr_scan"}, "type": "electric_scooter", "lon": -77.02307483333334, "name": "0b3ac541b940ac4787b820a5ea9315d7", "bike_id": "0b3ac541b940ac4787b820a5ea9315d7", "fusion_lat": 0.0, "is_reserved": 0, "lat": 38.908721666666665, "fusion_lon": 0.0, "is_disabled": 0}, {"rental_uris": {"android": "https://dc.lft.to/lastmile_qr_scan", "ios": "https://dc.lft.to/lastmile_qr_scan"}, "type": "electric_scooter", "lon": -77.051526, "name": "fa09e6395418db8600d56ae5ee637cc1", "bike_id": "fa09e6395418db8600d56ae5ee637cc1", "fusion_lat": 0.0, "is_reserved": 0, "lat": 38.90431066666667, "fusion_lon": 0.0, "is_disabled": 0}, {"rental_uris": {"android": "https://dc.lft.to/lastmile_qr_scan", "ios": "https://dc.lft.to/lastmile_qr_scan"}, "type": "electric_scooter", "lon": -77.04254833333333, "name": "a910c8328c99737ab095a8d749bcb757", "bike_id": "a910c8328c99737ab095a8d749bcb757", "fusion_lat": 0.0, "is_reserved": 0, "lat": 38.94538933333333, "fusion_lon": 0.0, "is_disabled": 0}, {"rental_uris": {"android": "https://dc.lft.to/lastmile_qr_scan", "ios": "https://dc.lft.to/lastmile_qr_scan"}, "type": "electric_scooter", "lon": -77.06392433333333, "name": "865427bcadaca4379f8ccd1234561e8a", "bike_id": "865427bcadaca4379f8ccd1234561e8a", "fusion_lat": 0.0, "is_reserved": 0, "lat": 38.929089833333336, "fusion_lon": 0.0, "is_disabled": 0}, {"rental_uris": {"android": "https://dc.lft.to/lastmile_qr_scan", "ios": "https://dc.lft.to/lastmile_qr_scan"}, "type": "electric_scooter", "lon": -77.02286516666666, "name": "6cf054b54871629ec2873c6e2b7410fc", "bike_id": "6cf054b54871629ec2873c6e2b7410fc", "fusion_lat": 0.0, "is_reserved": 0, "lat": 38.917525833333336, "fusion_lon": 0.0, "is_disabled": 0}, {"rental_uris": {"android": "https://dc.lft.to/lastmile_qr_scan", "ios": "https://dc.lft.to/lastmile_qr_scan"}, "type": "electric_scooter", "lon": -77.03661883333334, "name": "00ee6649866fa368a8ff43134bbfe85d", "bike_id": "00ee6649866fa368a8ff43134bbfe85d", "fusion_lat": 0.0, "is_reserved": 0, "lat": 38.912744833333335, "fusion_lon": 0.0, "is_disabled": 0}, {"rental_uris": {"android": "https://dc.lft.to/lastmile_qr_scan", "ios": "https://dc.lft.to/lastmile_qr_scan"}, "type": "electric_scooter", "lon": -77.00970633333333, "name": "403aa948778d359d66ad9be9dcd5aafb", "bike_id": "403aa948778d359d66ad9be9dcd5aafb", "fusion_lat": 0.0, "is_reserved": 0, "lat": 38.881314, "fusion_lon": 0.0, "is_disabled": 0}, {"rental_uris": {"android": "https://dc.lft.to/lastmile_qr_scan", "ios": "https://dc.lft.to/lastmile_qr_scan"}, "type": "electric_scooter", "lon": -77.02983816666666, "name": "2241973e1fb468b9aded1ae7d2b8fd50", "bike_id": "2241973e1fb468b9aded1ae7d2b8fd50", "fusion_lat": 0.0, "is_reserved": 0, "lat": 38.907200333333336, "fusion_lon": 0.0, "is_disabled": 0}, {"rental_uris": {"android": "https://dc.lft.to/lastmile_qr_scan", "ios": "https://dc.lft.to/lastmile_qr_scan"}, "type": "electric_scooter", "lon": -76.9899415, "name": "a75f33a494058a6d6c37363ffc166237", "bike_id": "a75f33a494058a6d6c37363ffc166237", "fusion_lat": 0.0, "is_reserved": 0, "lat": 38.92452083333333, "fusion_lon": 0.0, "is_disabled": 0}, {"rental_uris": {"android": "https://dc.lft.to/lastmile_qr_scan", "ios": "https://dc.lft.to/lastmile_qr_scan"}, "type": "electric_scooter", "lon": -77.06351316666667, "name": "549a0aab07eab06f01890cd3d1a37179", "bike_id": "549a0aab07eab06f01890cd3d1a37179", "fusion_lat": 0.0, "is_reserved": 0, "lat": 38.944513, "fusion_lon": 0.0, "is_disabled": 0}, {"rental_uris": {"android": "https://dc.lft.to/lastmile_qr_scan", "ios": "https://dc.lft.to/lastmile_qr_scan"}, "type": "electric_scooter", "lon": -77.00740183333333, "name": "4e0bfee1a84ba9cfddc0a7b4dcdfbf06", "bike_id": "4e0bfee1a84ba9cfddc0a7b4dcdfbf06", "fusion_lat": 0.0, "is_reserved": 0, "lat": 38.95523416666666, "fusion_lon": 0.0, "is_disabled": 0}, {"rental_uris": {"android": "https://dc.lft.to/lastmile_qr_scan", "ios": "https://dc.lft.to/lastmile_qr_scan"}, "type": "electric_scooter", "lon": -77.03884233333333, "name": "78853509c907e6de6b53333b6816b74b", "bike_id": "78853509c907e6de6b53333b6816b74b", "fusion_lat": 0.0, "is_reserved": 0, "lat": 38.9175645, "fusion_lon": 0.0, "is_disabled": 0}, {"rental_uris": {"android": "https://dc.lft.to/lastmile_qr_scan", "ios": "https://dc.lft.to/lastmile_qr_scan"}, "type": "electric_scooter", "lon": -77.0328445, "name": "feaac7abb1fec182d7868c5536f063fe", "bike_id": "feaac7abb1fec182d7868c5536f063fe", "fusion_lat": 0.0, "is_reserved": 0, "lat": 38.919215333333334, "fusion_lon": 0.0, "is_disabled": 0}, {"rental_uris": {"android": "https://dc.lft.to/lastmile_qr_scan", "ios": "https://dc.lft.to/lastmile_qr_scan"}, "type": "electric_scooter", "lon": -77.0201065, "name": "b59bb0f2bfdd692253331c74d9d33e64", "bike_id": "b59bb0f2bfdd692253331c74d9d33e64", "fusion_lat": 0.0, "is_reserved": 0, "lat": 38.924214166666665, "fusion_lon": 0.0, "is_disabled": 0}, {"rental_uris": {"android": "https://dc.lft.to/lastmile_qr_scan", "ios": "https://dc.lft.to/lastmile_qr_scan"}, "type": "electric_scooter", "lon": -77.04519916666666, "name": "2b8f9b58f2e8766738173943310f7e43", "bike_id": "2b8f9b58f2e8766738173943310f7e43", "fusion_lat": 0.0, "is_reserved": 0, "lat": 38.912870166666664, "fusion_lon": 0.0, "is_disabled": 0}, {"rental_uris": {"android": "https://dc.lft.to/lastmile_qr_scan", "ios": "https://dc.lft.to/lastmile_qr_scan"}, "type": "electric_scooter", "lon": -77.0530835, "name": "cf5f4ed80ef2b5eee6434759ac60569e", "bike_id": "cf5f4ed80ef2b5eee6434759ac60569e", "fusion_lat": 0.0, "is_reserved": 0, "lat": 38.906768166666666, "fusion_lon": 0.0, "is_disabled": 0}, {"rental_uris": {"android": "https://dc.lft.to/lastmile_qr_scan", "ios": "https://dc.lft.to/lastmile_qr_scan"}, "type": "electric_scooter", "lon": -77.01209533333333, "name": "f8f225df25fc6112ab227529a08f3d1c", "bike_id": "f8f225df25fc6112ab227529a08f3d1c", "fusion_lat": 0.0, "is_reserved": 0, "lat": 38.9194515, "fusion_lon": 0.0, "is_disabled": 0}, {"rental_uris": {"android": "https://dc.lft.to/lastmile_qr_scan", "ios": "https://dc.lft.to/lastmile_qr_scan"}, "type": "electric_scooter", "lon": -77.02718833333333, "name": "d50591cd136105cba94772c48737e48c", "bike_id": "d50591cd136105cba94772c48737e48c", "fusion_lat": 0.0, "is_reserved": 0, "lat": 38.899262666666665, "fusion_lon": 0.0, "is_disabled": 0}, {"rental_uris": {"android": "https://dc.lft.to/lastmile_qr_scan", "ios": "https://dc.lft.to/lastmile_qr_scan"}, "type": "electric_scooter", "lon": -77.03793983333334, "name": "338acceb82a4a58a6f144e63d23eeddb", "bike_id": "338acceb82a4a58a6f144e63d23eeddb", "fusion_lat": 0.0, "is_reserved": 0, "lat": 38.9332625, "fusion_lon": 0.0, "is_disabled": 0}, {"rental_uris": {"android": "https://dc.lft.to/lastmile_qr_scan", "ios": "https://dc.lft.to/lastmile_qr_scan"}, "type": "electric_bike", "lon": -76.94619616666667, "name": "bfd86a4f44d821545925fc7423a189c2", "bike_id": "bfd86a4f44d821545925fc7423a189c2", "fusion_lat": 0.0, "is_reserved": 0, "lat": 38.83236316666667, "fusion_lon": 0.0, "is_disabled": 0}, {"rental_uris": {"android": "https://dc.lft.to/lastmile_qr_scan", "ios": "https://dc.lft.to/lastmile_qr_scan"}, "type": "electric_scooter", "lon": -77.03006266666667, "name": "8d03987c3d1ca0c9f8a13acf1e3ae58a", "bike_id": "8d03987c3d1ca0c9f8a13acf1e3ae58a", "fusion_lat": 0.0, "is_reserved": 0, "lat": 38.927977166666665, "fusion_lon": 0.0, "is_disabled": 0}, {"rental_uris": {"android": "https://dc.lft.to/lastmile_qr_scan", "ios": "https://dc.lft.to/lastmile_qr_scan"}, "type": "electric_scooter", "lon": -76.99033333333334, "name": "54ab917a2678a0a95c869d20c564656e", "bike_id": "54ab917a2678a0a95c869d20c564656e", "fusion_lat": 0.0, "is_reserved": 0, "lat": 38.9286905, "fusion_lon": 0.0, "is_disabled": 0}, {"rental_uris": {"android": "https://dc.lft.to/lastmile_qr_scan", "ios": "https://dc.lft.to/lastmile_qr_scan"}, "type": "electric_scooter", "lon": -76.987764, "name": "cf1d96f13cb663aa63fa878e8d4a7d73", "bike_id": "cf1d96f13cb663aa63fa878e8d4a7d73", "fusion_lat": 0.0, "is_reserved": 0, "lat": 38.883022833333335, "fusion_lon": 0.0, "is_disabled": 0}, {"rental_uris": {"android": "https://dc.lft.to/lastmile_qr_scan", "ios": "https://dc.lft.to/lastmile_qr_scan"}, "type": "electric_scooter", "lon": -77.02579266666666, "name": "db8ead8e365c7a6ee58f0e88bfe8cc35", "bike_id": "db8ead8e365c7a6ee58f0e88bfe8cc35", "fusion_lat": 0.0, "is_reserved": 0, "lat": 38.925082833333335, "fusion_lon": 0.0, "is_disabled": 0}, {"rental_uris": {"android": "https://dc.lft.to/lastmile_qr_scan", "ios": "https://dc.lft.to/lastmile_qr_scan"}, "type": "electric_scooter", "lon": -77.05297983333334, "name": "b0edc5646781e3421c3c1b3218eb0f4d", "bike_id": "b0edc5646781e3421c3c1b3218eb0f4d", "fusion_lat": 0.0, "is_reserved": 0, "lat": 38.898896, "fusion_lon": 0.0, "is_disabled": 0}, {"rental_uris": {"android": "https://dc.lft.to/lastmile_qr_scan", "ios": "https://dc.lft.to/lastmile_qr_scan"}, "type": "electric_bike", "lon": -76.97198083333333, "name": "46eec015bb0ac627525b2797505997a8", "bike_id": "46eec015bb0ac627525b2797505997a8", "fusion_lat": 0.0, "is_reserved": 0, "lat": 38.892493, "fusion_lon": 0.0, "is_disabled": 0}, {"rental_uris": {"android": "https://dc.lft.to/lastmile_qr_scan", "ios": "https://dc.lft.to/lastmile_qr_scan"}, "type": "electric_scooter", "lon": -76.98682766666667, "name": "65fc502d9171bdf452cb57e6c8868f22", "bike_id": "65fc502d9171bdf452cb57e6c8868f22", "fusion_lat": 0.0, "is_reserved": 0, "lat": 38.8852845, "fusion_lon": 0.0, "is_disabled": 0}, {"rental_uris": {"android": "https://dc.lft.to/lastmile_qr_scan", "ios": "https://dc.lft.to/lastmile_qr_scan"}, "type": "electric_bike", "lon": -76.98071416666667, "name": "5fe3a15b02345694b579f46a6d5f4a1c", "bike_id": "5fe3a15b02345694b579f46a6d5f4a1c", "fusion_lat": 0.0, "is_reserved": 0, "lat": 38.901773, "fusion_lon": 0.0, "is_disabled": 0}, {"rental_uris": {"android": "https://dc.lft.to/lastmile_qr_scan", "ios": "https://dc.lft.to/lastmile_qr_scan"}, "type": "electric_scooter", "lon": -77.03894733333334, "name": "a7b1b102c3a4f8f29adaa9e85ab75a78", "bike_id": "a7b1b102c3a4f8f29adaa9e85ab75a78", "fusion_lat": 0.0, "is_reserved": 0, "lat": 38.933660333333336, "fusion_lon": 0.0, "is_disabled": 0}, {"rental_uris": {"android": "https://dc.lft.to/lastmile_qr_scan", "ios": "https://dc.lft.to/lastmile_qr_scan"}, "type": "electric_scooter", "lon": -77.043414, "name": "b2b9a2b9f08d62f86008de04452c46a8", "bike_id": "b2b9a2b9f08d62f86008de04452c46a8", "fusion_lat": 0.0, "is_reserved": 0, "lat": 38.910492833333336, "fusion_lon": 0.0, "is_disabled": 0}, {"rental_uris": {"android": "https://dc.lft.to/lastmile_qr_scan", "ios": "https://dc.lft.to/lastmile_qr_scan"}, "type": "electric_scooter", "lon": -77.008126, "name": "91a96e8f2e511a1607325bcd3ccbe59a", "bike_id": "91a96e8f2e511a1607325bcd3ccbe59a", "fusion_lat": 0.0, "is_reserved": 0, "lat": 38.878331833333334, "fusion_lon": 0.0, "is_disabled": 0}, {"rental_uris": {"android": "https://dc.lft.to/lastmile_qr_scan", "ios": "https://dc.lft.to/lastmile_qr_scan"}, "type": "electric_scooter", "lon": -77.03917683333333, "name": "06dac570b0d3e9838fe7dd37ec884a81", "bike_id": "06dac570b0d3e9838fe7dd37ec884a81", "fusion_lat": 0.0, "is_reserved": 0, "lat": 38.904332, "fusion_lon": 0.0, "is_disabled": 0}, {"rental_uris": {"android": "https://dc.lft.to/lastmile_qr_scan", "ios": "https://dc.lft.to/lastmile_qr_scan"}, "type": "electric_scooter", "lon": -77.04403983333333, "name": "219c060278f91e515ba995df505f7c53", "bike_id": "219c060278f91e515ba995df505f7c53", "fusion_lat": 0.0, "is_reserved": 0, "lat": 38.89384616666667, "fusion_lon": 0.0, "is_disabled": 0}, {"rental_uris": {"android": "https://dc.lft.to/lastmile_qr_scan", "ios": "https://dc.lft.to/lastmile_qr_scan"}, "type": "electric_scooter", "lon": -77.04448883333333, "name": "b56e9b8ebe99a6a8b019cd114c2ec234", "bike_id": "b56e9b8ebe99a6a8b019cd114c2ec234", "fusion_lat": 0.0, "is_reserved": 0, "lat": 38.8880635, "fusion_lon": 0.0, "is_disabled": 0}, {"rental_uris": {"android": "https://dc.lft.to/lastmile_qr_scan", "ios": "https://dc.lft.to/lastmile_qr_scan"}, "type": "electric_scooter", "lon": -77.026575, "name": "c080c9b863d32b24032d82e14b25738d", "bike_id": "c080c9b863d32b24032d82e14b25738d", "fusion_lat": 0.0, "is_reserved": 0, "lat": 38.881090666666665, "fusion_lon": 0.0, "is_disabled": 0}, {"rental_uris": {"android": "https://dc.lft.to/lastmile_qr_scan", "ios": "https://dc.lft.to/lastmile_qr_scan"}, "type": "electric_scooter", "lon": -77.02169233333333, "name": "100ec555273e19c0efdbca2378740f18", "bike_id": "100ec555273e19c0efdbca2378740f18", "fusion_lat": 0.0, "is_reserved": 0, "lat": 38.88744283333333, "fusion_lon": 0.0, "is_disabled": 0}, {"rental_uris": {"android": "https://dc.lft.to/lastmile_qr_scan", "ios": "https://dc.lft.to/lastmile_qr_scan"}, "type": "electric_scooter", "lon": -77.06888316666667, "name": "724def7f95bd1329446d0d53ac8a2a26", "bike_id": "724def7f95bd1329446d0d53ac8a2a26", "fusion_lat": 0.0, "is_reserved": 0, "lat": 38.905156166666664, "fusion_lon": 0.0, "is_disabled": 0}, {"rental_uris": {"android": "https://dc.lft.to/lastmile_qr_scan", "ios": "https://dc.lft.to/lastmile_qr_scan"}, "type": "electric_scooter", "lon": -77.037792, "name": "e9124f0af2fff089db094d4f9a35373a", "bike_id": "e9124f0af2fff089db094d4f9a35373a", "fusion_lat": 0.0, "is_reserved": 0, "lat": 38.906929, "fusion_lon": 0.0, "is_disabled": 0}, {"rental_uris": {"android": "https://dc.lft.to/lastmile_qr_scan", "ios": "https://dc.lft.to/lastmile_qr_scan"}, "type": "electric_scooter", "lon": -77.04549683333333, "name": "fb0a883f769579fc13cde7118d3a5066", "bike_id": "fb0a883f769579fc13cde7118d3a5066", "fusion_lat": 0.0, "is_reserved": 0, "lat": 38.91791683333334, "fusion_lon": 0.0, "is_disabled": 0}, {"rental_uris": {"android": "https://dc.lft.to/lastmile_qr_scan", "ios": "https://dc.lft.to/lastmile_qr_scan"}, "type": "electric_scooter", "lon": -77.02236233333333, "name": "b1f36261619bf061922478a948959cbd", "bike_id": "b1f36261619bf061922478a948959cbd", "fusion_lat": 0.0, "is_reserved": 0, "lat": 38.924810666666666, "fusion_lon": 0.0, "is_disabled": 0}, {"rental_uris": {"android": "https://dc.lft.to/lastmile_qr_scan", "ios": "https://dc.lft.to/lastmile_qr_scan"}, "type": "electric_bike", "lon": -76.94572966666667, "name": "40b417140b38a50728bcc00fa52fd801", "bike_id": "40b417140b38a50728bcc00fa52fd801", "fusion_lat": 0.0, "is_reserved": 0, "lat": 38.86619833333334, "fusion_lon": 0.0, "is_disabled": 0}, {"rental_uris": {"android": "https://dc.lft.to/lastmile_qr_scan", "ios": "https://dc.lft.to/lastmile_qr_scan"}, "type": "electric_scooter", "lon": -77.04321716666666, "name": "3163d9d7e258c06093cf724218c2aba6", "bike_id": "3163d9d7e258c06093cf724218c2aba6", "fusion_lat": 0.0, "is_reserved": 0, "lat": 38.892192, "fusion_lon": 0.0, "is_disabled": 0}, {"rental_uris": {"android": "https://dc.lft.to/lastmile_qr_scan", "ios": "https://dc.lft.to/lastmile_qr_scan"}, "type": "electric_scooter", "lon": -77.02156616666667, "name": "25f837d970db149918b77cd42031af23", "bike_id": "25f837d970db149918b77cd42031af23", "fusion_lat": 0.0, "is_reserved": 0, "lat": 38.925971, "fusion_lon": 0.0, "is_disabled": 0}, {"rental_uris": {"android": "https://dc.lft.to/lastmile_qr_scan", "ios": "https://dc.lft.to/lastmile_qr_scan"}, "type": "electric_scooter", "lon": -76.9827305, "name": "575ed48082418262753346d5e7e1ad5c", "bike_id": "575ed48082418262753346d5e7e1ad5c", "fusion_lat": 0.0, "is_reserved": 0, "lat": 38.9156685, "fusion_lon": 0.0, "is_disabled": 0}, {"rental_uris": {"android": "https://dc.lft.to/lastmile_qr_scan", "ios": "https://dc.lft.to/lastmile_qr_scan"}, "type": "electric_scooter", "lon": -77.02587983333333, "name": "902150c11a35b655e0b60a8fa77359a7", "bike_id": "902150c11a35b655e0b60a8fa77359a7", "fusion_lat": 0.0, "is_reserved": 0, "lat": 38.912747833333334, "fusion_lon": 0.0, "is_disabled": 0}, {"rental_uris": {"android": "https://dc.lft.to/lastmile_qr_scan", "ios": "https://dc.lft.to/lastmile_qr_scan"}, "type": "electric_scooter", "lon": -77.02476916666667, "name": "e59135f5f3880b9952dfa9340d7ef96f", "bike_id": "e59135f5f3880b9952dfa9340d7ef96f", "fusion_lat": 0.0, "is_reserved": 0, "lat": 38.9310085, "fusion_lon": 0.0, "is_disabled": 0}, {"rental_uris": {"android": "https://dc.lft.to/lastmile_qr_scan", "ios": "https://dc.lft.to/lastmile_qr_scan"}, "type": "electric_scooter", "lon": -77.03037433333333, "name": "be65b85bb5b5be85cd7fcec548a6b81c", "bike_id": "be65b85bb5b5be85cd7fcec548a6b81c", "fusion_lat": 0.0, "is_reserved": 0, "lat": 38.91265, "fusion_lon": 0.0, "is_disabled": 0}, {"rental_uris": {"android": "https://dc.lft.to/lastmile_qr_scan", "ios": "https://dc.lft.to/lastmile_qr_scan"}, "type": "electric_bike", "lon": -76.98118316666667, "name": "68f31a5c2a2f2eb929740bb2a00c5c31", "bike_id": "68f31a5c2a2f2eb929740bb2a00c5c31", "fusion_lat": 0.0, "is_reserved": 0, "lat": 38.8966575, "fusion_lon": 0.0, "is_disabled": 0}, {"rental_uris": {"android": "https://dc.lft.to/lastmile_qr_scan", "ios": "https://dc.lft.to/lastmile_qr_scan"}, "type": "electric_scooter", "lon": -76.93728866666666, "name": "cc8bb35809b7fad2c3a0ab3fd917d78c", "bike_id": "cc8bb35809b7fad2c3a0ab3fd917d78c", "fusion_lat": 0.0, "is_reserved": 0, "lat": 38.891007, "fusion_lon": 0.0, "is_disabled": 0}, {"rental_uris": {"android": "https://dc.lft.to/lastmile_qr_scan", "ios": "https://dc.lft.to/lastmile_qr_scan"}, "type": "electric_bike", "lon": -77.10184016666666, "name": "a39e662d12b42dcd218952f3eef327da", "bike_id": "a39e662d12b42dcd218952f3eef327da", "fusion_lat": 0.0, "is_reserved": 0, "lat": 38.9180355, "fusion_lon": 0.0, "is_disabled": 0}, {"rental_uris": {"android": "https://dc.lft.to/lastmile_qr_scan", "ios": "https://dc.lft.to/lastmile_qr_scan"}, "type": "electric_scooter", "lon": -77.04667233333333, "name": "790fa9aeeca87bd391c4c5cf6a0d167e", "bike_id": "790fa9aeeca87bd391c4c5cf6a0d167e", "fusion_lat": 0.0, "is_reserved": 0, "lat": 38.91292766666667, "fusion_lon": 0.0, "is_disabled": 0}, {"rental_uris": {"android": "https://dc.lft.to/lastmile_qr_scan", "ios": "https://dc.lft.to/lastmile_qr_scan"}, "type": "electric_scooter", "lon": -76.9961565, "name": "12d15f2749bf49e4e1875299d1953c52", "bike_id": "12d15f2749bf49e4e1875299d1953c52", "fusion_lat": 0.0, "is_reserved": 0, "lat": 38.886166333333335, "fusion_lon": 0.0, "is_disabled": 0}, {"rental_uris": {"android": "https://dc.lft.to/lastmile_qr_scan", "ios": "https://dc.lft.to/lastmile_qr_scan"}, "type": "electric_scooter", "lon": -77.03264633333333, "name": "4726dbba97212571be61f0988bfdd2bc", "bike_id": "4726dbba97212571be61f0988bfdd2bc", "fusion_lat": 0.0, "is_reserved": 0, "lat": 38.914084333333335, "fusion_lon": 0.0, "is_disabled": 0}, {"rental_uris": {"android": "https://dc.lft.to/lastmile_qr_scan", "ios": "https://dc.lft.to/lastmile_qr_scan"}, "type": "electric_scooter", "lon": -77.02796383333333, "name": "f40705744b51bcc2106dc5d9130207db", "bike_id": "f40705744b51bcc2106dc5d9130207db", "fusion_lat": 0.0, "is_reserved": 0, "lat": 38.93081, "fusion_lon": 0.0, "is_disabled": 0}, {"rental_uris": {"android": "https://dc.lft.to/lastmile_qr_scan", "ios": "https://dc.lft.to/lastmile_qr_scan"}, "type": "electric_bike", "lon": -77.11223216666667, "name": "90ababec0319b0ee09d13092908dfd7f", "bike_id": "90ababec0319b0ee09d13092908dfd7f", "fusion_lat": 0.0, "is_reserved": 0, "lat": 38.81222266666666, "fusion_lon": 0.0, "is_disabled": 0}, {"rental_uris": {"android": "https://dc.lft.to/lastmile_qr_scan", "ios": "https://dc.lft.to/lastmile_qr_scan"}, "type": "electric_scooter", "lon": -77.02209333333333, "name": "7251dfc4ee4cd24e94fb9d6fd7ad1e22", "bike_id": "7251dfc4ee4cd24e94fb9d6fd7ad1e22", "fusion_lat": 0.0, "is_reserved": 0, "lat": 38.887187, "fusion_lon": 0.0, "is_disabled": 0}, {"rental_uris": {"android": "https://dc.lft.to/lastmile_qr_scan", "ios": "https://dc.lft.to/lastmile_qr_scan"}, "type": "electric_scooter", "lon": -77.03830133333334, "name": "984c1e7936d1f3705d47ca0c8447da33", "bike_id": "984c1e7936d1f3705d47ca0c8447da33", "fusion_lat": 0.0, "is_reserved": 0, "lat": 38.931516, "fusion_lon": 0.0, "is_disabled": 0}, {"rental_uris": {"android": "https://dc.lft.to/lastmile_qr_scan", "ios": "https://dc.lft.to/lastmile_qr_scan"}, "type": "electric_bike", "lon": -76.983349, "name": "dbc07b7dfa8fa2e86ae1cccfda24ca1c", "bike_id": "dbc07b7dfa8fa2e86ae1cccfda24ca1c", "fusion_lat": 0.0, "is_reserved": 0, "lat": 38.966003, "fusion_lon": 0.0, "is_disabled": 0}, {"rental_uris": {"android": "https://dc.lft.to/lastmile_qr_scan", "ios": "https://dc.lft.to/lastmile_qr_scan"}, "type": "electric_scooter", "lon": -77.02827316666666, "name": "ee4b230c27e3c552a4ec59d5a7f7ed09", "bike_id": "ee4b230c27e3c552a4ec59d5a7f7ed09", "fusion_lat": 0.0, "is_reserved": 0, "lat": 38.89243366666667, "fusion_lon": 0.0, "is_disabled": 0}, {"rental_uris": {"android": "https://dc.lft.to/lastmile_qr_scan", "ios": "https://dc.lft.to/lastmile_qr_scan"}, "type": "electric_scooter", "lon": -77.017132, "name": "b34e91eee69767b3844fef6dfac558b7", "bike_id": "b34e91eee69767b3844fef6dfac558b7", "fusion_lat": 0.0, "is_reserved": 0, "lat": 38.90490966666667, "fusion_lon": 0.0, "is_disabled": 0}, {"rental_uris": {"android": "https://dc.lft.to/lastmile_qr_scan", "ios": "https://dc.lft.to/lastmile_qr_scan"}, "type": "electric_scooter", "lon": -76.999786, "name": "caeaf44e7af8c696b64466153f956f2e", "bike_id": "caeaf44e7af8c696b64466153f956f2e", "fusion_lat": 0.0, "is_reserved": 0, "lat": 38.900158166666664, "fusion_lon": 0.0, "is_disabled": 0}, {"rental_uris": {"android": "https://dc.lft.to/lastmile_qr_scan", "ios": "https://dc.lft.to/lastmile_qr_scan"}, "type": "electric_scooter", "lon": -77.022653, "name": "f97e904adc23255b4e1cfdc3d356fa35", "bike_id": "f97e904adc23255b4e1cfdc3d356fa35", "fusion_lat": 0.0, "is_reserved": 0, "lat": 38.94723416666667, "fusion_lon": 0.0, "is_disabled": 0}, {"rental_uris": {"android": "https://dc.lft.to/lastmile_qr_scan", "ios": "https://dc.lft.to/lastmile_qr_scan"}, "type": "electric_scooter", "lon": -77.0607725, "name": "cac12c7b3dfb5edfb0d7290acb1a8889", "bike_id": "cac12c7b3dfb5edfb0d7290acb1a8889", "fusion_lat": 0.0, "is_reserved": 0, "lat": 38.905393, "fusion_lon": 0.0, "is_disabled": 0}, {"rental_uris": {"android": "https://dc.lft.to/lastmile_qr_scan", "ios": "https://dc.lft.to/lastmile_qr_scan"}, "type": "electric_scooter", "lon": -77.0026995, "name": "86074636d973a6bfbf42bec7db24169a", "bike_id": "86074636d973a6bfbf42bec7db24169a", "fusion_lat": 0.0, "is_reserved": 0, "lat": 38.903805, "fusion_lon": 0.0, "is_disabled": 0}, {"rental_uris": {"android": "https://dc.lft.to/lastmile_qr_scan", "ios": "https://dc.lft.to/lastmile_qr_scan"}, "type": "electric_scooter", "lon": -77.02174666666667, "name": "df36f79572394786231efc4f66095b0f", "bike_id": "df36f79572394786231efc4f66095b0f", "fusion_lat": 0.0, "is_reserved": 0, "lat": 38.920153166666665, "fusion_lon": 0.0, "is_disabled": 0}, {"rental_uris": {"android": "https://dc.lft.to/lastmile_qr_scan", "ios": "https://dc.lft.to/lastmile_qr_scan"}, "type": "electric_scooter", "lon": -77.0221445, "name": "0663a0bd25aa70d42888e45c3cce2dd5", "bike_id": "0663a0bd25aa70d42888e45c3cce2dd5", "fusion_lat": 0.0, "is_reserved": 0, "lat": 38.915277833333334, "fusion_lon": 0.0, "is_disabled": 0}, {"rental_uris": {"android": "https://dc.lft.to/lastmile_qr_scan", "ios": "https://dc.lft.to/lastmile_qr_scan"}, "type": "electric_scooter", "lon": -76.96789316666667, "name": "ddd089a1581ac1fb2b518d16c493cb24", "bike_id": "ddd089a1581ac1fb2b518d16c493cb24", "fusion_lat": 0.0, "is_reserved": 0, "lat": 38.8733735, "fusion_lon": 0.0, "is_disabled": 0}, {"rental_uris": {"android": "https://dc.lft.to/lastmile_qr_scan", "ios": "https://dc.lft.to/lastmile_qr_scan"}, "type": "electric_scooter", "lon": -77.00544266666667, "name": "dd89e92f1f6f2651bc98d7e64a5394ce", "bike_id": "dd89e92f1f6f2651bc98d7e64a5394ce", "fusion_lat": 0.0, "is_reserved": 0, "lat": 38.8745915, "fusion_lon": 0.0, "is_disabled": 0}, {"rental_uris": {"android": "https://dc.lft.to/lastmile_qr_scan", "ios": "https://dc.lft.to/lastmile_qr_scan"}, "type": "electric_bike", "lon": -77.04540633333333, "name": "fd716d252b839c378094eabefb4cf90d", "bike_id": "fd716d252b839c378094eabefb4cf90d", "fusion_lat": 0.0, "is_reserved": 0, "lat": 38.88565783333333, "fusion_lon": 0.0, "is_disabled": 0}, {"rental_uris": {"android": "https://dc.lft.to/lastmile_qr_scan", "ios": "https://dc.lft.to/lastmile_qr_scan"}, "type": "electric_scooter", "lon": -77.0438025, "name": "9b9223ae069b2e309aaeddc3c20b2ca9", "bike_id": "9b9223ae069b2e309aaeddc3c20b2ca9", "fusion_lat": 0.0, "is_reserved": 0, "lat": 38.920700333333336, "fusion_lon": 0.0, "is_disabled": 0}, {"rental_uris": {"android": "https://dc.lft.to/lastmile_qr_scan", "ios": "https://dc.lft.to/lastmile_qr_scan"}, "type": "electric_scooter", "lon": -77.02402766666667, "name": "fab165120f3501d586b3fc197509d821", "bike_id": "fab165120f3501d586b3fc197509d821", "fusion_lat": 0.0, "is_reserved": 0, "lat": 38.91087016666667, "fusion_lon": 0.0, "is_disabled": 0}, {"rental_uris": {"android": "https://dc.lft.to/lastmile_qr_scan", "ios": "https://dc.lft.to/lastmile_qr_scan"}, "type": "electric_scooter", "lon": -77.0436295, "name": "4441ee1667766650d751b846cd88522e", "bike_id": "4441ee1667766650d751b846cd88522e", "fusion_lat": 0.0, "is_reserved": 0, "lat": 38.89236433333333, "fusion_lon": 0.0, "is_disabled": 0}, {"rental_uris": {"android": "https://dc.lft.to/lastmile_qr_scan", "ios": "https://dc.lft.to/lastmile_qr_scan"}, "type": "electric_scooter", "lon": -77.05439216666667, "name": "e9153c0e95fb57c15bf7c73e56c341fb", "bike_id": "e9153c0e95fb57c15bf7c73e56c341fb", "fusion_lat": 0.0, "is_reserved": 0, "lat": 38.89604, "fusion_lon": 0.0, "is_disabled": 0}, {"rental_uris": {"android": "https://dc.lft.to/lastmile_qr_scan", "ios": "https://dc.lft.to/lastmile_qr_scan"}, "type": "electric_scooter", "lon": -77.00887933333334, "name": "e0d70f0f322c6b2d6139abc135cba597", "bike_id": "e0d70f0f322c6b2d6139abc135cba597", "fusion_lat": 0.0, "is_reserved": 0, "lat": 38.90539283333333, "fusion_lon": 0.0, "is_disabled": 0}, {"rental_uris": {"android": "https://dc.lft.to/lastmile_qr_scan", "ios": "https://dc.lft.to/lastmile_qr_scan"}, "type": "electric_scooter", "lon": -77.02175583333333, "name": "3bf6cf0a5756b2c6e5a4c11c98620f73", "bike_id": "3bf6cf0a5756b2c6e5a4c11c98620f73", "fusion_lat": 0.0, "is_reserved": 0, "lat": 38.897262, "fusion_lon": 0.0, "is_disabled": 0}, {"rental_uris": {"android": "https://dc.lft.to/lastmile_qr_scan", "ios": "https://dc.lft.to/lastmile_qr_scan"}, "type": "electric_scooter", "lon": -77.03347316666667, "name": "a26f904d54aae62f5af9157b2556d9fb", "bike_id": "a26f904d54aae62f5af9157b2556d9fb", "fusion_lat": 0.0, "is_reserved": 0, "lat": 38.898171166666664, "fusion_lon": 0.0, "is_disabled": 0}, {"rental_uris": {"android": "https://dc.lft.to/lastmile_qr_scan", "ios": "https://dc.lft.to/lastmile_qr_scan"}, "type": "electric_bike", "lon": -77.08575766666667, "name": "7c79ee57ed7157f056201c4a03a6bb78", "bike_id": "7c79ee57ed7157f056201c4a03a6bb78", "fusion_lat": 0.0, "is_reserved": 0, "lat": 38.8742535, "fusion_lon": 0.0, "is_disabled": 0}, {"rental_uris": {"android": "https://dc.lft.to/lastmile_qr_scan", "ios": "https://dc.lft.to/lastmile_qr_scan"}, "type": "electric_scooter", "lon": -77.00222133333334, "name": "f684c846d714e52bd5fd76e1da80ed9e", "bike_id": "f684c846d714e52bd5fd76e1da80ed9e", "fusion_lat": 0.0, "is_reserved": 0, "lat": 38.900040833333335, "fusion_lon": 0.0, "is_disabled": 0}, {"rental_uris": {"android": "https://dc.lft.to/lastmile_qr_scan", "ios": "https://dc.lft.to/lastmile_qr_scan"}, "type": "electric_bike", "lon": -77.0249745, "name": "b81b3132ba52f63517d183fad1668d23", "bike_id": "b81b3132ba52f63517d183fad1668d23", "fusion_lat": 0.0, "is_reserved": 0, "lat": 38.974047166666665, "fusion_lon": 0.0, "is_disabled": 0}, {"rental_uris": {"android": "https://dc.lft.to/lastmile_qr_scan", "ios": "https://dc.lft.to/lastmile_qr_scan"}, "type": "electric_scooter", "lon": -76.99378166666666, "name": "e7b2de7282cb452489e59090efd47d9d", "bike_id": "e7b2de7282cb452489e59090efd47d9d", "fusion_lat": 0.0, "is_reserved": 0, "lat": 38.889699666666665, "fusion_lon": 0.0, "is_disabled": 0}, {"rental_uris": {"android": "https://dc.lft.to/lastmile_qr_scan", "ios": "https://dc.lft.to/lastmile_qr_scan"}, "type": "electric_scooter", "lon": -77.02572733333334, "name": "4d3e40b6397c37ab75115dfdb27ed1f7", "bike_id": "4d3e40b6397c37ab75115dfdb27ed1f7", "fusion_lat": 0.0, "is_reserved": 0, "lat": 38.9310085, "fusion_lon": 0.0, "is_disabled": 0}, {"rental_uris": {"android": "https://dc.lft.to/lastmile_qr_scan", "ios": "https://dc.lft.to/lastmile_qr_scan"}, "type": "electric_scooter", "lon": -76.98040066666667, "name": "81467e0e092a11f7c8533d6c0b723518", "bike_id": "81467e0e092a11f7c8533d6c0b723518", "fusion_lat": 0.0, "is_reserved": 0, "lat": 38.916799833333336, "fusion_lon": 0.0, "is_disabled": 0}, {"rental_uris": {"android": "https://dc.lft.to/lastmile_qr_scan", "ios": "https://dc.lft.to/lastmile_qr_scan"}, "type": "electric_scooter", "lon": -77.033576, "name": "841b3adb60797b488c255caa8c738de9", "bike_id": "841b3adb60797b488c255caa8c738de9", "fusion_lat": 0.0, "is_reserved": 0, "lat": 38.911778, "fusion_lon": 0.0, "is_disabled": 0}, {"rental_uris": {"android": "https://dc.lft.to/lastmile_qr_scan", "ios": "https://dc.lft.to/lastmile_qr_scan"}, "type": "electric_scooter", "lon": -77.01357883333333, "name": "62b90479d6f367d80755a450c3af4919", "bike_id": "62b90479d6f367d80755a450c3af4919", "fusion_lat": 0.0, "is_reserved": 0, "lat": 38.90387, "fusion_lon": 0.0, "is_disabled": 0}, {"rental_uris": {"android": "https://dc.lft.to/lastmile_qr_scan", "ios": "https://dc.lft.to/lastmile_qr_scan"}, "type": "electric_scooter", "lon": -76.98594483333333, "name": "914daaa08b00475e77b0469165b36065", "bike_id": "914daaa08b00475e77b0469165b36065", "fusion_lat": 0.0, "is_reserved": 0, "lat": 38.889624, "fusion_lon": 0.0, "is_disabled": 0}, {"rental_uris": {"android": "https://dc.lft.to/lastmile_qr_scan", "ios": "https://dc.lft.to/lastmile_qr_scan"}, "type": "electric_scooter", "lon": -76.99386116666666, "name": "f59eca807ed6e28d93132c249fed75a5", "bike_id": "f59eca807ed6e28d93132c249fed75a5", "fusion_lat": 0.0, "is_reserved": 0, "lat": 38.910072666666665, "fusion_lon": 0.0, "is_disabled": 0}, {"rental_uris": {"android": "https://dc.lft.to/lastmile_qr_scan", "ios": "https://dc.lft.to/lastmile_qr_scan"}, "type": "electric_scooter", "lon": -76.99744633333333, "name": "e20861b57dce5cae585b1250981508ca", "bike_id": "e20861b57dce5cae585b1250981508ca", "fusion_lat": 0.0, "is_reserved": 0, "lat": 38.93258733333333, "fusion_lon": 0.0, "is_disabled": 0}, {"rental_uris": {"android": "https://dc.lft.to/lastmile_qr_scan", "ios": "https://dc.lft.to/lastmile_qr_scan"}, "type": "electric_bike", "lon": -76.911259, "name": "bc1d6c0a5ac848d65be6a3e0c0116046", "bike_id": "bc1d6c0a5ac848d65be6a3e0c0116046", "fusion_lat": 0.0, "is_reserved": 0, "lat": 39.010385666666664, "fusion_lon": 0.0, "is_disabled": 0}, {"rental_uris": {"android": "https://dc.lft.to/lastmile_qr_scan", "ios": "https://dc.lft.to/lastmile_qr_scan"}, "type": "electric_scooter", "lon": -77.04336533333333, "name": "2cc20c3ea1e3c40c3a8fc0a7f3474508", "bike_id": "2cc20c3ea1e3c40c3a8fc0a7f3474508", "fusion_lat": 0.0, "is_reserved": 0, "lat": 38.91374283333333, "fusion_lon": 0.0, "is_disabled": 0}, {"rental_uris": {"android": "https://dc.lft.to/lastmile_qr_scan", "ios": "https://dc.lft.to/lastmile_qr_scan"}, "type": "electric_scooter", "lon": -77.03211566666667, "name": "94d8db934149c3afd0d8c551c0e25cb5", "bike_id": "94d8db934149c3afd0d8c551c0e25cb5", "fusion_lat": 0.0, "is_reserved": 0, "lat": 38.91192683333333, "fusion_lon": 0.0, "is_disabled": 0}, {"rental_uris": {"android": "https://dc.lft.to/lastmile_qr_scan", "ios": "https://dc.lft.to/lastmile_qr_scan"}, "type": "electric_scooter", "lon": -77.05267933333333, "name": "9906ddf2d63adc084eeff92921791042", "bike_id": "9906ddf2d63adc084eeff92921791042", "fusion_lat": 0.0, "is_reserved": 0, "lat": 38.927599666666666, "fusion_lon": 0.0, "is_disabled": 0}, {"rental_uris": {"android": "https://dc.lft.to/lastmile_qr_scan", "ios": "https://dc.lft.to/lastmile_qr_scan"}, "type": "electric_scooter", "lon": -77.01044416666667, "name": "78b473c11e32a83504f338f75e094019", "bike_id": "78b473c11e32a83504f338f75e094019", "fusion_lat": 0.0, "is_reserved": 0, "lat": 38.88452766666666, "fusion_lon": 0.0, "is_disabled": 0}, {"rental_uris": {"android": "https://dc.lft.to/lastmile_qr_scan", "ios": "https://dc.lft.to/lastmile_qr_scan"}, "type": "electric_scooter", "lon": -76.94142633333334, "name": "7b5fec6398d1570965fe976375950660", "bike_id": "7b5fec6398d1570965fe976375950660", "fusion_lat": 0.0, "is_reserved": 0, "lat": 38.8911035, "fusion_lon": 0.0, "is_disabled": 0}, {"rental_uris": {"android": "https://dc.lft.to/lastmile_qr_scan", "ios": "https://dc.lft.to/lastmile_qr_scan"}, "type": "electric_scooter", "lon": -76.98391666666667, "name": "42ba8e229947f30f1796df48b1a36720", "bike_id": "42ba8e229947f30f1796df48b1a36720", "fusion_lat": 0.0, "is_reserved": 0, "lat": 38.909717666666666, "fusion_lon": 0.0, "is_disabled": 0}, {"rental_uris": {"android": "https://dc.lft.to/lastmile_qr_scan", "ios": "https://dc.lft.to/lastmile_qr_scan"}, "type": "electric_scooter", "lon": -77.03294416666667, "name": "9f63a5ddec892cfc9901c1d8faff997c", "bike_id": "9f63a5ddec892cfc9901c1d8faff997c", "fusion_lat": 0.0, "is_reserved": 0, "lat": 38.90972933333333, "fusion_lon": 0.0, "is_disabled": 0}, {"rental_uris": {"android": "https://dc.lft.to/lastmile_qr_scan", "ios": "https://dc.lft.to/lastmile_qr_scan"}, "type": "electric_scooter", "lon": -77.07991916666667, "name": "5bc39b820d83db397ed0db904f7bdbfc", "bike_id": "5bc39b820d83db397ed0db904f7bdbfc", "fusion_lat": 0.0, "is_reserved": 0, "lat": 38.92361566666666, "fusion_lon": 0.0, "is_disabled": 0}, {"rental_uris": {"android": "https://dc.lft.to/lastmile_qr_scan", "ios": "https://dc.lft.to/lastmile_qr_scan"}, "type": "electric_scooter", "lon": -77.0244525, "name": "64193a58e410eddd710cb58f5eaf2b4e", "bike_id": "64193a58e410eddd710cb58f5eaf2b4e", "fusion_lat": 0.0, "is_reserved": 0, "lat": 38.92380216666667, "fusion_lon": 0.0, "is_disabled": 0}, {"rental_uris": {"android": "https://dc.lft.to/lastmile_qr_scan", "ios": "https://dc.lft.to/lastmile_qr_scan"}, "type": "electric_scooter", "lon": -77.039624, "name": "407412457faef90ac20cc7746567e58e", "bike_id": "407412457faef90ac20cc7746567e58e", "fusion_lat": 0.0, "is_reserved": 0, "lat": 38.90618333333333, "fusion_lon": 0.0, "is_disabled": 0}, {"rental_uris": {"android": "https://dc.lft.to/lastmile_qr_scan", "ios": "https://dc.lft.to/lastmile_qr_scan"}, "type": "electric_bike", "lon": -76.97333066666667, "name": "b81756ccc2aa2a5eed7c3c13271d371c", "bike_id": "b81756ccc2aa2a5eed7c3c13271d371c", "fusion_lat": 0.0, "is_reserved": 0, "lat": 38.8506645, "fusion_lon": 0.0, "is_disabled": 0}, {"rental_uris": {"android": "https://dc.lft.to/lastmile_qr_scan", "ios": "https://dc.lft.to/lastmile_qr_scan"}, "type": "electric_scooter", "lon": -77.00863283333334, "name": "88a11efb3108d263786b36c7b88269eb", "bike_id": "88a11efb3108d263786b36c7b88269eb", "fusion_lat": 0.0, "is_reserved": 0, "lat": 38.90645766666667, "fusion_lon": 0.0, "is_disabled": 0}, {"rental_uris": {"android": "https://dc.lft.to/lastmile_qr_scan", "ios": "https://dc.lft.to/lastmile_qr_scan"}, "type": "electric_scooter", "lon": -77.0399435, "name": "540c91bf9a7ef58c07d6fcc93e49d79a", "bike_id": "540c91bf9a7ef58c07d6fcc93e49d79a", "fusion_lat": 0.0, "is_reserved": 0, "lat": 38.903817333333336, "fusion_lon": 0.0, "is_disabled": 0}, {"rental_uris": {"android": "https://dc.lft.to/lastmile_qr_scan", "ios": "https://dc.lft.to/lastmile_qr_scan"}, "type": "electric_scooter", "lon": -77.02168333333333, "name": "f95be972c9057255295d29ebaf2e3b5c", "bike_id": "f95be972c9057255295d29ebaf2e3b5c", "fusion_lat": 0.0, "is_reserved": 0, "lat": 38.88745683333333, "fusion_lon": 0.0, "is_disabled": 0}, {"rental_uris": {"android": "https://dc.lft.to/lastmile_qr_scan", "ios": "https://dc.lft.to/lastmile_qr_scan"}, "type": "electric_scooter", "lon": -77.033403, "name": "4acb894006aa5ba8dfcc8911e8ad473e", "bike_id": "4acb894006aa5ba8dfcc8911e8ad473e", "fusion_lat": 0.0, "is_reserved": 0, "lat": 38.919109666666664, "fusion_lon": 0.0, "is_disabled": 0}, {"rental_uris": {"android": "https://dc.lft.to/lastmile_qr_scan", "ios": "https://dc.lft.to/lastmile_qr_scan"}, "type": "electric_scooter", "lon": -77.01957183333333, "name": "a285034cfe4d5a6b3b43d097d690ba37", "bike_id": "a285034cfe4d5a6b3b43d097d690ba37", "fusion_lat": 0.0, "is_reserved": 0, "lat": 38.9356165, "fusion_lon": 0.0, "is_disabled": 0}, {"rental_uris": {"android": "https://dc.lft.to/lastmile_qr_scan", "ios": "https://dc.lft.to/lastmile_qr_scan"}, "type": "electric_scooter", "lon": -77.04251333333333, "name": "ca8fa505485f8a4b13255b4e315cc85b", "bike_id": "ca8fa505485f8a4b13255b4e315cc85b", "fusion_lat": 0.0, "is_reserved": 0, "lat": 38.922466, "fusion_lon": 0.0, "is_disabled": 0}, {"rental_uris": {"android": "https://dc.lft.to/lastmile_qr_scan", "ios": "https://dc.lft.to/lastmile_qr_scan"}, "type": "electric_scooter", "lon": -76.99481216666666, "name": "30f5ab8a1c1c40ff675b8056647fb461", "bike_id": "30f5ab8a1c1c40ff675b8056647fb461", "fusion_lat": 0.0, "is_reserved": 0, "lat": 38.862166333333334, "fusion_lon": 0.0, "is_disabled": 0}, {"rental_uris": {"android": "https://dc.lft.to/lastmile_qr_scan", "ios": "https://dc.lft.to/lastmile_qr_scan"}, "type": "electric_scooter", "lon": -77.03332516666667, "name": "747c9cc1f88de3763c0298d0fea0540d", "bike_id": "747c9cc1f88de3763c0298d0fea0540d", "fusion_lat": 0.0, "is_reserved": 0, "lat": 38.919072666666665, "fusion_lon": 0.0, "is_disabled": 0}, {"rental_uris": {"android": "https://dc.lft.to/lastmile_qr_scan", "ios": "https://dc.lft.to/lastmile_qr_scan"}, "type": "electric_scooter", "lon": -77.04649883333333, "name": "496f762a634431d8c7ea4fc520ffaffd", "bike_id": "496f762a634431d8c7ea4fc520ffaffd", "fusion_lat": 0.0, "is_reserved": 0, "lat": 38.90502766666667, "fusion_lon": 0.0, "is_disabled": 0}, {"rental_uris": {"android": "https://dc.lft.to/lastmile_qr_scan", "ios": "https://dc.lft.to/lastmile_qr_scan"}, "type": "electric_bike", "lon": -77.08526233333333, "name": "8a43312f19c27a1e1c5b5b3784a88ae8", "bike_id": "8a43312f19c27a1e1c5b5b3784a88ae8", "fusion_lat": 0.0, "is_reserved": 0, "lat": 38.856449, "fusion_lon": 0.0, "is_disabled": 0}, {"rental_uris": {"android": "https://dc.lft.to/lastmile_qr_scan", "ios": "https://dc.lft.to/lastmile_qr_scan"}, "type": "electric_scooter", "lon": -77.01113433333333, "name": "603860203019f10ea6c9d83340889a48", "bike_id": "603860203019f10ea6c9d83340889a48", "fusion_lat": 0.0, "is_reserved": 0, "lat": 38.9035935, "fusion_lon": 0.0, "is_disabled": 0}, {"rental_uris": {"android": "https://dc.lft.to/lastmile_qr_scan", "ios": "https://dc.lft.to/lastmile_qr_scan"}, "type": "electric_scooter", "lon": -77.0483865, "name": "64d3ac88aafcff96a3d2009382edc8d5", "bike_id": "64d3ac88aafcff96a3d2009382edc8d5", "fusion_lat": 0.0, "is_reserved": 0, "lat": 38.91339466666667, "fusion_lon": 0.0, "is_disabled": 0}, {"rental_uris": {"android": "https://dc.lft.to/lastmile_qr_scan", "ios": "https://dc.lft.to/lastmile_qr_scan"}, "type": "electric_scooter", "lon": -77.03207633333334, "name": "c6c182d6ba090d151eff2f2ed07eb77d", "bike_id": "c6c182d6ba090d151eff2f2ed07eb77d", "fusion_lat": 0.0, "is_reserved": 0, "lat": 38.922725166666666, "fusion_lon": 0.0, "is_disabled": 0}, {"rental_uris": {"android": "https://dc.lft.to/lastmile_qr_scan", "ios": "https://dc.lft.to/lastmile_qr_scan"}, "type": "electric_scooter", "lon": -77.0254255, "name": "5d0a5fc30ef684ed62986fe8ad61628a", "bike_id": "5d0a5fc30ef684ed62986fe8ad61628a", "fusion_lat": 0.0, "is_reserved": 0, "lat": 38.89221833333333, "fusion_lon": 0.0, "is_disabled": 0}, {"rental_uris": {"android": "https://dc.lft.to/lastmile_qr_scan", "ios": "https://dc.lft.to/lastmile_qr_scan"}, "type": "electric_scooter", "lon": -76.94842416666667, "name": "ddd67e184fd771132ebcd1b0bd9fb2a2", "bike_id": "ddd67e184fd771132ebcd1b0bd9fb2a2", "fusion_lat": 0.0, "is_reserved": 0, "lat": 38.89490633333333, "fusion_lon": 0.0, "is_disabled": 0}, {"rental_uris": {"android": "https://dc.lft.to/lastmile_qr_scan", "ios": "https://dc.lft.to/lastmile_qr_scan"}, "type": "electric_scooter", "lon": -77.00343216666667, "name": "1f0f6e767d65e0d24889ffd90e765065", "bike_id": "1f0f6e767d65e0d24889ffd90e765065", "fusion_lat": 0.0, "is_reserved": 0, "lat": 38.89342466666667, "fusion_lon": 0.0, "is_disabled": 0}, {"rental_uris": {"android": "https://dc.lft.to/lastmile_qr_scan", "ios": "https://dc.lft.to/lastmile_qr_scan"}, "type": "electric_scooter", "lon": -76.993645, "name": "2ff87c74fd15953cba892d2d95efac1a", "bike_id": "2ff87c74fd15953cba892d2d95efac1a", "fusion_lat": 0.0, "is_reserved": 0, "lat": 38.92841333333333, "fusion_lon": 0.0, "is_disabled": 0}, {"rental_uris": {"android": "https://dc.lft.to/lastmile_qr_scan", "ios": "https://dc.lft.to/lastmile_qr_scan"}, "type": "electric_scooter", "lon": -76.99010283333334, "name": "7539d9324d061649fbd990d56cadc9a3", "bike_id": "7539d9324d061649fbd990d56cadc9a3", "fusion_lat": 0.0, "is_reserved": 0, "lat": 38.865050333333336, "fusion_lon": 0.0, "is_disabled": 0}, {"rental_uris": {"android": "https://dc.lft.to/lastmile_qr_scan", "ios": "https://dc.lft.to/lastmile_qr_scan"}, "type": "electric_scooter", "lon": -77.02827983333333, "name": "e213fa9833305aa1979dd696c2c7dabe", "bike_id": "e213fa9833305aa1979dd696c2c7dabe", "fusion_lat": 0.0, "is_reserved": 0, "lat": 38.9247185, "fusion_lon": 0.0, "is_disabled": 0}, {"rental_uris": {"android": "https://dc.lft.to/lastmile_qr_scan", "ios": "https://dc.lft.to/lastmile_qr_scan"}, "type": "electric_scooter", "lon": -76.99083283333333, "name": "18a451b470e63fb39743bbe2dbe855d8", "bike_id": "18a451b470e63fb39743bbe2dbe855d8", "fusion_lat": 0.0, "is_reserved": 0, "lat": 38.8605395, "fusion_lon": 0.0, "is_disabled": 0}, {"rental_uris": {"android": "https://dc.lft.to/lastmile_qr_scan", "ios": "https://dc.lft.to/lastmile_qr_scan"}, "type": "electric_scooter", "lon": -76.999442, "name": "27983a754e4d12c551b6695233f8c797", "bike_id": "27983a754e4d12c551b6695233f8c797", "fusion_lat": 0.0, "is_reserved": 0, "lat": 38.843238166666666, "fusion_lon": 0.0, "is_disabled": 0}, {"rental_uris": {"android": "https://dc.lft.to/lastmile_qr_scan", "ios": "https://dc.lft.to/lastmile_qr_scan"}, "type": "electric_bike", "lon": -77.0281855, "name": "327048b5889db0f587156458d0ef6106", "bike_id": "327048b5889db0f587156458d0ef6106", "fusion_lat": 0.0, "is_reserved": 0, "lat": 38.920753166666664, "fusion_lon": 0.0, "is_disabled": 0}, {"rental_uris": {"android": "https://dc.lft.to/lastmile_qr_scan", "ios": "https://dc.lft.to/lastmile_qr_scan"}, "type": "electric_scooter", "lon": -77.012083, "name": "3e62aea91d95974489f3764532492277", "bike_id": "3e62aea91d95974489f3764532492277", "fusion_lat": 0.0, "is_reserved": 0, "lat": 38.92587266666666, "fusion_lon": 0.0, "is_disabled": 0}, {"rental_uris": {"android": "https://dc.lft.to/lastmile_qr_scan", "ios": "https://dc.lft.to/lastmile_qr_scan"}, "type": "electric_scooter", "lon": -77.01998733333333, "name": "8c4f896266f3a7ebf507493a42be2eb1", "bike_id": "8c4f896266f3a7ebf507493a42be2eb1", "fusion_lat": 0.0, "is_reserved": 0, "lat": 38.96640283333333, "fusion_lon": 0.0, "is_disabled": 0}, {"rental_uris": {"android": "https://dc.lft.to/lastmile_qr_scan", "ios": "https://dc.lft.to/lastmile_qr_scan"}, "type": "electric_scooter", "lon": -77.04655516666666, "name": "f70a5f5acb88b9a664e3946859755fa4", "bike_id": "f70a5f5acb88b9a664e3946859755fa4", "fusion_lat": 0.0, "is_reserved": 0, "lat": 38.900032333333336, "fusion_lon": 0.0, "is_disabled": 0}, {"rental_uris": {"android": "https://dc.lft.to/lastmile_qr_scan", "ios": "https://dc.lft.to/lastmile_qr_scan"}, "type": "electric_scooter", "lon": -77.02694583333333, "name": "f6af98b6d2798451df1541ff34645b43", "bike_id": "f6af98b6d2798451df1541ff34645b43", "fusion_lat": 0.0, "is_reserved": 0, "lat": 38.912527, "fusion_lon": 0.0, "is_disabled": 0}, {"rental_uris": {"android": "https://dc.lft.to/lastmile_qr_scan", "ios": "https://dc.lft.to/lastmile_qr_scan"}, "type": "electric_scooter", "lon": -77.038511, "name": "651b6f37086bc7f2258b99d349a67ca1", "bike_id": "651b6f37086bc7f2258b99d349a67ca1", "fusion_lat": 0.0, "is_reserved": 0, "lat": 38.91550183333333, "fusion_lon": 0.0, "is_disabled": 0}, {"rental_uris": {"android": "https://dc.lft.to/lastmile_qr_scan", "ios": "https://dc.lft.to/lastmile_qr_scan"}, "type": "electric_scooter", "lon": -76.99402116666667, "name": "882142b784577ba473e321303e967e9c", "bike_id": "882142b784577ba473e321303e967e9c", "fusion_lat": 0.0, "is_reserved": 0, "lat": 38.886045, "fusion_lon": 0.0, "is_disabled": 0}, {"rental_uris": {"android": "https://dc.lft.to/lastmile_qr_scan", "ios": "https://dc.lft.to/lastmile_qr_scan"}, "type": "electric_scooter", "lon": -76.999449, "name": "d8e197a7cce12f917e2008a56df49c67", "bike_id": "d8e197a7cce12f917e2008a56df49c67", "fusion_lat": 0.0, "is_reserved": 0, "lat": 38.8432045, "fusion_lon": 0.0, "is_disabled": 0}, {"rental_uris": {"android": "https://dc.lft.to/lastmile_qr_scan", "ios": "https://dc.lft.to/lastmile_qr_scan"}, "type": "electric_scooter", "lon": -77.04995066666666, "name": "ce553cd1efcd02940546052718a28935", "bike_id": "ce553cd1efcd02940546052718a28935", "fusion_lat": 0.0, "is_reserved": 0, "lat": 38.892216166666664, "fusion_lon": 0.0, "is_disabled": 0}, {"rental_uris": {"android": "https://dc.lft.to/lastmile_qr_scan", "ios": "https://dc.lft.to/lastmile_qr_scan"}, "type": "electric_scooter", "lon": -77.03080333333334, "name": "8024a962a8555ee2dee5e09e0851cd62", "bike_id": "8024a962a8555ee2dee5e09e0851cd62", "fusion_lat": 0.0, "is_reserved": 0, "lat": 38.92236783333333, "fusion_lon": 0.0, "is_disabled": 0}, {"rental_uris": {"android": "https://dc.lft.to/lastmile_qr_scan", "ios": "https://dc.lft.to/lastmile_qr_scan"}, "type": "electric_scooter", "lon": -77.02037866666667, "name": "09717bfb7524ad6b5ee8e8f97e48a345", "bike_id": "09717bfb7524ad6b5ee8e8f97e48a345", "fusion_lat": 0.0, "is_reserved": 0, "lat": 38.89274016666667, "fusion_lon": 0.0, "is_disabled": 0}, {"rental_uris": {"android": "https://dc.lft.to/lastmile_qr_scan", "ios": "https://dc.lft.to/lastmile_qr_scan"}, "type": "electric_scooter", "lon": -77.02528016666666, "name": "c9eeae5016903d108ab5826b1758115e", "bike_id": "c9eeae5016903d108ab5826b1758115e", "fusion_lat": 0.0, "is_reserved": 0, "lat": 38.920962, "fusion_lon": 0.0, "is_disabled": 0}, {"rental_uris": {"android": "https://dc.lft.to/lastmile_qr_scan", "ios": "https://dc.lft.to/lastmile_qr_scan"}, "type": "electric_scooter", "lon": -77.02427466666667, "name": "dcad7407ad32959a7a4c585471cadb32", "bike_id": "dcad7407ad32959a7a4c585471cadb32", "fusion_lat": 0.0, "is_reserved": 0, "lat": 38.892288, "fusion_lon": 0.0, "is_disabled": 0}, {"rental_uris": {"android": "https://dc.lft.to/lastmile_qr_scan", "ios": "https://dc.lft.to/lastmile_qr_scan"}, "type": "electric_scooter", "lon": -77.0654085, "name": "da33a4b41842578be12593b42f62a37e", "bike_id": "da33a4b41842578be12593b42f62a37e", "fusion_lat": 0.0, "is_reserved": 0, "lat": 38.950647000000004, "fusion_lon": 0.0, "is_disabled": 0}, {"rental_uris": {"android": "https://dc.lft.to/lastmile_qr_scan", "ios": "https://dc.lft.to/lastmile_qr_scan"}, "type": "electric_scooter", "lon": -76.98660433333333, "name": "ca674ed1522274dbd33aed76a35b73d6", "bike_id": "ca674ed1522274dbd33aed76a35b73d6", "fusion_lat": 0.0, "is_reserved": 0, "lat": 38.90261116666667, "fusion_lon": 0.0, "is_disabled": 0}, {"rental_uris": {"android": "https://dc.lft.to/lastmile_qr_scan", "ios": "https://dc.lft.to/lastmile_qr_scan"}, "type": "electric_bike", "lon": -77.178028, "name": "00980d9b9bd16f0fd55d6a1b757cffc8", "bike_id": "00980d9b9bd16f0fd55d6a1b757cffc8", "fusion_lat": 0.0, "is_reserved": 0, "lat": 39.08841483333333, "fusion_lon": 0.0, "is_disabled": 0}, {"rental_uris": {"android": "https://dc.lft.to/lastmile_qr_scan", "ios": "https://dc.lft.to/lastmile_qr_scan"}, "type": "electric_scooter", "lon": -76.98766683333334, "name": "87dafe67a2f77eb9ba1981befa6ff997", "bike_id": "87dafe67a2f77eb9ba1981befa6ff997", "fusion_lat": 0.0, "is_reserved": 0, "lat": 38.84461616666667, "fusion_lon": 0.0, "is_disabled": 0}, {"rental_uris": {"android": "https://dc.lft.to/lastmile_qr_scan", "ios": "https://dc.lft.to/lastmile_qr_scan"}, "type": "electric_scooter", "lon": -76.9887585, "name": "cd3319279065d03d3b9ee91c80a3d3a2", "bike_id": "cd3319279065d03d3b9ee91c80a3d3a2", "fusion_lat": 0.0, "is_reserved": 0, "lat": 38.8667565, "fusion_lon": 0.0, "is_disabled": 0}, {"rental_uris": {"android": "https://dc.lft.to/lastmile_qr_scan", "ios": "https://dc.lft.to/lastmile_qr_scan"}, "type": "electric_scooter", "lon": -77.04661333333334, "name": "33fefa0025c5c01fb196682c49a1e071", "bike_id": "33fefa0025c5c01fb196682c49a1e071", "fusion_lat": 0.0, "is_reserved": 0, "lat": 38.89337233333333, "fusion_lon": 0.0, "is_disabled": 0}, {"rental_uris": {"android": "https://dc.lft.to/lastmile_qr_scan", "ios": "https://dc.lft.to/lastmile_qr_scan"}, "type": "electric_bike", "lon": -76.981554, "name": "ef4d1cf00d3da41ee8be8e66c2cc2839", "bike_id": "ef4d1cf00d3da41ee8be8e66c2cc2839", "fusion_lat": 0.0, "is_reserved": 0, "lat": 38.95960016666667, "fusion_lon": 0.0, "is_disabled": 0}, {"rental_uris": {"android": "https://dc.lft.to/lastmile_qr_scan", "ios": "https://dc.lft.to/lastmile_qr_scan"}, "type": "electric_scooter", "lon": -77.03835466666666, "name": "0f00039e3d15a4d8d00d923910cfd7b0", "bike_id": "0f00039e3d15a4d8d00d923910cfd7b0", "fusion_lat": 0.0, "is_reserved": 0, "lat": 38.9118715, "fusion_lon": 0.0, "is_disabled": 0}, {"rental_uris": {"android": "https://dc.lft.to/lastmile_qr_scan", "ios": "https://dc.lft.to/lastmile_qr_scan"}, "type": "electric_scooter", "lon": -77.04368183333334, "name": "c5d778543e252bfbf68bb1c106ff44ee", "bike_id": "c5d778543e252bfbf68bb1c106ff44ee", "fusion_lat": 0.0, "is_reserved": 0, "lat": 38.9256565, "fusion_lon": 0.0, "is_disabled": 0}, {"rental_uris": {"android": "https://dc.lft.to/lastmile_qr_scan", "ios": "https://dc.lft.to/lastmile_qr_scan"}, "type": "electric_scooter", "lon": -77.039592, "name": "cfa4a3e39917751ceeb80304181f9f15", "bike_id": "cfa4a3e39917751ceeb80304181f9f15", "fusion_lat": 0.0, "is_reserved": 0, "lat": 38.892398166666666, "fusion_lon": 0.0, "is_disabled": 0}, {"rental_uris": {"android": "https://dc.lft.to/lastmile_qr_scan", "ios": "https://dc.lft.to/lastmile_qr_scan"}, "type": "electric_scooter", "lon": -77.046628, "name": "e1ae8d06101c40c0dcedd94847d50055", "bike_id": "e1ae8d06101c40c0dcedd94847d50055", "fusion_lat": 0.0, "is_reserved": 0, "lat": 38.89918933333333, "fusion_lon": 0.0, "is_disabled": 0}, {"rental_uris": {"android": "https://dc.lft.to/lastmile_qr_scan", "ios": "https://dc.lft.to/lastmile_qr_scan"}, "type": "electric_scooter", "lon": -76.99460083333334, "name": "5c515c0e3669f20063a295a06b6a7293", "bike_id": "5c515c0e3669f20063a295a06b6a7293", "fusion_lat": 0.0, "is_reserved": 0, "lat": 38.8516585, "fusion_lon": 0.0, "is_disabled": 0}, {"rental_uris": {"android": "https://dc.lft.to/lastmile_qr_scan", "ios": "https://dc.lft.to/lastmile_qr_scan"}, "type": "electric_bike", "lon": -77.08057783333334, "name": "4857f957ab4e637354b07c1caf125511", "bike_id": "4857f957ab4e637354b07c1caf125511", "fusion_lat": 0.0, "is_reserved": 0, "lat": 38.84835916666667, "fusion_lon": 0.0, "is_disabled": 0}, {"rental_uris": {"android": "https://dc.lft.to/lastmile_qr_scan", "ios": "https://dc.lft.to/lastmile_qr_scan"}, "type": "electric_scooter", "lon": -77.046929, "name": "a1c824d315c9949b178c119f27670586", "bike_id": "a1c824d315c9949b178c119f27670586", "fusion_lat": 0.0, "is_reserved": 0, "lat": 38.9210835, "fusion_lon": 0.0, "is_disabled": 0}, {"rental_uris": {"android": "https://dc.lft.to/lastmile_qr_scan", "ios": "https://dc.lft.to/lastmile_qr_scan"}, "type": "electric_scooter", "lon": -76.98474, "name": "c08ce8ee9c06831802d9e8a2049705c1", "bike_id": "c08ce8ee9c06831802d9e8a2049705c1", "fusion_lat": 0.0, "is_reserved": 0, "lat": 38.9086275, "fusion_lon": 0.0, "is_disabled": 0}, {"rental_uris": {"android": "https://dc.lft.to/lastmile_qr_scan", "ios": "https://dc.lft.to/lastmile_qr_scan"}, "type": "electric_scooter", "lon": -76.93267883333333, "name": "d235751c1e290e1e6ae0ec9726433c51", "bike_id": "d235751c1e290e1e6ae0ec9726433c51", "fusion_lat": 0.0, "is_reserved": 0, "lat": 38.88774166666666, "fusion_lon": 0.0, "is_disabled": 0}, {"rental_uris": {"android": "https://dc.lft.to/lastmile_qr_scan", "ios": "https://dc.lft.to/lastmile_qr_scan"}, "type": "electric_scooter", "lon": -77.0219815, "name": "a6cf86eee1cc28af4d08bac9b9eff3c1", "bike_id": "a6cf86eee1cc28af4d08bac9b9eff3c1", "fusion_lat": 0.0, "is_reserved": 0, "lat": 38.91099416666667, "fusion_lon": 0.0, "is_disabled": 0}, {"rental_uris": {"android": "https://dc.lft.to/lastmile_qr_scan", "ios": "https://dc.lft.to/lastmile_qr_scan"}, "type": "electric_scooter", "lon": -76.986104, "name": "c45dbbe9f22abd1daf003affebb89f22", "bike_id": "c45dbbe9f22abd1daf003affebb89f22", "fusion_lat": 0.0, "is_reserved": 0, "lat": 38.90699016666667, "fusion_lon": 0.0, "is_disabled": 0}, {"rental_uris": {"android": "https://dc.lft.to/lastmile_qr_scan", "ios": "https://dc.lft.to/lastmile_qr_scan"}, "type": "electric_bike", "lon": -77.13179216666667, "name": "4f4e0f188b733b69129eecb22249bd4d", "bike_id": "4f4e0f188b733b69129eecb22249bd4d", "fusion_lat": 0.0, "is_reserved": 0, "lat": 38.869106, "fusion_lon": 0.0, "is_disabled": 0}, {"rental_uris": {"android": "https://dc.lft.to/lastmile_qr_scan", "ios": "https://dc.lft.to/lastmile_qr_scan"}, "type": "electric_scooter", "lon": -76.9511145, "name": "dd075c612f67801c3a94cafb72152b4b", "bike_id": "dd075c612f67801c3a94cafb72152b4b", "fusion_lat": 0.0, "is_reserved": 0, "lat": 38.88796933333333, "fusion_lon": 0.0, "is_disabled": 0}, {"rental_uris": {"android": "https://dc.lft.to/lastmile_qr_scan", "ios": "https://dc.lft.to/lastmile_qr_scan"}, "type": "electric_scooter", "lon": -77.028258, "name": "86c50a23b4c02d9bef93df0756234308", "bike_id": "86c50a23b4c02d9bef93df0756234308", "fusion_lat": 0.0, "is_reserved": 0, "lat": 38.929571333333335, "fusion_lon": 0.0, "is_disabled": 0}, {"rental_uris": {"android": "https://dc.lft.to/lastmile_qr_scan", "ios": "https://dc.lft.to/lastmile_qr_scan"}, "type": "electric_scooter", "lon": -77.0279015, "name": "e27ff8e3a8b76400025c6c5ab39e10c9", "bike_id": "e27ff8e3a8b76400025c6c5ab39e10c9", "fusion_lat": 0.0, "is_reserved": 0, "lat": 38.961338833333336, "fusion_lon": 0.0, "is_disabled": 0}, {"rental_uris": {"android": "https://dc.lft.to/lastmile_qr_scan", "ios": "https://dc.lft.to/lastmile_qr_scan"}, "type": "electric_scooter", "lon": -77.01623416666666, "name": "a357b04ce9da5345d70b294d66bf9a46", "bike_id": "a357b04ce9da5345d70b294d66bf9a46", "fusion_lat": 0.0, "is_reserved": 0, "lat": 38.90609516666667, "fusion_lon": 0.0, "is_disabled": 0}, {"rental_uris": {"android": "https://dc.lft.to/lastmile_qr_scan", "ios": "https://dc.lft.to/lastmile_qr_scan"}, "type": "electric_scooter", "lon": -77.05186766666667, "name": "a6c4572e3368717bb9954b507581b723", "bike_id": "a6c4572e3368717bb9954b507581b723", "fusion_lat": 0.0, "is_reserved": 0, "lat": 38.925417333333336, "fusion_lon": 0.0, "is_disabled": 0}, {"rental_uris": {"android": "https://dc.lft.to/lastmile_qr_scan", "ios": "https://dc.lft.to/lastmile_qr_scan"}, "type": "electric_scooter", "lon": -76.98881183333333, "name": "f2e77b34eb26a6b82de8a859c1452b63", "bike_id": "f2e77b34eb26a6b82de8a859c1452b63", "fusion_lat": 0.0, "is_reserved": 0, "lat": 38.9063355, "fusion_lon": 0.0, "is_disabled": 0}, {"rental_uris": {"android": "https://dc.lft.to/lastmile_qr_scan", "ios": "https://dc.lft.to/lastmile_qr_scan"}, "type": "electric_scooter", "lon": -77.012058, "name": "b81acfc6e020d075f51035d9140c3951", "bike_id": "b81acfc6e020d075f51035d9140c3951", "fusion_lat": 0.0, "is_reserved": 0, "lat": 38.9218065, "fusion_lon": 0.0, "is_disabled": 0}, {"rental_uris": {"android": "https://dc.lft.to/lastmile_qr_scan", "ios": "https://dc.lft.to/lastmile_qr_scan"}, "type": "electric_scooter", "lon": -77.03242816666666, "name": "023db744109bf6a0d56cc2082d435e29", "bike_id": "023db744109bf6a0d56cc2082d435e29", "fusion_lat": 0.0, "is_reserved": 0, "lat": 38.93871433333333, "fusion_lon": 0.0, "is_disabled": 0}, {"rental_uris": {"android": "https://dc.lft.to/lastmile_qr_scan", "ios": "https://dc.lft.to/lastmile_qr_scan"}, "type": "electric_scooter", "lon": -77.02348633333334, "name": "a4e2d3bae24592a2d2783e95dc5703d8", "bike_id": "a4e2d3bae24592a2d2783e95dc5703d8", "fusion_lat": 0.0, "is_reserved": 0, "lat": 38.92976183333333, "fusion_lon": 0.0, "is_disabled": 0}, {"rental_uris": {"android": "https://dc.lft.to/lastmile_qr_scan", "ios": "https://dc.lft.to/lastmile_qr_scan"}, "type": "electric_scooter", "lon": -77.028492, "name": "26a8b541f4b3b17a0deccfda502073ef", "bike_id": "26a8b541f4b3b17a0deccfda502073ef", "fusion_lat": 0.0, "is_reserved": 0, "lat": 38.927646833333334, "fusion_lon": 0.0, "is_disabled": 0}, {"rental_uris": {"android": "https://dc.lft.to/lastmile_qr_scan", "ios": "https://dc.lft.to/lastmile_qr_scan"}, "type": "electric_scooter", "lon": -76.98701283333334, "name": "2325f3ff9f0a1289f6559a10739af6b7", "bike_id": "2325f3ff9f0a1289f6559a10739af6b7", "fusion_lat": 0.0, "is_reserved": 0, "lat": 38.90711983333333, "fusion_lon": 0.0, "is_disabled": 0}, {"rental_uris": {"android": "https://dc.lft.to/lastmile_qr_scan", "ios": "https://dc.lft.to/lastmile_qr_scan"}, "type": "electric_bike", "lon": -77.02514066666667, "name": "55d23929baa3fbbe4278a889d1da4d90", "bike_id": "55d23929baa3fbbe4278a889d1da4d90", "fusion_lat": 0.0, "is_reserved": 0, "lat": 38.934174666666664, "fusion_lon": 0.0, "is_disabled": 0}, {"rental_uris": {"android": "https://dc.lft.to/lastmile_qr_scan", "ios": "https://dc.lft.to/lastmile_qr_scan"}, "type": "electric_bike", "lon": -76.9234425, "name": "f6a05b5d47dcaa50261699f2ec381a62", "bike_id": "f6a05b5d47dcaa50261699f2ec381a62", "fusion_lat": 0.0, "is_reserved": 0, "lat": 38.88790616666667, "fusion_lon": 0.0, "is_disabled": 0}, {"rental_uris": {"android": "https://dc.lft.to/lastmile_qr_scan", "ios": "https://dc.lft.to/lastmile_qr_scan"}, "type": "electric_scooter", "lon": -77.0018275, "name": "d0eee8b894beb64d5fdd3694c909c214", "bike_id": "d0eee8b894beb64d5fdd3694c909c214", "fusion_lat": 0.0, "is_reserved": 0, "lat": 38.90012016666667, "fusion_lon": 0.0, "is_disabled": 0}, {"rental_uris": {"android": "https://dc.lft.to/lastmile_qr_scan", "ios": "https://dc.lft.to/lastmile_qr_scan"}, "type": "electric_scooter", "lon": -76.99032, "name": "92a1b5223ba9c7015fd6b5b1b26777c4", "bike_id": "92a1b5223ba9c7015fd6b5b1b26777c4", "fusion_lat": 0.0, "is_reserved": 0, "lat": 38.864036, "fusion_lon": 0.0, "is_disabled": 0}, {"rental_uris": {"android": "https://dc.lft.to/lastmile_qr_scan", "ios": "https://dc.lft.to/lastmile_qr_scan"}, "type": "electric_scooter", "lon": -77.049645, "name": "b67faf0c114500a73d26b6c8e4e24f31", "bike_id": "b67faf0c114500a73d26b6c8e4e24f31", "fusion_lat": 0.0, "is_reserved": 0, "lat": 38.91253666666667, "fusion_lon": 0.0, "is_disabled": 0}, {"rental_uris": {"android": "https://dc.lft.to/lastmile_qr_scan", "ios": "https://dc.lft.to/lastmile_qr_scan"}, "type": "electric_scooter", "lon": -76.9849905, "name": "78c9a168f688a81fd584109cddbe55cc", "bike_id": "78c9a168f688a81fd584109cddbe55cc", "fusion_lat": 0.0, "is_reserved": 0, "lat": 38.860475666666666, "fusion_lon": 0.0, "is_disabled": 0}, {"rental_uris": {"android": "https://dc.lft.to/lastmile_qr_scan", "ios": "https://dc.lft.to/lastmile_qr_scan"}, "type": "electric_scooter", "lon": -77.03431116666667, "name": "49fa8cdf927d0e0104a4adfb6ac1b404", "bike_id": "49fa8cdf927d0e0104a4adfb6ac1b404", "fusion_lat": 0.0, "is_reserved": 0, "lat": 38.90708333333333, "fusion_lon": 0.0, "is_disabled": 0}, {"rental_uris": {"android": "https://dc.lft.to/lastmile_qr_scan", "ios": "https://dc.lft.to/lastmile_qr_scan"}, "type": "electric_scooter", "lon": -76.990201, "name": "d38661e1b38c1882a52d63f474ea8c05", "bike_id": "d38661e1b38c1882a52d63f474ea8c05", "fusion_lat": 0.0, "is_reserved": 0, "lat": 38.858635166666666, "fusion_lon": 0.0, "is_disabled": 0}, {"rental_uris": {"android": "https://dc.lft.to/lastmile_qr_scan", "ios": "https://dc.lft.to/lastmile_qr_scan"}, "type": "electric_scooter", "lon": -77.06161583333333, "name": "25c654752135536e15c3ee4bd317264a", "bike_id": "25c654752135536e15c3ee4bd317264a", "fusion_lat": 0.0, "is_reserved": 0, "lat": 38.905284333333334, "fusion_lon": 0.0, "is_disabled": 0}, {"rental_uris": {"android": "https://dc.lft.to/lastmile_qr_scan", "ios": "https://dc.lft.to/lastmile_qr_scan"}, "type": "electric_scooter", "lon": -77.06110766666667, "name": "abb4570b52f20421cb937e3818004495", "bike_id": "abb4570b52f20421cb937e3818004495", "fusion_lat": 0.0, "is_reserved": 0, "lat": 38.9432985, "fusion_lon": 0.0, "is_disabled": 0}, {"rental_uris": {"android": "https://dc.lft.to/lastmile_qr_scan", "ios": "https://dc.lft.to/lastmile_qr_scan"}, "type": "electric_scooter", "lon": -77.04739166666667, "name": "2036252002cfdf95ef8d6d20e6dd8264", "bike_id": "2036252002cfdf95ef8d6d20e6dd8264", "fusion_lat": 0.0, "is_reserved": 0, "lat": 38.905559, "fusion_lon": 0.0, "is_disabled": 0}, {"rental_uris": {"android": "https://dc.lft.to/lastmile_qr_scan", "ios": "https://dc.lft.to/lastmile_qr_scan"}, "type": "electric_scooter", "lon": -77.01707233333333, "name": "f9cf64623c209c803bb5fd5f4d5686ff", "bike_id": "f9cf64623c209c803bb5fd5f4d5686ff", "fusion_lat": 0.0, "is_reserved": 0, "lat": 38.90730583333333, "fusion_lon": 0.0, "is_disabled": 0}, {"rental_uris": {"android": "https://dc.lft.to/lastmile_qr_scan", "ios": "https://dc.lft.to/lastmile_qr_scan"}, "type": "electric_scooter", "lon": -76.92658266666666, "name": "f6c78ef5905a9de0b532c6cae0035ede", "bike_id": "f6c78ef5905a9de0b532c6cae0035ede", "fusion_lat": 0.0, "is_reserved": 0, "lat": 38.89547916666667, "fusion_lon": 0.0, "is_disabled": 0}, {"rental_uris": {"android": "https://dc.lft.to/lastmile_qr_scan", "ios": "https://dc.lft.to/lastmile_qr_scan"}, "type": "electric_scooter", "lon": -77.02547783333333, "name": "14a767bd395490842e9d239af4e2fc8a", "bike_id": "14a767bd395490842e9d239af4e2fc8a", "fusion_lat": 0.0, "is_reserved": 0, "lat": 38.892168166666664, "fusion_lon": 0.0, "is_disabled": 0}, {"rental_uris": {"android": "https://dc.lft.to/lastmile_qr_scan", "ios": "https://dc.lft.to/lastmile_qr_scan"}, "type": "electric_scooter", "lon": -77.02469516666666, "name": "a7498cd2bdb6c7f185357110c3ed0ff6", "bike_id": "a7498cd2bdb6c7f185357110c3ed0ff6", "fusion_lat": 0.0, "is_reserved": 0, "lat": 38.9390865, "fusion_lon": 0.0, "is_disabled": 0}, {"rental_uris": {"android": "https://dc.lft.to/lastmile_qr_scan", "ios": "https://dc.lft.to/lastmile_qr_scan"}, "type": "electric_scooter", "lon": -76.99767216666666, "name": "18fa0c8906fb279e80288c789c2b34bc", "bike_id": "18fa0c8906fb279e80288c789c2b34bc", "fusion_lat": 0.0, "is_reserved": 0, "lat": 38.921881666666664, "fusion_lon": 0.0, "is_disabled": 0}, {"rental_uris": {"android": "https://dc.lft.to/lastmile_qr_scan", "ios": "https://dc.lft.to/lastmile_qr_scan"}, "type": "electric_bike", "lon": -77.18301033333333, "name": "d78f24de364d1849b16b24e23e2814c7", "bike_id": "d78f24de364d1849b16b24e23e2814c7", "fusion_lat": 0.0, "is_reserved": 0, "lat": 38.88348366666666, "fusion_lon": 0.0, "is_disabled": 0}, {"rental_uris": {"android": "https://dc.lft.to/lastmile_qr_scan", "ios": "https://dc.lft.to/lastmile_qr_scan"}, "type": "electric_scooter", "lon": -76.99632066666666, "name": "a2ab17f9474a1a1ca257c8f856d4bf7a", "bike_id": "a2ab17f9474a1a1ca257c8f856d4bf7a", "fusion_lat": 0.0, "is_reserved": 0, "lat": 38.84619266666667, "fusion_lon": 0.0, "is_disabled": 0}, {"rental_uris": {"android": "https://dc.lft.to/lastmile_qr_scan", "ios": "https://dc.lft.to/lastmile_qr_scan"}, "type": "electric_scooter", "lon": -77.03148283333333, "name": "88a120b1ecdd5984dadeb33325ec3253", "bike_id": "88a120b1ecdd5984dadeb33325ec3253", "fusion_lat": 0.0, "is_reserved": 0, "lat": 38.9319465, "fusion_lon": 0.0, "is_disabled": 0}, {"rental_uris": {"android": "https://dc.lft.to/lastmile_qr_scan", "ios": "https://dc.lft.to/lastmile_qr_scan"}, "type": "electric_scooter", "lon": -77.0334915, "name": "d2668e4487bab806d4f4becc0cb9780f", "bike_id": "d2668e4487bab806d4f4becc0cb9780f", "fusion_lat": 0.0, "is_reserved": 0, "lat": 38.917113, "fusion_lon": 0.0, "is_disabled": 0}, {"rental_uris": {"android": "https://dc.lft.to/lastmile_qr_scan", "ios": "https://dc.lft.to/lastmile_qr_scan"}, "type": "electric_scooter", "lon": -77.017538, "name": "b9db4a1bfda3c65c1df287d5b83a03ab", "bike_id": "b9db4a1bfda3c65c1df287d5b83a03ab", "fusion_lat": 0.0, "is_reserved": 0, "lat": 38.9135635, "fusion_lon": 0.0, "is_disabled": 0}, {"rental_uris": {"android": "https://dc.lft.to/lastmile_qr_scan", "ios": "https://dc.lft.to/lastmile_qr_scan"}, "type": "electric_scooter", "lon": -77.04661733333333, "name": "8bc6354feb14c40cd547672cd50bc2b9", "bike_id": "8bc6354feb14c40cd547672cd50bc2b9", "fusion_lat": 0.0, "is_reserved": 0, "lat": 38.892331, "fusion_lon": 0.0, "is_disabled": 0}, {"rental_uris": {"android": "https://dc.lft.to/lastmile_qr_scan", "ios": "https://dc.lft.to/lastmile_qr_scan"}, "type": "electric_bike", "lon": -76.98750783333334, "name": "2862ece4eb2e4ebaf98aa1fd33e9f644", "bike_id": "2862ece4eb2e4ebaf98aa1fd33e9f644", "fusion_lat": 0.0, "is_reserved": 0, "lat": 38.9882475, "fusion_lon": 0.0, "is_disabled": 0}, {"rental_uris": {"android": "https://dc.lft.to/lastmile_qr_scan", "ios": "https://dc.lft.to/lastmile_qr_scan"}, "type": "electric_scooter", "lon": -77.02192533333333, "name": "b00857bc12f9bc2a285c0917e0befe81", "bike_id": "b00857bc12f9bc2a285c0917e0befe81", "fusion_lat": 0.0, "is_reserved": 0, "lat": 38.90198916666667, "fusion_lon": 0.0, "is_disabled": 0}, {"rental_uris": {"android": "https://dc.lft.to/lastmile_qr_scan", "ios": "https://dc.lft.to/lastmile_qr_scan"}, "type": "electric_scooter", "lon": -77.02432233333333, "name": "4aabc52e4ed11bbc4a9453703a851ca9", "bike_id": "4aabc52e4ed11bbc4a9453703a851ca9", "fusion_lat": 0.0, "is_reserved": 0, "lat": 38.9206265, "fusion_lon": 0.0, "is_disabled": 0}, {"rental_uris": {"android": "https://dc.lft.to/lastmile_qr_scan", "ios": "https://dc.lft.to/lastmile_qr_scan"}, "type": "electric_scooter", "lon": -77.011958, "name": "24815c7d853a915fe26f8eee85584ccd", "bike_id": "24815c7d853a915fe26f8eee85584ccd", "fusion_lat": 0.0, "is_reserved": 0, "lat": 38.89528983333334, "fusion_lon": 0.0, "is_disabled": 0}, {"rental_uris": {"android": "https://dc.lft.to/lastmile_qr_scan", "ios": "https://dc.lft.to/lastmile_qr_scan"}, "type": "electric_scooter", "lon": -77.03154933333333, "name": "e515e4a2d0cad1a3e86ba38a0b4a2759", "bike_id": "e515e4a2d0cad1a3e86ba38a0b4a2759", "fusion_lat": 0.0, "is_reserved": 0, "lat": 38.92810933333333, "fusion_lon": 0.0, "is_disabled": 0}, {"rental_uris": {"android": "https://dc.lft.to/lastmile_qr_scan", "ios": "https://dc.lft.to/lastmile_qr_scan"}, "type": "electric_scooter", "lon": -77.023426, "name": "9c1d61d32f144bc13cf2c966759e3a45", "bike_id": "9c1d61d32f144bc13cf2c966759e3a45", "fusion_lat": 0.0, "is_reserved": 0, "lat": 38.90202283333333, "fusion_lon": 0.0, "is_disabled": 0}, {"rental_uris": {"android": "https://dc.lft.to/lastmile_qr_scan", "ios": "https://dc.lft.to/lastmile_qr_scan"}, "type": "electric_bike", "lon": -76.9388795, "name": "12eee39f605e27f59f00275b064921f2", "bike_id": "12eee39f605e27f59f00275b064921f2", "fusion_lat": 0.0, "is_reserved": 0, "lat": 38.95619883333333, "fusion_lon": 0.0, "is_disabled": 0}, {"rental_uris": {"android": "https://dc.lft.to/lastmile_qr_scan", "ios": "https://dc.lft.to/lastmile_qr_scan"}, "type": "electric_scooter", "lon": -76.93465733333333, "name": "eca3270e3f2e9cc827dbaa0171813344", "bike_id": "eca3270e3f2e9cc827dbaa0171813344", "fusion_lat": 0.0, "is_reserved": 0, "lat": 38.90186833333333, "fusion_lon": 0.0, "is_disabled": 0}, {"rental_uris": {"android": "https://dc.lft.to/lastmile_qr_scan", "ios": "https://dc.lft.to/lastmile_qr_scan"}, "type": "electric_scooter", "lon": -77.02624383333334, "name": "b149b7e3fc876f2f68ef1fc3ced0bb4a", "bike_id": "b149b7e3fc876f2f68ef1fc3ced0bb4a", "fusion_lat": 0.0, "is_reserved": 0, "lat": 38.897259, "fusion_lon": 0.0, "is_disabled": 0}, {"rental_uris": {"android": "https://dc.lft.to/lastmile_qr_scan", "ios": "https://dc.lft.to/lastmile_qr_scan"}, "type": "electric_scooter", "lon": -77.02345933333334, "name": "36fa170e812962f4fd3bc7ac44d22808", "bike_id": "36fa170e812962f4fd3bc7ac44d22808", "fusion_lat": 0.0, "is_reserved": 0, "lat": 38.90218683333333, "fusion_lon": 0.0, "is_disabled": 0}, {"rental_uris": {"android": "https://dc.lft.to/lastmile_qr_scan", "ios": "https://dc.lft.to/lastmile_qr_scan"}, "type": "electric_scooter", "lon": -77.00109366666666, "name": "38a695d7b9739b55b8e199c97fe4b45d", "bike_id": "38a695d7b9739b55b8e199c97fe4b45d", "fusion_lat": 0.0, "is_reserved": 0, "lat": 38.91726833333333, "fusion_lon": 0.0, "is_disabled": 0}, {"rental_uris": {"android": "https://dc.lft.to/lastmile_qr_scan", "ios": "https://dc.lft.to/lastmile_qr_scan"}, "type": "electric_scooter", "lon": -77.04226216666666, "name": "7bd4f59c6667333f58115277df919b64", "bike_id": "7bd4f59c6667333f58115277df919b64", "fusion_lat": 0.0, "is_reserved": 0, "lat": 38.92166566666667, "fusion_lon": 0.0, "is_disabled": 0}, {"rental_uris": {"android": "https://dc.lft.to/lastmile_qr_scan", "ios": "https://dc.lft.to/lastmile_qr_scan"}, "type": "electric_scooter", "lon": -76.98738516666667, "name": "3439bac6df03f2d262ee4d17b6599167", "bike_id": "3439bac6df03f2d262ee4d17b6599167", "fusion_lat": 0.0, "is_reserved": 0, "lat": 38.86701133333333, "fusion_lon": 0.0, "is_disabled": 0}, {"rental_uris": {"android": "https://dc.lft.to/lastmile_qr_scan", "ios": "https://dc.lft.to/lastmile_qr_scan"}, "type": "electric_bike", "lon": -77.00606166666667, "name": "7dc9bdd964113821ee58e3e804eb80fa", "bike_id": "7dc9bdd964113821ee58e3e804eb80fa", "fusion_lat": 0.0, "is_reserved": 0, "lat": 38.89809116666667, "fusion_lon": 0.0, "is_disabled": 0}, {"rental_uris": {"android": "https://dc.lft.to/lastmile_qr_scan", "ios": "https://dc.lft.to/lastmile_qr_scan"}, "type": "electric_scooter", "lon": -77.02903116666667, "name": "f3dd80ccb83bfa4ebc32470c455ad856", "bike_id": "f3dd80ccb83bfa4ebc32470c455ad856", "fusion_lat": 0.0, "is_reserved": 0, "lat": 38.9584325, "fusion_lon": 0.0, "is_disabled": 0}, {"rental_uris": {"android": "https://dc.lft.to/lastmile_qr_scan", "ios": "https://dc.lft.to/lastmile_qr_scan"}, "type": "electric_scooter", "lon": -77.0235, "name": "51474cb3e15c6270e1422e5eddd430ab", "bike_id": "51474cb3e15c6270e1422e5eddd430ab", "fusion_lat": 0.0, "is_reserved": 0, "lat": 38.884584, "fusion_lon": 0.0, "is_disabled": 0}, {"rental_uris": {"android": "https://dc.lft.to/lastmile_qr_scan", "ios": "https://dc.lft.to/lastmile_qr_scan"}, "type": "electric_scooter", "lon": -77.02203616666667, "name": "395b2b9d04e5478336b81ccf2294844c", "bike_id": "395b2b9d04e5478336b81ccf2294844c", "fusion_lat": 0.0, "is_reserved": 0, "lat": 38.911319166666665, "fusion_lon": 0.0, "is_disabled": 0}, {"rental_uris": {"android": "https://dc.lft.to/lastmile_qr_scan", "ios": "https://dc.lft.to/lastmile_qr_scan"}, "type": "electric_scooter", "lon": -77.02199266666666, "name": "258ff41f80100604b7f58d68f2dec564", "bike_id": "258ff41f80100604b7f58d68f2dec564", "fusion_lat": 0.0, "is_reserved": 0, "lat": 38.911399833333334, "fusion_lon": 0.0, "is_disabled": 0}, {"rental_uris": {"android": "https://dc.lft.to/lastmile_qr_scan", "ios": "https://dc.lft.to/lastmile_qr_scan"}, "type": "electric_scooter", "lon": -77.00580716666667, "name": "da14f8390989ca146e2f7a86263bc647", "bike_id": "da14f8390989ca146e2f7a86263bc647", "fusion_lat": 0.0, "is_reserved": 0, "lat": 38.903263333333335, "fusion_lon": 0.0, "is_disabled": 0}, {"rental_uris": {"android": "https://dc.lft.to/lastmile_qr_scan", "ios": "https://dc.lft.to/lastmile_qr_scan"}, "type": "electric_scooter", "lon": -76.94160283333333, "name": "7c4de77249adbc37a82d076c3b5300bc", "bike_id": "7c4de77249adbc37a82d076c3b5300bc", "fusion_lat": 0.0, "is_reserved": 0, "lat": 38.883648666666666, "fusion_lon": 0.0, "is_disabled": 0}, {"rental_uris": {"android": "https://dc.lft.to/lastmile_qr_scan", "ios": "https://dc.lft.to/lastmile_qr_scan"}, "type": "electric_scooter", "lon": -77.052927, "name": "228b5a8d181b08927a93adc65fd59da7", "bike_id": "228b5a8d181b08927a93adc65fd59da7", "fusion_lat": 0.0, "is_reserved": 0, "lat": 38.922631, "fusion_lon": 0.0, "is_disabled": 0}, {"rental_uris": {"android": "https://dc.lft.to/lastmile_qr_scan", "ios": "https://dc.lft.to/lastmile_qr_scan"}, "type": "electric_scooter", "lon": -77.04396716666666, "name": "383f94cc6df9b986288004c683ccb528", "bike_id": "383f94cc6df9b986288004c683ccb528", "fusion_lat": 0.0, "is_reserved": 0, "lat": 38.917223166666666, "fusion_lon": 0.0, "is_disabled": 0}, {"rental_uris": {"android": "https://dc.lft.to/lastmile_qr_scan", "ios": "https://dc.lft.to/lastmile_qr_scan"}, "type": "electric_scooter", "lon": -77.0021215, "name": "ca30515a57ac512a2a53f6b6b2b1f46e", "bike_id": "ca30515a57ac512a2a53f6b6b2b1f46e", "fusion_lat": 0.0, "is_reserved": 0, "lat": 38.903819166666665, "fusion_lon": 0.0, "is_disabled": 0}, {"rental_uris": {"android": "https://dc.lft.to/lastmile_qr_scan", "ios": "https://dc.lft.to/lastmile_qr_scan"}, "type": "electric_scooter", "lon": -77.00899383333334, "name": "af3b105110ee8812bc701b5a2e43db4f", "bike_id": "af3b105110ee8812bc701b5a2e43db4f", "fusion_lat": 0.0, "is_reserved": 0, "lat": 38.87309033333333, "fusion_lon": 0.0, "is_disabled": 0}, {"rental_uris": {"android": "https://dc.lft.to/lastmile_qr_scan", "ios": "https://dc.lft.to/lastmile_qr_scan"}, "type": "electric_scooter", "lon": -77.04057333333333, "name": "3bb14e26fff4b751fcdf6da32a7977af", "bike_id": "3bb14e26fff4b751fcdf6da32a7977af", "fusion_lat": 0.0, "is_reserved": 0, "lat": 38.899921166666665, "fusion_lon": 0.0, "is_disabled": 0}, {"rental_uris": {"android": "https://dc.lft.to/lastmile_qr_scan", "ios": "https://dc.lft.to/lastmile_qr_scan"}, "type": "electric_bike", "lon": -77.125014, "name": "803f1e27d4843b1b3d4a768dd02b76d8", "bike_id": "803f1e27d4843b1b3d4a768dd02b76d8", "fusion_lat": 0.0, "is_reserved": 0, "lat": 39.02424833333333, "fusion_lon": 0.0, "is_disabled": 0}, {"rental_uris": {"android": "https://dc.lft.to/lastmile_qr_scan", "ios": "https://dc.lft.to/lastmile_qr_scan"}, "type": "electric_scooter", "lon": -77.02937416666667, "name": "9e4e6bac89e25e75323069e4941e2b02", "bike_id": "9e4e6bac89e25e75323069e4941e2b02", "fusion_lat": 0.0, "is_reserved": 0, "lat": 38.89870283333333, "fusion_lon": 0.0, "is_disabled": 0}, {"rental_uris": {"android": "https://dc.lft.to/lastmile_qr_scan", "ios": "https://dc.lft.to/lastmile_qr_scan"}, "type": "electric_scooter", "lon": -76.98709916666667, "name": "6bf1ce077e8251dd9f0789464f3dde27", "bike_id": "6bf1ce077e8251dd9f0789464f3dde27", "fusion_lat": 0.0, "is_reserved": 0, "lat": 38.866988666666664, "fusion_lon": 0.0, "is_disabled": 0}, {"rental_uris": {"android": "https://dc.lft.to/lastmile_qr_scan", "ios": "https://dc.lft.to/lastmile_qr_scan"}, "type": "electric_scooter", "lon": -77.018203, "name": "a4e2623272f508e9f151e6370faadf2d", "bike_id": "a4e2623272f508e9f151e6370faadf2d", "fusion_lat": 0.0, "is_reserved": 0, "lat": 38.92162233333333, "fusion_lon": 0.0, "is_disabled": 0}, {"rental_uris": {"android": "https://dc.lft.to/lastmile_qr_scan", "ios": "https://dc.lft.to/lastmile_qr_scan"}, "type": "electric_bike", "lon": -76.99569466666667, "name": "66078cb32d6de6276b6c32db3e4acedc", "bike_id": "66078cb32d6de6276b6c32db3e4acedc", "fusion_lat": 0.0, "is_reserved": 0, "lat": 39.00789316666667, "fusion_lon": 0.0, "is_disabled": 0}, {"rental_uris": {"android": "https://dc.lft.to/lastmile_qr_scan", "ios": "https://dc.lft.to/lastmile_qr_scan"}, "type": "electric_scooter", "lon": -77.04509233333333, "name": "ff6c64f90eb9dbeb6187e93d9f0ba5e9", "bike_id": "ff6c64f90eb9dbeb6187e93d9f0ba5e9", "fusion_lat": 0.0, "is_reserved": 0, "lat": 38.89221716666667, "fusion_lon": 0.0, "is_disabled": 0}, {"rental_uris": {"android": "https://dc.lft.to/lastmile_qr_scan", "ios": "https://dc.lft.to/lastmile_qr_scan"}, "type": "electric_scooter", "lon": -77.0635315, "name": "436913f4853e958cfcf28a2eabd660a7", "bike_id": "436913f4853e958cfcf28a2eabd660a7", "fusion_lat": 0.0, "is_reserved": 0, "lat": 38.94453716666666, "fusion_lon": 0.0, "is_disabled": 0}, {"rental_uris": {"android": "https://dc.lft.to/lastmile_qr_scan", "ios": "https://dc.lft.to/lastmile_qr_scan"}, "type": "electric_bike", "lon": -77.09563833333333, "name": "869979ad26825d560551405e9332268f", "bike_id": "869979ad26825d560551405e9332268f", "fusion_lat": 0.0, "is_reserved": 0, "lat": 38.9170375, "fusion_lon": 0.0, "is_disabled": 0}, {"rental_uris": {"android": "https://dc.lft.to/lastmile_qr_scan", "ios": "https://dc.lft.to/lastmile_qr_scan"}, "type": "electric_scooter", "lon": -77.0220425, "name": "84464e2a519d395ff091519604c7576d", "bike_id": "84464e2a519d395ff091519604c7576d", "fusion_lat": 0.0, "is_reserved": 0, "lat": 38.898697166666665, "fusion_lon": 0.0, "is_disabled": 0}, {"rental_uris": {"android": "https://dc.lft.to/lastmile_qr_scan", "ios": "https://dc.lft.to/lastmile_qr_scan"}, "type": "electric_scooter", "lon": -77.024198, "name": "a598c07d98e8d1fe99f14c716f376469", "bike_id": "a598c07d98e8d1fe99f14c716f376469", "fusion_lat": 0.0, "is_reserved": 0, "lat": 38.918265166666664, "fusion_lon": 0.0, "is_disabled": 0}, {"rental_uris": {"android": "https://dc.lft.to/lastmile_qr_scan", "ios": "https://dc.lft.to/lastmile_qr_scan"}, "type": "electric_bike", "lon": -76.9917115, "name": "90e2e22b366876099b0bf089d9e49810", "bike_id": "90e2e22b366876099b0bf089d9e49810", "fusion_lat": 0.0, "is_reserved": 0, "lat": 38.88968533333333, "fusion_lon": 0.0, "is_disabled": 0}, {"rental_uris": {"android": "https://dc.lft.to/lastmile_qr_scan", "ios": "https://dc.lft.to/lastmile_qr_scan"}, "type": "electric_scooter", "lon": -77.033363, "name": "c51dd47390388e1e530e9a8dc89ecfaf", "bike_id": "c51dd47390388e1e530e9a8dc89ecfaf", "fusion_lat": 0.0, "is_reserved": 0, "lat": 38.901278166666664, "fusion_lon": 0.0, "is_disabled": 0}, {"rental_uris": {"android": "https://dc.lft.to/lastmile_qr_scan", "ios": "https://dc.lft.to/lastmile_qr_scan"}, "type": "electric_scooter", "lon": -77.00748316666666, "name": "9a074f2958637b534c34c55c1715c462", "bike_id": "9a074f2958637b534c34c55c1715c462", "fusion_lat": 0.0, "is_reserved": 0, "lat": 38.87642683333333, "fusion_lon": 0.0, "is_disabled": 0}, {"rental_uris": {"android": "https://dc.lft.to/lastmile_qr_scan", "ios": "https://dc.lft.to/lastmile_qr_scan"}, "type": "electric_scooter", "lon": -77.03335883333334, "name": "82eefa9d491fbe04dec4d9a824f4e5a8", "bike_id": "82eefa9d491fbe04dec4d9a824f4e5a8", "fusion_lat": 0.0, "is_reserved": 0, "lat": 38.89825116666667, "fusion_lon": 0.0, "is_disabled": 0}, {"rental_uris": {"android": "https://dc.lft.to/lastmile_qr_scan", "ios": "https://dc.lft.to/lastmile_qr_scan"}, "type": "electric_scooter", "lon": -77.0037095, "name": "48e842f65dcd56b5c615e3dfe4436bab", "bike_id": "48e842f65dcd56b5c615e3dfe4436bab", "fusion_lat": 0.0, "is_reserved": 0, "lat": 38.877467, "fusion_lon": 0.0, "is_disabled": 0}, {"rental_uris": {"android": "https://dc.lft.to/lastmile_qr_scan", "ios": "https://dc.lft.to/lastmile_qr_scan"}, "type": "electric_scooter", "lon": -77.06818666666666, "name": "51a34cf352a66c476dc67d35b5664330", "bike_id": "51a34cf352a66c476dc67d35b5664330", "fusion_lat": 0.0, "is_reserved": 0, "lat": 38.9163845, "fusion_lon": 0.0, "is_disabled": 0}, {"rental_uris": {"android": "https://dc.lft.to/lastmile_qr_scan", "ios": "https://dc.lft.to/lastmile_qr_scan"}, "type": "electric_scooter", "lon": -77.05808366666666, "name": "aca7396277d47d04c7c14c39e99cb815", "bike_id": "aca7396277d47d04c7c14c39e99cb815", "fusion_lat": 0.0, "is_reserved": 0, "lat": 38.903803, "fusion_lon": 0.0, "is_disabled": 0}, {"rental_uris": {"android": "https://dc.lft.to/lastmile_qr_scan", "ios": "https://dc.lft.to/lastmile_qr_scan"}, "type": "electric_scooter", "lon": -77.0104335, "name": "ad111c8cab71a56f0a6d97e1886163fe", "bike_id": "ad111c8cab71a56f0a6d97e1886163fe", "fusion_lat": 0.0, "is_reserved": 0, "lat": 38.90044533333333, "fusion_lon": 0.0, "is_disabled": 0}, {"rental_uris": {"android": "https://dc.lft.to/lastmile_qr_scan", "ios": "https://dc.lft.to/lastmile_qr_scan"}, "type": "electric_bike", "lon": -77.132319, "name": "4e292c8e572861203415f56a6161db4e", "bike_id": "4e292c8e572861203415f56a6161db4e", "fusion_lat": 0.0, "is_reserved": 0, "lat": 38.869706, "fusion_lon": 0.0, "is_disabled": 0}, {"rental_uris": {"android": "https://dc.lft.to/lastmile_qr_scan", "ios": "https://dc.lft.to/lastmile_qr_scan"}, "type": "electric_scooter", "lon": -77.0057305, "name": "fcc10559157bb0b18a6e1f4f2ba7fab0", "bike_id": "fcc10559157bb0b18a6e1f4f2ba7fab0", "fusion_lat": 0.0, "is_reserved": 0, "lat": 38.88508433333333, "fusion_lon": 0.0, "is_disabled": 0}, {"rental_uris": {"android": "https://dc.lft.to/lastmile_qr_scan", "ios": "https://dc.lft.to/lastmile_qr_scan"}, "type": "electric_scooter", "lon": -77.02174066666667, "name": "e76d4a5cff4c0d64b81cce4729c18636", "bike_id": "e76d4a5cff4c0d64b81cce4729c18636", "fusion_lat": 0.0, "is_reserved": 0, "lat": 38.94288266666667, "fusion_lon": 0.0, "is_disabled": 0}, {"rental_uris": {"android": "https://dc.lft.to/lastmile_qr_scan", "ios": "https://dc.lft.to/lastmile_qr_scan"}, "type": "electric_bike", "lon": -77.35309733333334, "name": "6ef194c79a4b90839e61335dba96d4a6", "bike_id": "6ef194c79a4b90839e61335dba96d4a6", "fusion_lat": 0.0, "is_reserved": 0, "lat": 38.949933333333334, "fusion_lon": 0.0, "is_disabled": 0}, {"rental_uris": {"android": "https://dc.lft.to/lastmile_qr_scan", "ios": "https://dc.lft.to/lastmile_qr_scan"}, "type": "electric_scooter", "lon": -77.03218783333334, "name": "e52ac20843fa2be01a9dcbf11e59b3da", "bike_id": "e52ac20843fa2be01a9dcbf11e59b3da", "fusion_lat": 0.0, "is_reserved": 0, "lat": 38.911948333333335, "fusion_lon": 0.0, "is_disabled": 0}, {"rental_uris": {"android": "https://dc.lft.to/lastmile_qr_scan", "ios": "https://dc.lft.to/lastmile_qr_scan"}, "type": "electric_scooter", "lon": -76.99709733333333, "name": "4932976e807acace26403a959baa67de", "bike_id": "4932976e807acace26403a959baa67de", "fusion_lat": 0.0, "is_reserved": 0, "lat": 38.91112783333333, "fusion_lon": 0.0, "is_disabled": 0}, {"rental_uris": {"android": "https://dc.lft.to/lastmile_qr_scan", "ios": "https://dc.lft.to/lastmile_qr_scan"}, "type": "electric_scooter", "lon": -76.9465675, "name": "de922fc95a4c7f8db9bf6a4021b84f1a", "bike_id": "de922fc95a4c7f8db9bf6a4021b84f1a", "fusion_lat": 0.0, "is_reserved": 0, "lat": 38.8982855, "fusion_lon": 0.0, "is_disabled": 0}, {"rental_uris": {"android": "https://dc.lft.to/lastmile_qr_scan", "ios": "https://dc.lft.to/lastmile_qr_scan"}, "type": "electric_scooter", "lon": -77.0300385, "name": "89ad04294bb7f00d33582a41ba791362", "bike_id": "89ad04294bb7f00d33582a41ba791362", "fusion_lat": 0.0, "is_reserved": 0, "lat": 38.928005666666664, "fusion_lon": 0.0, "is_disabled": 0}, {"rental_uris": {"android": "https://dc.lft.to/lastmile_qr_scan", "ios": "https://dc.lft.to/lastmile_qr_scan"}, "type": "electric_scooter", "lon": -77.06343616666666, "name": "22dd535030dfca2561fb65639e3b834d", "bike_id": "22dd535030dfca2561fb65639e3b834d", "fusion_lat": 0.0, "is_reserved": 0, "lat": 38.91337933333333, "fusion_lon": 0.0, "is_disabled": 0}, {"rental_uris": {"android": "https://dc.lft.to/lastmile_qr_scan", "ios": "https://dc.lft.to/lastmile_qr_scan"}, "type": "electric_scooter", "lon": -77.03387733333334, "name": "5c33fe0881880966a2c3ffa265e962c9", "bike_id": "5c33fe0881880966a2c3ffa265e962c9", "fusion_lat": 0.0, "is_reserved": 0, "lat": 38.909815333333334, "fusion_lon": 0.0, "is_disabled": 0}, {"rental_uris": {"android": "https://dc.lft.to/lastmile_qr_scan", "ios": "https://dc.lft.to/lastmile_qr_scan"}, "type": "electric_scooter", "lon": -77.02186966666666, "name": "acdfcdc4fcf1d3019439edf1e0b1d827", "bike_id": "acdfcdc4fcf1d3019439edf1e0b1d827", "fusion_lat": 0.0, "is_reserved": 0, "lat": 38.892261500000004, "fusion_lon": 0.0, "is_disabled": 0}, {"rental_uris": {"android": "https://dc.lft.to/lastmile_qr_scan", "ios": "https://dc.lft.to/lastmile_qr_scan"}, "type": "electric_scooter", "lon": -77.03441783333334, "name": "d492b934c8720be69bb77303e6b8720a", "bike_id": "d492b934c8720be69bb77303e6b8720a", "fusion_lat": 0.0, "is_reserved": 0, "lat": 38.921642, "fusion_lon": 0.0, "is_disabled": 0}, {"rental_uris": {"android": "https://dc.lft.to/lastmile_qr_scan", "ios": "https://dc.lft.to/lastmile_qr_scan"}, "type": "electric_scooter", "lon": -76.987335, "name": "58680d5a0e36f0e1542ce4fe408aaacf", "bike_id": "58680d5a0e36f0e1542ce4fe408aaacf", "fusion_lat": 0.0, "is_reserved": 0, "lat": 38.867094, "fusion_lon": 0.0, "is_disabled": 0}, {"rental_uris": {"android": "https://dc.lft.to/lastmile_qr_scan", "ios": "https://dc.lft.to/lastmile_qr_scan"}, "type": "electric_scooter", "lon": -77.03191566666666, "name": "5efac30f8e5b21718c70ad360165bd5b", "bike_id": "5efac30f8e5b21718c70ad360165bd5b", "fusion_lat": 0.0, "is_reserved": 0, "lat": 38.89313533333333, "fusion_lon": 0.0, "is_disabled": 0}, {"rental_uris": {"android": "https://dc.lft.to/lastmile_qr_scan", "ios": "https://dc.lft.to/lastmile_qr_scan"}, "type": "electric_scooter", "lon": -77.0442015, "name": "4623d382f47acd8303e1a2cfa08c4391", "bike_id": "4623d382f47acd8303e1a2cfa08c4391", "fusion_lat": 0.0, "is_reserved": 0, "lat": 38.901321333333335, "fusion_lon": 0.0, "is_disabled": 0}, {"rental_uris": {"android": "https://dc.lft.to/lastmile_qr_scan", "ios": "https://dc.lft.to/lastmile_qr_scan"}, "type": "electric_scooter", "lon": -77.010193, "name": "1e5ca4e1df18e2465c41133ccf9e3d16", "bike_id": "1e5ca4e1df18e2465c41133ccf9e3d16", "fusion_lat": 0.0, "is_reserved": 0, "lat": 38.906215833333334, "fusion_lon": 0.0, "is_disabled": 0}, {"rental_uris": {"android": "https://dc.lft.to/lastmile_qr_scan", "ios": "https://dc.lft.to/lastmile_qr_scan"}, "type": "electric_bike", "lon": -76.9520275, "name": "2447507d3572171b9b2e65c15c974ff1", "bike_id": "2447507d3572171b9b2e65c15c974ff1", "fusion_lat": 0.0, "is_reserved": 0, "lat": 38.936615833333335, "fusion_lon": 0.0, "is_disabled": 0}, {"rental_uris": {"android": "https://dc.lft.to/lastmile_qr_scan", "ios": "https://dc.lft.to/lastmile_qr_scan"}, "type": "electric_scooter", "lon": -77.02404066666666, "name": "55ec18e66c5eb6617d6de02c97a2126f", "bike_id": "55ec18e66c5eb6617d6de02c97a2126f", "fusion_lat": 0.0, "is_reserved": 0, "lat": 38.910946833333334, "fusion_lon": 0.0, "is_disabled": 0}, {"rental_uris": {"android": "https://dc.lft.to/lastmile_qr_scan", "ios": "https://dc.lft.to/lastmile_qr_scan"}, "type": "electric_scooter", "lon": -77.0645565, "name": "7766b46f4cb9c51561a140ed963b9599", "bike_id": "7766b46f4cb9c51561a140ed963b9599", "fusion_lat": 0.0, "is_reserved": 0, "lat": 38.90982366666667, "fusion_lon": 0.0, "is_disabled": 0}, {"rental_uris": {"android": "https://dc.lft.to/lastmile_qr_scan", "ios": "https://dc.lft.to/lastmile_qr_scan"}, "type": "electric_scooter", "lon": -77.027254, "name": "1ba74ddc4007a5c187c051914e619a05", "bike_id": "1ba74ddc4007a5c187c051914e619a05", "fusion_lat": 0.0, "is_reserved": 0, "lat": 38.93980783333333, "fusion_lon": 0.0, "is_disabled": 0}, {"rental_uris": {"android": "https://dc.lft.to/lastmile_qr_scan", "ios": "https://dc.lft.to/lastmile_qr_scan"}, "type": "electric_scooter", "lon": -77.01693983333334, "name": "49165e2c7d693dfc15456dbbf6fa4436", "bike_id": "49165e2c7d693dfc15456dbbf6fa4436", "fusion_lat": 0.0, "is_reserved": 0, "lat": 38.911045333333334, "fusion_lon": 0.0, "is_disabled": 0}, {"rental_uris": {"android": "https://dc.lft.to/lastmile_qr_scan", "ios": "https://dc.lft.to/lastmile_qr_scan"}, "type": "electric_scooter", "lon": -77.0235525, "name": "c858abb7010c15cc5c87a5c29899f4b6", "bike_id": "c858abb7010c15cc5c87a5c29899f4b6", "fusion_lat": 0.0, "is_reserved": 0, "lat": 38.9226585, "fusion_lon": 0.0, "is_disabled": 0}, {"rental_uris": {"android": "https://dc.lft.to/lastmile_qr_scan", "ios": "https://dc.lft.to/lastmile_qr_scan"}, "type": "electric_scooter", "lon": -77.03686733333333, "name": "b0a29ec7d9665c4d70cbbfe7bc92c0e4", "bike_id": "b0a29ec7d9665c4d70cbbfe7bc92c0e4", "fusion_lat": 0.0, "is_reserved": 0, "lat": 38.916833833333335, "fusion_lon": 0.0, "is_disabled": 0}, {"rental_uris": {"android": "https://dc.lft.to/lastmile_qr_scan", "ios": "https://dc.lft.to/lastmile_qr_scan"}, "type": "electric_scooter", "lon": -77.024975, "name": "8728ab9cebe5b85bfd9098ead9dde3ce", "bike_id": "8728ab9cebe5b85bfd9098ead9dde3ce", "fusion_lat": 0.0, "is_reserved": 0, "lat": 38.920661, "fusion_lon": 0.0, "is_disabled": 0}, {"rental_uris": {"android": "https://dc.lft.to/lastmile_qr_scan", "ios": "https://dc.lft.to/lastmile_qr_scan"}, "type": "electric_bike", "lon": -77.10715966666666, "name": "7c713c42d2aa73e7ffae56b366d7e18e", "bike_id": "7c713c42d2aa73e7ffae56b366d7e18e", "fusion_lat": 0.0, "is_reserved": 0, "lat": 38.85541166666667, "fusion_lon": 0.0, "is_disabled": 0}, {"rental_uris": {"android": "https://dc.lft.to/lastmile_qr_scan", "ios": "https://dc.lft.to/lastmile_qr_scan"}, "type": "electric_bike", "lon": -76.94956183333333, "name": "14603cd4fe034a95c2b8dcf71eb4669a", "bike_id": "14603cd4fe034a95c2b8dcf71eb4669a", "fusion_lat": 0.0, "is_reserved": 0, "lat": 38.9350535, "fusion_lon": 0.0, "is_disabled": 0}, {"rental_uris": {"android": "https://dc.lft.to/lastmile_qr_scan", "ios": "https://dc.lft.to/lastmile_qr_scan"}, "type": "electric_scooter", "lon": -77.0347835, "name": "b910ae13dd11a70fb15435396e952cac", "bike_id": "b910ae13dd11a70fb15435396e952cac", "fusion_lat": 0.0, "is_reserved": 0, "lat": 38.91115116666667, "fusion_lon": 0.0, "is_disabled": 0}, {"rental_uris": {"android": "https://dc.lft.to/lastmile_qr_scan", "ios": "https://dc.lft.to/lastmile_qr_scan"}, "type": "electric_scooter", "lon": -77.0343335, "name": "dcc12df297e1ce7e8e5f57bf29492354", "bike_id": "dcc12df297e1ce7e8e5f57bf29492354", "fusion_lat": 0.0, "is_reserved": 0, "lat": 38.906381833333334, "fusion_lon": 0.0, "is_disabled": 0}, {"rental_uris": {"android": "https://dc.lft.to/lastmile_qr_scan", "ios": "https://dc.lft.to/lastmile_qr_scan"}, "type": "electric_scooter", "lon": -76.99511216666667, "name": "4269584a1a72a1baeee589d227227e79", "bike_id": "4269584a1a72a1baeee589d227227e79", "fusion_lat": 0.0, "is_reserved": 0, "lat": 38.877756833333336, "fusion_lon": 0.0, "is_disabled": 0}, {"rental_uris": {"android": "https://dc.lft.to/lastmile_qr_scan", "ios": "https://dc.lft.to/lastmile_qr_scan"}, "type": "electric_scooter", "lon": -77.01122183333334, "name": "b51f52d0f1784f7e85c339a38db542aa", "bike_id": "b51f52d0f1784f7e85c339a38db542aa", "fusion_lat": 0.0, "is_reserved": 0, "lat": 38.903528, "fusion_lon": 0.0, "is_disabled": 0}, {"rental_uris": {"android": "https://dc.lft.to/lastmile_qr_scan", "ios": "https://dc.lft.to/lastmile_qr_scan"}, "type": "electric_scooter", "lon": -77.07839266666667, "name": "86af3eb9441465f255ac6303c7c4781f", "bike_id": "86af3eb9441465f255ac6303c7c4781f", "fusion_lat": 0.0, "is_reserved": 0, "lat": 38.931400333333336, "fusion_lon": 0.0, "is_disabled": 0}, {"rental_uris": {"android": "https://dc.lft.to/lastmile_qr_scan", "ios": "https://dc.lft.to/lastmile_qr_scan"}, "type": "electric_scooter", "lon": -77.03783216666666, "name": "da9cf9d7b908323c804782f096adebb2", "bike_id": "da9cf9d7b908323c804782f096adebb2", "fusion_lat": 0.0, "is_reserved": 0, "lat": 38.925518833333335, "fusion_lon": 0.0, "is_disabled": 0}, {"rental_uris": {"android": "https://dc.lft.to/lastmile_qr_scan", "ios": "https://dc.lft.to/lastmile_qr_scan"}, "type": "electric_scooter", "lon": -77.03839866666667, "name": "fa7aafd4d00d2a13ab865d0178095ea4", "bike_id": "fa7aafd4d00d2a13ab865d0178095ea4", "fusion_lat": 0.0, "is_reserved": 0, "lat": 38.911544666666664, "fusion_lon": 0.0, "is_disabled": 0}, {"rental_uris": {"android": "https://dc.lft.to/lastmile_qr_scan", "ios": "https://dc.lft.to/lastmile_qr_scan"}, "type": "electric_scooter", "lon": -77.0489385, "name": "5885de34b1d4043191deff80f1aeea7f", "bike_id": "5885de34b1d4043191deff80f1aeea7f", "fusion_lat": 0.0, "is_reserved": 0, "lat": 38.892276333333335, "fusion_lon": 0.0, "is_disabled": 0}, {"rental_uris": {"android": "https://dc.lft.to/lastmile_qr_scan", "ios": "https://dc.lft.to/lastmile_qr_scan"}, "type": "electric_scooter", "lon": -77.04658966666666, "name": "0ecd32a6fcacc725ea649c7b072c1f52", "bike_id": "0ecd32a6fcacc725ea649c7b072c1f52", "fusion_lat": 0.0, "is_reserved": 0, "lat": 38.892378666666666, "fusion_lon": 0.0, "is_disabled": 0}, {"rental_uris": {"android": "https://dc.lft.to/lastmile_qr_scan", "ios": "https://dc.lft.to/lastmile_qr_scan"}, "type": "electric_bike", "lon": -76.96562216666666, "name": "c66e1e706a7b5a8f746af056769e91e3", "bike_id": "c66e1e706a7b5a8f746af056769e91e3", "fusion_lat": 0.0, "is_reserved": 0, "lat": 38.95087633333333, "fusion_lon": 0.0, "is_disabled": 0}, {"rental_uris": {"android": "https://dc.lft.to/lastmile_qr_scan", "ios": "https://dc.lft.to/lastmile_qr_scan"}, "type": "electric_scooter", "lon": -77.0410465, "name": "78a65641b79e6acd3d7d6113ea5f667c", "bike_id": "78a65641b79e6acd3d7d6113ea5f667c", "fusion_lat": 0.0, "is_reserved": 0, "lat": 38.90805066666667, "fusion_lon": 0.0, "is_disabled": 0}, {"rental_uris": {"android": "https://dc.lft.to/lastmile_qr_scan", "ios": "https://dc.lft.to/lastmile_qr_scan"}, "type": "electric_scooter", "lon": -77.0267995, "name": "57419d33d831a5f5d4f968f72bc38a34", "bike_id": "57419d33d831a5f5d4f968f72bc38a34", "fusion_lat": 0.0, "is_reserved": 0, "lat": 38.898673, "fusion_lon": 0.0, "is_disabled": 0}, {"rental_uris": {"android": "https://dc.lft.to/lastmile_qr_scan", "ios": "https://dc.lft.to/lastmile_qr_scan"}, "type": "electric_scooter", "lon": -77.04577816666666, "name": "c32f51594a1753943606a06bf0b7c030", "bike_id": "c32f51594a1753943606a06bf0b7c030", "fusion_lat": 0.0, "is_reserved": 0, "lat": 38.90003166666666, "fusion_lon": 0.0, "is_disabled": 0}, {"rental_uris": {"android": "https://dc.lft.to/lastmile_qr_scan", "ios": "https://dc.lft.to/lastmile_qr_scan"}, "type": "electric_scooter", "lon": -77.00943533333333, "name": "f32fb05a5199429fa5ba4cc1274feadc", "bike_id": "f32fb05a5199429fa5ba4cc1274feadc", "fusion_lat": 0.0, "is_reserved": 0, "lat": 38.9125685, "fusion_lon": 0.0, "is_disabled": 0}, {"rental_uris": {"android": "https://dc.lft.to/lastmile_qr_scan", "ios": "https://dc.lft.to/lastmile_qr_scan"}, "type": "electric_scooter", "lon": -77.01371066666667, "name": "1369d8d24df27c42f028d1b6513201d4", "bike_id": "1369d8d24df27c42f028d1b6513201d4", "fusion_lat": 0.0, "is_reserved": 0, "lat": 38.89217566666667, "fusion_lon": 0.0, "is_disabled": 0}, {"rental_uris": {"android": "https://dc.lft.to/lastmile_qr_scan", "ios": "https://dc.lft.to/lastmile_qr_scan"}, "type": "electric_scooter", "lon": -77.02830333333333, "name": "23f869c20984d92f06d17464d48f42d7", "bike_id": "23f869c20984d92f06d17464d48f42d7", "fusion_lat": 0.0, "is_reserved": 0, "lat": 38.93280433333334, "fusion_lon": 0.0, "is_disabled": 0}, {"rental_uris": {"android": "https://dc.lft.to/lastmile_qr_scan", "ios": "https://dc.lft.to/lastmile_qr_scan"}, "type": "electric_scooter", "lon": -77.04899916666666, "name": "30fede279fec612acc1f670026523339", "bike_id": "30fede279fec612acc1f670026523339", "fusion_lat": 0.0, "is_reserved": 0, "lat": 38.88996483333333, "fusion_lon": 0.0, "is_disabled": 0}, {"rental_uris": {"android": "https://dc.lft.to/lastmile_qr_scan", "ios": "https://dc.lft.to/lastmile_qr_scan"}, "type": "electric_scooter", "lon": -77.03212833333333, "name": "4923dc2d8bd6b3a288f656b3a94a5496", "bike_id": "4923dc2d8bd6b3a288f656b3a94a5496", "fusion_lat": 0.0, "is_reserved": 0, "lat": 38.91424666666666, "fusion_lon": 0.0, "is_disabled": 0}, {"rental_uris": {"android": "https://dc.lft.to/lastmile_qr_scan", "ios": "https://dc.lft.to/lastmile_qr_scan"},