{"data": {"bikes": [{"lat": 38.88505283333333, "fusion_lat": 0.0, "type": "electric_scooter", "bike_id": "dacb33e63af8f03da58590c17252584b", "rental_uris": {"ios": "https://dc.lft.to/lastmile_qr_scan", "android": "https://dc.lft.to/lastmile_qr_scan"}, "fusion_lon": 0.0, "lon": -77.00565016666667, "name": "dacb33e63af8f03da58590c17252584b", "is_reserved": 0, "is_disabled": 0}, {"lat": 38.95058566666667, "fusion_lat": 0.0, "type": "electric_scooter", "bike_id": "d3c453e590b684206af6bd60cf6cb43f", "rental_uris": {"ios": "https://dc.lft.to/lastmile_qr_scan", "android": "https://dc.lft.to/lastmile_qr_scan"}, "fusion_lon": 0.0, "lon": -77.0802555, "name": "d3c453e590b684206af6bd60cf6cb43f", "is_reserved": 0, "is_disabled": 0}, {"lat": 38.90273883333333, "fusion_lat": 0.0, "type": "electric_scooter", "bike_id": "f68a84ee14ef438790f455066cb63253", "rental_uris": {"ios": "https://dc.lft.to/lastmile_qr_scan", "android": "https://dc.lft.to/lastmile_qr_scan"}, "fusion_lon": 0.0, "lon": -77.03355833333333, "name": "f68a84ee14ef438790f455066cb63253", "is_reserved": 0, "is_disabled": 0}, {"lat": 38.9271155, "fusion_lat": 0.0, "type": "electric_scooter", "bike_id": "f8cc25de0f358cfd71572567e0f13249", "rental_uris": {"ios": "https://dc.lft.to/lastmile_qr_scan", "android": "https://dc.lft.to/lastmile_qr_scan"}, "fusion_lon": 0.0, "lon": -77.0208685, "name": "f8cc25de0f358cfd71572567e0f13249", "is_reserved": 0, "is_disabled": 0}, {"lat": 38.92230166666667, "fusion_lat": 0.0, "type": "electric_scooter", "bike_id": "1d64d50f1835ce83de323f4e5400503b", "rental_uris": {"ios": "https://dc.lft.to/lastmile_qr_scan", "android": "https://dc.lft.to/lastmile_qr_scan"}, "fusion_lon": 0.0, "lon": -77.02826583333334, "name": "1d64d50f1835ce83de323f4e5400503b", "is_reserved": 0, "is_disabled": 0}, {"lat": 38.9003205, "fusion_lat": 0.0, "type": "electric_scooter", "bike_id": "ef3df5ddd3b3ebb99bef5d15ea1704b5", "rental_uris": {"ios": "https://dc.lft.to/lastmile_qr_scan", "android": "https://dc.lft.to/lastmile_qr_scan"}, "fusion_lon": 0.0, "lon": -77.02382966666667, "name": "ef3df5ddd3b3ebb99bef5d15ea1704b5", "is_reserved": 0, "is_disabled": 0}, {"lat": 38.9139685, "fusion_lat": 0.0, "type": "electric_scooter", "bike_id": "eee5324792d61a46dfc2392c5bdebe92", "rental_uris": {"ios": "https://dc.lft.to/lastmile_qr_scan", "android": "https://dc.lft.to/lastmile_qr_scan"}, "fusion_lon": 0.0, "lon": -77.016539, "name": "eee5324792d61a46dfc2392c5bdebe92", "is_reserved": 0, "is_disabled": 0}, {"lat": 38.916054333333335, "fusion_lat": 0.0, "type": "electric_scooter", "bike_id": "a61d21b4405f671c1ed8583ebd36262c", "rental_uris": {"ios": "https://dc.lft.to/lastmile_qr_scan", "android": "https://dc.lft.to/lastmile_qr_scan"}, "fusion_lon": 0.0, "lon": -77.03942133333334, "name": "a61d21b4405f671c1ed8583ebd36262c", "is_reserved": 0, "is_disabled": 0}, {"lat": 38.91699966666667, "fusion_lat": 0.0, "type": "electric_scooter", "bike_id": "fba7856eddd52f24312bf5ee721fa879", "rental_uris": {"ios": "https://dc.lft.to/lastmile_qr_scan", "android": "https://dc.lft.to/lastmile_qr_scan"}, "fusion_lon": 0.0, "lon": -77.03348916666667, "name": "fba7856eddd52f24312bf5ee721fa879", "is_reserved": 0, "is_disabled": 0}, {"lat": 38.92425933333333, "fusion_lat": 0.0, "type": "electric_scooter", "bike_id": "60f8201ff920f919c9ddc7cde471d9ce", "rental_uris": {"ios": "https://dc.lft.to/lastmile_qr_scan", "android": "https://dc.lft.to/lastmile_qr_scan"}, "fusion_lon": 0.0, "lon": -77.05177466666666, "name": "60f8201ff920f919c9ddc7cde471d9ce", "is_reserved": 0, "is_disabled": 0}, {"lat": 38.901523833333336, "fusion_lat": 0.0, "type": "electric_scooter", "bike_id": "0326535ef3ad94a284b07f44ef53bab1", "rental_uris": {"ios": "https://dc.lft.to/lastmile_qr_scan", "android": "https://dc.lft.to/lastmile_qr_scan"}, "fusion_lon": 0.0, "lon": -76.93067133333334, "name": "0326535ef3ad94a284b07f44ef53bab1", "is_reserved": 0, "is_disabled": 0}, {"lat": 38.89355116666667, "fusion_lat": 0.0, "type": "electric_scooter", "bike_id": "199748acc28ecf5b4fcc7e4b265736d4", "rental_uris": {"ios": "https://dc.lft.to/lastmile_qr_scan", "android": "https://dc.lft.to/lastmile_qr_scan"}, "fusion_lon": 0.0, "lon": -76.9865615, "name": "199748acc28ecf5b4fcc7e4b265736d4", "is_reserved": 0, "is_disabled": 0}, {"lat": 38.917287333333334, "fusion_lat": 0.0, "type": "electric_scooter", "bike_id": "5ddba41b841a0d778414215f55d1ddb8", "rental_uris": {"ios": "https://dc.lft.to/lastmile_qr_scan", "android": "https://dc.lft.to/lastmile_qr_scan"}, "fusion_lon": 0.0, "lon": -77.02700733333333, "name": "5ddba41b841a0d778414215f55d1ddb8", "is_reserved": 0, "is_disabled": 0}, {"lat": 38.89598016666667, "fusion_lat": 0.0, "type": "electric_scooter", "bike_id": "9bcdd99f85b380cb2eecb3e0fc056977", "rental_uris": {"ios": "https://dc.lft.to/lastmile_qr_scan", "android": "https://dc.lft.to/lastmile_qr_scan"}, "fusion_lon": 0.0, "lon": -77.00603216666667, "name": "9bcdd99f85b380cb2eecb3e0fc056977", "is_reserved": 0, "is_disabled": 0}, {"lat": 38.906661666666665, "fusion_lat": 0.0, "type": "electric_scooter", "bike_id": "12590d29e61cb558bba46b5f33c0313a", "rental_uris": {"ios": "https://dc.lft.to/lastmile_qr_scan", "android": "https://dc.lft.to/lastmile_qr_scan"}, "fusion_lon": 0.0, "lon": -77.0269455, "name": "12590d29e61cb558bba46b5f33c0313a", "is_reserved": 0, "is_disabled": 0}, {"lat": 38.95803333333333, "fusion_lat": 0.0, "type": "electric_scooter", "bike_id": "815a62245f646eb83157153d0f1b262b", "rental_uris": {"ios": "https://dc.lft.to/lastmile_qr_scan", "android": "https://dc.lft.to/lastmile_qr_scan"}, "fusion_lon": 0.0, "lon": -77.01509016666667, "name": "815a62245f646eb83157153d0f1b262b", "is_reserved": 0, "is_disabled": 0}, {"lat": 38.921731333333334, "fusion_lat": 0.0, "type": "electric_scooter", "bike_id": "5d695bf8f4df89d3bd31cc5f5eee26d3", "rental_uris": {"ios": "https://dc.lft.to/lastmile_qr_scan", "android": "https://dc.lft.to/lastmile_qr_scan"}, "fusion_lon": 0.0, "lon": -77.03824383333334, "name": "5d695bf8f4df89d3bd31cc5f5eee26d3", "is_reserved": 0, "is_disabled": 0}, {"lat": 38.89827716666667, "fusion_lat": 0.0, "type": "electric_scooter", "bike_id": "5814fc98209d93e626001e1800b6a281", "rental_uris": {"ios": "https://dc.lft.to/lastmile_qr_scan", "android": "https://dc.lft.to/lastmile_qr_scan"}, "fusion_lon": 0.0, "lon": -76.946496, "name": "5814fc98209d93e626001e1800b6a281", "is_reserved": 0, "is_disabled": 0}, {"lat": 38.924048166666665, "fusion_lat": 0.0, "type": "electric_scooter", "bike_id": "4b365391f6fad5f41de56d44a4508300", "rental_uris": {"ios": "https://dc.lft.to/lastmile_qr_scan", "android": "https://dc.lft.to/lastmile_qr_scan"}, "fusion_lon": 0.0, "lon": -77.02537066666666, "name": "4b365391f6fad5f41de56d44a4508300", "is_reserved": 0, "is_disabled": 0}, {"lat": 38.916013666666665, "fusion_lat": 0.0, "type": "electric_scooter", "bike_id": "be4cb810410a256b2a4b6ecc4e6d9c19", "rental_uris": {"ios": "https://dc.lft.to/lastmile_qr_scan", "android": "https://dc.lft.to/lastmile_qr_scan"}, "fusion_lon": 0.0, "lon": -77.041642, "name": "be4cb810410a256b2a4b6ecc4e6d9c19", "is_reserved": 0, "is_disabled": 0}, {"lat": 38.92614016666667, "fusion_lat": 0.0, "type": "electric_scooter", "bike_id": "2e7aef0c39d7cc8cb4886e0c6aec2e00", "rental_uris": {"ios": "https://dc.lft.to/lastmile_qr_scan", "android": "https://dc.lft.to/lastmile_qr_scan"}, "fusion_lon": 0.0, "lon": -77.021621, "name": "2e7aef0c39d7cc8cb4886e0c6aec2e00", "is_reserved": 0, "is_disabled": 0}, {"lat": 38.900214, "fusion_lat": 0.0, "type": "electric_scooter", "bike_id": "80d3b985324259d9cf5471e2232207cf", "rental_uris": {"ios": "https://dc.lft.to/lastmile_qr_scan", "android": "https://dc.lft.to/lastmile_qr_scan"}, "fusion_lon": 0.0, "lon": -76.99313683333334, "name": "80d3b985324259d9cf5471e2232207cf", "is_reserved": 0, "is_disabled": 0}, {"lat": 38.916334666666664, "fusion_lat": 0.0, "type": "electric_scooter", "bike_id": "d082247918829298b4774cf52ac05d2c", "rental_uris": {"ios": "https://dc.lft.to/lastmile_qr_scan", "android": "https://dc.lft.to/lastmile_qr_scan"}, "fusion_lon": 0.0, "lon": -77.0507485, "name": "d082247918829298b4774cf52ac05d2c", "is_reserved": 0, "is_disabled": 0}, {"lat": 38.893851, "fusion_lat": 0.0, "type": "electric_scooter", "bike_id": "6e3d77832c39dba65e06221e76a43fef", "rental_uris": {"ios": "https://dc.lft.to/lastmile_qr_scan", "android": "https://dc.lft.to/lastmile_qr_scan"}, "fusion_lon": 0.0, "lon": -77.07525166666667, "name": "6e3d77832c39dba65e06221e76a43fef", "is_reserved": 0, "is_disabled": 0}, {"lat": 38.89226016666667, "fusion_lat": 0.0, "type": "electric_scooter", "bike_id": "1794462f464d8d6fb120ac82d5572226", "rental_uris": {"ios": "https://dc.lft.to/lastmile_qr_scan", "android": "https://dc.lft.to/lastmile_qr_scan"}, "fusion_lon": 0.0, "lon": -77.04194416666667, "name": "1794462f464d8d6fb120ac82d5572226", "is_reserved": 0, "is_disabled": 0}, {"lat": 38.91778383333333, "fusion_lat": 0.0, "type": "electric_scooter", "bike_id": "37f491e34779adcdaf8a235952154b29", "rental_uris": {"ios": "https://dc.lft.to/lastmile_qr_scan", "android": "https://dc.lft.to/lastmile_qr_scan"}, "fusion_lon": 0.0, "lon": -77.04054983333333, "name": "37f491e34779adcdaf8a235952154b29", "is_reserved": 0, "is_disabled": 0}, {"lat": 38.898576, "fusion_lat": 0.0, "type": "electric_scooter", "bike_id": "94fe38184e2dd9a22b559fb7a6d378f7", "rental_uris": {"ios": "https://dc.lft.to/lastmile_qr_scan", "android": "https://dc.lft.to/lastmile_qr_scan"}, "fusion_lon": 0.0, "lon": -77.03341183333333, "name": "94fe38184e2dd9a22b559fb7a6d378f7", "is_reserved": 0, "is_disabled": 0}, {"lat": 38.918365, "fusion_lat": 0.0, "type": "electric_scooter", "bike_id": "95c2b4bc63d1321ccb374b65a7892f81", "rental_uris": {"ios": "https://dc.lft.to/lastmile_qr_scan", "android": "https://dc.lft.to/lastmile_qr_scan"}, "fusion_lon": 0.0, "lon": -77.041669, "name": "95c2b4bc63d1321ccb374b65a7892f81", "is_reserved": 0, "is_disabled": 0}, {"lat": 39.01071433333333, "fusion_lat": 0.0, "type": "electric_bike", "bike_id": "06b0dba93547426f939a8f3d2a7e8c55", "rental_uris": {"ios": "https://dc.lft.to/lastmile_qr_scan", "android": "https://dc.lft.to/lastmile_qr_scan"}, "fusion_lon": 0.0, "lon": -76.9105165, "name": "06b0dba93547426f939a8f3d2a7e8c55", "is_reserved": 0, "is_disabled": 0}, {"lat": 38.91812733333333, "fusion_lat": 0.0, "type": "electric_scooter", "bike_id": "f9c55ea54c0dd4858dfd3b6835f8d261", "rental_uris": {"ios": "https://dc.lft.to/lastmile_qr_scan", "android": "https://dc.lft.to/lastmile_qr_scan"}, "fusion_lon": 0.0, "lon": -77.02681166666666, "name": "f9c55ea54c0dd4858dfd3b6835f8d261", "is_reserved": 0, "is_disabled": 0}, {"lat": 38.918778, "fusion_lat": 0.0, "type": "electric_bike", "bike_id": "25dbbcf7b75ccdec2988f133a2364acc", "rental_uris": {"ios": "https://dc.lft.to/lastmile_qr_scan", "android": "https://dc.lft.to/lastmile_qr_scan"}, "fusion_lon": 0.0, "lon": -76.96436266666667, "name": "25dbbcf7b75ccdec2988f133a2364acc", "is_reserved": 0, "is_disabled": 0}, {"lat": 38.897545666666666, "fusion_lat": 0.0, "type": "electric_scooter", "bike_id": "bd95a003172885c57b2917a7578707b6", "rental_uris": {"ios": "https://dc.lft.to/lastmile_qr_scan", "android": "https://dc.lft.to/lastmile_qr_scan"}, "fusion_lon": 0.0, "lon": -77.0209705, "name": "bd95a003172885c57b2917a7578707b6", "is_reserved": 0, "is_disabled": 0}, {"lat": 38.90604033333334, "fusion_lat": 0.0, "type": "electric_scooter", "bike_id": "9dc317b0a355e7a0ebfa184759cce86a", "rental_uris": {"ios": "https://dc.lft.to/lastmile_qr_scan", "android": "https://dc.lft.to/lastmile_qr_scan"}, "fusion_lon": 0.0, "lon": -77.041255, "name": "9dc317b0a355e7a0ebfa184759cce86a", "is_reserved": 0, "is_disabled": 0}, {"lat": 38.902072, "fusion_lat": 0.0, "type": "electric_bike", "bike_id": "50567321774db806e8ae349a5a0eda01", "rental_uris": {"ios": "https://dc.lft.to/lastmile_qr_scan", "android": "https://dc.lft.to/lastmile_qr_scan"}, "fusion_lon": 0.0, "lon": -77.0589685, "name": "50567321774db806e8ae349a5a0eda01", "is_reserved": 0, "is_disabled": 0}, {"lat": 38.932848666666665, "fusion_lat": 0.0, "type": "electric_scooter", "bike_id": "da550f7615c819719ca664c33ceeb8e5", "rental_uris": {"ios": "https://dc.lft.to/lastmile_qr_scan", "android": "https://dc.lft.to/lastmile_qr_scan"}, "fusion_lon": 0.0, "lon": -77.0254345, "name": "da550f7615c819719ca664c33ceeb8e5", "is_reserved": 0, "is_disabled": 0}, {"lat": 38.891965666666664, "fusion_lat": 0.0, "type": "electric_scooter", "bike_id": "799619ec483e5bd2fdfa218ad7ae4da4", "rental_uris": {"ios": "https://dc.lft.to/lastmile_qr_scan", "android": "https://dc.lft.to/lastmile_qr_scan"}, "fusion_lon": 0.0, "lon": -76.99385466666666, "name": "799619ec483e5bd2fdfa218ad7ae4da4", "is_reserved": 0, "is_disabled": 0}, {"lat": 38.930619166666666, "fusion_lat": 0.0, "type": "electric_scooter", "bike_id": "08cd8dac1104fc083fb1cfdc1273afdd", "rental_uris": {"ios": "https://dc.lft.to/lastmile_qr_scan", "android": "https://dc.lft.to/lastmile_qr_scan"}, "fusion_lon": 0.0, "lon": -77.0320895, "name": "08cd8dac1104fc083fb1cfdc1273afdd", "is_reserved": 0, "is_disabled": 0}, {"lat": 38.900155, "fusion_lat": 0.0, "type": "electric_scooter", "bike_id": "87995f8b770c919a5adcb74d40a20734", "rental_uris": {"ios": "https://dc.lft.to/lastmile_qr_scan", "android": "https://dc.lft.to/lastmile_qr_scan"}, "fusion_lon": 0.0, "lon": -77.012608, "name": "87995f8b770c919a5adcb74d40a20734", "is_reserved": 0, "is_disabled": 0}, {"lat": 38.876331666666665, "fusion_lat": 0.0, "type": "electric_scooter", "bike_id": "345229ae3c468fff03ba1788bdeb6972", "rental_uris": {"ios": "https://dc.lft.to/lastmile_qr_scan", "android": "https://dc.lft.to/lastmile_qr_scan"}, "fusion_lon": 0.0, "lon": -77.0011045, "name": "345229ae3c468fff03ba1788bdeb6972", "is_reserved": 0, "is_disabled": 0}, {"lat": 38.913340833333336, "fusion_lat": 0.0, "type": "electric_scooter", "bike_id": "9b3d98a6016cfda230dc0cd780615325", "rental_uris": {"ios": "https://dc.lft.to/lastmile_qr_scan", "android": "https://dc.lft.to/lastmile_qr_scan"}, "fusion_lon": 0.0, "lon": -77.04859983333333, "name": "9b3d98a6016cfda230dc0cd780615325", "is_reserved": 0, "is_disabled": 0}, {"lat": 38.89928233333333, "fusion_lat": 0.0, "type": "electric_scooter", "bike_id": "13d4c243177fd69de776dfeb1e9932c3", "rental_uris": {"ios": "https://dc.lft.to/lastmile_qr_scan", "android": "https://dc.lft.to/lastmile_qr_scan"}, "fusion_lon": 0.0, "lon": -77.00343266666667, "name": "13d4c243177fd69de776dfeb1e9932c3", "is_reserved": 0, "is_disabled": 0}, {"lat": 38.913396666666664, "fusion_lat": 0.0, "type": "electric_scooter", "bike_id": "91d2bc27c6113e176c479f8af09288b5", "rental_uris": {"ios": "https://dc.lft.to/lastmile_qr_scan", "android": "https://dc.lft.to/lastmile_qr_scan"}, "fusion_lon": 0.0, "lon": -77.016212, "name": "91d2bc27c6113e176c479f8af09288b5", "is_reserved": 0, "is_disabled": 0}, {"lat": 38.8994145, "fusion_lat": 0.0, "type": "electric_scooter", "bike_id": "17c39fd41ae700d30ac3d8b5073eafab", "rental_uris": {"ios": "https://dc.lft.to/lastmile_qr_scan", "android": "https://dc.lft.to/lastmile_qr_scan"}, "fusion_lon": 0.0, "lon": -77.02806433333333, "name": "17c39fd41ae700d30ac3d8b5073eafab", "is_reserved": 0, "is_disabled": 0}, {"lat": 38.9274605, "fusion_lat": 0.0, "type": "electric_bike", "bike_id": "5ed00d5e21b26e09d301e834db1f48a6", "rental_uris": {"ios": "https://dc.lft.to/lastmile_qr_scan", "android": "https://dc.lft.to/lastmile_qr_scan"}, "fusion_lon": 0.0, "lon": -77.03635766666666, "name": "5ed00d5e21b26e09d301e834db1f48a6", "is_reserved": 0, "is_disabled": 0}, {"lat": 38.901264166666664, "fusion_lat": 0.0, "type": "electric_scooter", "bike_id": "21bd3420703fd307d9ad0db306109f76", "rental_uris": {"ios": "https://dc.lft.to/lastmile_qr_scan", "android": "https://dc.lft.to/lastmile_qr_scan"}, "fusion_lon": 0.0, "lon": -77.02790983333334, "name": "21bd3420703fd307d9ad0db306109f76", "is_reserved": 0, "is_disabled": 0}, {"lat": 38.90913616666667, "fusion_lat": 0.0, "type": "electric_scooter", "bike_id": "38af26e66a1e5ed1bdfb24d0ed4230a9", "rental_uris": {"ios": "https://dc.lft.to/lastmile_qr_scan", "android": "https://dc.lft.to/lastmile_qr_scan"}, "fusion_lon": 0.0, "lon": -77.02303733333333, "name": "38af26e66a1e5ed1bdfb24d0ed4230a9", "is_reserved": 0, "is_disabled": 0}, {"lat": 38.902103, "fusion_lat": 0.0, "type": "electric_scooter", "bike_id": "691981a19b4cd46ace4081cf82c3ed1f", "rental_uris": {"ios": "https://dc.lft.to/lastmile_qr_scan", "android": "https://dc.lft.to/lastmile_qr_scan"}, "fusion_lon": 0.0, "lon": -77.04885233333333, "name": "691981a19b4cd46ace4081cf82c3ed1f", "is_reserved": 0, "is_disabled": 0}, {"lat": 38.9156905, "fusion_lat": 0.0, "type": "electric_scooter", "bike_id": "2420f9bebc9da1e094e23c88dc9514ca", "rental_uris": {"ios": "https://dc.lft.to/lastmile_qr_scan", "android": "https://dc.lft.to/lastmile_qr_scan"}, "fusion_lon": 0.0, "lon": -77.02185, "name": "2420f9bebc9da1e094e23c88dc9514ca", "is_reserved": 0, "is_disabled": 0}, {"lat": 38.966102666666664, "fusion_lat": 0.0, "type": "electric_scooter", "bike_id": "29efafb295ff0bb612892561bbea6a8b", "rental_uris": {"ios": "https://dc.lft.to/lastmile_qr_scan", "android": "https://dc.lft.to/lastmile_qr_scan"}, "fusion_lon": 0.0, "lon": -77.02743916666667, "name": "29efafb295ff0bb612892561bbea6a8b", "is_reserved": 0, "is_disabled": 0}, {"lat": 38.89581866666666, "fusion_lat": 0.0, "type": "electric_scooter", "bike_id": "f38b3086eb0a8a4957e793566a8a090a", "rental_uris": {"ios": "https://dc.lft.to/lastmile_qr_scan", "android": "https://dc.lft.to/lastmile_qr_scan"}, "fusion_lon": 0.0, "lon": -76.98321816666666, "name": "f38b3086eb0a8a4957e793566a8a090a", "is_reserved": 0, "is_disabled": 0}, {"lat": 38.890505166666664, "fusion_lat": 0.0, "type": "electric_scooter", "bike_id": "835c1db1051688818f9a45a83c9122c0", "rental_uris": {"ios": "https://dc.lft.to/lastmile_qr_scan", "android": "https://dc.lft.to/lastmile_qr_scan"}, "fusion_lon": 0.0, "lon": -76.93756866666666, "name": "835c1db1051688818f9a45a83c9122c0", "is_reserved": 0, "is_disabled": 0}, {"lat": 38.903590333333334, "fusion_lat": 0.0, "type": "electric_scooter", "bike_id": "3be7df42b2815a6f3d466927ce6f9ccb", "rental_uris": {"ios": "https://dc.lft.to/lastmile_qr_scan", "android": "https://dc.lft.to/lastmile_qr_scan"}, "fusion_lon": 0.0, "lon": -77.04509466666667, "name": "3be7df42b2815a6f3d466927ce6f9ccb", "is_reserved": 0, "is_disabled": 0}, {"lat": 38.87621866666667, "fusion_lat": 0.0, "type": "electric_scooter", "bike_id": "01e8f213231449d1491a4c4497a9478b", "rental_uris": {"ios": "https://dc.lft.to/lastmile_qr_scan", "android": "https://dc.lft.to/lastmile_qr_scan"}, "fusion_lon": 0.0, "lon": -76.965418, "name": "01e8f213231449d1491a4c4497a9478b", "is_reserved": 0, "is_disabled": 0}, {"lat": 38.9279565, "fusion_lat": 0.0, "type": "electric_scooter", "bike_id": "136800da2d523dba0472c8f8c1a89563", "rental_uris": {"ios": "https://dc.lft.to/lastmile_qr_scan", "android": "https://dc.lft.to/lastmile_qr_scan"}, "fusion_lon": 0.0, "lon": -77.0212635, "name": "136800da2d523dba0472c8f8c1a89563", "is_reserved": 0, "is_disabled": 0}, {"lat": 38.898862333333334, "fusion_lat": 0.0, "type": "electric_scooter", "bike_id": "c4ea376921ebb562d6a94752ee5e3157", "rental_uris": {"ios": "https://dc.lft.to/lastmile_qr_scan", "android": "https://dc.lft.to/lastmile_qr_scan"}, "fusion_lon": 0.0, "lon": -77.01209066666667, "name": "c4ea376921ebb562d6a94752ee5e3157", "is_reserved": 0, "is_disabled": 0}, {"lat": 38.897477, "fusion_lat": 0.0, "type": "electric_scooter", "bike_id": "684392ddaeda43cb4936f1461ab3c11c", "rental_uris": {"ios": "https://dc.lft.to/lastmile_qr_scan", "android": "https://dc.lft.to/lastmile_qr_scan"}, "fusion_lon": 0.0, "lon": -77.0135825, "name": "684392ddaeda43cb4936f1461ab3c11c", "is_reserved": 0, "is_disabled": 0}, {"lat": 38.9134605, "fusion_lat": 0.0, "type": "electric_scooter", "bike_id": "3bacf12b30d62f997e1e2558ff4b2bdf", "rental_uris": {"ios": "https://dc.lft.to/lastmile_qr_scan", "android": "https://dc.lft.to/lastmile_qr_scan"}, "fusion_lon": 0.0, "lon": -77.04553933333334, "name": "3bacf12b30d62f997e1e2558ff4b2bdf", "is_reserved": 0, "is_disabled": 0}, {"lat": 38.89224766666667, "fusion_lat": 0.0, "type": "electric_scooter", "bike_id": "15c68906c0035169e2772a91d5928107", "rental_uris": {"ios": "https://dc.lft.to/lastmile_qr_scan", "android": "https://dc.lft.to/lastmile_qr_scan"}, "fusion_lon": 0.0, "lon": -77.02352733333333, "name": "15c68906c0035169e2772a91d5928107", "is_reserved": 0, "is_disabled": 0}, {"lat": 38.8922815, "fusion_lat": 0.0, "type": "electric_scooter", "bike_id": "8ed866d35eef7c9ca358d3b150a197e4", "rental_uris": {"ios": "https://dc.lft.to/lastmile_qr_scan", "android": "https://dc.lft.to/lastmile_qr_scan"}, "fusion_lon": 0.0, "lon": -77.04894416666667, "name": "8ed866d35eef7c9ca358d3b150a197e4", "is_reserved": 0, "is_disabled": 0}, {"lat": 38.93397783333333, "fusion_lat": 0.0, "type": "electric_scooter", "bike_id": "ee1634024ba4c9944309fee09014ca2d", "rental_uris": {"ios": "https://dc.lft.to/lastmile_qr_scan", "android": "https://dc.lft.to/lastmile_qr_scan"}, "fusion_lon": 0.0, "lon": -77.05741233333333, "name": "ee1634024ba4c9944309fee09014ca2d", "is_reserved": 0, "is_disabled": 0}, {"lat": 38.9217445, "fusion_lat": 0.0, "type": "electric_scooter", "bike_id": "96dc61b79d0b96b6a576697d94a22828", "rental_uris": {"ios": "https://dc.lft.to/lastmile_qr_scan", "android": "https://dc.lft.to/lastmile_qr_scan"}, "fusion_lon": 0.0, "lon": -77.04229, "name": "96dc61b79d0b96b6a576697d94a22828", "is_reserved": 0, "is_disabled": 0}, {"lat": 38.86269816666667, "fusion_lat": 0.0, "type": "electric_scooter", "bike_id": "4f42f9254f1b8c0c9478ccc804cf80e7", "rental_uris": {"ios": "https://dc.lft.to/lastmile_qr_scan", "android": "https://dc.lft.to/lastmile_qr_scan"}, "fusion_lon": 0.0, "lon": -76.9953435, "name": "4f42f9254f1b8c0c9478ccc804cf80e7", "is_reserved": 0, "is_disabled": 0}, {"lat": 38.910720833333336, "fusion_lat": 0.0, "type": "electric_scooter", "bike_id": "2ac783a59f8f1825f8571242afd6ebf8", "rental_uris": {"ios": "https://dc.lft.to/lastmile_qr_scan", "android": "https://dc.lft.to/lastmile_qr_scan"}, "fusion_lon": 0.0, "lon": -77.02719983333333, "name": "2ac783a59f8f1825f8571242afd6ebf8", "is_reserved": 0, "is_disabled": 0}, {"lat": 38.918211166666666, "fusion_lat": 0.0, "type": "electric_scooter", "bike_id": "42d585267c98cd727f491f998644bc76", "rental_uris": {"ios": "https://dc.lft.to/lastmile_qr_scan", "android": "https://dc.lft.to/lastmile_qr_scan"}, "fusion_lon": 0.0, "lon": -77.04171133333334, "name": "42d585267c98cd727f491f998644bc76", "is_reserved": 0, "is_disabled": 0}, {"lat": 38.8970165, "fusion_lat": 0.0, "type": "electric_scooter", "bike_id": "706bd40a5cab49fa6c383f6928b9fa4b", "rental_uris": {"ios": "https://dc.lft.to/lastmile_qr_scan", "android": "https://dc.lft.to/lastmile_qr_scan"}, "fusion_lon": 0.0, "lon": -77.02663133333333, "name": "706bd40a5cab49fa6c383f6928b9fa4b", "is_reserved": 0, "is_disabled": 0}, {"lat": 38.855153666666666, "fusion_lat": 0.0, "type": "electric_bike", "bike_id": "d376aba7ceda3014a17d5e4e7181a171", "rental_uris": {"ios": "https://dc.lft.to/lastmile_qr_scan", "android": "https://dc.lft.to/lastmile_qr_scan"}, "fusion_lon": 0.0, "lon": -76.98418683333334, "name": "d376aba7ceda3014a17d5e4e7181a171", "is_reserved": 0, "is_disabled": 0}, {"lat": 38.88034116666667, "fusion_lat": 0.0, "type": "electric_scooter", "bike_id": "23a9b4d56a39fcdb907e117c7e23371b", "rental_uris": {"ios": "https://dc.lft.to/lastmile_qr_scan", "android": "https://dc.lft.to/lastmile_qr_scan"}, "fusion_lon": 0.0, "lon": -77.00595, "name": "23a9b4d56a39fcdb907e117c7e23371b", "is_reserved": 0, "is_disabled": 0}, {"lat": 38.912620833333335, "fusion_lat": 0.0, "type": "electric_scooter", "bike_id": "48b5e8c67266f3ce68a5000c1de36ea4", "rental_uris": {"ios": "https://dc.lft.to/lastmile_qr_scan", "android": "https://dc.lft.to/lastmile_qr_scan"}, "fusion_lon": 0.0, "lon": -77.03804166666667, "name": "48b5e8c67266f3ce68a5000c1de36ea4", "is_reserved": 0, "is_disabled": 0}, {"lat": 38.928775333333334, "fusion_lat": 0.0, "type": "electric_scooter", "bike_id": "48b76f86f60a61b0dcb0d8bc3c78c110", "rental_uris": {"ios": "https://dc.lft.to/lastmile_qr_scan", "android": "https://dc.lft.to/lastmile_qr_scan"}, "fusion_lon": 0.0, "lon": -77.0322735, "name": "48b76f86f60a61b0dcb0d8bc3c78c110", "is_reserved": 0, "is_disabled": 0}, {"lat": 38.897437333333336, "fusion_lat": 0.0, "type": "electric_scooter", "bike_id": "416f422c5b601ba317f7537d8730cf1f", "rental_uris": {"ios": "https://dc.lft.to/lastmile_qr_scan", "android": "https://dc.lft.to/lastmile_qr_scan"}, "fusion_lon": 0.0, "lon": -77.00141133333334, "name": "416f422c5b601ba317f7537d8730cf1f", "is_reserved": 0, "is_disabled": 0}, {"lat": 38.90495133333334, "fusion_lat": 0.0, "type": "electric_scooter", "bike_id": "afb3e21d633971fd52fa6c74bfde2823", "rental_uris": {"ios": "https://dc.lft.to/lastmile_qr_scan", "android": "https://dc.lft.to/lastmile_qr_scan"}, "fusion_lon": 0.0, "lon": -77.0178535, "name": "afb3e21d633971fd52fa6c74bfde2823", "is_reserved": 0, "is_disabled": 0}, {"lat": 38.921714333333334, "fusion_lat": 0.0, "type": "electric_scooter", "bike_id": "cc3e0ab1ee85bcca5b0a411b65bb09b9", "rental_uris": {"ios": "https://dc.lft.to/lastmile_qr_scan", "android": "https://dc.lft.to/lastmile_qr_scan"}, "fusion_lon": 0.0, "lon": -77.0401895, "name": "cc3e0ab1ee85bcca5b0a411b65bb09b9", "is_reserved": 0, "is_disabled": 0}, {"lat": 38.92895983333333, "fusion_lat": 0.0, "type": "electric_scooter", "bike_id": "04ff5a8187816f6c3bbe34b40c2c200b", "rental_uris": {"ios": "https://dc.lft.to/lastmile_qr_scan", "android": "https://dc.lft.to/lastmile_qr_scan"}, "fusion_lon": 0.0, "lon": -77.058058, "name": "04ff5a8187816f6c3bbe34b40c2c200b", "is_reserved": 0, "is_disabled": 0}, {"lat": 38.900248166666664, "fusion_lat": 0.0, "type": "electric_scooter", "bike_id": "51fd75f3b7d90c7929dca353dfbd200d", "rental_uris": {"ios": "https://dc.lft.to/lastmile_qr_scan", "android": "https://dc.lft.to/lastmile_qr_scan"}, "fusion_lon": 0.0, "lon": -76.9987045, "name": "51fd75f3b7d90c7929dca353dfbd200d", "is_reserved": 0, "is_disabled": 0}, {"lat": 38.831044, "fusion_lat": 0.0, "type": "electric_bike", "bike_id": "f1dcc61d3b751ee8bb1f1a98508ec8d3", "rental_uris": {"ios": "https://dc.lft.to/lastmile_qr_scan", "android": "https://dc.lft.to/lastmile_qr_scan"}, "fusion_lon": 0.0, "lon": -77.112808, "name": "f1dcc61d3b751ee8bb1f1a98508ec8d3", "is_reserved": 0, "is_disabled": 0}, {"lat": 38.83875483333333, "fusion_lat": 0.0, "type": "electric_bike", "bike_id": "32f9de2789187b7175cb3f607c47d7a7", "rental_uris": {"ios": "https://dc.lft.to/lastmile_qr_scan", "android": "https://dc.lft.to/lastmile_qr_scan"}, "fusion_lon": 0.0, "lon": -76.99703783333334, "name": "32f9de2789187b7175cb3f607c47d7a7", "is_reserved": 0, "is_disabled": 0}, {"lat": 38.88505283333333, "fusion_lat": 0.0, "type": "electric_scooter", "bike_id": "29c9a3b7e26bd219602e98df8f6a9fbd", "rental_uris": {"ios": "https://dc.lft.to/lastmile_qr_scan", "android": "https://dc.lft.to/lastmile_qr_scan"}, "fusion_lon": 0.0, "lon": -77.01586533333334, "name": "29c9a3b7e26bd219602e98df8f6a9fbd", "is_reserved": 0, "is_disabled": 0}, {"lat": 38.898222, "fusion_lat": 0.0, "type": "electric_scooter", "bike_id": "2db7058f1a69dd9c7e007350e31f5ab1", "rental_uris": {"ios": "https://dc.lft.to/lastmile_qr_scan", "android": "https://dc.lft.to/lastmile_qr_scan"}, "fusion_lon": 0.0, "lon": -77.01527816666666, "name": "2db7058f1a69dd9c7e007350e31f5ab1", "is_reserved": 0, "is_disabled": 0}, {"lat": 38.91125266666667, "fusion_lat": 0.0, "type": "electric_scooter", "bike_id": "f20cae3211d6265ec40935367d5096c1", "rental_uris": {"ios": "https://dc.lft.to/lastmile_qr_scan", "android": "https://dc.lft.to/lastmile_qr_scan"}, "fusion_lon": 0.0, "lon": -77.03185833333333, "name": "f20cae3211d6265ec40935367d5096c1", "is_reserved": 0, "is_disabled": 0}, {"lat": 38.873751166666665, "fusion_lat": 0.0, "type": "electric_scooter", "bike_id": "865e957563f144cee26ace7998f99047", "rental_uris": {"ios": "https://dc.lft.to/lastmile_qr_scan", "android": "https://dc.lft.to/lastmile_qr_scan"}, "fusion_lon": 0.0, "lon": -77.00126166666666, "name": "865e957563f144cee26ace7998f99047", "is_reserved": 0, "is_disabled": 0}, {"lat": 38.89543966666667, "fusion_lat": 0.0, "type": "electric_scooter", "bike_id": "044c3a5c24c89a99be32ddca2585c68b", "rental_uris": {"ios": "https://dc.lft.to/lastmile_qr_scan", "android": "https://dc.lft.to/lastmile_qr_scan"}, "fusion_lon": 0.0, "lon": -76.98337516666666, "name": "044c3a5c24c89a99be32ddca2585c68b", "is_reserved": 0, "is_disabled": 0}, {"lat": 38.863340666666666, "fusion_lat": 0.0, "type": "electric_bike", "bike_id": "754b7e2a261cd7eb655d6e4dec653641", "rental_uris": {"ios": "https://dc.lft.to/lastmile_qr_scan", "android": "https://dc.lft.to/lastmile_qr_scan"}, "fusion_lon": 0.0, "lon": -76.98726766666667, "name": "754b7e2a261cd7eb655d6e4dec653641", "is_reserved": 0, "is_disabled": 0}, {"lat": 38.92716816666667, "fusion_lat": 0.0, "type": "electric_scooter", "bike_id": "628adca12ada492a176a4c8191f66d7f", "rental_uris": {"ios": "https://dc.lft.to/lastmile_qr_scan", "android": "https://dc.lft.to/lastmile_qr_scan"}, "fusion_lon": 0.0, "lon": -77.053733, "name": "628adca12ada492a176a4c8191f66d7f", "is_reserved": 0, "is_disabled": 0}, {"lat": 38.913388, "fusion_lat": 0.0, "type": "electric_scooter", "bike_id": "717a4b84b5182a15571882b059dc001c", "rental_uris": {"ios": "https://dc.lft.to/lastmile_qr_scan", "android": "https://dc.lft.to/lastmile_qr_scan"}, "fusion_lon": 0.0, "lon": -77.00329916666666, "name": "717a4b84b5182a15571882b059dc001c", "is_reserved": 0, "is_disabled": 0}, {"lat": 38.904705, "fusion_lat": 0.0, "type": "electric_scooter", "bike_id": "1ace482726bb4e4f4f26fab2531a3d47", "rental_uris": {"ios": "https://dc.lft.to/lastmile_qr_scan", "android": "https://dc.lft.to/lastmile_qr_scan"}, "fusion_lon": 0.0, "lon": -77.06599516666667, "name": "1ace482726bb4e4f4f26fab2531a3d47", "is_reserved": 0, "is_disabled": 0}, {"lat": 38.90275533333333, "fusion_lat": 0.0, "type": "electric_scooter", "bike_id": "45883dfe6feb9876656b3d46de66861f", "rental_uris": {"ios": "https://dc.lft.to/lastmile_qr_scan", "android": "https://dc.lft.to/lastmile_qr_scan"}, "fusion_lon": 0.0, "lon": -77.04609783333333, "name": "45883dfe6feb9876656b3d46de66861f", "is_reserved": 0, "is_disabled": 0}, {"lat": 38.934451833333334, "fusion_lat": 0.0, "type": "electric_scooter", "bike_id": "371f7bec8ebac46ade710f54133bf820", "rental_uris": {"ios": "https://dc.lft.to/lastmile_qr_scan", "android": "https://dc.lft.to/lastmile_qr_scan"}, "fusion_lon": 0.0, "lon": -77.02981, "name": "371f7bec8ebac46ade710f54133bf820", "is_reserved": 0, "is_disabled": 0}, {"lat": 38.98790533333333, "fusion_lat": 0.0, "type": "electric_bike", "bike_id": "ce1cc54634775ef9ffd26108c8d4fc6a", "rental_uris": {"ios": "https://dc.lft.to/lastmile_qr_scan", "android": "https://dc.lft.to/lastmile_qr_scan"}, "fusion_lon": 0.0, "lon": -77.14096083333334, "name": "ce1cc54634775ef9ffd26108c8d4fc6a", "is_reserved": 0, "is_disabled": 0}, {"lat": 38.8973245, "fusion_lat": 0.0, "type": "electric_scooter", "bike_id": "8dec273d2156b8ae2e7a2a82ef756f29", "rental_uris": {"ios": "https://dc.lft.to/lastmile_qr_scan", "android": "https://dc.lft.to/lastmile_qr_scan"}, "fusion_lon": 0.0, "lon": -77.04962366666666, "name": "8dec273d2156b8ae2e7a2a82ef756f29", "is_reserved": 0, "is_disabled": 0}, {"lat": 38.900112, "fusion_lat": 0.0, "type": "electric_scooter", "bike_id": "57db606d3a4a516df09c9bfb6500735b", "rental_uris": {"ios": "https://dc.lft.to/lastmile_qr_scan", "android": "https://dc.lft.to/lastmile_qr_scan"}, "fusion_lon": 0.0, "lon": -77.001424, "name": "57db606d3a4a516df09c9bfb6500735b", "is_reserved": 0, "is_disabled": 0}, {"lat": 38.87460083333333, "fusion_lat": 0.0, "type": "electric_scooter", "bike_id": "6686808d3fb1175a7f07ff32810095b4", "rental_uris": {"ios": "https://dc.lft.to/lastmile_qr_scan", "android": "https://dc.lft.to/lastmile_qr_scan"}, "fusion_lon": 0.0, "lon": -77.00539016666667, "name": "6686808d3fb1175a7f07ff32810095b4", "is_reserved": 0, "is_disabled": 0}, {"lat": 38.92503, "fusion_lat": 0.0, "type": "electric_scooter", "bike_id": "0a6ea1322d75465267811db87eea5573", "rental_uris": {"ios": "https://dc.lft.to/lastmile_qr_scan", "android": "https://dc.lft.to/lastmile_qr_scan"}, "fusion_lon": 0.0, "lon": -77.03919683333334, "name": "0a6ea1322d75465267811db87eea5573", "is_reserved": 0, "is_disabled": 0}, {"lat": 38.91629983333333, "fusion_lat": 0.0, "type": "electric_scooter", "bike_id": "297e596909fb4a23f1ad3682964845db", "rental_uris": {"ios": "https://dc.lft.to/lastmile_qr_scan", "android": "https://dc.lft.to/lastmile_qr_scan"}, "fusion_lon": 0.0, "lon": -77.02685933333333, "name": "297e596909fb4a23f1ad3682964845db", "is_reserved": 0, "is_disabled": 0}, {"lat": 38.91105833333334, "fusion_lat": 0.0, "type": "electric_scooter", "bike_id": "7c69367a88b630e5ebd2a9937427ef50", "rental_uris": {"ios": "https://dc.lft.to/lastmile_qr_scan", "android": "https://dc.lft.to/lastmile_qr_scan"}, "fusion_lon": 0.0, "lon": -77.04465433333333, "name": "7c69367a88b630e5ebd2a9937427ef50", "is_reserved": 0, "is_disabled": 0}, {"lat": 38.92082966666667, "fusion_lat": 0.0, "type": "electric_scooter", "bike_id": "74658a02e2883537443d9c9dc0e7bb4e", "rental_uris": {"ios": "https://dc.lft.to/lastmile_qr_scan", "android": "https://dc.lft.to/lastmile_qr_scan"}, "fusion_lon": 0.0, "lon": -77.02299616666667, "name": "74658a02e2883537443d9c9dc0e7bb4e", "is_reserved": 0, "is_disabled": 0}, {"lat": 38.90702516666666, "fusion_lat": 0.0, "type": "electric_scooter", "bike_id": "d43874eb490b723ad9ca0792a5047abd", "rental_uris": {"ios": "https://dc.lft.to/lastmile_qr_scan", "android": "https://dc.lft.to/lastmile_qr_scan"}, "fusion_lon": 0.0, "lon": -77.03504266666667, "name": "d43874eb490b723ad9ca0792a5047abd", "is_reserved": 0, "is_disabled": 0}, {"lat": 38.9227115, "fusion_lat": 0.0, "type": "electric_scooter", "bike_id": "80e6a35475a175c441f8bc84351592f3", "rental_uris": {"ios": "https://dc.lft.to/lastmile_qr_scan", "android": "https://dc.lft.to/lastmile_qr_scan"}, "fusion_lon": 0.0, "lon": -76.99763733333333, "name": "80e6a35475a175c441f8bc84351592f3", "is_reserved": 0, "is_disabled": 0}, {"lat": 38.90331366666667, "fusion_lat": 0.0, "type": "electric_scooter", "bike_id": "4bc08b3c9a1c03efa7d731c6376bb0d2", "rental_uris": {"ios": "https://dc.lft.to/lastmile_qr_scan", "android": "https://dc.lft.to/lastmile_qr_scan"}, "fusion_lon": 0.0, "lon": -77.04334833333333, "name": "4bc08b3c9a1c03efa7d731c6376bb0d2", "is_reserved": 0, "is_disabled": 0}, {"lat": 38.9182, "fusion_lat": 0.0, "type": "electric_scooter", "bike_id": "f8d3e32cf57df8c065e0d4689d0291b7", "rental_uris": {"ios": "https://dc.lft.to/lastmile_qr_scan", "android": "https://dc.lft.to/lastmile_qr_scan"}, "fusion_lon": 0.0, "lon": -77.0120595, "name": "f8d3e32cf57df8c065e0d4689d0291b7", "is_reserved": 0, "is_disabled": 0}, {"lat": 38.8812125, "fusion_lat": 0.0, "type": "electric_scooter", "bike_id": "a991756303627c993acfa1a7721ee19f", "rental_uris": {"ios": "https://dc.lft.to/lastmile_qr_scan", "android": "https://dc.lft.to/lastmile_qr_scan"}, "fusion_lon": 0.0, "lon": -77.0164065, "name": "a991756303627c993acfa1a7721ee19f", "is_reserved": 0, "is_disabled": 0}, {"lat": 38.898468666666666, "fusion_lat": 0.0, "type": "electric_scooter", "bike_id": "380fe1458842fc6118b0b342b2775b02", "rental_uris": {"ios": "https://dc.lft.to/lastmile_qr_scan", "android": "https://dc.lft.to/lastmile_qr_scan"}, "fusion_lon": 0.0, "lon": -76.94248916666666, "name": "380fe1458842fc6118b0b342b2775b02", "is_reserved": 0, "is_disabled": 0}, {"lat": 38.93899016666667, "fusion_lat": 0.0, "type": "electric_scooter", "bike_id": "910610ef25cac10662b343a9a8a357b1", "rental_uris": {"ios": "https://dc.lft.to/lastmile_qr_scan", "android": "https://dc.lft.to/lastmile_qr_scan"}, "fusion_lon": 0.0, "lon": -76.98604866666666, "name": "910610ef25cac10662b343a9a8a357b1", "is_reserved": 0, "is_disabled": 0}, {"lat": 38.91692316666666, "fusion_lat": 0.0, "type": "electric_scooter", "bike_id": "cfe1f74329e2c2f13d5ab90c5ceb93ec", "rental_uris": {"ios": "https://dc.lft.to/lastmile_qr_scan", "android": "https://dc.lft.to/lastmile_qr_scan"}, "fusion_lon": 0.0, "lon": -77.02901866666667, "name": "cfe1f74329e2c2f13d5ab90c5ceb93ec", "is_reserved": 0, "is_disabled": 0}, {"lat": 38.863393333333335, "fusion_lat": 0.0, "type": "electric_bike", "bike_id": "9e406cbea94da1546493ef056fb260af", "rental_uris": {"ios": "https://dc.lft.to/lastmile_qr_scan", "android": "https://dc.lft.to/lastmile_qr_scan"}, "fusion_lon": 0.0, "lon": -76.98720083333333, "name": "9e406cbea94da1546493ef056fb260af", "is_reserved": 0, "is_disabled": 0}, {"lat": 38.925220833333334, "fusion_lat": 0.0, "type": "electric_scooter", "bike_id": "09ad3dabc2be66e217b34369ae081abd", "rental_uris": {"ios": "https://dc.lft.to/lastmile_qr_scan", "android": "https://dc.lft.to/lastmile_qr_scan"}, "fusion_lon": 0.0, "lon": -77.04441433333334, "name": "09ad3dabc2be66e217b34369ae081abd", "is_reserved": 0, "is_disabled": 0}, {"lat": 38.91267216666667, "fusion_lat": 0.0, "type": "electric_scooter", "bike_id": "3e1c2cf11f93ed348b70a74a978b71b5", "rental_uris": {"ios": "https://dc.lft.to/lastmile_qr_scan", "android": "https://dc.lft.to/lastmile_qr_scan"}, "fusion_lon": 0.0, "lon": -77.0353955, "name": "3e1c2cf11f93ed348b70a74a978b71b5", "is_reserved": 0, "is_disabled": 0}, {"lat": 38.91406416666667, "fusion_lat": 0.0, "type": "electric_scooter", "bike_id": "26a6014db0a1c0f9eb7b7d985634d464", "rental_uris": {"ios": "https://dc.lft.to/lastmile_qr_scan", "android": "https://dc.lft.to/lastmile_qr_scan"}, "fusion_lon": 0.0, "lon": -77.02940633333333, "name": "26a6014db0a1c0f9eb7b7d985634d464", "is_reserved": 0, "is_disabled": 0}, {"lat": 38.90801316666666, "fusion_lat": 0.0, "type": "electric_scooter", "bike_id": "84d0025db2da934d953028732311e7c8", "rental_uris": {"ios": "https://dc.lft.to/lastmile_qr_scan", "android": "https://dc.lft.to/lastmile_qr_scan"}, "fusion_lon": 0.0, "lon": -77.03436866666667, "name": "84d0025db2da934d953028732311e7c8", "is_reserved": 0, "is_disabled": 0}, {"lat": 38.932079333333334, "fusion_lat": 0.0, "type": "electric_scooter", "bike_id": "4bf8366e012d777f5a9b988aff4926b0", "rental_uris": {"ios": "https://dc.lft.to/lastmile_qr_scan", "android": "https://dc.lft.to/lastmile_qr_scan"}, "fusion_lon": 0.0, "lon": -77.035026, "name": "4bf8366e012d777f5a9b988aff4926b0", "is_reserved": 0, "is_disabled": 0}, {"lat": 38.930439, "fusion_lat": 0.0, "type": "electric_scooter", "bike_id": "d75d40f0818c1a4be6561b1768bcae92", "rental_uris": {"ios": "https://dc.lft.to/lastmile_qr_scan", "android": "https://dc.lft.to/lastmile_qr_scan"}, "fusion_lon": 0.0, "lon": -77.0347275, "name": "d75d40f0818c1a4be6561b1768bcae92", "is_reserved": 0, "is_disabled": 0}, {"lat": 38.8486485, "fusion_lat": 0.0, "type": "electric_bike", "bike_id": "4a06255eb6a31f5776abdbee5d363fd7", "rental_uris": {"ios": "https://dc.lft.to/lastmile_qr_scan", "android": "https://dc.lft.to/lastmile_qr_scan"}, "fusion_lon": 0.0, "lon": -77.0990045, "name": "4a06255eb6a31f5776abdbee5d363fd7", "is_reserved": 0, "is_disabled": 0}, {"lat": 38.92470516666667, "fusion_lat": 0.0, "type": "electric_scooter", "bike_id": "a4bd7b5356acb29e45994a2e7ed63a3e", "rental_uris": {"ios": "https://dc.lft.to/lastmile_qr_scan", "android": "https://dc.lft.to/lastmile_qr_scan"}, "fusion_lon": 0.0, "lon": -77.05232016666666, "name": "a4bd7b5356acb29e45994a2e7ed63a3e", "is_reserved": 0, "is_disabled": 0}, {"lat": 38.9199065, "fusion_lat": 0.0, "type": "electric_scooter", "bike_id": "36beebe48b9cb70c51fdc85a17f43461", "rental_uris": {"ios": "https://dc.lft.to/lastmile_qr_scan", "android": "https://dc.lft.to/lastmile_qr_scan"}, "fusion_lon": 0.0, "lon": -77.032066, "name": "36beebe48b9cb70c51fdc85a17f43461", "is_reserved": 0, "is_disabled": 0}, {"lat": 38.9006595, "fusion_lat": 0.0, "type": "electric_scooter", "bike_id": "e3e91712e5d471d6f0d43d93024d707b", "rental_uris": {"ios": "https://dc.lft.to/lastmile_qr_scan", "android": "https://dc.lft.to/lastmile_qr_scan"}, "fusion_lon": 0.0, "lon": -77.04529633333334, "name": "e3e91712e5d471d6f0d43d93024d707b", "is_reserved": 0, "is_disabled": 0}, {"lat": 38.88656666666667, "fusion_lat": 0.0, "type": "electric_scooter", "bike_id": "c0d88516b6309cad7f6f6f15e2061171", "rental_uris": {"ios": "https://dc.lft.to/lastmile_qr_scan", "android": "https://dc.lft.to/lastmile_qr_scan"}, "fusion_lon": 0.0, "lon": -77.0199825, "name": "c0d88516b6309cad7f6f6f15e2061171", "is_reserved": 0, "is_disabled": 0}, {"lat": 38.92420716666667, "fusion_lat": 0.0, "type": "electric_scooter", "bike_id": "a304f22b84605cf69fb8f813d5d37541", "rental_uris": {"ios": "https://dc.lft.to/lastmile_qr_scan", "android": "https://dc.lft.to/lastmile_qr_scan"}, "fusion_lon": 0.0, "lon": -77.0575045, "name": "a304f22b84605cf69fb8f813d5d37541", "is_reserved": 0, "is_disabled": 0}, {"lat": 38.799878, "fusion_lat": 0.0, "type": "electric_bike", "bike_id": "fdbe07d852ccdb4a2015c1ea443415fb", "rental_uris": {"ios": "https://dc.lft.to/lastmile_qr_scan", "android": "https://dc.lft.to/lastmile_qr_scan"}, "fusion_lon": 0.0, "lon": -77.12979283333334, "name": "fdbe07d852ccdb4a2015c1ea443415fb", "is_reserved": 0, "is_disabled": 0}, {"lat": 38.916851666666666, "fusion_lat": 0.0, "type": "electric_scooter", "bike_id": "9d30fe0a0d1febf28723c2af1de7b7e9", "rental_uris": {"ios": "https://dc.lft.to/lastmile_qr_scan", "android": "https://dc.lft.to/lastmile_qr_scan"}, "fusion_lon": 0.0, "lon": -76.980266, "name": "9d30fe0a0d1febf28723c2af1de7b7e9", "is_reserved": 0, "is_disabled": 0}, {"lat": 38.902356166666664, "fusion_lat": 0.0, "type": "electric_scooter", "bike_id": "a7d0a8a1e09f9b7358d5d4260d21f442", "rental_uris": {"ios": "https://dc.lft.to/lastmile_qr_scan", "android": "https://dc.lft.to/lastmile_qr_scan"}, "fusion_lon": 0.0, "lon": -77.0315315, "name": "a7d0a8a1e09f9b7358d5d4260d21f442", "is_reserved": 0, "is_disabled": 0}, {"lat": 38.92188316666667, "fusion_lat": 0.0, "type": "electric_scooter", "bike_id": "5e99b36680716b86f1977213ae1afa51", "rental_uris": {"ios": "https://dc.lft.to/lastmile_qr_scan", "android": "https://dc.lft.to/lastmile_qr_scan"}, "fusion_lon": 0.0, "lon": -77.0419665, "name": "5e99b36680716b86f1977213ae1afa51", "is_reserved": 0, "is_disabled": 0}, {"lat": 38.933687666666664, "fusion_lat": 0.0, "type": "electric_scooter", "bike_id": "cd2934eb2af00d48d131a351d6c70a0e", "rental_uris": {"ios": "https://dc.lft.to/lastmile_qr_scan", "android": "https://dc.lft.to/lastmile_qr_scan"}, "fusion_lon": 0.0, "lon": -77.05725833333334, "name": "cd2934eb2af00d48d131a351d6c70a0e", "is_reserved": 0, "is_disabled": 0}, {"lat": 38.94023383333333, "fusion_lat": 0.0, "type": "electric_bike", "bike_id": "5a5d7a6f33cfaac3a55b4016286c9a04", "rental_uris": {"ios": "https://dc.lft.to/lastmile_qr_scan", "android": "https://dc.lft.to/lastmile_qr_scan"}, "fusion_lon": 0.0, "lon": -76.976084, "name": "5a5d7a6f33cfaac3a55b4016286c9a04", "is_reserved": 0, "is_disabled": 0}, {"lat": 38.9221995, "fusion_lat": 0.0, "type": "electric_scooter", "bike_id": "0494ffa29097e602553007350a736bb9", "rental_uris": {"ios": "https://dc.lft.to/lastmile_qr_scan", "android": "https://dc.lft.to/lastmile_qr_scan"}, "fusion_lon": 0.0, "lon": -77.04331033333334, "name": "0494ffa29097e602553007350a736bb9", "is_reserved": 0, "is_disabled": 0}, {"lat": 38.898357833333336, "fusion_lat": 0.0, "type": "electric_scooter", "bike_id": "f42dc16b56c1284748f582bd2bf233c2", "rental_uris": {"ios": "https://dc.lft.to/lastmile_qr_scan", "android": "https://dc.lft.to/lastmile_qr_scan"}, "fusion_lon": 0.0, "lon": -77.0336675, "name": "f42dc16b56c1284748f582bd2bf233c2", "is_reserved": 0, "is_disabled": 0}, {"lat": 38.7845965, "fusion_lat": 0.0, "type": "electric_bike", "bike_id": "082abba886ced2c3cda78481017850b6", "rental_uris": {"ios": "https://dc.lft.to/lastmile_qr_scan", "android": "https://dc.lft.to/lastmile_qr_scan"}, "fusion_lon": 0.0, "lon": -77.01631466666667, "name": "082abba886ced2c3cda78481017850b6", "is_reserved": 0, "is_disabled": 0}, {"lat": 38.92344583333333, "fusion_lat": 0.0, "type": "electric_scooter", "bike_id": "3568a8f81f2d29ffbb9b5bf9a549464d", "rental_uris": {"ios": "https://dc.lft.to/lastmile_qr_scan", "android": "https://dc.lft.to/lastmile_qr_scan"}, "fusion_lon": 0.0, "lon": -77.0473805, "name": "3568a8f81f2d29ffbb9b5bf9a549464d", "is_reserved": 0, "is_disabled": 0}, {"lat": 38.90228066666667, "fusion_lat": 0.0, "type": "electric_scooter", "bike_id": "dd4626546af8a86e908c9f4c8c0cffb7", "rental_uris": {"ios": "https://dc.lft.to/lastmile_qr_scan", "android": "https://dc.lft.to/lastmile_qr_scan"}, "fusion_lon": 0.0, "lon": -77.02264566666666, "name": "dd4626546af8a86e908c9f4c8c0cffb7", "is_reserved": 0, "is_disabled": 0}, {"lat": 38.914776833333335, "fusion_lat": 0.0, "type": "electric_scooter", "bike_id": "d8cad5d82d118658ab41f2063bb829c6", "rental_uris": {"ios": "https://dc.lft.to/lastmile_qr_scan", "android": "https://dc.lft.to/lastmile_qr_scan"}, "fusion_lon": 0.0, "lon": -77.042609, "name": "d8cad5d82d118658ab41f2063bb829c6", "is_reserved": 0, "is_disabled": 0}, {"lat": 38.86473383333333, "fusion_lat": 0.0, "type": "electric_bike", "bike_id": "a6e607b114a65f9ad813d8acdca7a94e", "rental_uris": {"ios": "https://dc.lft.to/lastmile_qr_scan", "android": "https://dc.lft.to/lastmile_qr_scan"}, "fusion_lon": 0.0, "lon": -77.076317, "name": "a6e607b114a65f9ad813d8acdca7a94e", "is_reserved": 0, "is_disabled": 0}, {"lat": 38.89180233333333, "fusion_lat": 0.0, "type": "electric_scooter", "bike_id": "12af7abe3431ddbe17ecf76448c53f65", "rental_uris": {"ios": "https://dc.lft.to/lastmile_qr_scan", "android": "https://dc.lft.to/lastmile_qr_scan"}, "fusion_lon": 0.0, "lon": -77.00336833333333, "name": "12af7abe3431ddbe17ecf76448c53f65", "is_reserved": 0, "is_disabled": 0}, {"lat": 38.908604, "fusion_lat": 0.0, "type": "electric_scooter", "bike_id": "13726797bcdb4b02d9e2b2494bbec7ef", "rental_uris": {"ios": "https://dc.lft.to/lastmile_qr_scan", "android": "https://dc.lft.to/lastmile_qr_scan"}, "fusion_lon": 0.0, "lon": -77.0186955, "name": "13726797bcdb4b02d9e2b2494bbec7ef", "is_reserved": 0, "is_disabled": 0}, {"lat": 38.9026235, "fusion_lat": 0.0, "type": "electric_scooter", "bike_id": "a722024d02254307477ed5431ecfeaac", "rental_uris": {"ios": "https://dc.lft.to/lastmile_qr_scan", "android": "https://dc.lft.to/lastmile_qr_scan"}, "fusion_lon": 0.0, "lon": -77.03030383333333, "name": "a722024d02254307477ed5431ecfeaac", "is_reserved": 0, "is_disabled": 0}, {"lat": 38.956305666666665, "fusion_lat": 0.0, "type": "electric_scooter", "bike_id": "5af062d17900405cc56837d61f7b1142", "rental_uris": {"ios": "https://dc.lft.to/lastmile_qr_scan", "android": "https://dc.lft.to/lastmile_qr_scan"}, "fusion_lon": 0.0, "lon": -77.02834316666667, "name": "5af062d17900405cc56837d61f7b1142", "is_reserved": 0, "is_disabled": 0}, {"lat": 38.904891, "fusion_lat": 0.0, "type": "electric_bike", "bike_id": "fa2c95e1139aaebdd8d722ab2a018ccc", "rental_uris": {"ios": "https://dc.lft.to/lastmile_qr_scan", "android": "https://dc.lft.to/lastmile_qr_scan"}, "fusion_lon": 0.0, "lon": -76.97441833333333, "name": "fa2c95e1139aaebdd8d722ab2a018ccc", "is_reserved": 0, "is_disabled": 0}, {"lat": 38.9223215, "fusion_lat": 0.0, "type": "electric_scooter", "bike_id": "da41514fe9846efb079bf9f97b22bc55", "rental_uris": {"ios": "https://dc.lft.to/lastmile_qr_scan", "android": "https://dc.lft.to/lastmile_qr_scan"}, "fusion_lon": 0.0, "lon": -77.02329916666666, "name": "da41514fe9846efb079bf9f97b22bc55", "is_reserved": 0, "is_disabled": 0}, {"lat": 38.90004066666667, "fusion_lat": 0.0, "type": "electric_scooter", "bike_id": "25605f2b8e0ee4bfd4e46c8d3a3cb26f", "rental_uris": {"ios": "https://dc.lft.to/lastmile_qr_scan", "android": "https://dc.lft.to/lastmile_qr_scan"}, "fusion_lon": 0.0, "lon": -77.00142866666667, "name": "25605f2b8e0ee4bfd4e46c8d3a3cb26f", "is_reserved": 0, "is_disabled": 0}, {"lat": 38.92738383333333, "fusion_lat": 0.0, "type": "electric_scooter", "bike_id": "a7c31359d1b2fb51ce77e75f34b3e2a2", "rental_uris": {"ios": "https://dc.lft.to/lastmile_qr_scan", "android": "https://dc.lft.to/lastmile_qr_scan"}, "fusion_lon": 0.0, "lon": -77.03262766666667, "name": "a7c31359d1b2fb51ce77e75f34b3e2a2", "is_reserved": 0, "is_disabled": 0}, {"lat": 38.899581, "fusion_lat": 0.0, "type": "electric_scooter", "bike_id": "ac4b498c11d32a5b651737c27d6aad83", "rental_uris": {"ios": "https://dc.lft.to/lastmile_qr_scan", "android": "https://dc.lft.to/lastmile_qr_scan"}, "fusion_lon": 0.0, "lon": -77.04520383333333, "name": "ac4b498c11d32a5b651737c27d6aad83", "is_reserved": 0, "is_disabled": 0}, {"lat": 38.84824733333333, "fusion_lat": 0.0, "type": "electric_bike", "bike_id": "f352c0700f22ab0f0a9dc1b9e916b6e0", "rental_uris": {"ios": "https://dc.lft.to/lastmile_qr_scan", "android": "https://dc.lft.to/lastmile_qr_scan"}, "fusion_lon": 0.0, "lon": -77.07908016666667, "name": "f352c0700f22ab0f0a9dc1b9e916b6e0", "is_reserved": 0, "is_disabled": 0}, {"lat": 38.863272, "fusion_lat": 0.0, "type": "electric_scooter", "bike_id": "77d5af96e478c6eb3d8fbcc5fb0e98e8", "rental_uris": {"ios": "https://dc.lft.to/lastmile_qr_scan", "android": "https://dc.lft.to/lastmile_qr_scan"}, "fusion_lon": 0.0, "lon": -76.9892635, "name": "77d5af96e478c6eb3d8fbcc5fb0e98e8", "is_reserved": 0, "is_disabled": 0}, {"lat": 38.9170145, "fusion_lat": 0.0, "type": "electric_scooter", "bike_id": "9ad435a5d711aba2e9a99b1761502a09", "rental_uris": {"ios": "https://dc.lft.to/lastmile_qr_scan", "android": "https://dc.lft.to/lastmile_qr_scan"}, "fusion_lon": 0.0, "lon": -77.0242785, "name": "9ad435a5d711aba2e9a99b1761502a09", "is_reserved": 0, "is_disabled": 0}, {"lat": 38.892294666666665, "fusion_lat": 0.0, "type": "electric_scooter", "bike_id": "9eccc1e1e183cdf4e4806e67216df842", "rental_uris": {"ios": "https://dc.lft.to/lastmile_qr_scan", "android": "https://dc.lft.to/lastmile_qr_scan"}, "fusion_lon": 0.0, "lon": -77.0220355, "name": "9eccc1e1e183cdf4e4806e67216df842", "is_reserved": 0, "is_disabled": 0}, {"lat": 38.908453333333334, "fusion_lat": 0.0, "type": "electric_scooter", "bike_id": "c7029b6165979dcb4573adb17a308c9b", "rental_uris": {"ios": "https://dc.lft.to/lastmile_qr_scan", "android": "https://dc.lft.to/lastmile_qr_scan"}, "fusion_lon": 0.0, "lon": -77.0402175, "name": "c7029b6165979dcb4573adb17a308c9b", "is_reserved": 0, "is_disabled": 0}, {"lat": 38.891976666666665, "fusion_lat": 0.0, "type": "electric_scooter", "bike_id": "92f4c022668ef288bb806b96767a7f03", "rental_uris": {"ios": "https://dc.lft.to/lastmile_qr_scan", "android": "https://dc.lft.to/lastmile_qr_scan"}, "fusion_lon": 0.0, "lon": -76.99851383333333, "name": "92f4c022668ef288bb806b96767a7f03", "is_reserved": 0, "is_disabled": 0}, {"lat": 38.9488915, "fusion_lat": 0.0, "type": "electric_scooter", "bike_id": "2e968651c3445e196fb2fef6cf999bb9", "rental_uris": {"ios": "https://dc.lft.to/lastmile_qr_scan", "android": "https://dc.lft.to/lastmile_qr_scan"}, "fusion_lon": 0.0, "lon": -77.018511, "name": "2e968651c3445e196fb2fef6cf999bb9", "is_reserved": 0, "is_disabled": 0}, {"lat": 38.902684666666666, "fusion_lat": 0.0, "type": "electric_scooter", "bike_id": "2ae43ecf89bb9d2817e9722e8b36701a", "rental_uris": {"ios": "https://dc.lft.to/lastmile_qr_scan", "android": "https://dc.lft.to/lastmile_qr_scan"}, "fusion_lon": 0.0, "lon": -77.03867233333334, "name": "2ae43ecf89bb9d2817e9722e8b36701a", "is_reserved": 0, "is_disabled": 0}, {"lat": 38.903820333333336, "fusion_lat": 0.0, "type": "electric_scooter", "bike_id": "f1f20059f59768a07d9ba9a3fbc8d0d8", "rental_uris": {"ios": "https://dc.lft.to/lastmile_qr_scan", "android": "https://dc.lft.to/lastmile_qr_scan"}, "fusion_lon": 0.0, "lon": -77.03442533333333, "name": "f1f20059f59768a07d9ba9a3fbc8d0d8", "is_reserved": 0, "is_disabled": 0}, {"lat": 38.893600666666664, "fusion_lat": 0.0, "type": "electric_scooter", "bike_id": "19a05f3ff608a8fb77bb71c1b0b8bc65", "rental_uris": {"ios": "https://dc.lft.to/lastmile_qr_scan", "android": "https://dc.lft.to/lastmile_qr_scan"}, "fusion_lon": 0.0, "lon": -77.00331866666667, "name": "19a05f3ff608a8fb77bb71c1b0b8bc65", "is_reserved": 0, "is_disabled": 0}, {"lat": 38.875458333333334, "fusion_lat": 0.0, "type": "electric_scooter", "bike_id": "27fb171fe72bbef71d232a1488735ba7", "rental_uris": {"ios": "https://dc.lft.to/lastmile_qr_scan", "android": "https://dc.lft.to/lastmile_qr_scan"}, "fusion_lon": 0.0, "lon": -77.00533466666667, "name": "27fb171fe72bbef71d232a1488735ba7", "is_reserved": 0, "is_disabled": 0}, {"lat": 38.907783, "fusion_lat": 0.0, "type": "electric_scooter", "bike_id": "0ec05e8df2041db0ffb87a3e8d0ad308", "rental_uris": {"ios": "https://dc.lft.to/lastmile_qr_scan", "android": "https://dc.lft.to/lastmile_qr_scan"}, "fusion_lon": 0.0, "lon": -77.03757566666667, "name": "0ec05e8df2041db0ffb87a3e8d0ad308", "is_reserved": 0, "is_disabled": 0}, {"lat": 38.94339466666667, "fusion_lat": 0.0, "type": "electric_scooter", "bike_id": "aa3a77a7bd0350071d49b86f51afda7c", "rental_uris": {"ios": "https://dc.lft.to/lastmile_qr_scan", "android": "https://dc.lft.to/lastmile_qr_scan"}, "fusion_lon": 0.0, "lon": -76.9831155, "name": "aa3a77a7bd0350071d49b86f51afda7c", "is_reserved": 0, "is_disabled": 0}, {"lat": 38.908076333333334, "fusion_lat": 0.0, "type": "electric_scooter", "bike_id": "4490dc9137a77d0a1e844354830414b8", "rental_uris": {"ios": "https://dc.lft.to/lastmile_qr_scan", "android": "https://dc.lft.to/lastmile_qr_scan"}, "fusion_lon": 0.0, "lon": -77.03443516666667, "name": "4490dc9137a77d0a1e844354830414b8", "is_reserved": 0, "is_disabled": 0}, {"lat": 38.92356766666666, "fusion_lat": 0.0, "type": "electric_scooter", "bike_id": "daa6cde59cc58e0e5242c21d97e52b5a", "rental_uris": {"ios": "https://dc.lft.to/lastmile_qr_scan", "android": "https://dc.lft.to/lastmile_qr_scan"}, "fusion_lon": 0.0, "lon": -76.99946583333333, "name": "daa6cde59cc58e0e5242c21d97e52b5a", "is_reserved": 0, "is_disabled": 0}, {"lat": 38.923469, "fusion_lat": 0.0, "type": "electric_scooter", "bike_id": "7e92c44ca93bf7830c322674a9e35dda", "rental_uris": {"ios": "https://dc.lft.to/lastmile_qr_scan", "android": "https://dc.lft.to/lastmile_qr_scan"}, "fusion_lon": 0.0, "lon": -77.0517615, "name": "7e92c44ca93bf7830c322674a9e35dda", "is_reserved": 0, "is_disabled": 0}, {"lat": 38.96610416666667, "fusion_lat": 0.0, "type": "electric_scooter", "bike_id": "dd225d7ca63c56119ceea2669670708f", "rental_uris": {"ios": "https://dc.lft.to/lastmile_qr_scan", "android": "https://dc.lft.to/lastmile_qr_scan"}, "fusion_lon": 0.0, "lon": -77.02742633333334, "name": "dd225d7ca63c56119ceea2669670708f", "is_reserved": 0, "is_disabled": 0}, {"lat": 38.867573166666666, "fusion_lat": 0.0, "type": "electric_bike", "bike_id": "12c4510b8a08f04f40d7562d90c99275", "rental_uris": {"ios": "https://dc.lft.to/lastmile_qr_scan", "android": "https://dc.lft.to/lastmile_qr_scan"}, "fusion_lon": 0.0, "lon": -76.945274, "name": "12c4510b8a08f04f40d7562d90c99275", "is_reserved": 0, "is_disabled": 0}, {"lat": 38.92235133333333, "fusion_lat": 0.0, "type": "electric_scooter", "bike_id": "153595eb645525a0ac8cf370a35978a3", "rental_uris": {"ios": "https://dc.lft.to/lastmile_qr_scan", "android": "https://dc.lft.to/lastmile_qr_scan"}, "fusion_lon": 0.0, "lon": -77.05266666666667, "name": "153595eb645525a0ac8cf370a35978a3", "is_reserved": 0, "is_disabled": 0}, {"lat": 38.906469666666666, "fusion_lat": 0.0, "type": "electric_scooter", "bike_id": "cb488a9bca19eee6bd21d7a357eacd1c", "rental_uris": {"ios": "https://dc.lft.to/lastmile_qr_scan", "android": "https://dc.lft.to/lastmile_qr_scan"}, "fusion_lon": 0.0, "lon": -77.01432833333334, "name": "cb488a9bca19eee6bd21d7a357eacd1c", "is_reserved": 0, "is_disabled": 0}, {"lat": 38.96051033333333, "fusion_lat": 0.0, "type": "electric_bike", "bike_id": "d121540dcd7d97a9ae4a420bfba1b235", "rental_uris": {"ios": "https://dc.lft.to/lastmile_qr_scan", "android": "https://dc.lft.to/lastmile_qr_scan"}, "fusion_lon": 0.0, "lon": -76.93994316666667, "name": "d121540dcd7d97a9ae4a420bfba1b235", "is_reserved": 0, "is_disabled": 0}, {"lat": 38.895610833333336, "fusion_lat": 0.0, "type": "electric_scooter", "bike_id": "4029b36eb0d4bca08d6d048d9334e451", "rental_uris": {"ios": "https://dc.lft.to/lastmile_qr_scan", "android": "https://dc.lft.to/lastmile_qr_scan"}, "fusion_lon": 0.0, "lon": -77.04672483333333, "name": "4029b36eb0d4bca08d6d048d9334e451", "is_reserved": 0, "is_disabled": 0}, {"lat": 38.91125783333333, "fusion_lat": 0.0, "type": "electric_scooter", "bike_id": "02de9b41d39a8017f9c90ad3291fd634", "rental_uris": {"ios": "https://dc.lft.to/lastmile_qr_scan", "android": "https://dc.lft.to/lastmile_qr_scan"}, "fusion_lon": 0.0, "lon": -77.031826, "name": "02de9b41d39a8017f9c90ad3291fd634", "is_reserved": 0, "is_disabled": 0}, {"lat": 38.9095295, "fusion_lat": 0.0, "type": "electric_scooter", "bike_id": "5f0a4c0bdf08616c7713b47232ae4001", "rental_uris": {"ios": "https://dc.lft.to/lastmile_qr_scan", "android": "https://dc.lft.to/lastmile_qr_scan"}, "fusion_lon": 0.0, "lon": -77.02684816666667, "name": "5f0a4c0bdf08616c7713b47232ae4001", "is_reserved": 0, "is_disabled": 0}, {"lat": 38.9038015, "fusion_lat": 0.0, "type": "electric_scooter", "bike_id": "e454c679381ecf24f5d9b95cc1a4759b", "rental_uris": {"ios": "https://dc.lft.to/lastmile_qr_scan", "android": "https://dc.lft.to/lastmile_qr_scan"}, "fusion_lon": 0.0, "lon": -77.03639966666667, "name": "e454c679381ecf24f5d9b95cc1a4759b", "is_reserved": 0, "is_disabled": 0}, {"lat": 38.91735366666666, "fusion_lat": 0.0, "type": "electric_scooter", "bike_id": "f09bf6cec15f57091395e3083c84eb70", "rental_uris": {"ios": "https://dc.lft.to/lastmile_qr_scan", "android": "https://dc.lft.to/lastmile_qr_scan"}, "fusion_lon": 0.0, "lon": -77.03612616666666, "name": "f09bf6cec15f57091395e3083c84eb70", "is_reserved": 0, "is_disabled": 0}, {"lat": 38.91860716666667, "fusion_lat": 0.0, "type": "electric_scooter", "bike_id": "897e9d70b812c7a9e5ce6a4fc18357c1", "rental_uris": {"ios": "https://dc.lft.to/lastmile_qr_scan", "android": "https://dc.lft.to/lastmile_qr_scan"}, "fusion_lon": 0.0, "lon": -77.0445715, "name": "897e9d70b812c7a9e5ce6a4fc18357c1", "is_reserved": 0, "is_disabled": 0}, {"lat": 38.9128205, "fusion_lat": 0.0, "type": "electric_scooter", "bike_id": "6d24df09d5b729936eb0d7dedadc89ec", "rental_uris": {"ios": "https://dc.lft.to/lastmile_qr_scan", "android": "https://dc.lft.to/lastmile_qr_scan"}, "fusion_lon": 0.0, "lon": -77.045067, "name": "6d24df09d5b729936eb0d7dedadc89ec", "is_reserved": 0, "is_disabled": 0}, {"lat": 38.899306, "fusion_lat": 0.0, "type": "electric_scooter", "bike_id": "75cb45bf649a466257b26802f052db8e", "rental_uris": {"ios": "https://dc.lft.to/lastmile_qr_scan", "android": "https://dc.lft.to/lastmile_qr_scan"}, "fusion_lon": 0.0, "lon": -77.05, "name": "75cb45bf649a466257b26802f052db8e", "is_reserved": 0, "is_disabled": 0}, {"lat": 38.8982045, "fusion_lat": 0.0, "type": "electric_scooter", "bike_id": "6f4c18092a1ffbf7a28e398bb059a394", "rental_uris": {"ios": "https://dc.lft.to/lastmile_qr_scan", "android": "https://dc.lft.to/lastmile_qr_scan"}, "fusion_lon": 0.0, "lon": -77.01520266666667, "name": "6f4c18092a1ffbf7a28e398bb059a394", "is_reserved": 0, "is_disabled": 0}, {"lat": 38.88715033333333, "fusion_lat": 0.0, "type": "electric_scooter", "bike_id": "543b2fcfc80e6f7c8fa70b1e4986a70a", "rental_uris": {"ios": "https://dc.lft.to/lastmile_qr_scan", "android": "https://dc.lft.to/lastmile_qr_scan"}, "fusion_lon": 0.0, "lon": -77.02837516666666, "name": "543b2fcfc80e6f7c8fa70b1e4986a70a", "is_reserved": 0, "is_disabled": 0}, {"lat": 38.88637966666667, "fusion_lat": 0.0, "type": "electric_scooter", "bike_id": "b127b64ee7b1f4053c80db02f2f038a6", "rental_uris": {"ios": "https://dc.lft.to/lastmile_qr_scan", "android": "https://dc.lft.to/lastmile_qr_scan"}, "fusion_lon": 0.0, "lon": -76.92579466666666, "name": "b127b64ee7b1f4053c80db02f2f038a6", "is_reserved": 0, "is_disabled": 0}, {"lat": 38.913712333333336, "fusion_lat": 0.0, "type": "electric_scooter", "bike_id": "8e8240b81db91eb125622dfb0ab33e0f", "rental_uris": {"ios": "https://dc.lft.to/lastmile_qr_scan", "android": "https://dc.lft.to/lastmile_qr_scan"}, "fusion_lon": 0.0, "lon": -77.07018066666667, "name": "8e8240b81db91eb125622dfb0ab33e0f", "is_reserved": 0, "is_disabled": 0}, {"lat": 38.878669333333335, "fusion_lat": 0.0, "type": "electric_scooter", "bike_id": "5456204361792aa90789424e259d7f7d", "rental_uris": {"ios": "https://dc.lft.to/lastmile_qr_scan", "android": "https://dc.lft.to/lastmile_qr_scan"}, "fusion_lon": 0.0, "lon": -76.96258866666666, "name": "5456204361792aa90789424e259d7f7d", "is_reserved": 0, "is_disabled": 0}, {"lat": 38.9425595, "fusion_lat": 0.0, "type": "electric_scooter", "bike_id": "5f78291132a568f7e870a807e100fa33", "rental_uris": {"ios": "https://dc.lft.to/lastmile_qr_scan", "android": "https://dc.lft.to/lastmile_qr_scan"}, "fusion_lon": 0.0, "lon": -77.03628583333334, "name": "5f78291132a568f7e870a807e100fa33", "is_reserved": 0, "is_disabled": 0}, {"lat": 38.9171045, "fusion_lat": 0.0, "type": "electric_scooter", "bike_id": "121702b24e93cc33d030f8cb10248233", "rental_uris": {"ios": "https://dc.lft.to/lastmile_qr_scan", "android": "https://dc.lft.to/lastmile_qr_scan"}, "fusion_lon": 0.0, "lon": -77.0407245, "name": "121702b24e93cc33d030f8cb10248233", "is_reserved": 0, "is_disabled": 0}, {"lat": 38.92298133333333, "fusion_lat": 0.0, "type": "electric_scooter", "bike_id": "aedb6a69eb2e6bf367458d3346bd5fff", "rental_uris": {"ios": "https://dc.lft.to/lastmile_qr_scan", "android": "https://dc.lft.to/lastmile_qr_scan"}, "fusion_lon": 0.0, "lon": -77.04267033333333, "name": "aedb6a69eb2e6bf367458d3346bd5fff", "is_reserved": 0, "is_disabled": 0}, {"lat": 38.8987495, "fusion_lat": 0.0, "type": "electric_scooter", "bike_id": "fd42a4080b3da43c7f904fe812256268", "rental_uris": {"ios": "https://dc.lft.to/lastmile_qr_scan", "android": "https://dc.lft.to/lastmile_qr_scan"}, "fusion_lon": 0.0, "lon": -77.05003833333333, "name": "fd42a4080b3da43c7f904fe812256268", "is_reserved": 0, "is_disabled": 0}, {"lat": 38.89184, "fusion_lat": 0.0, "type": "electric_scooter", "bike_id": "7030e51d1a8f3128e747282539db1f35", "rental_uris": {"ios": "https://dc.lft.to/lastmile_qr_scan", "android": "https://dc.lft.to/lastmile_qr_scan"}, "fusion_lon": 0.0, "lon": -77.01595516666667, "name": "7030e51d1a8f3128e747282539db1f35", "is_reserved": 0, "is_disabled": 0}, {"lat": 38.86968383333333, "fusion_lat": 0.0, "type": "electric_scooter", "bike_id": "616b99ab31550c9030c4e93dfa019aab", "rental_uris": {"ios": "https://dc.lft.to/lastmile_qr_scan", "android": "https://dc.lft.to/lastmile_qr_scan"}, "fusion_lon": 0.0, "lon": -76.9785085, "name": "616b99ab31550c9030c4e93dfa019aab", "is_reserved": 0, "is_disabled": 0}, {"lat": 38.894972, "fusion_lat": 0.0, "type": "electric_scooter", "bike_id": "4f87769a2fe377d444811e85c1169509", "rental_uris": {"ios": "https://dc.lft.to/lastmile_qr_scan", "android": "https://dc.lft.to/lastmile_qr_scan"}, "fusion_lon": 0.0, "lon": -77.00357, "name": "4f87769a2fe377d444811e85c1169509", "is_reserved": 0, "is_disabled": 0}, {"lat": 38.8737635, "fusion_lat": 0.0, "type": "electric_scooter", "bike_id": "6f6bae543cbd3ae2b17ef691f8f9812a", "rental_uris": {"ios": "https://dc.lft.to/lastmile_qr_scan", "android": "https://dc.lft.to/lastmile_qr_scan"}, "fusion_lon": 0.0, "lon": -77.00090816666666, "name": "6f6bae543cbd3ae2b17ef691f8f9812a", "is_reserved": 0, "is_disabled": 0}, {"lat": 38.89245316666667, "fusion_lat": 0.0, "type": "electric_scooter", "bike_id": "61f1415d55b95d8d7c411d759d383aa1", "rental_uris": {"ios": "https://dc.lft.to/lastmile_qr_scan", "android": "https://dc.lft.to/lastmile_qr_scan"}, "fusion_lon": 0.0, "lon": -77.04871766666666, "name": "61f1415d55b95d8d7c411d759d383aa1", "is_reserved": 0, "is_disabled": 0}, {"lat": 38.872695, "fusion_lat": 0.0, "type": "electric_scooter", "bike_id": "909cba4d8268e6e90e7ae593f0ec7043", "rental_uris": {"ios": "https://dc.lft.to/lastmile_qr_scan", "android": "https://dc.lft.to/lastmile_qr_scan"}, "fusion_lon": 0.0, "lon": -77.013573, "name": "909cba4d8268e6e90e7ae593f0ec7043", "is_reserved": 0, "is_disabled": 0}, {"lat": 38.919678, "fusion_lat": 0.0, "type": "electric_scooter", "bike_id": "d35eaa00b3a2af3421ebd6d9247fa890", "rental_uris": {"ios": "https://dc.lft.to/lastmile_qr_scan", "android": "https://dc.lft.to/lastmile_qr_scan"}, "fusion_lon": 0.0, "lon": -77.03851633333333, "name": "d35eaa00b3a2af3421ebd6d9247fa890", "is_reserved": 0, "is_disabled": 0}, {"lat": 38.897383, "fusion_lat": 0.0, "type": "electric_scooter", "bike_id": "fbceb550ee878ed04d8a1690daede4ea", "rental_uris": {"ios": "https://dc.lft.to/lastmile_qr_scan", "android": "https://dc.lft.to/lastmile_qr_scan"}, "fusion_lon": 0.0, "lon": -77.0461345, "name": "fbceb550ee878ed04d8a1690daede4ea", "is_reserved": 0, "is_disabled": 0}, {"lat": 38.893658333333335, "fusion_lat": 0.0, "type": "electric_scooter", "bike_id": "18f182978e5c903f3a79b850ff01968d", "rental_uris": {"ios": "https://dc.lft.to/lastmile_qr_scan", "android": "https://dc.lft.to/lastmile_qr_scan"}, "fusion_lon": 0.0, "lon": -77.02606383333334, "name": "18f182978e5c903f3a79b850ff01968d", "is_reserved": 0, "is_disabled": 0}, {"lat": 38.90149816666667, "fusion_lat": 0.0, "type": "electric_scooter", "bike_id": "7cf4483ffb6a3a945af80434d820b105", "rental_uris": {"ios": "https://dc.lft.to/lastmile_qr_scan", "android": "https://dc.lft.to/lastmile_qr_scan"}, "fusion_lon": 0.0, "lon": -76.97424283333334, "name": "7cf4483ffb6a3a945af80434d820b105", "is_reserved": 0, "is_disabled": 0}, {"lat": 38.907549833333334, "fusion_lat": 0.0, "type": "electric_scooter", "bike_id": "f9354c9b76c79b1c357d9c1eb743501c", "rental_uris": {"ios": "https://dc.lft.to/lastmile_qr_scan", "android": "https://dc.lft.to/lastmile_qr_scan"}, "fusion_lon": 0.0, "lon": -77.03581016666666, "name": "f9354c9b76c79b1c357d9c1eb743501c", "is_reserved": 0, "is_disabled": 0}, {"lat": 38.91988883333333, "fusion_lat": 0.0, "type": "electric_scooter", "bike_id": "db416ebcb595a342b4d96703a744ff5d", "rental_uris": {"ios": "https://dc.lft.to/lastmile_qr_scan", "android": "https://dc.lft.to/lastmile_qr_scan"}, "fusion_lon": 0.0, "lon": -76.97304566666666, "name": "db416ebcb595a342b4d96703a744ff5d", "is_reserved": 0, "is_disabled": 0}, {"lat": 38.9141665, "fusion_lat": 0.0, "type": "electric_scooter", "bike_id": "c3269a083a44694534c0507956c88afe", "rental_uris": {"ios": "https://dc.lft.to/lastmile_qr_scan", "android": "https://dc.lft.to/lastmile_qr_scan"}, "fusion_lon": 0.0, "lon": -77.02097216666667, "name": "c3269a083a44694534c0507956c88afe", "is_reserved": 0, "is_disabled": 0}, {"lat": 38.9081985, "fusion_lat": 0.0, "type": "electric_scooter", "bike_id": "03d4493033c7af382d51d1cb6c0654aa", "rental_uris": {"ios": "https://dc.lft.to/lastmile_qr_scan", "android": "https://dc.lft.to/lastmile_qr_scan"}, "fusion_lon": 0.0, "lon": -77.042149, "name": "03d4493033c7af382d51d1cb6c0654aa", "is_reserved": 0, "is_disabled": 0}, {"lat": 38.887677333333336, "fusion_lat": 0.0, "type": "electric_scooter", "bike_id": "297c711e80097278ecb6f012a4f0ccea", "rental_uris": {"ios": "https://dc.lft.to/lastmile_qr_scan", "android": "https://dc.lft.to/lastmile_qr_scan"}, "fusion_lon": 0.0, "lon": -76.98293566666666, "name": "297c711e80097278ecb6f012a4f0ccea", "is_reserved": 0, "is_disabled": 0}, {"lat": 38.906133, "fusion_lat": 0.0, "type": "electric_scooter", "bike_id": "09d012e2986ccc0f0812be1dedf842ff", "rental_uris": {"ios": "https://dc.lft.to/lastmile_qr_scan", "android": "https://dc.lft.to/lastmile_qr_scan"}, "fusion_lon": 0.0, "lon": -77.03150933333333, "name": "09d012e2986ccc0f0812be1dedf842ff", "is_reserved": 0, "is_disabled": 0}, {"lat": 38.9321285, "fusion_lat": 0.0, "type": "electric_scooter", "bike_id": "3e4ec38a4c76799e6474cc51fb3e22be", "rental_uris": {"ios": "https://dc.lft.to/lastmile_qr_scan", "android": "https://dc.lft.to/lastmile_qr_scan"}, "fusion_lon": 0.0, "lon": -77.03514716666666, "name": "3e4ec38a4c76799e6474cc51fb3e22be", "is_reserved": 0, "is_disabled": 0}, {"lat": 38.915983833333335, "fusion_lat": 0.0, "type": "electric_scooter", "bike_id": "b5393f67cb40e9c7834ed236e7f8a3b4", "rental_uris": {"ios": "https://dc.lft.to/lastmile_qr_scan", "android": "https://dc.lft.to/lastmile_qr_scan"}, "fusion_lon": 0.0, "lon": -77.01476166666667, "name": "b5393f67cb40e9c7834ed236e7f8a3b4", "is_reserved": 0, "is_disabled": 0}, {"lat": 38.89744366666667, "fusion_lat": 0.0, "type": "electric_scooter", "bike_id": "38e80be550f99e347e5baba3c132a0c5", "rental_uris": {"ios": "https://dc.lft.to/lastmile_qr_scan", "android": "https://dc.lft.to/lastmile_qr_scan"}, "fusion_lon": 0.0, "lon": -77.01272116666667, "name": "38e80be550f99e347e5baba3c132a0c5", "is_reserved": 0, "is_disabled": 0}, {"lat": 38.904924, "fusion_lat": 0.0, "type": "electric_scooter", "bike_id": "6aefbc800227762e82cf5ca09252b2ec", "rental_uris": {"ios": "https://dc.lft.to/lastmile_qr_scan", "android": "https://dc.lft.to/lastmile_qr_scan"}, "fusion_lon": 0.0, "lon": -77.02807033333333, "name": "6aefbc800227762e82cf5ca09252b2ec", "is_reserved": 0, "is_disabled": 0}, {"lat": 38.8979965, "fusion_lat": 0.0, "type": "electric_scooter", "bike_id": "88617cb308cb819a06479a057c5c69c3", "rental_uris": {"ios": "https://dc.lft.to/lastmile_qr_scan", "android": "https://dc.lft.to/lastmile_qr_scan"}, "fusion_lon": 0.0, "lon": -77.041782, "name": "88617cb308cb819a06479a057c5c69c3", "is_reserved": 0, "is_disabled": 0}, {"lat": 38.892239000000004, "fusion_lat": 0.0, "type": "electric_scooter", "bike_id": "24b34d5d3d57e47a46daaa755b402417", "rental_uris": {"ios": "https://dc.lft.to/lastmile_qr_scan", "android": "https://dc.lft.to/lastmile_qr_scan"}, "fusion_lon": 0.0, "lon": -77.0262495, "name": "24b34d5d3d57e47a46daaa755b402417", "is_reserved": 0, "is_disabled": 0}, {"lat": 38.925011, "fusion_lat": 0.0, "type": "electric_scooter", "bike_id": "602d0e56e4f4962251f9a18a13990318", "rental_uris": {"ios": "https://dc.lft.to/lastmile_qr_scan", "android": "https://dc.lft.to/lastmile_qr_scan"}, "fusion_lon": 0.0, "lon": -77.02404966666667, "name": "602d0e56e4f4962251f9a18a13990318", "is_reserved": 0, "is_disabled": 0}, {"lat": 38.92031133333333, "fusion_lat": 0.0, "type": "electric_scooter", "bike_id": "1d89d6cc17fecacb755af01a3f2e93fd", "rental_uris": {"ios": "https://dc.lft.to/lastmile_qr_scan", "android": "https://dc.lft.to/lastmile_qr_scan"}, "fusion_lon": 0.0, "lon": -77.07151133333333, "name": "1d89d6cc17fecacb755af01a3f2e93fd", "is_reserved": 0, "is_disabled": 0}, {"lat": 38.922535333333336, "fusion_lat": 0.0, "type": "electric_scooter", "bike_id": "373194e746c35e9fbc0ba69b5963eb97", "rental_uris": {"ios": "https://dc.lft.to/lastmile_qr_scan", "android": "https://dc.lft.to/lastmile_qr_scan"}, "fusion_lon": 0.0, "lon": -77.01909716666667, "name": "373194e746c35e9fbc0ba69b5963eb97", "is_reserved": 0, "is_disabled": 0}, {"lat": 38.919663, "fusion_lat": 0.0, "type": "electric_scooter", "bike_id": "53977ca13069a2aad8448f74e5b22e6f", "rental_uris": {"ios": "https://dc.lft.to/lastmile_qr_scan", "android": "https://dc.lft.to/lastmile_qr_scan"}, "fusion_lon": 0.0, "lon": -77.01796933333334, "name": "53977ca13069a2aad8448f74e5b22e6f", "is_reserved": 0, "is_disabled": 0}, {"lat": 38.90516516666667, "fusion_lat": 0.0, "type": "electric_scooter", "bike_id": "21d8fc4129d6698d160de162861f5c15", "rental_uris": {"ios": "https://dc.lft.to/lastmile_qr_scan", "android": "https://dc.lft.to/lastmile_qr_scan"}, "fusion_lon": 0.0, "lon": -77.04173383333334, "name": "21d8fc4129d6698d160de162861f5c15", "is_reserved": 0, "is_disabled": 0}, {"lat": 38.896094, "fusion_lat": 0.0, "type": "electric_scooter", "bike_id": "8a37e8b6f34be16a96f5d6d594ed840a", "rental_uris": {"ios": "https://dc.lft.to/lastmile_qr_scan", "android": "https://dc.lft.to/lastmile_qr_scan"}, "fusion_lon": 0.0, "lon": -77.00212716666667, "name": "8a37e8b6f34be16a96f5d6d594ed840a", "is_reserved": 0, "is_disabled": 0}, {"lat": 38.87226716666667, "fusion_lat": 0.0, "type": "electric_scooter", "bike_id": "2305f48798fac66deb3fcc01b3224f81", "rental_uris": {"ios": "https://dc.lft.to/lastmile_qr_scan", "android": "https://dc.lft.to/lastmile_qr_scan"}, "fusion_lon": 0.0, "lon": -77.01217716666666, "name": "2305f48798fac66deb3fcc01b3224f81", "is_reserved": 0, "is_disabled": 0}, {"lat": 38.903938333333336, "fusion_lat": 0.0, "type": "electric_scooter", "bike_id": "690023d689bfe44f02aeeed51484fc1e", "rental_uris": {"ios": "https://dc.lft.to/lastmile_qr_scan", "android": "https://dc.lft.to/lastmile_qr_scan"}, "fusion_lon": 0.0, "lon": -77.06800416666667, "name": "690023d689bfe44f02aeeed51484fc1e", "is_reserved": 0, "is_disabled": 0}, {"lat": 38.877017, "fusion_lat": 0.0, "type": "electric_scooter", "bike_id": "65a1c95a37a21a3d67254e3c827f5f56", "rental_uris": {"ios": "https://dc.lft.to/lastmile_qr_scan", "android": "https://dc.lft.to/lastmile_qr_scan"}, "fusion_lon": 0.0, "lon": -76.99682333333334, "name": "65a1c95a37a21a3d67254e3c827f5f56", "is_reserved": 0, "is_disabled": 0}, {"lat": 38.908624333333336, "fusion_lat": 0.0, "type": "electric_scooter", "bike_id": "b5519067cf8640415f36e56ca1508568", "rental_uris": {"ios": "https://dc.lft.to/lastmile_qr_scan", "android": "https://dc.lft.to/lastmile_qr_scan"}, "fusion_lon": 0.0, "lon": -77.064002, "name": "b5519067cf8640415f36e56ca1508568", "is_reserved": 0, "is_disabled": 0}, {"lat": 38.9508725, "fusion_lat": 0.0, "type": "electric_scooter", "bike_id": "5e1e76956d03c1666c6ab78260647727", "rental_uris": {"ios": "https://dc.lft.to/lastmile_qr_scan", "android": "https://dc.lft.to/lastmile_qr_scan"}, "fusion_lon": 0.0, "lon": -77.03158516666667, "name": "5e1e76956d03c1666c6ab78260647727", "is_reserved": 0, "is_disabled": 0}, {"lat": 38.887663333333336, "fusion_lat": 0.0, "type": "electric_scooter", "bike_id": "281c83a2d4849ac25deae25bab15d4aa", "rental_uris": {"ios": "https://dc.lft.to/lastmile_qr_scan", "android": "https://dc.lft.to/lastmile_qr_scan"}, "fusion_lon": 0.0, "lon": -77.02235166666667, "name": "281c83a2d4849ac25deae25bab15d4aa", "is_reserved": 0, "is_disabled": 0}, {"lat": 38.9201605, "fusion_lat": 0.0, "type": "electric_scooter", "bike_id": "d04f78a3927c214af573ae0c8c4e0257", "rental_uris": {"ios": "https://dc.lft.to/lastmile_qr_scan", "android": "https://dc.lft.to/lastmile_qr_scan"}, "fusion_lon": 0.0, "lon": -77.02185016666667, "name": "d04f78a3927c214af573ae0c8c4e0257", "is_reserved": 0, "is_disabled": 0}, {"lat": 38.91929583333334, "fusion_lat": 0.0, "type": "electric_scooter", "bike_id": "04a4b6ecb6b079c0cf9056a97a903489", "rental_uris": {"ios": "https://dc.lft.to/lastmile_qr_scan", "android": "https://dc.lft.to/lastmile_qr_scan"}, "fusion_lon": 0.0, "lon": -77.0341985, "name": "04a4b6ecb6b079c0cf9056a97a903489", "is_reserved": 0, "is_disabled": 0}, {"lat": 38.89043316666667, "fusion_lat": 0.0, "type": "electric_scooter", "bike_id": "bcfc5f596ad675c9be07c5daa13993d0", "rental_uris": {"ios": "https://dc.lft.to/lastmile_qr_scan", "android": "https://dc.lft.to/lastmile_qr_scan"}, "fusion_lon": 0.0, "lon": -76.93751183333333, "name": "bcfc5f596ad675c9be07c5daa13993d0", "is_reserved": 0, "is_disabled": 0}, {"lat": 38.936067333333334, "fusion_lat": 0.0, "type": "electric_scooter", "bike_id": "1472c28be24c3b212a48bb8c5387cccf", "rental_uris": {"ios": "https://dc.lft.to/lastmile_qr_scan", "android": "https://dc.lft.to/lastmile_qr_scan"}, "fusion_lon": 0.0, "lon": -77.03181116666667, "name": "1472c28be24c3b212a48bb8c5387cccf", "is_reserved": 0, "is_disabled": 0}, {"lat": 38.924929166666665, "fusion_lat": 0.0, "type": "electric_bike", "bike_id": "9c633af371d974a2b3bb178bf77d5fa0", "rental_uris": {"ios": "https://dc.lft.to/lastmile_qr_scan", "android": "https://dc.lft.to/lastmile_qr_scan"}, "fusion_lon": 0.0, "lon": -77.23361116666666, "name": "9c633af371d974a2b3bb178bf77d5fa0", "is_reserved": 0, "is_disabled": 0}, {"lat": 38.927682, "fusion_lat": 0.0, "type": "electric_scooter", "bike_id": "0d9af16ad72b479f3090754ceafabcee", "rental_uris": {"ios": "https://dc.lft.to/lastmile_qr_scan", "android": "https://dc.lft.to/lastmile_qr_scan"}, "fusion_lon": 0.0, "lon": -76.9734835, "name": "0d9af16ad72b479f3090754ceafabcee", "is_reserved": 0, "is_disabled": 0}, {"lat": 38.90667233333333, "fusion_lat": 0.0, "type": "electric_scooter", "bike_id": "dfdb08f462d21a41a1d4730800a68cf7", "rental_uris": {"ios": "https://dc.lft.to/lastmile_qr_scan", "android": "https://dc.lft.to/lastmile_qr_scan"}, "fusion_lon": 0.0, "lon": -77.02699383333334, "name": "dfdb08f462d21a41a1d4730800a68cf7", "is_reserved": 0, "is_disabled": 0}, {"lat": 38.898646166666666, "fusion_lat": 0.0, "type": "electric_scooter", "bike_id": "a21c7b893534fbd23f93bcc41a849936", "rental_uris": {"ios": "https://dc.lft.to/lastmile_qr_scan", "android": "https://dc.lft.to/lastmile_qr_scan"}, "fusion_lon": 0.0, "lon": -77.03921333333334, "name": "a21c7b893534fbd23f93bcc41a849936", "is_reserved": 0, "is_disabled": 0}, {"lat": 38.8922425, "fusion_lat": 0.0, "type": "electric_scooter", "bike_id": "ab05fd66fbe651cc72afce5c25236867", "rental_uris": {"ios": "https://dc.lft.to/lastmile_qr_scan", "android": "https://dc.lft.to/lastmile_qr_scan"}, "fusion_lon": 0.0, "lon": -77.043628, "name": "ab05fd66fbe651cc72afce5c25236867", "is_reserved": 0, "is_disabled": 0}, {"lat": 38.94564333333334, "fusion_lat": 0.0, "type": "electric_scooter", "bike_id": "7a871e9e2605c846b577fb2b597c0ea2", "rental_uris": {"ios": "https://dc.lft.to/lastmile_qr_scan", "android": "https://dc.lft.to/lastmile_qr_scan"}, "fusion_lon": 0.0, "lon": -77.0795495, "name": "7a871e9e2605c846b577fb2b597c0ea2", "is_reserved": 0, "is_disabled": 0}, {"lat": 38.910285333333334, "fusion_lat": 0.0, "type": "electric_scooter", "bike_id": "1e2ec0f845de94793d45d41ac3dca9fb", "rental_uris": {"ios": "https://dc.lft.to/lastmile_qr_scan", "android": "https://dc.lft.to/lastmile_qr_scan"}, "fusion_lon": 0.0, "lon": -77.04251083333334, "name": "1e2ec0f845de94793d45d41ac3dca9fb", "is_reserved": 0, "is_disabled": 0}, {"lat": 38.878179, "fusion_lat": 0.0, "type": "electric_scooter", "bike_id": "9590d9daf4390f6cc35d4b1256443c3d", "rental_uris": {"ios": "https://dc.lft.to/lastmile_qr_scan", "android": "https://dc.lft.to/lastmile_qr_scan"}, "fusion_lon": 0.0, "lon": -77.01744316666667, "name": "9590d9daf4390f6cc35d4b1256443c3d", "is_reserved": 0, "is_disabled": 0}, {"lat": 38.91229216666667, "fusion_lat": 0.0, "type": "electric_scooter", "bike_id": "4f2dc253993a979b7bbc43866c7b4e50", "rental_uris": {"ios": "https://dc.lft.to/lastmile_qr_scan", "android": "https://dc.lft.to/lastmile_qr_scan"}, "fusion_lon": 0.0, "lon": -77.026934, "name": "4f2dc253993a979b7bbc43866c7b4e50", "is_reserved": 0, "is_disabled": 0}, {"lat": 38.902023666666665, "fusion_lat": 0.0, "type": "electric_scooter", "bike_id": "68313c6f38ef3d89c2cd089e39b1ad2e", "rental_uris": {"ios": "https://dc.lft.to/lastmile_qr_scan", "android": "https://dc.lft.to/lastmile_qr_scan"}, "fusion_lon": 0.0, "lon": -77.023773, "name": "68313c6f38ef3d89c2cd089e39b1ad2e", "is_reserved": 0, "is_disabled": 0}, {"lat": 38.92721933333333, "fusion_lat": 0.0, "type": "electric_scooter", "bike_id": "a1d5718b9e18b478621fa1b3a87d409b", "rental_uris": {"ios": "https://dc.lft.to/lastmile_qr_scan", "android": "https://dc.lft.to/lastmile_qr_scan"}, "fusion_lon": 0.0, "lon": -77.02780166666666, "name": "a1d5718b9e18b478621fa1b3a87d409b", "is_reserved": 0, "is_disabled": 0}, {"lat": 38.890137833333334, "fusion_lat": 0.0, "type": "electric_scooter", "bike_id": "f327937f15b889d002ed6915d545dfc5", "rental_uris": {"ios": "https://dc.lft.to/lastmile_qr_scan", "android": "https://dc.lft.to/lastmile_qr_scan"}, "fusion_lon": 0.0, "lon": -76.93737466666667, "name": "f327937f15b889d002ed6915d545dfc5", "is_reserved": 0, "is_disabled": 0}, {"lat": 38.96837516666667, "fusion_lat": 0.0, "type": "electric_bike", "bike_id": "eaa6ef8627585e152d8f394af2b472b3", "rental_uris": {"ios": "https://dc.lft.to/lastmile_qr_scan", "android": "https://dc.lft.to/lastmile_qr_scan"}, "fusion_lon": 0.0, "lon": -77.00598233333334, "name": "eaa6ef8627585e152d8f394af2b472b3", "is_reserved": 0, "is_disabled": 0}, {"lat": 38.872445666666664, "fusion_lat": 0.0, "type": "electric_bike", "bike_id": "82fde7e990f149626b765d1b455da3b0", "rental_uris": {"ios": "https://dc.lft.to/lastmile_qr_scan", "android": "https://dc.lft.to/lastmile_qr_scan"}, "fusion_lon": 0.0, "lon": -77.00878883333333, "name": "82fde7e990f149626b765d1b455da3b0", "is_reserved": 0, "is_disabled": 0}, {"lat": 38.944294166666666, "fusion_lat": 0.0, "type": "electric_scooter", "bike_id": "ec499844df368d8e3704a70cb88ca879", "rental_uris": {"ios": "https://dc.lft.to/lastmile_qr_scan", "android": "https://dc.lft.to/lastmile_qr_scan"}, "fusion_lon": 0.0, "lon": -77.063191, "name": "ec499844df368d8e3704a70cb88ca879", "is_reserved": 0, "is_disabled": 0}, {"lat": 38.9170615, "fusion_lat": 0.0, "type": "electric_scooter", "bike_id": "539789c3432ab6059ea309d207d84b37", "rental_uris": {"ios": "https://dc.lft.to/lastmile_qr_scan", "android": "https://dc.lft.to/lastmile_qr_scan"}, "fusion_lon": 0.0, "lon": -77.03675016666666, "name": "539789c3432ab6059ea309d207d84b37", "is_reserved": 0, "is_disabled": 0}, {"lat": 38.8938415, "fusion_lat": 0.0, "type": "electric_scooter", "bike_id": "3b968440d6bd18c1e9d82e586baef3df", "rental_uris": {"ios": "https://dc.lft.to/lastmile_qr_scan", "android": "https://dc.lft.to/lastmile_qr_scan"}, "fusion_lon": 0.0, "lon": -77.04663083333334, "name": "3b968440d6bd18c1e9d82e586baef3df", "is_reserved": 0, "is_disabled": 0}, {"lat": 38.94113683333333, "fusion_lat": 0.0, "type": "electric_scooter", "bike_id": "211b5fb6a77733591cb1a4140c9bffcc", "rental_uris": {"ios": "https://dc.lft.to/lastmile_qr_scan", "android": "https://dc.lft.to/lastmile_qr_scan"}, "fusion_lon": 0.0, "lon": -77.00045733333333, "name": "211b5fb6a77733591cb1a4140c9bffcc", "is_reserved": 0, "is_disabled": 0}, {"lat": 38.89047383333333, "fusion_lat": 0.0, "type": "electric_scooter", "bike_id": "8a1a43820332c9d36d8e48c181a4a21d", "rental_uris": {"ios": "https://dc.lft.to/lastmile_qr_scan", "android": "https://dc.lft.to/lastmile_qr_scan"}, "fusion_lon": 0.0, "lon": -76.93748283333333, "name": "8a1a43820332c9d36d8e48c181a4a21d", "is_reserved": 0, "is_disabled": 0}, {"lat": 38.8749575, "fusion_lat": 0.0, "type": "electric_scooter", "bike_id": "e170b834a883b7ab8a3842b59c1d89e0", "rental_uris": {"ios": "https://dc.lft.to/lastmile_qr_scan", "android": "https://dc.lft.to/lastmile_qr_scan"}, "fusion_lon": 0.0, "lon": -77.00045933333334, "name": "e170b834a883b7ab8a3842b59c1d89e0", "is_reserved": 0, "is_disabled": 0}, {"lat": 38.896952, "fusion_lat": 0.0, "type": "electric_scooter", "bike_id": "49e8e524afe1904434db698d4089ab84", "rental_uris": {"ios": "https://dc.lft.to/lastmile_qr_scan", "android": "https://dc.lft.to/lastmile_qr_scan"}, "fusion_lon": 0.0, "lon": -77.02187666666667, "name": "49e8e524afe1904434db698d4089ab84", "is_reserved": 0, "is_disabled": 0}, {"lat": 38.901219833333336, "fusion_lat": 0.0, "type": "electric_scooter", "bike_id": "26e146fefd5d63a65c7a53e9410713ba", "rental_uris": {"ios": "https://dc.lft.to/lastmile_qr_scan", "android": "https://dc.lft.to/lastmile_qr_scan"}, "fusion_lon": 0.0, "lon": -77.04992983333334, "name": "26e146fefd5d63a65c7a53e9410713ba", "is_reserved": 0, "is_disabled": 0}, {"lat": 38.9265285, "fusion_lat": 0.0, "type": "electric_scooter", "bike_id": "3f50f2d860b039daf91f4fa40bc9f387", "rental_uris": {"ios": "https://dc.lft.to/lastmile_qr_scan", "android": "https://dc.lft.to/lastmile_qr_scan"}, "fusion_lon": 0.0, "lon": -77.0413785, "name": "3f50f2d860b039daf91f4fa40bc9f387", "is_reserved": 0, "is_disabled": 0}, {"lat": 38.903620333333336, "fusion_lat": 0.0, "type": "electric_scooter", "bike_id": "c16674ad2e3d2ba418fc59e67ace48f0", "rental_uris": {"ios": "https://dc.lft.to/lastmile_qr_scan", "android": "https://dc.lft.to/lastmile_qr_scan"}, "fusion_lon": 0.0, "lon": -77.0221195, "name": "c16674ad2e3d2ba418fc59e67ace48f0", "is_reserved": 0, "is_disabled": 0}, {"lat": 38.90629633333333, "fusion_lat": 0.0, "type": "electric_scooter", "bike_id": "70367d7e42ad4587239ae6b448b8b8a5", "rental_uris": {"ios": "https://dc.lft.to/lastmile_qr_scan", "android": "https://dc.lft.to/lastmile_qr_scan"}, "fusion_lon": 0.0, "lon": -77.02976683333333, "name": "70367d7e42ad4587239ae6b448b8b8a5", "is_reserved": 0, "is_disabled": 0}, {"lat": 38.90776133333333, "fusion_lat": 0.0, "type": "electric_scooter", "bike_id": "a52b056c38d20c62bb8160c422d90162", "rental_uris": {"ios": "https://dc.lft.to/lastmile_qr_scan", "android": "https://dc.lft.to/lastmile_qr_scan"}, "fusion_lon": 0.0, "lon": -76.99725333333333, "name": "a52b056c38d20c62bb8160c422d90162", "is_reserved": 0, "is_disabled": 0}, {"lat": 38.90554233333334, "fusion_lat": 0.0, "type": "electric_scooter", "bike_id": "c4c44bad101114c782587453364ce329", "rental_uris": {"ios": "https://dc.lft.to/lastmile_qr_scan", "android": "https://dc.lft.to/lastmile_qr_scan"}, "fusion_lon": 0.0, "lon": -77.04656483333333, "name": "c4c44bad101114c782587453364ce329", "is_reserved": 0, "is_disabled": 0}, {"lat": 38.90510116666667, "fusion_lat": 0.0, "type": "electric_scooter", "bike_id": "12d7143927e3b0b1e113cbe7b403e13e", "rental_uris": {"ios": "https://dc.lft.to/lastmile_qr_scan", "android": "https://dc.lft.to/lastmile_qr_scan"}, "fusion_lon": 0.0, "lon": -77.06545166666666, "name": "12d7143927e3b0b1e113cbe7b403e13e", "is_reserved": 0, "is_disabled": 0}, {"lat": 38.917081333333336, "fusion_lat": 0.0, "type": "electric_scooter", "bike_id": "1d567a9230ab7e26154778dc36484ade", "rental_uris": {"ios": "https://dc.lft.to/lastmile_qr_scan", "android": "https://dc.lft.to/lastmile_qr_scan"}, "fusion_lon": 0.0, "lon": -77.02434616666666, "name": "1d567a9230ab7e26154778dc36484ade", "is_reserved": 0, "is_disabled": 0}, {"lat": 38.919979166666664, "fusion_lat": 0.0, "type": "electric_scooter", "bike_id": "a5c5719aa28a29804b1a8e9570e93eb0", "rental_uris": {"ios": "https://dc.lft.to/lastmile_qr_scan", "android": "https://dc.lft.to/lastmile_qr_scan"}, "fusion_lon": 0.0, "lon": -77.04754416666667, "name": "a5c5719aa28a29804b1a8e9570e93eb0", "is_reserved": 0, "is_disabled": 0}, {"lat": 38.8638465, "fusion_lat": 0.0, "type": "electric_scooter", "bike_id": "020ea4b48c31556133c2fad258996f5f", "rental_uris": {"ios": "https://dc.lft.to/lastmile_qr_scan", "android": "https://dc.lft.to/lastmile_qr_scan"}, "fusion_lon": 0.0, "lon": -76.9912275, "name": "020ea4b48c31556133c2fad258996f5f", "is_reserved": 0, "is_disabled": 0}, {"lat": 38.898757833333335, "fusion_lat": 0.0, "type": "electric_scooter", "bike_id": "6cf47aa64c4409e0b920822649a68396", "rental_uris": {"ios": "https://dc.lft.to/lastmile_qr_scan", "android": "https://dc.lft.to/lastmile_qr_scan"}, "fusion_lon": 0.0, "lon": -76.93183533333334, "name": "6cf47aa64c4409e0b920822649a68396", "is_reserved": 0, "is_disabled": 0}, {"lat": 38.903957166666665, "fusion_lat": 0.0, "type": "electric_scooter", "bike_id": "0009d94e014323e4db9ea53895119fca", "rental_uris": {"ios": "https://dc.lft.to/lastmile_qr_scan", "android": "https://dc.lft.to/lastmile_qr_scan"}, "fusion_lon": 0.0, "lon": -77.029892, "name": "0009d94e014323e4db9ea53895119fca", "is_reserved": 0, "is_disabled": 0}, {"lat": 38.934180166666664, "fusion_lat": 0.0, "type": "electric_bike", "bike_id": "30b47518d30489d374e2732e57daf69f", "rental_uris": {"ios": "https://dc.lft.to/lastmile_qr_scan", "android": "https://dc.lft.to/lastmile_qr_scan"}, "fusion_lon": 0.0, "lon": -77.04305833333333, "name": "30b47518d30489d374e2732e57daf69f", "is_reserved": 0, "is_disabled": 0}, {"lat": 38.897360166666665, "fusion_lat": 0.0, "type": "electric_scooter", "bike_id": "255ce40be75e3a6463911200ee738149", "rental_uris": {"ios": "https://dc.lft.to/lastmile_qr_scan", "android": "https://dc.lft.to/lastmile_qr_scan"}, "fusion_lon": 0.0, "lon": -77.00366883333334, "name": "255ce40be75e3a6463911200ee738149", "is_reserved": 0, "is_disabled": 0}, {"lat": 38.9054505, "fusion_lat": 0.0, "type": "electric_scooter", "bike_id": "531c1b1fbeaf526147b80884eb142d20", "rental_uris": {"ios": "https://dc.lft.to/lastmile_qr_scan", "android": "https://dc.lft.to/lastmile_qr_scan"}, "fusion_lon": 0.0, "lon": -77.0424245, "name": "531c1b1fbeaf526147b80884eb142d20", "is_reserved": 0, "is_disabled": 0}, {"lat": 38.902605, "fusion_lat": 0.0, "type": "electric_scooter", "bike_id": "eb51813ba6f0a8425e2aaa8612f760a4", "rental_uris": {"ios": "https://dc.lft.to/lastmile_qr_scan", "android": "https://dc.lft.to/lastmile_qr_scan"}, "fusion_lon": 0.0, "lon": -77.04608266666666, "name": "eb51813ba6f0a8425e2aaa8612f760a4", "is_reserved": 0, "is_disabled": 0}, {"lat": 38.89665633333333, "fusion_lat": 0.0, "type": "electric_scooter", "bike_id": "35db826fdd0319ed9f5eabab41d72172", "rental_uris": {"ios": "https://dc.lft.to/lastmile_qr_scan", "android": "https://dc.lft.to/lastmile_qr_scan"}, "fusion_lon": 0.0, "lon": -77.03349366666667, "name": "35db826fdd0319ed9f5eabab41d72172", "is_reserved": 0, "is_disabled": 0}, {"lat": 38.887181, "fusion_lat": 0.0, "type": "electric_scooter", "bike_id": "af97ca8597f43a3ad57f697908d25561", "rental_uris": {"ios": "https://dc.lft.to/lastmile_qr_scan", "android": "https://dc.lft.to/lastmile_qr_scan"}, "fusion_lon": 0.0, "lon": -77.02829116666666, "name": "af97ca8597f43a3ad57f697908d25561", "is_reserved": 0, "is_disabled": 0}, {"lat": 38.897506666666665, "fusion_lat": 0.0, "type": "electric_scooter", "bike_id": "7c3739e45e8ba8bb5ce48e0eab5051fa", "rental_uris": {"ios": "https://dc.lft.to/lastmile_qr_scan", "android": "https://dc.lft.to/lastmile_qr_scan"}, "fusion_lon": 0.0, "lon": -77.00753833333333, "name": "7c3739e45e8ba8bb5ce48e0eab5051fa", "is_reserved": 0, "is_disabled": 0}, {"lat": 38.857269, "fusion_lat": 0.0, "type": "electric_bike", "bike_id": "9e0b2ae1050591a4036fd354b11531d4", "rental_uris": {"ios": "https://dc.lft.to/lastmile_qr_scan", "android": "https://dc.lft.to/lastmile_qr_scan"}, "fusion_lon": 0.0, "lon": -76.97770866666667, "name": "9e0b2ae1050591a4036fd354b11531d4", "is_reserved": 0, "is_disabled": 0}, {"lat": 38.89830416666667, "fusion_lat": 0.0, "type": "electric_scooter", "bike_id": "db5098c5ae83afcea8339a5dc3ec4815", "rental_uris": {"ios": "https://dc.lft.to/lastmile_qr_scan", "android": "https://dc.lft.to/lastmile_qr_scan"}, "fusion_lon": 0.0, "lon": -77.050061, "name": "db5098c5ae83afcea8339a5dc3ec4815", "is_reserved": 0, "is_disabled": 0}, {"lat": 38.923117166666664, "fusion_lat": 0.0, "type": "electric_scooter", "bike_id": "a6510607bdf50701a3857e6634d7e748", "rental_uris": {"ios": "https://dc.lft.to/lastmile_qr_scan", "android": "https://dc.lft.to/lastmile_qr_scan"}, "fusion_lon": 0.0, "lon": -77.0390675, "name": "a6510607bdf50701a3857e6634d7e748", "is_reserved": 0, "is_disabled": 0}, {"lat": 38.887455333333335, "fusion_lat": 0.0, "type": "electric_scooter", "bike_id": "334695a62f96b8ae2c66ad69709cbc59", "rental_uris": {"ios": "https://dc.lft.to/lastmile_qr_scan", "android": "https://dc.lft.to/lastmile_qr_scan"}, "fusion_lon": 0.0, "lon": -77.014014, "name": "334695a62f96b8ae2c66ad69709cbc59", "is_reserved": 0, "is_disabled": 0}, {"lat": 38.918041333333335, "fusion_lat": 0.0, "type": "electric_scooter", "bike_id": "d6eb32aa5f0d6c7c87283651e2aebbc7", "rental_uris": {"ios": "https://dc.lft.to/lastmile_qr_scan", "android": "https://dc.lft.to/lastmile_qr_scan"}, "fusion_lon": 0.0, "lon": -77.0401735, "name": "d6eb32aa5f0d6c7c87283651e2aebbc7", "is_reserved": 0, "is_disabled": 0}, {"lat": 38.88736216666667, "fusion_lat": 0.0, "type": "electric_scooter", "bike_id": "86629c177bb562918e66fded297f4e2a", "rental_uris": {"ios": "https://dc.lft.to/lastmile_qr_scan", "android": "https://dc.lft.to/lastmile_qr_scan"}, "fusion_lon": 0.0, "lon": -77.0317485, "name": "86629c177bb562918e66fded297f4e2a", "is_reserved": 0, "is_disabled": 0}, {"lat": 38.962271, "fusion_lat": 0.0, "type": "electric_bike", "bike_id": "bc7218eca69bc95eec68a79f3d6513f8", "rental_uris": {"ios": "https://dc.lft.to/lastmile_qr_scan", "android": "https://dc.lft.to/lastmile_qr_scan"}, "fusion_lon": 0.0, "lon": -77.02624516666667, "name": "bc7218eca69bc95eec68a79f3d6513f8", "is_reserved": 0, "is_disabled": 0}, {"lat": 38.887336833333336, "fusion_lat": 0.0, "type": "electric_scooter", "bike_id": "0698ca69e7423fb001b482a5bd774a6f", "rental_uris": {"ios": "https://dc.lft.to/lastmile_qr_scan", "android": "https://dc.lft.to/lastmile_qr_scan"}, "fusion_lon": 0.0, "lon": -77.0138575, "name": "0698ca69e7423fb001b482a5bd774a6f", "is_reserved": 0, "is_disabled": 0}, {"lat": 38.90266166666667, "fusion_lat": 0.0, "type": "electric_scooter", "bike_id": "1446824f3dfbe4305de2e31e489a1c17", "rental_uris": {"ios": "https://dc.lft.to/lastmile_qr_scan", "android": "https://dc.lft.to/lastmile_qr_scan"}, "fusion_lon": 0.0, "lon": -77.04619083333333, "name": "1446824f3dfbe4305de2e31e489a1c17", "is_reserved": 0, "is_disabled": 0}, {"lat": 38.925892, "fusion_lat": 0.0, "type": "electric_scooter", "bike_id": "8790cae471247179ab27df5dbcdbbad5", "rental_uris": {"ios": "https://dc.lft.to/lastmile_qr_scan", "android": "https://dc.lft.to/lastmile_qr_scan"}, "fusion_lon": 0.0, "lon": -77.03638283333333, "name": "8790cae471247179ab27df5dbcdbbad5", "is_reserved": 0, "is_disabled": 0}, {"lat": 38.8801785, "fusion_lat": 0.0, "type": "electric_scooter", "bike_id": "29cfde946beb66816dd23270fa9f2fcf", "rental_uris": {"ios": "https://dc.lft.to/lastmile_qr_scan", "android": "https://dc.lft.to/lastmile_qr_scan"}, "fusion_lon": 0.0, "lon": -76.98066216666666, "name": "29cfde946beb66816dd23270fa9f2fcf", "is_reserved": 0, "is_disabled": 0}, {"lat": 38.903075333333334, "fusion_lat": 0.0, "type": "electric_scooter", "bike_id": "012fa9fc81e3d50558cf7f24999ce682", "rental_uris": {"ios": "https://dc.lft.to/lastmile_qr_scan", "android": "https://dc.lft.to/lastmile_qr_scan"}, "fusion_lon": 0.0, "lon": -77.03329316666667, "name": "012fa9fc81e3d50558cf7f24999ce682", "is_reserved": 0, "is_disabled": 0}, {"lat": 38.876945, "fusion_lat": 0.0, "type": "electric_scooter", "bike_id": "a1dcbbbe528be6855e33c76a651987d1", "rental_uris": {"ios": "https://dc.lft.to/lastmile_qr_scan", "android": "https://dc.lft.to/lastmile_qr_scan"}, "fusion_lon": 0.0, "lon": -77.0178355, "name": "a1dcbbbe528be6855e33c76a651987d1", "is_reserved": 0, "is_disabled": 0}, {"lat": 38.9223025, "fusion_lat": 0.0, "type": "electric_scooter", "bike_id": "2f33f9344831697bad62b526bfbfba06", "rental_uris": {"ios": "https://dc.lft.to/lastmile_qr_scan", "android": "https://dc.lft.to/lastmile_qr_scan"}, "fusion_lon": 0.0, "lon": -77.02003966666666, "name": "2f33f9344831697bad62b526bfbfba06", "is_reserved": 0, "is_disabled": 0}, {"lat": 38.89721483333334, "fusion_lat": 0.0, "type": "electric_scooter", "bike_id": "5f9d5343b6bc463b8bff881b92d6cea5", "rental_uris": {"ios": "https://dc.lft.to/lastmile_qr_scan", "android": "https://dc.lft.to/lastmile_qr_scan"}, "fusion_lon": 0.0, "lon": -77.00794466666666, "name": "5f9d5343b6bc463b8bff881b92d6cea5", "is_reserved": 0, "is_disabled": 0}, {"lat": 38.910413, "fusion_lat": 0.0, "type": "electric_scooter", "bike_id": "6c61e6820b46d80b419af052268f22b0", "rental_uris": {"ios": "https://dc.lft.to/lastmile_qr_scan", "android": "https://dc.lft.to/lastmile_qr_scan"}, "fusion_lon": 0.0, "lon": -77.04257716666666, "name": "6c61e6820b46d80b419af052268f22b0", "is_reserved": 0, "is_disabled": 0}, {"lat": 38.88766283333333, "fusion_lat": 0.0, "type": "electric_scooter", "bike_id": "ae127a1b4d4617b4f010519e4c4e01c4", "rental_uris": {"ios": "https://dc.lft.to/lastmile_qr_scan", "android": "https://dc.lft.to/lastmile_qr_scan"}, "fusion_lon": 0.0, "lon": -76.9868895, "name": "ae127a1b4d4617b4f010519e4c4e01c4", "is_reserved": 0, "is_disabled": 0}, {"lat": 38.9067095, "fusion_lat": 0.0, "type": "electric_scooter", "bike_id": "7432ce3cf16f15b3be1a6fc1fa39ab1b", "rental_uris": {"ios": "https://dc.lft.to/lastmile_qr_scan", "android": "https://dc.lft.to/lastmile_qr_scan"}, "fusion_lon": 0.0, "lon": -77.02701266666666, "name": "7432ce3cf16f15b3be1a6fc1fa39ab1b", "is_reserved": 0, "is_disabled": 0}, {"lat": 38.9013645, "fusion_lat": 0.0, "type": "electric_scooter", "bike_id": "00ef415a0bbba79a0a2fadae552ecfdf", "rental_uris": {"ios": "https://dc.lft.to/lastmile_qr_scan", "android": "https://dc.lft.to/lastmile_qr_scan"}, "fusion_lon": 0.0, "lon": -77.025488, "name": "00ef415a0bbba79a0a2fadae552ecfdf", "is_reserved": 0, "is_disabled": 0}, {"lat": 38.896692333333334, "fusion_lat": 0.0, "type": "electric_scooter", "bike_id": "c673801e60f69e3c8f26ba18cb446860", "rental_uris": {"ios": "https://dc.lft.to/lastmile_qr_scan", "android": "https://dc.lft.to/lastmile_qr_scan"}, "fusion_lon": 0.0, "lon": -76.93204116666666, "name": "c673801e60f69e3c8f26ba18cb446860", "is_reserved": 0, "is_disabled": 0}, {"lat": 38.90026316666667, "fusion_lat": 0.0, "type": "electric_scooter", "bike_id": "5654792c5846118e563f7de49c6f4e77", "rental_uris": {"ios": "https://dc.lft.to/lastmile_qr_scan", "android": "https://dc.lft.to/lastmile_qr_scan"}, "fusion_lon": 0.0, "lon": -77.03994566666667, "name": "5654792c5846118e563f7de49c6f4e77", "is_reserved": 0, "is_disabled": 0}, {"lat": 38.884138666666665, "fusion_lat": 0.0, "type": "electric_scooter", "bike_id": "212df20af39b84c5e2dad3084e47401e", "rental_uris": {"ios": "https://dc.lft.to/lastmile_qr_scan", "android": "https://dc.lft.to/lastmile_qr_scan"}, "fusion_lon": 0.0, "lon": -77.00806783333333, "name": "212df20af39b84c5e2dad3084e47401e", "is_reserved": 0, "is_disabled": 0}, {"lat": 38.901530666666666, "fusion_lat": 0.0, "type": "electric_scooter", "bike_id": "cab1ad2ed71c3851e53e2bf4b3b84e4f", "rental_uris": {"ios": "https://dc.lft.to/lastmile_qr_scan", "android": "https://dc.lft.to/lastmile_qr_scan"}, "fusion_lon": 0.0, "lon": -77.02723466666667, "name": "cab1ad2ed71c3851e53e2bf4b3b84e4f", "is_reserved": 0, "is_disabled": 0}, {"lat": 38.922701333333336, "fusion_lat": 0.0, "type": "electric_scooter", "bike_id": "8d7ffd9b1214a476ace84cbbc6a531c3", "rental_uris": {"ios": "https://dc.lft.to/lastmile_qr_scan", "android": "https://dc.lft.to/lastmile_qr_scan"}, "fusion_lon": 0.0, "lon": -77.02970666666667, "name": "8d7ffd9b1214a476ace84cbbc6a531c3", "is_reserved": 0, "is_disabled": 0}, {"lat": 38.900702833333334, "fusion_lat": 0.0, "type": "electric_scooter", "bike_id": "b3a7b1b559058f005d2da3cc64365362", "rental_uris": {"ios": "https://dc.lft.to/lastmile_qr_scan", "android": "https://dc.lft.to/lastmile_qr_scan"}, "fusion_lon": 0.0, "lon": -77.0448305, "name": "b3a7b1b559058f005d2da3cc64365362", "is_reserved": 0, "is_disabled": 0}, {"lat": 38.91199833333334, "fusion_lat": 0.0, "type": "electric_scooter", "bike_id": "52bbf92bf41ee2885e627cb80deb42d0", "rental_uris": {"ios": "https://dc.lft.to/lastmile_qr_scan", "android": "https://dc.lft.to/lastmile_qr_scan"}, "fusion_lon": 0.0, "lon": -77.04530116666666, "name": "52bbf92bf41ee2885e627cb80deb42d0", "is_reserved": 0, "is_disabled": 0}, {"lat": 38.899968, "fusion_lat": 0.0, "type": "electric_scooter", "bike_id": "f7dd675aae77d8d23c7b48662f2c0617", "rental_uris": {"ios": "https://dc.lft.to/lastmile_qr_scan", "android": "https://dc.lft.to/lastmile_qr_scan"}, "fusion_lon": 0.0, "lon": -77.00672766666666, "name": "f7dd675aae77d8d23c7b48662f2c0617", "is_reserved": 0, "is_disabled": 0}, {"lat": 38.915555833333336, "fusion_lat": 0.0, "type": "electric_scooter", "bike_id": "b99b15f3df6858ad83cb324334093da4", "rental_uris": {"ios": "https://dc.lft.to/lastmile_qr_scan", "android": "https://dc.lft.to/lastmile_qr_scan"}, "fusion_lon": 0.0, "lon": -77.02843866666667, "name": "b99b15f3df6858ad83cb324334093da4", "is_reserved": 0, "is_disabled": 0},