{"data": {"bikes": [{"rental_uris": {"ios": "https://dc.lft.to/lastmile_qr_scan", "android": "https://dc.lft.to/lastmile_qr_scan"}, "lon": -77.03315, "type": "electric_scooter", "fusion_lat": 0.0, "lat": 38.908477, "name": "55719215c9df8c7fd3e106f677a43ea3", "fusion_lon": 0.0, "bike_id": "55719215c9df8c7fd3e106f677a43ea3", "is_disabled": 0, "is_reserved": 0}, {"rental_uris": {"ios": "https://dc.lft.to/lastmile_qr_scan", "android": "https://dc.lft.to/lastmile_qr_scan"}, "lon": -77.02146916666666, "type": "electric_scooter", "fusion_lat": 0.0, "lat": 38.9282795, "name": "ab2b1ebf3a156a1f0578a6d86ae1e374", "fusion_lon": 0.0, "bike_id": "ab2b1ebf3a156a1f0578a6d86ae1e374", "is_disabled": 0, "is_reserved": 0}, {"rental_uris": {"ios": "https://dc.lft.to/lastmile_qr_scan", "android": "https://dc.lft.to/lastmile_qr_scan"}, "lon": -77.03316783333334, "type": "electric_scooter", "fusion_lat": 0.0, "lat": 38.90148, "name": "3709e564236c1f7dd7f966ec354dc906", "fusion_lon": 0.0, "bike_id": "3709e564236c1f7dd7f966ec354dc906", "is_disabled": 0, "is_reserved": 0}, {"rental_uris": {"ios": "https://dc.lft.to/lastmile_qr_scan", "android": "https://dc.lft.to/lastmile_qr_scan"}, "lon": -77.031807, "type": "electric_scooter", "fusion_lat": 0.0, "lat": 38.921790333333334, "name": "a4f1a940ccca84d27cc4ea2c9f725c8e", "fusion_lon": 0.0, "bike_id": "a4f1a940ccca84d27cc4ea2c9f725c8e", "is_disabled": 0, "is_reserved": 0}, {"rental_uris": {"ios": "https://dc.lft.to/lastmile_qr_scan", "android": "https://dc.lft.to/lastmile_qr_scan"}, "lon": -77.03659083333334, "type": "electric_scooter", "fusion_lat": 0.0, "lat": 38.922867833333335, "name": "6af9094d17e475189250c840d113ab37", "fusion_lon": 0.0, "bike_id": "6af9094d17e475189250c840d113ab37", "is_disabled": 0, "is_reserved": 0}, {"rental_uris": {"ios": "https://dc.lft.to/lastmile_qr_scan", "android": "https://dc.lft.to/lastmile_qr_scan"}, "lon": -76.99831066666667, "type": "electric_scooter", "fusion_lat": 0.0, "lat": 38.90049283333333, "name": "c0f4b304c3a9281713462075fa5eb161", "fusion_lon": 0.0, "bike_id": "c0f4b304c3a9281713462075fa5eb161", "is_disabled": 0, "is_reserved": 0}, {"rental_uris": {"ios": "https://dc.lft.to/lastmile_qr_scan", "android": "https://dc.lft.to/lastmile_qr_scan"}, "lon": -76.98852466666666, "type": "electric_scooter", "fusion_lat": 0.0, "lat": 38.9034875, "name": "5555b5193ef72bd311f89bf9f22acac8", "fusion_lon": 0.0, "bike_id": "5555b5193ef72bd311f89bf9f22acac8", "is_disabled": 0, "is_reserved": 0}, {"rental_uris": {"ios": "https://dc.lft.to/lastmile_qr_scan", "android": "https://dc.lft.to/lastmile_qr_scan"}, "lon": -77.0271085, "type": "electric_scooter", "fusion_lat": 0.0, "lat": 38.8997775, "name": "c2a765715cb0841eea92105769cc0414", "fusion_lon": 0.0, "bike_id": "c2a765715cb0841eea92105769cc0414", "is_disabled": 0, "is_reserved": 0}, {"rental_uris": {"ios": "https://dc.lft.to/lastmile_qr_scan", "android": "https://dc.lft.to/lastmile_qr_scan"}, "lon": -77.023104, "type": "electric_scooter", "fusion_lat": 0.0, "lat": 38.909282166666664, "name": "6c7027192c843b2e7d274054c01d2ca7", "fusion_lon": 0.0, "bike_id": "6c7027192c843b2e7d274054c01d2ca7", "is_disabled": 0, "is_reserved": 0}, {"rental_uris": {"ios": "https://dc.lft.to/lastmile_qr_scan", "android": "https://dc.lft.to/lastmile_qr_scan"}, "lon": -77.04881616666667, "type": "electric_scooter", "fusion_lat": 0.0, "lat": 38.9044935, "name": "b497003f4558914823b35e8ce5e520a4", "fusion_lon": 0.0, "bike_id": "b497003f4558914823b35e8ce5e520a4", "is_disabled": 0, "is_reserved": 0}, {"rental_uris": {"ios": "https://dc.lft.to/lastmile_qr_scan", "android": "https://dc.lft.to/lastmile_qr_scan"}, "lon": -77.04179316666666, "type": "electric_scooter", "fusion_lat": 0.0, "lat": 38.90339066666667, "name": "70a62c7a4cbd3d80ea653fe9bec25e07", "fusion_lon": 0.0, "bike_id": "70a62c7a4cbd3d80ea653fe9bec25e07", "is_disabled": 0, "is_reserved": 0}, {"rental_uris": {"ios": "https://dc.lft.to/lastmile_qr_scan", "android": "https://dc.lft.to/lastmile_qr_scan"}, "lon": -77.00046483333334, "type": "electric_scooter", "fusion_lat": 0.0, "lat": 38.90689866666666, "name": "ee20507ed69924da4dd663f0ba5f7588", "fusion_lon": 0.0, "bike_id": "ee20507ed69924da4dd663f0ba5f7588", "is_disabled": 0, "is_reserved": 0}, {"rental_uris": {"ios": "https://dc.lft.to/lastmile_qr_scan", "android": "https://dc.lft.to/lastmile_qr_scan"}, "lon": -77.0316045, "type": "electric_scooter", "fusion_lat": 0.0, "lat": 38.914163, "name": "bcd13d853d4e364373d7451247bfa32c", "fusion_lon": 0.0, "bike_id": "bcd13d853d4e364373d7451247bfa32c", "is_disabled": 0, "is_reserved": 0}, {"rental_uris": {"ios": "https://dc.lft.to/lastmile_qr_scan", "android": "https://dc.lft.to/lastmile_qr_scan"}, "lon": -77.00507283333333, "type": "electric_scooter", "fusion_lat": 0.0, "lat": 38.8753665, "name": "523eaed575c12ae1656ed033d416c5af", "fusion_lon": 0.0, "bike_id": "523eaed575c12ae1656ed033d416c5af", "is_disabled": 0, "is_reserved": 0}, {"rental_uris": {"ios": "https://dc.lft.to/lastmile_qr_scan", "android": "https://dc.lft.to/lastmile_qr_scan"}, "lon": -77.06473283333334, "type": "electric_bike", "fusion_lat": 0.0, "lat": 38.973833666666664, "name": "9cbadf816de120ee382ea252c9f7f4b4", "fusion_lon": 0.0, "bike_id": "9cbadf816de120ee382ea252c9f7f4b4", "is_disabled": 0, "is_reserved": 0}, {"rental_uris": {"ios": "https://dc.lft.to/lastmile_qr_scan", "android": "https://dc.lft.to/lastmile_qr_scan"}, "lon": -77.002041, "type": "electric_scooter", "fusion_lat": 0.0, "lat": 38.90514983333333, "name": "3837f236b3ae9c2cbf14d95e98cd187a", "fusion_lon": 0.0, "bike_id": "3837f236b3ae9c2cbf14d95e98cd187a", "is_disabled": 0, "is_reserved": 0}, {"rental_uris": {"ios": "https://dc.lft.to/lastmile_qr_scan", "android": "https://dc.lft.to/lastmile_qr_scan"}, "lon": -76.99168133333333, "type": "electric_scooter", "fusion_lat": 0.0, "lat": 38.879258166666666, "name": "140fa4eb859e765f3c6af548113df591", "fusion_lon": 0.0, "bike_id": "140fa4eb859e765f3c6af548113df591", "is_disabled": 0, "is_reserved": 0}, {"rental_uris": {"ios": "https://dc.lft.to/lastmile_qr_scan", "android": "https://dc.lft.to/lastmile_qr_scan"}, "lon": -77.02060983333334, "type": "electric_scooter", "fusion_lat": 0.0, "lat": 38.9201615, "name": "1a77b85a308084112d1cf45dfd46d316", "fusion_lon": 0.0, "bike_id": "1a77b85a308084112d1cf45dfd46d316", "is_disabled": 0, "is_reserved": 0}, {"rental_uris": {"ios": "https://dc.lft.to/lastmile_qr_scan", "android": "https://dc.lft.to/lastmile_qr_scan"}, "lon": -77.03800383333333, "type": "electric_scooter", "fusion_lat": 0.0, "lat": 38.92548133333333, "name": "5dfda92586ce8c27aa74d39935b193b7", "fusion_lon": 0.0, "bike_id": "5dfda92586ce8c27aa74d39935b193b7", "is_disabled": 0, "is_reserved": 0}, {"rental_uris": {"ios": "https://dc.lft.to/lastmile_qr_scan", "android": "https://dc.lft.to/lastmile_qr_scan"}, "lon": -77.03384416666667, "type": "electric_scooter", "fusion_lat": 0.0, "lat": 38.9216615, "name": "07c81bef83e6d02cdcfbb7c65dfd50f2", "fusion_lon": 0.0, "bike_id": "07c81bef83e6d02cdcfbb7c65dfd50f2", "is_disabled": 0, "is_reserved": 0}, {"rental_uris": {"ios": "https://dc.lft.to/lastmile_qr_scan", "android": "https://dc.lft.to/lastmile_qr_scan"}, "lon": -77.0206675, "type": "electric_scooter", "fusion_lat": 0.0, "lat": 38.904056833333335, "name": "a2cda13164624553693592d94d967218", "fusion_lon": 0.0, "bike_id": "a2cda13164624553693592d94d967218", "is_disabled": 0, "is_reserved": 0}, {"rental_uris": {"ios": "https://dc.lft.to/lastmile_qr_scan", "android": "https://dc.lft.to/lastmile_qr_scan"}, "lon": -77.02496933333333, "type": "electric_scooter", "fusion_lat": 0.0, "lat": 38.94294266666667, "name": "b78fc4312fccbe09fdf06a9f2db5ef2d", "fusion_lon": 0.0, "bike_id": "b78fc4312fccbe09fdf06a9f2db5ef2d", "is_disabled": 0, "is_reserved": 0}, {"rental_uris": {"ios": "https://dc.lft.to/lastmile_qr_scan", "android": "https://dc.lft.to/lastmile_qr_scan"}, "lon": -77.0268705, "type": "electric_scooter", "fusion_lat": 0.0, "lat": 38.9000615, "name": "f0e96dee2d37b73f039cb713da9b63df", "fusion_lon": 0.0, "bike_id": "f0e96dee2d37b73f039cb713da9b63df", "is_disabled": 0, "is_reserved": 0}, {"rental_uris": {"ios": "https://dc.lft.to/lastmile_qr_scan", "android": "https://dc.lft.to/lastmile_qr_scan"}, "lon": -77.01505733333333, "type": "electric_scooter", "fusion_lat": 0.0, "lat": 38.91338966666667, "name": "1edee9235c4dc4524314cb6f095aa2e2", "fusion_lon": 0.0, "bike_id": "1edee9235c4dc4524314cb6f095aa2e2", "is_disabled": 0, "is_reserved": 0}, {"rental_uris": {"ios": "https://dc.lft.to/lastmile_qr_scan", "android": "https://dc.lft.to/lastmile_qr_scan"}, "lon": -76.998769, "type": "electric_scooter", "fusion_lat": 0.0, "lat": 38.907539666666665, "name": "28396978d6ab5cf8f2902e3aaf1a304a", "fusion_lon": 0.0, "bike_id": "28396978d6ab5cf8f2902e3aaf1a304a", "is_disabled": 0, "is_reserved": 0}, {"rental_uris": {"ios": "https://dc.lft.to/lastmile_qr_scan", "android": "https://dc.lft.to/lastmile_qr_scan"}, "lon": -77.02588333333334, "type": "electric_scooter", "fusion_lat": 0.0, "lat": 38.916446, "name": "af2fc1594a6ff104198dd8f1b8de731f", "fusion_lon": 0.0, "bike_id": "af2fc1594a6ff104198dd8f1b8de731f", "is_disabled": 0, "is_reserved": 0}, {"rental_uris": {"ios": "https://dc.lft.to/lastmile_qr_scan", "android": "https://dc.lft.to/lastmile_qr_scan"}, "lon": -77.00614266666666, "type": "electric_scooter", "fusion_lat": 0.0, "lat": 38.9054745, "name": "7f1e569cc7958061ec039260dcaaff43", "fusion_lon": 0.0, "bike_id": "7f1e569cc7958061ec039260dcaaff43", "is_disabled": 0, "is_reserved": 0}, {"rental_uris": {"ios": "https://dc.lft.to/lastmile_qr_scan", "android": "https://dc.lft.to/lastmile_qr_scan"}, "lon": -77.02832266666667, "type": "electric_scooter", "fusion_lat": 0.0, "lat": 38.92482316666667, "name": "370a56f1e091cd50f4d82af3cf445d05", "fusion_lon": 0.0, "bike_id": "370a56f1e091cd50f4d82af3cf445d05", "is_disabled": 0, "is_reserved": 0}, {"rental_uris": {"ios": "https://dc.lft.to/lastmile_qr_scan", "android": "https://dc.lft.to/lastmile_qr_scan"}, "lon": -77.038694, "type": "electric_scooter", "fusion_lat": 0.0, "lat": 38.9215875, "name": "7243371d1af0870b13e09de5c6d7ee6b", "fusion_lon": 0.0, "bike_id": "7243371d1af0870b13e09de5c6d7ee6b", "is_disabled": 0, "is_reserved": 0}, {"rental_uris": {"ios": "https://dc.lft.to/lastmile_qr_scan", "android": "https://dc.lft.to/lastmile_qr_scan"}, "lon": -77.02768883333333, "type": "electric_scooter", "fusion_lat": 0.0, "lat": 38.892039833333335, "name": "196bb48c26990b90d183a036d3109549", "fusion_lon": 0.0, "bike_id": "196bb48c26990b90d183a036d3109549", "is_disabled": 0, "is_reserved": 0}, {"rental_uris": {"ios": "https://dc.lft.to/lastmile_qr_scan", "android": "https://dc.lft.to/lastmile_qr_scan"}, "lon": -77.0396295, "type": "electric_scooter", "fusion_lat": 0.0, "lat": 38.90273833333333, "name": "b805706f8e599907851c0973d8674516", "fusion_lon": 0.0, "bike_id": "b805706f8e599907851c0973d8674516", "is_disabled": 0, "is_reserved": 0}, {"rental_uris": {"ios": "https://dc.lft.to/lastmile_qr_scan", "android": "https://dc.lft.to/lastmile_qr_scan"}, "lon": -77.03441716666667, "type": "electric_scooter", "fusion_lat": 0.0, "lat": 38.918377666666665, "name": "adc411cfd2e41adadf9cbd592bc6d56a", "fusion_lon": 0.0, "bike_id": "adc411cfd2e41adadf9cbd592bc6d56a", "is_disabled": 0, "is_reserved": 0}, {"rental_uris": {"ios": "https://dc.lft.to/lastmile_qr_scan", "android": "https://dc.lft.to/lastmile_qr_scan"}, "lon": -77.010755, "type": "electric_bike", "fusion_lat": 0.0, "lat": 38.95656183333333, "name": "4a9c87c2df85d62a3787f4ebd54e8f1e", "fusion_lon": 0.0, "bike_id": "4a9c87c2df85d62a3787f4ebd54e8f1e", "is_disabled": 0, "is_reserved": 0}, {"rental_uris": {"ios": "https://dc.lft.to/lastmile_qr_scan", "android": "https://dc.lft.to/lastmile_qr_scan"}, "lon": -76.99274616666666, "type": "electric_scooter", "fusion_lat": 0.0, "lat": 38.8976305, "name": "88104d9be417f851bd8f6e00539ec34f", "fusion_lon": 0.0, "bike_id": "88104d9be417f851bd8f6e00539ec34f", "is_disabled": 0, "is_reserved": 0}, {"rental_uris": {"ios": "https://dc.lft.to/lastmile_qr_scan", "android": "https://dc.lft.to/lastmile_qr_scan"}, "lon": -76.9762785, "type": "electric_bike", "fusion_lat": 0.0, "lat": 38.8928445, "name": "c355b9ae17155fa747b89f5b027cf35e", "fusion_lon": 0.0, "bike_id": "c355b9ae17155fa747b89f5b027cf35e", "is_disabled": 0, "is_reserved": 0}, {"rental_uris": {"ios": "https://dc.lft.to/lastmile_qr_scan", "android": "https://dc.lft.to/lastmile_qr_scan"}, "lon": -77.00588466666666, "type": "electric_scooter", "fusion_lat": 0.0, "lat": 38.90608316666667, "name": "4590eaa083090f69f9816f81f4630603", "fusion_lon": 0.0, "bike_id": "4590eaa083090f69f9816f81f4630603", "is_disabled": 0, "is_reserved": 0}, {"rental_uris": {"ios": "https://dc.lft.to/lastmile_qr_scan", "android": "https://dc.lft.to/lastmile_qr_scan"}, "lon": -77.04465116666667, "type": "electric_scooter", "fusion_lat": 0.0, "lat": 38.90313916666667, "name": "d5cf99e8ffeeb5886ffbfc68358a2655", "fusion_lon": 0.0, "bike_id": "d5cf99e8ffeeb5886ffbfc68358a2655", "is_disabled": 0, "is_reserved": 0}, {"rental_uris": {"ios": "https://dc.lft.to/lastmile_qr_scan", "android": "https://dc.lft.to/lastmile_qr_scan"}, "lon": -77.06391933333333, "type": "electric_scooter", "fusion_lat": 0.0, "lat": 38.929096333333334, "name": "dd1df5ea88417ed96de79858568c87ba", "fusion_lon": 0.0, "bike_id": "dd1df5ea88417ed96de79858568c87ba", "is_disabled": 0, "is_reserved": 0}, {"rental_uris": {"ios": "https://dc.lft.to/lastmile_qr_scan", "android": "https://dc.lft.to/lastmile_qr_scan"}, "lon": -77.04252866666667, "type": "electric_scooter", "fusion_lat": 0.0, "lat": 38.92061, "name": "670ebc462d939f5b354c4663fc179616", "fusion_lon": 0.0, "bike_id": "670ebc462d939f5b354c4663fc179616", "is_disabled": 0, "is_reserved": 0}, {"rental_uris": {"ios": "https://dc.lft.to/lastmile_qr_scan", "android": "https://dc.lft.to/lastmile_qr_scan"}, "lon": -77.0300145, "type": "electric_scooter", "fusion_lat": 0.0, "lat": 38.93455816666667, "name": "7a195c2f8cfb58ede315154dd6fd56c0", "fusion_lon": 0.0, "bike_id": "7a195c2f8cfb58ede315154dd6fd56c0", "is_disabled": 0, "is_reserved": 0}, {"rental_uris": {"ios": "https://dc.lft.to/lastmile_qr_scan", "android": "https://dc.lft.to/lastmile_qr_scan"}, "lon": -77.013325, "type": "electric_scooter", "fusion_lat": 0.0, "lat": 38.91696966666667, "name": "d6f3eef778d53bf45ebbee2c2370a580", "fusion_lon": 0.0, "bike_id": "d6f3eef778d53bf45ebbee2c2370a580", "is_disabled": 0, "is_reserved": 0}, {"rental_uris": {"ios": "https://dc.lft.to/lastmile_qr_scan", "android": "https://dc.lft.to/lastmile_qr_scan"}, "lon": -76.93572266666666, "type": "electric_bike", "fusion_lat": 0.0, "lat": 38.885305, "name": "db6bb05035bcf89ec4fbe546b7e9cf01", "fusion_lon": 0.0, "bike_id": "db6bb05035bcf89ec4fbe546b7e9cf01", "is_disabled": 0, "is_reserved": 0}, {"rental_uris": {"ios": "https://dc.lft.to/lastmile_qr_scan", "android": "https://dc.lft.to/lastmile_qr_scan"}, "lon": -77.00507216666666, "type": "electric_scooter", "fusion_lat": 0.0, "lat": 38.8753465, "name": "feed28bc66b9edf56956205ca1462683", "fusion_lon": 0.0, "bike_id": "feed28bc66b9edf56956205ca1462683", "is_disabled": 0, "is_reserved": 0}, {"rental_uris": {"ios": "https://dc.lft.to/lastmile_qr_scan", "android": "https://dc.lft.to/lastmile_qr_scan"}, "lon": -77.0628345, "type": "electric_scooter", "fusion_lat": 0.0, "lat": 38.9052855, "name": "ebd42374c1102864a2b14e4f37fa35c5", "fusion_lon": 0.0, "bike_id": "ebd42374c1102864a2b14e4f37fa35c5", "is_disabled": 0, "is_reserved": 0}, {"rental_uris": {"ios": "https://dc.lft.to/lastmile_qr_scan", "android": "https://dc.lft.to/lastmile_qr_scan"}, "lon": -76.98614383333333, "type": "electric_scooter", "fusion_lat": 0.0, "lat": 38.854607666666666, "name": "9769f73a00cbef8877a9b2a0e2e591c9", "fusion_lon": 0.0, "bike_id": "9769f73a00cbef8877a9b2a0e2e591c9", "is_disabled": 0, "is_reserved": 0}, {"rental_uris": {"ios": "https://dc.lft.to/lastmile_qr_scan", "android": "https://dc.lft.to/lastmile_qr_scan"}, "lon": -77.01078583333333, "type": "electric_bike", "fusion_lat": 0.0, "lat": 38.96260183333333, "name": "b2f7a69d197e07d5868e9cdd9ed0ea0a", "fusion_lon": 0.0, "bike_id": "b2f7a69d197e07d5868e9cdd9ed0ea0a", "is_disabled": 0, "is_reserved": 0}, {"rental_uris": {"ios": "https://dc.lft.to/lastmile_qr_scan", "android": "https://dc.lft.to/lastmile_qr_scan"}, "lon": -77.01213933333334, "type": "electric_scooter", "fusion_lat": 0.0, "lat": 38.89325133333333, "name": "120f208bd0083a3108e3d600294c0434", "fusion_lon": 0.0, "bike_id": "120f208bd0083a3108e3d600294c0434", "is_disabled": 0, "is_reserved": 0}, {"rental_uris": {"ios": "https://dc.lft.to/lastmile_qr_scan", "android": "https://dc.lft.to/lastmile_qr_scan"}, "lon": -77.02126566666666, "type": "electric_scooter", "fusion_lat": 0.0, "lat": 38.916104833333335, "name": "cec55326e57c367d1805157f8a66565d", "fusion_lon": 0.0, "bike_id": "cec55326e57c367d1805157f8a66565d", "is_disabled": 0, "is_reserved": 0}, {"rental_uris": {"ios": "https://dc.lft.to/lastmile_qr_scan", "android": "https://dc.lft.to/lastmile_qr_scan"}, "lon": -77.02650466666667, "type": "electric_scooter", "fusion_lat": 0.0, "lat": 38.93865433333333, "name": "a15896735b34589787b6742ea449e641", "fusion_lon": 0.0, "bike_id": "a15896735b34589787b6742ea449e641", "is_disabled": 0, "is_reserved": 0}, {"rental_uris": {"ios": "https://dc.lft.to/lastmile_qr_scan", "android": "https://dc.lft.to/lastmile_qr_scan"}, "lon": -77.02176433333334, "type": "electric_scooter", "fusion_lat": 0.0, "lat": 38.914069833333336, "name": "efe4974398fa846ca8f44452c72acc1b", "fusion_lon": 0.0, "bike_id": "efe4974398fa846ca8f44452c72acc1b", "is_disabled": 0, "is_reserved": 0}, {"rental_uris": {"ios": "https://dc.lft.to/lastmile_qr_scan", "android": "https://dc.lft.to/lastmile_qr_scan"}, "lon": -77.0409995, "type": "electric_scooter", "fusion_lat": 0.0, "lat": 38.92368033333333, "name": "c149e0fadbd8fb504b16dd64dd370e00", "fusion_lon": 0.0, "bike_id": "c149e0fadbd8fb504b16dd64dd370e00", "is_disabled": 0, "is_reserved": 0}, {"rental_uris": {"ios": "https://dc.lft.to/lastmile_qr_scan", "android": "https://dc.lft.to/lastmile_qr_scan"}, "lon": -77.02569016666666, "type": "electric_scooter", "fusion_lat": 0.0, "lat": 38.887489, "name": "d1a0b6d32ef62a62e9386ccafc9f8afe", "fusion_lon": 0.0, "bike_id": "d1a0b6d32ef62a62e9386ccafc9f8afe", "is_disabled": 0, "is_reserved": 0}, {"rental_uris": {"ios": "https://dc.lft.to/lastmile_qr_scan", "android": "https://dc.lft.to/lastmile_qr_scan"}, "lon": -77.03208833333333, "type": "electric_scooter", "fusion_lat": 0.0, "lat": 38.9163775, "name": "c58f4f3f6742a00ef17a64436717606d", "fusion_lon": 0.0, "bike_id": "c58f4f3f6742a00ef17a64436717606d", "is_disabled": 0, "is_reserved": 0}, {"rental_uris": {"ios": "https://dc.lft.to/lastmile_qr_scan", "android": "https://dc.lft.to/lastmile_qr_scan"}, "lon": -76.98019633333334, "type": "electric_scooter", "fusion_lat": 0.0, "lat": 38.9037815, "name": "8425b33ff3ec8e73492052429e011b68", "fusion_lon": 0.0, "bike_id": "8425b33ff3ec8e73492052429e011b68", "is_disabled": 0, "is_reserved": 0}, {"rental_uris": {"ios": "https://dc.lft.to/lastmile_qr_scan", "android": "https://dc.lft.to/lastmile_qr_scan"}, "lon": -77.0120925, "type": "electric_bike", "fusion_lat": 0.0, "lat": 38.870824166666665, "name": "9c1ff3bcf58b608c107a7d4dfe39494c", "fusion_lon": 0.0, "bike_id": "9c1ff3bcf58b608c107a7d4dfe39494c", "is_disabled": 0, "is_reserved": 0}, {"rental_uris": {"ios": "https://dc.lft.to/lastmile_qr_scan", "android": "https://dc.lft.to/lastmile_qr_scan"}, "lon": -76.99838533333333, "type": "electric_bike", "fusion_lat": 0.0, "lat": 38.83919683333333, "name": "2124e51852bf1f216d543d851b940834", "fusion_lon": 0.0, "bike_id": "2124e51852bf1f216d543d851b940834", "is_disabled": 0, "is_reserved": 0}, {"rental_uris": {"ios": "https://dc.lft.to/lastmile_qr_scan", "android": "https://dc.lft.to/lastmile_qr_scan"}, "lon": -77.00067466666667, "type": "electric_scooter", "fusion_lat": 0.0, "lat": 38.90005083333333, "name": "fff23e737f1b3f42ba2215f81cf46664", "fusion_lon": 0.0, "bike_id": "fff23e737f1b3f42ba2215f81cf46664", "is_disabled": 0, "is_reserved": 0}, {"rental_uris": {"ios": "https://dc.lft.to/lastmile_qr_scan", "android": "https://dc.lft.to/lastmile_qr_scan"}, "lon": -76.97304433333333, "type": "electric_scooter", "fusion_lat": 0.0, "lat": 38.91986883333333, "name": "8947ade84d9cacb37946c0e79ae2c8db", "fusion_lon": 0.0, "bike_id": "8947ade84d9cacb37946c0e79ae2c8db", "is_disabled": 0, "is_reserved": 0}, {"rental_uris": {"ios": "https://dc.lft.to/lastmile_qr_scan", "android": "https://dc.lft.to/lastmile_qr_scan"}, "lon": -77.00601016666667, "type": "electric_scooter", "fusion_lat": 0.0, "lat": 38.8850005, "name": "abf18f368db527f2f0303934dd204cdf", "fusion_lon": 0.0, "bike_id": "abf18f368db527f2f0303934dd204cdf", "is_disabled": 0, "is_reserved": 0}, {"rental_uris": {"ios": "https://dc.lft.to/lastmile_qr_scan", "android": "https://dc.lft.to/lastmile_qr_scan"}, "lon": -77.02779483333333, "type": "electric_scooter", "fusion_lat": 0.0, "lat": 38.953833333333336, "name": "9064038c12fc7b3c9e31d09223ad12b2", "fusion_lon": 0.0, "bike_id": "9064038c12fc7b3c9e31d09223ad12b2", "is_disabled": 0, "is_reserved": 0}, {"rental_uris": {"ios": "https://dc.lft.to/lastmile_qr_scan", "android": "https://dc.lft.to/lastmile_qr_scan"}, "lon": -77.02759683333333, "type": "electric_bike", "fusion_lat": 0.0, "lat": 38.89962233333333, "name": "7009f116f72bdd899deb27edeba48db3", "fusion_lon": 0.0, "bike_id": "7009f116f72bdd899deb27edeba48db3", "is_disabled": 0, "is_reserved": 0}, {"rental_uris": {"ios": "https://dc.lft.to/lastmile_qr_scan", "android": "https://dc.lft.to/lastmile_qr_scan"}, "lon": -77.0141495, "type": "electric_scooter", "fusion_lat": 0.0, "lat": 38.890942333333335, "name": "824eacfd45396600f9a4beed24bc2aee", "fusion_lon": 0.0, "bike_id": "824eacfd45396600f9a4beed24bc2aee", "is_disabled": 0, "is_reserved": 0}, {"rental_uris": {"ios": "https://dc.lft.to/lastmile_qr_scan", "android": "https://dc.lft.to/lastmile_qr_scan"}, "lon": -77.07719233333333, "type": "electric_scooter", "fusion_lat": 0.0, "lat": 38.947071333333334, "name": "b79a5d4511b184c6d0aaf2d2a2f82f2d", "fusion_lon": 0.0, "bike_id": "b79a5d4511b184c6d0aaf2d2a2f82f2d", "is_disabled": 0, "is_reserved": 0}, {"rental_uris": {"ios": "https://dc.lft.to/lastmile_qr_scan", "android": "https://dc.lft.to/lastmile_qr_scan"}, "lon": -77.0322645, "type": "electric_scooter", "fusion_lat": 0.0, "lat": 38.89221883333333, "name": "e5c3f3673afa5d4eba973ad022000557", "fusion_lon": 0.0, "bike_id": "e5c3f3673afa5d4eba973ad022000557", "is_disabled": 0, "is_reserved": 0}, {"rental_uris": {"ios": "https://dc.lft.to/lastmile_qr_scan", "android": "https://dc.lft.to/lastmile_qr_scan"}, "lon": -77.033641, "type": "electric_scooter", "fusion_lat": 0.0, "lat": 38.932197333333335, "name": "3652f2fc8e4c88a9b3bdf761c1584c9e", "fusion_lon": 0.0, "bike_id": "3652f2fc8e4c88a9b3bdf761c1584c9e", "is_disabled": 0, "is_reserved": 0}, {"rental_uris": {"ios": "https://dc.lft.to/lastmile_qr_scan", "android": "https://dc.lft.to/lastmile_qr_scan"}, "lon": -77.02401133333333, "type": "electric_scooter", "fusion_lat": 0.0, "lat": 38.9070025, "name": "fba0f6a061b628742199bab8c295467c", "fusion_lon": 0.0, "bike_id": "fba0f6a061b628742199bab8c295467c", "is_disabled": 0, "is_reserved": 0}, {"rental_uris": {"ios": "https://dc.lft.to/lastmile_qr_scan", "android": "https://dc.lft.to/lastmile_qr_scan"}, "lon": -77.03178066666666, "type": "electric_scooter", "fusion_lat": 0.0, "lat": 38.9012035, "name": "da38eea756f75b5a6636bc7b6b5fba46", "fusion_lon": 0.0, "bike_id": "da38eea756f75b5a6636bc7b6b5fba46", "is_disabled": 0, "is_reserved": 0}, {"rental_uris": {"ios": "https://dc.lft.to/lastmile_qr_scan", "android": "https://dc.lft.to/lastmile_qr_scan"}, "lon": -77.0500115, "type": "electric_scooter", "fusion_lat": 0.0, "lat": 38.89228716666667, "name": "0bf9fdac79d5e15f14898f98f86953fb", "fusion_lon": 0.0, "bike_id": "0bf9fdac79d5e15f14898f98f86953fb", "is_disabled": 0, "is_reserved": 0}, {"rental_uris": {"ios": "https://dc.lft.to/lastmile_qr_scan", "android": "https://dc.lft.to/lastmile_qr_scan"}, "lon": -77.03485016666667, "type": "electric_scooter", "fusion_lat": 0.0, "lat": 38.91712883333334, "name": "da645ba0f99d1b816abd3f649f75326c", "fusion_lon": 0.0, "bike_id": "da645ba0f99d1b816abd3f649f75326c", "is_disabled": 0, "is_reserved": 0}, {"rental_uris": {"ios": "https://dc.lft.to/lastmile_qr_scan", "android": "https://dc.lft.to/lastmile_qr_scan"}, "lon": -77.02540733333333, "type": "electric_scooter", "fusion_lat": 0.0, "lat": 38.920729666666666, "name": "aa3e059432917dea89f321b7535ceae0", "fusion_lon": 0.0, "bike_id": "aa3e059432917dea89f321b7535ceae0", "is_disabled": 0, "is_reserved": 0}, {"rental_uris": {"ios": "https://dc.lft.to/lastmile_qr_scan", "android": "https://dc.lft.to/lastmile_qr_scan"}, "lon": -77.048494, "type": "electric_scooter", "fusion_lat": 0.0, "lat": 38.919659833333334, "name": "b92d5632361eb2a11b092bd8d60cd6d1", "fusion_lon": 0.0, "bike_id": "b92d5632361eb2a11b092bd8d60cd6d1", "is_disabled": 0, "is_reserved": 0}, {"rental_uris": {"ios": "https://dc.lft.to/lastmile_qr_scan", "android": "https://dc.lft.to/lastmile_qr_scan"}, "lon": -77.03860233333333, "type": "electric_scooter", "fusion_lat": 0.0, "lat": 38.908126, "name": "3dbaa6122ac258017bdd373dd24a89ce", "fusion_lon": 0.0, "bike_id": "3dbaa6122ac258017bdd373dd24a89ce", "is_disabled": 0, "is_reserved": 0}, {"rental_uris": {"ios": "https://dc.lft.to/lastmile_qr_scan", "android": "https://dc.lft.to/lastmile_qr_scan"}, "lon": -77.02532083333334, "type": "electric_scooter", "fusion_lat": 0.0, "lat": 38.89217883333333, "name": "6bfd6407d6b5f016a59468593d06ecde", "fusion_lon": 0.0, "bike_id": "6bfd6407d6b5f016a59468593d06ecde", "is_disabled": 0, "is_reserved": 0}, {"rental_uris": {"ios": "https://dc.lft.to/lastmile_qr_scan", "android": "https://dc.lft.to/lastmile_qr_scan"}, "lon": -77.01861533333333, "type": "electric_scooter", "fusion_lat": 0.0, "lat": 38.892574333333336, "name": "bf857548f2996b8cf9be5c23017858ba", "fusion_lon": 0.0, "bike_id": "bf857548f2996b8cf9be5c23017858ba", "is_disabled": 0, "is_reserved": 0}, {"rental_uris": {"ios": "https://dc.lft.to/lastmile_qr_scan", "android": "https://dc.lft.to/lastmile_qr_scan"}, "lon": -76.99176166666666, "type": "electric_scooter", "fusion_lat": 0.0, "lat": 38.9050965, "name": "39ba30e45c44e7840d194493cdb4ad10", "fusion_lon": 0.0, "bike_id": "39ba30e45c44e7840d194493cdb4ad10", "is_disabled": 0, "is_reserved": 0}, {"rental_uris": {"ios": "https://dc.lft.to/lastmile_qr_scan", "android": "https://dc.lft.to/lastmile_qr_scan"}, "lon": -77.02975533333333, "type": "electric_scooter", "fusion_lat": 0.0, "lat": 38.9078, "name": "a79f21d9ec1f05508f67a2568372f5c8", "fusion_lon": 0.0, "bike_id": "a79f21d9ec1f05508f67a2568372f5c8", "is_disabled": 0, "is_reserved": 0}, {"rental_uris": {"ios": "https://dc.lft.to/lastmile_qr_scan", "android": "https://dc.lft.to/lastmile_qr_scan"}, "lon": -76.97820783333333, "type": "electric_scooter", "fusion_lat": 0.0, "lat": 38.89521633333333, "name": "8b45cf1a226ebc2aca17fdf048e1b0e2", "fusion_lon": 0.0, "bike_id": "8b45cf1a226ebc2aca17fdf048e1b0e2", "is_disabled": 0, "is_reserved": 0}, {"rental_uris": {"ios": "https://dc.lft.to/lastmile_qr_scan", "android": "https://dc.lft.to/lastmile_qr_scan"}, "lon": -77.02256783333333, "type": "electric_scooter", "fusion_lat": 0.0, "lat": 38.91264316666667, "name": "3bb09b1c32a916207286c628e3e983a9", "fusion_lon": 0.0, "bike_id": "3bb09b1c32a916207286c628e3e983a9", "is_disabled": 0, "is_reserved": 0}, {"rental_uris": {"ios": "https://dc.lft.to/lastmile_qr_scan", "android": "https://dc.lft.to/lastmile_qr_scan"}, "lon": -76.99022666666667, "type": "electric_scooter", "fusion_lat": 0.0, "lat": 38.85867666666667, "name": "cc67a43b2b1aa4f2cd0b979e5c6200e7", "fusion_lon": 0.0, "bike_id": "cc67a43b2b1aa4f2cd0b979e5c6200e7", "is_disabled": 0, "is_reserved": 0}, {"rental_uris": {"ios": "https://dc.lft.to/lastmile_qr_scan", "android": "https://dc.lft.to/lastmile_qr_scan"}, "lon": -77.0372595, "type": "electric_scooter", "fusion_lat": 0.0, "lat": 38.917139, "name": "18ffd7b853045c68c789151112f32dbc", "fusion_lon": 0.0, "bike_id": "18ffd7b853045c68c789151112f32dbc", "is_disabled": 0, "is_reserved": 0}, {"rental_uris": {"ios": "https://dc.lft.to/lastmile_qr_scan", "android": "https://dc.lft.to/lastmile_qr_scan"}, "lon": -77.01969766666667, "type": "electric_scooter", "fusion_lat": 0.0, "lat": 38.88392416666667, "name": "20d91f81889a593b9cc993a8122fa250", "fusion_lon": 0.0, "bike_id": "20d91f81889a593b9cc993a8122fa250", "is_disabled": 0, "is_reserved": 0}, {"rental_uris": {"ios": "https://dc.lft.to/lastmile_qr_scan", "android": "https://dc.lft.to/lastmile_qr_scan"}, "lon": -76.98370283333334, "type": "electric_scooter", "fusion_lat": 0.0, "lat": 38.861095166666665, "name": "23082929f7e8f42b665d24de7e21b0a2", "fusion_lon": 0.0, "bike_id": "23082929f7e8f42b665d24de7e21b0a2", "is_disabled": 0, "is_reserved": 0}, {"rental_uris": {"ios": "https://dc.lft.to/lastmile_qr_scan", "android": "https://dc.lft.to/lastmile_qr_scan"}, "lon": -77.04079316666666, "type": "electric_scooter", "fusion_lat": 0.0, "lat": 38.9201745, "name": "a69f72b488360e184fc5fa1c53b1eb99", "fusion_lon": 0.0, "bike_id": "a69f72b488360e184fc5fa1c53b1eb99", "is_disabled": 0, "is_reserved": 0}, {"rental_uris": {"ios": "https://dc.lft.to/lastmile_qr_scan", "android": "https://dc.lft.to/lastmile_qr_scan"}, "lon": -77.03470116666666, "type": "electric_scooter", "fusion_lat": 0.0, "lat": 38.91818683333333, "name": "035905c065c53249f2be76f1868d4ddd", "fusion_lon": 0.0, "bike_id": "035905c065c53249f2be76f1868d4ddd", "is_disabled": 0, "is_reserved": 0}, {"rental_uris": {"ios": "https://dc.lft.to/lastmile_qr_scan", "android": "https://dc.lft.to/lastmile_qr_scan"}, "lon": -77.0114795, "type": "electric_scooter", "fusion_lat": 0.0, "lat": 38.9567475, "name": "354a94417b9dd9426447817bc83c813b", "fusion_lon": 0.0, "bike_id": "354a94417b9dd9426447817bc83c813b", "is_disabled": 0, "is_reserved": 0}, {"rental_uris": {"ios": "https://dc.lft.to/lastmile_qr_scan", "android": "https://dc.lft.to/lastmile_qr_scan"}, "lon": -77.04391166666667, "type": "electric_scooter", "fusion_lat": 0.0, "lat": 38.910861833333335, "name": "08b840d707fd7209be5764db73361985", "fusion_lon": 0.0, "bike_id": "08b840d707fd7209be5764db73361985", "is_disabled": 0, "is_reserved": 0}, {"rental_uris": {"ios": "https://dc.lft.to/lastmile_qr_scan", "android": "https://dc.lft.to/lastmile_qr_scan"}, "lon": -77.00201966666667, "type": "electric_scooter", "fusion_lat": 0.0, "lat": 38.82260183333333, "name": "86355a99d843b7bffc3545ad181a4dd0", "fusion_lon": 0.0, "bike_id": "86355a99d843b7bffc3545ad181a4dd0", "is_disabled": 0, "is_reserved": 0}, {"rental_uris": {"ios": "https://dc.lft.to/lastmile_qr_scan", "android": "https://dc.lft.to/lastmile_qr_scan"}, "lon": -76.93348066666667, "type": "electric_scooter", "fusion_lat": 0.0, "lat": 38.89901016666666, "name": "eb9f5dcce4cd860a951f1824faf0d867", "fusion_lon": 0.0, "bike_id": "eb9f5dcce4cd860a951f1824faf0d867", "is_disabled": 0, "is_reserved": 0}, {"rental_uris": {"ios": "https://dc.lft.to/lastmile_qr_scan", "android": "https://dc.lft.to/lastmile_qr_scan"}, "lon": -77.03448533333334, "type": "electric_scooter", "fusion_lat": 0.0, "lat": 38.90844933333333, "name": "5057e98d94d6849c8a17e834c029207a", "fusion_lon": 0.0, "bike_id": "5057e98d94d6849c8a17e834c029207a", "is_disabled": 0, "is_reserved": 0}, {"rental_uris": {"ios": "https://dc.lft.to/lastmile_qr_scan", "android": "https://dc.lft.to/lastmile_qr_scan"}, "lon": -77.007534, "type": "electric_scooter", "fusion_lat": 0.0, "lat": 38.90360666666667, "name": "98370da1f357c84b3cc7e93d671117d4", "fusion_lon": 0.0, "bike_id": "98370da1f357c84b3cc7e93d671117d4", "is_disabled": 0, "is_reserved": 0}, {"rental_uris": {"ios": "https://dc.lft.to/lastmile_qr_scan", "android": "https://dc.lft.to/lastmile_qr_scan"}, "lon": -77.05134683333333, "type": "electric_scooter", "fusion_lat": 0.0, "lat": 38.90616633333333, "name": "30af9bb9db323174075093b6366bd3f3", "fusion_lon": 0.0, "bike_id": "30af9bb9db323174075093b6366bd3f3", "is_disabled": 0, "is_reserved": 0}, {"rental_uris": {"ios": "https://dc.lft.to/lastmile_qr_scan", "android": "https://dc.lft.to/lastmile_qr_scan"}, "lon": -77.03408583333334, "type": "electric_scooter", "fusion_lat": 0.0, "lat": 38.90978466666667, "name": "0db7256e2a187fa79d12b53b56b753a1", "fusion_lon": 0.0, "bike_id": "0db7256e2a187fa79d12b53b56b753a1", "is_disabled": 0, "is_reserved": 0}, {"rental_uris": {"ios": "https://dc.lft.to/lastmile_qr_scan", "android": "https://dc.lft.to/lastmile_qr_scan"}, "lon": -77.05861733333333, "type": "electric_scooter", "fusion_lat": 0.0, "lat": 38.936088166666664, "name": "c425f5ec30eee12145c1744cc54dcedd", "fusion_lon": 0.0, "bike_id": "c425f5ec30eee12145c1744cc54dcedd", "is_disabled": 0, "is_reserved": 0}, {"rental_uris": {"ios": "https://dc.lft.to/lastmile_qr_scan", "android": "https://dc.lft.to/lastmile_qr_scan"}, "lon": -77.04420833333333, "type": "electric_scooter", "fusion_lat": 0.0, "lat": 38.92617666666666, "name": "3607d80473c5410f752a394902a8ca49", "fusion_lon": 0.0, "bike_id": "3607d80473c5410f752a394902a8ca49", "is_disabled": 0, "is_reserved": 0}, {"rental_uris": {"ios": "https://dc.lft.to/lastmile_qr_scan", "android": "https://dc.lft.to/lastmile_qr_scan"}, "lon": -77.02419333333333, "type": "electric_scooter", "fusion_lat": 0.0, "lat": 38.89221283333333, "name": "f70300a17d313da8aa0fabc0a5c3139c", "fusion_lon": 0.0, "bike_id": "f70300a17d313da8aa0fabc0a5c3139c", "is_disabled": 0, "is_reserved": 0}, {"rental_uris": {"ios": "https://dc.lft.to/lastmile_qr_scan", "android": "https://dc.lft.to/lastmile_qr_scan"}, "lon": -76.9833895, "type": "electric_scooter", "fusion_lat": 0.0, "lat": 38.915403166666664, "name": "1431f468e3673acd2a72bb1b61ebf35a", "fusion_lon": 0.0, "bike_id": "1431f468e3673acd2a72bb1b61ebf35a", "is_disabled": 0, "is_reserved": 0}, {"rental_uris": {"ios": "https://dc.lft.to/lastmile_qr_scan", "android": "https://dc.lft.to/lastmile_qr_scan"}, "lon": -77.02572766666667, "type": "electric_scooter", "fusion_lat": 0.0, "lat": 38.8950425, "name": "a525fc07ae2c2c717dcf42c8d6b0236a", "fusion_lon": 0.0, "bike_id": "a525fc07ae2c2c717dcf42c8d6b0236a", "is_disabled": 0, "is_reserved": 0}, {"rental_uris": {"ios": "https://dc.lft.to/lastmile_qr_scan", "android": "https://dc.lft.to/lastmile_qr_scan"}, "lon": -76.980373, "type": "electric_scooter", "fusion_lat": 0.0, "lat": 38.889753, "name": "c29482edd54b73d3bf66b3b43de75b58", "fusion_lon": 0.0, "bike_id": "c29482edd54b73d3bf66b3b43de75b58", "is_disabled": 0, "is_reserved": 0}, {"rental_uris": {"ios": "https://dc.lft.to/lastmile_qr_scan", "android": "https://dc.lft.to/lastmile_qr_scan"}, "lon": -77.03193733333333, "type": "electric_scooter", "fusion_lat": 0.0, "lat": 38.9098225, "name": "550a627987c86e1c1feec4fd494d8267", "fusion_lon": 0.0, "bike_id": "550a627987c86e1c1feec4fd494d8267", "is_disabled": 0, "is_reserved": 0}, {"rental_uris": {"ios": "https://dc.lft.to/lastmile_qr_scan", "android": "https://dc.lft.to/lastmile_qr_scan"}, "lon": -77.027187, "type": "electric_scooter", "fusion_lat": 0.0, "lat": 38.918238, "name": "9181fb5a21bc85589cdc3327f823dc16", "fusion_lon": 0.0, "bike_id": "9181fb5a21bc85589cdc3327f823dc16", "is_disabled": 0, "is_reserved": 0}, {"rental_uris": {"ios": "https://dc.lft.to/lastmile_qr_scan", "android": "https://dc.lft.to/lastmile_qr_scan"}, "lon": -76.948532, "type": "electric_scooter", "fusion_lat": 0.0, "lat": 38.883030833333336, "name": "70d2fc6211dda13a2f4ebc7e74d42dbb", "fusion_lon": 0.0, "bike_id": "70d2fc6211dda13a2f4ebc7e74d42dbb", "is_disabled": 0, "is_reserved": 0}, {"rental_uris": {"ios": "https://dc.lft.to/lastmile_qr_scan", "android": "https://dc.lft.to/lastmile_qr_scan"}, "lon": -76.99816633333333, "type": "electric_scooter", "fusion_lat": 0.0, "lat": 38.90021983333333, "name": "f7edaad8cf8b3821a2ba01ac922895fd", "fusion_lon": 0.0, "bike_id": "f7edaad8cf8b3821a2ba01ac922895fd", "is_disabled": 0, "is_reserved": 0}, {"rental_uris": {"ios": "https://dc.lft.to/lastmile_qr_scan", "android": "https://dc.lft.to/lastmile_qr_scan"}, "lon": -77.023918, "type": "electric_scooter", "fusion_lat": 0.0, "lat": 38.93281533333333, "name": "0f55cdf67573676d2918e3fe039fd465", "fusion_lon": 0.0, "bike_id": "0f55cdf67573676d2918e3fe039fd465", "is_disabled": 0, "is_reserved": 0}, {"rental_uris": {"ios": "https://dc.lft.to/lastmile_qr_scan", "android": "https://dc.lft.to/lastmile_qr_scan"}, "lon": -77.024401, "type": "electric_scooter", "fusion_lat": 0.0, "lat": 38.93776, "name": "5d34fd545b648f585a512d4d8d1b4a41", "fusion_lon": 0.0, "bike_id": "5d34fd545b648f585a512d4d8d1b4a41", "is_disabled": 0, "is_reserved": 0}, {"rental_uris": {"ios": "https://dc.lft.to/lastmile_qr_scan", "android": "https://dc.lft.to/lastmile_qr_scan"}, "lon": -77.06946566666667, "type": "electric_bike", "fusion_lat": 0.0, "lat": 38.9904615, "name": "b5eaf7c67121e2cdbdf7233030b564cd", "fusion_lon": 0.0, "bike_id": "b5eaf7c67121e2cdbdf7233030b564cd", "is_disabled": 0, "is_reserved": 0}, {"rental_uris": {"ios": "https://dc.lft.to/lastmile_qr_scan", "android": "https://dc.lft.to/lastmile_qr_scan"}, "lon": -77.04905366666667, "type": "electric_scooter", "fusion_lat": 0.0, "lat": 38.8884035, "name": "6e228d6199879f7a48fd91b9489fd34e", "fusion_lon": 0.0, "bike_id": "6e228d6199879f7a48fd91b9489fd34e", "is_disabled": 0, "is_reserved": 0}, {"rental_uris": {"ios": "https://dc.lft.to/lastmile_qr_scan", "android": "https://dc.lft.to/lastmile_qr_scan"}, "lon": -76.99052083333333, "type": "electric_bike", "fusion_lat": 0.0, "lat": 38.902988, "name": "308e60edfe8cca2d2dd104cce3e4d1b0", "fusion_lon": 0.0, "bike_id": "308e60edfe8cca2d2dd104cce3e4d1b0", "is_disabled": 0, "is_reserved": 0}, {"rental_uris": {"ios": "https://dc.lft.to/lastmile_qr_scan", "android": "https://dc.lft.to/lastmile_qr_scan"}, "lon": -77.00709516666667, "type": "electric_scooter", "fusion_lat": 0.0, "lat": 38.8848915, "name": "18ec8f8f509fd644c9a6b8995bf1ac78", "fusion_lon": 0.0, "bike_id": "18ec8f8f509fd644c9a6b8995bf1ac78", "is_disabled": 0, "is_reserved": 0}, {"rental_uris": {"ios": "https://dc.lft.to/lastmile_qr_scan", "android": "https://dc.lft.to/lastmile_qr_scan"}, "lon": -77.04242266666667, "type": "electric_scooter", "fusion_lat": 0.0, "lat": 38.922782, "name": "b6a405132986437db87daa086a62d953", "fusion_lon": 0.0, "bike_id": "b6a405132986437db87daa086a62d953", "is_disabled": 0, "is_reserved": 0}, {"rental_uris": {"ios": "https://dc.lft.to/lastmile_qr_scan", "android": "https://dc.lft.to/lastmile_qr_scan"}, "lon": -76.9883735, "type": "electric_scooter", "fusion_lat": 0.0, "lat": 38.901808833333334, "name": "35bf4c7b2e5b791374ebdc00a7ffb6cc", "fusion_lon": 0.0, "bike_id": "35bf4c7b2e5b791374ebdc00a7ffb6cc", "is_disabled": 0, "is_reserved": 0}, {"rental_uris": {"ios": "https://dc.lft.to/lastmile_qr_scan", "android": "https://dc.lft.to/lastmile_qr_scan"}, "lon": -77.02963483333333, "type": "electric_scooter", "fusion_lat": 0.0, "lat": 38.954270666666666, "name": "9f47a69435483dab159b8c827d53784d", "fusion_lon": 0.0, "bike_id": "9f47a69435483dab159b8c827d53784d", "is_disabled": 0, "is_reserved": 0}, {"rental_uris": {"ios": "https://dc.lft.to/lastmile_qr_scan", "android": "https://dc.lft.to/lastmile_qr_scan"}, "lon": -77.04736083333333, "type": "electric_scooter", "fusion_lat": 0.0, "lat": 38.91120216666667, "name": "ddd6c58235501308ee35b0a9a7741084", "fusion_lon": 0.0, "bike_id": "ddd6c58235501308ee35b0a9a7741084", "is_disabled": 0, "is_reserved": 0}, {"rental_uris": {"ios": "https://dc.lft.to/lastmile_qr_scan", "android": "https://dc.lft.to/lastmile_qr_scan"}, "lon": -77.02277083333334, "type": "electric_scooter", "fusion_lat": 0.0, "lat": 38.916598, "name": "b3d5cec7e6e2a40098538f105733d3f1", "fusion_lon": 0.0, "bike_id": "b3d5cec7e6e2a40098538f105733d3f1", "is_disabled": 0, "is_reserved": 0}, {"rental_uris": {"ios": "https://dc.lft.to/lastmile_qr_scan", "android": "https://dc.lft.to/lastmile_qr_scan"}, "lon": -77.02759883333333, "type": "electric_scooter", "fusion_lat": 0.0, "lat": 38.956153, "name": "b5fd1af471e835f363531ff7e85998ec", "fusion_lon": 0.0, "bike_id": "b5fd1af471e835f363531ff7e85998ec", "is_disabled": 0, "is_reserved": 0}, {"rental_uris": {"ios": "https://dc.lft.to/lastmile_qr_scan", "android": "https://dc.lft.to/lastmile_qr_scan"}, "lon": -76.9750635, "type": "electric_bike", "fusion_lat": 0.0, "lat": 38.91939283333333, "name": "75c563025e0f20f87540cec9f5b41b02", "fusion_lon": 0.0, "bike_id": "75c563025e0f20f87540cec9f5b41b02", "is_disabled": 0, "is_reserved": 0}, {"rental_uris": {"ios": "https://dc.lft.to/lastmile_qr_scan", "android": "https://dc.lft.to/lastmile_qr_scan"}, "lon": -76.98374866666667, "type": "electric_scooter", "fusion_lat": 0.0, "lat": 38.86033783333333, "name": "cd5af3ae90bfa34ddbce79a1f159f319", "fusion_lon": 0.0, "bike_id": "cd5af3ae90bfa34ddbce79a1f159f319", "is_disabled": 0, "is_reserved": 0}, {"rental_uris": {"ios": "https://dc.lft.to/lastmile_qr_scan", "android": "https://dc.lft.to/lastmile_qr_scan"}, "lon": -77.01619783333334, "type": "electric_scooter", "fusion_lat": 0.0, "lat": 38.91022783333333, "name": "eff7071a1e8e65ac2b54614da5e58462", "fusion_lon": 0.0, "bike_id": "eff7071a1e8e65ac2b54614da5e58462", "is_disabled": 0, "is_reserved": 0}, {"rental_uris": {"ios": "https://dc.lft.to/lastmile_qr_scan", "android": "https://dc.lft.to/lastmile_qr_scan"}, "lon": -76.9732615, "type": "electric_scooter", "fusion_lat": 0.0, "lat": 38.93033066666667, "name": "f52d0a01a46459de8457ad104a8779e1", "fusion_lon": 0.0, "bike_id": "f52d0a01a46459de8457ad104a8779e1", "is_disabled": 0, "is_reserved": 0}, {"rental_uris": {"ios": "https://dc.lft.to/lastmile_qr_scan", "android": "https://dc.lft.to/lastmile_qr_scan"}, "lon": -77.04634566666667, "type": "electric_scooter", "fusion_lat": 0.0, "lat": 38.892261166666664, "name": "a0a137f89124827d64ca086f39b61764", "fusion_lon": 0.0, "bike_id": "a0a137f89124827d64ca086f39b61764", "is_disabled": 0, "is_reserved": 0}, {"rental_uris": {"ios": "https://dc.lft.to/lastmile_qr_scan", "android": "https://dc.lft.to/lastmile_qr_scan"}, "lon": -76.97559616666666, "type": "electric_scooter", "fusion_lat": 0.0, "lat": 38.90445066666667, "name": "0583940755d948367bcfef7f4bcd05d3", "fusion_lon": 0.0, "bike_id": "0583940755d948367bcfef7f4bcd05d3", "is_disabled": 0, "is_reserved": 0}, {"rental_uris": {"ios": "https://dc.lft.to/lastmile_qr_scan", "android": "https://dc.lft.to/lastmile_qr_scan"}, "lon": -77.0258355, "type": "electric_scooter", "fusion_lat": 0.0, "lat": 38.89756883333333, "name": "566afc2e8d4e8e657645391c231b180b", "fusion_lon": 0.0, "bike_id": "566afc2e8d4e8e657645391c231b180b", "is_disabled": 0, "is_reserved": 0}, {"rental_uris": {"ios": "https://dc.lft.to/lastmile_qr_scan", "android": "https://dc.lft.to/lastmile_qr_scan"}, "lon": -76.99609516666666, "type": "electric_scooter", "fusion_lat": 0.0, "lat": 38.88622733333333, "name": "7bde23aa180477f3288c57603f8d91d0", "fusion_lon": 0.0, "bike_id": "7bde23aa180477f3288c57603f8d91d0", "is_disabled": 0, "is_reserved": 0}, {"rental_uris": {"ios": "https://dc.lft.to/lastmile_qr_scan", "android": "https://dc.lft.to/lastmile_qr_scan"}, "lon": -77.02973733333333, "type": "electric_scooter", "fusion_lat": 0.0, "lat": 38.917834, "name": "403af80111ee3e3ef570b059264f3b48", "fusion_lon": 0.0, "bike_id": "403af80111ee3e3ef570b059264f3b48", "is_disabled": 0, "is_reserved": 0}, {"rental_uris": {"ios": "https://dc.lft.to/lastmile_qr_scan", "android": "https://dc.lft.to/lastmile_qr_scan"}, "lon": -77.04039133333333, "type": "electric_bike", "fusion_lat": 0.0, "lat": 38.80422433333333, "name": "5fc11440400e6ecb8d1e7c17ad24d9f4", "fusion_lon": 0.0, "bike_id": "5fc11440400e6ecb8d1e7c17ad24d9f4", "is_disabled": 0, "is_reserved": 0}, {"rental_uris": {"ios": "https://dc.lft.to/lastmile_qr_scan", "android": "https://dc.lft.to/lastmile_qr_scan"}, "lon": -77.00004016666666, "type": "electric_scooter", "fusion_lat": 0.0, "lat": 38.900273166666665, "name": "c4b95186933eaa79db35c28f7c560799", "fusion_lon": 0.0, "bike_id": "c4b95186933eaa79db35c28f7c560799", "is_disabled": 0, "is_reserved": 0}, {"rental_uris": {"ios": "https://dc.lft.to/lastmile_qr_scan", "android": "https://dc.lft.to/lastmile_qr_scan"}, "lon": -76.98563933333334, "type": "electric_scooter", "fusion_lat": 0.0, "lat": 38.861503166666665, "name": "129d3e4ac55909cd6abfb4e8b2075f82", "fusion_lon": 0.0, "bike_id": "129d3e4ac55909cd6abfb4e8b2075f82", "is_disabled": 0, "is_reserved": 0}, {"rental_uris": {"ios": "https://dc.lft.to/lastmile_qr_scan", "android": "https://dc.lft.to/lastmile_qr_scan"}, "lon": -77.0369145, "type": "electric_scooter", "fusion_lat": 0.0, "lat": 38.91676366666667, "name": "816656a8458d7f47b1e0de589cf9a2d1", "fusion_lon": 0.0, "bike_id": "816656a8458d7f47b1e0de589cf9a2d1", "is_disabled": 0, "is_reserved": 0}, {"rental_uris": {"ios": "https://dc.lft.to/lastmile_qr_scan", "android": "https://dc.lft.to/lastmile_qr_scan"}, "lon": -77.02827616666667, "type": "electric_scooter", "fusion_lat": 0.0, "lat": 38.91710633333334, "name": "837b48bb8fadd5bb2625dddb77eaaaf2", "fusion_lon": 0.0, "bike_id": "837b48bb8fadd5bb2625dddb77eaaaf2", "is_disabled": 0, "is_reserved": 0}, {"rental_uris": {"ios": "https://dc.lft.to/lastmile_qr_scan", "android": "https://dc.lft.to/lastmile_qr_scan"}, "lon": -77.03188933333334, "type": "electric_scooter", "fusion_lat": 0.0, "lat": 38.91319716666667, "name": "886a8f63de11c1509a14c931ca514b8a", "fusion_lon": 0.0, "bike_id": "886a8f63de11c1509a14c931ca514b8a", "is_disabled": 0, "is_reserved": 0}, {"rental_uris": {"ios": "https://dc.lft.to/lastmile_qr_scan", "android": "https://dc.lft.to/lastmile_qr_scan"}, "lon": -76.931844, "type": "electric_scooter", "fusion_lat": 0.0, "lat": 38.898766333333334, "name": "67fc17b845c3c8508c54918a4631e11d", "fusion_lon": 0.0, "bike_id": "67fc17b845c3c8508c54918a4631e11d", "is_disabled": 0, "is_reserved": 0}, {"rental_uris": {"ios": "https://dc.lft.to/lastmile_qr_scan", "android": "https://dc.lft.to/lastmile_qr_scan"}, "lon": -77.001328, "type": "electric_scooter", "fusion_lat": 0.0, "lat": 38.90412233333333, "name": "a6d0f0640b41c79a070352bda1e7261c", "fusion_lon": 0.0, "bike_id": "a6d0f0640b41c79a070352bda1e7261c", "is_disabled": 0, "is_reserved": 0}, {"rental_uris": {"ios": "https://dc.lft.to/lastmile_qr_scan", "android": "https://dc.lft.to/lastmile_qr_scan"}, "lon": -77.03218216666667, "type": "electric_scooter", "fusion_lat": 0.0, "lat": 38.920100833333336, "name": "41f070df9e63f418e4fb4fd045c26e8c", "fusion_lon": 0.0, "bike_id": "41f070df9e63f418e4fb4fd045c26e8c", "is_disabled": 0, "is_reserved": 0}, {"rental_uris": {"ios": "https://dc.lft.to/lastmile_qr_scan", "android": "https://dc.lft.to/lastmile_qr_scan"}, "lon": -76.9520725, "type": "electric_bike", "fusion_lat": 0.0, "lat": 38.9367175, "name": "658e5a51b0b4e92fb915d189f8a973e2", "fusion_lon": 0.0, "bike_id": "658e5a51b0b4e92fb915d189f8a973e2", "is_disabled": 0, "is_reserved": 0}, {"rental_uris": {"ios": "https://dc.lft.to/lastmile_qr_scan", "android": "https://dc.lft.to/lastmile_qr_scan"}, "lon": -77.03447833333334, "type": "electric_scooter", "fusion_lat": 0.0, "lat": 38.91841683333333, "name": "dcbb92f59f0645ea123b2389959bd9d8", "fusion_lon": 0.0, "bike_id": "dcbb92f59f0645ea123b2389959bd9d8", "is_disabled": 0, "is_reserved": 0}, {"rental_uris": {"ios": "https://dc.lft.to/lastmile_qr_scan", "android": "https://dc.lft.to/lastmile_qr_scan"}, "lon": -76.990648, "type": "electric_scooter", "fusion_lat": 0.0, "lat": 38.900265, "name": "0dd67e5cdff9f96db45e2fdff3bb14bd", "fusion_lon": 0.0, "bike_id": "0dd67e5cdff9f96db45e2fdff3bb14bd", "is_disabled": 0, "is_reserved": 0}, {"rental_uris": {"ios": "https://dc.lft.to/lastmile_qr_scan", "android": "https://dc.lft.to/lastmile_qr_scan"}, "lon": -76.98507116666667, "type": "electric_bike", "fusion_lat": 0.0, "lat": 38.88082583333333, "name": "d23c46bf18aedd1e9f57b21720f60398", "fusion_lon": 0.0, "bike_id": "d23c46bf18aedd1e9f57b21720f60398", "is_disabled": 0, "is_reserved": 0}, {"rental_uris": {"ios": "https://dc.lft.to/lastmile_qr_scan", "android": "https://dc.lft.to/lastmile_qr_scan"}, "lon": -77.028285, "type": "electric_scooter", "fusion_lat": 0.0, "lat": 38.89511533333334, "name": "5cdb69035a1b1e8e1a45ea4707bf7f75", "fusion_lon": 0.0, "bike_id": "5cdb69035a1b1e8e1a45ea4707bf7f75", "is_disabled": 0, "is_reserved": 0}, {"rental_uris": {"ios": "https://dc.lft.to/lastmile_qr_scan", "android": "https://dc.lft.to/lastmile_qr_scan"}, "lon": -77.04851366666666, "type": "electric_scooter", "fusion_lat": 0.0, "lat": 38.90442633333333, "name": "b85eac627fa828ce5d9816298e564dc5", "fusion_lon": 0.0, "bike_id": "b85eac627fa828ce5d9816298e564dc5", "is_disabled": 0, "is_reserved": 0}, {"rental_uris": {"ios": "https://dc.lft.to/lastmile_qr_scan", "android": "https://dc.lft.to/lastmile_qr_scan"}, "lon": -77.033348, "type": "electric_scooter", "fusion_lat": 0.0, "lat": 38.92164533333333, "name": "9d910e5012228f29c2d9a3064bdfc4c6", "fusion_lon": 0.0, "bike_id": "9d910e5012228f29c2d9a3064bdfc4c6", "is_disabled": 0, "is_reserved": 0}, {"rental_uris": {"ios": "https://dc.lft.to/lastmile_qr_scan", "android": "https://dc.lft.to/lastmile_qr_scan"}, "lon": -77.02210716666667, "type": "electric_scooter", "fusion_lat": 0.0, "lat": 38.914146333333335, "name": "b14f54ce9acb9a0f3df74e92090698e3", "fusion_lon": 0.0, "bike_id": "b14f54ce9acb9a0f3df74e92090698e3", "is_disabled": 0, "is_reserved": 0}, {"rental_uris": {"ios": "https://dc.lft.to/lastmile_qr_scan", "android": "https://dc.lft.to/lastmile_qr_scan"}, "lon": -77.02388916666666, "type": "electric_scooter", "fusion_lat": 0.0, "lat": 38.91597183333333, "name": "4f4f3a5e9ff1c99c29c71007ca442640", "fusion_lon": 0.0, "bike_id": "4f4f3a5e9ff1c99c29c71007ca442640", "is_disabled": 0, "is_reserved": 0}, {"rental_uris": {"ios": "https://dc.lft.to/lastmile_qr_scan", "android": "https://dc.lft.to/lastmile_qr_scan"}, "lon": -76.99933416666667, "type": "electric_scooter", "fusion_lat": 0.0, "lat": 38.896223, "name": "e0cc78b52a5eaa549b06432b91a904d1", "fusion_lon": 0.0, "bike_id": "e0cc78b52a5eaa549b06432b91a904d1", "is_disabled": 0, "is_reserved": 0}, {"rental_uris": {"ios": "https://dc.lft.to/lastmile_qr_scan", "android": "https://dc.lft.to/lastmile_qr_scan"}, "lon": -77.0715275, "type": "electric_scooter", "fusion_lat": 0.0, "lat": 38.907384666666665, "name": "d2734374fc08ad391a9e9d375a43ef4a", "fusion_lon": 0.0, "bike_id": "d2734374fc08ad391a9e9d375a43ef4a", "is_disabled": 0, "is_reserved": 0}, {"rental_uris": {"ios": "https://dc.lft.to/lastmile_qr_scan", "android": "https://dc.lft.to/lastmile_qr_scan"}, "lon": -77.01966583333333, "type": "electric_scooter", "fusion_lat": 0.0, "lat": 38.878381833333336, "name": "79b815b564c11b13a91c0e31dc3c831f", "fusion_lon": 0.0, "bike_id": "79b815b564c11b13a91c0e31dc3c831f", "is_disabled": 0, "is_reserved": 0}, {"rental_uris": {"ios": "https://dc.lft.to/lastmile_qr_scan", "android": "https://dc.lft.to/lastmile_qr_scan"}, "lon": -77.03207916666666, "type": "electric_scooter", "fusion_lat": 0.0, "lat": 38.9200865, "name": "7f541294eb8984b6a247a5c255c476fb", "fusion_lon": 0.0, "bike_id": "7f541294eb8984b6a247a5c255c476fb", "is_disabled": 0, "is_reserved": 0}, {"rental_uris": {"ios": "https://dc.lft.to/lastmile_qr_scan", "android": "https://dc.lft.to/lastmile_qr_scan"}, "lon": -77.04655733333334, "type": "electric_scooter", "fusion_lat": 0.0, "lat": 38.90562216666667, "name": "8ce932678229438bd4bb8f1b09d77ec2", "fusion_lon": 0.0, "bike_id": "8ce932678229438bd4bb8f1b09d77ec2", "is_disabled": 0, "is_reserved": 0}, {"rental_uris": {"ios": "https://dc.lft.to/lastmile_qr_scan", "android": "https://dc.lft.to/lastmile_qr_scan"}, "lon": -77.0317815, "type": "electric_scooter", "fusion_lat": 0.0, "lat": 38.9162465, "name": "ea2f75977a22da210ed511edb20bc4d3", "fusion_lon": 0.0, "bike_id": "ea2f75977a22da210ed511edb20bc4d3", "is_disabled": 0, "is_reserved": 0}, {"rental_uris": {"ios": "https://dc.lft.to/lastmile_qr_scan", "android": "https://dc.lft.to/lastmile_qr_scan"}, "lon": -77.04284866666667, "type": "electric_scooter", "fusion_lat": 0.0, "lat": 38.92263366666667, "name": "d48703336d87e97915e2a72649cea78d", "fusion_lon": 0.0, "bike_id": "d48703336d87e97915e2a72649cea78d", "is_disabled": 0, "is_reserved": 0}, {"rental_uris": {"ios": "https://dc.lft.to/lastmile_qr_scan", "android": "https://dc.lft.to/lastmile_qr_scan"}, "lon": -76.93158733333334, "type": "electric_scooter", "fusion_lat": 0.0, "lat": 38.89879483333333, "name": "8900fe9c6e86b2e3a35a4996bf92577c", "fusion_lon": 0.0, "bike_id": "8900fe9c6e86b2e3a35a4996bf92577c", "is_disabled": 0, "is_reserved": 0}, {"rental_uris": {"ios": "https://dc.lft.to/lastmile_qr_scan", "android": "https://dc.lft.to/lastmile_qr_scan"}, "lon": -77.02694916666667, "type": "electric_scooter", "fusion_lat": 0.0, "lat": 38.91635433333333, "name": "93ae529a0d10c2833f2fe6e4d2aed9aa", "fusion_lon": 0.0, "bike_id": "93ae529a0d10c2833f2fe6e4d2aed9aa", "is_disabled": 0, "is_reserved": 0}, {"rental_uris": {"ios": "https://dc.lft.to/lastmile_qr_scan", "android": "https://dc.lft.to/lastmile_qr_scan"}, "lon": -77.03203483333333, "type": "electric_scooter", "fusion_lat": 0.0, "lat": 38.91793916666666, "name": "abd8f896901841302a5f3e4669701479", "fusion_lon": 0.0, "bike_id": "abd8f896901841302a5f3e4669701479", "is_disabled": 0, "is_reserved": 0}, {"rental_uris": {"ios": "https://dc.lft.to/lastmile_qr_scan", "android": "https://dc.lft.to/lastmile_qr_scan"}, "lon": -77.1121945, "type": "electric_bike", "fusion_lat": 0.0, "lat": 38.82874483333333, "name": "4e273718d89ed1326ab251b5a776d718", "fusion_lon": 0.0, "bike_id": "4e273718d89ed1326ab251b5a776d718", "is_disabled": 0, "is_reserved": 0}, {"rental_uris": {"ios": "https://dc.lft.to/lastmile_qr_scan", "android": "https://dc.lft.to/lastmile_qr_scan"}, "lon": -76.98574583333334, "type": "electric_scooter", "fusion_lat": 0.0, "lat": 38.91439483333333, "name": "5405484b001f47fd639f720c19577709", "fusion_lon": 0.0, "bike_id": "5405484b001f47fd639f720c19577709", "is_disabled": 0, "is_reserved": 0}, {"rental_uris": {"ios": "https://dc.lft.to/lastmile_qr_scan", "android": "https://dc.lft.to/lastmile_qr_scan"}, "lon": -77.0532715, "type": "electric_scooter", "fusion_lat": 0.0, "lat": 38.905189666666665, "name": "40f0c00899857c7624de26674f001684", "fusion_lon": 0.0, "bike_id": "40f0c00899857c7624de26674f001684", "is_disabled": 0, "is_reserved": 0}, {"rental_uris": {"ios": "https://dc.lft.to/lastmile_qr_scan", "android": "https://dc.lft.to/lastmile_qr_scan"}, "lon": -76.87495866666667, "type": "electric_bike", "fusion_lat": 0.0, "lat": 38.99091766666667, "name": "6d20da1c734b2bff8aac35a0b8fce31d", "fusion_lon": 0.0, "bike_id": "6d20da1c734b2bff8aac35a0b8fce31d", "is_disabled": 0, "is_reserved": 0}, {"rental_uris": {"ios": "https://dc.lft.to/lastmile_qr_scan", "android": "https://dc.lft.to/lastmile_qr_scan"}, "lon": -76.99781, "type": "electric_scooter", "fusion_lat": 0.0, "lat": 38.844276, "name": "d1f3ce1373e31ea2f35ddf3ca5afc174", "fusion_lon": 0.0, "bike_id": "d1f3ce1373e31ea2f35ddf3ca5afc174", "is_disabled": 0, "is_reserved": 0}, {"rental_uris": {"ios": "https://dc.lft.to/lastmile_qr_scan", "android": "https://dc.lft.to/lastmile_qr_scan"}, "lon": -76.98090333333333, "type": "electric_bike", "fusion_lat": 0.0, "lat": 38.963588666666666, "name": "26d365b07a010a9ae9ce59ae09ee2862", "fusion_lon": 0.0, "bike_id": "26d365b07a010a9ae9ce59ae09ee2862", "is_disabled": 0, "is_reserved": 0}, {"rental_uris": {"ios": "https://dc.lft.to/lastmile_qr_scan", "android": "https://dc.lft.to/lastmile_qr_scan"}, "lon": -77.03253816666667, "type": "electric_scooter", "fusion_lat": 0.0, "lat": 38.93534566666666, "name": "10eba42b087a4d764358c2fa79be3638", "fusion_lon": 0.0, "bike_id": "10eba42b087a4d764358c2fa79be3638", "is_disabled": 0, "is_reserved": 0}, {"rental_uris": {"ios": "https://dc.lft.to/lastmile_qr_scan", "android": "https://dc.lft.to/lastmile_qr_scan"}, "lon": -77.03286433333334, "type": "electric_scooter", "fusion_lat": 0.0, "lat": 38.90559733333333, "name": "aa3aa501dc6ead5e7c8a394975956b1c", "fusion_lon": 0.0, "bike_id": "aa3aa501dc6ead5e7c8a394975956b1c", "is_disabled": 0, "is_reserved": 0}, {"rental_uris": {"ios": "https://dc.lft.to/lastmile_qr_scan", "android": "https://dc.lft.to/lastmile_qr_scan"}, "lon": -77.044506, "type": "electric_scooter", "fusion_lat": 0.0, "lat": 38.918870166666665, "name": "62b586366ce4334ca6ba200ee01030de", "fusion_lon": 0.0, "bike_id": "62b586366ce4334ca6ba200ee01030de", "is_disabled": 0, "is_reserved": 0}, {"rental_uris": {"ios": "https://dc.lft.to/lastmile_qr_scan", "android": "https://dc.lft.to/lastmile_qr_scan"}, "lon": -77.0276805, "type": "electric_scooter", "fusion_lat": 0.0, "lat": 38.88166233333333, "name": "6639b4c0e85012bb3b3a96b30f46f8e6", "fusion_lon": 0.0, "bike_id": "6639b4c0e85012bb3b3a96b30f46f8e6", "is_disabled": 0, "is_reserved": 0}, {"rental_uris": {"ios": "https://dc.lft.to/lastmile_qr_scan", "android": "https://dc.lft.to/lastmile_qr_scan"}, "lon": -77.0716785, "type": "electric_scooter", "fusion_lat": 0.0, "lat": 38.914505, "name": "891725d1f0d91e6b84796f9ffb18cc32", "fusion_lon": 0.0, "bike_id": "891725d1f0d91e6b84796f9ffb18cc32", "is_disabled": 0, "is_reserved": 0}, {"rental_uris": {"ios": "https://dc.lft.to/lastmile_qr_scan", "android": "https://dc.lft.to/lastmile_qr_scan"}, "lon": -77.021963, "type": "electric_scooter", "fusion_lat": 0.0, "lat": 38.90540216666667, "name": "26dc86dc646e82189e8258364dac55a8", "fusion_lon": 0.0, "bike_id": "26dc86dc646e82189e8258364dac55a8", "is_disabled": 0, "is_reserved": 0}, {"rental_uris": {"ios": "https://dc.lft.to/lastmile_qr_scan", "android": "https://dc.lft.to/lastmile_qr_scan"}, "lon": -76.99631333333333, "type": "electric_scooter", "fusion_lat": 0.0, "lat": 38.846217333333335, "name": "028d7cd417aff1dfda8b59d725bf39d9", "fusion_lon": 0.0, "bike_id": "028d7cd417aff1dfda8b59d725bf39d9", "is_disabled": 0, "is_reserved": 0}, {"rental_uris": {"ios": "https://dc.lft.to/lastmile_qr_scan", "android": "https://dc.lft.to/lastmile_qr_scan"}, "lon": -77.0434115, "type": "electric_scooter", "fusion_lat": 0.0, "lat": 38.9052885, "name": "473352fc5a0ddb3b60eab06c6ea02e19", "fusion_lon": 0.0, "bike_id": "473352fc5a0ddb3b60eab06c6ea02e19", "is_disabled": 0, "is_reserved": 0}, {"rental_uris": {"ios": "https://dc.lft.to/lastmile_qr_scan", "android": "https://dc.lft.to/lastmile_qr_scan"}, "lon": -77.040151, "type": "electric_scooter", "fusion_lat": 0.0, "lat": 38.9183415, "name": "399de4e65e060797d8facb0af6a3a35f", "fusion_lon": 0.0, "bike_id": "399de4e65e060797d8facb0af6a3a35f", "is_disabled": 0, "is_reserved": 0}, {"rental_uris": {"ios": "https://dc.lft.to/lastmile_qr_scan", "android": "https://dc.lft.to/lastmile_qr_scan"}, "lon": -77.022019, "type": "electric_scooter", "fusion_lat": 0.0, "lat": 38.91136216666666, "name": "8601787b1a5c0dbd48a76c94f40f730f", "fusion_lon": 0.0, "bike_id": "8601787b1a5c0dbd48a76c94f40f730f", "is_disabled": 0, "is_reserved": 0}, {"rental_uris": {"ios": "https://dc.lft.to/lastmile_qr_scan", "android": "https://dc.lft.to/lastmile_qr_scan"}, "lon": -77.043916, "type": "electric_scooter", "fusion_lat": 0.0, "lat": 38.92942216666667, "name": "5fc3881cc0c7507f4f96f5f96cc6b15b", "fusion_lon": 0.0, "bike_id": "5fc3881cc0c7507f4f96f5f96cc6b15b", "is_disabled": 0, "is_reserved": 0}, {"rental_uris": {"ios": "https://dc.lft.to/lastmile_qr_scan", "android": "https://dc.lft.to/lastmile_qr_scan"}, "lon": -77.00427683333334, "type": "electric_scooter", "fusion_lat": 0.0, "lat": 38.87651266666667, "name": "840469e4d33c2e5f5fb4af894a248b8a", "fusion_lon": 0.0, "bike_id": "840469e4d33c2e5f5fb4af894a248b8a", "is_disabled": 0, "is_reserved": 0}, {"rental_uris": {"ios": "https://dc.lft.to/lastmile_qr_scan", "android": "https://dc.lft.to/lastmile_qr_scan"}, "lon": -77.00592883333333, "type": "electric_scooter", "fusion_lat": 0.0, "lat": 38.91568266666667, "name": "13f3c13a9a34b7d862b2ca868fa618dc", "fusion_lon": 0.0, "bike_id": "13f3c13a9a34b7d862b2ca868fa618dc", "is_disabled": 0, "is_reserved": 0}, {"rental_uris": {"ios": "https://dc.lft.to/lastmile_qr_scan", "android": "https://dc.lft.to/lastmile_qr_scan"}, "lon": -77.0423965, "type": "electric_scooter", "fusion_lat": 0.0, "lat": 38.9075455, "name": "d9844ee0e4b33fee77ebe8fed87a45fc", "fusion_lon": 0.0, "bike_id": "d9844ee0e4b33fee77ebe8fed87a45fc", "is_disabled": 0, "is_reserved": 0}, {"rental_uris": {"ios": "https://dc.lft.to/lastmile_qr_scan", "android": "https://dc.lft.to/lastmile_qr_scan"}, "lon": -77.12501016666667, "type": "electric_bike", "fusion_lat": 0.0, "lat": 39.02421966666667, "name": "279248dcfc5bb0a8a15c99ae30370fd7", "fusion_lon": 0.0, "bike_id": "279248dcfc5bb0a8a15c99ae30370fd7", "is_disabled": 0, "is_reserved": 0}, {"rental_uris": {"ios": "https://dc.lft.to/lastmile_qr_scan", "android": "https://dc.lft.to/lastmile_qr_scan"}, "lon": -77.02494683333333, "type": "electric_scooter", "fusion_lat": 0.0, "lat": 38.90573633333333, "name": "d4dfcb6adfab7d9b885456fc5a51a0a8", "fusion_lon": 0.0, "bike_id": "d4dfcb6adfab7d9b885456fc5a51a0a8", "is_disabled": 0, "is_reserved": 0}, {"rental_uris": {"ios": "https://dc.lft.to/lastmile_qr_scan", "android": "https://dc.lft.to/lastmile_qr_scan"}, "lon": -77.03894416666667, "type": "electric_scooter", "fusion_lat": 0.0, "lat": 38.92336233333333, "name": "1bc58efbecb757868a685dff039ced22", "fusion_lon": 0.0, "bike_id": "1bc58efbecb757868a685dff039ced22", "is_disabled": 0, "is_reserved": 0}, {"rental_uris": {"ios": "https://dc.lft.to/lastmile_qr_scan", "android": "https://dc.lft.to/lastmile_qr_scan"}, "lon": -77.043391, "type": "electric_scooter", "fusion_lat": 0.0, "lat": 38.903892666666664, "name": "243b6cfc2bc311946bb07015f67ecab8", "fusion_lon": 0.0, "bike_id": "243b6cfc2bc311946bb07015f67ecab8", "is_disabled": 0, "is_reserved": 0}, {"rental_uris": {"ios": "https://dc.lft.to/lastmile_qr_scan", "android": "https://dc.lft.to/lastmile_qr_scan"}, "lon": -77.03658366666667, "type": "electric_scooter", "fusion_lat": 0.0, "lat": 38.9306965, "name": "25206dee9313fae7740960ed33319949", "fusion_lon": 0.0, "bike_id": "25206dee9313fae7740960ed33319949", "is_disabled": 0, "is_reserved": 0}, {"rental_uris": {"ios": "https://dc.lft.to/lastmile_qr_scan", "android": "https://dc.lft.to/lastmile_qr_scan"}, "lon": -77.023398, "type": "electric_scooter", "fusion_lat": 0.0, "lat": 38.9620655, "name": "8b9a94728859c043028cd0bc44271d3e", "fusion_lon": 0.0, "bike_id": "8b9a94728859c043028cd0bc44271d3e", "is_disabled": 0, "is_reserved": 0}, {"rental_uris": {"ios": "https://dc.lft.to/lastmile_qr_scan", "android": "https://dc.lft.to/lastmile_qr_scan"}, "lon": -77.02282516666666, "type": "electric_scooter", "fusion_lat": 0.0, "lat": 38.9168755, "name": "58091c398ff23660ee30989b357c3638", "fusion_lon": 0.0, "bike_id": "58091c398ff23660ee30989b357c3638", "is_disabled": 0, "is_reserved": 0}, {"rental_uris": {"ios": "https://dc.lft.to/lastmile_qr_scan", "android": "https://dc.lft.to/lastmile_qr_scan"}, "lon": -77.02597033333333, "type": "electric_scooter", "fusion_lat": 0.0, "lat": 38.90354933333333, "name": "6659985700a44c23a7449bd5cbcf8ea1", "fusion_lon": 0.0, "bike_id": "6659985700a44c23a7449bd5cbcf8ea1", "is_disabled": 0, "is_reserved": 0}, {"rental_uris": {"ios": "https://dc.lft.to/lastmile_qr_scan", "android": "https://dc.lft.to/lastmile_qr_scan"}, "lon": -77.01447233333333, "type": "electric_scooter", "fusion_lat": 0.0, "lat": 38.911967833333335, "name": "31b7d99b617ee26df7b4766244d362e7", "fusion_lon": 0.0, "bike_id": "31b7d99b617ee26df7b4766244d362e7", "is_disabled": 0, "is_reserved": 0}, {"rental_uris": {"ios": "https://dc.lft.to/lastmile_qr_scan", "android": "https://dc.lft.to/lastmile_qr_scan"}, "lon": -76.98949966666666, "type": "electric_scooter", "fusion_lat": 0.0, "lat": 38.901391333333336, "name": "11040657f78aeb1d791ef9add4d3d632", "fusion_lon": 0.0, "bike_id": "11040657f78aeb1d791ef9add4d3d632", "is_disabled": 0, "is_reserved": 0}, {"rental_uris": {"ios": "https://dc.lft.to/lastmile_qr_scan", "android": "https://dc.lft.to/lastmile_qr_scan"}, "lon": -77.032622, "type": "electric_scooter", "fusion_lat": 0.0, "lat": 38.93340583333333, "name": "598e692ba52924365185659416789be2", "fusion_lon": 0.0, "bike_id": "598e692ba52924365185659416789be2", "is_disabled": 0, "is_reserved": 0}, {"rental_uris": {"ios": "https://dc.lft.to/lastmile_qr_scan", "android": "https://dc.lft.to/lastmile_qr_scan"}, "lon": -77.02496683333334, "type": "electric_scooter", "fusion_lat": 0.0, "lat": 38.93962966666667, "name": "a6d940af417c3a1dfe768228b1ca470d", "fusion_lon": 0.0, "bike_id": "a6d940af417c3a1dfe768228b1ca470d", "is_disabled": 0, "is_reserved": 0}, {"rental_uris": {"ios": "https://dc.lft.to/lastmile_qr_scan", "android": "https://dc.lft.to/lastmile_qr_scan"}, "lon": -77.02704133333333, "type": "electric_scooter", "fusion_lat": 0.0, "lat": 38.95001233333333, "name": "a2e0ce3600bca05e6d7b853591f28e7f", "fusion_lon": 0.0, "bike_id": "a2e0ce3600bca05e6d7b853591f28e7f", "is_disabled": 0, "is_reserved": 0}, {"rental_uris": {"ios": "https://dc.lft.to/lastmile_qr_scan", "android": "https://dc.lft.to/lastmile_qr_scan"}, "lon": -77.0256315, "type": "electric_scooter", "fusion_lat": 0.0, "lat": 38.901044666666664, "name": "18112d2282ee8b08e15b883e60c1c4b7", "fusion_lon": 0.0, "bike_id": "18112d2282ee8b08e15b883e60c1c4b7", "is_disabled": 0, "is_reserved": 0}, {"rental_uris": {"ios": "https://dc.lft.to/lastmile_qr_scan", "android": "https://dc.lft.to/lastmile_qr_scan"}, "lon": -77.0061705, "type": "electric_scooter", "fusion_lat": 0.0, "lat": 38.90258683333333, "name": "7139ff12a461515c99a47d45d089e579", "fusion_lon": 0.0, "bike_id": "7139ff12a461515c99a47d45d089e579", "is_disabled": 0, "is_reserved": 0}, {"rental_uris": {"ios": "https://dc.lft.to/lastmile_qr_scan", "android": "https://dc.lft.to/lastmile_qr_scan"}, "lon": -77.01898433333334, "type": "electric_scooter", "fusion_lat": 0.0, "lat": 38.913699666666666, "name": "7ba00a5937da2c47eb0f6ee6e9b116d3", "fusion_lon": 0.0, "bike_id": "7ba00a5937da2c47eb0f6ee6e9b116d3", "is_disabled": 0, "is_reserved": 0}, {"rental_uris": {"ios": "https://dc.lft.to/lastmile_qr_scan", "android": "https://dc.lft.to/lastmile_qr_scan"}, "lon": -76.96502733333334, "type": "electric_scooter", "fusion_lat": 0.0, "lat": 38.87475716666667, "name": "74a0a7ec403b9367c89e4663e1c5c69d", "fusion_lon": 0.0, "bike_id": "74a0a7ec403b9367c89e4663e1c5c69d", "is_disabled": 0, "is_reserved": 0}, {"rental_uris": {"ios": "https://dc.lft.to/lastmile_qr_scan", "android": "https://dc.lft.to/lastmile_qr_scan"}, "lon": -77.03501733333333, "type": "electric_scooter", "fusion_lat": 0.0, "lat": 38.921477333333335, "name": "0865ffe7938b38b069e218f1fc89e413", "fusion_lon": 0.0, "bike_id": "0865ffe7938b38b069e218f1fc89e413", "is_disabled": 0, "is_reserved": 0}, {"rental_uris": {"ios": "https://dc.lft.to/lastmile_qr_scan", "android": "https://dc.lft.to/lastmile_qr_scan"}, "lon": -77.0269425, "type": "electric_scooter", "fusion_lat": 0.0, "lat": 38.90684483333333, "name": "78994bcd6264fc85aa8f0685c177615a", "fusion_lon": 0.0, "bike_id": "78994bcd6264fc85aa8f0685c177615a", "is_disabled": 0, "is_reserved": 0}, {"rental_uris": {"ios": "https://dc.lft.to/lastmile_qr_scan", "android": "https://dc.lft.to/lastmile_qr_scan"}, "lon": -77.03762033333334, "type": "electric_scooter", "fusion_lat": 0.0, "lat": 38.9087575, "name": "54e02c68b72074b58f247dab36933423", "fusion_lon": 0.0, "bike_id": "54e02c68b72074b58f247dab36933423", "is_disabled": 0, "is_reserved": 0}, {"rental_uris": {"ios": "https://dc.lft.to/lastmile_qr_scan", "android": "https://dc.lft.to/lastmile_qr_scan"}, "lon": -77.013796, "type": "electric_scooter", "fusion_lat": 0.0, "lat": 38.92867916666667, "name": "fb3b380d8d61eeb143fa4905d4847a4c", "fusion_lon": 0.0, "bike_id": "fb3b380d8d61eeb143fa4905d4847a4c", "is_disabled": 0, "is_reserved": 0}, {"rental_uris": {"ios": "https://dc.lft.to/lastmile_qr_scan", "android": "https://dc.lft.to/lastmile_qr_scan"}, "lon": -76.973341, "type": "electric_scooter", "fusion_lat": 0.0, "lat": 38.90480433333333, "name": "647f826e4e27e9e191db0a930a6851d4", "fusion_lon": 0.0, "bike_id": "647f826e4e27e9e191db0a930a6851d4", "is_disabled": 0, "is_reserved": 0}, {"rental_uris": {"ios": "https://dc.lft.to/lastmile_qr_scan", "android": "https://dc.lft.to/lastmile_qr_scan"}, "lon": -76.9915645, "type": "electric_scooter", "fusion_lat": 0.0, "lat": 38.882384, "name": "f9ce9d10f815dfea399a054f93bacfff", "fusion_lon": 0.0, "bike_id": "f9ce9d10f815dfea399a054f93bacfff", "is_disabled": 0, "is_reserved": 0}, {"rental_uris": {"ios": "https://dc.lft.to/lastmile_qr_scan", "android": "https://dc.lft.to/lastmile_qr_scan"}, "lon": -77.0292715, "type": "electric_scooter", "fusion_lat": 0.0, "lat": 38.898442333333335, "name": "423ac59e8fa3875c0a9985b0fa036536", "fusion_lon": 0.0, "bike_id": "423ac59e8fa3875c0a9985b0fa036536", "is_disabled": 0, "is_reserved": 0}, {"rental_uris": {"ios": "https://dc.lft.to/lastmile_qr_scan", "android": "https://dc.lft.to/lastmile_qr_scan"}, "lon": -77.02585066666667, "type": "electric_scooter", "fusion_lat": 0.0, "lat": 38.89828933333333, "name": "6b7f960feddb2215094942d134be58d3", "fusion_lon": 0.0, "bike_id": "6b7f960feddb2215094942d134be58d3", "is_disabled": 0, "is_reserved": 0}, {"rental_uris": {"ios": "https://dc.lft.to/lastmile_qr_scan", "android": "https://dc.lft.to/lastmile_qr_scan"}, "lon": -77.00136016666667, "type": "electric_scooter", "fusion_lat": 0.0, "lat": 38.90413216666666, "name": "6550da7cfb21b84dab85a0479fd8dd69", "fusion_lon": 0.0, "bike_id": "6550da7cfb21b84dab85a0479fd8dd69", "is_disabled": 0, "is_reserved": 0}, {"rental_uris": {"ios": "https://dc.lft.to/lastmile_qr_scan", "android": "https://dc.lft.to/lastmile_qr_scan"}, "lon": -77.01106766666666, "type": "electric_bike", "fusion_lat": 0.0, "lat": 38.9630735, "name": "dab7e7fb9a9a1fd9c3468c339b3d72cb", "fusion_lon": 0.0, "bike_id": "dab7e7fb9a9a1fd9c3468c339b3d72cb", "is_disabled": 0, "is_reserved": 0}, {"rental_uris": {"ios": "https://dc.lft.to/lastmile_qr_scan", "android": "https://dc.lft.to/lastmile_qr_scan"}, "lon": -77.1089995, "type": "electric_bike", "fusion_lat": 0.0, "lat": 38.8304375, "name": "c4d2641b4cba034f9ad34560ec7d24e2", "fusion_lon": 0.0, "bike_id": "c4d2641b4cba034f9ad34560ec7d24e2", "is_disabled": 0, "is_reserved": 0}, {"rental_uris": {"ios": "https://dc.lft.to/lastmile_qr_scan", "android": "https://dc.lft.to/lastmile_qr_scan"}, "lon": -77.0435115, "type": "electric_scooter", "fusion_lat": 0.0, "lat": 38.9089175, "name": "e3214fe35975039065e261bb27e4151c", "fusion_lon": 0.0, "bike_id": "e3214fe35975039065e261bb27e4151c", "is_disabled": 0, "is_reserved": 0}, {"rental_uris": {"ios": "https://dc.lft.to/lastmile_qr_scan", "android": "https://dc.lft.to/lastmile_qr_scan"}, "lon": -77.01231016666667, "type": "electric_bike", "fusion_lat": 0.0, "lat": 38.928761, "name": "db7ad23c82db527aa8a74c244f471cb6", "fusion_lon": 0.0, "bike_id": "db7ad23c82db527aa8a74c244f471cb6", "is_disabled": 0, "is_reserved": 0}, {"rental_uris": {"ios": "https://dc.lft.to/lastmile_qr_scan", "android": "https://dc.lft.to/lastmile_qr_scan"}, "lon": -77.04200333333333, "type": "electric_scooter", "fusion_lat": 0.0, "lat": 38.921164166666664, "name": "66ac27f1aa168e41c4ae2682b44188e1", "fusion_lon": 0.0, "bike_id": "66ac27f1aa168e41c4ae2682b44188e1", "is_disabled": 0, "is_reserved": 0}, {"rental_uris": {"ios": "https://dc.lft.to/lastmile_qr_scan", "android": "https://dc.lft.to/lastmile_qr_scan"}, "lon": -77.10687366666667, "type": "electric_bike", "fusion_lat": 0.0, "lat": 38.93583916666667, "name": "9afe69c1d5042f3c7316a9b28a555231", "fusion_lon": 0.0, "bike_id": "9afe69c1d5042f3c7316a9b28a555231", "is_disabled": 0, "is_reserved": 0}, {"rental_uris": {"ios": "https://dc.lft.to/lastmile_qr_scan", "android": "https://dc.lft.to/lastmile_qr_scan"}, "lon": -77.02713416666667, "type": "electric_scooter", "fusion_lat": 0.0, "lat": 38.90671866666667, "name": "bae843708c6903f8a9adea074d07ef17", "fusion_lon": 0.0, "bike_id": "bae843708c6903f8a9adea074d07ef17", "is_disabled": 0, "is_reserved": 0}, {"rental_uris": {"ios": "https://dc.lft.to/lastmile_qr_scan", "android": "https://dc.lft.to/lastmile_qr_scan"}, "lon": -77.04463266666667, "type": "electric_scooter", "fusion_lat": 0.0, "lat": 38.912126666666666, "name": "4a32feea49005a3c4234bac63ebc3d2b", "fusion_lon": 0.0, "bike_id": "4a32feea49005a3c4234bac63ebc3d2b", "is_disabled": 0, "is_reserved": 0}, {"rental_uris": {"ios": "https://dc.lft.to/lastmile_qr_scan", "android": "https://dc.lft.to/lastmile_qr_scan"}, "lon": -77.02419083333334, "type": "electric_scooter", "fusion_lat": 0.0, "lat": 38.904210166666665, "name": "63431b930559aa467cde3401aac99f52", "fusion_lon": 0.0, "bike_id": "63431b930559aa467cde3401aac99f52", "is_disabled": 0, "is_reserved": 0}, {"rental_uris": {"ios": "https://dc.lft.to/lastmile_qr_scan", "android": "https://dc.lft.to/lastmile_qr_scan"}, "lon": -77.04659083333334, "type": "electric_scooter", "fusion_lat": 0.0, "lat": 38.893420666666664, "name": "c8d9eaf6eb8f7233f15d2568a6363b30", "fusion_lon": 0.0, "bike_id": "c8d9eaf6eb8f7233f15d2568a6363b30", "is_disabled": 0, "is_reserved": 0}, {"rental_uris": {"ios": "https://dc.lft.to/lastmile_qr_scan", "android": "https://dc.lft.to/lastmile_qr_scan"}, "lon": -76.99147233333333, "type": "electric_scooter", "fusion_lat": 0.0, "lat": 38.90044533333333, "name": "00274bc987be6bb54bfb4c0739df15c2", "fusion_lon": 0.0, "bike_id": "00274bc987be6bb54bfb4c0739df15c2", "is_disabled": 0, "is_reserved": 0}, {"rental_uris": {"ios": "https://dc.lft.to/lastmile_qr_scan", "android": "https://dc.lft.to/lastmile_qr_scan"}, "lon": -77.03222833333334, "type": "electric_scooter", "fusion_lat": 0.0, "lat": 38.892274666666665, "name": "feecbc2ae6fc2f05776d0b68ddc2473b", "fusion_lon": 0.0, "bike_id": "feecbc2ae6fc2f05776d0b68ddc2473b", "is_disabled": 0, "is_reserved": 0}, {"rental_uris": {"ios": "https://dc.lft.to/lastmile_qr_scan", "android": "https://dc.lft.to/lastmile_qr_scan"}, "lon": -77.01083833333334, "type": "electric_scooter", "fusion_lat": 0.0, "lat": 38.89395716666667, "name": "c5748dcfc2f752b77fc367190f3594a2", "fusion_lon": 0.0, "bike_id": "c5748dcfc2f752b77fc367190f3594a2", "is_disabled": 0, "is_reserved": 0}, {"rental_uris": {"ios": "https://dc.lft.to/lastmile_qr_scan", "android": "https://dc.lft.to/lastmile_qr_scan"}, "lon": -77.03067416666667, "type": "electric_scooter", "fusion_lat": 0.0, "lat": 38.908003, "name": "9d632dfeba6c42ee174e52e3d1b74b18", "fusion_lon": 0.0, "bike_id": "9d632dfeba6c42ee174e52e3d1b74b18", "is_disabled": 0, "is_reserved": 0}, {"rental_uris": {"ios": "https://dc.lft.to/lastmile_qr_scan", "android": "https://dc.lft.to/lastmile_qr_scan"}, "lon": -77.04261683333333, "type": "electric_scooter", "fusion_lat": 0.0, "lat": 38.902848666666664, "name": "8844e00be00d4cf0408d28f574adf04c", "fusion_lon": 0.0, "bike_id": "8844e00be00d4cf0408d28f574adf04c", "is_disabled": 0, "is_reserved": 0}, {"rental_uris": {"ios": "https://dc.lft.to/lastmile_qr_scan", "android": "https://dc.lft.to/lastmile_qr_scan"}, "lon": -77.04898316666667, "type": "electric_scooter", "fusion_lat": 0.0, "lat": 38.9053155, "name": "9f4f00228318a5a69f5a18db162960e4", "fusion_lon": 0.0, "bike_id": "9f4f00228318a5a69f5a18db162960e4", "is_disabled": 0, "is_reserved": 0}, {"rental_uris": {"ios": "https://dc.lft.to/lastmile_qr_scan", "android": "https://dc.lft.to/lastmile_qr_scan"}, "lon": -77.04166933333333, "type": "electric_scooter", "fusion_lat": 0.0, "lat": 38.90529816666667, "name": "4385c1d82f74e28ce4e587ecc33d6920", "fusion_lon": 0.0, "bike_id": "4385c1d82f74e28ce4e587ecc33d6920", "is_disabled": 0, "is_reserved": 0}, {"rental_uris": {"ios": "https://dc.lft.to/lastmile_qr_scan", "android": "https://dc.lft.to/lastmile_qr_scan"}, "lon": -77.07897033333333, "type": "electric_scooter", "fusion_lat": 0.0, "lat": 38.91925166666667, "name": "6466d25bb954f5d5e1a3a3d7b3ba19aa", "fusion_lon": 0.0, "bike_id": "6466d25bb954f5d5e1a3a3d7b3ba19aa", "is_disabled": 0, "is_reserved": 0}, {"rental_uris": {"ios": "https://dc.lft.to/lastmile_qr_scan", "android": "https://dc.lft.to/lastmile_qr_scan"}, "lon": -77.00575366666666, "type": "electric_scooter", "fusion_lat": 0.0, "lat": 38.9030015, "name": "a3b8c45819bb0c2e120f08321c3de647", "fusion_lon": 0.0, "bike_id": "a3b8c45819bb0c2e120f08321c3de647", "is_disabled": 0, "is_reserved": 0}, {"rental_uris": {"ios": "https://dc.lft.to/lastmile_qr_scan", "android": "https://dc.lft.to/lastmile_qr_scan"}, "lon": -77.03437733333334, "type": "electric_scooter", "fusion_lat": 0.0, "lat": 38.91810233333333, "name": "907f2175590a1808b2ee35493d763265", "fusion_lon": 0.0, "bike_id": "907f2175590a1808b2ee35493d763265", "is_disabled": 0, "is_reserved": 0}, {"rental_uris": {"ios": "https://dc.lft.to/lastmile_qr_scan", "android": "https://dc.lft.to/lastmile_qr_scan"}, "lon": -77.03874633333334, "type": "electric_scooter", "fusion_lat": 0.0, "lat": 38.91705133333333, "name": "1da318c64016e1cf7866cdfb5b270f15", "fusion_lon": 0.0, "bike_id": "1da318c64016e1cf7866cdfb5b270f15", "is_disabled": 0, "is_reserved": 0}, {"rental_uris": {"ios": "https://dc.lft.to/lastmile_qr_scan", "android": "https://dc.lft.to/lastmile_qr_scan"}, "lon": -77.03439566666667, "type": "electric_scooter", "fusion_lat": 0.0, "lat": 38.903541833333335, "name": "d39f11e375b2f4805ce7081d858726ed", "fusion_lon": 0.0, "bike_id": "d39f11e375b2f4805ce7081d858726ed", "is_disabled": 0, "is_reserved": 0}, {"rental_uris": {"ios": "https://dc.lft.to/lastmile_qr_scan", "android": "https://dc.lft.to/lastmile_qr_scan"}, "lon": -77.0382805, "type": "electric_scooter", "fusion_lat": 0.0, "lat": 38.925559, "name": "e78f200c4a732b81a33f17fe52945936", "fusion_lon": 0.0, "bike_id": "e78f200c4a732b81a33f17fe52945936", "is_disabled": 0, "is_reserved": 0}, {"rental_uris": {"ios": "https://dc.lft.to/lastmile_qr_scan", "android": "https://dc.lft.to/lastmile_qr_scan"}, "lon": -77.04237483333333, "type": "electric_scooter", "fusion_lat": 0.0, "lat": 38.92436766666667, "name": "eddfe7271c047fddabdae16f18a7a004", "fusion_lon": 0.0, "bike_id": "eddfe7271c047fddabdae16f18a7a004", "is_disabled": 0, "is_reserved": 0}, {"rental_uris": {"ios": "https://dc.lft.to/lastmile_qr_scan", "android": "https://dc.lft.to/lastmile_qr_scan"}, "lon": -76.976219, "type": "electric_bike", "fusion_lat": 0.0, "lat": 38.89578516666667, "name": "0192c5bb7cef9f4d68774e00796fc12c", "fusion_lon": 0.0, "bike_id": "0192c5bb7cef9f4d68774e00796fc12c", "is_disabled": 0, "is_reserved": 0}, {"rental_uris": {"ios": "https://dc.lft.to/lastmile_qr_scan", "android": "https://dc.lft.to/lastmile_qr_scan"}, "lon": -77.03245533333333, "type": "electric_scooter", "fusion_lat": 0.0, "lat": 38.905466833333335, "name": "bc94fdb03858136678941d1f4ab2f1b4", "fusion_lon": 0.0, "bike_id": "bc94fdb03858136678941d1f4ab2f1b4", "is_disabled": 0, "is_reserved": 0}, {"rental_uris": {"ios": "https://dc.lft.to/lastmile_qr_scan", "android": "https://dc.lft.to/lastmile_qr_scan"}, "lon": -77.0121595, "type": "electric_scooter", "fusion_lat": 0.0, "lat": 38.87097983333334, "name": "bede76c043f561ce2b10c81444fdc705", "fusion_lon": 0.0, "bike_id": "bede76c043f561ce2b10c81444fdc705", "is_disabled": 0, "is_reserved": 0}, {"rental_uris": {"ios": "https://dc.lft.to/lastmile_qr_scan", "android": "https://dc.lft.to/lastmile_qr_scan"}, "lon": -77.0176185, "type": "electric_scooter", "fusion_lat": 0.0, "lat": 38.902652333333336, "name": "afc48d0c16a9dc545dbf79277e788ea2", "fusion_lon": 0.0, "bike_id": "afc48d0c16a9dc545dbf79277e788ea2", "is_disabled": 0, "is_reserved": 0}, {"rental_uris": {"ios": "https://dc.lft.to/lastmile_qr_scan", "android": "https://dc.lft.to/lastmile_qr_scan"}, "lon": -77.04389316666666, "type": "electric_scooter", "fusion_lat": 0.0, "lat": 38.91089, "name": "96755551a13fb306461101153f3fd66f", "fusion_lon": 0.0, "bike_id": "96755551a13fb306461101153f3fd66f", "is_disabled": 0, "is_reserved": 0}, {"rental_uris": {"ios": "https://dc.lft.to/lastmile_qr_scan", "android": "https://dc.lft.to/lastmile_qr_scan"}, "lon": -76.9371825, "type": "electric_scooter", "fusion_lat": 0.0, "lat": 38.895909833333334, "name": "ad05b60f1da5e74183385c34164914bb", "fusion_lon": 0.0, "bike_id": "ad05b60f1da5e74183385c34164914bb", "is_disabled": 0, "is_reserved": 0}, {"rental_uris": {"ios": "https://dc.lft.to/lastmile_qr_scan", "android": "https://dc.lft.to/lastmile_qr_scan"}, "lon": -77.00524983333334, "type": "electric_scooter", "fusion_lat": 0.0, "lat": 38.916962166666664, "name": "54c319e97af1a9531ba0e1fe67c9a968", "fusion_lon": 0.0, "bike_id": "54c319e97af1a9531ba0e1fe67c9a968", "is_disabled": 0, "is_reserved": 0}, {"rental_uris": {"ios": "https://dc.lft.to/lastmile_qr_scan", "android": "https://dc.lft.to/lastmile_qr_scan"}, "lon": -77.03445683333334, "type": "electric_scooter", "fusion_lat": 0.0, "lat": 38.909536333333335, "name": "88662396742ef496cb9b0c04297753e9", "fusion_lon": 0.0, "bike_id": "88662396742ef496cb9b0c04297753e9", "is_disabled": 0, "is_reserved": 0}, {"rental_uris": {"ios": "https://dc.lft.to/lastmile_qr_scan", "android": "https://dc.lft.to/lastmile_qr_scan"}, "lon": -77.00796783333334, "type": "electric_scooter", "fusion_lat": 0.0, "lat": 38.917018666666664, "name": "4bd63bac0b2156a8d0be94ccf52f8244", "fusion_lon": 0.0, "bike_id": "4bd63bac0b2156a8d0be94ccf52f8244", "is_disabled": 0, "is_reserved": 0}, {"rental_uris": {"ios": "https://dc.lft.to/lastmile_qr_scan", "android": "https://dc.lft.to/lastmile_qr_scan"}, "lon": -76.99780833333334, "type": "electric_scooter", "fusion_lat": 0.0, "lat": 38.844276666666666, "name": "838a2a610f307dad25ae783e9b2c6b98", "fusion_lon": 0.0, "bike_id": "838a2a610f307dad25ae783e9b2c6b98", "is_disabled": 0, "is_reserved": 0}, {"rental_uris": {"ios": "https://dc.lft.to/lastmile_qr_scan", "android": "https://dc.lft.to/lastmile_qr_scan"}, "lon": -77.02798766666666, "type": "electric_scooter", "fusion_lat": 0.0, "lat": 38.9168755, "name": "c2e3243576034e0197c05785a325b902", "fusion_lon": 0.0, "bike_id": "c2e3243576034e0197c05785a325b902", "is_disabled": 0, "is_reserved": 0}, {"rental_uris": {"ios": "https://dc.lft.to/lastmile_qr_scan", "android": "https://dc.lft.to/lastmile_qr_scan"}, "lon": -77.03290466666667, "type": "electric_scooter", "fusion_lat": 0.0, "lat": 38.95655683333333, "name": "4302a6a334b317d21bacfd81caed8bd0", "fusion_lon": 0.0, "bike_id": "4302a6a334b317d21bacfd81caed8bd0", "is_disabled": 0, "is_reserved": 0}, {"rental_uris": {"ios": "https://dc.lft.to/lastmile_qr_scan", "android": "https://dc.lft.to/lastmile_qr_scan"}, "lon": -77.09549566666666, "type": "electric_bike", "fusion_lat": 0.0, "lat": 38.83734166666667, "name": "e5bd1a54ac0b93061b550969285bfec8", "fusion_lon": 0.0, "bike_id": "e5bd1a54ac0b93061b550969285bfec8", "is_disabled": 0, "is_reserved": 0}, {"rental_uris": {"ios": "https://dc.lft.to/lastmile_qr_scan", "android": "https://dc.lft.to/lastmile_qr_scan"}, "lon": -76.9494135, "type": "electric_scooter", "fusion_lat": 0.0, "lat": 38.883238, "name": "706c72860fcfc0d8748f84ba7d1a5556", "fusion_lon": 0.0, "bike_id": "706c72860fcfc0d8748f84ba7d1a5556", "is_disabled": 0, "is_reserved": 0}, {"rental_uris": {"ios": "https://dc.lft.to/lastmile_qr_scan", "android": "https://dc.lft.to/lastmile_qr_scan"}, "lon": -77.0415435, "type": "electric_scooter", "fusion_lat": 0.0, "lat": 38.917446, "name": "a1873d0bbad3baf89021d0ea1baef4c3", "fusion_lon": 0.0, "bike_id": "a1873d0bbad3baf89021d0ea1baef4c3", "is_disabled": 0, "is_reserved": 0}, {"rental_uris": {"ios": "https://dc.lft.to/lastmile_qr_scan", "android": "https://dc.lft.to/lastmile_qr_scan"}, "lon": -76.97137933333333, "type": "electric_bike", "fusion_lat": 0.0, "lat": 38.92356016666667, "name": "7cfd1a4aa4a4e958809158fd1397908a", "fusion_lon": 0.0, "bike_id": "7cfd1a4aa4a4e958809158fd1397908a", "is_disabled": 0, "is_reserved": 0}, {"rental_uris": {"ios": "https://dc.lft.to/lastmile_qr_scan", "android": "https://dc.lft.to/lastmile_qr_scan"}, "lon": -77.00372766666666, "type": "electric_bike", "fusion_lat": 0.0, "lat": 38.8360555, "name": "e25c920e7dde77c2e7093e72e7d58dbf", "fusion_lon": 0.0, "bike_id": "e25c920e7dde77c2e7093e72e7d58dbf", "is_disabled": 0, "is_reserved": 0}, {"rental_uris": {"ios": "https://dc.lft.to/lastmile_qr_scan", "android": "https://dc.lft.to/lastmile_qr_scan"}, "lon": -77.00982733333333, "type": "electric_bike", "fusion_lat": 0.0, "lat": 38.9884335, "name": "20815f8c1d4101360673f6cfb678a4e0", "fusion_lon": 0.0, "bike_id": "20815f8c1d4101360673f6cfb678a4e0", "is_disabled": 0, "is_reserved": 0}, {"rental_uris": {"ios": "https://dc.lft.to/lastmile_qr_scan", "android": "https://dc.lft.to/lastmile_qr_scan"}, "lon": -77.03068016666667, "type": "electric_scooter", "fusion_lat": 0.0, "lat": 38.922495, "name": "6aa7ce566b38650807da540fb2940c63", "fusion_lon": 0.0, "bike_id": "6aa7ce566b38650807da540fb2940c63", "is_disabled": 0, "is_reserved": 0}, {"rental_uris": {"ios": "https://dc.lft.to/lastmile_qr_scan", "android": "https://dc.lft.to/lastmile_qr_scan"}, "lon": -77.021335, "type": "electric_scooter", "fusion_lat": 0.0, "lat": 38.9376315, "name": "655d88964c6f6fc226047389c285a2a5", "fusion_lon": 0.0, "bike_id": "655d88964c6f6fc226047389c285a2a5", "is_disabled": 0, "is_reserved": 0}, {"rental_uris": {"ios": "https://dc.lft.to/lastmile_qr_scan", "android": "https://dc.lft.to/lastmile_qr_scan"}, "lon": -77.01965916666667, "type": "electric_scooter", "fusion_lat": 0.0, "lat": 38.90129533333333, "name": "1aebc76c17521c1bfb8592691ec90728", "fusion_lon": 0.0, "bike_id": "1aebc76c17521c1bfb8592691ec90728", "is_disabled": 0, "is_reserved": 0}, {"rental_uris": {"ios": "https://dc.lft.to/lastmile_qr_scan", "android": "https://dc.lft.to/lastmile_qr_scan"}, "lon": -76.99449616666666, "type": "electric_scooter", "fusion_lat": 0.0, "lat": 38.9003005, "name": "8d1df80f3afdf43b2c9b78483c117115", "fusion_lon": 0.0, "bike_id": "8d1df80f3afdf43b2c9b78483c117115", "is_disabled": 0, "is_reserved": 0}, {"rental_uris": {"ios": "https://dc.lft.to/lastmile_qr_scan", "android": "https://dc.lft.to/lastmile_qr_scan"}, "lon": -76.94762633333333, "type": "electric_scooter", "fusion_lat": 0.0, "lat": 38.90073, "name": "375c7962bab73d6f17582bd8d30789b0", "fusion_lon": 0.0, "bike_id": "375c7962bab73d6f17582bd8d30789b0", "is_disabled": 0, "is_reserved": 0}, {"rental_uris": {"ios": "https://dc.lft.to/lastmile_qr_scan", "android": "https://dc.lft.to/lastmile_qr_scan"}, "lon": -77.02203116666666, "type": "electric_scooter", "fusion_lat": 0.0, "lat": 38.91101233333333, "name": "4232ab4a6ada55b7bd17f5203860946a", "fusion_lon": 0.0, "bike_id": "4232ab4a6ada55b7bd17f5203860946a", "is_disabled": 0, "is_reserved": 0}, {"rental_uris": {"ios": "https://dc.lft.to/lastmile_qr_scan", "android": "https://dc.lft.to/lastmile_qr_scan"}, "lon": -77.01758016666666, "type": "electric_scooter", "fusion_lat": 0.0, "lat": 38.902704, "name": "36fdec7370edff283d90f5155a08b662", "fusion_lon": 0.0, "bike_id": "36fdec7370edff283d90f5155a08b662", "is_disabled": 0, "is_reserved": 0}, {"rental_uris": {"ios": "https://dc.lft.to/lastmile_qr_scan", "android": "https://dc.lft.to/lastmile_qr_scan"}, "lon": -77.044821, "type": "electric_scooter", "fusion_lat": 0.0, "lat": 38.90763583333333, "name": "e4e89b785f01648b5e5f5ad0b5051743", "fusion_lon": 0.0, "bike_id": "e4e89b785f01648b5e5f5ad0b5051743", "is_disabled": 0, "is_reserved": 0}, {"rental_uris": {"ios": "https://dc.lft.to/lastmile_qr_scan", "android": "https://dc.lft.to/lastmile_qr_scan"}, "lon": -76.990185, "type": "electric_scooter", "fusion_lat": 0.0, "lat": 38.86106183333333, "name": "e870990c9a60908e41ea9d246a41b3c0", "fusion_lon": 0.0, "bike_id": "e870990c9a60908e41ea9d246a41b3c0", "is_disabled": 0, "is_reserved": 0}, {"rental_uris": {"ios": "https://dc.lft.to/lastmile_qr_scan", "android": "https://dc.lft.to/lastmile_qr_scan"}, "lon": -77.0238035, "type": "electric_scooter", "fusion_lat": 0.0, "lat": 38.952499, "name": "d7b330e7351f00fc585de88f8247eae0", "fusion_lon": 0.0, "bike_id": "d7b330e7351f00fc585de88f8247eae0", "is_disabled": 0, "is_reserved": 0}, {"rental_uris": {"ios": "https://dc.lft.to/lastmile_qr_scan", "android": "https://dc.lft.to/lastmile_qr_scan"}, "lon": -77.06117083333334, "type": "electric_bike", "fusion_lat": 0.0, "lat": 38.909344, "name": "6aa2c43261711676add1edafea14301f", "fusion_lon": 0.0, "bike_id": "6aa2c43261711676add1edafea14301f", "is_disabled": 0, "is_reserved": 0}, {"rental_uris": {"ios": "https://dc.lft.to/lastmile_qr_scan", "android": "https://dc.lft.to/lastmile_qr_scan"}, "lon": -76.99630483333334, "type": "electric_scooter", "fusion_lat": 0.0, "lat": 38.8462035, "name": "bd81452033d5c7e1f0a91281c78a2305", "fusion_lon": 0.0, "bike_id": "bd81452033d5c7e1f0a91281c78a2305", "is_disabled": 0, "is_reserved": 0}, {"rental_uris": {"ios": "https://dc.lft.to/lastmile_qr_scan", "android": "https://dc.lft.to/lastmile_qr_scan"}, "lon": -77.03370366666667, "type": "electric_scooter", "fusion_lat": 0.0, "lat": 38.89944583333333, "name": "001c7ac0be89947643d9f2fe1f59cfa4", "fusion_lon": 0.0, "bike_id": "001c7ac0be89947643d9f2fe1f59cfa4", "is_disabled": 0, "is_reserved": 0}, {"rental_uris": {"ios": "https://dc.lft.to/lastmile_qr_scan", "android": "https://dc.lft.to/lastmile_qr_scan"}, "lon": -76.98827266666666, "type": "electric_scooter", "fusion_lat": 0.0, "lat": 38.8802875, "name": "29bda9427fd73b856d01cba8ff69e41e", "fusion_lon": 0.0, "bike_id": "29bda9427fd73b856d01cba8ff69e41e", "is_disabled": 0, "is_reserved": 0}, {"rental_uris": {"ios": "https://dc.lft.to/lastmile_qr_scan", "android": "https://dc.lft.to/lastmile_qr_scan"}, "lon": -77.0422565, "type": "electric_scooter", "fusion_lat": 0.0, "lat": 38.91110416666667, "name": "d0ab4566a3d86b5966a02d8dca2622a0", "fusion_lon": 0.0, "bike_id": "d0ab4566a3d86b5966a02d8dca2622a0", "is_disabled": 0, "is_reserved": 0}, {"rental_uris": {"ios": "https://dc.lft.to/lastmile_qr_scan", "android": "https://dc.lft.to/lastmile_qr_scan"}, "lon": -77.03207083333334, "type": "electric_scooter", "fusion_lat": 0.0, "lat": 38.887056666666666, "name": "b01492f3a74f08755a4bdf49f66af739", "fusion_lon": 0.0, "bike_id": "b01492f3a74f08755a4bdf49f66af739", "is_disabled": 0, "is_reserved": 0}, {"rental_uris": {"ios": "https://dc.lft.to/lastmile_qr_scan", "android": "https://dc.lft.to/lastmile_qr_scan"}, "lon": -77.05132533333334, "type": "electric_bike", "fusion_lat": 0.0, "lat": 38.90711483333333, "name": "f404505a42189eb9135cf9498e673600", "fusion_lon": 0.0, "bike_id": "f404505a42189eb9135cf9498e673600", "is_disabled": 0, "is_reserved": 0}, {"rental_uris": {"ios": "https://dc.lft.to/lastmile_qr_scan", "android": "https://dc.lft.to/lastmile_qr_scan"}, "lon": -77.0270675, "type": "electric_bike", "fusion_lat": 0.0, "lat": 38.931238, "name": "085b39c031daa568f809d05a57d7d788", "fusion_lon": 0.0, "bike_id": "085b39c031daa568f809d05a57d7d788", "is_disabled": 0, "is_reserved": 0}, {"rental_uris": {"ios": "https://dc.lft.to/lastmile_qr_scan", "android": "https://dc.lft.to/lastmile_qr_scan"}, "lon": -77.010892, "type": "electric_scooter", "fusion_lat": 0.0, "lat": 38.89395716666667, "name": "c8e585f62c86cccda9a391b45598b180", "fusion_lon": 0.0, "bike_id": "c8e585f62c86cccda9a391b45598b180", "is_disabled": 0, "is_reserved": 0}, {"rental_uris": {"ios": "https://dc.lft.to/lastmile_qr_scan", "android": "https://dc.lft.to/lastmile_qr_scan"}, "lon": -77.00363283333333, "type": "electric_scooter", "fusion_lat": 0.0, "lat": 38.9071865, "name": "04a0c8119f5c92026874b3a535582228", "fusion_lon": 0.0, "bike_id": "04a0c8119f5c92026874b3a535582228", "is_disabled": 0, "is_reserved": 0}, {"rental_uris": {"ios": "https://dc.lft.to/lastmile_qr_scan", "android": "https://dc.lft.to/lastmile_qr_scan"}, "lon": -77.02712616666666, "type": "electric_scooter", "fusion_lat": 0.0, "lat": 38.906753, "name": "5ab4fa7ce98e52b5925ccd28c3c3ef58", "fusion_lon": 0.0, "bike_id": "5ab4fa7ce98e52b5925ccd28c3c3ef58", "is_disabled": 0, "is_reserved": 0}, {"rental_uris": {"ios": "https://dc.lft.to/lastmile_qr_scan", "android": "https://dc.lft.to/lastmile_qr_scan"}, "lon": -77.02481316666666, "type": "electric_scooter", "fusion_lat": 0.0, "lat": 38.90381466666667, "name": "2cfbefc515cd0259dc763b2343cf733d", "fusion_lon": 0.0, "bike_id": "2cfbefc515cd0259dc763b2343cf733d", "is_disabled": 0, "is_reserved": 0}, {"rental_uris": {"ios": "https://dc.lft.to/lastmile_qr_scan", "android": "https://dc.lft.to/lastmile_qr_scan"}, "lon": -77.05119183333333, "type": "electric_scooter", "fusion_lat": 0.0, "lat": 38.9019435, "name": "906002fda0bb5dc01842c170ddb4f657", "fusion_lon": 0.0, "bike_id": "906002fda0bb5dc01842c170ddb4f657", "is_disabled": 0, "is_reserved": 0}, {"rental_uris": {"ios": "https://dc.lft.to/lastmile_qr_scan", "android": "https://dc.lft.to/lastmile_qr_scan"}, "lon": -77.02406616666667, "type": "electric_scooter", "fusion_lat": 0.0, "lat": 38.911065, "name": "9ecb186a8b141f985630301078617d0c", "fusion_lon": 0.0, "bike_id": "9ecb186a8b141f985630301078617d0c", "is_disabled": 0, "is_reserved": 0}, {"rental_uris": {"ios": "https://dc.lft.to/lastmile_qr_scan", "android": "https://dc.lft.to/lastmile_qr_scan"}, "lon": -77.01701716666666, "type": "electric_scooter", "fusion_lat": 0.0, "lat": 38.920279666666666, "name": "b2e141c2c4e82fd8a9ab7e6f327f6193", "fusion_lon": 0.0, "bike_id": "b2e141c2c4e82fd8a9ab7e6f327f6193", "is_disabled": 0, "is_reserved": 0}, {"rental_uris": {"ios": "https://dc.lft.to/lastmile_qr_scan", "android": "https://dc.lft.to/lastmile_qr_scan"}, "lon": -77.001432, "type": "electric_scooter", "fusion_lat": 0.0, "lat": 38.899977666666665, "name": "68222ba9b6b188d0be7366f9ef209190", "fusion_lon": 0.0, "bike_id": "68222ba9b6b188d0be7366f9ef209190", "is_disabled": 0, "is_reserved": 0}, {"rental_uris": {"ios": "https://dc.lft.to/lastmile_qr_scan", "android": "https://dc.lft.to/lastmile_qr_scan"}, "lon": -77.03346166666667, "type": "electric_scooter", "fusion_lat": 0.0, "lat": 38.92880566666667, "name": "31acfaa856255c5a753ef07264a06c64", "fusion_lon": 0.0, "bike_id": "31acfaa856255c5a753ef07264a06c64", "is_disabled": 0, "is_reserved": 0}, {"rental_uris": {"ios": "https://dc.lft.to/lastmile_qr_scan", "android": "https://dc.lft.to/lastmile_qr_scan"}, "lon": -77.03912866666667, "type": "electric_scooter", "fusion_lat": 0.0, "lat": 38.921729666666664, "name": "bf56f02a597c63a7cb89463948d58a58", "fusion_lon": 0.0, "bike_id": "bf56f02a597c63a7cb89463948d58a58", "is_disabled": 0, "is_reserved": 0}, {"rental_uris": {"ios": "https://dc.lft.to/lastmile_qr_scan", "android": "https://dc.lft.to/lastmile_qr_scan"}, "lon": -77.02833916666667, "type": "electric_scooter", "fusion_lat": 0.0, "lat": 38.887698666666665, "name": "56813eb907211bc03a41a36c6929f2c3", "fusion_lon": 0.0, "bike_id": "56813eb907211bc03a41a36c6929f2c3", "is_disabled": 0, "is_reserved": 0}, {"rental_uris": {"ios": "https://dc.lft.to/lastmile_qr_scan", "android": "https://dc.lft.to/lastmile_qr_scan"}, "lon": -77.01308416666667, "type": "electric_scooter", "fusion_lat": 0.0, "lat": 38.901955, "name": "105fa2e1b33702db29f34f92fcd44564", "fusion_lon": 0.0, "bike_id": "105fa2e1b33702db29f34f92fcd44564", "is_disabled": 0, "is_reserved": 0}, {"rental_uris": {"ios": "https://dc.lft.to/lastmile_qr_scan", "android": "https://dc.lft.to/lastmile_qr_scan"}, "lon": -77.01852833333334, "type": "electric_scooter", "fusion_lat": 0.0, "lat": 38.9399745, "name": "c90226afdb667afa0100f515d092224d", "fusion_lon": 0.0, "bike_id": "c90226afdb667afa0100f515d092224d", "is_disabled": 0, "is_reserved": 0}, {"rental_uris": {"ios": "https://dc.lft.to/lastmile_qr_scan", "android": "https://dc.lft.to/lastmile_qr_scan"}, "lon": -77.03823533333333, "type": "electric_scooter", "fusion_lat": 0.0, "lat": 38.907775, "name": "af984682da442e4f33cb05cab1929777", "fusion_lon": 0.0, "bike_id": "af984682da442e4f33cb05cab1929777", "is_disabled": 0, "is_reserved": 0}, {"rental_uris": {"ios": "https://dc.lft.to/lastmile_qr_scan", "android": "https://dc.lft.to/lastmile_qr_scan"}, "lon": -77.02215466666667, "type": "electric_scooter", "fusion_lat": 0.0, "lat": 38.91554633333333, "name": "194bcce64444c19a3791f7477c70477b", "fusion_lon": 0.0, "bike_id": "194bcce64444c19a3791f7477c70477b", "is_disabled": 0, "is_reserved": 0}, {"rental_uris": {"ios": "https://dc.lft.to/lastmile_qr_scan", "android": "https://dc.lft.to/lastmile_qr_scan"}, "lon": -77.03834433333333, "type": "electric_scooter", "fusion_lat": 0.0, "lat": 38.91116383333333, "name": "b89b766f38ff29046b3afd84eb76905e", "fusion_lon": 0.0, "bike_id": "b89b766f38ff29046b3afd84eb76905e", "is_disabled": 0, "is_reserved": 0}, {"rental_uris": {"ios": "https://dc.lft.to/lastmile_qr_scan", "android": "https://dc.lft.to/lastmile_qr_scan"}, "lon": -77.057556, "type": "electric_scooter", "fusion_lat": 0.0, "lat": 38.934151666666665, "name": "115e5a2e18e7238b7ec5b624ac3db548", "fusion_lon": 0.0, "bike_id": "115e5a2e18e7238b7ec5b624ac3db548", "is_disabled": 0, "is_reserved": 0}, {"rental_uris": {"ios": "https://dc.lft.to/lastmile_qr_scan", "android": "https://dc.lft.to/lastmile_qr_scan"}, "lon": -77.0415175, "type": "electric_scooter", "fusion_lat": 0.0, "lat": 38.9233455, "name": "ba87d46bc99ddcf24a63687cbb481479", "fusion_lon": 0.0, "bike_id": "ba87d46bc99ddcf24a63687cbb481479", "is_disabled": 0, "is_reserved": 0}, {"rental_uris": {"ios": "https://dc.lft.to/lastmile_qr_scan", "android": "https://dc.lft.to/lastmile_qr_scan"}, "lon": -77.03741916666667, "type": "electric_scooter", "fusion_lat": 0.0, "lat": 38.92922733333333, "name": "1a0b5fa01b61406604bc6edf9e998738", "fusion_lon": 0.0, "bike_id": "1a0b5fa01b61406604bc6edf9e998738", "is_disabled": 0, "is_reserved": 0}, {"rental_uris": {"ios": "https://dc.lft.to/lastmile_qr_scan", "android": "https://dc.lft.to/lastmile_qr_scan"}, "lon": -77.04389083333334, "type": "electric_scooter", "fusion_lat": 0.0, "lat": 38.9108745, "name": "cab3f55f76ddc6434a30770ac23edd61", "fusion_lon": 0.0, "bike_id": "cab3f55f76ddc6434a30770ac23edd61", "is_disabled": 0, "is_reserved": 0}, {"rental_uris": {"ios": "https://dc.lft.to/lastmile_qr_scan", "android": "https://dc.lft.to/lastmile_qr_scan"}, "lon": -76.9992005, "type": "electric_scooter", "fusion_lat": 0.0, "lat": 38.90934283333333, "name": "a0ed45bca9e62faea0cbd2b3d59998a9", "fusion_lon": 0.0, "bike_id": "a0ed45bca9e62faea0cbd2b3d59998a9", "is_disabled": 0, "is_reserved": 0}, {"rental_uris": {"ios": "https://dc.lft.to/lastmile_qr_scan", "android": "https://dc.lft.to/lastmile_qr_scan"}, "lon": -77.04246516666667, "type": "electric_scooter", "fusion_lat": 0.0, "lat": 38.90556983333333, "name": "2e0bc059cfbb059605036189a09b8029", "fusion_lon": 0.0, "bike_id": "2e0bc059cfbb059605036189a09b8029", "is_disabled": 0, "is_reserved": 0}, {"rental_uris": {"ios": "https://dc.lft.to/lastmile_qr_scan", "android": "https://dc.lft.to/lastmile_qr_scan"}, "lon": -77.041084, "type": "electric_scooter", "fusion_lat": 0.0, "lat": 38.915637833333335, "name": "9e793a2c565db20c62f5b9452c502bcc", "fusion_lon": 0.0, "bike_id": "9e793a2c565db20c62f5b9452c502bcc", "is_disabled": 0, "is_reserved": 0}, {"rental_uris": {"ios": "https://dc.lft.to/lastmile_qr_scan", "android": "https://dc.lft.to/lastmile_qr_scan"}, "lon": -77.04531233333333, "type": "electric_scooter", "fusion_lat": 0.0, "lat": 38.914079, "name": "47dd94b4d56c8eb3180d8150f25a8d3c", "fusion_lon": 0.0, "bike_id": "47dd94b4d56c8eb3180d8150f25a8d3c", "is_disabled": 0, "is_reserved": 0}, {"rental_uris": {"ios": "https://dc.lft.to/lastmile_qr_scan", "android": "https://dc.lft.to/lastmile_qr_scan"}, "lon": -77.06835283333334, "type": "electric_scooter", "fusion_lat": 0.0, "lat": 38.91729383333333, "name": "10ab19ed5970e02eeb418400e7182946", "fusion_lon": 0.0, "bike_id": "10ab19ed5970e02eeb418400e7182946", "is_disabled": 0, "is_reserved": 0}, {"rental_uris": {"ios": "https://dc.lft.to/lastmile_qr_scan", "android": "https://dc.lft.to/lastmile_qr_scan"},