{"data": {"bikes": [{"bike_id": "5abd6f70a4bb32d41796b4e27adb9a8f", "type": "electric_scooter", "is_disabled": 0, "lat": 38.92862983333333, "rental_uris": {"ios": "https://dc.lft.to/lastmile_qr_scan", "android": "https://dc.lft.to/lastmile_qr_scan"}, "is_reserved": 0, "fusion_lon": 0.0, "fusion_lat": 0.0, "lon": -77.0371375, "name": "5abd6f70a4bb32d41796b4e27adb9a8f"}, {"bike_id": "df7e75f4351cff1ce282c117364d2a3f", "type": "electric_scooter", "is_disabled": 0, "lat": 38.940459, "rental_uris": {"ios": "https://dc.lft.to/lastmile_qr_scan", "android": "https://dc.lft.to/lastmile_qr_scan"}, "is_reserved": 0, "fusion_lon": 0.0, "fusion_lat": 0.0, "lon": -77.02974, "name": "df7e75f4351cff1ce282c117364d2a3f"}, {"bike_id": "fbf547c48bb2e22ca2dc247d92051cbc", "type": "electric_scooter", "is_disabled": 0, "lat": 38.922222166666664, "rental_uris": {"ios": "https://dc.lft.to/lastmile_qr_scan", "android": "https://dc.lft.to/lastmile_qr_scan"}, "is_reserved": 0, "fusion_lon": 0.0, "fusion_lat": 0.0, "lon": -77.02661933333333, "name": "fbf547c48bb2e22ca2dc247d92051cbc"}, {"bike_id": "6f6f72812812d3f739d19c4ce03a05c1", "type": "electric_scooter", "is_disabled": 0, "lat": 38.918978, "rental_uris": {"ios": "https://dc.lft.to/lastmile_qr_scan", "android": "https://dc.lft.to/lastmile_qr_scan"}, "is_reserved": 0, "fusion_lon": 0.0, "fusion_lat": 0.0, "lon": -77.00317533333333, "name": "6f6f72812812d3f739d19c4ce03a05c1"}, {"bike_id": "fd6701f5005d05aa6a59b1cf49dfa92b", "type": "electric_scooter", "is_disabled": 0, "lat": 38.902711333333336, "rental_uris": {"ios": "https://dc.lft.to/lastmile_qr_scan", "android": "https://dc.lft.to/lastmile_qr_scan"}, "is_reserved": 0, "fusion_lon": 0.0, "fusion_lat": 0.0, "lon": -77.003275, "name": "fd6701f5005d05aa6a59b1cf49dfa92b"}, {"bike_id": "51e8e3eee86665fec92435d28b41bfe2", "type": "electric_scooter", "is_disabled": 0, "lat": 38.91889716666667, "rental_uris": {"ios": "https://dc.lft.to/lastmile_qr_scan", "android": "https://dc.lft.to/lastmile_qr_scan"}, "is_reserved": 0, "fusion_lon": 0.0, "fusion_lat": 0.0, "lon": -77.0348055, "name": "51e8e3eee86665fec92435d28b41bfe2"}, {"bike_id": "2c584309f7825d5928049927734bde49", "type": "electric_scooter", "is_disabled": 0, "lat": 38.922316, "rental_uris": {"ios": "https://dc.lft.to/lastmile_qr_scan", "android": "https://dc.lft.to/lastmile_qr_scan"}, "is_reserved": 0, "fusion_lon": 0.0, "fusion_lat": 0.0, "lon": -77.04417816666667, "name": "2c584309f7825d5928049927734bde49"}, {"bike_id": "3ec2dfd6f6f7cc11329ccbcfa6decbe6", "type": "electric_scooter", "is_disabled": 0, "lat": 38.86515966666666, "rental_uris": {"ios": "https://dc.lft.to/lastmile_qr_scan", "android": "https://dc.lft.to/lastmile_qr_scan"}, "is_reserved": 0, "fusion_lon": 0.0, "fusion_lat": 0.0, "lon": -76.99016233333333, "name": "3ec2dfd6f6f7cc11329ccbcfa6decbe6"}, {"bike_id": "54048bdfb493d4ae32fe538f7e5fad32", "type": "electric_scooter", "is_disabled": 0, "lat": 38.89976766666667, "rental_uris": {"ios": "https://dc.lft.to/lastmile_qr_scan", "android": "https://dc.lft.to/lastmile_qr_scan"}, "is_reserved": 0, "fusion_lon": 0.0, "fusion_lat": 0.0, "lon": -77.02382466666667, "name": "54048bdfb493d4ae32fe538f7e5fad32"}, {"bike_id": "48de73078f512862cc576b14ff6270cc", "type": "electric_scooter", "is_disabled": 0, "lat": 38.907968, "rental_uris": {"ios": "https://dc.lft.to/lastmile_qr_scan", "android": "https://dc.lft.to/lastmile_qr_scan"}, "is_reserved": 0, "fusion_lon": 0.0, "fusion_lat": 0.0, "lon": -77.0101475, "name": "48de73078f512862cc576b14ff6270cc"}, {"bike_id": "820de1f0c2a0551f2097f287eadf2bca", "type": "electric_scooter", "is_disabled": 0, "lat": 38.923599833333334, "rental_uris": {"ios": "https://dc.lft.to/lastmile_qr_scan", "android": "https://dc.lft.to/lastmile_qr_scan"}, "is_reserved": 0, "fusion_lon": 0.0, "fusion_lat": 0.0, "lon": -77.05127, "name": "820de1f0c2a0551f2097f287eadf2bca"}, {"bike_id": "568c322d834649545cf4ab34c05fb7c3", "type": "electric_scooter", "is_disabled": 0, "lat": 38.916944666666666, "rental_uris": {"ios": "https://dc.lft.to/lastmile_qr_scan", "android": "https://dc.lft.to/lastmile_qr_scan"}, "is_reserved": 0, "fusion_lon": 0.0, "fusion_lat": 0.0, "lon": -77.01045133333334, "name": "568c322d834649545cf4ab34c05fb7c3"}, {"bike_id": "2a3267b8b69cba9a4d7a3e636624b5a3", "type": "electric_scooter", "is_disabled": 0, "lat": 38.90209816666667, "rental_uris": {"ios": "https://dc.lft.to/lastmile_qr_scan", "android": "https://dc.lft.to/lastmile_qr_scan"}, "is_reserved": 0, "fusion_lon": 0.0, "fusion_lat": 0.0, "lon": -77.0513455, "name": "2a3267b8b69cba9a4d7a3e636624b5a3"}, {"bike_id": "ec292dc0be0ab9cd9c79053a1fe7e22c", "type": "electric_scooter", "is_disabled": 0, "lat": 38.88508866666667, "rental_uris": {"ios": "https://dc.lft.to/lastmile_qr_scan", "android": "https://dc.lft.to/lastmile_qr_scan"}, "is_reserved": 0, "fusion_lon": 0.0, "fusion_lat": 0.0, "lon": -77.01715416666667, "name": "ec292dc0be0ab9cd9c79053a1fe7e22c"}, {"bike_id": "a45c3eb338b3e390d7b6da36fd615f46", "type": "electric_scooter", "is_disabled": 0, "lat": 38.905050333333335, "rental_uris": {"ios": "https://dc.lft.to/lastmile_qr_scan", "android": "https://dc.lft.to/lastmile_qr_scan"}, "is_reserved": 0, "fusion_lon": 0.0, "fusion_lat": 0.0, "lon": -77.02586, "name": "a45c3eb338b3e390d7b6da36fd615f46"}, {"bike_id": "6e25849debf4ccffb257d1cef4537078", "type": "electric_scooter", "is_disabled": 0, "lat": 38.9057445, "rental_uris": {"ios": "https://dc.lft.to/lastmile_qr_scan", "android": "https://dc.lft.to/lastmile_qr_scan"}, "is_reserved": 0, "fusion_lon": 0.0, "fusion_lat": 0.0, "lon": -77.016443, "name": "6e25849debf4ccffb257d1cef4537078"}, {"bike_id": "ec6e9b795b2f7593c8cf09d56fd07828", "type": "electric_scooter", "is_disabled": 0, "lat": 38.90022183333333, "rental_uris": {"ios": "https://dc.lft.to/lastmile_qr_scan", "android": "https://dc.lft.to/lastmile_qr_scan"}, "is_reserved": 0, "fusion_lon": 0.0, "fusion_lat": 0.0, "lon": -77.01191116666666, "name": "ec6e9b795b2f7593c8cf09d56fd07828"}, {"bike_id": "d66a01d799acf18dd45087532de499a5", "type": "electric_scooter", "is_disabled": 0, "lat": 38.883892333333336, "rental_uris": {"ios": "https://dc.lft.to/lastmile_qr_scan", "android": "https://dc.lft.to/lastmile_qr_scan"}, "is_reserved": 0, "fusion_lon": 0.0, "fusion_lat": 0.0, "lon": -76.95449466666666, "name": "d66a01d799acf18dd45087532de499a5"}, {"bike_id": "6e935288e073ef17e7d9bff964d57858", "type": "electric_scooter", "is_disabled": 0, "lat": 38.903578833333334, "rental_uris": {"ios": "https://dc.lft.to/lastmile_qr_scan", "android": "https://dc.lft.to/lastmile_qr_scan"}, "is_reserved": 0, "fusion_lon": 0.0, "fusion_lat": 0.0, "lon": -77.02695416666667, "name": "6e935288e073ef17e7d9bff964d57858"}, {"bike_id": "759c98c17840100d7d835b5a849230c3", "type": "electric_bike", "is_disabled": 0, "lat": 38.796078, "rental_uris": {"ios": "https://dc.lft.to/lastmile_qr_scan", "android": "https://dc.lft.to/lastmile_qr_scan"}, "is_reserved": 0, "fusion_lon": 0.0, "fusion_lat": 0.0, "lon": -76.997399, "name": "759c98c17840100d7d835b5a849230c3"}, {"bike_id": "97599e3a8341e2e986d9c8163250b40b", "type": "electric_scooter", "is_disabled": 0, "lat": 38.9070955, "rental_uris": {"ios": "https://dc.lft.to/lastmile_qr_scan", "android": "https://dc.lft.to/lastmile_qr_scan"}, "is_reserved": 0, "fusion_lon": 0.0, "fusion_lat": 0.0, "lon": -77.04168066666666, "name": "97599e3a8341e2e986d9c8163250b40b"}, {"bike_id": "ee00e6f8c6d0030a97503e3c2f01710d", "type": "electric_scooter", "is_disabled": 0, "lat": 38.9245315, "rental_uris": {"ios": "https://dc.lft.to/lastmile_qr_scan", "android": "https://dc.lft.to/lastmile_qr_scan"}, "is_reserved": 0, "fusion_lon": 0.0, "fusion_lat": 0.0, "lon": -77.03340316666667, "name": "ee00e6f8c6d0030a97503e3c2f01710d"}, {"bike_id": "0e7409cf9fa7efbc8a9283e7071e16fa", "type": "electric_scooter", "is_disabled": 0, "lat": 38.888873333333336, "rental_uris": {"ios": "https://dc.lft.to/lastmile_qr_scan", "android": "https://dc.lft.to/lastmile_qr_scan"}, "is_reserved": 0, "fusion_lon": 0.0, "fusion_lat": 0.0, "lon": -76.94780533333333, "name": "0e7409cf9fa7efbc8a9283e7071e16fa"}, {"bike_id": "5e52c3fecedf5a50bf25a620796f46b1", "type": "electric_scooter", "is_disabled": 0, "lat": 38.88679283333333, "rental_uris": {"ios": "https://dc.lft.to/lastmile_qr_scan", "android": "https://dc.lft.to/lastmile_qr_scan"}, "is_reserved": 0, "fusion_lon": 0.0, "fusion_lat": 0.0, "lon": -76.9914555, "name": "5e52c3fecedf5a50bf25a620796f46b1"}, {"bike_id": "d78f312387c43be278f7f31ef85b702e", "type": "electric_scooter", "is_disabled": 0, "lat": 38.912011166666666, "rental_uris": {"ios": "https://dc.lft.to/lastmile_qr_scan", "android": "https://dc.lft.to/lastmile_qr_scan"}, "is_reserved": 0, "fusion_lon": 0.0, "fusion_lat": 0.0, "lon": -77.03853283333333, "name": "d78f312387c43be278f7f31ef85b702e"}, {"bike_id": "287a3f54e230a530ab32342782dece8d", "type": "electric_scooter", "is_disabled": 0, "lat": 38.88519066666667, "rental_uris": {"ios": "https://dc.lft.to/lastmile_qr_scan", "android": "https://dc.lft.to/lastmile_qr_scan"}, "is_reserved": 0, "fusion_lon": 0.0, "fusion_lat": 0.0, "lon": -77.02824116666666, "name": "287a3f54e230a530ab32342782dece8d"}, {"bike_id": "73014c366f0a5765fb2240e18075e572", "type": "electric_scooter", "is_disabled": 0, "lat": 38.9234475, "rental_uris": {"ios": "https://dc.lft.to/lastmile_qr_scan", "android": "https://dc.lft.to/lastmile_qr_scan"}, "is_reserved": 0, "fusion_lon": 0.0, "fusion_lat": 0.0, "lon": -77.05049533333333, "name": "73014c366f0a5765fb2240e18075e572"}, {"bike_id": "ae87681ed7fd71a5435f4ac5cbe33b29", "type": "electric_scooter", "is_disabled": 0, "lat": 38.865102666666665, "rental_uris": {"ios": "https://dc.lft.to/lastmile_qr_scan", "android": "https://dc.lft.to/lastmile_qr_scan"}, "is_reserved": 0, "fusion_lon": 0.0, "fusion_lat": 0.0, "lon": -76.97413666666667, "name": "ae87681ed7fd71a5435f4ac5cbe33b29"}, {"bike_id": "0cba7af860377a8f7cbbff910309b367", "type": "electric_scooter", "is_disabled": 0, "lat": 38.899993, "rental_uris": {"ios": "https://dc.lft.to/lastmile_qr_scan", "android": "https://dc.lft.to/lastmile_qr_scan"}, "is_reserved": 0, "fusion_lon": 0.0, "fusion_lat": 0.0, "lon": -77.00661733333334, "name": "0cba7af860377a8f7cbbff910309b367"}, {"bike_id": "26ea67e680e08ca0fdd8a5d762a1cc64", "type": "electric_bike", "is_disabled": 0, "lat": 38.95622, "rental_uris": {"ios": "https://dc.lft.to/lastmile_qr_scan", "android": "https://dc.lft.to/lastmile_qr_scan"}, "is_reserved": 0, "fusion_lon": 0.0, "fusion_lat": 0.0, "lon": -77.02590133333334, "name": "26ea67e680e08ca0fdd8a5d762a1cc64"}, {"bike_id": "71ef6a354d07278b219ac04d5fe9520f", "type": "electric_scooter", "is_disabled": 0, "lat": 38.919185, "rental_uris": {"ios": "https://dc.lft.to/lastmile_qr_scan", "android": "https://dc.lft.to/lastmile_qr_scan"}, "is_reserved": 0, "fusion_lon": 0.0, "fusion_lat": 0.0, "lon": -77.07872466666667, "name": "71ef6a354d07278b219ac04d5fe9520f"}, {"bike_id": "c9adb16ea939eeefd3d42239e06bb152", "type": "electric_scooter", "is_disabled": 0, "lat": 38.87101033333333, "rental_uris": {"ios": "https://dc.lft.to/lastmile_qr_scan", "android": "https://dc.lft.to/lastmile_qr_scan"}, "is_reserved": 0, "fusion_lon": 0.0, "fusion_lat": 0.0, "lon": -77.00802933333334, "name": "c9adb16ea939eeefd3d42239e06bb152"}, {"bike_id": "bb5c34224aec12a31f8289decff1cd16", "type": "electric_scooter", "is_disabled": 0, "lat": 38.921300333333335, "rental_uris": {"ios": "https://dc.lft.to/lastmile_qr_scan", "android": "https://dc.lft.to/lastmile_qr_scan"}, "is_reserved": 0, "fusion_lon": 0.0, "fusion_lat": 0.0, "lon": -77.044177, "name": "bb5c34224aec12a31f8289decff1cd16"}, {"bike_id": "75f40ab9c1e6c7eadff76c497091751c", "type": "electric_scooter", "is_disabled": 0, "lat": 38.94112883333333, "rental_uris": {"ios": "https://dc.lft.to/lastmile_qr_scan", "android": "https://dc.lft.to/lastmile_qr_scan"}, "is_reserved": 0, "fusion_lon": 0.0, "fusion_lat": 0.0, "lon": -77.02544516666667, "name": "75f40ab9c1e6c7eadff76c497091751c"}, {"bike_id": "0e81905c96722f89077c360c3e0059fa", "type": "electric_scooter", "is_disabled": 0, "lat": 38.87156, "rental_uris": {"ios": "https://dc.lft.to/lastmile_qr_scan", "android": "https://dc.lft.to/lastmile_qr_scan"}, "is_reserved": 0, "fusion_lon": 0.0, "fusion_lat": 0.0, "lon": -76.9774585, "name": "0e81905c96722f89077c360c3e0059fa"}, {"bike_id": "6d9c9f8b0c0cbd2b567853688463eb53", "type": "electric_scooter", "is_disabled": 0, "lat": 38.910404, "rental_uris": {"ios": "https://dc.lft.to/lastmile_qr_scan", "android": "https://dc.lft.to/lastmile_qr_scan"}, "is_reserved": 0, "fusion_lon": 0.0, "fusion_lat": 0.0, "lon": -77.01285816666666, "name": "6d9c9f8b0c0cbd2b567853688463eb53"}, {"bike_id": "676f1f0fc416524bd42d67142ba225bc", "type": "electric_scooter", "is_disabled": 0, "lat": 38.904839333333335, "rental_uris": {"ios": "https://dc.lft.to/lastmile_qr_scan", "android": "https://dc.lft.to/lastmile_qr_scan"}, "is_reserved": 0, "fusion_lon": 0.0, "fusion_lat": 0.0, "lon": -77.041019, "name": "676f1f0fc416524bd42d67142ba225bc"}, {"bike_id": "dded936bec0e54860049930fc1d110d7", "type": "electric_scooter", "is_disabled": 0, "lat": 38.936120333333335, "rental_uris": {"ios": "https://dc.lft.to/lastmile_qr_scan", "android": "https://dc.lft.to/lastmile_qr_scan"}, "is_reserved": 0, "fusion_lon": 0.0, "fusion_lat": 0.0, "lon": -77.03786716666667, "name": "dded936bec0e54860049930fc1d110d7"}, {"bike_id": "2495140edb8c60e5280c3aa4f2a576b6", "type": "electric_scooter", "is_disabled": 0, "lat": 38.90492583333333, "rental_uris": {"ios": "https://dc.lft.to/lastmile_qr_scan", "android": "https://dc.lft.to/lastmile_qr_scan"}, "is_reserved": 0, "fusion_lon": 0.0, "fusion_lat": 0.0, "lon": -76.949533, "name": "2495140edb8c60e5280c3aa4f2a576b6"}, {"bike_id": "e0e9600c8e98afdacf8ce35d0496dcaf", "type": "electric_scooter", "is_disabled": 0, "lat": 38.928656833333335, "rental_uris": {"ios": "https://dc.lft.to/lastmile_qr_scan", "android": "https://dc.lft.to/lastmile_qr_scan"}, "is_reserved": 0, "fusion_lon": 0.0, "fusion_lat": 0.0, "lon": -77.0141435, "name": "e0e9600c8e98afdacf8ce35d0496dcaf"}, {"bike_id": "cdaea24cc888f668dd87aa1d874b0e6d", "type": "electric_scooter", "is_disabled": 0, "lat": 38.92852, "rental_uris": {"ios": "https://dc.lft.to/lastmile_qr_scan", "android": "https://dc.lft.to/lastmile_qr_scan"}, "is_reserved": 0, "fusion_lon": 0.0, "fusion_lat": 0.0, "lon": -77.01950233333334, "name": "cdaea24cc888f668dd87aa1d874b0e6d"}, {"bike_id": "204ed6948d2da3b12eb90159c6e5b7f0", "type": "electric_bike", "is_disabled": 0, "lat": 38.95175483333333, "rental_uris": {"ios": "https://dc.lft.to/lastmile_qr_scan", "android": "https://dc.lft.to/lastmile_qr_scan"}, "is_reserved": 0, "fusion_lon": 0.0, "fusion_lat": 0.0, "lon": -76.9772975, "name": "204ed6948d2da3b12eb90159c6e5b7f0"}, {"bike_id": "1854ba9501c9cac085308565c35b07bd", "type": "electric_scooter", "is_disabled": 0, "lat": 38.92659283333333, "rental_uris": {"ios": "https://dc.lft.to/lastmile_qr_scan", "android": "https://dc.lft.to/lastmile_qr_scan"}, "is_reserved": 0, "fusion_lon": 0.0, "fusion_lat": 0.0, "lon": -77.03725083333333, "name": "1854ba9501c9cac085308565c35b07bd"}, {"bike_id": "026dc032fdc5a0160a7429ee525bb3d1", "type": "electric_scooter", "is_disabled": 0, "lat": 38.9182255, "rental_uris": {"ios": "https://dc.lft.to/lastmile_qr_scan", "android": "https://dc.lft.to/lastmile_qr_scan"}, "is_reserved": 0, "fusion_lon": 0.0, "fusion_lat": 0.0, "lon": -77.04947266666667, "name": "026dc032fdc5a0160a7429ee525bb3d1"}, {"bike_id": "9d87588f3327f065869bfcd42eb1acdf", "type": "electric_scooter", "is_disabled": 0, "lat": 38.92156, "rental_uris": {"ios": "https://dc.lft.to/lastmile_qr_scan", "android": "https://dc.lft.to/lastmile_qr_scan"}, "is_reserved": 0, "fusion_lon": 0.0, "fusion_lat": 0.0, "lon": -77.03869733333333, "name": "9d87588f3327f065869bfcd42eb1acdf"}, {"bike_id": "f6167b4ea5a82896ae4b890239e5b939", "type": "electric_scooter", "is_disabled": 0, "lat": 38.860065666666664, "rental_uris": {"ios": "https://dc.lft.to/lastmile_qr_scan", "android": "https://dc.lft.to/lastmile_qr_scan"}, "is_reserved": 0, "fusion_lon": 0.0, "fusion_lat": 0.0, "lon": -76.98522666666666, "name": "f6167b4ea5a82896ae4b890239e5b939"}, {"bike_id": "c39c6799536f0eaa107178f0c07b28b3", "type": "electric_scooter", "is_disabled": 0, "lat": 38.922154166666665, "rental_uris": {"ios": "https://dc.lft.to/lastmile_qr_scan", "android": "https://dc.lft.to/lastmile_qr_scan"}, "is_reserved": 0, "fusion_lon": 0.0, "fusion_lat": 0.0, "lon": -77.03292283333333, "name": "c39c6799536f0eaa107178f0c07b28b3"}, {"bike_id": "41fae2f7173d15b30bb529d7c2c3e21e", "type": "electric_scooter", "is_disabled": 0, "lat": 38.90862216666667, "rental_uris": {"ios": "https://dc.lft.to/lastmile_qr_scan", "android": "https://dc.lft.to/lastmile_qr_scan"}, "is_reserved": 0, "fusion_lon": 0.0, "fusion_lat": 0.0, "lon": -77.00301616666667, "name": "41fae2f7173d15b30bb529d7c2c3e21e"}, {"bike_id": "9b8bd6dfaa87f6f264967808dfe8daa5", "type": "electric_scooter", "is_disabled": 0, "lat": 38.9059365, "rental_uris": {"ios": "https://dc.lft.to/lastmile_qr_scan", "android": "https://dc.lft.to/lastmile_qr_scan"}, "is_reserved": 0, "fusion_lon": 0.0, "fusion_lat": 0.0, "lon": -77.07013333333333, "name": "9b8bd6dfaa87f6f264967808dfe8daa5"}, {"bike_id": "302b63dfa43992ed697eb2a24927bb30", "type": "electric_scooter", "is_disabled": 0, "lat": 38.891934666666664, "rental_uris": {"ios": "https://dc.lft.to/lastmile_qr_scan", "android": "https://dc.lft.to/lastmile_qr_scan"}, "is_reserved": 0, "fusion_lon": 0.0, "fusion_lat": 0.0, "lon": -77.02978716666667, "name": "302b63dfa43992ed697eb2a24927bb30"}, {"bike_id": "8e3517fba248ed386298dec93828892d", "type": "electric_scooter", "is_disabled": 0, "lat": 38.90858083333333, "rental_uris": {"ios": "https://dc.lft.to/lastmile_qr_scan", "android": "https://dc.lft.to/lastmile_qr_scan"}, "is_reserved": 0, "fusion_lon": 0.0, "fusion_lat": 0.0, "lon": -76.99963433333333, "name": "8e3517fba248ed386298dec93828892d"}, {"bike_id": "0fe84878137b4c5eea592dc4328b40d6", "type": "electric_scooter", "is_disabled": 0, "lat": 38.91920733333333, "rental_uris": {"ios": "https://dc.lft.to/lastmile_qr_scan", "android": "https://dc.lft.to/lastmile_qr_scan"}, "is_reserved": 0, "fusion_lon": 0.0, "fusion_lat": 0.0, "lon": -77.03365316666667, "name": "0fe84878137b4c5eea592dc4328b40d6"}, {"bike_id": "29be97534c101f0646005965e656715d", "type": "electric_scooter", "is_disabled": 0, "lat": 38.919347333333334, "rental_uris": {"ios": "https://dc.lft.to/lastmile_qr_scan", "android": "https://dc.lft.to/lastmile_qr_scan"}, "is_reserved": 0, "fusion_lon": 0.0, "fusion_lat": 0.0, "lon": -77.02492716666667, "name": "29be97534c101f0646005965e656715d"}, {"bike_id": "eb54e69db83ac4e57f5c7ad134e857ae", "type": "electric_scooter", "is_disabled": 0, "lat": 38.931024666666666, "rental_uris": {"ios": "https://dc.lft.to/lastmile_qr_scan", "android": "https://dc.lft.to/lastmile_qr_scan"}, "is_reserved": 0, "fusion_lon": 0.0, "fusion_lat": 0.0, "lon": -77.024735, "name": "eb54e69db83ac4e57f5c7ad134e857ae"}, {"bike_id": "9da857bac36bf9754b347f8caf3b4a04", "type": "electric_scooter", "is_disabled": 0, "lat": 38.91930716666667, "rental_uris": {"ios": "https://dc.lft.to/lastmile_qr_scan", "android": "https://dc.lft.to/lastmile_qr_scan"}, "is_reserved": 0, "fusion_lon": 0.0, "fusion_lat": 0.0, "lon": -77.0461435, "name": "9da857bac36bf9754b347f8caf3b4a04"}, {"bike_id": "cb1dbd1817bdf0d3a6d396ed103769d2", "type": "electric_scooter", "is_disabled": 0, "lat": 38.88993116666666, "rental_uris": {"ios": "https://dc.lft.to/lastmile_qr_scan", "android": "https://dc.lft.to/lastmile_qr_scan"}, "is_reserved": 0, "fusion_lon": 0.0, "fusion_lat": 0.0, "lon": -77.000382, "name": "cb1dbd1817bdf0d3a6d396ed103769d2"}, {"bike_id": "7000b31930af397d8ee907cc6db1d249", "type": "electric_scooter", "is_disabled": 0, "lat": 38.90852983333333, "rental_uris": {"ios": "https://dc.lft.to/lastmile_qr_scan", "android": "https://dc.lft.to/lastmile_qr_scan"}, "is_reserved": 0, "fusion_lon": 0.0, "fusion_lat": 0.0, "lon": -77.01970083333333, "name": "7000b31930af397d8ee907cc6db1d249"}, {"bike_id": "30b0a8ad95f3caaa1e587d7e2b050c50", "type": "electric_scooter", "is_disabled": 0, "lat": 38.908295, "rental_uris": {"ios": "https://dc.lft.to/lastmile_qr_scan", "android": "https://dc.lft.to/lastmile_qr_scan"}, "is_reserved": 0, "fusion_lon": 0.0, "fusion_lat": 0.0, "lon": -76.9344735, "name": "30b0a8ad95f3caaa1e587d7e2b050c50"}, {"bike_id": "414723498b65e09f790f13771ab4c5d4", "type": "electric_scooter", "is_disabled": 0, "lat": 38.919148166666666, "rental_uris": {"ios": "https://dc.lft.to/lastmile_qr_scan", "android": "https://dc.lft.to/lastmile_qr_scan"}, "is_reserved": 0, "fusion_lon": 0.0, "fusion_lat": 0.0, "lon": -77.03416033333333, "name": "414723498b65e09f790f13771ab4c5d4"}, {"bike_id": "bc92debae553ebe867efa26d38d624cf", "type": "electric_scooter", "is_disabled": 0, "lat": 38.91059333333333, "rental_uris": {"ios": "https://dc.lft.to/lastmile_qr_scan", "android": "https://dc.lft.to/lastmile_qr_scan"}, "is_reserved": 0, "fusion_lon": 0.0, "fusion_lat": 0.0, "lon": -77.02177366666666, "name": "bc92debae553ebe867efa26d38d624cf"}, {"bike_id": "b1f560413fc7317637cd789b92711d5e", "type": "electric_scooter", "is_disabled": 0, "lat": 38.86508216666667, "rental_uris": {"ios": "https://dc.lft.to/lastmile_qr_scan", "android": "https://dc.lft.to/lastmile_qr_scan"}, "is_reserved": 0, "fusion_lon": 0.0, "fusion_lat": 0.0, "lon": -76.99002316666666, "name": "b1f560413fc7317637cd789b92711d5e"}, {"bike_id": "f75fb5b6e4ce849a537a5749a2bd9792", "type": "electric_bike", "is_disabled": 0, "lat": 38.8535545, "rental_uris": {"ios": "https://dc.lft.to/lastmile_qr_scan", "android": "https://dc.lft.to/lastmile_qr_scan"}, "is_reserved": 0, "fusion_lon": 0.0, "fusion_lat": 0.0, "lon": -77.0868625, "name": "f75fb5b6e4ce849a537a5749a2bd9792"}, {"bike_id": "a34e2b52cfe43c5bb912b3afceecf9ab", "type": "electric_bike", "is_disabled": 0, "lat": 38.949213, "rental_uris": {"ios": "https://dc.lft.to/lastmile_qr_scan", "android": "https://dc.lft.to/lastmile_qr_scan"}, "is_reserved": 0, "fusion_lon": 0.0, "fusion_lat": 0.0, "lon": -77.00792883333334, "name": "a34e2b52cfe43c5bb912b3afceecf9ab"}, {"bike_id": "9bff2b22d1868144847c6e21bdab1be8", "type": "electric_scooter", "is_disabled": 0, "lat": 38.9354675, "rental_uris": {"ios": "https://dc.lft.to/lastmile_qr_scan", "android": "https://dc.lft.to/lastmile_qr_scan"}, "is_reserved": 0, "fusion_lon": 0.0, "fusion_lat": 0.0, "lon": -77.05831366666666, "name": "9bff2b22d1868144847c6e21bdab1be8"}, {"bike_id": "6f38bbb75150e07683e64bf912b2453b", "type": "electric_scooter", "is_disabled": 0, "lat": 38.905561, "rental_uris": {"ios": "https://dc.lft.to/lastmile_qr_scan", "android": "https://dc.lft.to/lastmile_qr_scan"}, "is_reserved": 0, "fusion_lon": 0.0, "fusion_lat": 0.0, "lon": -77.05008983333333, "name": "6f38bbb75150e07683e64bf912b2453b"}, {"bike_id": "e46c69c1fd7a4710aca9563c2be7be2b", "type": "electric_scooter", "is_disabled": 0, "lat": 38.931872166666665, "rental_uris": {"ios": "https://dc.lft.to/lastmile_qr_scan", "android": "https://dc.lft.to/lastmile_qr_scan"}, "is_reserved": 0, "fusion_lon": 0.0, "fusion_lat": 0.0, "lon": -77.0253955, "name": "e46c69c1fd7a4710aca9563c2be7be2b"}, {"bike_id": "bb34cfdd70c268d727076c53488690bd", "type": "electric_scooter", "is_disabled": 0, "lat": 38.89336183333333, "rental_uris": {"ios": "https://dc.lft.to/lastmile_qr_scan", "android": "https://dc.lft.to/lastmile_qr_scan"}, "is_reserved": 0, "fusion_lon": 0.0, "fusion_lat": 0.0, "lon": -77.0241755, "name": "bb34cfdd70c268d727076c53488690bd"}, {"bike_id": "a77d44fcac1916235110b59be5812a0f", "type": "electric_bike", "is_disabled": 0, "lat": 38.95249966666667, "rental_uris": {"ios": "https://dc.lft.to/lastmile_qr_scan", "android": "https://dc.lft.to/lastmile_qr_scan"}, "is_reserved": 0, "fusion_lon": 0.0, "fusion_lat": 0.0, "lon": -76.97674533333333, "name": "a77d44fcac1916235110b59be5812a0f"}, {"bike_id": "9e9586a8a958c9cd196b4e52f7df3193", "type": "electric_scooter", "is_disabled": 0, "lat": 38.938737833333334, "rental_uris": {"ios": "https://dc.lft.to/lastmile_qr_scan", "android": "https://dc.lft.to/lastmile_qr_scan"}, "is_reserved": 0, "fusion_lon": 0.0, "fusion_lat": 0.0, "lon": -77.02920016666667, "name": "9e9586a8a958c9cd196b4e52f7df3193"}, {"bike_id": "84e2051266fd28db3bf7696b7a1c355f", "type": "electric_scooter", "is_disabled": 0, "lat": 38.906702833333334, "rental_uris": {"ios": "https://dc.lft.to/lastmile_qr_scan", "android": "https://dc.lft.to/lastmile_qr_scan"}, "is_reserved": 0, "fusion_lon": 0.0, "fusion_lat": 0.0, "lon": -77.0099435, "name": "84e2051266fd28db3bf7696b7a1c355f"}, {"bike_id": "a22ab71311942089951fc2ef82ba4768", "type": "electric_scooter", "is_disabled": 0, "lat": 38.911149, "rental_uris": {"ios": "https://dc.lft.to/lastmile_qr_scan", "android": "https://dc.lft.to/lastmile_qr_scan"}, "is_reserved": 0, "fusion_lon": 0.0, "fusion_lat": 0.0, "lon": -77.0391565, "name": "a22ab71311942089951fc2ef82ba4768"}, {"bike_id": "8457be97669bcda633c58fe12c1b8aca", "type": "electric_scooter", "is_disabled": 0, "lat": 38.935282666666666, "rental_uris": {"ios": "https://dc.lft.to/lastmile_qr_scan", "android": "https://dc.lft.to/lastmile_qr_scan"}, "is_reserved": 0, "fusion_lon": 0.0, "fusion_lat": 0.0, "lon": -77.02962466666666, "name": "8457be97669bcda633c58fe12c1b8aca"}, {"bike_id": "ce4c22d37fca8395a55a13f0b084052e", "type": "electric_scooter", "is_disabled": 0, "lat": 38.9057065, "rental_uris": {"ios": "https://dc.lft.to/lastmile_qr_scan", "android": "https://dc.lft.to/lastmile_qr_scan"}, "is_reserved": 0, "fusion_lon": 0.0, "fusion_lat": 0.0, "lon": -76.976209, "name": "ce4c22d37fca8395a55a13f0b084052e"}, {"bike_id": "3192e11234d04255051e8326e97721b3", "type": "electric_scooter", "is_disabled": 0, "lat": 38.9090305, "rental_uris": {"ios": "https://dc.lft.to/lastmile_qr_scan", "android": "https://dc.lft.to/lastmile_qr_scan"}, "is_reserved": 0, "fusion_lon": 0.0, "fusion_lat": 0.0, "lon": -77.04489566666666, "name": "3192e11234d04255051e8326e97721b3"}, {"bike_id": "9081e49faeed5009e98dd3f3da50896f", "type": "electric_scooter", "is_disabled": 0, "lat": 38.91690916666667, "rental_uris": {"ios": "https://dc.lft.to/lastmile_qr_scan", "android": "https://dc.lft.to/lastmile_qr_scan"}, "is_reserved": 0, "fusion_lon": 0.0, "fusion_lat": 0.0, "lon": -77.0318295, "name": "9081e49faeed5009e98dd3f3da50896f"}, {"bike_id": "c99f69c6d5c26dfe8e7037d9b405feb2", "type": "electric_scooter", "is_disabled": 0, "lat": 38.91562116666667, "rental_uris": {"ios": "https://dc.lft.to/lastmile_qr_scan", "android": "https://dc.lft.to/lastmile_qr_scan"}, "is_reserved": 0, "fusion_lon": 0.0, "fusion_lat": 0.0, "lon": -77.03166783333333, "name": "c99f69c6d5c26dfe8e7037d9b405feb2"}, {"bike_id": "fc737b36a10123fa7afc4742067743a6", "type": "electric_scooter", "is_disabled": 0, "lat": 38.90253716666667, "rental_uris": {"ios": "https://dc.lft.to/lastmile_qr_scan", "android": "https://dc.lft.to/lastmile_qr_scan"}, "is_reserved": 0, "fusion_lon": 0.0, "fusion_lat": 0.0, "lon": -77.01868766666666, "name": "fc737b36a10123fa7afc4742067743a6"}, {"bike_id": "23d72f44fdcd493262e81e4711d2190b", "type": "electric_scooter", "is_disabled": 0, "lat": 38.87081416666667, "rental_uris": {"ios": "https://dc.lft.to/lastmile_qr_scan", "android": "https://dc.lft.to/lastmile_qr_scan"}, "is_reserved": 0, "fusion_lon": 0.0, "fusion_lat": 0.0, "lon": -77.01212616666666, "name": "23d72f44fdcd493262e81e4711d2190b"}, {"bike_id": "00282fd8d550095158b72d129e62797b", "type": "electric_scooter", "is_disabled": 0, "lat": 38.911261, "rental_uris": {"ios": "https://dc.lft.to/lastmile_qr_scan", "android": "https://dc.lft.to/lastmile_qr_scan"}, "is_reserved": 0, "fusion_lon": 0.0, "fusion_lat": 0.0, "lon": -77.038274, "name": "00282fd8d550095158b72d129e62797b"}, {"bike_id": "82ff11519a9ae29b5772360b5808ae15", "type": "electric_scooter", "is_disabled": 0, "lat": 38.907326833333336, "rental_uris": {"ios": "https://dc.lft.to/lastmile_qr_scan", "android": "https://dc.lft.to/lastmile_qr_scan"}, "is_reserved": 0, "fusion_lon": 0.0, "fusion_lat": 0.0, "lon": -77.02945, "name": "82ff11519a9ae29b5772360b5808ae15"}, {"bike_id": "04d60d496833282cc553d588b5b43db9", "type": "electric_scooter", "is_disabled": 0, "lat": 38.922664, "rental_uris": {"ios": "https://dc.lft.to/lastmile_qr_scan", "android": "https://dc.lft.to/lastmile_qr_scan"}, "is_reserved": 0, "fusion_lon": 0.0, "fusion_lat": 0.0, "lon": -77.03279033333334, "name": "04d60d496833282cc553d588b5b43db9"}, {"bike_id": "61766733c07158edae3ba4f0682edd4c", "type": "electric_scooter", "is_disabled": 0, "lat": 38.884069833333335, "rental_uris": {"ios": "https://dc.lft.to/lastmile_qr_scan", "android": "https://dc.lft.to/lastmile_qr_scan"}, "is_reserved": 0, "fusion_lon": 0.0, "fusion_lat": 0.0, "lon": -76.95392216666667, "name": "61766733c07158edae3ba4f0682edd4c"}, {"bike_id": "f2871e89ae0abfde637518ad73adbb67", "type": "electric_bike", "is_disabled": 0, "lat": 38.908364666666664, "rental_uris": {"ios": "https://dc.lft.to/lastmile_qr_scan", "android": "https://dc.lft.to/lastmile_qr_scan"}, "is_reserved": 0, "fusion_lon": 0.0, "fusion_lat": 0.0, "lon": -76.93311233333333, "name": "f2871e89ae0abfde637518ad73adbb67"}, {"bike_id": "99184427c9471da82d2832816ba7a913", "type": "electric_scooter", "is_disabled": 0, "lat": 38.9421245, "rental_uris": {"ios": "https://dc.lft.to/lastmile_qr_scan", "android": "https://dc.lft.to/lastmile_qr_scan"}, "is_reserved": 0, "fusion_lon": 0.0, "fusion_lat": 0.0, "lon": -77.0258015, "name": "99184427c9471da82d2832816ba7a913"}, {"bike_id": "6dcdf306752a248e143146c4e73ca534", "type": "electric_scooter", "is_disabled": 0, "lat": 38.90325033333333, "rental_uris": {"ios": "https://dc.lft.to/lastmile_qr_scan", "android": "https://dc.lft.to/lastmile_qr_scan"}, "is_reserved": 0, "fusion_lon": 0.0, "fusion_lat": 0.0, "lon": -76.99423366666667, "name": "6dcdf306752a248e143146c4e73ca534"}, {"bike_id": "8622678c72b8c020a97f5b5d7e1d9c7b", "type": "electric_scooter", "is_disabled": 0, "lat": 38.90606233333333, "rental_uris": {"ios": "https://dc.lft.to/lastmile_qr_scan", "android": "https://dc.lft.to/lastmile_qr_scan"}, "is_reserved": 0, "fusion_lon": 0.0, "fusion_lat": 0.0, "lon": -77.012095, "name": "8622678c72b8c020a97f5b5d7e1d9c7b"}, {"bike_id": "a897ee1700f33f55f14c0259a231d904", "type": "electric_scooter", "is_disabled": 0, "lat": 38.91775883333333, "rental_uris": {"ios": "https://dc.lft.to/lastmile_qr_scan", "android": "https://dc.lft.to/lastmile_qr_scan"}, "is_reserved": 0, "fusion_lon": 0.0, "fusion_lat": 0.0, "lon": -77.01505616666667, "name": "a897ee1700f33f55f14c0259a231d904"}, {"bike_id": "765ed860829e327912a301dfd8d4e9db", "type": "electric_scooter", "is_disabled": 0, "lat": 38.89537416666667, "rental_uris": {"ios": "https://dc.lft.to/lastmile_qr_scan", "android": "https://dc.lft.to/lastmile_qr_scan"}, "is_reserved": 0, "fusion_lon": 0.0, "fusion_lat": 0.0, "lon": -77.01106, "name": "765ed860829e327912a301dfd8d4e9db"}, {"bike_id": "76571ab4cec7794be2ceaf39a9a16bf7", "type": "electric_scooter", "is_disabled": 0, "lat": 38.9411025, "rental_uris": {"ios": "https://dc.lft.to/lastmile_qr_scan", "android": "https://dc.lft.to/lastmile_qr_scan"}, "is_reserved": 0, "fusion_lon": 0.0, "fusion_lat": 0.0, "lon": -77.07733483333334, "name": "76571ab4cec7794be2ceaf39a9a16bf7"}, {"bike_id": "3e3197e05f2f84f89334345106d8a279", "type": "electric_scooter", "is_disabled": 0, "lat": 38.942754666666666, "rental_uris": {"ios": "https://dc.lft.to/lastmile_qr_scan", "android": "https://dc.lft.to/lastmile_qr_scan"}, "is_reserved": 0, "fusion_lon": 0.0, "fusion_lat": 0.0, "lon": -77.03257483333333, "name": "3e3197e05f2f84f89334345106d8a279"}, {"bike_id": "da4663846f057473a9e04574b5a6ba73", "type": "electric_scooter", "is_disabled": 0, "lat": 38.863776666666666, "rental_uris": {"ios": "https://dc.lft.to/lastmile_qr_scan", "android": "https://dc.lft.to/lastmile_qr_scan"}, "is_reserved": 0, "fusion_lon": 0.0, "fusion_lat": 0.0, "lon": -76.9905565, "name": "da4663846f057473a9e04574b5a6ba73"}, {"bike_id": "c117565a74653439ccb43a3be2a8f6f3", "type": "electric_scooter", "is_disabled": 0, "lat": 38.9370475, "rental_uris": {"ios": "https://dc.lft.to/lastmile_qr_scan", "android": "https://dc.lft.to/lastmile_qr_scan"}, "is_reserved": 0, "fusion_lon": 0.0, "fusion_lat": 0.0, "lon": -77.03281816666667, "name": "c117565a74653439ccb43a3be2a8f6f3"}, {"bike_id": "731a84350775f4691f6a210f094270ec", "type": "electric_scooter", "is_disabled": 0, "lat": 38.905953, "rental_uris": {"ios": "https://dc.lft.to/lastmile_qr_scan", "android": "https://dc.lft.to/lastmile_qr_scan"}, "is_reserved": 0, "fusion_lon": 0.0, "fusion_lat": 0.0, "lon": -77.06804066666666, "name": "731a84350775f4691f6a210f094270ec"}, {"bike_id": "2ce8f317f58dadbab148848df94387da", "type": "electric_bike", "is_disabled": 0, "lat": 38.83608366666667, "rental_uris": {"ios": "https://dc.lft.to/lastmile_qr_scan", "android": "https://dc.lft.to/lastmile_qr_scan"}, "is_reserved": 0, "fusion_lon": 0.0, "fusion_lat": 0.0, "lon": -77.00380733333333, "name": "2ce8f317f58dadbab148848df94387da"}, {"bike_id": "ea079ae0e638a70fb681e0a883c98a89", "type": "electric_scooter", "is_disabled": 0, "lat": 38.94981133333334, "rental_uris": {"ios": "https://dc.lft.to/lastmile_qr_scan", "android": "https://dc.lft.to/lastmile_qr_scan"}, "is_reserved": 0, "fusion_lon": 0.0, "fusion_lat": 0.0, "lon": -77.02651133333333, "name": "ea079ae0e638a70fb681e0a883c98a89"}, {"bike_id": "2398a2cc8f8cb344d2daa745bba8c39e", "type": "electric_bike", "is_disabled": 0, "lat": 38.82368866666667, "rental_uris": {"ios": "https://dc.lft.to/lastmile_qr_scan", "android": "https://dc.lft.to/lastmile_qr_scan"}, "is_reserved": 0, "fusion_lon": 0.0, "fusion_lat": 0.0, "lon": -77.00217766666667, "name": "2398a2cc8f8cb344d2daa745bba8c39e"}, {"bike_id": "510362c8472e79d70f0e859f62497a7c", "type": "electric_scooter", "is_disabled": 0, "lat": 38.91918016666666, "rental_uris": {"ios": "https://dc.lft.to/lastmile_qr_scan", "android": "https://dc.lft.to/lastmile_qr_scan"}, "is_reserved": 0, "fusion_lon": 0.0, "fusion_lat": 0.0, "lon": -77.03342166666667, "name": "510362c8472e79d70f0e859f62497a7c"}, {"bike_id": "76f57630b521a2e7450624e86698a6c5", "type": "electric_bike", "is_disabled": 0, "lat": 38.85940433333333, "rental_uris": {"ios": "https://dc.lft.to/lastmile_qr_scan", "android": "https://dc.lft.to/lastmile_qr_scan"}, "is_reserved": 0, "fusion_lon": 0.0, "fusion_lat": 0.0, "lon": -77.118289, "name": "76f57630b521a2e7450624e86698a6c5"}, {"bike_id": "025dfeb952bad19da1ce1f89e22cc28d", "type": "electric_scooter", "is_disabled": 0, "lat": 38.892345666666664, "rental_uris": {"ios": "https://dc.lft.to/lastmile_qr_scan", "android": "https://dc.lft.to/lastmile_qr_scan"}, "is_reserved": 0, "fusion_lon": 0.0, "fusion_lat": 0.0, "lon": -77.02384233333333, "name": "025dfeb952bad19da1ce1f89e22cc28d"}, {"bike_id": "8442fe8bc5d2495ec6e758c30d2a6b24", "type": "electric_scooter", "is_disabled": 0, "lat": 38.87794566666667, "rental_uris": {"ios": "https://dc.lft.to/lastmile_qr_scan", "android": "https://dc.lft.to/lastmile_qr_scan"}, "is_reserved": 0, "fusion_lon": 0.0, "fusion_lat": 0.0, "lon": -77.00339683333333, "name": "8442fe8bc5d2495ec6e758c30d2a6b24"}, {"bike_id": "5aa765d873c441c5907583eebef74641", "type": "electric_scooter", "is_disabled": 0, "lat": 38.92231783333333, "rental_uris": {"ios": "https://dc.lft.to/lastmile_qr_scan", "android": "https://dc.lft.to/lastmile_qr_scan"}, "is_reserved": 0, "fusion_lon": 0.0, "fusion_lat": 0.0, "lon": -77.04708933333333, "name": "5aa765d873c441c5907583eebef74641"}, {"bike_id": "ae2a712902e47b5113f5ceb771458626", "type": "electric_bike", "is_disabled": 0, "lat": 38.89812416666667, "rental_uris": {"ios": "https://dc.lft.to/lastmile_qr_scan", "android": "https://dc.lft.to/lastmile_qr_scan"}, "is_reserved": 0, "fusion_lon": 0.0, "fusion_lat": 0.0, "lon": -76.990647, "name": "ae2a712902e47b5113f5ceb771458626"}, {"bike_id": "fc8614a50347669a57bc77bc7adc7708", "type": "electric_scooter", "is_disabled": 0, "lat": 38.920786666666665, "rental_uris": {"ios": "https://dc.lft.to/lastmile_qr_scan", "android": "https://dc.lft.to/lastmile_qr_scan"}, "is_reserved": 0, "fusion_lon": 0.0, "fusion_lat": 0.0, "lon": -77.00454616666667, "name": "fc8614a50347669a57bc77bc7adc7708"}, {"bike_id": "b1352ce2a3a45f8b3fb9a52f391e0de2", "type": "electric_scooter", "is_disabled": 0, "lat": 38.86676516666667, "rental_uris": {"ios": "https://dc.lft.to/lastmile_qr_scan", "android": "https://dc.lft.to/lastmile_qr_scan"}, "is_reserved": 0, "fusion_lon": 0.0, "fusion_lat": 0.0, "lon": -76.9853765, "name": "b1352ce2a3a45f8b3fb9a52f391e0de2"}, {"bike_id": "2697e7371d3fd4850e8b126a61aa7516", "type": "electric_scooter", "is_disabled": 0, "lat": 38.92078216666667, "rental_uris": {"ios": "https://dc.lft.to/lastmile_qr_scan", "android": "https://dc.lft.to/lastmile_qr_scan"}, "is_reserved": 0, "fusion_lon": 0.0, "fusion_lat": 0.0, "lon": -77.02514333333333, "name": "2697e7371d3fd4850e8b126a61aa7516"}, {"bike_id": "f83bd5e37464d7ed879dba13126ba5fb", "type": "electric_scooter", "is_disabled": 0, "lat": 38.89713783333333, "rental_uris": {"ios": "https://dc.lft.to/lastmile_qr_scan", "android": "https://dc.lft.to/lastmile_qr_scan"}, "is_reserved": 0, "fusion_lon": 0.0, "fusion_lat": 0.0, "lon": -77.00853366666666, "name": "f83bd5e37464d7ed879dba13126ba5fb"}, {"bike_id": "ca6ce1da3a81a764d9fce87ba56062a8", "type": "electric_bike", "is_disabled": 0, "lat": 38.96309183333334, "rental_uris": {"ios": "https://dc.lft.to/lastmile_qr_scan", "android": "https://dc.lft.to/lastmile_qr_scan"}, "is_reserved": 0, "fusion_lon": 0.0, "fusion_lat": 0.0, "lon": -77.0110665, "name": "ca6ce1da3a81a764d9fce87ba56062a8"}, {"bike_id": "ae8fa1a235034e928f92d909f9d10bac", "type": "electric_scooter", "is_disabled": 0, "lat": 38.92345, "rental_uris": {"ios": "https://dc.lft.to/lastmile_qr_scan", "android": "https://dc.lft.to/lastmile_qr_scan"}, "is_reserved": 0, "fusion_lon": 0.0, "fusion_lat": 0.0, "lon": -77.04176166666667, "name": "ae8fa1a235034e928f92d909f9d10bac"}, {"bike_id": "0ada5e53e9c1242b698ad91d9c2d6b6b", "type": "electric_scooter", "is_disabled": 0, "lat": 38.89924416666667, "rental_uris": {"ios": "https://dc.lft.to/lastmile_qr_scan", "android": "https://dc.lft.to/lastmile_qr_scan"}, "is_reserved": 0, "fusion_lon": 0.0, "fusion_lat": 0.0, "lon": -77.0536825, "name": "0ada5e53e9c1242b698ad91d9c2d6b6b"}, {"bike_id": "623dcf10f9a674af0da59c9055eb65cd", "type": "electric_scooter", "is_disabled": 0, "lat": 38.90526716666667, "rental_uris": {"ios": "https://dc.lft.to/lastmile_qr_scan", "android": "https://dc.lft.to/lastmile_qr_scan"}, "is_reserved": 0, "fusion_lon": 0.0, "fusion_lat": 0.0, "lon": -77.06135083333334, "name": "623dcf10f9a674af0da59c9055eb65cd"}, {"bike_id": "555a681ad587f1bcb6f6e0f1d48242a3", "type": "electric_bike", "is_disabled": 0, "lat": 38.963229166666665, "rental_uris": {"ios": "https://dc.lft.to/lastmile_qr_scan", "android": "https://dc.lft.to/lastmile_qr_scan"}, "is_reserved": 0, "fusion_lon": 0.0, "fusion_lat": 0.0, "lon": -76.97358933333334, "name": "555a681ad587f1bcb6f6e0f1d48242a3"}, {"bike_id": "0071c60ab3e99097fbf1cf23b5b0143b", "type": "electric_scooter", "is_disabled": 0, "lat": 38.901110833333334, "rental_uris": {"ios": "https://dc.lft.to/lastmile_qr_scan", "android": "https://dc.lft.to/lastmile_qr_scan"}, "is_reserved": 0, "fusion_lon": 0.0, "fusion_lat": 0.0, "lon": -77.01812433333333, "name": "0071c60ab3e99097fbf1cf23b5b0143b"}, {"bike_id": "9672d5ffbb18579755baa9e0fe10bb22", "type": "electric_scooter", "is_disabled": 0, "lat": 38.905059666666666, "rental_uris": {"ios": "https://dc.lft.to/lastmile_qr_scan", "android": "https://dc.lft.to/lastmile_qr_scan"}, "is_reserved": 0, "fusion_lon": 0.0, "fusion_lat": 0.0, "lon": -77.06012033333333, "name": "9672d5ffbb18579755baa9e0fe10bb22"}, {"bike_id": "adc984930a0f11f57460887f7f410398", "type": "electric_scooter", "is_disabled": 0, "lat": 38.933276666666664, "rental_uris": {"ios": "https://dc.lft.to/lastmile_qr_scan", "android": "https://dc.lft.to/lastmile_qr_scan"}, "is_reserved": 0, "fusion_lon": 0.0, "fusion_lat": 0.0, "lon": -77.03426366666666, "name": "adc984930a0f11f57460887f7f410398"}, {"bike_id": "079064bb9efd53a2b3e1b3c2ff3f5606", "type": "electric_scooter", "is_disabled": 0, "lat": 38.92377333333334, "rental_uris": {"ios": "https://dc.lft.to/lastmile_qr_scan", "android": "https://dc.lft.to/lastmile_qr_scan"}, "is_reserved": 0, "fusion_lon": 0.0, "fusion_lat": 0.0, "lon": -77.03129266666667, "name": "079064bb9efd53a2b3e1b3c2ff3f5606"}, {"bike_id": "b8a51b8a01ace6733d869ac5fff0e32a", "type": "electric_bike", "is_disabled": 0, "lat": 38.8693625, "rental_uris": {"ios": "https://dc.lft.to/lastmile_qr_scan", "android": "https://dc.lft.to/lastmile_qr_scan"}, "is_reserved": 0, "fusion_lon": 0.0, "fusion_lat": 0.0, "lon": -77.09470666666667, "name": "b8a51b8a01ace6733d869ac5fff0e32a"}, {"bike_id": "845771cbb5cb9b6eb24f7f035a715cd2", "type": "electric_scooter", "is_disabled": 0, "lat": 38.91441116666667, "rental_uris": {"ios": "https://dc.lft.to/lastmile_qr_scan", "android": "https://dc.lft.to/lastmile_qr_scan"}, "is_reserved": 0, "fusion_lon": 0.0, "fusion_lat": 0.0, "lon": -77.02288166666666, "name": "845771cbb5cb9b6eb24f7f035a715cd2"}, {"bike_id": "3692ff515791c63327d740e5d286b080", "type": "electric_scooter", "is_disabled": 0, "lat": 38.88368766666667, "rental_uris": {"ios": "https://dc.lft.to/lastmile_qr_scan", "android": "https://dc.lft.to/lastmile_qr_scan"}, "is_reserved": 0, "fusion_lon": 0.0, "fusion_lat": 0.0, "lon": -76.99517683333333, "name": "3692ff515791c63327d740e5d286b080"}, {"bike_id": "e723cd89ee8e18a878e82ac1ce23eaa1", "type": "electric_scooter", "is_disabled": 0, "lat": 38.884283833333335, "rental_uris": {"ios": "https://dc.lft.to/lastmile_qr_scan", "android": "https://dc.lft.to/lastmile_qr_scan"}, "is_reserved": 0, "fusion_lon": 0.0, "fusion_lat": 0.0, "lon": -76.957447, "name": "e723cd89ee8e18a878e82ac1ce23eaa1"}, {"bike_id": "3ab43e9cffcb91a79c6f7372ee8d377c", "type": "electric_scooter", "is_disabled": 0, "lat": 38.926803, "rental_uris": {"ios": "https://dc.lft.to/lastmile_qr_scan", "android": "https://dc.lft.to/lastmile_qr_scan"}, "is_reserved": 0, "fusion_lon": 0.0, "fusion_lat": 0.0, "lon": -77.0278035, "name": "3ab43e9cffcb91a79c6f7372ee8d377c"}, {"bike_id": "96eb58678f0cc2a4611b98fc44eb9aca", "type": "electric_scooter", "is_disabled": 0, "lat": 38.91975866666667, "rental_uris": {"ios": "https://dc.lft.to/lastmile_qr_scan", "android": "https://dc.lft.to/lastmile_qr_scan"}, "is_reserved": 0, "fusion_lon": 0.0, "fusion_lat": 0.0, "lon": -77.01901783333334, "name": "96eb58678f0cc2a4611b98fc44eb9aca"}, {"bike_id": "8a67e815644759f7ff977e845d71d0de", "type": "electric_scooter", "is_disabled": 0, "lat": 38.957375166666665, "rental_uris": {"ios": "https://dc.lft.to/lastmile_qr_scan", "android": "https://dc.lft.to/lastmile_qr_scan"}, "is_reserved": 0, "fusion_lon": 0.0, "fusion_lat": 0.0, "lon": -77.02418416666667, "name": "8a67e815644759f7ff977e845d71d0de"}, {"bike_id": "cb39f5b59fdd7ac41b103158539a9ec3", "type": "electric_scooter", "is_disabled": 0, "lat": 38.915542, "rental_uris": {"ios": "https://dc.lft.to/lastmile_qr_scan", "android": "https://dc.lft.to/lastmile_qr_scan"}, "is_reserved": 0, "fusion_lon": 0.0, "fusion_lat": 0.0, "lon": -77.02333283333333, "name": "cb39f5b59fdd7ac41b103158539a9ec3"}, {"bike_id": "dfa1d91e49e7ef0ea1c4dbd9e59d096e", "type": "electric_scooter", "is_disabled": 0, "lat": 38.915214166666665, "rental_uris": {"ios": "https://dc.lft.to/lastmile_qr_scan", "android": "https://dc.lft.to/lastmile_qr_scan"}, "is_reserved": 0, "fusion_lon": 0.0, "fusion_lat": 0.0, "lon": -77.0685705, "name": "dfa1d91e49e7ef0ea1c4dbd9e59d096e"}, {"bike_id": "ce2296daca5c59ca9d7792178e605712", "type": "electric_scooter", "is_disabled": 0, "lat": 38.91420383333333, "rental_uris": {"ios": "https://dc.lft.to/lastmile_qr_scan", "android": "https://dc.lft.to/lastmile_qr_scan"}, "is_reserved": 0, "fusion_lon": 0.0, "fusion_lat": 0.0, "lon": -77.0446675, "name": "ce2296daca5c59ca9d7792178e605712"}, {"bike_id": "ee8028f8a049db4ff7ddabc63220a826", "type": "electric_scooter", "is_disabled": 0, "lat": 38.93656, "rental_uris": {"ios": "https://dc.lft.to/lastmile_qr_scan", "android": "https://dc.lft.to/lastmile_qr_scan"}, "is_reserved": 0, "fusion_lon": 0.0, "fusion_lat": 0.0, "lon": -77.026368, "name": "ee8028f8a049db4ff7ddabc63220a826"}, {"bike_id": "045be3958cbaecda651bbef084bbfb0f", "type": "electric_scooter", "is_disabled": 0, "lat": 38.93114683333334, "rental_uris": {"ios": "https://dc.lft.to/lastmile_qr_scan", "android": "https://dc.lft.to/lastmile_qr_scan"}, "is_reserved": 0, "fusion_lon": 0.0, "fusion_lat": 0.0, "lon": -77.03805316666667, "name": "045be3958cbaecda651bbef084bbfb0f"}, {"bike_id": "c8b4934cee3356365a1342e59a6c5f61", "type": "electric_scooter", "is_disabled": 0, "lat": 38.91696616666667, "rental_uris": {"ios": "https://dc.lft.to/lastmile_qr_scan", "android": "https://dc.lft.to/lastmile_qr_scan"}, "is_reserved": 0, "fusion_lon": 0.0, "fusion_lat": 0.0, "lon": -77.0321345, "name": "c8b4934cee3356365a1342e59a6c5f61"}, {"bike_id": "6ffaa31a06b7bf0f077acd5409c24ddb", "type": "electric_scooter", "is_disabled": 0, "lat": 38.88853966666667, "rental_uris": {"ios": "https://dc.lft.to/lastmile_qr_scan", "android": "https://dc.lft.to/lastmile_qr_scan"}, "is_reserved": 0, "fusion_lon": 0.0, "fusion_lat": 0.0, "lon": -76.92678133333334, "name": "6ffaa31a06b7bf0f077acd5409c24ddb"}, {"bike_id": "d1ad1766e452a3578bc6316097f339f4", "type": "electric_scooter", "is_disabled": 0, "lat": 38.930684666666664, "rental_uris": {"ios": "https://dc.lft.to/lastmile_qr_scan", "android": "https://dc.lft.to/lastmile_qr_scan"}, "is_reserved": 0, "fusion_lon": 0.0, "fusion_lat": 0.0, "lon": -77.02974633333334, "name": "d1ad1766e452a3578bc6316097f339f4"}, {"bike_id": "d394057f9f9faca0734b8d2f1e81098c", "type": "electric_scooter", "is_disabled": 0, "lat": 38.928776, "rental_uris": {"ios": "https://dc.lft.to/lastmile_qr_scan", "android": "https://dc.lft.to/lastmile_qr_scan"}, "is_reserved": 0, "fusion_lon": 0.0, "fusion_lat": 0.0, "lon": -77.012334, "name": "d394057f9f9faca0734b8d2f1e81098c"}, {"bike_id": "0157aa5b97bcdd61daab739b80efc5e3", "type": "electric_scooter", "is_disabled": 0, "lat": 38.900412833333334, "rental_uris": {"ios": "https://dc.lft.to/lastmile_qr_scan", "android": "https://dc.lft.to/lastmile_qr_scan"}, "is_reserved": 0, "fusion_lon": 0.0, "fusion_lat": 0.0, "lon": -77.01773, "name": "0157aa5b97bcdd61daab739b80efc5e3"}, {"bike_id": "975c6d84ddaf27d833b7cd4c71917f76", "type": "electric_scooter", "is_disabled": 0, "lat": 38.901911, "rental_uris": {"ios": "https://dc.lft.to/lastmile_qr_scan", "android": "https://dc.lft.to/lastmile_qr_scan"}, "is_reserved": 0, "fusion_lon": 0.0, "fusion_lat": 0.0, "lon": -77.01305666666667, "name": "975c6d84ddaf27d833b7cd4c71917f76"}, {"bike_id": "bdf6d396c7b4100e55722c891f95a3f8", "type": "electric_scooter", "is_disabled": 0, "lat": 38.911201166666665, "rental_uris": {"ios": "https://dc.lft.to/lastmile_qr_scan", "android": "https://dc.lft.to/lastmile_qr_scan"}, "is_reserved": 0, "fusion_lon": 0.0, "fusion_lat": 0.0, "lon": -77.04159683333333, "name": "bdf6d396c7b4100e55722c891f95a3f8"}, {"bike_id": "f813bcf0f1d58539990b36caed0bc6f1", "type": "electric_bike", "is_disabled": 0, "lat": 39.014799333333336, "rental_uris": {"ios": "https://dc.lft.to/lastmile_qr_scan", "android": "https://dc.lft.to/lastmile_qr_scan"}, "is_reserved": 0, "fusion_lon": 0.0, "fusion_lat": 0.0, "lon": -77.05495133333334, "name": "f813bcf0f1d58539990b36caed0bc6f1"}, {"bike_id": "453187079ccd8c3409661425d73b1211", "type": "electric_scooter", "is_disabled": 0, "lat": 38.9308445, "rental_uris": {"ios": "https://dc.lft.to/lastmile_qr_scan", "android": "https://dc.lft.to/lastmile_qr_scan"}, "is_reserved": 0, "fusion_lon": 0.0, "fusion_lat": 0.0, "lon": -77.02792866666667, "name": "453187079ccd8c3409661425d73b1211"}, {"bike_id": "8e44012760973ec30d38de2b1464edcc", "type": "electric_scooter", "is_disabled": 0, "lat": 38.91889583333333, "rental_uris": {"ios": "https://dc.lft.to/lastmile_qr_scan", "android": "https://dc.lft.to/lastmile_qr_scan"}, "is_reserved": 0, "fusion_lon": 0.0, "fusion_lat": 0.0, "lon": -77.0146205, "name": "8e44012760973ec30d38de2b1464edcc"}, {"bike_id": "dd40cd68908c8329b990c576e21c0451", "type": "electric_scooter", "is_disabled": 0, "lat": 38.910831, "rental_uris": {"ios": "https://dc.lft.to/lastmile_qr_scan", "android": "https://dc.lft.to/lastmile_qr_scan"}, "is_reserved": 0, "fusion_lon": 0.0, "fusion_lat": 0.0, "lon": -77.01510966666666, "name": "dd40cd68908c8329b990c576e21c0451"}, {"bike_id": "1a451646b49db37ec957951ab9dbb7f9", "type": "electric_scooter", "is_disabled": 0, "lat": 38.89222683333333, "rental_uris": {"ios": "https://dc.lft.to/lastmile_qr_scan", "android": "https://dc.lft.to/lastmile_qr_scan"}, "is_reserved": 0, "fusion_lon": 0.0, "fusion_lat": 0.0, "lon": -77.02579333333334, "name": "1a451646b49db37ec957951ab9dbb7f9"}, {"bike_id": "3961ae8a90dec71f114dcfa0a55ecc1f", "type": "electric_scooter", "is_disabled": 0, "lat": 38.93880083333333, "rental_uris": {"ios": "https://dc.lft.to/lastmile_qr_scan", "android": "https://dc.lft.to/lastmile_qr_scan"}, "is_reserved": 0, "fusion_lon": 0.0, "fusion_lat": 0.0, "lon": -77.0248035, "name": "3961ae8a90dec71f114dcfa0a55ecc1f"}, {"bike_id": "ae90cdd7e10d43cabd1eb9e4f0c8b075", "type": "electric_scooter", "is_disabled": 0, "lat": 38.913646166666666, "rental_uris": {"ios": "https://dc.lft.to/lastmile_qr_scan", "android": "https://dc.lft.to/lastmile_qr_scan"}, "is_reserved": 0, "fusion_lon": 0.0, "fusion_lat": 0.0, "lon": -77.0448745, "name": "ae90cdd7e10d43cabd1eb9e4f0c8b075"}, {"bike_id": "4f14cb7c87bcaa012de7575909714b3f", "type": "electric_bike", "is_disabled": 0, "lat": 39.06294533333333, "rental_uris": {"ios": "https://dc.lft.to/lastmile_qr_scan", "android": "https://dc.lft.to/lastmile_qr_scan"}, "is_reserved": 0, "fusion_lon": 0.0, "fusion_lat": 0.0, "lon": -77.04978733333333, "name": "4f14cb7c87bcaa012de7575909714b3f"}, {"bike_id": "41776bf81e4e8140678c8fbfd5139066", "type": "electric_scooter", "is_disabled": 0, "lat": 38.902810333333335, "rental_uris": {"ios": "https://dc.lft.to/lastmile_qr_scan", "android": "https://dc.lft.to/lastmile_qr_scan"}, "is_reserved": 0, "fusion_lon": 0.0, "fusion_lat": 0.0, "lon": -77.038385, "name": "41776bf81e4e8140678c8fbfd5139066"}, {"bike_id": "601c23b2da911864998a7d24395066e0", "type": "electric_scooter", "is_disabled": 0, "lat": 38.9015465, "rental_uris": {"ios": "https://dc.lft.to/lastmile_qr_scan", "android": "https://dc.lft.to/lastmile_qr_scan"}, "is_reserved": 0, "fusion_lon": 0.0, "fusion_lat": 0.0, "lon": -76.93056866666667, "name": "601c23b2da911864998a7d24395066e0"}, {"bike_id": "43ebacab6e676b6b9e86c14c58e8a7e2", "type": "electric_scooter", "is_disabled": 0, "lat": 38.8768845, "rental_uris": {"ios": "https://dc.lft.to/lastmile_qr_scan", "android": "https://dc.lft.to/lastmile_qr_scan"}, "is_reserved": 0, "fusion_lon": 0.0, "fusion_lat": 0.0, "lon": -77.00580483333333, "name": "43ebacab6e676b6b9e86c14c58e8a7e2"}, {"bike_id": "5c081a4347db6908d5712ed00a9f97c4", "type": "electric_scooter", "is_disabled": 0, "lat": 38.911213833333335, "rental_uris": {"ios": "https://dc.lft.to/lastmile_qr_scan", "android": "https://dc.lft.to/lastmile_qr_scan"}, "is_reserved": 0, "fusion_lon": 0.0, "fusion_lat": 0.0, "lon": -77.04233983333333, "name": "5c081a4347db6908d5712ed00a9f97c4"}, {"bike_id": "b58eb110968b8e72a1289b02078f6ccf", "type": "electric_scooter", "is_disabled": 0, "lat": 38.92334983333333, "rental_uris": {"ios": "https://dc.lft.to/lastmile_qr_scan", "android": "https://dc.lft.to/lastmile_qr_scan"}, "is_reserved": 0, "fusion_lon": 0.0, "fusion_lat": 0.0, "lon": -77.035813, "name": "b58eb110968b8e72a1289b02078f6ccf"}, {"bike_id": "a99853e17d57758588e9a824c206ea26", "type": "electric_scooter", "is_disabled": 0, "lat": 38.9029225, "rental_uris": {"ios": "https://dc.lft.to/lastmile_qr_scan", "android": "https://dc.lft.to/lastmile_qr_scan"}, "is_reserved": 0, "fusion_lon": 0.0, "fusion_lat": 0.0, "lon": -77.03841016666667, "name": "a99853e17d57758588e9a824c206ea26"}, {"bike_id": "f4291a801ddb8d388cf7ba9d1c3db40e", "type": "electric_scooter", "is_disabled": 0, "lat": 38.9060075, "rental_uris": {"ios": "https://dc.lft.to/lastmile_qr_scan", "android": "https://dc.lft.to/lastmile_qr_scan"}, "is_reserved": 0, "fusion_lon": 0.0, "fusion_lat": 0.0, "lon": -77.04119183333333, "name": "f4291a801ddb8d388cf7ba9d1c3db40e"}, {"bike_id": "5479773daba7c21612d4513974a57f89", "type": "electric_scooter", "is_disabled": 0, "lat": 38.90039016666667, "rental_uris": {"ios": "https://dc.lft.to/lastmile_qr_scan", "android": "https://dc.lft.to/lastmile_qr_scan"}, "is_reserved": 0, "fusion_lon": 0.0, "fusion_lat": 0.0, "lon": -77.03522266666667, "name": "5479773daba7c21612d4513974a57f89"}, {"bike_id": "3b3e8ec938c763b2117832bee71faee7", "type": "electric_bike", "is_disabled": 0, "lat": 38.941211833333334, "rental_uris": {"ios": "https://dc.lft.to/lastmile_qr_scan", "android": "https://dc.lft.to/lastmile_qr_scan"}, "is_reserved": 0, "fusion_lon": 0.0, "fusion_lat": 0.0, "lon": -77.06196066666666, "name": "3b3e8ec938c763b2117832bee71faee7"}, {"bike_id": "4117ece82c3f330ebc758125d44d972d", "type": "electric_scooter", "is_disabled": 0, "lat": 38.92969883333333, "rental_uris": {"ios": "https://dc.lft.to/lastmile_qr_scan", "android": "https://dc.lft.to/lastmile_qr_scan"}, "is_reserved": 0, "fusion_lon": 0.0, "fusion_lat": 0.0, "lon": -77.01687116666666, "name": "4117ece82c3f330ebc758125d44d972d"}, {"bike_id": "cf0ca822d716ae5c022a9ed4868bab1c", "type": "electric_scooter", "is_disabled": 0, "lat": 38.90573966666667, "rental_uris": {"ios": "https://dc.lft.to/lastmile_qr_scan", "android": "https://dc.lft.to/lastmile_qr_scan"}, "is_reserved": 0, "fusion_lon": 0.0, "fusion_lat": 0.0, "lon": -77.03035583333333, "name": "cf0ca822d716ae5c022a9ed4868bab1c"}, {"bike_id": "fee21c9d035b9592da8885048826ffb6", "type": "electric_scooter", "is_disabled": 0, "lat": 38.909475666666665, "rental_uris": {"ios": "https://dc.lft.to/lastmile_qr_scan", "android": "https://dc.lft.to/lastmile_qr_scan"}, "is_reserved": 0, "fusion_lon": 0.0, "fusion_lat": 0.0, "lon": -77.026904, "name": "fee21c9d035b9592da8885048826ffb6"}, {"bike_id": "871908a42bfd975436d979047f1d9152", "type": "electric_scooter", "is_disabled": 0, "lat": 38.923421, "rental_uris": {"ios": "https://dc.lft.to/lastmile_qr_scan", "android": "https://dc.lft.to/lastmile_qr_scan"}, "is_reserved": 0, "fusion_lon": 0.0, "fusion_lat": 0.0, "lon": -77.05043816666667, "name": "871908a42bfd975436d979047f1d9152"}, {"bike_id": "b4fa20ea8442f17a64995137e3daaf70", "type": "electric_scooter", "is_disabled": 0, "lat": 38.93963016666667, "rental_uris": {"ios": "https://dc.lft.to/lastmile_qr_scan", "android": "https://dc.lft.to/lastmile_qr_scan"}, "is_reserved": 0, "fusion_lon": 0.0, "fusion_lat": 0.0, "lon": -77.02496216666667, "name": "b4fa20ea8442f17a64995137e3daaf70"}, {"bike_id": "4f898eb5fd4f8d74502289b7864739b8", "type": "electric_scooter", "is_disabled": 0, "lat": 38.908980666666665, "rental_uris": {"ios": "https://dc.lft.to/lastmile_qr_scan", "android": "https://dc.lft.to/lastmile_qr_scan"}, "is_reserved": 0, "fusion_lon": 0.0, "fusion_lat": 0.0, "lon": -77.08614183333333, "name": "4f898eb5fd4f8d74502289b7864739b8"}, {"bike_id": "29107ec4550c1bdecbf1a1c1de12faf9", "type": "electric_scooter", "is_disabled": 0, "lat": 38.916166833333335, "rental_uris": {"ios": "https://dc.lft.to/lastmile_qr_scan", "android": "https://dc.lft.to/lastmile_qr_scan"}, "is_reserved": 0, "fusion_lon": 0.0, "fusion_lat": 0.0, "lon": -77.03645183333333, "name": "29107ec4550c1bdecbf1a1c1de12faf9"}, {"bike_id": "c91512588de6c078cf205cca666af3f7", "type": "electric_scooter", "is_disabled": 0, "lat": 38.92551816666667, "rental_uris": {"ios": "https://dc.lft.to/lastmile_qr_scan", "android": "https://dc.lft.to/lastmile_qr_scan"}, "is_reserved": 0, "fusion_lon": 0.0, "fusion_lat": 0.0, "lon": -77.02278816666667, "name": "c91512588de6c078cf205cca666af3f7"}, {"bike_id": "a307f49b66dc15ee4d0f4eadff988a35", "type": "electric_scooter", "is_disabled": 0, "lat": 38.87082083333333, "rental_uris": {"ios": "https://dc.lft.to/lastmile_qr_scan", "android": "https://dc.lft.to/lastmile_qr_scan"}, "is_reserved": 0, "fusion_lon": 0.0, "fusion_lat": 0.0, "lon": -77.01183633333333, "name": "a307f49b66dc15ee4d0f4eadff988a35"}, {"bike_id": "d33600a7eb501b5030716275b8250314", "type": "electric_scooter", "is_disabled": 0, "lat": 38.95896966666667, "rental_uris": {"ios": "https://dc.lft.to/lastmile_qr_scan", "android": "https://dc.lft.to/lastmile_qr_scan"}, "is_reserved": 0, "fusion_lon": 0.0, "fusion_lat": 0.0, "lon": -77.085966, "name": "d33600a7eb501b5030716275b8250314"}, {"bike_id": "708f61199b5ddcec0d5cbe89c7881d81", "type": "electric_scooter", "is_disabled": 0, "lat": 38.93196116666667, "rental_uris": {"ios": "https://dc.lft.to/lastmile_qr_scan", "android": "https://dc.lft.to/lastmile_qr_scan"}, "is_reserved": 0, "fusion_lon": 0.0, "fusion_lat": 0.0, "lon": -77.0195905, "name": "708f61199b5ddcec0d5cbe89c7881d81"}, {"bike_id": "e316fc1447c8eecf34a0b8aed78da099", "type": "electric_scooter", "is_disabled": 0, "lat": 38.871151166666664, "rental_uris": {"ios": "https://dc.lft.to/lastmile_qr_scan", "android": "https://dc.lft.to/lastmile_qr_scan"}, "is_reserved": 0, "fusion_lon": 0.0, "fusion_lat": 0.0, "lon": -77.00756366666667, "name": "e316fc1447c8eecf34a0b8aed78da099"}, {"bike_id": "82bf60ce42e8b9ebe3a0177bd9dcdd18", "type": "electric_scooter", "is_disabled": 0, "lat": 38.9163735, "rental_uris": {"ios": "https://dc.lft.to/lastmile_qr_scan", "android": "https://dc.lft.to/lastmile_qr_scan"}, "is_reserved": 0, "fusion_lon": 0.0, "fusion_lat": 0.0, "lon": -77.000493, "name": "82bf60ce42e8b9ebe3a0177bd9dcdd18"}, {"bike_id": "2a55e80ba52debf466bca4b381f40c98", "type": "electric_scooter", "is_disabled": 0, "lat": 38.91479316666667, "rental_uris": {"ios": "https://dc.lft.to/lastmile_qr_scan", "android": "https://dc.lft.to/lastmile_qr_scan"}, "is_reserved": 0, "fusion_lon": 0.0, "fusion_lat": 0.0, "lon": -77.02195216666667, "name": "2a55e80ba52debf466bca4b381f40c98"}, {"bike_id": "25da5c39015e9670dcb5ab2d17454d8f", "type": "electric_scooter", "is_disabled": 0, "lat": 38.9036855, "rental_uris": {"ios": "https://dc.lft.to/lastmile_qr_scan", "android": "https://dc.lft.to/lastmile_qr_scan"}, "is_reserved": 0, "fusion_lon": 0.0, "fusion_lat": 0.0, "lon": -77.0537175, "name": "25da5c39015e9670dcb5ab2d17454d8f"}, {"bike_id": "d81316c8ea372d2de5b9968055c4a5c2", "type": "electric_scooter", "is_disabled": 0, "lat": 38.90583266666667, "rental_uris": {"ios": "https://dc.lft.to/lastmile_qr_scan", "android": "https://dc.lft.to/lastmile_qr_scan"}, "is_reserved": 0, "fusion_lon": 0.0, "fusion_lat": 0.0, "lon": -77.0259855, "name": "d81316c8ea372d2de5b9968055c4a5c2"}, {"bike_id": "4ea14b96a1e528e3f239fb0dc073a79a", "type": "electric_scooter", "is_disabled": 0, "lat": 38.91562533333333, "rental_uris": {"ios": "https://dc.lft.to/lastmile_qr_scan", "android": "https://dc.lft.to/lastmile_qr_scan"}, "is_reserved": 0, "fusion_lon": 0.0, "fusion_lat": 0.0, "lon": -77.03873066666667, "name": "4ea14b96a1e528e3f239fb0dc073a79a"}, {"bike_id": "2bbe87348fcf92701ab8dddd26bca17e", "type": "electric_scooter", "is_disabled": 0, "lat": 38.92611216666667, "rental_uris": {"ios": "https://dc.lft.to/lastmile_qr_scan", "android": "https://dc.lft.to/lastmile_qr_scan"}, "is_reserved": 0, "fusion_lon": 0.0, "fusion_lat": 0.0, "lon": -77.026546, "name": "2bbe87348fcf92701ab8dddd26bca17e"}, {"bike_id": "5caa606256bdd9691f6e1e34cc2a64e3", "type": "electric_scooter", "is_disabled": 0, "lat": 38.91280783333333, "rental_uris": {"ios": "https://dc.lft.to/lastmile_qr_scan", "android": "https://dc.lft.to/lastmile_qr_scan"}, "is_reserved": 0, "fusion_lon": 0.0, "fusion_lat": 0.0, "lon": -77.02249783333333, "name": "5caa606256bdd9691f6e1e34cc2a64e3"}, {"bike_id": "1f8845ff94a8c701a4736315178f1830", "type": "electric_scooter", "is_disabled": 0, "lat": 38.90516016666667, "rental_uris": {"ios": "https://dc.lft.to/lastmile_qr_scan", "android": "https://dc.lft.to/lastmile_qr_scan"}, "is_reserved": 0, "fusion_lon": 0.0, "fusion_lat": 0.0, "lon": -77.0687165, "name": "1f8845ff94a8c701a4736315178f1830"}, {"bike_id": "1a3653e37f0f97cfa0d8e79c3dd4c47d", "type": "electric_scooter", "is_disabled": 0, "lat": 38.92155416666667, "rental_uris": {"ios": "https://dc.lft.to/lastmile_qr_scan", "android": "https://dc.lft.to/lastmile_qr_scan"}, "is_reserved": 0, "fusion_lon": 0.0, "fusion_lat": 0.0, "lon": -77.0344145, "name": "1a3653e37f0f97cfa0d8e79c3dd4c47d"}, {"bike_id": "a317d72668fcb769330e12e500755e55", "type": "electric_scooter", "is_disabled": 0, "lat": 38.87861316666667, "rental_uris": {"ios": "https://dc.lft.to/lastmile_qr_scan", "android": "https://dc.lft.to/lastmile_qr_scan"}, "is_reserved": 0, "fusion_lon": 0.0, "fusion_lat": 0.0, "lon": -77.00556783333333, "name": "a317d72668fcb769330e12e500755e55"}, {"bike_id": "ce249028d6dea3d086829d4526331e17", "type": "electric_scooter", "is_disabled": 0, "lat": 38.89095116666667, "rental_uris": {"ios": "https://dc.lft.to/lastmile_qr_scan", "android": "https://dc.lft.to/lastmile_qr_scan"}, "is_reserved": 0, "fusion_lon": 0.0, "fusion_lat": 0.0, "lon": -77.002562, "name": "ce249028d6dea3d086829d4526331e17"}, {"bike_id": "6b59c3635c4b92040d8921f0a8efe3c3", "type": "electric_scooter", "is_disabled": 0, "lat": 38.94214633333333, "rental_uris": {"ios": "https://dc.lft.to/lastmile_qr_scan", "android": "https://dc.lft.to/lastmile_qr_scan"}, "is_reserved": 0, "fusion_lon": 0.0, "fusion_lat": 0.0, "lon": -77.025824, "name": "6b59c3635c4b92040d8921f0a8efe3c3"}, {"bike_id": "e06f96c6152f39f13c150598c458b3d0", "type": "electric_scooter", "is_disabled": 0, "lat": 38.91926983333333, "rental_uris": {"ios": "https://dc.lft.to/lastmile_qr_scan", "android": "https://dc.lft.to/lastmile_qr_scan"}, "is_reserved": 0, "fusion_lon": 0.0, "fusion_lat": 0.0, "lon": -77.03115833333334, "name": "e06f96c6152f39f13c150598c458b3d0"}, {"bike_id": "a6eb0d7bf6eca8bf81dc5e57e55ef096", "type": "electric_scooter", "is_disabled": 0, "lat": 38.876517166666666, "rental_uris": {"ios": "https://dc.lft.to/lastmile_qr_scan", "android": "https://dc.lft.to/lastmile_qr_scan"}, "is_reserved": 0, "fusion_lon": 0.0, "fusion_lat": 0.0, "lon": -77.00427366666666, "name": "a6eb0d7bf6eca8bf81dc5e57e55ef096"}, {"bike_id": "4492667e5c624a86a07ef2e4f0d5429d", "type": "electric_scooter", "is_disabled": 0, "lat": 38.905367, "rental_uris": {"ios": "https://dc.lft.to/lastmile_qr_scan", "android": "https://dc.lft.to/lastmile_qr_scan"}, "is_reserved": 0, "fusion_lon": 0.0, "fusion_lat": 0.0, "lon": -77.00703, "name": "4492667e5c624a86a07ef2e4f0d5429d"}, {"bike_id": "17f67478eda7c25fcba4ab81842ed467", "type": "electric_scooter", "is_disabled": 0, "lat": 38.92121183333333, "rental_uris": {"ios": "https://dc.lft.to/lastmile_qr_scan", "android": "https://dc.lft.to/lastmile_qr_scan"}, "is_reserved": 0, "fusion_lon": 0.0, "fusion_lat": 0.0, "lon": -77.03664266666667, "name": "17f67478eda7c25fcba4ab81842ed467"}, {"bike_id": "c54b832cbb5eb65e0d4231657d987237", "type": "electric_scooter", "is_disabled": 0, "lat": 38.909978, "rental_uris": {"ios": "https://dc.lft.to/lastmile_qr_scan", "android": "https://dc.lft.to/lastmile_qr_scan"}, "is_reserved": 0, "fusion_lon": 0.0, "fusion_lat": 0.0, "lon": -77.040069, "name": "c54b832cbb5eb65e0d4231657d987237"}, {"bike_id": "67482b81d2f658d73288e8e4f61eaa97", "type": "electric_scooter", "is_disabled": 0, "lat": 38.9281495, "rental_uris": {"ios": "https://dc.lft.to/lastmile_qr_scan", "android": "https://dc.lft.to/lastmile_qr_scan"}, "is_reserved": 0, "fusion_lon": 0.0, "fusion_lat": 0.0, "lon": -77.02807233333333, "name": "67482b81d2f658d73288e8e4f61eaa97"}, {"bike_id": "b289a3cd32509e27248dd11608a9d4fa", "type": "electric_scooter", "is_disabled": 0, "lat": 38.956363833333334, "rental_uris": {"ios": "https://dc.lft.to/lastmile_qr_scan", "android": "https://dc.lft.to/lastmile_qr_scan"}, "is_reserved": 0, "fusion_lon": 0.0, "fusion_lat": 0.0, "lon": -77.02779483333333, "name": "b289a3cd32509e27248dd11608a9d4fa"}, {"bike_id": "2b2828af2ff6d487d1c111bf1ff6ba86", "type": "electric_scooter", "is_disabled": 0, "lat": 38.866473, "rental_uris": {"ios": "https://dc.lft.to/lastmile_qr_scan", "android": "https://dc.lft.to/lastmile_qr_scan"}, "is_reserved": 0, "fusion_lon": 0.0, "fusion_lat": 0.0, "lon": -76.9826815, "name": "2b2828af2ff6d487d1c111bf1ff6ba86"}, {"bike_id": "23c3a49025b58e987ff3821e997dec3a", "type": "electric_scooter", "is_disabled": 0, "lat": 38.958543, "rental_uris": {"ios": "https://dc.lft.to/lastmile_qr_scan", "android": "https://dc.lft.to/lastmile_qr_scan"}, "is_reserved": 0, "fusion_lon": 0.0, "fusion_lat": 0.0, "lon": -77.02803483333334, "name": "23c3a49025b58e987ff3821e997dec3a"}, {"bike_id": "67f6e4f166e38d7452c8164b87ae284a", "type": "electric_scooter", "is_disabled": 0, "lat": 38.92411883333333, "rental_uris": {"ios": "https://dc.lft.to/lastmile_qr_scan", "android": "https://dc.lft.to/lastmile_qr_scan"}, "is_reserved": 0, "fusion_lon": 0.0, "fusion_lat": 0.0, "lon": -77.0274395, "name": "67f6e4f166e38d7452c8164b87ae284a"}, {"bike_id": "30b9a7caa556bded4d8dce1bb4096a4d", "type": "electric_scooter", "is_disabled": 0, "lat": 38.91610633333333, "rental_uris": {"ios": "https://dc.lft.to/lastmile_qr_scan", "android": "https://dc.lft.to/lastmile_qr_scan"}, "is_reserved": 0, "fusion_lon": 0.0, "fusion_lat": 0.0, "lon": -77.02958466666666, "name": "30b9a7caa556bded4d8dce1bb4096a4d"}, {"bike_id": "b0bdd2888b91823bcb5bfabd3ac9f1ee", "type": "electric_scooter", "is_disabled": 0, "lat": 38.9736945, "rental_uris": {"ios": "https://dc.lft.to/lastmile_qr_scan", "android": "https://dc.lft.to/lastmile_qr_scan"}, "is_reserved": 0, "fusion_lon": 0.0, "fusion_lat": 0.0, "lon": -77.018514, "name": "b0bdd2888b91823bcb5bfabd3ac9f1ee"}, {"bike_id": "59316588bd22c651c71f6f9aea8b6f6a", "type": "electric_bike", "is_disabled": 0, "lat": 38.88407633333333, "rental_uris": {"ios": "https://dc.lft.to/lastmile_qr_scan", "android": "https://dc.lft.to/lastmile_qr_scan"}, "is_reserved": 0, "fusion_lon": 0.0, "fusion_lat": 0.0, "lon": -76.960679, "name": "59316588bd22c651c71f6f9aea8b6f6a"}, {"bike_id": "c40f14e8fd8b48f331e9ff55208002f6", "type": "electric_scooter", "is_disabled": 0, "lat": 38.934331666666665, "rental_uris": {"ios": "https://dc.lft.to/lastmile_qr_scan", "android": "https://dc.lft.to/lastmile_qr_scan"}, "is_reserved": 0, "fusion_lon": 0.0, "fusion_lat": 0.0, "lon": -77.04541816666666, "name": "c40f14e8fd8b48f331e9ff55208002f6"}, {"bike_id": "86c9337ad702d9d730146c7c61844c90", "type": "electric_scooter", "is_disabled": 0, "lat": 38.908512333333334, "rental_uris": {"ios": "https://dc.lft.to/lastmile_qr_scan", "android": "https://dc.lft.to/lastmile_qr_scan"}, "is_reserved": 0, "fusion_lon": 0.0, "fusion_lat": 0.0, "lon": -77.04766, "name": "86c9337ad702d9d730146c7c61844c90"}, {"bike_id": "adfbddb1377e687406d7cd7879e1a230", "type": "electric_scooter", "is_disabled": 0, "lat": 38.94509566666667, "rental_uris": {"ios": "https://dc.lft.to/lastmile_qr_scan", "android": "https://dc.lft.to/lastmile_qr_scan"}, "is_reserved": 0, "fusion_lon": 0.0, "fusion_lat": 0.0, "lon": -77.033702, "name": "adfbddb1377e687406d7cd7879e1a230"}, {"bike_id": "a1f42f541ddfb854a4187498dc3c4356", "type": "electric_scooter", "is_disabled": 0, "lat": 38.945592833333336, "rental_uris": {"ios": "https://dc.lft.to/lastmile_qr_scan", "android": "https://dc.lft.to/lastmile_qr_scan"}, "is_reserved": 0, "fusion_lon": 0.0, "fusion_lat": 0.0, "lon": -77.07119983333334, "name": "a1f42f541ddfb854a4187498dc3c4356"}, {"bike_id": "f6f0625ad9b1960bd421052cc117a2ab", "type": "electric_scooter", "is_disabled": 0, "lat": 38.884499, "rental_uris": {"ios": "https://dc.lft.to/lastmile_qr_scan", "android": "https://dc.lft.to/lastmile_qr_scan"}, "is_reserved": 0, "fusion_lon": 0.0, "fusion_lat": 0.0, "lon": -76.95097483333333, "name": "f6f0625ad9b1960bd421052cc117a2ab"}, {"bike_id": "e9300b692946d6c4a3fb322cc61d5acd", "type": "electric_scooter", "is_disabled": 0, "lat": 38.9038325, "rental_uris": {"ios": "https://dc.lft.to/lastmile_qr_scan", "android": "https://dc.lft.to/lastmile_qr_scan"}, "is_reserved": 0, "fusion_lon": 0.0, "fusion_lat": 0.0, "lon": -77.03880783333334, "name": "e9300b692946d6c4a3fb322cc61d5acd"}, {"bike_id": "f6526b50f597274cc8de3b1d5634c7c6", "type": "electric_scooter", "is_disabled": 0, "lat": 38.9105695, "rental_uris": {"ios": "https://dc.lft.to/lastmile_qr_scan", "android": "https://dc.lft.to/lastmile_qr_scan"}, "is_reserved": 0, "fusion_lon": 0.0, "fusion_lat": 0.0, "lon": -77.03090916666666, "name": "f6526b50f597274cc8de3b1d5634c7c6"}, {"bike_id": "8a301a612fa7f3d72c1e4532709b5da3", "type": "electric_scooter", "is_disabled": 0, "lat": 38.9296345, "rental_uris": {"ios": "https://dc.lft.to/lastmile_qr_scan", "android": "https://dc.lft.to/lastmile_qr_scan"}, "is_reserved": 0, "fusion_lon": 0.0, "fusion_lat": 0.0, "lon": -77.037725, "name": "8a301a612fa7f3d72c1e4532709b5da3"}, {"bike_id": "7c9f8bb3be6fbfe89ba30601a4ae6050", "type": "electric_bike", "is_disabled": 0, "lat": 38.858970166666666, "rental_uris": {"ios": "https://dc.lft.to/lastmile_qr_scan", "android": "https://dc.lft.to/lastmile_qr_scan"}, "is_reserved": 0, "fusion_lon": 0.0, "fusion_lat": 0.0, "lon": -77.11865633333333, "name": "7c9f8bb3be6fbfe89ba30601a4ae6050"}, {"bike_id": "620db7cfbcc6c47bf3bc17214f522bf2", "type": "electric_bike", "is_disabled": 0, "lat": 38.8708435, "rental_uris": {"ios": "https://dc.lft.to/lastmile_qr_scan", "android": "https://dc.lft.to/lastmile_qr_scan"}, "is_reserved": 0, "fusion_lon": 0.0, "fusion_lat": 0.0, "lon": -77.01209533333333, "name": "620db7cfbcc6c47bf3bc17214f522bf2"}, {"bike_id": "496998f96a845ae00f0c9fb5fd4cc5f4", "type": "electric_scooter", "is_disabled": 0, "lat": 38.90606, "rental_uris": {"ios": "https://dc.lft.to/lastmile_qr_scan", "android": "https://dc.lft.to/lastmile_qr_scan"}, "is_reserved": 0, "fusion_lon": 0.0, "fusion_lat": 0.0, "lon": -76.99269233333334, "name": "496998f96a845ae00f0c9fb5fd4cc5f4"}, {"bike_id": "5fc029094bd08bce5ea48b145eccecc3", "type": "electric_scooter", "is_disabled": 0, "lat": 38.89966966666667, "rental_uris": {"ios": "https://dc.lft.to/lastmile_qr_scan", "android": "https://dc.lft.to/lastmile_qr_scan"}, "is_reserved": 0, "fusion_lon": 0.0, "fusion_lat": 0.0, "lon": -76.98298133333333, "name": "5fc029094bd08bce5ea48b145eccecc3"}, {"bike_id": "bc572ae46182395b86c3198c35b6cc1d", "type": "electric_scooter", "is_disabled": 0, "lat": 38.903163, "rental_uris": {"ios": "https://dc.lft.to/lastmile_qr_scan", "android": "https://dc.lft.to/lastmile_qr_scan"}, "is_reserved": 0, "fusion_lon": 0.0, "fusion_lat": 0.0, "lon": -76.97801583333333, "name": "bc572ae46182395b86c3198c35b6cc1d"}, {"bike_id": "b5e10d6484312fa9ce9727fd025bd512", "type": "electric_scooter", "is_disabled": 0, "lat": 38.914591, "rental_uris": {"ios": "https://dc.lft.to/lastmile_qr_scan", "android": "https://dc.lft.to/lastmile_qr_scan"}, "is_reserved": 0, "fusion_lon": 0.0, "fusion_lat": 0.0, "lon": -77.00212416666666, "name": "b5e10d6484312fa9ce9727fd025bd512"}, {"bike_id": "9c147db29e9d8e985262ddfdd4218f57", "type": "electric_scooter", "is_disabled": 0, "lat": 38.92334016666667, "rental_uris": {"ios": "https://dc.lft.to/lastmile_qr_scan", "android": "https://dc.lft.to/lastmile_qr_scan"}, "is_reserved": 0, "fusion_lon": 0.0, "fusion_lat": 0.0, "lon": -77.053714, "name": "9c147db29e9d8e985262ddfdd4218f57"}, {"bike_id": "9714f21038c7a81cfe87950d307c7794", "type": "electric_scooter", "is_disabled": 0, "lat": 38.899044333333336, "rental_uris": {"ios": "https://dc.lft.to/lastmile_qr_scan", "android": "https://dc.lft.to/lastmile_qr_scan"}, "is_reserved": 0, "fusion_lon": 0.0, "fusion_lat": 0.0, "lon": -77.01511533333333, "name": "9714f21038c7a81cfe87950d307c7794"}, {"bike_id": "ecf67ef0f463a550cc8e9f5378dba3d3", "type": "electric_scooter", "is_disabled": 0, "lat": 38.95156866666667, "rental_uris": {"ios": "https://dc.lft.to/lastmile_qr_scan", "android": "https://dc.lft.to/lastmile_qr_scan"}, "is_reserved": 0, "fusion_lon": 0.0, "fusion_lat": 0.0, "lon": -77.018652, "name": "ecf67ef0f463a550cc8e9f5378dba3d3"}, {"bike_id": "1ef70aed36d91801b787e4d0a1e5a218", "type": "electric_scooter", "is_disabled": 0, "lat": 38.916288, "rental_uris": {"ios": "https://dc.lft.to/lastmile_qr_scan", "android": "https://dc.lft.to/lastmile_qr_scan"}, "is_reserved": 0, "fusion_lon": 0.0, "fusion_lat": 0.0, "lon": -77.04240216666666, "name": "1ef70aed36d91801b787e4d0a1e5a218"}, {"bike_id": "2fb7d4ab2dae5a04b2c59ac633545cf3", "type": "electric_scooter", "is_disabled": 0, "lat": 38.87418183333333, "rental_uris": {"ios": "https://dc.lft.to/lastmile_qr_scan", "android": "https://dc.lft.to/lastmile_qr_scan"}, "is_reserved": 0, "fusion_lon": 0.0, "fusion_lat": 0.0, "lon": -76.97110933333333, "name": "2fb7d4ab2dae5a04b2c59ac633545cf3"}, {"bike_id": "903adb1286496d16a853b9eecf097dac", "type": "electric_scooter", "is_disabled": 0, "lat": 38.89327483333334, "rental_uris": {"ios": "https://dc.lft.to/lastmile_qr_scan", "android": "https://dc.lft.to/lastmile_qr_scan"}, "is_reserved": 0, "fusion_lon": 0.0, "fusion_lat": 0.0, "lon": -77.04875733333333, "name": "903adb1286496d16a853b9eecf097dac"}, {"bike_id": "bb289221e42884216d3f4babf5b7c1dd", "type": "electric_scooter", "is_disabled": 0, "lat": 38.91372766666667, "rental_uris": {"ios": "https://dc.lft.to/lastmile_qr_scan", "android": "https://dc.lft.to/lastmile_qr_scan"}, "is_reserved": 0, "fusion_lon": 0.0, "fusion_lat": 0.0, "lon": -77.0726485, "name": "bb289221e42884216d3f4babf5b7c1dd"}, {"bike_id": "86b3911b058344a9bda1507743a212e4", "type": "electric_scooter", "is_disabled": 0, "lat": 38.91609, "rental_uris": {"ios": "https://dc.lft.to/lastmile_qr_scan", "android": "https://dc.lft.to/lastmile_qr_scan"}, "is_reserved": 0, "fusion_lon": 0.0, "fusion_lat": 0.0, "lon": -77.0485435, "name": "86b3911b058344a9bda1507743a212e4"}, {"bike_id": "15a21e67b2bfa6ff59c0ea3996eeebe1", "type": "electric_bike", "is_disabled": 0, "lat": 38.87278766666667, "rental_uris": {"ios": "https://dc.lft.to/lastmile_qr_scan", "android": "https://dc.lft.to/lastmile_qr_scan"}, "is_reserved": 0, "fusion_lon": 0.0, "fusion_lat": 0.0, "lon": -77.23318583333334, "name": "15a21e67b2bfa6ff59c0ea3996eeebe1"}, {"bike_id": "cad4be8bdb343eae558c10ff7b26d639", "type": "electric_scooter", "is_disabled": 0, "lat": 38.872895666666665, "rental_uris": {"ios": "https://dc.lft.to/lastmile_qr_scan", "android": "https://dc.lft.to/lastmile_qr_scan"}, "is_reserved": 0, "fusion_lon": 0.0, "fusion_lat": 0.0, "lon": -77.009855, "name": "cad4be8bdb343eae558c10ff7b26d639"}, {"bike_id": "b782559970402c12df998eccf6d724b3", "type": "electric_bike", "is_disabled": 0, "lat": 38.91015816666667, "rental_uris": {"ios": "https://dc.lft.to/lastmile_qr_scan", "android": "https://dc.lft.to/lastmile_qr_scan"}, "is_reserved": 0, "fusion_lon": 0.0, "fusion_lat": 0.0, "lon": -77.22799833333333, "name": "b782559970402c12df998eccf6d724b3"}, {"bike_id": "ede40f779d9fa52d5481b8e5dc1ce6d1", "type": "electric_scooter", "is_disabled": 0, "lat": 38.92127583333333, "rental_uris": {"ios": "https://dc.lft.to/lastmile_qr_scan", "android": "https://dc.lft.to/lastmile_qr_scan"}, "is_reserved": 0, "fusion_lon": 0.0, "fusion_lat": 0.0, "lon": -77.04567683333333, "name": "ede40f779d9fa52d5481b8e5dc1ce6d1"}, {"bike_id": "88629b01d11574cae76b04e348b31d48", "type": "electric_scooter", "is_disabled": 0, "lat": 38.94705916666667, "rental_uris": {"ios": "https://dc.lft.to/lastmile_qr_scan", "android": "https://dc.lft.to/lastmile_qr_scan"}, "is_reserved": 0, "fusion_lon": 0.0, "fusion_lat": 0.0, "lon": -77.01939633333333, "name": "88629b01d11574cae76b04e348b31d48"}, {"bike_id": "ee847ce5747f2782667577f41d23a56e", "type": "electric_scooter", "is_disabled": 0, "lat": 38.919169, "rental_uris": {"ios": "https://dc.lft.to/lastmile_qr_scan", "android": "https://dc.lft.to/lastmile_qr_scan"}, "is_reserved": 0, "fusion_lon": 0.0, "fusion_lat": 0.0, "lon": -77.014136, "name": "ee847ce5747f2782667577f41d23a56e"}, {"bike_id": "35f231cd6a76ec925e04e21a0eb2069b", "type": "electric_scooter", "is_disabled": 0, "lat": 38.924398333333336, "rental_uris": {"ios": "https://dc.lft.to/lastmile_qr_scan", "android": "https://dc.lft.to/lastmile_qr_scan"}, "is_reserved": 0, "fusion_lon": 0.0, "fusion_lat": 0.0, "lon": -77.03344883333334, "name": "35f231cd6a76ec925e04e21a0eb2069b"}, {"bike_id": "ebcf5a669322f09415780df30567a246", "type": "electric_scooter", "is_disabled": 0, "lat": 38.91399783333333, "rental_uris": {"ios": "https://dc.lft.to/lastmile_qr_scan", "android": "https://dc.lft.to/lastmile_qr_scan"}, "is_reserved": 0, "fusion_lon": 0.0, "fusion_lat": 0.0, "lon": -77.01556733333334, "name": "ebcf5a669322f09415780df30567a246"}, {"bike_id": "2acb00f29e7c0ff339c87074f9285944", "type": "electric_scooter", "is_disabled": 0, "lat": 38.869756, "rental_uris": {"ios": "https://dc.lft.to/lastmile_qr_scan", "android": "https://dc.lft.to/lastmile_qr_scan"}, "is_reserved": 0, "fusion_lon": 0.0, "fusion_lat": 0.0, "lon": -76.981761, "name": "2acb00f29e7c0ff339c87074f9285944"}, {"bike_id": "494aae1f427baba2d44aa5535ec45521", "type": "electric_scooter", "is_disabled": 0, "lat": 38.925972333333334, "rental_uris": {"ios": "https://dc.lft.to/lastmile_qr_scan", "android": "https://dc.lft.to/lastmile_qr_scan"}, "is_reserved": 0, "fusion_lon": 0.0, "fusion_lat": 0.0, "lon": -77.0249605, "name": "494aae1f427baba2d44aa5535ec45521"}, {"bike_id": "ed11ba77d7d645e50fda01db351052a6", "type": "electric_scooter", "is_disabled": 0, "lat": 38.86441883333333, "rental_uris": {"ios": "https://dc.lft.to/lastmile_qr_scan", "android": "https://dc.lft.to/lastmile_qr_scan"}, "is_reserved": 0, "fusion_lon": 0.0, "fusion_lat": 0.0, "lon": -76.98996733333334, "name": "ed11ba77d7d645e50fda01db351052a6"}, {"bike_id": "a8ee1a3a3d1cb1ba17ab4d8f0576cf0f", "type": "electric_scooter", "is_disabled": 0, "lat": 38.928580333333336, "rental_uris": {"ios": "https://dc.lft.to/lastmile_qr_scan", "android": "https://dc.lft.to/lastmile_qr_scan"}, "is_reserved": 0, "fusion_lon": 0.0, "fusion_lat": 0.0, "lon": -77.0195315, "name": "a8ee1a3a3d1cb1ba17ab4d8f0576cf0f"}, {"bike_id": "b620321256a56f5b9b95d503cc194327", "type": "electric_scooter", "is_disabled": 0, "lat": 38.91657683333333, "rental_uris": {"ios": "https://dc.lft.to/lastmile_qr_scan", "android": "https://dc.lft.to/lastmile_qr_scan"}, "is_reserved": 0, "fusion_lon": 0.0, "fusion_lat": 0.0, "lon": -77.03857066666667, "name": "b620321256a56f5b9b95d503cc194327"}, {"bike_id": "8b9ad2bc5c9fddc543262eb9a97dd46c", "type": "electric_scooter", "is_disabled": 0, "lat": 38.900971, "rental_uris": {"ios": "https://dc.lft.to/lastmile_qr_scan", "android": "https://dc.lft.to/lastmile_qr_scan"}, "is_reserved": 0, "fusion_lon": 0.0, "fusion_lat": 0.0, "lon": -77.0578415, "name": "8b9ad2bc5c9fddc543262eb9a97dd46c"}, {"bike_id": "7df002710efc0375dcdc1884b58ff133", "type": "electric_scooter", "is_disabled": 0, "lat": 38.919356666666665, "rental_uris": {"ios": "https://dc.lft.to/lastmile_qr_scan", "android": "https://dc.lft.to/lastmile_qr_scan"}, "is_reserved": 0, "fusion_lon": 0.0, "fusion_lat": 0.0, "lon": -77.044963, "name": "7df002710efc0375dcdc1884b58ff133"}, {"bike_id": "e4abf278e52e5042acacee035a1b9b85", "type": "electric_scooter", "is_disabled": 0, "lat": 38.910078, "rental_uris": {"ios": "https://dc.lft.to/lastmile_qr_scan", "android": "https://dc.lft.to/lastmile_qr_scan"}, "is_reserved": 0, "fusion_lon": 0.0, "fusion_lat": 0.0, "lon": -76.98633, "name": "e4abf278e52e5042acacee035a1b9b85"}, {"bike_id": "5c4b1e1528c6c1f94f244721aa0de772", "type": "electric_scooter", "is_disabled": 0, "lat": 38.92153783333333, "rental_uris": {"ios": "https://dc.lft.to/lastmile_qr_scan", "android": "https://dc.lft.to/lastmile_qr_scan"}, "is_reserved": 0, "fusion_lon": 0.0, "fusion_lat": 0.0, "lon": -77.03532566666667, "name": "5c4b1e1528c6c1f94f244721aa0de772"}, {"bike_id": "4f34d6bfe8f2b0abfbefc73ca6ae8bde", "type": "electric_bike", "is_disabled": 0, "lat": 38.880630833333335, "rental_uris": {"ios": "https://dc.lft.to/lastmile_qr_scan", "android": "https://dc.lft.to/lastmile_qr_scan"}, "is_reserved": 0, "fusion_lon": 0.0, "fusion_lat": 0.0, "lon": -76.96242116666667, "name": "4f34d6bfe8f2b0abfbefc73ca6ae8bde"}, {"bike_id": "98c5f4af4a4d71c6f7aa7e27fe9a5d8e", "type": "electric_scooter", "is_disabled": 0, "lat": 38.936784333333335, "rental_uris": {"ios": "https://dc.lft.to/lastmile_qr_scan", "android": "https://dc.lft.to/lastmile_qr_scan"}, "is_reserved": 0, "fusion_lon": 0.0, "fusion_lat": 0.0, "lon": -77.03633333333333, "name": "98c5f4af4a4d71c6f7aa7e27fe9a5d8e"}, {"bike_id": "2fbcde32ce09f30d1608969c5d88a35c", "type": "electric_scooter", "is_disabled": 0, "lat": 38.947888666666664, "rental_uris": {"ios": "https://dc.lft.to/lastmile_qr_scan", "android": "https://dc.lft.to/lastmile_qr_scan"}, "is_reserved": 0, "fusion_lon": 0.0, "fusion_lat": 0.0, "lon": -77.0213645, "name": "2fbcde32ce09f30d1608969c5d88a35c"}, {"bike_id": "bdd2fe7a1fb50d4f86f4d394b0cfd9d9", "type": "electric_scooter", "is_disabled": 0, "lat": 38.93541416666667, "rental_uris": {"ios": "https://dc.lft.to/lastmile_qr_scan", "android": "https://dc.lft.to/lastmile_qr_scan"}, "is_reserved": 0, "fusion_lon": 0.0, "fusion_lat": 0.0, "lon": -77.05863833333333, "name": "bdd2fe7a1fb50d4f86f4d394b0cfd9d9"}, {"bike_id": "37c2805231fcb1f25531161d8c877e14", "type": "electric_scooter", "is_disabled": 0, "lat": 38.923216333333336, "rental_uris": {"ios": "https://dc.lft.to/lastmile_qr_scan", "android": "https://dc.lft.to/lastmile_qr_scan"}, "is_reserved": 0, "fusion_lon": 0.0, "fusion_lat": 0.0, "lon": -77.0280165, "name": "37c2805231fcb1f25531161d8c877e14"}, {"bike_id": "3158a34ddf0c6bf40314b50a196c9d25", "type": "electric_scooter", "is_disabled": 0, "lat": 38.92593566666667, "rental_uris": {"ios": "https://dc.lft.to/lastmile_qr_scan", "android": "https://dc.lft.to/lastmile_qr_scan"}, "is_reserved": 0, "fusion_lon": 0.0, "fusion_lat": 0.0, "lon": -77.04398983333333, "name": "3158a34ddf0c6bf40314b50a196c9d25"}, {"bike_id": "3e1fa5c9add5dfb1a7580f418ab533d0", "type": "electric_scooter", "is_disabled": 0, "lat": 38.88299283333333, "rental_uris": {"ios": "https://dc.lft.to/lastmile_qr_scan", "android": "https://dc.lft.to/lastmile_qr_scan"}, "is_reserved": 0, "fusion_lon": 0.0, "fusion_lat": 0.0, "lon": -76.94856683333333, "name": "3e1fa5c9add5dfb1a7580f418ab533d0"}, {"bike_id": "c2d34aaf08b04bca721c1e5d02bbc20e", "type": "electric_scooter", "is_disabled": 0, "lat": 38.864748166666665, "rental_uris": {"ios": "https://dc.lft.to/lastmile_qr_scan", "android": "https://dc.lft.to/lastmile_qr_scan"}, "is_reserved": 0, "fusion_lon": 0.0, "fusion_lat": 0.0, "lon": -76.97737733333334, "name": "c2d34aaf08b04bca721c1e5d02bbc20e"}, {"bike_id": "fef6e0c8edb706e5ccea4fbf15aa841d", "type": "electric_scooter", "is_disabled": 0, "lat": 38.90064233333333, "rental_uris": {"ios": "https://dc.lft.to/lastmile_qr_scan", "android": "https://dc.lft.to/lastmile_qr_scan"}, "is_reserved": 0, "fusion_lon": 0.0, "fusion_lat": 0.0, "lon": -77.04671016666667, "name": "fef6e0c8edb706e5ccea4fbf15aa841d"}, {"bike_id": "451f5af36dcd5c9f17ef5e474aa04045", "type": "electric_bike", "is_disabled": 0, "lat": 38.96961483333333, "rental_uris": {"ios": "https://dc.lft.to/lastmile_qr_scan", "android": "https://dc.lft.to/lastmile_qr_scan"}, "is_reserved": 0, "fusion_lon": 0.0, "fusion_lat": 0.0, "lon": -76.95747983333334, "name": "451f5af36dcd5c9f17ef5e474aa04045"}, {"bike_id": "fb5982d4e64c23e37239dd91359a3309", "type": "electric_scooter", "is_disabled": 0, "lat": 38.91564533333333, "rental_uris": {"ios": "https://dc.lft.to/lastmile_qr_scan", "android": "https://dc.lft.to/lastmile_qr_scan"}, "is_reserved": 0, "fusion_lon": 0.0, "fusion_lat": 0.0, "lon": -77.0450055, "name": "fb5982d4e64c23e37239dd91359a3309"}, {"bike_id": "bb2161e16ed4a7587695661f0272a782", "type": "electric_scooter", "is_disabled": 0, "lat": 38.90272433333333, "rental_uris": {"ios": "https://dc.lft.to/lastmile_qr_scan", "android": "https://dc.lft.to/lastmile_qr_scan"}, "is_reserved": 0, "fusion_lon": 0.0, "fusion_lat": 0.0, "lon": -77.0189795, "name": "bb2161e16ed4a7587695661f0272a782"}, {"bike_id": "e81796b59560921786d2c929930f2a9d", "type": "electric_scooter", "is_disabled": 0, "lat": 38.912839, "rental_uris": {"ios": "https://dc.lft.to/lastmile_qr_scan", "android": "https://dc.lft.to/lastmile_qr_scan"}, "is_reserved": 0, "fusion_lon": 0.0, "fusion_lat": 0.0, "lon": -77.0271755, "name": "e81796b59560921786d2c929930f2a9d"}, {"bike_id": "8c2862f0e32e9a6054bac2a64ed727b2", "type": "electric_scooter", "is_disabled": 0, "lat": 38.924691333333335, "rental_uris": {"ios": "https://dc.lft.to/lastmile_qr_scan", "android": "https://dc.lft.to/lastmile_qr_scan"}, "is_reserved": 0, "fusion_lon": 0.0, "fusion_lat": 0.0, "lon": -77.0284335, "name": "8c2862f0e32e9a6054bac2a64ed727b2"}, {"bike_id": "5f6bbcaea9614741ff5ef459eca71f16", "type": "electric_scooter", "is_disabled": 0, "lat": 38.926125666666664, "rental_uris": {"ios": "https://dc.lft.to/lastmile_qr_scan", "android": "https://dc.lft.to/lastmile_qr_scan"}, "is_reserved": 0, "fusion_lon": 0.0, "fusion_lat": 0.0, "lon": -77.02161766666667, "name": "5f6bbcaea9614741ff5ef459eca71f16"}, {"bike_id": "fdf6e6d54a2bb6ecc96a60e359bf95e2", "type": "electric_scooter", "is_disabled": 0, "lat": 38.900086333333334, "rental_uris": {"ios": "https://dc.lft.to/lastmile_qr_scan", "android": "https://dc.lft.to/lastmile_qr_scan"}, "is_reserved": 0, "fusion_lon": 0.0, "fusion_lat": 0.0, "lon": -77.04662366666666, "name": "fdf6e6d54a2bb6ecc96a60e359bf95e2"}, {"bike_id": "499eb21de1d2b562e9788575c55b1e90", "type": "electric_scooter", "is_disabled": 0, "lat": 38.90033, "rental_uris": {"ios": "https://dc.lft.to/lastmile_qr_scan", "android": "https://dc.lft.to/lastmile_qr_scan"}, "is_reserved": 0, "fusion_lon": 0.0, "fusion_lat": 0.0, "lon": -77.0240715, "name": "499eb21de1d2b562e9788575c55b1e90"}, {"bike_id": "e7e38f5e2d8bcbc6a553a548c36ab517", "type": "electric_scooter", "is_disabled": 0, "lat": 38.91158216666667, "rental_uris": {"ios": "https://dc.lft.to/lastmile_qr_scan", "android": "https://dc.lft.to/lastmile_qr_scan"}, "is_reserved": 0, "fusion_lon": 0.0, "fusion_lat": 0.0, "lon": -77.02282966666667, "name": "e7e38f5e2d8bcbc6a553a548c36ab517"}, {"bike_id": "0820152751ad9634514ff4cc96c27e19", "type": "electric_scooter", "is_disabled": 0, "lat": 38.90067333333333, "rental_uris": {"ios": "https://dc.lft.to/lastmile_qr_scan", "android": "https://dc.lft.to/lastmile_qr_scan"}, "is_reserved": 0, "fusion_lon": 0.0, "fusion_lat": 0.0, "lon": -76.927458, "name": "0820152751ad9634514ff4cc96c27e19"}, {"bike_id": "597d19a0111a85a3eec4b0bfcfe38735", "type": "electric_scooter", "is_disabled": 0, "lat": 38.96406733333333, "rental_uris": {"ios": "https://dc.lft.to/lastmile_qr_scan", "android": "https://dc.lft.to/lastmile_qr_scan"}, "is_reserved": 0, "fusion_lon": 0.0, "fusion_lat": 0.0, "lon": -77.02764383333333, "name": "597d19a0111a85a3eec4b0bfcfe38735"}, {"bike_id": "f2ac6e51c9ebfd2c5fe9b5e3a21050be", "type": "electric_bike", "is_disabled": 0, "lat": 38.966227, "rental_uris": {"ios": "https://dc.lft.to/lastmile_qr_scan", "android": "https://dc.lft.to/lastmile_qr_scan"}, "is_reserved": 0, "fusion_lon": 0.0, "fusion_lat": 0.0, "lon": -77.03423883333333, "name": "f2ac6e51c9ebfd2c5fe9b5e3a21050be"}, {"bike_id": "23bb143a4bf733824bfe67267ef11d17", "type": "electric_scooter", "is_disabled": 0, "lat": 38.903136833333335, "rental_uris": {"ios": "https://dc.lft.to/lastmile_qr_scan", "android": "https://dc.lft.to/lastmile_qr_scan"}, "is_reserved": 0, "fusion_lon": 0.0, "fusion_lat": 0.0, "lon": -76.98356283333334, "name": "23bb143a4bf733824bfe67267ef11d17"}, {"bike_id": "d845cc9a61bb7f7c999c446dbfcd8a0b", "type": "electric_scooter", "is_disabled": 0, "lat": 38.90813766666667, "rental_uris": {"ios": "https://dc.lft.to/lastmile_qr_scan", "android": "https://dc.lft.to/lastmile_qr_scan"}, "is_reserved": 0, "fusion_lon": 0.0, "fusion_lat": 0.0, "lon": -77.043248, "name": "d845cc9a61bb7f7c999c446dbfcd8a0b"}, {"bike_id": "7bc52e048bfe89a64d97a27686409c36", "type": "electric_scooter", "is_disabled": 0, "lat": 38.903378333333336, "rental_uris": {"ios": "https://dc.lft.to/lastmile_qr_scan", "android": "https://dc.lft.to/lastmile_qr_scan"}, "is_reserved": 0, "fusion_lon": 0.0, "fusion_lat": 0.0, "lon": -76.97582516666667, "name": "7bc52e048bfe89a64d97a27686409c36"}, {"bike_id": "0041c919414018b387aebb03e31bb613", "type": "electric_scooter", "is_disabled": 0, "lat": 38.924482166666664, "rental_uris": {"ios": "https://dc.lft.to/lastmile_qr_scan", "android": "https://dc.lft.to/lastmile_qr_scan"}, "is_reserved": 0, "fusion_lon": 0.0, "fusion_lat": 0.0, "lon": -77.024087, "name": "0041c919414018b387aebb03e31bb613"}, {"bike_id": "a641c8c352ce0c4fabda192d817f2cb4", "type": "electric_scooter", "is_disabled": 0, "lat": 38.880714166666664, "rental_uris": {"ios": "https://dc.lft.to/lastmile_qr_scan", "android": "https://dc.lft.to/lastmile_qr_scan"}, "is_reserved": 0, "fusion_lon": 0.0, "fusion_lat": 0.0, "lon": -76.995069, "name": "a641c8c352ce0c4fabda192d817f2cb4"}, {"bike_id": "e751efc21a5abc3b2a35e6c35b127539", "type": "electric_scooter", "is_disabled": 0, "lat": 38.9346495, "rental_uris": {"ios": "https://dc.lft.to/lastmile_qr_scan", "android": "https://dc.lft.to/lastmile_qr_scan"}, "is_reserved": 0, "fusion_lon": 0.0, "fusion_lat": 0.0, "lon": -77.02803933333334, "name": "e751efc21a5abc3b2a35e6c35b127539"}, {"bike_id": "94ceef44f9d19c6d2edc7a54f4ce9422", "type": "electric_scooter", "is_disabled": 0, "lat": 38.87456433333333, "rental_uris": {"ios": "https://dc.lft.to/lastmile_qr_scan", "android": "https://dc.lft.to/lastmile_qr_scan"}, "is_reserved": 0, "fusion_lon": 0.0, "fusion_lat": 0.0, "lon": -77.00300733333333, "name": "94ceef44f9d19c6d2edc7a54f4ce9422"}, {"bike_id": "1ac807be4124dbb1fb106658435f82d0", "type": "electric_scooter", "is_disabled": 0, "lat": 38.86248616666666, "rental_uris": {"ios": "https://dc.lft.to/lastmile_qr_scan", "android": "https://dc.lft.to/lastmile_qr_scan"}, "is_reserved": 0, "fusion_lon": 0.0, "fusion_lat": 0.0, "lon": -76.99500666666667, "name": "1ac807be4124dbb1fb106658435f82d0"}, {"bike_id": "8695e4ef926b64c1267c71d34d121480", "type": "electric_scooter", "is_disabled": 0, "lat": 38.9484275, "rental_uris": {"ios": "https://dc.lft.to/lastmile_qr_scan", "android": "https://dc.lft.to/lastmile_qr_scan"}, "is_reserved": 0, "fusion_lon": 0.0, "fusion_lat": 0.0, "lon": -77.0254295, "name": "8695e4ef926b64c1267c71d34d121480"}, {"bike_id": "6438a8f0c0e298adf962f4303f618fe5", "type": "electric_scooter", "is_disabled": 0, "lat": 38.85448483333333, "rental_uris": {"ios": "https://dc.lft.to/lastmile_qr_scan", "android": "https://dc.lft.to/lastmile_qr_scan"}, "is_reserved": 0, "fusion_lon": 0.0, "fusion_lat": 0.0, "lon": -76.986082, "name": "6438a8f0c0e298adf962f4303f618fe5"}, {"bike_id": "679680c45de99804d28764dc69159723", "type": "electric_bike", "is_disabled": 0, "lat": 38.8542525, "rental_uris": {"ios": "https://dc.lft.to/lastmile_qr_scan", "android": "https://dc.lft.to/lastmile_qr_scan"}, "is_reserved": 0, "fusion_lon": 0.0, "fusion_lat": 0.0, "lon": -77.12077433333333, "name": "679680c45de99804d28764dc69159723"}, {"bike_id": "5bfd65a3734ee5b0bdc836c804a700e1", "type": "electric_scooter", "is_disabled": 0, "lat": 38.91815733333333, "rental_uris": {"ios": "https://dc.lft.to/lastmile_qr_scan", "android": "https://dc.lft.to/lastmile_qr_scan"}, "is_reserved": 0, "fusion_lon": 0.0, "fusion_lat": 0.0, "lon": -77.03659533333334, "name": "5bfd65a3734ee5b0bdc836c804a700e1"}, {"bike_id": "deb735d08a4f045851a6f38b29c87bdf", "type": "electric_scooter", "is_disabled": 0, "lat": 38.93418783333333, "rental_uris": {"ios": "https://dc.lft.to/lastmile_qr_scan", "android": "https://dc.lft.to/lastmile_qr_scan"}, "is_reserved": 0, "fusion_lon": 0.0, "fusion_lat": 0.0, "lon": -77.03910466666666, "name": "deb735d08a4f045851a6f38b29c87bdf"}, {"bike_id": "c2790be0c2ce8981e8ec56ba0e9495f8", "type": "electric_scooter", "is_disabled": 0, "lat": 38.942954, "rental_uris": {"ios": "https://dc.lft.to/lastmile_qr_scan", "android": "https://dc.lft.to/lastmile_qr_scan"}, "is_reserved": 0, "fusion_lon": 0.0, "fusion_lat": 0.0, "lon": -77.0216745, "name": "c2790be0c2ce8981e8ec56ba0e9495f8"}, {"bike_id": "70a1b6b781d9280693e8e588b6b39d06", "type": "electric_scooter", "is_disabled": 0, "lat": 38.90728516666667, "rental_uris": {"ios": "https://dc.lft.to/lastmile_qr_scan", "android": "https://dc.lft.to/lastmile_qr_scan"}, "is_reserved": 0, "fusion_lon": 0.0, "fusion_lat": 0.0, "lon": -77.04497033333334, "name": "70a1b6b781d9280693e8e588b6b39d06"}, {"bike_id": "276df8c4af1af36971f6185037758fb3", "type": "electric_scooter", "is_disabled": 0, "lat": 38.9332395, "rental_uris": {"ios": "https://dc.lft.to/lastmile_qr_scan", "android": "https://dc.lft.to/lastmile_qr_scan"}, "is_reserved": 0, "fusion_lon": 0.0, "fusion_lat": 0.0, "lon": -77.02925966666666, "name": "276df8c4af1af36971f6185037758fb3"}, {"bike_id": "6434d3b00a057cd5f4d53b17b8c78089", "type": "electric_scooter", "is_disabled": 0, "lat": 38.911618833333335, "rental_uris": {"ios": "https://dc.lft.to/lastmile_qr_scan", "android": "https://dc.lft.to/lastmile_qr_scan"}, "is_reserved": 0, "fusion_lon": 0.0, "fusion_lat": 0.0, "lon": -77.01623533333333, "name": "6434d3b00a057cd5f4d53b17b8c78089"}, {"bike_id": "ed0dd556220731a91b68397bc1f7fd4d", "type": "electric_scooter", "is_disabled": 0, "lat": 38.89016683333333, "rental_uris": {"ios": "https://dc.lft.to/lastmile_qr_scan", "android": "https://dc.lft.to/lastmile_qr_scan"}, "is_reserved": 0, "fusion_lon": 0.0, "fusion_lat": 0.0, "lon": -77.03326666666666, "name": "ed0dd556220731a91b68397bc1f7fd4d"}, {"bike_id": "7c8a2a8b817934a624399b9fa5c502b0", "type": "electric_scooter", "is_disabled": 0, "lat": 38.911775, "rental_uris": {"ios": "https://dc.lft.to/lastmile_qr_scan", "android": "https://dc.lft.to/lastmile_qr_scan"}, "is_reserved": 0, "fusion_lon": 0.0, "fusion_lat": 0.0, "lon": -77.01896416666666, "name": "7c8a2a8b817934a624399b9fa5c502b0"}, {"bike_id": "34c485de61019d5964f61f9630722212", "type": "electric_scooter", "is_disabled": 0, "lat": 38.915723166666666, "rental_uris": {"ios": "https://dc.lft.to/lastmile_qr_scan", "android": "https://dc.lft.to/lastmile_qr_scan"}, "is_reserved": 0, "fusion_lon": 0.0, "fusion_lat": 0.0, "lon": -77.04494233333334, "name": "34c485de61019d5964f61f9630722212"}, {"bike_id": "ba8301e05bc28ff8ef1200e7a632de47", "type": "electric_bike", "is_disabled": 0, "lat": 38.87676283333333, "rental_uris": {"ios": "https://dc.lft.to/lastmile_qr_scan", "android": "https://dc.lft.to/lastmile_qr_scan"}, "is_reserved": 0, "fusion_lon": 0.0, "fusion_lat": 0.0, "lon": -77.01440183333334, "name": "ba8301e05bc28ff8ef1200e7a632de47"}, {"bike_id": "124e49b54239f5fb1a7b98fd54b714b1", "type": "electric_scooter", "is_disabled": 0, "lat": 38.93363383333333, "rental_uris": {"ios": "https://dc.lft.to/lastmile_qr_scan", "android": "https://dc.lft.to/lastmile_qr_scan"}, "is_reserved": 0, "fusion_lon": 0.0, "fusion_lat": 0.0, "lon": -77.088543, "name": "124e49b54239f5fb1a7b98fd54b714b1"}, {"bike_id": "75cf362070a4ee61e23b13613d017bed", "type": "electric_scooter", "is_disabled": 0, "lat": 38.923648166666666, "rental_uris": {"ios": "https://dc.lft.to/lastmile_qr_scan", "android": "https://dc.lft.to/lastmile_qr_scan"}, "is_reserved": 0, "fusion_lon": 0.0, "fusion_lat": 0.0, "lon": -77.01939, "name": "75cf362070a4ee61e23b13613d017bed"}, {"bike_id": "edccfb03dedfb844cabe5a410e8493ef", "type": "electric_scooter", "is_disabled": 0, "lat": 38.905966166666666, "rental_uris": {"ios": "https://dc.lft.to/lastmile_qr_scan", "android": "https://dc.lft.to/lastmile_qr_scan"}, "is_reserved": 0, "fusion_lon": 0.0, "fusion_lat": 0.0, "lon": -77.0512405, "name": "edccfb03dedfb844cabe5a410e8493ef"}, {"bike_id": "267cf832f55c395b8566f01323cc59cf", "type": "electric_scooter", "is_disabled": 0, "lat": 38.9038695, "rental_uris": {"ios": "https://dc.lft.to/lastmile_qr_scan", "android": "https://dc.lft.to/lastmile_qr_scan"}, "is_reserved": 0, "fusion_lon": 0.0, "fusion_lat": 0.0, "lon": -77.02411316666667, "name": "267cf832f55c395b8566f01323cc59cf"}, {"bike_id": "4e18581315240c41ff87289ef122f8d3", "type": "electric_scooter", "is_disabled": 0, "lat": 38.926557, "rental_uris": {"ios": "https://dc.lft.to/lastmile_qr_scan", "android": "https://dc.lft.to/lastmile_qr_scan"}, "is_reserved": 0, "fusion_lon": 0.0, "fusion_lat": 0.0, "lon": -77.037256, "name": "4e18581315240c41ff87289ef122f8d3"}, {"bike_id": "b61f4a73142a874f54f02e960a2143c8", "type": "electric_scooter", "is_disabled": 0, "lat": 38.96407966666666, "rental_uris": {"ios": "https://dc.lft.to/lastmile_qr_scan", "android": "https://dc.lft.to/lastmile_qr_scan"}, "is_reserved": 0, "fusion_lon": 0.0, "fusion_lat": 0.0, "lon": -77.02766583333333, "name": "b61f4a73142a874f54f02e960a2143c8"}, {"bike_id": "da92c5de30addd095cb56927ed21a8ca", "type": "electric_scooter", "is_disabled": 0, "lat": 38.906871333333335, "rental_uris": {"ios": "https://dc.lft.to/lastmile_qr_scan", "android": "https://dc.lft.to/lastmile_qr_scan"}, "is_reserved": 0, "fusion_lon": 0.0, "fusion_lat": 0.0, "lon": -77.0651835, "name": "da92c5de30addd095cb56927ed21a8ca"}, {"bike_id": "858c5472b9cf164e3d991ff353053ffe", "type": "electric_scooter", "is_disabled": 0, "lat": 38.9095985, "rental_uris": {"ios": "https://dc.lft.to/lastmile_qr_scan", "android": "https://dc.lft.to/lastmile_qr_scan"}, "is_reserved": 0, "fusion_lon": 0.0, "fusion_lat": 0.0, "lon": -77.03815883333333, "name": "858c5472b9cf164e3d991ff353053ffe"}, {"bike_id": "e3dca6048e55277f2eaad6a1f5ad6181", "type": "electric_scooter", "is_disabled": 0, "lat": 38.86891416666667, "rental_uris": {"ios": "https://dc.lft.to/lastmile_qr_scan", "android": "https://dc.lft.to/lastmile_qr_scan"}, "is_reserved": 0, "fusion_lon": 0.0, "fusion_lat": 0.0, "lon": -76.984437, "name": "e3dca6048e55277f2eaad6a1f5ad6181"}, {"bike_id": "5131ff95eb9fd6ca9b30807d3ade455c", "type": "electric_scooter", "is_disabled": 0, "lat": 38.87806716666667, "rental_uris": {"ios": "https://dc.lft.to/lastmile_qr_scan", "android": "https://dc.lft.to/lastmile_qr_scan"}, "is_reserved": 0, "fusion_lon": 0.0, "fusion_lat": 0.0, "lon": -77.00747466666667, "name": "5131ff95eb9fd6ca9b30807d3ade455c"}, {"bike_id": "cc2bc10af6b0b6b3ca4f2d96401ef93a", "type": "electric_scooter", "is_disabled": 0, "lat": 38.95535, "rental_uris": {"ios": "https://dc.lft.to/lastmile_qr_scan", "android": "https://dc.lft.to/lastmile_qr_scan"}, "is_reserved": 0, "fusion_lon": 0.0, "fusion_lat": 0.0, "lon": -77.02777833333333, "name": "cc2bc10af6b0b6b3ca4f2d96401ef93a"}, {"bike_id": "69c63122950750c287d234e8d8e87e0e", "type": "electric_bike", "is_disabled": 0, "lat": 38.838121, "rental_uris": {"ios": "https://dc.lft.to/lastmile_qr_scan", "android": "https://dc.lft.to/lastmile_qr_scan"}, "is_reserved": 0, "fusion_lon": 0.0, "fusion_lat": 0.0, "lon": -77.095269, "name": "69c63122950750c287d234e8d8e87e0e"}, {"bike_id": "75e4ffbeb8b2b7332f82d35942711b90", "type": "electric_scooter", "is_disabled": 0, "lat": 38.922409333333334, "rental_uris": {"ios": "https://dc.lft.to/lastmile_qr_scan", "android": "https://dc.lft.to/lastmile_qr_scan"}, "is_reserved": 0, "fusion_lon": 0.0, "fusion_lat": 0.0, "lon": -77.03908316666667, "name": "75e4ffbeb8b2b7332f82d35942711b90"},