{"data": {"bikes": [{"bike_id": "3e93a02a957beb46be73e4b4c33e81c8", "type": "electric_scooter", "is_disabled": 0, "lat": 38.89557666666666, "rental_uris": {"ios": "https://dc.lft.to/lastmile_qr_scan", "android": "https://dc.lft.to/lastmile_qr_scan"}, "is_reserved": 0, "fusion_lon": 0.0, "fusion_lat": 0.0, "lon": -76.94940016666666, "name": "3e93a02a957beb46be73e4b4c33e81c8"}, {"bike_id": "1f5c24de1d0bd86a58155e69d39fd2b2", "type": "electric_scooter", "is_disabled": 0, "lat": 38.86208766666667, "rental_uris": {"ios": "https://dc.lft.to/lastmile_qr_scan", "android": "https://dc.lft.to/lastmile_qr_scan"}, "is_reserved": 0, "fusion_lon": 0.0, "fusion_lat": 0.0, "lon": -76.99471416666667, "name": "1f5c24de1d0bd86a58155e69d39fd2b2"}, {"bike_id": "e10940ba6d312c6ba9d11b1962886413", "type": "electric_scooter", "is_disabled": 0, "lat": 38.938424499999996, "rental_uris": {"ios": "https://dc.lft.to/lastmile_qr_scan", "android": "https://dc.lft.to/lastmile_qr_scan"}, "is_reserved": 0, "fusion_lon": 0.0, "fusion_lat": 0.0, "lon": -77.03374483333333, "name": "e10940ba6d312c6ba9d11b1962886413"}, {"bike_id": "52bbb4e7a7c09ea35fb315744a4a7d77", "type": "electric_scooter", "is_disabled": 0, "lat": 38.89881183333333, "rental_uris": {"ios": "https://dc.lft.to/lastmile_qr_scan", "android": "https://dc.lft.to/lastmile_qr_scan"}, "is_reserved": 0, "fusion_lon": 0.0, "fusion_lat": 0.0, "lon": -76.93177066666667, "name": "52bbb4e7a7c09ea35fb315744a4a7d77"}, {"bike_id": "b4bd8f8f41b2fe7cd4346829b3277967", "type": "electric_scooter", "is_disabled": 0, "lat": 38.8670195, "rental_uris": {"ios": "https://dc.lft.to/lastmile_qr_scan", "android": "https://dc.lft.to/lastmile_qr_scan"}, "is_reserved": 0, "fusion_lon": 0.0, "fusion_lat": 0.0, "lon": -76.98711583333333, "name": "b4bd8f8f41b2fe7cd4346829b3277967"}, {"bike_id": "f2126607969e41e6757956500a8533b8", "type": "electric_scooter", "is_disabled": 0, "lat": 38.86701566666667, "rental_uris": {"ios": "https://dc.lft.to/lastmile_qr_scan", "android": "https://dc.lft.to/lastmile_qr_scan"}, "is_reserved": 0, "fusion_lon": 0.0, "fusion_lat": 0.0, "lon": -76.98714016666666, "name": "f2126607969e41e6757956500a8533b8"}, {"bike_id": "153c849558587cda2afdf26f946a0c7a", "type": "electric_bike", "is_disabled": 0, "lat": 38.94362683333333, "rental_uris": {"ios": "https://dc.lft.to/lastmile_qr_scan", "android": "https://dc.lft.to/lastmile_qr_scan"}, "is_reserved": 0, "fusion_lon": 0.0, "fusion_lat": 0.0, "lon": -76.967815, "name": "153c849558587cda2afdf26f946a0c7a"}, {"bike_id": "5faa843374290356ec5ac1d273f00596", "type": "electric_scooter", "is_disabled": 0, "lat": 38.917672833333334, "rental_uris": {"ios": "https://dc.lft.to/lastmile_qr_scan", "android": "https://dc.lft.to/lastmile_qr_scan"}, "is_reserved": 0, "fusion_lon": 0.0, "fusion_lat": 0.0, "lon": -77.04775116666667, "name": "5faa843374290356ec5ac1d273f00596"}, {"bike_id": "92a69d8eea5f33e0782534e4972165a1", "type": "electric_scooter", "is_disabled": 0, "lat": 38.916926833333335, "rental_uris": {"ios": "https://dc.lft.to/lastmile_qr_scan", "android": "https://dc.lft.to/lastmile_qr_scan"}, "is_reserved": 0, "fusion_lon": 0.0, "fusion_lat": 0.0, "lon": -77.03213, "name": "92a69d8eea5f33e0782534e4972165a1"}, {"bike_id": "2e085399499007d5cb38c8d9e21e7c21", "type": "electric_scooter", "is_disabled": 0, "lat": 38.92220733333333, "rental_uris": {"ios": "https://dc.lft.to/lastmile_qr_scan", "android": "https://dc.lft.to/lastmile_qr_scan"}, "is_reserved": 0, "fusion_lon": 0.0, "fusion_lat": 0.0, "lon": -77.034612, "name": "2e085399499007d5cb38c8d9e21e7c21"}, {"bike_id": "1c23deac02fa781636c001473bf4ecaa", "type": "electric_scooter", "is_disabled": 0, "lat": 38.908038, "rental_uris": {"ios": "https://dc.lft.to/lastmile_qr_scan", "android": "https://dc.lft.to/lastmile_qr_scan"}, "is_reserved": 0, "fusion_lon": 0.0, "fusion_lat": 0.0, "lon": -77.03445633333334, "name": "1c23deac02fa781636c001473bf4ecaa"}, {"bike_id": "49a3c591bcf3a0b487dbf4f411638f15", "type": "electric_scooter", "is_disabled": 0, "lat": 38.90968633333333, "rental_uris": {"ios": "https://dc.lft.to/lastmile_qr_scan", "android": "https://dc.lft.to/lastmile_qr_scan"}, "is_reserved": 0, "fusion_lon": 0.0, "fusion_lat": 0.0, "lon": -77.03300983333334, "name": "49a3c591bcf3a0b487dbf4f411638f15"}, {"bike_id": "996c1031cac693ff85d7db408e847647", "type": "electric_scooter", "is_disabled": 0, "lat": 38.903823333333335, "rental_uris": {"ios": "https://dc.lft.to/lastmile_qr_scan", "android": "https://dc.lft.to/lastmile_qr_scan"}, "is_reserved": 0, "fusion_lon": 0.0, "fusion_lat": 0.0, "lon": -77.0381745, "name": "996c1031cac693ff85d7db408e847647"}, {"bike_id": "3db0cf06df321745eaa4a444c1e5cbc3", "type": "electric_scooter", "is_disabled": 0, "lat": 38.892923333333336, "rental_uris": {"ios": "https://dc.lft.to/lastmile_qr_scan", "android": "https://dc.lft.to/lastmile_qr_scan"}, "is_reserved": 0, "fusion_lon": 0.0, "fusion_lat": 0.0, "lon": -77.04873633333334, "name": "3db0cf06df321745eaa4a444c1e5cbc3"}, {"bike_id": "3409f9b87d332a87820f8a7f213fb869", "type": "electric_scooter", "is_disabled": 0, "lat": 38.94031733333333, "rental_uris": {"ios": "https://dc.lft.to/lastmile_qr_scan", "android": "https://dc.lft.to/lastmile_qr_scan"}, "is_reserved": 0, "fusion_lon": 0.0, "fusion_lat": 0.0, "lon": -77.027981, "name": "3409f9b87d332a87820f8a7f213fb869"}, {"bike_id": "dda1e39552302c23ec8f91b4ee477dd2", "type": "electric_scooter", "is_disabled": 0, "lat": 38.918862833333336, "rental_uris": {"ios": "https://dc.lft.to/lastmile_qr_scan", "android": "https://dc.lft.to/lastmile_qr_scan"}, "is_reserved": 0, "fusion_lon": 0.0, "fusion_lat": 0.0, "lon": -77.02454733333333, "name": "dda1e39552302c23ec8f91b4ee477dd2"}, {"bike_id": "dcce6a9e1c762ae79b568a02e31378ba", "type": "electric_scooter", "is_disabled": 0, "lat": 38.892393, "rental_uris": {"ios": "https://dc.lft.to/lastmile_qr_scan", "android": "https://dc.lft.to/lastmile_qr_scan"}, "is_reserved": 0, "fusion_lon": 0.0, "fusion_lat": 0.0, "lon": -77.022039, "name": "dcce6a9e1c762ae79b568a02e31378ba"}, {"bike_id": "6c74d255e1b3c8853148854b74fc952f", "type": "electric_scooter", "is_disabled": 0, "lat": 38.9071275, "rental_uris": {"ios": "https://dc.lft.to/lastmile_qr_scan", "android": "https://dc.lft.to/lastmile_qr_scan"}, "is_reserved": 0, "fusion_lon": 0.0, "fusion_lat": 0.0, "lon": -77.02395766666666, "name": "6c74d255e1b3c8853148854b74fc952f"}, {"bike_id": "10274e48ffed1d6a7f31775feea1c6d0", "type": "electric_scooter", "is_disabled": 0, "lat": 38.915169666666664, "rental_uris": {"ios": "https://dc.lft.to/lastmile_qr_scan", "android": "https://dc.lft.to/lastmile_qr_scan"}, "is_reserved": 0, "fusion_lon": 0.0, "fusion_lat": 0.0, "lon": -77.012222, "name": "10274e48ffed1d6a7f31775feea1c6d0"}, {"bike_id": "668a4400627111608e51c613e2ad70bf", "type": "electric_scooter", "is_disabled": 0, "lat": 38.912671333333336, "rental_uris": {"ios": "https://dc.lft.to/lastmile_qr_scan", "android": "https://dc.lft.to/lastmile_qr_scan"}, "is_reserved": 0, "fusion_lon": 0.0, "fusion_lat": 0.0, "lon": -77.03861916666666, "name": "668a4400627111608e51c613e2ad70bf"}, {"bike_id": "fdcc7e94fe2c38d1cb2a5e456f509d8c", "type": "electric_bike", "is_disabled": 0, "lat": 39.03989583333333, "rental_uris": {"ios": "https://dc.lft.to/lastmile_qr_scan", "android": "https://dc.lft.to/lastmile_qr_scan"}, "is_reserved": 0, "fusion_lon": 0.0, "fusion_lat": 0.0, "lon": -76.99925883333333, "name": "fdcc7e94fe2c38d1cb2a5e456f509d8c"}, {"bike_id": "ec867d4f5c63e0e39d8560ecd486fdc5", "type": "electric_scooter", "is_disabled": 0, "lat": 38.9399485, "rental_uris": {"ios": "https://dc.lft.to/lastmile_qr_scan", "android": "https://dc.lft.to/lastmile_qr_scan"}, "is_reserved": 0, "fusion_lon": 0.0, "fusion_lat": 0.0, "lon": -77.016924, "name": "ec867d4f5c63e0e39d8560ecd486fdc5"}, {"bike_id": "4757d58fbc43a511f0c26dcdeb75bd44", "type": "electric_scooter", "is_disabled": 0, "lat": 38.88074916666667, "rental_uris": {"ios": "https://dc.lft.to/lastmile_qr_scan", "android": "https://dc.lft.to/lastmile_qr_scan"}, "is_reserved": 0, "fusion_lon": 0.0, "fusion_lat": 0.0, "lon": -76.994961, "name": "4757d58fbc43a511f0c26dcdeb75bd44"}, {"bike_id": "ee21832bf3631b56ca4b269ba2583a80", "type": "electric_scooter", "is_disabled": 0, "lat": 38.920205833333334, "rental_uris": {"ios": "https://dc.lft.to/lastmile_qr_scan", "android": "https://dc.lft.to/lastmile_qr_scan"}, "is_reserved": 0, "fusion_lon": 0.0, "fusion_lat": 0.0, "lon": -77.0129065, "name": "ee21832bf3631b56ca4b269ba2583a80"}, {"bike_id": "969b22bc834b11405d31e75b912167bc", "type": "electric_scooter", "is_disabled": 0, "lat": 38.86503616666667, "rental_uris": {"ios": "https://dc.lft.to/lastmile_qr_scan", "android": "https://dc.lft.to/lastmile_qr_scan"}, "is_reserved": 0, "fusion_lon": 0.0, "fusion_lat": 0.0, "lon": -76.99002416666667, "name": "969b22bc834b11405d31e75b912167bc"}, {"bike_id": "fef5b8608353191339bdac2ef6867d84", "type": "electric_scooter", "is_disabled": 0, "lat": 38.91483683333333, "rental_uris": {"ios": "https://dc.lft.to/lastmile_qr_scan", "android": "https://dc.lft.to/lastmile_qr_scan"}, "is_reserved": 0, "fusion_lon": 0.0, "fusion_lat": 0.0, "lon": -77.00283783333333, "name": "fef5b8608353191339bdac2ef6867d84"}, {"bike_id": "77a538384ad3c5035cdc631ddf87b2d5", "type": "electric_scooter", "is_disabled": 0, "lat": 38.9171275, "rental_uris": {"ios": "https://dc.lft.to/lastmile_qr_scan", "android": "https://dc.lft.to/lastmile_qr_scan"}, "is_reserved": 0, "fusion_lon": 0.0, "fusion_lat": 0.0, "lon": -77.02603233333333, "name": "77a538384ad3c5035cdc631ddf87b2d5"}, {"bike_id": "c2cf6c1a7f12b2f72304fd59d5ec38b9", "type": "electric_bike", "is_disabled": 0, "lat": 38.853570500000004, "rental_uris": {"ios": "https://dc.lft.to/lastmile_qr_scan", "android": "https://dc.lft.to/lastmile_qr_scan"}, "is_reserved": 0, "fusion_lon": 0.0, "fusion_lat": 0.0, "lon": -77.08687333333333, "name": "c2cf6c1a7f12b2f72304fd59d5ec38b9"}, {"bike_id": "267bd7692fa20b32413982872c1b59a3", "type": "electric_scooter", "is_disabled": 0, "lat": 38.915557166666666, "rental_uris": {"ios": "https://dc.lft.to/lastmile_qr_scan", "android": "https://dc.lft.to/lastmile_qr_scan"}, "is_reserved": 0, "fusion_lon": 0.0, "fusion_lat": 0.0, "lon": -77.0257105, "name": "267bd7692fa20b32413982872c1b59a3"}, {"bike_id": "799cbff40efdb9dd434f4b5cb0aea5bd", "type": "electric_bike", "is_disabled": 0, "lat": 38.8730925, "rental_uris": {"ios": "https://dc.lft.to/lastmile_qr_scan", "android": "https://dc.lft.to/lastmile_qr_scan"}, "is_reserved": 0, "fusion_lon": 0.0, "fusion_lat": 0.0, "lon": -77.010963, "name": "799cbff40efdb9dd434f4b5cb0aea5bd"}, {"bike_id": "881a8b87116c04fe898da0d9c992ca41", "type": "electric_scooter", "is_disabled": 0, "lat": 38.92181516666667, "rental_uris": {"ios": "https://dc.lft.to/lastmile_qr_scan", "android": "https://dc.lft.to/lastmile_qr_scan"}, "is_reserved": 0, "fusion_lon": 0.0, "fusion_lat": 0.0, "lon": -77.04022216666667, "name": "881a8b87116c04fe898da0d9c992ca41"}, {"bike_id": "d77731d0a2a1aea75ba86895f456b396", "type": "electric_bike", "is_disabled": 0, "lat": 38.93972016666667, "rental_uris": {"ios": "https://dc.lft.to/lastmile_qr_scan", "android": "https://dc.lft.to/lastmile_qr_scan"}, "is_reserved": 0, "fusion_lon": 0.0, "fusion_lat": 0.0, "lon": -77.05254066666667, "name": "d77731d0a2a1aea75ba86895f456b396"}, {"bike_id": "493c21f9cd74baf6d08819dec4931806", "type": "electric_scooter", "is_disabled": 0, "lat": 38.882051, "rental_uris": {"ios": "https://dc.lft.to/lastmile_qr_scan", "android": "https://dc.lft.to/lastmile_qr_scan"}, "is_reserved": 0, "fusion_lon": 0.0, "fusion_lat": 0.0, "lon": -76.98926433333334, "name": "493c21f9cd74baf6d08819dec4931806"}, {"bike_id": "7bb480fb37e08e5613adaf9c1b33dcfd", "type": "electric_scooter", "is_disabled": 0, "lat": 38.915426333333336, "rental_uris": {"ios": "https://dc.lft.to/lastmile_qr_scan", "android": "https://dc.lft.to/lastmile_qr_scan"}, "is_reserved": 0, "fusion_lon": 0.0, "fusion_lat": 0.0, "lon": -77.02203716666666, "name": "7bb480fb37e08e5613adaf9c1b33dcfd"}, {"bike_id": "5f23d46a22175f122c71645db7f2bf8b", "type": "electric_scooter", "is_disabled": 0, "lat": 38.905638833333335, "rental_uris": {"ios": "https://dc.lft.to/lastmile_qr_scan", "android": "https://dc.lft.to/lastmile_qr_scan"}, "is_reserved": 0, "fusion_lon": 0.0, "fusion_lat": 0.0, "lon": -77.04019466666666, "name": "5f23d46a22175f122c71645db7f2bf8b"}, {"bike_id": "9461feb522991161bba714d1e938b07f", "type": "electric_scooter", "is_disabled": 0, "lat": 38.9005695, "rental_uris": {"ios": "https://dc.lft.to/lastmile_qr_scan", "android": "https://dc.lft.to/lastmile_qr_scan"}, "is_reserved": 0, "fusion_lon": 0.0, "fusion_lat": 0.0, "lon": -77.04848883333334, "name": "9461feb522991161bba714d1e938b07f"}, {"bike_id": "539f7e23ad673070b59eeae1c9658a2b", "type": "electric_scooter", "is_disabled": 0, "lat": 38.92472266666667, "rental_uris": {"ios": "https://dc.lft.to/lastmile_qr_scan", "android": "https://dc.lft.to/lastmile_qr_scan"}, "is_reserved": 0, "fusion_lon": 0.0, "fusion_lat": 0.0, "lon": -77.02835566666667, "name": "539f7e23ad673070b59eeae1c9658a2b"}, {"bike_id": "8f0b75c059dd70b435af7439f2a6eb22", "type": "electric_scooter", "is_disabled": 0, "lat": 38.926029166666666, "rental_uris": {"ios": "https://dc.lft.to/lastmile_qr_scan", "android": "https://dc.lft.to/lastmile_qr_scan"}, "is_reserved": 0, "fusion_lon": 0.0, "fusion_lat": 0.0, "lon": -77.02449966666667, "name": "8f0b75c059dd70b435af7439f2a6eb22"}, {"bike_id": "fe1968a8dda17eed1d20678fb191cd1a", "type": "electric_scooter", "is_disabled": 0, "lat": 38.928792333333334, "rental_uris": {"ios": "https://dc.lft.to/lastmile_qr_scan", "android": "https://dc.lft.to/lastmile_qr_scan"}, "is_reserved": 0, "fusion_lon": 0.0, "fusion_lat": 0.0, "lon": -77.0328485, "name": "fe1968a8dda17eed1d20678fb191cd1a"}, {"bike_id": "1a17b4d834ea38fce0bc8d865caf5f33", "type": "electric_scooter", "is_disabled": 0, "lat": 38.89874283333333, "rental_uris": {"ios": "https://dc.lft.to/lastmile_qr_scan", "android": "https://dc.lft.to/lastmile_qr_scan"}, "is_reserved": 0, "fusion_lon": 0.0, "fusion_lat": 0.0, "lon": -76.93184566666666, "name": "1a17b4d834ea38fce0bc8d865caf5f33"}, {"bike_id": "025febc2a506ef89cf72924f35d696b1", "type": "electric_scooter", "is_disabled": 0, "lat": 38.93074983333333, "rental_uris": {"ios": "https://dc.lft.to/lastmile_qr_scan", "android": "https://dc.lft.to/lastmile_qr_scan"}, "is_reserved": 0, "fusion_lon": 0.0, "fusion_lat": 0.0, "lon": -77.04122816666667, "name": "025febc2a506ef89cf72924f35d696b1"}, {"bike_id": "d9517d64ea00e3611b3a566d57a10beb", "type": "electric_scooter", "is_disabled": 0, "lat": 38.9071015, "rental_uris": {"ios": "https://dc.lft.to/lastmile_qr_scan", "android": "https://dc.lft.to/lastmile_qr_scan"}, "is_reserved": 0, "fusion_lon": 0.0, "fusion_lat": 0.0, "lon": -77.0434385, "name": "d9517d64ea00e3611b3a566d57a10beb"}, {"bike_id": "00e47d8be068fa633b38f259787b7f17", "type": "electric_scooter", "is_disabled": 0, "lat": 38.9212695, "rental_uris": {"ios": "https://dc.lft.to/lastmile_qr_scan", "android": "https://dc.lft.to/lastmile_qr_scan"}, "is_reserved": 0, "fusion_lon": 0.0, "fusion_lat": 0.0, "lon": -77.027149, "name": "00e47d8be068fa633b38f259787b7f17"}, {"bike_id": "cd904d56062ff907485d12b496cfc12b", "type": "electric_scooter", "is_disabled": 0, "lat": 38.905691166666664, "rental_uris": {"ios": "https://dc.lft.to/lastmile_qr_scan", "android": "https://dc.lft.to/lastmile_qr_scan"}, "is_reserved": 0, "fusion_lon": 0.0, "fusion_lat": 0.0, "lon": -77.04247416666666, "name": "cd904d56062ff907485d12b496cfc12b"}, {"bike_id": "3b0a31573731bd092ab3bf68e4960f2a", "type": "electric_bike", "is_disabled": 0, "lat": 38.909996666666665, "rental_uris": {"ios": "https://dc.lft.to/lastmile_qr_scan", "android": "https://dc.lft.to/lastmile_qr_scan"}, "is_reserved": 0, "fusion_lon": 0.0, "fusion_lat": 0.0, "lon": -77.05713783333333, "name": "3b0a31573731bd092ab3bf68e4960f2a"}, {"bike_id": "784e4e2f08f3a9c4471c0397674d2918", "type": "electric_scooter", "is_disabled": 0, "lat": 38.93609683333333, "rental_uris": {"ios": "https://dc.lft.to/lastmile_qr_scan", "android": "https://dc.lft.to/lastmile_qr_scan"}, "is_reserved": 0, "fusion_lon": 0.0, "fusion_lat": 0.0, "lon": -77.03803383333333, "name": "784e4e2f08f3a9c4471c0397674d2918"}, {"bike_id": "dbf6adbb54eaf1f5c8411bbbeff1d0a2", "type": "electric_scooter", "is_disabled": 0, "lat": 38.900668333333336, "rental_uris": {"ios": "https://dc.lft.to/lastmile_qr_scan", "android": "https://dc.lft.to/lastmile_qr_scan"}, "is_reserved": 0, "fusion_lon": 0.0, "fusion_lat": 0.0, "lon": -77.017298, "name": "dbf6adbb54eaf1f5c8411bbbeff1d0a2"}, {"bike_id": "59e4df1f7d035a357e16675b91d13aac", "type": "electric_scooter", "is_disabled": 0, "lat": 38.92484233333333, "rental_uris": {"ios": "https://dc.lft.to/lastmile_qr_scan", "android": "https://dc.lft.to/lastmile_qr_scan"}, "is_reserved": 0, "fusion_lon": 0.0, "fusion_lat": 0.0, "lon": -77.03178716666666, "name": "59e4df1f7d035a357e16675b91d13aac"}, {"bike_id": "25e73ca15020d78fdd032a3ea034b97e", "type": "electric_scooter", "is_disabled": 0, "lat": 38.916552833333334, "rental_uris": {"ios": "https://dc.lft.to/lastmile_qr_scan", "android": "https://dc.lft.to/lastmile_qr_scan"}, "is_reserved": 0, "fusion_lon": 0.0, "fusion_lat": 0.0, "lon": -76.97910283333333, "name": "25e73ca15020d78fdd032a3ea034b97e"}, {"bike_id": "0d301a1948ccb0ad1e045b4f1ee8c759", "type": "electric_scooter", "is_disabled": 0, "lat": 38.933626833333335, "rental_uris": {"ios": "https://dc.lft.to/lastmile_qr_scan", "android": "https://dc.lft.to/lastmile_qr_scan"}, "is_reserved": 0, "fusion_lon": 0.0, "fusion_lat": 0.0, "lon": -77.0264465, "name": "0d301a1948ccb0ad1e045b4f1ee8c759"}, {"bike_id": "961a94e3ec7826f3b6dd610a2adfff24", "type": "electric_bike", "is_disabled": 0, "lat": 38.951734, "rental_uris": {"ios": "https://dc.lft.to/lastmile_qr_scan", "android": "https://dc.lft.to/lastmile_qr_scan"}, "is_reserved": 0, "fusion_lon": 0.0, "fusion_lat": 0.0, "lon": -76.97730666666666, "name": "961a94e3ec7826f3b6dd610a2adfff24"}, {"bike_id": "0f8015086c4d525ae2a3ff17909e0f22", "type": "electric_bike", "is_disabled": 0, "lat": 38.98772316666667, "rental_uris": {"ios": "https://dc.lft.to/lastmile_qr_scan", "android": "https://dc.lft.to/lastmile_qr_scan"}, "is_reserved": 0, "fusion_lon": 0.0, "fusion_lat": 0.0, "lon": -77.14055983333333, "name": "0f8015086c4d525ae2a3ff17909e0f22"}, {"bike_id": "2865b347eda93369d4760f237ec13636", "type": "electric_scooter", "is_disabled": 0, "lat": 38.929596333333336, "rental_uris": {"ios": "https://dc.lft.to/lastmile_qr_scan", "android": "https://dc.lft.to/lastmile_qr_scan"}, "is_reserved": 0, "fusion_lon": 0.0, "fusion_lat": 0.0, "lon": -77.01145216666667, "name": "2865b347eda93369d4760f237ec13636"}, {"bike_id": "33cedffe0e6332858f7749f8f560d30e", "type": "electric_scooter", "is_disabled": 0, "lat": 38.923188, "rental_uris": {"ios": "https://dc.lft.to/lastmile_qr_scan", "android": "https://dc.lft.to/lastmile_qr_scan"}, "is_reserved": 0, "fusion_lon": 0.0, "fusion_lat": 0.0, "lon": -77.00877366666667, "name": "33cedffe0e6332858f7749f8f560d30e"}, {"bike_id": "c4344ec02c67b1dbb03e223b0f46559c", "type": "electric_scooter", "is_disabled": 0, "lat": 38.905331333333336, "rental_uris": {"ios": "https://dc.lft.to/lastmile_qr_scan", "android": "https://dc.lft.to/lastmile_qr_scan"}, "is_reserved": 0, "fusion_lon": 0.0, "fusion_lat": 0.0, "lon": -77.04365533333333, "name": "c4344ec02c67b1dbb03e223b0f46559c"}, {"bike_id": "eab112103cb598b86bc0ffe1165d8cb6", "type": "electric_scooter", "is_disabled": 0, "lat": 38.9511385, "rental_uris": {"ios": "https://dc.lft.to/lastmile_qr_scan", "android": "https://dc.lft.to/lastmile_qr_scan"}, "is_reserved": 0, "fusion_lon": 0.0, "fusion_lat": 0.0, "lon": -77.0143165, "name": "eab112103cb598b86bc0ffe1165d8cb6"}, {"bike_id": "120de3bfbc6b2e1c46f30cd84423a0ea", "type": "electric_scooter", "is_disabled": 0, "lat": 38.9254075, "rental_uris": {"ios": "https://dc.lft.to/lastmile_qr_scan", "android": "https://dc.lft.to/lastmile_qr_scan"}, "is_reserved": 0, "fusion_lon": 0.0, "fusion_lat": 0.0, "lon": -77.03352233333334, "name": "120de3bfbc6b2e1c46f30cd84423a0ea"}, {"bike_id": "977e679d1258bc38642a3c5dd9dde077", "type": "electric_scooter", "is_disabled": 0, "lat": 38.9286345, "rental_uris": {"ios": "https://dc.lft.to/lastmile_qr_scan", "android": "https://dc.lft.to/lastmile_qr_scan"}, "is_reserved": 0, "fusion_lon": 0.0, "fusion_lat": 0.0, "lon": -77.03714216666667, "name": "977e679d1258bc38642a3c5dd9dde077"}, {"bike_id": "c63f328e2f3da623015a062d82ff274b", "type": "electric_scooter", "is_disabled": 0, "lat": 38.895050833333336, "rental_uris": {"ios": "https://dc.lft.to/lastmile_qr_scan", "android": "https://dc.lft.to/lastmile_qr_scan"}, "is_reserved": 0, "fusion_lon": 0.0, "fusion_lat": 0.0, "lon": -76.93482116666667, "name": "c63f328e2f3da623015a062d82ff274b"}, {"bike_id": "c8ff6ce3d6ecf6179c87716e2988f1d6", "type": "electric_scooter", "is_disabled": 0, "lat": 38.898815666666664, "rental_uris": {"ios": "https://dc.lft.to/lastmile_qr_scan", "android": "https://dc.lft.to/lastmile_qr_scan"}, "is_reserved": 0, "fusion_lon": 0.0, "fusion_lat": 0.0, "lon": -76.93176416666667, "name": "c8ff6ce3d6ecf6179c87716e2988f1d6"}, {"bike_id": "a7d9a1f531b5226830249326dbfe1335", "type": "electric_scooter", "is_disabled": 0, "lat": 38.9490875, "rental_uris": {"ios": "https://dc.lft.to/lastmile_qr_scan", "android": "https://dc.lft.to/lastmile_qr_scan"}, "is_reserved": 0, "fusion_lon": 0.0, "fusion_lat": 0.0, "lon": -77.06527783333334, "name": "a7d9a1f531b5226830249326dbfe1335"}, {"bike_id": "a0bd310c5607c692c579e7a695cc6222", "type": "electric_bike", "is_disabled": 0, "lat": 38.848335, "rental_uris": {"ios": "https://dc.lft.to/lastmile_qr_scan", "android": "https://dc.lft.to/lastmile_qr_scan"}, "is_reserved": 0, "fusion_lon": 0.0, "fusion_lat": 0.0, "lon": -77.07923933333333, "name": "a0bd310c5607c692c579e7a695cc6222"}, {"bike_id": "fa00291cb9f3c1d389d33f8fdd482d6a", "type": "electric_scooter", "is_disabled": 0, "lat": 38.914930166666664, "rental_uris": {"ios": "https://dc.lft.to/lastmile_qr_scan", "android": "https://dc.lft.to/lastmile_qr_scan"}, "is_reserved": 0, "fusion_lon": 0.0, "fusion_lat": 0.0, "lon": -77.01982333333333, "name": "fa00291cb9f3c1d389d33f8fdd482d6a"}, {"bike_id": "a9544e491fa19baf37000c089ba5b9d3", "type": "electric_scooter", "is_disabled": 0, "lat": 38.92939766666667, "rental_uris": {"ios": "https://dc.lft.to/lastmile_qr_scan", "android": "https://dc.lft.to/lastmile_qr_scan"}, "is_reserved": 0, "fusion_lon": 0.0, "fusion_lat": 0.0, "lon": -77.03282466666667, "name": "a9544e491fa19baf37000c089ba5b9d3"}, {"bike_id": "00a404e2dc26dd2440d42d1109fecc31", "type": "electric_scooter", "is_disabled": 0, "lat": 38.8668685, "rental_uris": {"ios": "https://dc.lft.to/lastmile_qr_scan", "android": "https://dc.lft.to/lastmile_qr_scan"}, "is_reserved": 0, "fusion_lon": 0.0, "fusion_lat": 0.0, "lon": -76.98564616666667, "name": "00a404e2dc26dd2440d42d1109fecc31"}, {"bike_id": "129b07cb409b991914f82f33bf8fc4e8", "type": "electric_bike", "is_disabled": 0, "lat": 38.94261266666667, "rental_uris": {"ios": "https://dc.lft.to/lastmile_qr_scan", "android": "https://dc.lft.to/lastmile_qr_scan"}, "is_reserved": 0, "fusion_lon": 0.0, "fusion_lat": 0.0, "lon": -76.99071516666666, "name": "129b07cb409b991914f82f33bf8fc4e8"}, {"bike_id": "d3ce9650712b2eff2669cf26d5429b22", "type": "electric_scooter", "is_disabled": 0, "lat": 38.887102166666665, "rental_uris": {"ios": "https://dc.lft.to/lastmile_qr_scan", "android": "https://dc.lft.to/lastmile_qr_scan"}, "is_reserved": 0, "fusion_lon": 0.0, "fusion_lat": 0.0, "lon": -77.0220405, "name": "d3ce9650712b2eff2669cf26d5429b22"}, {"bike_id": "4a71b3ab2f2b5aa42b075a33460d5cfc", "type": "electric_scooter", "is_disabled": 0, "lat": 38.892338333333335, "rental_uris": {"ios": "https://dc.lft.to/lastmile_qr_scan", "android": "https://dc.lft.to/lastmile_qr_scan"}, "is_reserved": 0, "fusion_lon": 0.0, "fusion_lat": 0.0, "lon": -77.02612016666667, "name": "4a71b3ab2f2b5aa42b075a33460d5cfc"}, {"bike_id": "4e7700508f2b48d376dbc7bb8ef2a9eb", "type": "electric_scooter", "is_disabled": 0, "lat": 38.91177066666667, "rental_uris": {"ios": "https://dc.lft.to/lastmile_qr_scan", "android": "https://dc.lft.to/lastmile_qr_scan"}, "is_reserved": 0, "fusion_lon": 0.0, "fusion_lat": 0.0, "lon": -77.06856016666667, "name": "4e7700508f2b48d376dbc7bb8ef2a9eb"}, {"bike_id": "e9a8cb90934a3357ee509696897670c7", "type": "electric_scooter", "is_disabled": 0, "lat": 38.899698666666666, "rental_uris": {"ios": "https://dc.lft.to/lastmile_qr_scan", "android": "https://dc.lft.to/lastmile_qr_scan"}, "is_reserved": 0, "fusion_lon": 0.0, "fusion_lat": 0.0, "lon": -77.01575433333333, "name": "e9a8cb90934a3357ee509696897670c7"}, {"bike_id": "21358cb0696dbefb868b2608ef22e403", "type": "electric_scooter", "is_disabled": 0, "lat": 38.92155566666667, "rental_uris": {"ios": "https://dc.lft.to/lastmile_qr_scan", "android": "https://dc.lft.to/lastmile_qr_scan"}, "is_reserved": 0, "fusion_lon": 0.0, "fusion_lat": 0.0, "lon": -77.03842333333333, "name": "21358cb0696dbefb868b2608ef22e403"}, {"bike_id": "59a6d82a34931e4d27b0f9a545fdd0fc", "type": "electric_scooter", "is_disabled": 0, "lat": 38.926711833333336, "rental_uris": {"ios": "https://dc.lft.to/lastmile_qr_scan", "android": "https://dc.lft.to/lastmile_qr_scan"}, "is_reserved": 0, "fusion_lon": 0.0, "fusion_lat": 0.0, "lon": -77.0147045, "name": "59a6d82a34931e4d27b0f9a545fdd0fc"}, {"bike_id": "fd2667095922c46e43296a78838b9c22", "type": "electric_scooter", "is_disabled": 0, "lat": 38.9061175, "rental_uris": {"ios": "https://dc.lft.to/lastmile_qr_scan", "android": "https://dc.lft.to/lastmile_qr_scan"}, "is_reserved": 0, "fusion_lon": 0.0, "fusion_lat": 0.0, "lon": -77.06296066666667, "name": "fd2667095922c46e43296a78838b9c22"}, {"bike_id": "d7533511141fe6d9770fd0cd6ae8d12b", "type": "electric_scooter", "is_disabled": 0, "lat": 38.896928333333335, "rental_uris": {"ios": "https://dc.lft.to/lastmile_qr_scan", "android": "https://dc.lft.to/lastmile_qr_scan"}, "is_reserved": 0, "fusion_lon": 0.0, "fusion_lat": 0.0, "lon": -76.99962083333334, "name": "d7533511141fe6d9770fd0cd6ae8d12b"}, {"bike_id": "1533979cf9bf6f42f73395a35f0ee87b", "type": "electric_bike", "is_disabled": 0, "lat": 38.8895365, "rental_uris": {"ios": "https://dc.lft.to/lastmile_qr_scan", "android": "https://dc.lft.to/lastmile_qr_scan"}, "is_reserved": 0, "fusion_lon": 0.0, "fusion_lat": 0.0, "lon": -77.0913825, "name": "1533979cf9bf6f42f73395a35f0ee87b"}, {"bike_id": "e3bd615125ff7a3745bddd288d969eee", "type": "electric_scooter", "is_disabled": 0, "lat": 38.90727316666667, "rental_uris": {"ios": "https://dc.lft.to/lastmile_qr_scan", "android": "https://dc.lft.to/lastmile_qr_scan"}, "is_reserved": 0, "fusion_lon": 0.0, "fusion_lat": 0.0, "lon": -77.043514, "name": "e3bd615125ff7a3745bddd288d969eee"}, {"bike_id": "f2d13234b6a65490681d9402d0ffb904", "type": "electric_scooter", "is_disabled": 0, "lat": 38.92856, "rental_uris": {"ios": "https://dc.lft.to/lastmile_qr_scan", "android": "https://dc.lft.to/lastmile_qr_scan"}, "is_reserved": 0, "fusion_lon": 0.0, "fusion_lat": 0.0, "lon": -77.034294, "name": "f2d13234b6a65490681d9402d0ffb904"}, {"bike_id": "70da077137cc298534aa29cbfff07a8d", "type": "electric_scooter", "is_disabled": 0, "lat": 38.9361855, "rental_uris": {"ios": "https://dc.lft.to/lastmile_qr_scan", "android": "https://dc.lft.to/lastmile_qr_scan"}, "is_reserved": 0, "fusion_lon": 0.0, "fusion_lat": 0.0, "lon": -77.03786233333334, "name": "70da077137cc298534aa29cbfff07a8d"}, {"bike_id": "cbccd3d76ac7fbcca7a7d1304bf8b1d9", "type": "electric_scooter", "is_disabled": 0, "lat": 38.911382333333336, "rental_uris": {"ios": "https://dc.lft.to/lastmile_qr_scan", "android": "https://dc.lft.to/lastmile_qr_scan"}, "is_reserved": 0, "fusion_lon": 0.0, "fusion_lat": 0.0, "lon": -76.9901185, "name": "cbccd3d76ac7fbcca7a7d1304bf8b1d9"}, {"bike_id": "df2e3c7320a4c706cff49d799faab215", "type": "electric_scooter", "is_disabled": 0, "lat": 38.9335755, "rental_uris": {"ios": "https://dc.lft.to/lastmile_qr_scan", "android": "https://dc.lft.to/lastmile_qr_scan"}, "is_reserved": 0, "fusion_lon": 0.0, "fusion_lat": 0.0, "lon": -77.06208683333334, "name": "df2e3c7320a4c706cff49d799faab215"}, {"bike_id": "73cea46c7c4ff20cdc21144adb461201", "type": "electric_scooter", "is_disabled": 0, "lat": 38.92426183333333, "rental_uris": {"ios": "https://dc.lft.to/lastmile_qr_scan", "android": "https://dc.lft.to/lastmile_qr_scan"}, "is_reserved": 0, "fusion_lon": 0.0, "fusion_lat": 0.0, "lon": -77.04242766666667, "name": "73cea46c7c4ff20cdc21144adb461201"}, {"bike_id": "4e5b4b5eb37a421d2662973ca9f0e011", "type": "electric_bike", "is_disabled": 0, "lat": 38.872962666666666, "rental_uris": {"ios": "https://dc.lft.to/lastmile_qr_scan", "android": "https://dc.lft.to/lastmile_qr_scan"}, "is_reserved": 0, "fusion_lon": 0.0, "fusion_lat": 0.0, "lon": -77.1392215, "name": "4e5b4b5eb37a421d2662973ca9f0e011"}, {"bike_id": "88f80f3c2197cb1ebf378b0a41f1a645", "type": "electric_scooter", "is_disabled": 0, "lat": 38.93865483333333, "rental_uris": {"ios": "https://dc.lft.to/lastmile_qr_scan", "android": "https://dc.lft.to/lastmile_qr_scan"}, "is_reserved": 0, "fusion_lon": 0.0, "fusion_lat": 0.0, "lon": -77.0270205, "name": "88f80f3c2197cb1ebf378b0a41f1a645"}, {"bike_id": "12e15a9c02c6642b514ede359c0ce7a3", "type": "electric_scooter", "is_disabled": 0, "lat": 38.95316533333333, "rental_uris": {"ios": "https://dc.lft.to/lastmile_qr_scan", "android": "https://dc.lft.to/lastmile_qr_scan"}, "is_reserved": 0, "fusion_lon": 0.0, "fusion_lat": 0.0, "lon": -77.06976866666666, "name": "12e15a9c02c6642b514ede359c0ce7a3"}, {"bike_id": "1a80de8c2a3536b43536d084c9d4d701", "type": "electric_scooter", "is_disabled": 0, "lat": 38.902376333333336, "rental_uris": {"ios": "https://dc.lft.to/lastmile_qr_scan", "android": "https://dc.lft.to/lastmile_qr_scan"}, "is_reserved": 0, "fusion_lon": 0.0, "fusion_lat": 0.0, "lon": -77.02649916666667, "name": "1a80de8c2a3536b43536d084c9d4d701"}, {"bike_id": "3e1688b070164a3961541fe83e9818d1", "type": "electric_bike", "is_disabled": 0, "lat": 38.929967166666664, "rental_uris": {"ios": "https://dc.lft.to/lastmile_qr_scan", "android": "https://dc.lft.to/lastmile_qr_scan"}, "is_reserved": 0, "fusion_lon": 0.0, "fusion_lat": 0.0, "lon": -77.02168183333333, "name": "3e1688b070164a3961541fe83e9818d1"}, {"bike_id": "f1c407067998a5392cc203803b6eec83", "type": "electric_scooter", "is_disabled": 0, "lat": 38.903661166666666, "rental_uris": {"ios": "https://dc.lft.to/lastmile_qr_scan", "android": "https://dc.lft.to/lastmile_qr_scan"}, "is_reserved": 0, "fusion_lon": 0.0, "fusion_lat": 0.0, "lon": -77.0294715, "name": "f1c407067998a5392cc203803b6eec83"}, {"bike_id": "dd7ff883f02142f446be26a541fab405", "type": "electric_bike", "is_disabled": 0, "lat": 38.924694, "rental_uris": {"ios": "https://dc.lft.to/lastmile_qr_scan", "android": "https://dc.lft.to/lastmile_qr_scan"}, "is_reserved": 0, "fusion_lon": 0.0, "fusion_lat": 0.0, "lon": -77.2257615, "name": "dd7ff883f02142f446be26a541fab405"}, {"bike_id": "ee0e2238d6501e03d670c671aedccfe3", "type": "electric_scooter", "is_disabled": 0, "lat": 38.94195533333333, "rental_uris": {"ios": "https://dc.lft.to/lastmile_qr_scan", "android": "https://dc.lft.to/lastmile_qr_scan"}, "is_reserved": 0, "fusion_lon": 0.0, "fusion_lat": 0.0, "lon": -77.02433516666666, "name": "ee0e2238d6501e03d670c671aedccfe3"}, {"bike_id": "abd8ed2168579b0e5140e69b87d7c914", "type": "electric_scooter", "is_disabled": 0, "lat": 38.906431, "rental_uris": {"ios": "https://dc.lft.to/lastmile_qr_scan", "android": "https://dc.lft.to/lastmile_qr_scan"}, "is_reserved": 0, "fusion_lon": 0.0, "fusion_lat": 0.0, "lon": -77.00977233333333, "name": "abd8ed2168579b0e5140e69b87d7c914"}, {"bike_id": "01b388de0514b93669b3c6267faa8b98", "type": "electric_scooter", "is_disabled": 0, "lat": 38.898442, "rental_uris": {"ios": "https://dc.lft.to/lastmile_qr_scan", "android": "https://dc.lft.to/lastmile_qr_scan"}, "is_reserved": 0, "fusion_lon": 0.0, "fusion_lat": 0.0, "lon": -76.946339, "name": "01b388de0514b93669b3c6267faa8b98"}, {"bike_id": "45baba6eba3237b004dae9bee81ab2db", "type": "electric_scooter", "is_disabled": 0, "lat": 38.914598833333336, "rental_uris": {"ios": "https://dc.lft.to/lastmile_qr_scan", "android": "https://dc.lft.to/lastmile_qr_scan"}, "is_reserved": 0, "fusion_lon": 0.0, "fusion_lat": 0.0, "lon": -77.0228925, "name": "45baba6eba3237b004dae9bee81ab2db"}, {"bike_id": "2c63594f8a7055aeafe3688719466f2d", "type": "electric_bike", "is_disabled": 0, "lat": 38.95227383333334, "rental_uris": {"ios": "https://dc.lft.to/lastmile_qr_scan", "android": "https://dc.lft.to/lastmile_qr_scan"}, "is_reserved": 0, "fusion_lon": 0.0, "fusion_lat": 0.0, "lon": -77.00265516666667, "name": "2c63594f8a7055aeafe3688719466f2d"}, {"bike_id": "3c5a6490e77d408ce7c0116ac0ee6a86", "type": "electric_bike", "is_disabled": 0, "lat": 38.9466265, "rental_uris": {"ios": "https://dc.lft.to/lastmile_qr_scan", "android": "https://dc.lft.to/lastmile_qr_scan"}, "is_reserved": 0, "fusion_lon": 0.0, "fusion_lat": 0.0, "lon": -76.95667566666667, "name": "3c5a6490e77d408ce7c0116ac0ee6a86"}, {"bike_id": "97e86295dbd9a7c58f84b1caceacf27d", "type": "electric_scooter", "is_disabled": 0, "lat": 38.90682666666667, "rental_uris": {"ios": "https://dc.lft.to/lastmile_qr_scan", "android": "https://dc.lft.to/lastmile_qr_scan"}, "is_reserved": 0, "fusion_lon": 0.0, "fusion_lat": 0.0, "lon": -77.02373766666666, "name": "97e86295dbd9a7c58f84b1caceacf27d"}, {"bike_id": "727442a5f12da869a93350398be400ad", "type": "electric_scooter", "is_disabled": 0, "lat": 38.940206, "rental_uris": {"ios": "https://dc.lft.to/lastmile_qr_scan", "android": "https://dc.lft.to/lastmile_qr_scan"}, "is_reserved": 0, "fusion_lon": 0.0, "fusion_lat": 0.0, "lon": -77.03810583333333, "name": "727442a5f12da869a93350398be400ad"}, {"bike_id": "68c2f69fe019188b8e3045b7c40cffb9", "type": "electric_scooter", "is_disabled": 0, "lat": 38.905871166666664, "rental_uris": {"ios": "https://dc.lft.to/lastmile_qr_scan", "android": "https://dc.lft.to/lastmile_qr_scan"}, "is_reserved": 0, "fusion_lon": 0.0, "fusion_lat": 0.0, "lon": -77.0627235, "name": "68c2f69fe019188b8e3045b7c40cffb9"}, {"bike_id": "446676970a8c19762d597a4baf9d94ab", "type": "electric_scooter", "is_disabled": 0, "lat": 38.920323, "rental_uris": {"ios": "https://dc.lft.to/lastmile_qr_scan", "android": "https://dc.lft.to/lastmile_qr_scan"}, "is_reserved": 0, "fusion_lon": 0.0, "fusion_lat": 0.0, "lon": -77.03395183333333, "name": "446676970a8c19762d597a4baf9d94ab"}, {"bike_id": "683714c8aa8e796193ed290ed090a613", "type": "electric_scooter", "is_disabled": 0, "lat": 38.880830833333334, "rental_uris": {"ios": "https://dc.lft.to/lastmile_qr_scan", "android": "https://dc.lft.to/lastmile_qr_scan"}, "is_reserved": 0, "fusion_lon": 0.0, "fusion_lat": 0.0, "lon": -76.98506583333334, "name": "683714c8aa8e796193ed290ed090a613"}, {"bike_id": "9216c2e95c2db277cbca17b1d840d0a7", "type": "electric_scooter", "is_disabled": 0, "lat": 38.89491683333333, "rental_uris": {"ios": "https://dc.lft.to/lastmile_qr_scan", "android": "https://dc.lft.to/lastmile_qr_scan"}, "is_reserved": 0, "fusion_lon": 0.0, "fusion_lat": 0.0, "lon": -77.000581, "name": "9216c2e95c2db277cbca17b1d840d0a7"}, {"bike_id": "4d934bef8fe61ccea331b4821a6363ce", "type": "electric_scooter", "is_disabled": 0, "lat": 38.91553666666667, "rental_uris": {"ios": "https://dc.lft.to/lastmile_qr_scan", "android": "https://dc.lft.to/lastmile_qr_scan"}, "is_reserved": 0, "fusion_lon": 0.0, "fusion_lat": 0.0, "lon": -77.03173716666667, "name": "4d934bef8fe61ccea331b4821a6363ce"}, {"bike_id": "5783d131aa3dc9dc2e63ec90312d813a", "type": "electric_scooter", "is_disabled": 0, "lat": 38.8973835, "rental_uris": {"ios": "https://dc.lft.to/lastmile_qr_scan", "android": "https://dc.lft.to/lastmile_qr_scan"}, "is_reserved": 0, "fusion_lon": 0.0, "fusion_lat": 0.0, "lon": -77.00008716666666, "name": "5783d131aa3dc9dc2e63ec90312d813a"}, {"bike_id": "dbdbcb598023339178201d0f3467ef3c", "type": "electric_scooter", "is_disabled": 0, "lat": 38.895475166666664, "rental_uris": {"ios": "https://dc.lft.to/lastmile_qr_scan", "android": "https://dc.lft.to/lastmile_qr_scan"}, "is_reserved": 0, "fusion_lon": 0.0, "fusion_lat": 0.0, "lon": -76.92952616666666, "name": "dbdbcb598023339178201d0f3467ef3c"}, {"bike_id": "8973b11f6c3d153013d6b56b9298defb", "type": "electric_scooter", "is_disabled": 0, "lat": 38.89701783333334, "rental_uris": {"ios": "https://dc.lft.to/lastmile_qr_scan", "android": "https://dc.lft.to/lastmile_qr_scan"}, "is_reserved": 0, "fusion_lon": 0.0, "fusion_lat": 0.0, "lon": -76.92999566666667, "name": "8973b11f6c3d153013d6b56b9298defb"}, {"bike_id": "5610b909c8e87bd7fffd9d2dc0931564", "type": "electric_scooter", "is_disabled": 0, "lat": 38.918125833333335, "rental_uris": {"ios": "https://dc.lft.to/lastmile_qr_scan", "android": "https://dc.lft.to/lastmile_qr_scan"}, "is_reserved": 0, "fusion_lon": 0.0, "fusion_lat": 0.0, "lon": -77.024788, "name": "5610b909c8e87bd7fffd9d2dc0931564"}, {"bike_id": "09a1810d40a2e9dc5f0609eaf48ef836", "type": "electric_scooter", "is_disabled": 0, "lat": 38.90774666666667, "rental_uris": {"ios": "https://dc.lft.to/lastmile_qr_scan", "android": "https://dc.lft.to/lastmile_qr_scan"}, "is_reserved": 0, "fusion_lon": 0.0, "fusion_lat": 0.0, "lon": -77.04509933333334, "name": "09a1810d40a2e9dc5f0609eaf48ef836"}, {"bike_id": "25827cd6adc07ce78dc75f2fb8624b4b", "type": "electric_scooter", "is_disabled": 0, "lat": 38.92717433333333, "rental_uris": {"ios": "https://dc.lft.to/lastmile_qr_scan", "android": "https://dc.lft.to/lastmile_qr_scan"}, "is_reserved": 0, "fusion_lon": 0.0, "fusion_lat": 0.0, "lon": -77.01512283333334, "name": "25827cd6adc07ce78dc75f2fb8624b4b"}, {"bike_id": "d8919e5a561f59e4d4de88f7a4e2ce0a", "type": "electric_scooter", "is_disabled": 0, "lat": 38.931791, "rental_uris": {"ios": "https://dc.lft.to/lastmile_qr_scan", "android": "https://dc.lft.to/lastmile_qr_scan"}, "is_reserved": 0, "fusion_lon": 0.0, "fusion_lat": 0.0, "lon": -77.02538983333334, "name": "d8919e5a561f59e4d4de88f7a4e2ce0a"}, {"bike_id": "c03a61dce03feef8ce73760dd3f0c3d6", "type": "electric_scooter", "is_disabled": 0, "lat": 38.884631166666665, "rental_uris": {"ios": "https://dc.lft.to/lastmile_qr_scan", "android": "https://dc.lft.to/lastmile_qr_scan"}, "is_reserved": 0, "fusion_lon": 0.0, "fusion_lat": 0.0, "lon": -77.02588966666667, "name": "c03a61dce03feef8ce73760dd3f0c3d6"}, {"bike_id": "52119676a0c3089f0d47eb71f2594035", "type": "electric_scooter", "is_disabled": 0, "lat": 38.965554833333336, "rental_uris": {"ios": "https://dc.lft.to/lastmile_qr_scan", "android": "https://dc.lft.to/lastmile_qr_scan"}, "is_reserved": 0, "fusion_lon": 0.0, "fusion_lat": 0.0, "lon": -77.020235, "name": "52119676a0c3089f0d47eb71f2594035"}, {"bike_id": "8bdbf263a1c9f2b0a00babb980bf1d0a", "type": "electric_scooter", "is_disabled": 0, "lat": 38.908612166666664, "rental_uris": {"ios": "https://dc.lft.to/lastmile_qr_scan", "android": "https://dc.lft.to/lastmile_qr_scan"}, "is_reserved": 0, "fusion_lon": 0.0, "fusion_lat": 0.0, "lon": -77.00285316666667, "name": "8bdbf263a1c9f2b0a00babb980bf1d0a"}, {"bike_id": "b2c5725a25b80def3f2f4b5381918cb4", "type": "electric_scooter", "is_disabled": 0, "lat": 38.908113166666666, "rental_uris": {"ios": "https://dc.lft.to/lastmile_qr_scan", "android": "https://dc.lft.to/lastmile_qr_scan"}, "is_reserved": 0, "fusion_lon": 0.0, "fusion_lat": 0.0, "lon": -77.033422, "name": "b2c5725a25b80def3f2f4b5381918cb4"}, {"bike_id": "6766e0092a6163082c2652878542774b", "type": "electric_scooter", "is_disabled": 0, "lat": 38.9303885, "rental_uris": {"ios": "https://dc.lft.to/lastmile_qr_scan", "android": "https://dc.lft.to/lastmile_qr_scan"}, "is_reserved": 0, "fusion_lon": 0.0, "fusion_lat": 0.0, "lon": -77.018256, "name": "6766e0092a6163082c2652878542774b"}, {"bike_id": "656f0b0ec85fc81f63301ea8eec0bcfa", "type": "electric_scooter", "is_disabled": 0, "lat": 38.90155566666667, "rental_uris": {"ios": "https://dc.lft.to/lastmile_qr_scan", "android": "https://dc.lft.to/lastmile_qr_scan"}, "is_reserved": 0, "fusion_lon": 0.0, "fusion_lat": 0.0, "lon": -77.03003066666666, "name": "656f0b0ec85fc81f63301ea8eec0bcfa"}, {"bike_id": "cdc1baca91d9f3fb0cdb830301d70022", "type": "electric_scooter", "is_disabled": 0, "lat": 38.891108833333334, "rental_uris": {"ios": "https://dc.lft.to/lastmile_qr_scan", "android": "https://dc.lft.to/lastmile_qr_scan"}, "is_reserved": 0, "fusion_lon": 0.0, "fusion_lat": 0.0, "lon": -77.01505966666667, "name": "cdc1baca91d9f3fb0cdb830301d70022"}, {"bike_id": "87d442b92ed8f2885470ee530b945c4f", "type": "electric_scooter", "is_disabled": 0, "lat": 38.88433933333334, "rental_uris": {"ios": "https://dc.lft.to/lastmile_qr_scan", "android": "https://dc.lft.to/lastmile_qr_scan"}, "is_reserved": 0, "fusion_lon": 0.0, "fusion_lat": 0.0, "lon": -76.95755283333334, "name": "87d442b92ed8f2885470ee530b945c4f"}, {"bike_id": "7c61af8b5b759ad5cdb6bb4b21711093", "type": "electric_bike", "is_disabled": 0, "lat": 38.86515383333333, "rental_uris": {"ios": "https://dc.lft.to/lastmile_qr_scan", "android": "https://dc.lft.to/lastmile_qr_scan"}, "is_reserved": 0, "fusion_lon": 0.0, "fusion_lat": 0.0, "lon": -77.12936233333333, "name": "7c61af8b5b759ad5cdb6bb4b21711093"}, {"bike_id": "0c9c0bd80be154db2f5c9beb58ee5dfe", "type": "electric_scooter", "is_disabled": 0, "lat": 38.88208433333333, "rental_uris": {"ios": "https://dc.lft.to/lastmile_qr_scan", "android": "https://dc.lft.to/lastmile_qr_scan"}, "is_reserved": 0, "fusion_lon": 0.0, "fusion_lat": 0.0, "lon": -77.02900833333334, "name": "0c9c0bd80be154db2f5c9beb58ee5dfe"}, {"bike_id": "947630b7b7998311cb14dcf39af678f7", "type": "electric_bike", "is_disabled": 0, "lat": 38.8039485, "rental_uris": {"ios": "https://dc.lft.to/lastmile_qr_scan", "android": "https://dc.lft.to/lastmile_qr_scan"}, "is_reserved": 0, "fusion_lon": 0.0, "fusion_lat": 0.0, "lon": -77.05564183333334, "name": "947630b7b7998311cb14dcf39af678f7"}, {"bike_id": "1b44836252c0645654a99fa6a72be523", "type": "electric_scooter", "is_disabled": 0, "lat": 38.901912, "rental_uris": {"ios": "https://dc.lft.to/lastmile_qr_scan", "android": "https://dc.lft.to/lastmile_qr_scan"}, "is_reserved": 0, "fusion_lon": 0.0, "fusion_lat": 0.0, "lon": -76.99679, "name": "1b44836252c0645654a99fa6a72be523"}, {"bike_id": "9520aaf251f124b3f65c5cdcfe5d1704", "type": "electric_scooter", "is_disabled": 0, "lat": 38.91393866666667, "rental_uris": {"ios": "https://dc.lft.to/lastmile_qr_scan", "android": "https://dc.lft.to/lastmile_qr_scan"}, "is_reserved": 0, "fusion_lon": 0.0, "fusion_lat": 0.0, "lon": -77.03948783333334, "name": "9520aaf251f124b3f65c5cdcfe5d1704"}, {"bike_id": "539e48a03e9a6e1b5f4305f7f54b9d04", "type": "electric_scooter", "is_disabled": 0, "lat": 38.93991483333333, "rental_uris": {"ios": "https://dc.lft.to/lastmile_qr_scan", "android": "https://dc.lft.to/lastmile_qr_scan"}, "is_reserved": 0, "fusion_lon": 0.0, "fusion_lat": 0.0, "lon": -77.016973, "name": "539e48a03e9a6e1b5f4305f7f54b9d04"}, {"bike_id": "1971142d22304306da676aa51c45ca30", "type": "electric_scooter", "is_disabled": 0, "lat": 38.915985, "rental_uris": {"ios": "https://dc.lft.to/lastmile_qr_scan", "android": "https://dc.lft.to/lastmile_qr_scan"}, "is_reserved": 0, "fusion_lon": 0.0, "fusion_lat": 0.0, "lon": -77.0239775, "name": "1971142d22304306da676aa51c45ca30"}, {"bike_id": "edf6568db5e382ab10fb3e8cc6015ee1", "type": "electric_scooter", "is_disabled": 0, "lat": 38.89640633333333, "rental_uris": {"ios": "https://dc.lft.to/lastmile_qr_scan", "android": "https://dc.lft.to/lastmile_qr_scan"}, "is_reserved": 0, "fusion_lon": 0.0, "fusion_lat": 0.0, "lon": -77.00909316666667, "name": "edf6568db5e382ab10fb3e8cc6015ee1"}, {"bike_id": "8597f9389f3be1928f8ae27217e06e05", "type": "electric_bike", "is_disabled": 0, "lat": 39.05059166666667, "rental_uris": {"ios": "https://dc.lft.to/lastmile_qr_scan", "android": "https://dc.lft.to/lastmile_qr_scan"}, "is_reserved": 0, "fusion_lon": 0.0, "fusion_lat": 0.0, "lon": -77.0514685, "name": "8597f9389f3be1928f8ae27217e06e05"}, {"bike_id": "95c0d53c6f3cf4749c3bcf02b55e1df6", "type": "electric_scooter", "is_disabled": 0, "lat": 38.911067333333335, "rental_uris": {"ios": "https://dc.lft.to/lastmile_qr_scan", "android": "https://dc.lft.to/lastmile_qr_scan"}, "is_reserved": 0, "fusion_lon": 0.0, "fusion_lat": 0.0, "lon": -77.03254733333333, "name": "95c0d53c6f3cf4749c3bcf02b55e1df6"}, {"bike_id": "34cd8bb6ccbe6544fe2ee1954d05f481", "type": "electric_scooter", "is_disabled": 0, "lat": 38.8775635, "rental_uris": {"ios": "https://dc.lft.to/lastmile_qr_scan", "android": "https://dc.lft.to/lastmile_qr_scan"}, "is_reserved": 0, "fusion_lon": 0.0, "fusion_lat": 0.0, "lon": -76.98681766666667, "name": "34cd8bb6ccbe6544fe2ee1954d05f481"}, {"bike_id": "604370773c4308519b90fe2a07fd1139", "type": "electric_bike", "is_disabled": 0, "lat": 38.832460166666664, "rental_uris": {"ios": "https://dc.lft.to/lastmile_qr_scan", "android": "https://dc.lft.to/lastmile_qr_scan"}, "is_reserved": 0, "fusion_lon": 0.0, "fusion_lat": 0.0, "lon": -76.94633333333333, "name": "604370773c4308519b90fe2a07fd1139"}, {"bike_id": "b1a7b52a42a43485a407a7446026dfa6", "type": "electric_scooter", "is_disabled": 0, "lat": 38.905654, "rental_uris": {"ios": "https://dc.lft.to/lastmile_qr_scan", "android": "https://dc.lft.to/lastmile_qr_scan"}, "is_reserved": 0, "fusion_lon": 0.0, "fusion_lat": 0.0, "lon": -76.977825, "name": "b1a7b52a42a43485a407a7446026dfa6"}, {"bike_id": "8281381de9b9bb7190ed7f987d3e89b1", "type": "electric_scooter", "is_disabled": 0, "lat": 38.919047, "rental_uris": {"ios": "https://dc.lft.to/lastmile_qr_scan", "android": "https://dc.lft.to/lastmile_qr_scan"}, "is_reserved": 0, "fusion_lon": 0.0, "fusion_lat": 0.0, "lon": -77.03211483333334, "name": "8281381de9b9bb7190ed7f987d3e89b1"}, {"bike_id": "1fe880f1ae3b4ae27601a6c7f9f32994", "type": "electric_scooter", "is_disabled": 0, "lat": 38.9070255, "rental_uris": {"ios": "https://dc.lft.to/lastmile_qr_scan", "android": "https://dc.lft.to/lastmile_qr_scan"}, "is_reserved": 0, "fusion_lon": 0.0, "fusion_lat": 0.0, "lon": -77.04200666666667, "name": "1fe880f1ae3b4ae27601a6c7f9f32994"}, {"bike_id": "a465976ebdcda6ef1eebd263c02a0c1d", "type": "electric_scooter", "is_disabled": 0, "lat": 38.91682016666667, "rental_uris": {"ios": "https://dc.lft.to/lastmile_qr_scan", "android": "https://dc.lft.to/lastmile_qr_scan"}, "is_reserved": 0, "fusion_lon": 0.0, "fusion_lat": 0.0, "lon": -77.02966283333333, "name": "a465976ebdcda6ef1eebd263c02a0c1d"}, {"bike_id": "9e3c218c73ff7a31dd4830a167b27bed", "type": "electric_scooter", "is_disabled": 0, "lat": 38.89571216666667, "rental_uris": {"ios": "https://dc.lft.to/lastmile_qr_scan", "android": "https://dc.lft.to/lastmile_qr_scan"}, "is_reserved": 0, "fusion_lon": 0.0, "fusion_lat": 0.0, "lon": -76.9302855, "name": "9e3c218c73ff7a31dd4830a167b27bed"}, {"bike_id": "d2464b840783af84cd50fde2ead11b95", "type": "electric_scooter", "is_disabled": 0, "lat": 38.907853833333334, "rental_uris": {"ios": "https://dc.lft.to/lastmile_qr_scan", "android": "https://dc.lft.to/lastmile_qr_scan"}, "is_reserved": 0, "fusion_lon": 0.0, "fusion_lat": 0.0, "lon": -77.00221533333334, "name": "d2464b840783af84cd50fde2ead11b95"}, {"bike_id": "30f3357107e51efed2da42509d738831", "type": "electric_scooter", "is_disabled": 0, "lat": 38.91271483333333, "rental_uris": {"ios": "https://dc.lft.to/lastmile_qr_scan", "android": "https://dc.lft.to/lastmile_qr_scan"}, "is_reserved": 0, "fusion_lon": 0.0, "fusion_lat": 0.0, "lon": -77.02269666666666, "name": "30f3357107e51efed2da42509d738831"}, {"bike_id": "352f22ce80f2b0350f46d0b5fc2588e8", "type": "electric_scooter", "is_disabled": 0, "lat": 38.940219, "rental_uris": {"ios": "https://dc.lft.to/lastmile_qr_scan", "android": "https://dc.lft.to/lastmile_qr_scan"}, "is_reserved": 0, "fusion_lon": 0.0, "fusion_lat": 0.0, "lon": -77.03805883333334, "name": "352f22ce80f2b0350f46d0b5fc2588e8"}, {"bike_id": "263c741ed297c242b397f3a22d7ff51f", "type": "electric_scooter", "is_disabled": 0, "lat": 38.870976666666664, "rental_uris": {"ios": "https://dc.lft.to/lastmile_qr_scan", "android": "https://dc.lft.to/lastmile_qr_scan"}, "is_reserved": 0, "fusion_lon": 0.0, "fusion_lat": 0.0, "lon": -77.0119695, "name": "263c741ed297c242b397f3a22d7ff51f"}, {"bike_id": "e2292f52946dd4a0aa632d6931e1da75", "type": "electric_scooter", "is_disabled": 0, "lat": 38.9056455, "rental_uris": {"ios": "https://dc.lft.to/lastmile_qr_scan", "android": "https://dc.lft.to/lastmile_qr_scan"}, "is_reserved": 0, "fusion_lon": 0.0, "fusion_lat": 0.0, "lon": -76.97636033333333, "name": "e2292f52946dd4a0aa632d6931e1da75"}, {"bike_id": "d993cf5a98f63d56733740f6f5acdb7b", "type": "electric_scooter", "is_disabled": 0, "lat": 38.9086695, "rental_uris": {"ios": "https://dc.lft.to/lastmile_qr_scan", "android": "https://dc.lft.to/lastmile_qr_scan"}, "is_reserved": 0, "fusion_lon": 0.0, "fusion_lat": 0.0, "lon": -77.08587733333333, "name": "d993cf5a98f63d56733740f6f5acdb7b"}, {"bike_id": "668619bcbf8b7c2874b0e8fa0f692b56", "type": "electric_scooter", "is_disabled": 0, "lat": 38.92254533333333, "rental_uris": {"ios": "https://dc.lft.to/lastmile_qr_scan", "android": "https://dc.lft.to/lastmile_qr_scan"}, "is_reserved": 0, "fusion_lon": 0.0, "fusion_lat": 0.0, "lon": -77.04297283333334, "name": "668619bcbf8b7c2874b0e8fa0f692b56"}, {"bike_id": "7f5970149e10522b72d9dd4ce8480bba", "type": "electric_scooter", "is_disabled": 0, "lat": 38.884071, "rental_uris": {"ios": "https://dc.lft.to/lastmile_qr_scan", "android": "https://dc.lft.to/lastmile_qr_scan"}, "is_reserved": 0, "fusion_lon": 0.0, "fusion_lat": 0.0, "lon": -76.9538885, "name": "7f5970149e10522b72d9dd4ce8480bba"}, {"bike_id": "fc3b381393fcb2edda11131632ffc62d", "type": "electric_scooter", "is_disabled": 0, "lat": 38.90529033333333, "rental_uris": {"ios": "https://dc.lft.to/lastmile_qr_scan", "android": "https://dc.lft.to/lastmile_qr_scan"}, "is_reserved": 0, "fusion_lon": 0.0, "fusion_lat": 0.0, "lon": -77.05721416666667, "name": "fc3b381393fcb2edda11131632ffc62d"}, {"bike_id": "f7e253dd9adaabbdc4f96b4c4e29c7c3", "type": "electric_scooter", "is_disabled": 0, "lat": 38.8909635, "rental_uris": {"ios": "https://dc.lft.to/lastmile_qr_scan", "android": "https://dc.lft.to/lastmile_qr_scan"}, "is_reserved": 0, "fusion_lon": 0.0, "fusion_lat": 0.0, "lon": -76.93853716666666, "name": "f7e253dd9adaabbdc4f96b4c4e29c7c3"}, {"bike_id": "baa2d670d43677383e2eb1190507b1f3", "type": "electric_scooter", "is_disabled": 0, "lat": 38.91830783333333, "rental_uris": {"ios": "https://dc.lft.to/lastmile_qr_scan", "android": "https://dc.lft.to/lastmile_qr_scan"}, "is_reserved": 0, "fusion_lon": 0.0, "fusion_lat": 0.0, "lon": -77.032153, "name": "baa2d670d43677383e2eb1190507b1f3"}, {"bike_id": "f61c3688b50f20a490edda2b199c2fed", "type": "electric_scooter", "is_disabled": 0, "lat": 38.93241166666667, "rental_uris": {"ios": "https://dc.lft.to/lastmile_qr_scan", "android": "https://dc.lft.to/lastmile_qr_scan"}, "is_reserved": 0, "fusion_lon": 0.0, "fusion_lat": 0.0, "lon": -77.0327975, "name": "f61c3688b50f20a490edda2b199c2fed"}, {"bike_id": "0d82e852cb889dbdd9fde9d005b3a39e", "type": "electric_scooter", "is_disabled": 0, "lat": 38.89858816666667, "rental_uris": {"ios": "https://dc.lft.to/lastmile_qr_scan", "android": "https://dc.lft.to/lastmile_qr_scan"}, "is_reserved": 0, "fusion_lon": 0.0, "fusion_lat": 0.0, "lon": -77.02594733333333, "name": "0d82e852cb889dbdd9fde9d005b3a39e"}, {"bike_id": "4ca7a31a5b45047b31ff1672de19f52b", "type": "electric_scooter", "is_disabled": 0, "lat": 38.9286445, "rental_uris": {"ios": "https://dc.lft.to/lastmile_qr_scan", "android": "https://dc.lft.to/lastmile_qr_scan"}, "is_reserved": 0, "fusion_lon": 0.0, "fusion_lat": 0.0, "lon": -77.03711883333334, "name": "4ca7a31a5b45047b31ff1672de19f52b"}, {"bike_id": "04fc1ae466f3abe2bfb50409b9f1f436", "type": "electric_scooter", "is_disabled": 0, "lat": 38.9217765, "rental_uris": {"ios": "https://dc.lft.to/lastmile_qr_scan", "android": "https://dc.lft.to/lastmile_qr_scan"}, "is_reserved": 0, "fusion_lon": 0.0, "fusion_lat": 0.0, "lon": -77.03794533333334, "name": "04fc1ae466f3abe2bfb50409b9f1f436"}, {"bike_id": "8a95b91744792fd83d02da7b1454cbda", "type": "electric_scooter", "is_disabled": 0, "lat": 38.912672666666666, "rental_uris": {"ios": "https://dc.lft.to/lastmile_qr_scan", "android": "https://dc.lft.to/lastmile_qr_scan"}, "is_reserved": 0, "fusion_lon": 0.0, "fusion_lat": 0.0, "lon": -77.02210683333334, "name": "8a95b91744792fd83d02da7b1454cbda"}, {"bike_id": "cb4ca13f95d04dc21c0f5242d7c88ddf", "type": "electric_scooter", "is_disabled": 0, "lat": 38.918169666666664, "rental_uris": {"ios": "https://dc.lft.to/lastmile_qr_scan", "android": "https://dc.lft.to/lastmile_qr_scan"}, "is_reserved": 0, "fusion_lon": 0.0, "fusion_lat": 0.0, "lon": -77.00257533333334, "name": "cb4ca13f95d04dc21c0f5242d7c88ddf"}, {"bike_id": "126af7d15f1ca71fc27aed75814413ab", "type": "electric_scooter", "is_disabled": 0, "lat": 38.9096165, "rental_uris": {"ios": "https://dc.lft.to/lastmile_qr_scan", "android": "https://dc.lft.to/lastmile_qr_scan"}, "is_reserved": 0, "fusion_lon": 0.0, "fusion_lat": 0.0, "lon": -77.01882433333333, "name": "126af7d15f1ca71fc27aed75814413ab"}, {"bike_id": "11d8360c2d2868c643eb7d6c677fd95c", "type": "electric_scooter", "is_disabled": 0, "lat": 38.9177975, "rental_uris": {"ios": "https://dc.lft.to/lastmile_qr_scan", "android": "https://dc.lft.to/lastmile_qr_scan"}, "is_reserved": 0, "fusion_lon": 0.0, "fusion_lat": 0.0, "lon": -77.02318366666667, "name": "11d8360c2d2868c643eb7d6c677fd95c"}, {"bike_id": "dbdbb974fff5eadf567d2c1dd091fb19", "type": "electric_scooter", "is_disabled": 0, "lat": 38.916994, "rental_uris": {"ios": "https://dc.lft.to/lastmile_qr_scan", "android": "https://dc.lft.to/lastmile_qr_scan"}, "is_reserved": 0, "fusion_lon": 0.0, "fusion_lat": 0.0, "lon": -77.02347566666667, "name": "dbdbb974fff5eadf567d2c1dd091fb19"}, {"bike_id": "56d7fd6e71a175d1cf37c35aa6b39a63", "type": "electric_scooter", "is_disabled": 0, "lat": 38.91758, "rental_uris": {"ios": "https://dc.lft.to/lastmile_qr_scan", "android": "https://dc.lft.to/lastmile_qr_scan"}, "is_reserved": 0, "fusion_lon": 0.0, "fusion_lat": 0.0, "lon": -77.04771233333334, "name": "56d7fd6e71a175d1cf37c35aa6b39a63"}, {"bike_id": "b8af8719ef1a89e0f867dffe4f0052e7", "type": "electric_scooter", "is_disabled": 0, "lat": 38.91270933333333, "rental_uris": {"ios": "https://dc.lft.to/lastmile_qr_scan", "android": "https://dc.lft.to/lastmile_qr_scan"}, "is_reserved": 0, "fusion_lon": 0.0, "fusion_lat": 0.0, "lon": -77.02210183333334, "name": "b8af8719ef1a89e0f867dffe4f0052e7"}, {"bike_id": "437ff152c1053045ec5678380ceb7572", "type": "electric_scooter", "is_disabled": 0, "lat": 38.913412666666666, "rental_uris": {"ios": "https://dc.lft.to/lastmile_qr_scan", "android": "https://dc.lft.to/lastmile_qr_scan"}, "is_reserved": 0, "fusion_lon": 0.0, "fusion_lat": 0.0, "lon": -77.0259005, "name": "437ff152c1053045ec5678380ceb7572"}, {"bike_id": "6aa63288415c976227d5a2a3aeb97734", "type": "electric_scooter", "is_disabled": 0, "lat": 38.929295333333336, "rental_uris": {"ios": "https://dc.lft.to/lastmile_qr_scan", "android": "https://dc.lft.to/lastmile_qr_scan"}, "is_reserved": 0, "fusion_lon": 0.0, "fusion_lat": 0.0, "lon": -77.03257533333333, "name": "6aa63288415c976227d5a2a3aeb97734"}, {"bike_id": "0fe7a82efcafaf8ec47d76fc08e10b3c", "type": "electric_scooter", "is_disabled": 0, "lat": 38.899330666666664, "rental_uris": {"ios": "https://dc.lft.to/lastmile_qr_scan", "android": "https://dc.lft.to/lastmile_qr_scan"}, "is_reserved": 0, "fusion_lon": 0.0, "fusion_lat": 0.0, "lon": -77.018674, "name": "0fe7a82efcafaf8ec47d76fc08e10b3c"}, {"bike_id": "33e5aba18ca50e6e1b9aba727882825a", "type": "electric_scooter", "is_disabled": 0, "lat": 38.93734766666667, "rental_uris": {"ios": "https://dc.lft.to/lastmile_qr_scan", "android": "https://dc.lft.to/lastmile_qr_scan"}, "is_reserved": 0, "fusion_lon": 0.0, "fusion_lat": 0.0, "lon": -77.02433183333333, "name": "33e5aba18ca50e6e1b9aba727882825a"}, {"bike_id": "6ce4aab492ca2112096e1d1d3a5b6ec7", "type": "electric_scooter", "is_disabled": 0, "lat": 38.9083825, "rental_uris": {"ios": "https://dc.lft.to/lastmile_qr_scan", "android": "https://dc.lft.to/lastmile_qr_scan"}, "is_reserved": 0, "fusion_lon": 0.0, "fusion_lat": 0.0, "lon": -77.00233433333334, "name": "6ce4aab492ca2112096e1d1d3a5b6ec7"}, {"bike_id": "39ce00453eaa68e241138a95fb92a96e", "type": "electric_scooter", "is_disabled": 0, "lat": 38.909418333333335, "rental_uris": {"ios": "https://dc.lft.to/lastmile_qr_scan", "android": "https://dc.lft.to/lastmile_qr_scan"}, "is_reserved": 0, "fusion_lon": 0.0, "fusion_lat": 0.0, "lon": -77.03444816666666, "name": "39ce00453eaa68e241138a95fb92a96e"}, {"bike_id": "4b39c9dfba6b2a961fe628cdd63bee3a", "type": "electric_bike", "is_disabled": 0, "lat": 38.8236815, "rental_uris": {"ios": "https://dc.lft.to/lastmile_qr_scan", "android": "https://dc.lft.to/lastmile_qr_scan"}, "is_reserved": 0, "fusion_lon": 0.0, "fusion_lat": 0.0, "lon": -77.002167, "name": "4b39c9dfba6b2a961fe628cdd63bee3a"}, {"bike_id": "dbb30c76ffc83884f80d86ce29a74178", "type": "electric_scooter", "is_disabled": 0, "lat": 38.915505333333336, "rental_uris": {"ios": "https://dc.lft.to/lastmile_qr_scan", "android": "https://dc.lft.to/lastmile_qr_scan"}, "is_reserved": 0, "fusion_lon": 0.0, "fusion_lat": 0.0, "lon": -77.03211483333334, "name": "dbb30c76ffc83884f80d86ce29a74178"}, {"bike_id": "22630caae9f5028c287bfe1dcf9fb013", "type": "electric_scooter", "is_disabled": 0, "lat": 38.9154425, "rental_uris": {"ios": "https://dc.lft.to/lastmile_qr_scan", "android": "https://dc.lft.to/lastmile_qr_scan"}, "is_reserved": 0, "fusion_lon": 0.0, "fusion_lat": 0.0, "lon": -77.01221533333333, "name": "22630caae9f5028c287bfe1dcf9fb013"}, {"bike_id": "10f5340908a9dec744ffe3efee463497", "type": "electric_scooter", "is_disabled": 0, "lat": 38.89219083333333, "rental_uris": {"ios": "https://dc.lft.to/lastmile_qr_scan", "android": "https://dc.lft.to/lastmile_qr_scan"}, "is_reserved": 0, "fusion_lon": 0.0, "fusion_lat": 0.0, "lon": -77.02594283333333, "name": "10f5340908a9dec744ffe3efee463497"}, {"bike_id": "69fa7f29bc30a53ea794df178068d7cc", "type": "electric_bike", "is_disabled": 0, "lat": 38.89808433333334, "rental_uris": {"ios": "https://dc.lft.to/lastmile_qr_scan", "android": "https://dc.lft.to/lastmile_qr_scan"}, "is_reserved": 0, "fusion_lon": 0.0, "fusion_lat": 0.0, "lon": -76.99069216666666, "name": "69fa7f29bc30a53ea794df178068d7cc"}, {"bike_id": "0937e53ba84bd66315733b5e333702bf", "type": "electric_bike", "is_disabled": 0, "lat": 38.85935933333333, "rental_uris": {"ios": "https://dc.lft.to/lastmile_qr_scan", "android": "https://dc.lft.to/lastmile_qr_scan"}, "is_reserved": 0, "fusion_lon": 0.0, "fusion_lat": 0.0, "lon": -77.118285, "name": "0937e53ba84bd66315733b5e333702bf"}, {"bike_id": "c3be4d0d4546cfb320938c2477b81914", "type": "electric_scooter", "is_disabled": 0, "lat": 38.8781995, "rental_uris": {"ios": "https://dc.lft.to/lastmile_qr_scan", "android": "https://dc.lft.to/lastmile_qr_scan"}, "is_reserved": 0, "fusion_lon": 0.0, "fusion_lat": 0.0, "lon": -77.0223305, "name": "c3be4d0d4546cfb320938c2477b81914"}, {"bike_id": "52f723272beb448a7cfc8fd90517b11d", "type": "electric_scooter", "is_disabled": 0, "lat": 38.93522566666667, "rental_uris": {"ios": "https://dc.lft.to/lastmile_qr_scan", "android": "https://dc.lft.to/lastmile_qr_scan"}, "is_reserved": 0, "fusion_lon": 0.0, "fusion_lat": 0.0, "lon": -77.03356616666666, "name": "52f723272beb448a7cfc8fd90517b11d"}, {"bike_id": "36251853b28ee5ffd51f6130540bf60f", "type": "electric_scooter", "is_disabled": 0, "lat": 38.9167015, "rental_uris": {"ios": "https://dc.lft.to/lastmile_qr_scan", "android": "https://dc.lft.to/lastmile_qr_scan"}, "is_reserved": 0, "fusion_lon": 0.0, "fusion_lat": 0.0, "lon": -77.04681866666667, "name": "36251853b28ee5ffd51f6130540bf60f"}, {"bike_id": "b93b41e738129ee0ba65f910c59b08a5", "type": "electric_scooter", "is_disabled": 0, "lat": 38.89338716666666, "rental_uris": {"ios": "https://dc.lft.to/lastmile_qr_scan", "android": "https://dc.lft.to/lastmile_qr_scan"}, "is_reserved": 0, "fusion_lon": 0.0, "fusion_lat": 0.0, "lon": -76.95057033333333, "name": "b93b41e738129ee0ba65f910c59b08a5"}, {"bike_id": "97cac0ba2c8a6c3201e21de758e3a619", "type": "electric_scooter", "is_disabled": 0, "lat": 38.93655533333333, "rental_uris": {"ios": "https://dc.lft.to/lastmile_qr_scan", "android": "https://dc.lft.to/lastmile_qr_scan"}, "is_reserved": 0, "fusion_lon": 0.0, "fusion_lat": 0.0, "lon": -77.02381283333334, "name": "97cac0ba2c8a6c3201e21de758e3a619"}, {"bike_id": "830925a39623e51ea309e788d36805ed", "type": "electric_scooter", "is_disabled": 0, "lat": 38.902708, "rental_uris": {"ios": "https://dc.lft.to/lastmile_qr_scan", "android": "https://dc.lft.to/lastmile_qr_scan"}, "is_reserved": 0, "fusion_lon": 0.0, "fusion_lat": 0.0, "lon": -77.03382, "name": "830925a39623e51ea309e788d36805ed"}, {"bike_id": "7e85c55591b88326ec47a63e8b50c6b3", "type": "electric_scooter", "is_disabled": 0, "lat": 38.9140335, "rental_uris": {"ios": "https://dc.lft.to/lastmile_qr_scan", "android": "https://dc.lft.to/lastmile_qr_scan"}, "is_reserved": 0, "fusion_lon": 0.0, "fusion_lat": 0.0, "lon": -77.032254, "name": "7e85c55591b88326ec47a63e8b50c6b3"}, {"bike_id": "31cf5f863be0ae2526237f9159ae31f4", "type": "electric_scooter", "is_disabled": 0, "lat": 38.90083033333333, "rental_uris": {"ios": "https://dc.lft.to/lastmile_qr_scan", "android": "https://dc.lft.to/lastmile_qr_scan"}, "is_reserved": 0, "fusion_lon": 0.0, "fusion_lat": 0.0, "lon": -76.98335483333334, "name": "31cf5f863be0ae2526237f9159ae31f4"}, {"bike_id": "ad531f59ba7308957c34beaa7f76757e", "type": "electric_scooter", "is_disabled": 0, "lat": 38.922465333333335, "rental_uris": {"ios": "https://dc.lft.to/lastmile_qr_scan", "android": "https://dc.lft.to/lastmile_qr_scan"}, "is_reserved": 0, "fusion_lon": 0.0, "fusion_lat": 0.0, "lon": -77.0424905, "name": "ad531f59ba7308957c34beaa7f76757e"}, {"bike_id": "57d86fc0f185b21216bae8b3b5e5305d", "type": "electric_scooter", "is_disabled": 0, "lat": 38.90975266666667, "rental_uris": {"ios": "https://dc.lft.to/lastmile_qr_scan", "android": "https://dc.lft.to/lastmile_qr_scan"}, "is_reserved": 0, "fusion_lon": 0.0, "fusion_lat": 0.0, "lon": -77.03434916666667, "name": "57d86fc0f185b21216bae8b3b5e5305d"}, {"bike_id": "5e7f903dcb9834a37f67fd695c39129d", "type": "electric_scooter", "is_disabled": 0, "lat": 38.873828833333334, "rental_uris": {"ios": "https://dc.lft.to/lastmile_qr_scan", "android": "https://dc.lft.to/lastmile_qr_scan"}, "is_reserved": 0, "fusion_lon": 0.0, "fusion_lat": 0.0, "lon": -77.04347216666666, "name": "5e7f903dcb9834a37f67fd695c39129d"}, {"bike_id": "f3ae2fc22e7748120b365ae73aae4571", "type": "electric_scooter", "is_disabled": 0, "lat": 38.919248, "rental_uris": {"ios": "https://dc.lft.to/lastmile_qr_scan", "android": "https://dc.lft.to/lastmile_qr_scan"}, "is_reserved": 0, "fusion_lon": 0.0, "fusion_lat": 0.0, "lon": -77.02571366666666, "name": "f3ae2fc22e7748120b365ae73aae4571"}, {"bike_id": "b15ab97690b665349d4dcba4315ba91f", "type": "electric_scooter", "is_disabled": 0, "lat": 38.9310105, "rental_uris": {"ios": "https://dc.lft.to/lastmile_qr_scan", "android": "https://dc.lft.to/lastmile_qr_scan"}, "is_reserved": 0, "fusion_lon": 0.0, "fusion_lat": 0.0, "lon": -77.034234, "name": "b15ab97690b665349d4dcba4315ba91f"}, {"bike_id": "309600e74c2d03084f069e47a97e984b", "type": "electric_scooter", "is_disabled": 0, "lat": 38.9239075, "rental_uris": {"ios": "https://dc.lft.to/lastmile_qr_scan", "android": "https://dc.lft.to/lastmile_qr_scan"}, "is_reserved": 0, "fusion_lon": 0.0, "fusion_lat": 0.0, "lon": -77.02970966666666, "name": "309600e74c2d03084f069e47a97e984b"}, {"bike_id": "e9dc2b2642268d5ee83a6d41b311968e", "type": "electric_scooter", "is_disabled": 0, "lat": 38.91985533333333, "rental_uris": {"ios": "https://dc.lft.to/lastmile_qr_scan", "android": "https://dc.lft.to/lastmile_qr_scan"}, "is_reserved": 0, "fusion_lon": 0.0, "fusion_lat": 0.0, "lon": -77.02462683333333, "name": "e9dc2b2642268d5ee83a6d41b311968e"}, {"bike_id": "50146908ad66d06c37b6875e900528d7", "type": "electric_scooter", "is_disabled": 0, "lat": 38.913307, "rental_uris": {"ios": "https://dc.lft.to/lastmile_qr_scan", "android": "https://dc.lft.to/lastmile_qr_scan"}, "is_reserved": 0, "fusion_lon": 0.0, "fusion_lat": 0.0, "lon": -77.02693116666667, "name": "50146908ad66d06c37b6875e900528d7"}, {"bike_id": "eecfaa4404fa1097c5950049324a167a", "type": "electric_scooter", "is_disabled": 0, "lat": 38.8972755, "rental_uris": {"ios": "https://dc.lft.to/lastmile_qr_scan", "android": "https://dc.lft.to/lastmile_qr_scan"}, "is_reserved": 0, "fusion_lon": 0.0, "fusion_lat": 0.0, "lon": -77.045349, "name": "eecfaa4404fa1097c5950049324a167a"}, {"bike_id": "3b940d933e30d295ad9865c01b6c7f3e", "type": "electric_scooter", "is_disabled": 0, "lat": 38.90958, "rental_uris": {"ios": "https://dc.lft.to/lastmile_qr_scan", "android": "https://dc.lft.to/lastmile_qr_scan"}, "is_reserved": 0, "fusion_lon": 0.0, "fusion_lat": 0.0, "lon": -77.03226516666666, "name": "3b940d933e30d295ad9865c01b6c7f3e"}, {"bike_id": "409a7c1ccbe308f689f7b1f4c031f1e3", "type": "electric_scooter", "is_disabled": 0, "lat": 38.93637316666667, "rental_uris": {"ios": "https://dc.lft.to/lastmile_qr_scan", "android": "https://dc.lft.to/lastmile_qr_scan"}, "is_reserved": 0, "fusion_lon": 0.0, "fusion_lat": 0.0, "lon": -77.05884166666667, "name": "409a7c1ccbe308f689f7b1f4c031f1e3"}, {"bike_id": "10f1d9dca13cca5a4a52edf9115f8e04", "type": "electric_scooter", "is_disabled": 0, "lat": 38.94214233333334, "rental_uris": {"ios": "https://dc.lft.to/lastmile_qr_scan", "android": "https://dc.lft.to/lastmile_qr_scan"}, "is_reserved": 0, "fusion_lon": 0.0, "fusion_lat": 0.0, "lon": -77.025826, "name": "10f1d9dca13cca5a4a52edf9115f8e04"}, {"bike_id": "45ecd125bfdbc12a4a46f13bf21cd774", "type": "electric_scooter", "is_disabled": 0, "lat": 38.91619133333333, "rental_uris": {"ios": "https://dc.lft.to/lastmile_qr_scan", "android": "https://dc.lft.to/lastmile_qr_scan"}, "is_reserved": 0, "fusion_lon": 0.0, "fusion_lat": 0.0, "lon": -77.03044233333334, "name": "45ecd125bfdbc12a4a46f13bf21cd774"}, {"bike_id": "e1c468006c03ec6d0e6163ef414d27c3", "type": "electric_scooter", "is_disabled": 0, "lat": 38.93132216666667, "rental_uris": {"ios": "https://dc.lft.to/lastmile_qr_scan", "android": "https://dc.lft.to/lastmile_qr_scan"}, "is_reserved": 0, "fusion_lon": 0.0, "fusion_lat": 0.0, "lon": -77.0434925, "name": "e1c468006c03ec6d0e6163ef414d27c3"}, {"bike_id": "8672186de53b0ec4722b1c4076590eca", "type": "electric_scooter", "is_disabled": 0, "lat": 38.92016266666667, "rental_uris": {"ios": "https://dc.lft.to/lastmile_qr_scan", "android": "https://dc.lft.to/lastmile_qr_scan"}, "is_reserved": 0, "fusion_lon": 0.0, "fusion_lat": 0.0, "lon": -77.01324233333334, "name": "8672186de53b0ec4722b1c4076590eca"}, {"bike_id": "4e329be04e9749eed0ef9d3ccd48880a", "type": "electric_scooter", "is_disabled": 0, "lat": 38.913881, "rental_uris": {"ios": "https://dc.lft.to/lastmile_qr_scan", "android": "https://dc.lft.to/lastmile_qr_scan"}, "is_reserved": 0, "fusion_lon": 0.0, "fusion_lat": 0.0, "lon": -77.01703066666667, "name": "4e329be04e9749eed0ef9d3ccd48880a"}, {"bike_id": "b68a46a502306c670840ec72954df813", "type": "electric_bike", "is_disabled": 0, "lat": 38.9086345, "rental_uris": {"ios": "https://dc.lft.to/lastmile_qr_scan", "android": "https://dc.lft.to/lastmile_qr_scan"}, "is_reserved": 0, "fusion_lon": 0.0, "fusion_lat": 0.0, "lon": -76.9913045, "name": "b68a46a502306c670840ec72954df813"}, {"bike_id": "5bcccd2c15b95df3976b87a1234177ff", "type": "electric_scooter", "is_disabled": 0, "lat": 38.8794425, "rental_uris": {"ios": "https://dc.lft.to/lastmile_qr_scan", "android": "https://dc.lft.to/lastmile_qr_scan"}, "is_reserved": 0, "fusion_lon": 0.0, "fusion_lat": 0.0, "lon": -77.016438, "name": "5bcccd2c15b95df3976b87a1234177ff"}, {"bike_id": "e467b4e7356fc6b89eba88d487b190b4", "type": "electric_scooter", "is_disabled": 0, "lat": 38.928589833333334, "rental_uris": {"ios": "https://dc.lft.to/lastmile_qr_scan", "android": "https://dc.lft.to/lastmile_qr_scan"}, "is_reserved": 0, "fusion_lon": 0.0, "fusion_lat": 0.0, "lon": -77.0329805, "name": "e467b4e7356fc6b89eba88d487b190b4"}, {"bike_id": "8481f4b63854d98faf8830c1fd69070f", "type": "electric_scooter", "is_disabled": 0, "lat": 38.9250755, "rental_uris": {"ios": "https://dc.lft.to/lastmile_qr_scan", "android": "https://dc.lft.to/lastmile_qr_scan"}, "is_reserved": 0, "fusion_lon": 0.0, "fusion_lat": 0.0, "lon": -77.037805, "name": "8481f4b63854d98faf8830c1fd69070f"}, {"bike_id": "6c2f316d9c6a3318cf90852da966b769", "type": "electric_scooter", "is_disabled": 0, "lat": 38.922372, "rental_uris": {"ios": "https://dc.lft.to/lastmile_qr_scan", "android": "https://dc.lft.to/lastmile_qr_scan"}, "is_reserved": 0, "fusion_lon": 0.0, "fusion_lat": 0.0, "lon": -77.0730885, "name": "6c2f316d9c6a3318cf90852da966b769"}, {"bike_id": "38fcd93a9518f8f81a4837d7c12461d5", "type": "electric_scooter", "is_disabled": 0, "lat": 38.922521, "rental_uris": {"ios": "https://dc.lft.to/lastmile_qr_scan", "android": "https://dc.lft.to/lastmile_qr_scan"}, "is_reserved": 0, "fusion_lon": 0.0, "fusion_lat": 0.0, "lon": -77.01949516666667, "name": "38fcd93a9518f8f81a4837d7c12461d5"}, {"bike_id": "1dab9f3f467bd08648e35fc3d0051c40", "type": "electric_scooter", "is_disabled": 0, "lat": 38.87809716666667, "rental_uris": {"ios": "https://dc.lft.to/lastmile_qr_scan", "android": "https://dc.lft.to/lastmile_qr_scan"}, "is_reserved": 0, "fusion_lon": 0.0, "fusion_lat": 0.0, "lon": -77.02244333333333, "name": "1dab9f3f467bd08648e35fc3d0051c40"}, {"bike_id": "0d73ce05c059dbc9c6e007a5f1972abd", "type": "electric_scooter", "is_disabled": 0, "lat": 38.87649783333333, "rental_uris": {"ios": "https://dc.lft.to/lastmile_qr_scan", "android": "https://dc.lft.to/lastmile_qr_scan"}, "is_reserved": 0, "fusion_lon": 0.0, "fusion_lat": 0.0, "lon": -76.9650605, "name": "0d73ce05c059dbc9c6e007a5f1972abd"}, {"bike_id": "bf7d1997158ecbc0ae3fc135352fdf10", "type": "electric_scooter", "is_disabled": 0, "lat": 38.92138083333333, "rental_uris": {"ios": "https://dc.lft.to/lastmile_qr_scan", "android": "https://dc.lft.to/lastmile_qr_scan"}, "is_reserved": 0, "fusion_lon": 0.0, "fusion_lat": 0.0, "lon": -77.041315, "name": "bf7d1997158ecbc0ae3fc135352fdf10"}, {"bike_id": "6a225005577153e7c54f5ad5a6897247", "type": "electric_scooter", "is_disabled": 0, "lat": 38.931397833333335, "rental_uris": {"ios": "https://dc.lft.to/lastmile_qr_scan", "android": "https://dc.lft.to/lastmile_qr_scan"}, "is_reserved": 0, "fusion_lon": 0.0, "fusion_lat": 0.0, "lon": -77.0357615, "name": "6a225005577153e7c54f5ad5a6897247"}, {"bike_id": "ffd70a3393110ca2c92f98072ce9eb04", "type": "electric_scooter", "is_disabled": 0, "lat": 38.89880266666667, "rental_uris": {"ios": "https://dc.lft.to/lastmile_qr_scan", "android": "https://dc.lft.to/lastmile_qr_scan"}, "is_reserved": 0, "fusion_lon": 0.0, "fusion_lat": 0.0, "lon": -77.02181783333333, "name": "ffd70a3393110ca2c92f98072ce9eb04"}, {"bike_id": "b48854d3f8393edb9eda77ebb3a105ec", "type": "electric_bike", "is_disabled": 0, "lat": 39.05282, "rental_uris": {"ios": "https://dc.lft.to/lastmile_qr_scan", "android": "https://dc.lft.to/lastmile_qr_scan"}, "is_reserved": 0, "fusion_lon": 0.0, "fusion_lat": 0.0, "lon": -77.080702, "name": "b48854d3f8393edb9eda77ebb3a105ec"}, {"bike_id": "5d1c9e74d2da115cb6aae4de6393bd06", "type": "electric_scooter", "is_disabled": 0, "lat": 38.9097095, "rental_uris": {"ios": "https://dc.lft.to/lastmile_qr_scan", "android": "https://dc.lft.to/lastmile_qr_scan"}, "is_reserved": 0, "fusion_lon": 0.0, "fusion_lat": 0.0, "lon": -77.0465135, "name": "5d1c9e74d2da115cb6aae4de6393bd06"}, {"bike_id": "4de236983a6a0a34e852f6a777809965", "type": "electric_scooter", "is_disabled": 0, "lat": 38.91703916666667, "rental_uris": {"ios": "https://dc.lft.to/lastmile_qr_scan", "android": "https://dc.lft.to/lastmile_qr_scan"}, "is_reserved": 0, "fusion_lon": 0.0, "fusion_lat": 0.0, "lon": -77.006564, "name": "4de236983a6a0a34e852f6a777809965"}, {"bike_id": "8c0b0c3a75874e6b1f544afadc865f99", "type": "electric_scooter", "is_disabled": 0, "lat": 38.901726, "rental_uris": {"ios": "https://dc.lft.to/lastmile_qr_scan", "android": "https://dc.lft.to/lastmile_qr_scan"}, "is_reserved": 0, "fusion_lon": 0.0, "fusion_lat": 0.0, "lon": -76.98076183333333, "name": "8c0b0c3a75874e6b1f544afadc865f99"}, {"bike_id": "33fe9bcd1ae8b24ede5fe70e5d5c7ff9", "type": "electric_scooter", "is_disabled": 0, "lat": 38.931038, "rental_uris": {"ios": "https://dc.lft.to/lastmile_qr_scan", "android": "https://dc.lft.to/lastmile_qr_scan"}, "is_reserved": 0, "fusion_lon": 0.0, "fusion_lat": 0.0, "lon": -77.024818, "name": "33fe9bcd1ae8b24ede5fe70e5d5c7ff9"}, {"bike_id": "20791112b718cbc10cf0308b76acb40b", "type": "electric_scooter", "is_disabled": 0, "lat": 38.866963166666665, "rental_uris": {"ios": "https://dc.lft.to/lastmile_qr_scan", "android": "https://dc.lft.to/lastmile_qr_scan"}, "is_reserved": 0, "fusion_lon": 0.0, "fusion_lat": 0.0, "lon": -76.98712016666667, "name": "20791112b718cbc10cf0308b76acb40b"}, {"bike_id": "a6c1d0c535eafd4fef6894afe22f35b5", "type": "electric_scooter", "is_disabled": 0, "lat": 38.93131983333333, "rental_uris": {"ios": "https://dc.lft.to/lastmile_qr_scan", "android": "https://dc.lft.to/lastmile_qr_scan"}, "is_reserved": 0, "fusion_lon": 0.0, "fusion_lat": 0.0, "lon": -76.99575366666667, "name": "a6c1d0c535eafd4fef6894afe22f35b5"}, {"bike_id": "1f56c12ed242655ede95158ef2fd119c", "type": "electric_scooter", "is_disabled": 0, "lat": 38.918262, "rental_uris": {"ios": "https://dc.lft.to/lastmile_qr_scan", "android": "https://dc.lft.to/lastmile_qr_scan"}, "is_reserved": 0, "fusion_lon": 0.0, "fusion_lat": 0.0, "lon": -77.049424, "name": "1f56c12ed242655ede95158ef2fd119c"}, {"bike_id": "09832ca54c7dd01ec434a252857f50c3", "type": "electric_scooter", "is_disabled": 0, "lat": 38.881313166666665, "rental_uris": {"ios": "https://dc.lft.to/lastmile_qr_scan", "android": "https://dc.lft.to/lastmile_qr_scan"}, "is_reserved": 0, "fusion_lon": 0.0, "fusion_lat": 0.0, "lon": -76.98352333333334, "name": "09832ca54c7dd01ec434a252857f50c3"}, {"bike_id": "99b668f3c1a5066a1fb548f50b8d8bc7", "type": "electric_scooter", "is_disabled": 0, "lat": 38.90710716666667, "rental_uris": {"ios": "https://dc.lft.to/lastmile_qr_scan", "android": "https://dc.lft.to/lastmile_qr_scan"}, "is_reserved": 0, "fusion_lon": 0.0, "fusion_lat": 0.0, "lon": -77.02402816666667, "name": "99b668f3c1a5066a1fb548f50b8d8bc7"}, {"bike_id": "da7c75d0315f10dc7e8bfed16f2ac5d1", "type": "electric_scooter", "is_disabled": 0, "lat": 38.89859083333333, "rental_uris": {"ios": "https://dc.lft.to/lastmile_qr_scan", "android": "https://dc.lft.to/lastmile_qr_scan"}, "is_reserved": 0, "fusion_lon": 0.0, "fusion_lat": 0.0, "lon": -77.02858166666667, "name": "da7c75d0315f10dc7e8bfed16f2ac5d1"}, {"bike_id": "eb5f4c914f4457dfcc3b57c6397643ed", "type": "electric_scooter", "is_disabled": 0, "lat": 38.947483, "rental_uris": {"ios": "https://dc.lft.to/lastmile_qr_scan", "android": "https://dc.lft.to/lastmile_qr_scan"}, "is_reserved": 0, "fusion_lon": 0.0, "fusion_lat": 0.0, "lon": -77.07589666666667, "name": "eb5f4c914f4457dfcc3b57c6397643ed"}, {"bike_id": "de8f2094839b3086786beac2217192ef", "type": "electric_scooter", "is_disabled": 0, "lat": 38.9127485, "rental_uris": {"ios": "https://dc.lft.to/lastmile_qr_scan", "android": "https://dc.lft.to/lastmile_qr_scan"}, "is_reserved": 0, "fusion_lon": 0.0, "fusion_lat": 0.0, "lon": -77.02282383333333, "name": "de8f2094839b3086786beac2217192ef"}, {"bike_id": "b11841f30ab6eddc414afc669bdc6658", "type": "electric_scooter", "is_disabled": 0, "lat": 38.93339916666667, "rental_uris": {"ios": "https://dc.lft.to/lastmile_qr_scan", "android": "https://dc.lft.to/lastmile_qr_scan"}, "is_reserved": 0, "fusion_lon": 0.0, "fusion_lat": 0.0, "lon": -77.020559, "name": "b11841f30ab6eddc414afc669bdc6658"}, {"bike_id": "126ae508939e72bb0dcd1e4ab227afd1", "type": "electric_scooter", "is_disabled": 0, "lat": 38.84436866666667, "rental_uris": {"ios": "https://dc.lft.to/lastmile_qr_scan", "android": "https://dc.lft.to/lastmile_qr_scan"}, "is_reserved": 0, "fusion_lon": 0.0, "fusion_lat": 0.0, "lon": -76.9987205, "name": "126ae508939e72bb0dcd1e4ab227afd1"}, {"bike_id": "544f22aba3537d7f65d79e0407b6d664", "type": "electric_scooter", "is_disabled": 0, "lat": 38.9077455, "rental_uris": {"ios": "https://dc.lft.to/lastmile_qr_scan", "android": "https://dc.lft.to/lastmile_qr_scan"}, "is_reserved": 0, "fusion_lon": 0.0, "fusion_lat": 0.0, "lon": -77.031896, "name": "544f22aba3537d7f65d79e0407b6d664"}, {"bike_id": "f45cd214744fab4ce1529dbd402ca15d", "type": "electric_scooter", "is_disabled": 0, "lat": 38.93397516666667, "rental_uris": {"ios": "https://dc.lft.to/lastmile_qr_scan", "android": "https://dc.lft.to/lastmile_qr_scan"}, "is_reserved": 0, "fusion_lon": 0.0, "fusion_lat": 0.0, "lon": -77.03517733333334, "name": "f45cd214744fab4ce1529dbd402ca15d"}, {"bike_id": "44b46f8b914db750987a5a66debf0b79", "type": "electric_scooter", "is_disabled": 0, "lat": 38.917228333333334, "rental_uris": {"ios": "https://dc.lft.to/lastmile_qr_scan", "android": "https://dc.lft.to/lastmile_qr_scan"}, "is_reserved": 0, "fusion_lon": 0.0, "fusion_lat": 0.0, "lon": -77.03660083333334, "name": "44b46f8b914db750987a5a66debf0b79"}, {"bike_id": "0032695c0aa0245e8fdda4967b0b28a5", "type": "electric_scooter", "is_disabled": 0, "lat": 38.90694533333333, "rental_uris": {"ios": "https://dc.lft.to/lastmile_qr_scan", "android": "https://dc.lft.to/lastmile_qr_scan"}, "is_reserved": 0, "fusion_lon": 0.0, "fusion_lat": 0.0, "lon": -77.04210083333334, "name": "0032695c0aa0245e8fdda4967b0b28a5"}, {"bike_id": "66723b0a520f97147515b4de1b2b743f", "type": "electric_scooter", "is_disabled": 0, "lat": 38.902707, "rental_uris": {"ios": "https://dc.lft.to/lastmile_qr_scan", "android": "https://dc.lft.to/lastmile_qr_scan"}, "is_reserved": 0, "fusion_lon": 0.0, "fusion_lat": 0.0, "lon": -77.0075035, "name": "66723b0a520f97147515b4de1b2b743f"}, {"bike_id": "db902c4c6071deb793fda738879c3bd5", "type": "electric_scooter", "is_disabled": 0, "lat": 38.921360166666666, "rental_uris": {"ios": "https://dc.lft.to/lastmile_qr_scan", "android": "https://dc.lft.to/lastmile_qr_scan"}, "is_reserved": 0, "fusion_lon": 0.0, "fusion_lat": 0.0, "lon": -77.0476505, "name": "db902c4c6071deb793fda738879c3bd5"}, {"bike_id": "7d0bf8a860f6110f677d567e9f3916fb", "type": "electric_scooter", "is_disabled": 0, "lat": 38.9384765, "rental_uris": {"ios": "https://dc.lft.to/lastmile_qr_scan", "android": "https://dc.lft.to/lastmile_qr_scan"}, "is_reserved": 0, "fusion_lon": 0.0, "fusion_lat": 0.0, "lon": -77.0723345, "name": "7d0bf8a860f6110f677d567e9f3916fb"}, {"bike_id": "1ff98707b9959406ecdd69320091b9ce", "type": "electric_scooter", "is_disabled": 0, "lat": 38.9097715, "rental_uris": {"ios": "https://dc.lft.to/lastmile_qr_scan", "android": "https://dc.lft.to/lastmile_qr_scan"}, "is_reserved": 0, "fusion_lon": 0.0, "fusion_lat": 0.0, "lon": -77.01510766666667, "name": "1ff98707b9959406ecdd69320091b9ce"}, {"bike_id": "afe2f186a2e0a49cf404575ba18e788a", "type": "electric_scooter", "is_disabled": 0, "lat": 38.90943433333333, "rental_uris": {"ios": "https://dc.lft.to/lastmile_qr_scan", "android": "https://dc.lft.to/lastmile_qr_scan"}, "is_reserved": 0, "fusion_lon": 0.0, "fusion_lat": 0.0, "lon": -77.055633, "name": "afe2f186a2e0a49cf404575ba18e788a"}, {"bike_id": "93ed26da616ac1bd1376f90a1324bead", "type": "electric_scooter", "is_disabled": 0, "lat": 38.965019833333336, "rental_uris": {"ios": "https://dc.lft.to/lastmile_qr_scan", "android": "https://dc.lft.to/lastmile_qr_scan"}, "is_reserved": 0, "fusion_lon": 0.0, "fusion_lat": 0.0, "lon": -77.0020385, "name": "93ed26da616ac1bd1376f90a1324bead"}, {"bike_id": "6fd23cf923e46f451f1705548ae6534a", "type": "electric_scooter", "is_disabled": 0, "lat": 38.907136333333334, "rental_uris": {"ios": "https://dc.lft.to/lastmile_qr_scan", "android": "https://dc.lft.to/lastmile_qr_scan"}, "is_reserved": 0, "fusion_lon": 0.0, "fusion_lat": 0.0, "lon": -77.02388333333333, "name": "6fd23cf923e46f451f1705548ae6534a"}, {"bike_id": "1a635d8220da1a8f113ff7483ae2d855", "type": "electric_scooter", "is_disabled": 0, "lat": 38.916757833333335, "rental_uris": {"ios": "https://dc.lft.to/lastmile_qr_scan", "android": "https://dc.lft.to/lastmile_qr_scan"}, "is_reserved": 0, "fusion_lon": 0.0, "fusion_lat": 0.0, "lon": -77.02278816666667, "name": "1a635d8220da1a8f113ff7483ae2d855"}, {"bike_id": "6e79b296d240759db3044c82e6c7413d", "type": "electric_scooter", "is_disabled": 0, "lat": 38.902351, "rental_uris": {"ios": "https://dc.lft.to/lastmile_qr_scan", "android": "https://dc.lft.to/lastmile_qr_scan"}, "is_reserved": 0, "fusion_lon": 0.0, "fusion_lat": 0.0, "lon": -77.043315, "name": "6e79b296d240759db3044c82e6c7413d"}, {"bike_id": "40fcd0e420b25f346a160fa4ef75821c", "type": "electric_scooter", "is_disabled": 0, "lat": 38.87628733333333, "rental_uris": {"ios": "https://dc.lft.to/lastmile_qr_scan", "android": "https://dc.lft.to/lastmile_qr_scan"}, "is_reserved": 0, "fusion_lon": 0.0, "fusion_lat": 0.0, "lon": -76.96523016666667, "name": "40fcd0e420b25f346a160fa4ef75821c"}, {"bike_id": "d35869a9deb2dad28e90c50ff6e7be99", "type": "electric_scooter", "is_disabled": 0, "lat": 38.956169, "rental_uris": {"ios": "https://dc.lft.to/lastmile_qr_scan", "android": "https://dc.lft.to/lastmile_qr_scan"}, "is_reserved": 0, "fusion_lon": 0.0, "fusion_lat": 0.0, "lon": -77.01019783333334, "name": "d35869a9deb2dad28e90c50ff6e7be99"}, {"bike_id": "5601dff54cdfab9e41d19570e7237df4", "type": "electric_scooter", "is_disabled": 0, "lat": 38.920548833333335, "rental_uris": {"ios": "https://dc.lft.to/lastmile_qr_scan", "android": "https://dc.lft.to/lastmile_qr_scan"}, "is_reserved": 0, "fusion_lon": 0.0, "fusion_lat": 0.0, "lon": -76.9988025, "name": "5601dff54cdfab9e41d19570e7237df4"}, {"bike_id": "a0516ba338ce3c49b16d061e5ce34711", "type": "electric_scooter", "is_disabled": 0, "lat": 38.891885, "rental_uris": {"ios": "https://dc.lft.to/lastmile_qr_scan", "android": "https://dc.lft.to/lastmile_qr_scan"}, "is_reserved": 0, "fusion_lon": 0.0, "fusion_lat": 0.0, "lon": -77.036369, "name": "a0516ba338ce3c49b16d061e5ce34711"}, {"bike_id": "fd135bd42df57653bd3580a27591509b", "type": "electric_scooter", "is_disabled": 0, "lat": 38.909721166666664, "rental_uris": {"ios": "https://dc.lft.to/lastmile_qr_scan", "android": "https://dc.lft.to/lastmile_qr_scan"}, "is_reserved": 0, "fusion_lon": 0.0, "fusion_lat": 0.0, "lon": -77.033, "name": "fd135bd42df57653bd3580a27591509b"}, {"bike_id": "2edea765b4c6616ff6bf95f0700badd4", "type": "electric_scooter", "is_disabled": 0, "lat": 38.940150833333334, "rental_uris": {"ios": "https://dc.lft.to/lastmile_qr_scan", "android": "https://dc.lft.to/lastmile_qr_scan"}, "is_reserved": 0, "fusion_lon": 0.0, "fusion_lat": 0.0, "lon": -77.0264275, "name": "2edea765b4c6616ff6bf95f0700badd4"}, {"bike_id": "af275c3c77dd5ac3d69a7b40a48be73a", "type": "electric_scooter", "is_disabled": 0, "lat": 38.91728916666667, "rental_uris": {"ios": "https://dc.lft.to/lastmile_qr_scan", "android": "https://dc.lft.to/lastmile_qr_scan"}, "is_reserved": 0, "fusion_lon": 0.0, "fusion_lat": 0.0, "lon": -77.0191205, "name": "af275c3c77dd5ac3d69a7b40a48be73a"}, {"bike_id": "b686911001409ff001814fc4ea83c9c0", "type": "electric_scooter", "is_disabled": 0, "lat": 38.876668, "rental_uris": {"ios": "https://dc.lft.to/lastmile_qr_scan", "android": "https://dc.lft.to/lastmile_qr_scan"}, "is_reserved": 0, "fusion_lon": 0.0, "fusion_lat": 0.0, "lon": -77.00811166666666, "name": "b686911001409ff001814fc4ea83c9c0"}, {"bike_id": "34a130947adbc15a19a92a723acc1724", "type": "electric_scooter", "is_disabled": 0, "lat": 38.916843166666666, "rental_uris": {"ios": "https://dc.lft.to/lastmile_qr_scan", "android": "https://dc.lft.to/lastmile_qr_scan"}, "is_reserved": 0, "fusion_lon": 0.0, "fusion_lat": 0.0, "lon": -77.0305445, "name": "34a130947adbc15a19a92a723acc1724"}, {"bike_id": "1af3d817877b3cd98b84a439c2fd2b22", "type": "electric_scooter", "is_disabled": 0, "lat": 38.9395285, "rental_uris": {"ios": "https://dc.lft.to/lastmile_qr_scan", "android": "https://dc.lft.to/lastmile_qr_scan"}, "is_reserved": 0, "fusion_lon": 0.0, "fusion_lat": 0.0, "lon": -77.06068516666667, "name": "1af3d817877b3cd98b84a439c2fd2b22"}, {"bike_id": "86a33d5212735684a12d79f10aecffad", "type": "electric_scooter", "is_disabled": 0, "lat": 38.91187566666667, "rental_uris": {"ios": "https://dc.lft.to/lastmile_qr_scan", "android": "https://dc.lft.to/lastmile_qr_scan"}, "is_reserved": 0, "fusion_lon": 0.0, "fusion_lat": 0.0, "lon": -77.01056583333333, "name": "86a33d5212735684a12d79f10aecffad"}, {"bike_id": "3021448a546611fe0b533524e2929cff", "type": "electric_scooter", "is_disabled": 0, "lat": 38.93460533333333, "rental_uris": {"ios": "https://dc.lft.to/lastmile_qr_scan", "android": "https://dc.lft.to/lastmile_qr_scan"}, "is_reserved": 0, "fusion_lon": 0.0, "fusion_lat": 0.0, "lon": -76.96439683333334, "name": "3021448a546611fe0b533524e2929cff"}, {"bike_id": "f35c54894a38bfc284e47b29ef78bf8c", "type": "electric_scooter", "is_disabled": 0, "lat": 38.931508, "rental_uris": {"ios": "https://dc.lft.to/lastmile_qr_scan", "android": "https://dc.lft.to/lastmile_qr_scan"}, "is_reserved": 0, "fusion_lon": 0.0, "fusion_lat": 0.0, "lon": -77.04521966666667, "name": "f35c54894a38bfc284e47b29ef78bf8c"}, {"bike_id": "bfd9ab2480f2c4a682fe1b31c983c73f", "type": "electric_bike", "is_disabled": 0, "lat": 39.0243555, "rental_uris": {"ios": "https://dc.lft.to/lastmile_qr_scan", "android": "https://dc.lft.to/lastmile_qr_scan"}, "is_reserved": 0, "fusion_lon": 0.0, "fusion_lat": 0.0, "lon": -77.13101583333334, "name": "bfd9ab2480f2c4a682fe1b31c983c73f"}, {"bike_id": "5808c6fbe16bcf39c6dda01e184e3af9", "type": "electric_scooter", "is_disabled": 0, "lat": 38.902098, "rental_uris": {"ios": "https://dc.lft.to/lastmile_qr_scan", "android": "https://dc.lft.to/lastmile_qr_scan"}, "is_reserved": 0, "fusion_lon": 0.0, "fusion_lat": 0.0, "lon": -77.02610733333333, "name": "5808c6fbe16bcf39c6dda01e184e3af9"}, {"bike_id": "855d4f7436754300b0eb2e8bd6f8a0ed", "type": "electric_bike", "is_disabled": 0, "lat": 38.898465, "rental_uris": {"ios": "https://dc.lft.to/lastmile_qr_scan", "android": "https://dc.lft.to/lastmile_qr_scan"}, "is_reserved": 0, "fusion_lon": 0.0, "fusion_lat": 0.0, "lon": -77.05302066666667, "name": "855d4f7436754300b0eb2e8bd6f8a0ed"}, {"bike_id": "947bd78c2d5fbefccd0caf5185a4e6c9", "type": "electric_scooter", "is_disabled": 0, "lat": 38.9212565, "rental_uris": {"ios": "https://dc.lft.to/lastmile_qr_scan", "android": "https://dc.lft.to/lastmile_qr_scan"}, "is_reserved": 0, "fusion_lon": 0.0, "fusion_lat": 0.0, "lon": -77.03670383333333, "name": "947bd78c2d5fbefccd0caf5185a4e6c9"}, {"bike_id": "f17fd5a95d50685fdca96eaf66bb36df", "type": "electric_scooter", "is_disabled": 0, "lat": 38.9044605, "rental_uris": {"ios": "https://dc.lft.to/lastmile_qr_scan", "android": "https://dc.lft.to/lastmile_qr_scan"}, "is_reserved": 0, "fusion_lon": 0.0, "fusion_lat": 0.0, "lon": -77.02886966666667, "name": "f17fd5a95d50685fdca96eaf66bb36df"}, {"bike_id": "7b2d04cf3c1f530306befe22eeb70cfc", "type": "electric_scooter", "is_disabled": 0, "lat": 38.926672833333335, "rental_uris": {"ios": "https://dc.lft.to/lastmile_qr_scan", "android": "https://dc.lft.to/lastmile_qr_scan"}, "is_reserved": 0, "fusion_lon": 0.0, "fusion_lat": 0.0, "lon": -77.031958, "name": "7b2d04cf3c1f530306befe22eeb70cfc"}, {"bike_id": "f1ada729b8364816c5282d9d59e063e4", "type": "electric_scooter", "is_disabled": 0, "lat": 38.8669505, "rental_uris": {"ios": "https://dc.lft.to/lastmile_qr_scan", "android": "https://dc.lft.to/lastmile_qr_scan"}, "is_reserved": 0, "fusion_lon": 0.0, "fusion_lat": 0.0, "lon": -76.9870795, "name": "f1ada729b8364816c5282d9d59e063e4"}, {"bike_id": "bec950b181cf9f07ad449907ce328c25", "type": "electric_scooter", "is_disabled": 0, "lat": 38.9140275, "rental_uris": {"ios": "https://dc.lft.to/lastmile_qr_scan", "android": "https://dc.lft.to/lastmile_qr_scan"}, "is_reserved": 0, "fusion_lon": 0.0, "fusion_lat": 0.0, "lon": -77.0213365, "name": "bec950b181cf9f07ad449907ce328c25"}, {"bike_id": "564cb9cda4f813e8ea880764c3ad5c4d", "type": "electric_scooter", "is_disabled": 0, "lat": 38.922947, "rental_uris": {"ios": "https://dc.lft.to/lastmile_qr_scan", "android": "https://dc.lft.to/lastmile_qr_scan"}, "is_reserved": 0, "fusion_lon": 0.0, "fusion_lat": 0.0, "lon": -76.9977345, "name": "564cb9cda4f813e8ea880764c3ad5c4d"}, {"bike_id": "b8d1e35e2faf3621be326923631e79ec", "type": "electric_scooter", "is_disabled": 0, "lat": 38.9095695, "rental_uris": {"ios": "https://dc.lft.to/lastmile_qr_scan", "android": "https://dc.lft.to/lastmile_qr_scan"}, "is_reserved": 0, "fusion_lon": 0.0, "fusion_lat": 0.0, "lon": -77.02119183333333, "name": "b8d1e35e2faf3621be326923631e79ec"}, {"bike_id": "807c47eb2c3ed36eca23163ddf52ff5f", "type": "electric_scooter", "is_disabled": 0, "lat": 38.940880666666665, "rental_uris": {"ios": "https://dc.lft.to/lastmile_qr_scan", "android": "https://dc.lft.to/lastmile_qr_scan"}, "is_reserved": 0, "fusion_lon": 0.0, "fusion_lat": 0.0, "lon": -77.03657566666666, "name": "807c47eb2c3ed36eca23163ddf52ff5f"}, {"bike_id": "946c81f10029d7e19c638da05fc92b1b", "type": "electric_scooter", "is_disabled": 0, "lat": 38.91691133333333, "rental_uris": {"ios": "https://dc.lft.to/lastmile_qr_scan", "android": "https://dc.lft.to/lastmile_qr_scan"}, "is_reserved": 0, "fusion_lon": 0.0, "fusion_lat": 0.0, "lon": -77.02882516666666, "name": "946c81f10029d7e19c638da05fc92b1b"}, {"bike_id": "c90430c216b1ebd83e444979ff8a8992", "type": "electric_scooter", "is_disabled": 0, "lat": 38.90874016666667, "rental_uris": {"ios": "https://dc.lft.to/lastmile_qr_scan", "android": "https://dc.lft.to/lastmile_qr_scan"}, "is_reserved": 0, "fusion_lon": 0.0, "fusion_lat": 0.0, "lon": -77.0346965, "name": "c90430c216b1ebd83e444979ff8a8992"}, {"bike_id": "cea40791704fa2d0577b63f4f37be6f9", "type": "electric_scooter", "is_disabled": 0, "lat": 38.9220745, "rental_uris": {"ios": "https://dc.lft.to/lastmile_qr_scan", "android": "https://dc.lft.to/lastmile_qr_scan"}, "is_reserved": 0, "fusion_lon": 0.0, "fusion_lat": 0.0, "lon": -77.03657816666667, "name": "cea40791704fa2d0577b63f4f37be6f9"}, {"bike_id": "e0218fd8f364c19a5f2fbd38a78a3367", "type": "electric_scooter", "is_disabled": 0, "lat": 38.92471533333333, "rental_uris": {"ios": "https://dc.lft.to/lastmile_qr_scan", "android": "https://dc.lft.to/lastmile_qr_scan"}, "is_reserved": 0, "fusion_lon": 0.0, "fusion_lat": 0.0, "lon": -77.02834583333333, "name": "e0218fd8f364c19a5f2fbd38a78a3367"}, {"bike_id": "adf9240e527b8c36fd4cf43c41c3bce9", "type": "electric_scooter", "is_disabled": 0, "lat": 38.86677183333333, "rental_uris": {"ios": "https://dc.lft.to/lastmile_qr_scan", "android": "https://dc.lft.to/lastmile_qr_scan"}, "is_reserved": 0, "fusion_lon": 0.0, "fusion_lat": 0.0, "lon": -76.98547266666667, "name": "adf9240e527b8c36fd4cf43c41c3bce9"}, {"bike_id": "ce3e06631aa4f59c66d8b13c6ea25180", "type": "electric_scooter", "is_disabled": 0, "lat": 38.904885, "rental_uris": {"ios": "https://dc.lft.to/lastmile_qr_scan", "android": "https://dc.lft.to/lastmile_qr_scan"}, "is_reserved": 0, "fusion_lon": 0.0, "fusion_lat": 0.0, "lon": -76.94956616666667, "name": "ce3e06631aa4f59c66d8b13c6ea25180"}, {"bike_id": "889681fd0329005dd170a6b2ba252619", "type": "electric_scooter", "is_disabled": 0, "lat": 38.921153833333335, "rental_uris": {"ios": "https://dc.lft.to/lastmile_qr_scan", "android": "https://dc.lft.to/lastmile_qr_scan"}, "is_reserved": 0, "fusion_lon": 0.0, "fusion_lat": 0.0, "lon": -77.031795, "name": "889681fd0329005dd170a6b2ba252619"}, {"bike_id": "4651787d21106f34af7008c42cdc4fbf", "type": "electric_scooter", "is_disabled": 0, "lat": 38.91039283333333, "rental_uris": {"ios": "https://dc.lft.to/lastmile_qr_scan", "android": "https://dc.lft.to/lastmile_qr_scan"}, "is_reserved": 0, "fusion_lon": 0.0, "fusion_lat": 0.0, "lon": -77.043506, "name": "4651787d21106f34af7008c42cdc4fbf"}, {"bike_id": "301e11f477133c48789677c77c261fdf", "type": "electric_scooter", "is_disabled": 0, "lat": 38.863756333333335, "rental_uris": {"ios": "https://dc.lft.to/lastmile_qr_scan", "android": "https://dc.lft.to/lastmile_qr_scan"}, "is_reserved": 0, "fusion_lon": 0.0, "fusion_lat": 0.0, "lon": -76.99062366666666, "name": "301e11f477133c48789677c77c261fdf"}, {"bike_id": "76f79027395738a52d3b55ec3bb54802", "type": "electric_scooter", "is_disabled": 0, "lat": 38.91222783333333, "rental_uris": {"ios": "https://dc.lft.to/lastmile_qr_scan", "android": "https://dc.lft.to/lastmile_qr_scan"}, "is_reserved": 0, "fusion_lon": 0.0, "fusion_lat": 0.0, "lon": -76.98789166666667, "name": "76f79027395738a52d3b55ec3bb54802"}, {"bike_id": "916b5cb0f13370a99578cff10013bcd9", "type": "electric_bike", "is_disabled": 0, "lat": 38.9447175, "rental_uris": {"ios": "https://dc.lft.to/lastmile_qr_scan", "android": "https://dc.lft.to/lastmile_qr_scan"}, "is_reserved": 0, "fusion_lon": 0.0, "fusion_lat": 0.0, "lon": -76.98689133333333, "name": "916b5cb0f13370a99578cff10013bcd9"}, {"bike_id": "f611b69de17f81069d354e7905000425", "type": "electric_bike", "is_disabled": 0, "lat": 38.8496475, "rental_uris": {"ios": "https://dc.lft.to/lastmile_qr_scan", "android": "https://dc.lft.to/lastmile_qr_scan"}, "is_reserved": 0, "fusion_lon": 0.0, "fusion_lat": 0.0, "lon": -77.07759066666667, "name": "f611b69de17f81069d354e7905000425"}, {"bike_id": "0df53c12e6bb27c845badf536908ab74", "type": "electric_scooter", "is_disabled": 0, "lat": 38.91503566666667, "rental_uris": {"ios": "https://dc.lft.to/lastmile_qr_scan", "android": "https://dc.lft.to/lastmile_qr_scan"}, "is_reserved": 0, "fusion_lon": 0.0, "fusion_lat": 0.0, "lon": -77.0177465, "name": "0df53c12e6bb27c845badf536908ab74"}, {"bike_id": "13a0d03542cc26b73125db7a1aa3a828", "type": "electric_scooter", "is_disabled": 0, "lat": 38.9223995, "rental_uris": {"ios": "https://dc.lft.to/lastmile_qr_scan", "android": "https://dc.lft.to/lastmile_qr_scan"}, "is_reserved": 0, "fusion_lon": 0.0, "fusion_lat": 0.0, "lon": -77.03706816666667, "name": "13a0d03542cc26b73125db7a1aa3a828"}, {"bike_id": "0c5285db0d549131d626710c821987dc", "type": "electric_scooter", "is_disabled": 0, "lat": 38.90409833333333, "rental_uris": {"ios": "https://dc.lft.to/lastmile_qr_scan", "android": "https://dc.lft.to/lastmile_qr_scan"}, "is_reserved": 0, "fusion_lon": 0.0, "fusion_lat": 0.0, "lon": -76.97330783333334, "name": "0c5285db0d549131d626710c821987dc"}, {"bike_id": "2070c5bffd92b74f13736c178dc67251", "type": "electric_scooter", "is_disabled": 0, "lat": 38.904150333333334, "rental_uris": {"ios": "https://dc.lft.to/lastmile_qr_scan", "android": "https://dc.lft.to/lastmile_qr_scan"}, "is_reserved": 0, "fusion_lon": 0.0, "fusion_lat": 0.0, "lon": -77.06877633333333, "name": "2070c5bffd92b74f13736c178dc67251"}, {"bike_id": "3eb4e10302cd8e1d0d09f5ab6b268145", "type": "electric_scooter", "is_disabled": 0, "lat": 38.866588166666666, "rental_uris": {"ios": "https://dc.lft.to/lastmile_qr_scan", "android": "https://dc.lft.to/lastmile_qr_scan"}, "is_reserved": 0, "fusion_lon": 0.0, "fusion_lat": 0.0, "lon": -76.98886116666667, "name": "3eb4e10302cd8e1d0d09f5ab6b268145"}, {"bike_id": "9851adbe8592383b52a5bcf1d4720bb6", "type": "electric_scooter", "is_disabled": 0, "lat": 38.90376366666667, "rental_uris": {"ios": "https://dc.lft.to/lastmile_qr_scan", "android": "https://dc.lft.to/lastmile_qr_scan"}, "is_reserved": 0, "fusion_lon": 0.0, "fusion_lat": 0.0, "lon": -77.0220735, "name": "9851adbe8592383b52a5bcf1d4720bb6"}, {"bike_id": "53febba2d334f111ae9a37a62302b084", "type": "electric_scooter", "is_disabled": 0, "lat": 38.91847083333333, "rental_uris": {"ios": "https://dc.lft.to/lastmile_qr_scan", "android": "https://dc.lft.to/lastmile_qr_scan"}, "is_reserved": 0, "fusion_lon": 0.0, "fusion_lat": 0.0, "lon": -77.03175966666667, "name": "53febba2d334f111ae9a37a62302b084"}, {"bike_id": "4d8ac8ba435a05cd91722c35996ed97a", "type": "electric_scooter", "is_disabled": 0, "lat": 38.91720516666667, "rental_uris": {"ios": "https://dc.lft.to/lastmile_qr_scan", "android": "https://dc.lft.to/lastmile_qr_scan"}, "is_reserved": 0, "fusion_lon": 0.0, "fusion_lat": 0.0, "lon": -77.012112, "name": "4d8ac8ba435a05cd91722c35996ed97a"}, {"bike_id": "ee2b63d7ebe34217281ef6232851d212", "type": "electric_scooter", "is_disabled": 0, "lat": 38.916708, "rental_uris": {"ios": "https://dc.lft.to/lastmile_qr_scan", "android": "https://dc.lft.to/lastmile_qr_scan"}, "is_reserved": 0, "fusion_lon": 0.0, "fusion_lat": 0.0, "lon": -77.0228195, "name": "ee2b63d7ebe34217281ef6232851d212"}, {"bike_id": "699c7442d232e2e1b5f1d49798d14307", "type": "electric_scooter", "is_disabled": 0, "lat": 38.897303, "rental_uris": {"ios": "https://dc.lft.to/lastmile_qr_scan", "android": "https://dc.lft.to/lastmile_qr_scan"}, "is_reserved": 0, "fusion_lon": 0.0, "fusion_lat": 0.0, "lon": -77.05478416666666, "name": "699c7442d232e2e1b5f1d49798d14307"}, {"bike_id": "5affa49d15907afeb4d08de3a02c8e93", "type": "electric_scooter", "is_disabled": 0, "lat": 38.90603333333333, "rental_uris": {"ios": "https://dc.lft.to/lastmile_qr_scan", "android": "https://dc.lft.to/lastmile_qr_scan"}, "is_reserved": 0, "fusion_lon": 0.0, "fusion_lat": 0.0, "lon": -77.027126, "name": "5affa49d15907afeb4d08de3a02c8e93"}, {"bike_id": "a487441460fb095af8567ec6e1638dcd", "type": "electric_scooter", "is_disabled": 0, "lat": 38.917295, "rental_uris": {"ios": "https://dc.lft.to/lastmile_qr_scan", "android": "https://dc.lft.to/lastmile_qr_scan"}, "is_reserved": 0, "fusion_lon": 0.0, "fusion_lat": 0.0, "lon": -77.02606666666667, "name": "a487441460fb095af8567ec6e1638dcd"}, {"bike_id": "b12357a97b89493dc39041c53af81304", "type": "electric_scooter", "is_disabled": 0, "lat": 38.8925245, "rental_uris": {"ios": "https://dc.lft.to/lastmile_qr_scan", "android": "https://dc.lft.to/lastmile_qr_scan"}, "is_reserved": 0, "fusion_lon": 0.0, "fusion_lat": 0.0, "lon": -76.92571583333333, "name": "b12357a97b89493dc39041c53af81304"}, {"bike_id": "794b39d09825eb54c2242a7ef5f4f305", "type": "electric_scooter", "is_disabled": 0, "lat": 38.86439283333333, "rental_uris": {"ios": "https://dc.lft.to/lastmile_qr_scan", "android": "https://dc.lft.to/lastmile_qr_scan"}, "is_reserved": 0, "fusion_lon": 0.0, "fusion_lat": 0.0, "lon": -76.979902, "name": "794b39d09825eb54c2242a7ef5f4f305"}, {"bike_id": "36f9e70b74aedf38e2ec650b2fe56c19", "type": "electric_scooter", "is_disabled": 0, "lat": 38.880448666666666, "rental_uris": {"ios": "https://dc.lft.to/lastmile_qr_scan", "android": "https://dc.lft.to/lastmile_qr_scan"}, "is_reserved": 0, "fusion_lon": 0.0, "fusion_lat": 0.0, "lon": -77.00540966666667, "name": "36f9e70b74aedf38e2ec650b2fe56c19"}, {"bike_id": "ace01665aa119938a8da7021e8b33d59", "type": "electric_scooter", "is_disabled": 0, "lat": 38.92157316666667, "rental_uris": {"ios": "https://dc.lft.to/lastmile_qr_scan", "android": "https://dc.lft.to/lastmile_qr_scan"}, "is_reserved": 0, "fusion_lon": 0.0, "fusion_lat": 0.0, "lon": -77.03378033333334, "name": "ace01665aa119938a8da7021e8b33d59"}, {"bike_id": "6458347cdbde75710e4885262e3f8cd3", "type": "electric_scooter", "is_disabled": 0, "lat": 38.920911833333335, "rental_uris": {"ios": "https://dc.lft.to/lastmile_qr_scan", "android": "https://dc.lft.to/lastmile_qr_scan"},