{"data": {"bikes": [{"is_disabled": 0, "fusion_lat": 0.0, "lat": 38.893704666666665, "type": "electric_scooter", "lon": -76.94961616666667, "is_reserved": 0, "fusion_lon": 0.0, "bike_id": "4eeddf0e22b1a62ca178b4b290a3978c", "name": "4eeddf0e22b1a62ca178b4b290a3978c", "rental_uris": {"ios": "https://dc.lft.to/lastmile_qr_scan", "android": "https://dc.lft.to/lastmile_qr_scan"}}, {"is_disabled": 0, "fusion_lat": 0.0, "lat": 38.929077166666666, "type": "electric_scooter", "lon": -77.03178383333334, "is_reserved": 0, "fusion_lon": 0.0, "bike_id": "f495c5e7967e7ea8d60a67b712c5f087", "name": "f495c5e7967e7ea8d60a67b712c5f087", "rental_uris": {"ios": "https://dc.lft.to/lastmile_qr_scan", "android": "https://dc.lft.to/lastmile_qr_scan"}}, {"is_disabled": 0, "fusion_lat": 0.0, "lat": 38.871906333333335, "type": "electric_bike", "lon": -77.0841695, "is_reserved": 0, "fusion_lon": 0.0, "bike_id": "86709b13adbb26116e7bbc0043ec8066", "name": "86709b13adbb26116e7bbc0043ec8066", "rental_uris": {"ios": "https://dc.lft.to/lastmile_qr_scan", "android": "https://dc.lft.to/lastmile_qr_scan"}}, {"is_disabled": 0, "fusion_lat": 0.0, "lat": 38.932453333333335, "type": "electric_scooter", "lon": -77.03278583333334, "is_reserved": 0, "fusion_lon": 0.0, "bike_id": "26439e0ae9a54d5a1f100c455420dd29", "name": "26439e0ae9a54d5a1f100c455420dd29", "rental_uris": {"ios": "https://dc.lft.to/lastmile_qr_scan", "android": "https://dc.lft.to/lastmile_qr_scan"}}, {"is_disabled": 0, "fusion_lat": 0.0, "lat": 38.92849266666666, "type": "electric_scooter", "lon": -77.05447066666666, "is_reserved": 0, "fusion_lon": 0.0, "bike_id": "1b2d9f75992f3dc736e0c7a3796ca1eb", "name": "1b2d9f75992f3dc736e0c7a3796ca1eb", "rental_uris": {"ios": "https://dc.lft.to/lastmile_qr_scan", "android": "https://dc.lft.to/lastmile_qr_scan"}}, {"is_disabled": 0, "fusion_lat": 0.0, "lat": 38.932897, "type": "electric_scooter", "lon": -77.03973616666667, "is_reserved": 0, "fusion_lon": 0.0, "bike_id": "972091272776bb5eed0c958e911aa2b5", "name": "972091272776bb5eed0c958e911aa2b5", "rental_uris": {"ios": "https://dc.lft.to/lastmile_qr_scan", "android": "https://dc.lft.to/lastmile_qr_scan"}}, {"is_disabled": 0, "fusion_lat": 0.0, "lat": 38.90974116666667, "type": "electric_scooter", "lon": -77.0404455, "is_reserved": 0, "fusion_lon": 0.0, "bike_id": "e5857722556dd5e07788e24884aa10ef", "name": "e5857722556dd5e07788e24884aa10ef", "rental_uris": {"ios": "https://dc.lft.to/lastmile_qr_scan", "android": "https://dc.lft.to/lastmile_qr_scan"}}, {"is_disabled": 0, "fusion_lat": 0.0, "lat": 38.9110735, "type": "electric_scooter", "lon": -77.048405, "is_reserved": 0, "fusion_lon": 0.0, "bike_id": "61018f08445547301deb19fa9e92c92f", "name": "61018f08445547301deb19fa9e92c92f", "rental_uris": {"ios": "https://dc.lft.to/lastmile_qr_scan", "android": "https://dc.lft.to/lastmile_qr_scan"}}, {"is_disabled": 0, "fusion_lat": 0.0, "lat": 38.898172, "type": "electric_scooter", "lon": -77.03315883333333, "is_reserved": 0, "fusion_lon": 0.0, "bike_id": "e75874698958ea15ea25244c42542d53", "name": "e75874698958ea15ea25244c42542d53", "rental_uris": {"ios": "https://dc.lft.to/lastmile_qr_scan", "android": "https://dc.lft.to/lastmile_qr_scan"}}, {"is_disabled": 0, "fusion_lat": 0.0, "lat": 38.896251, "type": "electric_scooter", "lon": -76.99849983333333, "is_reserved": 0, "fusion_lon": 0.0, "bike_id": "86a2588654353ee8fd504e04def274c2", "name": "86a2588654353ee8fd504e04def274c2", "rental_uris": {"ios": "https://dc.lft.to/lastmile_qr_scan", "android": "https://dc.lft.to/lastmile_qr_scan"}}, {"is_disabled": 0, "fusion_lat": 0.0, "lat": 38.89502616666667, "type": "electric_scooter", "lon": -77.02287383333334, "is_reserved": 0, "fusion_lon": 0.0, "bike_id": "ce677853234b549e486dc4817f08b99c", "name": "ce677853234b549e486dc4817f08b99c", "rental_uris": {"ios": "https://dc.lft.to/lastmile_qr_scan", "android": "https://dc.lft.to/lastmile_qr_scan"}}, {"is_disabled": 0, "fusion_lat": 0.0, "lat": 38.905642, "type": "electric_scooter", "lon": -77.03074166666667, "is_reserved": 0, "fusion_lon": 0.0, "bike_id": "cafd80fed5c6eabe49b3494a459099e9", "name": "cafd80fed5c6eabe49b3494a459099e9", "rental_uris": {"ios": "https://dc.lft.to/lastmile_qr_scan", "android": "https://dc.lft.to/lastmile_qr_scan"}}, {"is_disabled": 0, "fusion_lat": 0.0, "lat": 38.8691105, "type": "electric_bike", "lon": -77.131771, "is_reserved": 0, "fusion_lon": 0.0, "bike_id": "3ee7f467763959df6989832a8dbcbc0f", "name": "3ee7f467763959df6989832a8dbcbc0f", "rental_uris": {"ios": "https://dc.lft.to/lastmile_qr_scan", "android": "https://dc.lft.to/lastmile_qr_scan"}}, {"is_disabled": 0, "fusion_lat": 0.0, "lat": 38.8922085, "type": "electric_scooter", "lon": -77.046388, "is_reserved": 0, "fusion_lon": 0.0, "bike_id": "c7473fa5e664fae4101fd5ea258e87a2", "name": "c7473fa5e664fae4101fd5ea258e87a2", "rental_uris": {"ios": "https://dc.lft.to/lastmile_qr_scan", "android": "https://dc.lft.to/lastmile_qr_scan"}}, {"is_disabled": 0, "fusion_lat": 0.0, "lat": 38.92716766666667, "type": "electric_scooter", "lon": -77.02092816666666, "is_reserved": 0, "fusion_lon": 0.0, "bike_id": "37ea482dec489670e39991efa408d5f9", "name": "37ea482dec489670e39991efa408d5f9", "rental_uris": {"ios": "https://dc.lft.to/lastmile_qr_scan", "android": "https://dc.lft.to/lastmile_qr_scan"}}, {"is_disabled": 0, "fusion_lat": 0.0, "lat": 38.82006166666667, "type": "electric_bike", "lon": -76.9981715, "is_reserved": 0, "fusion_lon": 0.0, "bike_id": "3554c65884ede2e90cf953b9dfcd5bd3", "name": "3554c65884ede2e90cf953b9dfcd5bd3", "rental_uris": {"ios": "https://dc.lft.to/lastmile_qr_scan", "android": "https://dc.lft.to/lastmile_qr_scan"}}, {"is_disabled": 0, "fusion_lat": 0.0, "lat": 38.9324635, "type": "electric_scooter", "lon": -77.031104, "is_reserved": 0, "fusion_lon": 0.0, "bike_id": "d1531a20df597ddd472b2273149b0d63", "name": "d1531a20df597ddd472b2273149b0d63", "rental_uris": {"ios": "https://dc.lft.to/lastmile_qr_scan", "android": "https://dc.lft.to/lastmile_qr_scan"}}, {"is_disabled": 0, "fusion_lat": 0.0, "lat": 38.941477666666664, "type": "electric_scooter", "lon": -77.02980183333334, "is_reserved": 0, "fusion_lon": 0.0, "bike_id": "1c93b418c02158d049f8c431ffc0f3fb", "name": "1c93b418c02158d049f8c431ffc0f3fb", "rental_uris": {"ios": "https://dc.lft.to/lastmile_qr_scan", "android": "https://dc.lft.to/lastmile_qr_scan"}}, {"is_disabled": 0, "fusion_lat": 0.0, "lat": 38.9277035, "type": "electric_scooter", "lon": -77.02713483333333, "is_reserved": 0, "fusion_lon": 0.0, "bike_id": "725c7ae34bca1add2cfab032faf8684b", "name": "725c7ae34bca1add2cfab032faf8684b", "rental_uris": {"ios": "https://dc.lft.to/lastmile_qr_scan", "android": "https://dc.lft.to/lastmile_qr_scan"}}, {"is_disabled": 0, "fusion_lat": 0.0, "lat": 38.899054, "type": "electric_scooter", "lon": -77.03324583333334, "is_reserved": 0, "fusion_lon": 0.0, "bike_id": "0015b97d9ddfde91e66ff241cf29af1f", "name": "0015b97d9ddfde91e66ff241cf29af1f", "rental_uris": {"ios": "https://dc.lft.to/lastmile_qr_scan", "android": "https://dc.lft.to/lastmile_qr_scan"}}, {"is_disabled": 0, "fusion_lat": 0.0, "lat": 38.892222333333336, "type": "electric_scooter", "lon": -77.046355, "is_reserved": 0, "fusion_lon": 0.0, "bike_id": "dd3e47cac86b19fd27340228a4f2ebde", "name": "dd3e47cac86b19fd27340228a4f2ebde", "rental_uris": {"ios": "https://dc.lft.to/lastmile_qr_scan", "android": "https://dc.lft.to/lastmile_qr_scan"}}, {"is_disabled": 0, "fusion_lat": 0.0, "lat": 38.902797166666666, "type": "electric_scooter", "lon": -77.04131966666667, "is_reserved": 0, "fusion_lon": 0.0, "bike_id": "509cd4f074887706bb9493cbe1706bf5", "name": "509cd4f074887706bb9493cbe1706bf5", "rental_uris": {"ios": "https://dc.lft.to/lastmile_qr_scan", "android": "https://dc.lft.to/lastmile_qr_scan"}}, {"is_disabled": 0, "fusion_lat": 0.0, "lat": 38.855125666666666, "type": "electric_bike", "lon": -77.120225, "is_reserved": 0, "fusion_lon": 0.0, "bike_id": "867e11ef2f48deaaa20928f2ddc392dd", "name": "867e11ef2f48deaaa20928f2ddc392dd", "rental_uris": {"ios": "https://dc.lft.to/lastmile_qr_scan", "android": "https://dc.lft.to/lastmile_qr_scan"}}, {"is_disabled": 0, "fusion_lat": 0.0, "lat": 38.909686666666666, "type": "electric_scooter", "lon": -77.0397805, "is_reserved": 0, "fusion_lon": 0.0, "bike_id": "28763f62413b59f7f4bf4cc6a4db9b67", "name": "28763f62413b59f7f4bf4cc6a4db9b67", "rental_uris": {"ios": "https://dc.lft.to/lastmile_qr_scan", "android": "https://dc.lft.to/lastmile_qr_scan"}}, {"is_disabled": 0, "fusion_lat": 0.0, "lat": 38.91639583333333, "type": "electric_scooter", "lon": -77.04812983333333, "is_reserved": 0, "fusion_lon": 0.0, "bike_id": "adcd83365d874a122e6772801849f429", "name": "adcd83365d874a122e6772801849f429", "rental_uris": {"ios": "https://dc.lft.to/lastmile_qr_scan", "android": "https://dc.lft.to/lastmile_qr_scan"}}, {"is_disabled": 0, "fusion_lat": 0.0, "lat": 38.99939916666666, "type": "electric_bike", "lon": -77.01767233333334, "is_reserved": 0, "fusion_lon": 0.0, "bike_id": "9f4a5f39a2906e0b5a98c8db0146eb98", "name": "9f4a5f39a2906e0b5a98c8db0146eb98", "rental_uris": {"ios": "https://dc.lft.to/lastmile_qr_scan", "android": "https://dc.lft.to/lastmile_qr_scan"}}, {"is_disabled": 0, "fusion_lat": 0.0, "lat": 38.9057655, "type": "electric_scooter", "lon": -77.03443366666667, "is_reserved": 0, "fusion_lon": 0.0, "bike_id": "944a6c9ccc915a8deb8e847c2b82d70e", "name": "944a6c9ccc915a8deb8e847c2b82d70e", "rental_uris": {"ios": "https://dc.lft.to/lastmile_qr_scan", "android": "https://dc.lft.to/lastmile_qr_scan"}}, {"is_disabled": 0, "fusion_lat": 0.0, "lat": 38.90259283333333, "type": "electric_scooter", "lon": -76.98695433333333, "is_reserved": 0, "fusion_lon": 0.0, "bike_id": "7c9c71adf454b71cd21ac955d495b227", "name": "7c9c71adf454b71cd21ac955d495b227", "rental_uris": {"ios": "https://dc.lft.to/lastmile_qr_scan", "android": "https://dc.lft.to/lastmile_qr_scan"}}, {"is_disabled": 0, "fusion_lat": 0.0, "lat": 38.935253833333334, "type": "electric_scooter", "lon": -77.032657, "is_reserved": 0, "fusion_lon": 0.0, "bike_id": "972ca8cc338871b2669b00a3e6b2971f", "name": "972ca8cc338871b2669b00a3e6b2971f", "rental_uris": {"ios": "https://dc.lft.to/lastmile_qr_scan", "android": "https://dc.lft.to/lastmile_qr_scan"}}, {"is_disabled": 0, "fusion_lat": 0.0, "lat": 38.90510733333333, "type": "electric_scooter", "lon": -77.05139866666667, "is_reserved": 0, "fusion_lon": 0.0, "bike_id": "4df5af24ceadd8dd2b9758b86761a9d8", "name": "4df5af24ceadd8dd2b9758b86761a9d8", "rental_uris": {"ios": "https://dc.lft.to/lastmile_qr_scan", "android": "https://dc.lft.to/lastmile_qr_scan"}}, {"is_disabled": 0, "fusion_lat": 0.0, "lat": 38.87385116666667, "type": "electric_scooter", "lon": -77.00092133333334, "is_reserved": 0, "fusion_lon": 0.0, "bike_id": "c5d934167474a43d33e823a89c82e910", "name": "c5d934167474a43d33e823a89c82e910", "rental_uris": {"ios": "https://dc.lft.to/lastmile_qr_scan", "android": "https://dc.lft.to/lastmile_qr_scan"}}, {"is_disabled": 0, "fusion_lat": 0.0, "lat": 38.903206833333336, "type": "electric_scooter", "lon": -77.05169783333334, "is_reserved": 0, "fusion_lon": 0.0, "bike_id": "041872d1ac1e39cde559025147a8a747", "name": "041872d1ac1e39cde559025147a8a747", "rental_uris": {"ios": "https://dc.lft.to/lastmile_qr_scan", "android": "https://dc.lft.to/lastmile_qr_scan"}}, {"is_disabled": 0, "fusion_lat": 0.0, "lat": 38.90408383333333, "type": "electric_scooter", "lon": -77.03212983333333, "is_reserved": 0, "fusion_lon": 0.0, "bike_id": "0ff147423171db0a6178ea5a8aab9e66", "name": "0ff147423171db0a6178ea5a8aab9e66", "rental_uris": {"ios": "https://dc.lft.to/lastmile_qr_scan", "android": "https://dc.lft.to/lastmile_qr_scan"}}, {"is_disabled": 0, "fusion_lat": 0.0, "lat": 38.916812666666665, "type": "electric_scooter", "lon": -77.03686133333333, "is_reserved": 0, "fusion_lon": 0.0, "bike_id": "3b42ed9ec94c8c49eeed4c3929333fda", "name": "3b42ed9ec94c8c49eeed4c3929333fda", "rental_uris": {"ios": "https://dc.lft.to/lastmile_qr_scan", "android": "https://dc.lft.to/lastmile_qr_scan"}}, {"is_disabled": 0, "fusion_lat": 0.0, "lat": 38.876269666666666, "type": "electric_scooter", "lon": -76.96527333333333, "is_reserved": 0, "fusion_lon": 0.0, "bike_id": "5bda608498f87edc6e83c5551a4011b0", "name": "5bda608498f87edc6e83c5551a4011b0", "rental_uris": {"ios": "https://dc.lft.to/lastmile_qr_scan", "android": "https://dc.lft.to/lastmile_qr_scan"}}, {"is_disabled": 0, "fusion_lat": 0.0, "lat": 38.91015733333333, "type": "electric_scooter", "lon": -77.029144, "is_reserved": 0, "fusion_lon": 0.0, "bike_id": "b6c67f205287ce3e6021451b60d6d377", "name": "b6c67f205287ce3e6021451b60d6d377", "rental_uris": {"ios": "https://dc.lft.to/lastmile_qr_scan", "android": "https://dc.lft.to/lastmile_qr_scan"}}, {"is_disabled": 0, "fusion_lat": 0.0, "lat": 38.92180783333333, "type": "electric_scooter", "lon": -77.032076, "is_reserved": 0, "fusion_lon": 0.0, "bike_id": "5dc395c15bdae934111bbf29f8409438", "name": "5dc395c15bdae934111bbf29f8409438", "rental_uris": {"ios": "https://dc.lft.to/lastmile_qr_scan", "android": "https://dc.lft.to/lastmile_qr_scan"}}, {"is_disabled": 0, "fusion_lat": 0.0, "lat": 38.89328616666667, "type": "electric_scooter", "lon": -76.92987583333333, "is_reserved": 0, "fusion_lon": 0.0, "bike_id": "0d2e451e637a5a9fa6c8142c0d8c37dc", "name": "0d2e451e637a5a9fa6c8142c0d8c37dc", "rental_uris": {"ios": "https://dc.lft.to/lastmile_qr_scan", "android": "https://dc.lft.to/lastmile_qr_scan"}}, {"is_disabled": 0, "fusion_lat": 0.0, "lat": 38.905144, "type": "electric_scooter", "lon": -76.988351, "is_reserved": 0, "fusion_lon": 0.0, "bike_id": "427b9254731f91322a0ee56f811867e4", "name": "427b9254731f91322a0ee56f811867e4", "rental_uris": {"ios": "https://dc.lft.to/lastmile_qr_scan", "android": "https://dc.lft.to/lastmile_qr_scan"}}, {"is_disabled": 0, "fusion_lat": 0.0, "lat": 38.904174166666664, "type": "electric_scooter", "lon": -77.03278383333334, "is_reserved": 0, "fusion_lon": 0.0, "bike_id": "e219f97ca5d26477cc5572a344d0ff14", "name": "e219f97ca5d26477cc5572a344d0ff14", "rental_uris": {"ios": "https://dc.lft.to/lastmile_qr_scan", "android": "https://dc.lft.to/lastmile_qr_scan"}}, {"is_disabled": 0, "fusion_lat": 0.0, "lat": 38.911902, "type": "electric_scooter", "lon": -77.00373133333333, "is_reserved": 0, "fusion_lon": 0.0, "bike_id": "a845b9985b8d7a12e8342c41e111dd12", "name": "a845b9985b8d7a12e8342c41e111dd12", "rental_uris": {"ios": "https://dc.lft.to/lastmile_qr_scan", "android": "https://dc.lft.to/lastmile_qr_scan"}}, {"is_disabled": 0, "fusion_lat": 0.0, "lat": 38.9067245, "type": "electric_scooter", "lon": -77.000689, "is_reserved": 0, "fusion_lon": 0.0, "bike_id": "c21f0b95405715f5704a346f08997f9d", "name": "c21f0b95405715f5704a346f08997f9d", "rental_uris": {"ios": "https://dc.lft.to/lastmile_qr_scan", "android": "https://dc.lft.to/lastmile_qr_scan"}}, {"is_disabled": 0, "fusion_lat": 0.0, "lat": 38.91188866666667, "type": "electric_scooter", "lon": -77.01051616666666, "is_reserved": 0, "fusion_lon": 0.0, "bike_id": "faccf51759382b172efa2096e1f31b84", "name": "faccf51759382b172efa2096e1f31b84", "rental_uris": {"ios": "https://dc.lft.to/lastmile_qr_scan", "android": "https://dc.lft.to/lastmile_qr_scan"}}, {"is_disabled": 0, "fusion_lat": 0.0, "lat": 38.91014666666667, "type": "electric_scooter", "lon": -77.03852366666666, "is_reserved": 0, "fusion_lon": 0.0, "bike_id": "776f09dff4e46003aba78e750d4085b4", "name": "776f09dff4e46003aba78e750d4085b4", "rental_uris": {"ios": "https://dc.lft.to/lastmile_qr_scan", "android": "https://dc.lft.to/lastmile_qr_scan"}}, {"is_disabled": 0, "fusion_lat": 0.0, "lat": 38.90239916666667, "type": "electric_scooter", "lon": -77.00200533333333, "is_reserved": 0, "fusion_lon": 0.0, "bike_id": "c6aa2dd4c6b560e784379d287a2745c2", "name": "c6aa2dd4c6b560e784379d287a2745c2", "rental_uris": {"ios": "https://dc.lft.to/lastmile_qr_scan", "android": "https://dc.lft.to/lastmile_qr_scan"}}, {"is_disabled": 0, "fusion_lat": 0.0, "lat": 38.9050325, "type": "electric_scooter", "lon": -76.99016216666666, "is_reserved": 0, "fusion_lon": 0.0, "bike_id": "732c95b4d3e93a924042485c40b577df", "name": "732c95b4d3e93a924042485c40b577df", "rental_uris": {"ios": "https://dc.lft.to/lastmile_qr_scan", "android": "https://dc.lft.to/lastmile_qr_scan"}}, {"is_disabled": 0, "fusion_lat": 0.0, "lat": 38.92370733333333, "type": "electric_scooter", "lon": -77.03134533333333, "is_reserved": 0, "fusion_lon": 0.0, "bike_id": "02d9478a9b4571e4e50fff1de8989ed0", "name": "02d9478a9b4571e4e50fff1de8989ed0", "rental_uris": {"ios": "https://dc.lft.to/lastmile_qr_scan", "android": "https://dc.lft.to/lastmile_qr_scan"}}, {"is_disabled": 0, "fusion_lat": 0.0, "lat": 38.902155666666665, "type": "electric_scooter", "lon": -77.02382783333333, "is_reserved": 0, "fusion_lon": 0.0, "bike_id": "50b9a467516fb049b7ce72b1e4527694", "name": "50b9a467516fb049b7ce72b1e4527694", "rental_uris": {"ios": "https://dc.lft.to/lastmile_qr_scan", "android": "https://dc.lft.to/lastmile_qr_scan"}}, {"is_disabled": 0, "fusion_lat": 0.0, "lat": 38.902585333333334, "type": "electric_scooter", "lon": -77.015581, "is_reserved": 0, "fusion_lon": 0.0, "bike_id": "c3ea810afacab275f9ee40356a78aefd", "name": "c3ea810afacab275f9ee40356a78aefd", "rental_uris": {"ios": "https://dc.lft.to/lastmile_qr_scan", "android": "https://dc.lft.to/lastmile_qr_scan"}}, {"is_disabled": 0, "fusion_lat": 0.0, "lat": 38.90499916666667, "type": "electric_scooter", "lon": -77.02951966666667, "is_reserved": 0, "fusion_lon": 0.0, "bike_id": "15eda57f933e42c0d62bcb06b7736b03", "name": "15eda57f933e42c0d62bcb06b7736b03", "rental_uris": {"ios": "https://dc.lft.to/lastmile_qr_scan", "android": "https://dc.lft.to/lastmile_qr_scan"}}, {"is_disabled": 0, "fusion_lat": 0.0, "lat": 38.906241333333334, "type": "electric_bike", "lon": -76.986077, "is_reserved": 0, "fusion_lon": 0.0, "bike_id": "fad23b88043c7525d5c2095439ef5ada", "name": "fad23b88043c7525d5c2095439ef5ada", "rental_uris": {"ios": "https://dc.lft.to/lastmile_qr_scan", "android": "https://dc.lft.to/lastmile_qr_scan"}}, {"is_disabled": 0, "fusion_lat": 0.0, "lat": 38.876691666666666, "type": "electric_scooter", "lon": -77.004284, "is_reserved": 0, "fusion_lon": 0.0, "bike_id": "03a7727359b51a49e771bafb50afd4da", "name": "03a7727359b51a49e771bafb50afd4da", "rental_uris": {"ios": "https://dc.lft.to/lastmile_qr_scan", "android": "https://dc.lft.to/lastmile_qr_scan"}}, {"is_disabled": 0, "fusion_lat": 0.0, "lat": 38.904134, "type": "electric_scooter", "lon": -77.02070983333333, "is_reserved": 0, "fusion_lon": 0.0, "bike_id": "24d091dde4873cf242c3f4e257148d62", "name": "24d091dde4873cf242c3f4e257148d62", "rental_uris": {"ios": "https://dc.lft.to/lastmile_qr_scan", "android": "https://dc.lft.to/lastmile_qr_scan"}}, {"is_disabled": 0, "fusion_lat": 0.0, "lat": 38.960285, "type": "electric_scooter", "lon": -77.0283075, "is_reserved": 0, "fusion_lon": 0.0, "bike_id": "fd2cccadc5de87d7d27a10f5ea594a72", "name": "fd2cccadc5de87d7d27a10f5ea594a72", "rental_uris": {"ios": "https://dc.lft.to/lastmile_qr_scan", "android": "https://dc.lft.to/lastmile_qr_scan"}}, {"is_disabled": 0, "fusion_lat": 0.0, "lat": 38.912690166666664, "type": "electric_scooter", "lon": -77.01690433333333, "is_reserved": 0, "fusion_lon": 0.0, "bike_id": "fd880e1d220696b308f923fe11201611", "name": "fd880e1d220696b308f923fe11201611", "rental_uris": {"ios": "https://dc.lft.to/lastmile_qr_scan", "android": "https://dc.lft.to/lastmile_qr_scan"}}, {"is_disabled": 0, "fusion_lat": 0.0, "lat": 38.965733, "type": "electric_bike", "lon": -77.01625433333334, "is_reserved": 0, "fusion_lon": 0.0, "bike_id": "2f98aa741b5d4d44825d849f75640673", "name": "2f98aa741b5d4d44825d849f75640673", "rental_uris": {"ios": "https://dc.lft.to/lastmile_qr_scan", "android": "https://dc.lft.to/lastmile_qr_scan"}}, {"is_disabled": 0, "fusion_lat": 0.0, "lat": 38.925239, "type": "electric_scooter", "lon": -77.04422466666666, "is_reserved": 0, "fusion_lon": 0.0, "bike_id": "21a445ee778670526fae7096ae9f270e", "name": "21a445ee778670526fae7096ae9f270e", "rental_uris": {"ios": "https://dc.lft.to/lastmile_qr_scan", "android": "https://dc.lft.to/lastmile_qr_scan"}}, {"is_disabled": 0, "fusion_lat": 0.0, "lat": 38.897361, "type": "electric_scooter", "lon": -77.04498833333334, "is_reserved": 0, "fusion_lon": 0.0, "bike_id": "700bef5112d819ff56d50f6913c40636", "name": "700bef5112d819ff56d50f6913c40636", "rental_uris": {"ios": "https://dc.lft.to/lastmile_qr_scan", "android": "https://dc.lft.to/lastmile_qr_scan"}}, {"is_disabled": 0, "fusion_lat": 0.0, "lat": 38.93168383333333, "type": "electric_scooter", "lon": -77.02837766666667, "is_reserved": 0, "fusion_lon": 0.0, "bike_id": "8fe0bc606891baff4ffaa2647227dae3", "name": "8fe0bc606891baff4ffaa2647227dae3", "rental_uris": {"ios": "https://dc.lft.to/lastmile_qr_scan", "android": "https://dc.lft.to/lastmile_qr_scan"}}, {"is_disabled": 0, "fusion_lat": 0.0, "lat": 38.88120416666667, "type": "electric_scooter", "lon": -77.000955, "is_reserved": 0, "fusion_lon": 0.0, "bike_id": "4840fb1a1e11beacb6c6b1f024318553", "name": "4840fb1a1e11beacb6c6b1f024318553", "rental_uris": {"ios": "https://dc.lft.to/lastmile_qr_scan", "android": "https://dc.lft.to/lastmile_qr_scan"}}, {"is_disabled": 0, "fusion_lat": 0.0, "lat": 38.96560566666667, "type": "electric_bike", "lon": -77.0230095, "is_reserved": 0, "fusion_lon": 0.0, "bike_id": "8fc726608d39f514679dd208c0c7f55f", "name": "8fc726608d39f514679dd208c0c7f55f", "rental_uris": {"ios": "https://dc.lft.to/lastmile_qr_scan", "android": "https://dc.lft.to/lastmile_qr_scan"}}, {"is_disabled": 0, "fusion_lat": 0.0, "lat": 38.87372833333333, "type": "electric_bike", "lon": -77.11799133333334, "is_reserved": 0, "fusion_lon": 0.0, "bike_id": "cfa5cc69419aa033592990bd3a293fbe", "name": "cfa5cc69419aa033592990bd3a293fbe", "rental_uris": {"ios": "https://dc.lft.to/lastmile_qr_scan", "android": "https://dc.lft.to/lastmile_qr_scan"}}, {"is_disabled": 0, "fusion_lat": 0.0, "lat": 38.9194775, "type": "electric_scooter", "lon": -77.041479, "is_reserved": 0, "fusion_lon": 0.0, "bike_id": "57d24aa6ef94d35f7552b90892cc7722", "name": "57d24aa6ef94d35f7552b90892cc7722", "rental_uris": {"ios": "https://dc.lft.to/lastmile_qr_scan", "android": "https://dc.lft.to/lastmile_qr_scan"}}, {"is_disabled": 0, "fusion_lat": 0.0, "lat": 38.944268, "type": "electric_scooter", "lon": -76.99196, "is_reserved": 0, "fusion_lon": 0.0, "bike_id": "901d5fdf57126896b8963e888fe6e9d3", "name": "901d5fdf57126896b8963e888fe6e9d3", "rental_uris": {"ios": "https://dc.lft.to/lastmile_qr_scan", "android": "https://dc.lft.to/lastmile_qr_scan"}}, {"is_disabled": 0, "fusion_lat": 0.0, "lat": 38.9059505, "type": "electric_scooter", "lon": -77.0411085, "is_reserved": 0, "fusion_lon": 0.0, "bike_id": "826b70ae60708257a80e75119ab49ac6", "name": "826b70ae60708257a80e75119ab49ac6", "rental_uris": {"ios": "https://dc.lft.to/lastmile_qr_scan", "android": "https://dc.lft.to/lastmile_qr_scan"}}, {"is_disabled": 0, "fusion_lat": 0.0, "lat": 38.878589833333336, "type": "electric_scooter", "lon": -76.989865, "is_reserved": 0, "fusion_lon": 0.0, "bike_id": "dd3a62cf3913d99e1e2fb37218a01584", "name": "dd3a62cf3913d99e1e2fb37218a01584", "rental_uris": {"ios": "https://dc.lft.to/lastmile_qr_scan", "android": "https://dc.lft.to/lastmile_qr_scan"}}, {"is_disabled": 0, "fusion_lat": 0.0, "lat": 38.92107133333333, "type": "electric_scooter", "lon": -77.04372783333334, "is_reserved": 0, "fusion_lon": 0.0, "bike_id": "1d4488fba9ee489dd6027b3ee66f2eef", "name": "1d4488fba9ee489dd6027b3ee66f2eef", "rental_uris": {"ios": "https://dc.lft.to/lastmile_qr_scan", "android": "https://dc.lft.to/lastmile_qr_scan"}}, {"is_disabled": 0, "fusion_lat": 0.0, "lat": 38.89501833333333, "type": "electric_scooter", "lon": -77.02291233333334, "is_reserved": 0, "fusion_lon": 0.0, "bike_id": "8bfd24ebf7ae3579d8b940150d472ca7", "name": "8bfd24ebf7ae3579d8b940150d472ca7", "rental_uris": {"ios": "https://dc.lft.to/lastmile_qr_scan", "android": "https://dc.lft.to/lastmile_qr_scan"}}, {"is_disabled": 0, "fusion_lat": 0.0, "lat": 38.9281395, "type": "electric_scooter", "lon": -77.03704233333333, "is_reserved": 0, "fusion_lon": 0.0, "bike_id": "b22ba1e3cb9bab5d3877e48b5ef05477", "name": "b22ba1e3cb9bab5d3877e48b5ef05477", "rental_uris": {"ios": "https://dc.lft.to/lastmile_qr_scan", "android": "https://dc.lft.to/lastmile_qr_scan"}}, {"is_disabled": 0, "fusion_lat": 0.0, "lat": 38.934696333333335, "type": "electric_scooter", "lon": -77.01926916666666, "is_reserved": 0, "fusion_lon": 0.0, "bike_id": "1d18f49f97a392818e6beb271d6b31ca", "name": "1d18f49f97a392818e6beb271d6b31ca", "rental_uris": {"ios": "https://dc.lft.to/lastmile_qr_scan", "android": "https://dc.lft.to/lastmile_qr_scan"}}, {"is_disabled": 0, "fusion_lat": 0.0, "lat": 38.897103666666666, "type": "electric_scooter", "lon": -77.02712733333334, "is_reserved": 0, "fusion_lon": 0.0, "bike_id": "ed240b490299600e9d7e75a593fcc7b7", "name": "ed240b490299600e9d7e75a593fcc7b7", "rental_uris": {"ios": "https://dc.lft.to/lastmile_qr_scan", "android": "https://dc.lft.to/lastmile_qr_scan"}}, {"is_disabled": 0, "fusion_lat": 0.0, "lat": 38.902721666666665, "type": "electric_scooter", "lon": -77.03835366666667, "is_reserved": 0, "fusion_lon": 0.0, "bike_id": "0efcffde38341944f00fe6454281d344", "name": "0efcffde38341944f00fe6454281d344", "rental_uris": {"ios": "https://dc.lft.to/lastmile_qr_scan", "android": "https://dc.lft.to/lastmile_qr_scan"}}, {"is_disabled": 0, "fusion_lat": 0.0, "lat": 38.88502416666667, "type": "electric_scooter", "lon": -77.0056745, "is_reserved": 0, "fusion_lon": 0.0, "bike_id": "4b5288ad6267e488600d17e212f9628c", "name": "4b5288ad6267e488600d17e212f9628c", "rental_uris": {"ios": "https://dc.lft.to/lastmile_qr_scan", "android": "https://dc.lft.to/lastmile_qr_scan"}}, {"is_disabled": 0, "fusion_lat": 0.0, "lat": 38.892207666666664, "type": "electric_scooter", "lon": -77.02222033333334, "is_reserved": 0, "fusion_lon": 0.0, "bike_id": "e68dafa831703f7ef982f3451b3d6054", "name": "e68dafa831703f7ef982f3451b3d6054", "rental_uris": {"ios": "https://dc.lft.to/lastmile_qr_scan", "android": "https://dc.lft.to/lastmile_qr_scan"}}, {"is_disabled": 0, "fusion_lat": 0.0, "lat": 38.893428666666665, "type": "electric_scooter", "lon": -76.94935233333334, "is_reserved": 0, "fusion_lon": 0.0, "bike_id": "052495d468c21d7b50e9fd8f3131dd04", "name": "052495d468c21d7b50e9fd8f3131dd04", "rental_uris": {"ios": "https://dc.lft.to/lastmile_qr_scan", "android": "https://dc.lft.to/lastmile_qr_scan"}}, {"is_disabled": 0, "fusion_lat": 0.0, "lat": 38.927183166666666, "type": "electric_scooter", "lon": -77.03976716666666, "is_reserved": 0, "fusion_lon": 0.0, "bike_id": "849ec7d1e3dfaf2c9d6aa2d95a251302", "name": "849ec7d1e3dfaf2c9d6aa2d95a251302", "rental_uris": {"ios": "https://dc.lft.to/lastmile_qr_scan", "android": "https://dc.lft.to/lastmile_qr_scan"}}, {"is_disabled": 0, "fusion_lat": 0.0, "lat": 38.94895783333333, "type": "electric_bike", "lon": -76.96376716666667, "is_reserved": 0, "fusion_lon": 0.0, "bike_id": "3c6046431072c6f13e95a93df8cd8643", "name": "3c6046431072c6f13e95a93df8cd8643", "rental_uris": {"ios": "https://dc.lft.to/lastmile_qr_scan", "android": "https://dc.lft.to/lastmile_qr_scan"}}, {"is_disabled": 0, "fusion_lat": 0.0, "lat": 38.88451166666667, "type": "electric_scooter", "lon": -77.0057065, "is_reserved": 0, "fusion_lon": 0.0, "bike_id": "94d48e8df40ead8aee146bb52b0aef25", "name": "94d48e8df40ead8aee146bb52b0aef25", "rental_uris": {"ios": "https://dc.lft.to/lastmile_qr_scan", "android": "https://dc.lft.to/lastmile_qr_scan"}}, {"is_disabled": 0, "fusion_lat": 0.0, "lat": 38.903661166666666, "type": "electric_scooter", "lon": -77.038863, "is_reserved": 0, "fusion_lon": 0.0, "bike_id": "e18c9a2b9f330becf3fa295da08f60b7", "name": "e18c9a2b9f330becf3fa295da08f60b7", "rental_uris": {"ios": "https://dc.lft.to/lastmile_qr_scan", "android": "https://dc.lft.to/lastmile_qr_scan"}}, {"is_disabled": 0, "fusion_lat": 0.0, "lat": 38.92150216666667, "type": "electric_scooter", "lon": -77.03868083333333, "is_reserved": 0, "fusion_lon": 0.0, "bike_id": "fb96ddeb159dce050c9198110d5375d7", "name": "fb96ddeb159dce050c9198110d5375d7", "rental_uris": {"ios": "https://dc.lft.to/lastmile_qr_scan", "android": "https://dc.lft.to/lastmile_qr_scan"}}, {"is_disabled": 0, "fusion_lat": 0.0, "lat": 38.89248583333333, "type": "electric_scooter", "lon": -76.9432595, "is_reserved": 0, "fusion_lon": 0.0, "bike_id": "c6c83255f5b5875f9a5f8e40b2cbb1ff", "name": "c6c83255f5b5875f9a5f8e40b2cbb1ff", "rental_uris": {"ios": "https://dc.lft.to/lastmile_qr_scan", "android": "https://dc.lft.to/lastmile_qr_scan"}}, {"is_disabled": 0, "fusion_lat": 0.0, "lat": 38.90137216666667, "type": "electric_scooter", "lon": -76.99806366666667, "is_reserved": 0, "fusion_lon": 0.0, "bike_id": "dff136a546323901bfff4c8b3f2704c8", "name": "dff136a546323901bfff4c8b3f2704c8", "rental_uris": {"ios": "https://dc.lft.to/lastmile_qr_scan", "android": "https://dc.lft.to/lastmile_qr_scan"}}, {"is_disabled": 0, "fusion_lat": 0.0, "lat": 38.916146166666664, "type": "electric_scooter", "lon": -77.02711716666667, "is_reserved": 0, "fusion_lon": 0.0, "bike_id": "1856460c524c4499797b172e2fd85fc7", "name": "1856460c524c4499797b172e2fd85fc7", "rental_uris": {"ios": "https://dc.lft.to/lastmile_qr_scan", "android": "https://dc.lft.to/lastmile_qr_scan"}}, {"is_disabled": 0, "fusion_lat": 0.0, "lat": 38.912716, "type": "electric_scooter", "lon": -77.041746, "is_reserved": 0, "fusion_lon": 0.0, "bike_id": "c16f6314a9b09e8789e9773c2d95d05c", "name": "c16f6314a9b09e8789e9773c2d95d05c", "rental_uris": {"ios": "https://dc.lft.to/lastmile_qr_scan", "android": "https://dc.lft.to/lastmile_qr_scan"}}, {"is_disabled": 0, "fusion_lat": 0.0, "lat": 38.9480125, "type": "electric_bike", "lon": -77.008127, "is_reserved": 0, "fusion_lon": 0.0, "bike_id": "31865634ae241e321227b1f0bfc7e41f", "name": "31865634ae241e321227b1f0bfc7e41f", "rental_uris": {"ios": "https://dc.lft.to/lastmile_qr_scan", "android": "https://dc.lft.to/lastmile_qr_scan"}}, {"is_disabled": 0, "fusion_lat": 0.0, "lat": 38.871485, "type": "electric_bike", "lon": -76.93670266666666, "is_reserved": 0, "fusion_lon": 0.0, "bike_id": "f50bc52d58cec2db80322ea1cfe61e2c", "name": "f50bc52d58cec2db80322ea1cfe61e2c", "rental_uris": {"ios": "https://dc.lft.to/lastmile_qr_scan", "android": "https://dc.lft.to/lastmile_qr_scan"}}, {"is_disabled": 0, "fusion_lat": 0.0, "lat": 38.95356316666667, "type": "electric_bike", "lon": -76.980935, "is_reserved": 0, "fusion_lon": 0.0, "bike_id": "df5144796b0266d2ccee336c5a513596", "name": "df5144796b0266d2ccee336c5a513596", "rental_uris": {"ios": "https://dc.lft.to/lastmile_qr_scan", "android": "https://dc.lft.to/lastmile_qr_scan"}}, {"is_disabled": 0, "fusion_lat": 0.0, "lat": 38.90848183333333, "type": "electric_scooter", "lon": -77.02461683333334, "is_reserved": 0, "fusion_lon": 0.0, "bike_id": "01e1316263d4bb06900ddc81115cd7a9", "name": "01e1316263d4bb06900ddc81115cd7a9", "rental_uris": {"ios": "https://dc.lft.to/lastmile_qr_scan", "android": "https://dc.lft.to/lastmile_qr_scan"}}, {"is_disabled": 0, "fusion_lat": 0.0, "lat": 38.896193833333335, "type": "electric_scooter", "lon": -76.99416166666667, "is_reserved": 0, "fusion_lon": 0.0, "bike_id": "e44340a3f08aeea0d68f9f78f69d49c8", "name": "e44340a3f08aeea0d68f9f78f69d49c8", "rental_uris": {"ios": "https://dc.lft.to/lastmile_qr_scan", "android": "https://dc.lft.to/lastmile_qr_scan"}}, {"is_disabled": 0, "fusion_lat": 0.0, "lat": 38.9025405, "type": "electric_scooter", "lon": -77.01382283333334, "is_reserved": 0, "fusion_lon": 0.0, "bike_id": "4cf1cbb851766a5654239d6f2becfa75", "name": "4cf1cbb851766a5654239d6f2becfa75", "rental_uris": {"ios": "https://dc.lft.to/lastmile_qr_scan", "android": "https://dc.lft.to/lastmile_qr_scan"}}, {"is_disabled": 0, "fusion_lat": 0.0, "lat": 38.92497133333333, "type": "electric_scooter", "lon": -77.02152833333334, "is_reserved": 0, "fusion_lon": 0.0, "bike_id": "571e040fb6d561898bc23baa941b91e5", "name": "571e040fb6d561898bc23baa941b91e5", "rental_uris": {"ios": "https://dc.lft.to/lastmile_qr_scan", "android": "https://dc.lft.to/lastmile_qr_scan"}}, {"is_disabled": 0, "fusion_lat": 0.0, "lat": 38.90027083333333, "type": "electric_scooter", "lon": -77.00612766666667, "is_reserved": 0, "fusion_lon": 0.0, "bike_id": "da2774290f1d1f3ffb848c60aa7eea38", "name": "da2774290f1d1f3ffb848c60aa7eea38", "rental_uris": {"ios": "https://dc.lft.to/lastmile_qr_scan", "android": "https://dc.lft.to/lastmile_qr_scan"}}, {"is_disabled": 0, "fusion_lat": 0.0, "lat": 38.901525, "type": "electric_scooter", "lon": -77.025413, "is_reserved": 0, "fusion_lon": 0.0, "bike_id": "41eaf3e4221b921e64ad86f18dc79e4b", "name": "41eaf3e4221b921e64ad86f18dc79e4b", "rental_uris": {"ios": "https://dc.lft.to/lastmile_qr_scan", "android": "https://dc.lft.to/lastmile_qr_scan"}}, {"is_disabled": 0, "fusion_lat": 0.0, "lat": 38.88313616666667, "type": "electric_scooter", "lon": -77.00937816666666, "is_reserved": 0, "fusion_lon": 0.0, "bike_id": "28bf47b77b2debf2e70a0cdd687fde2b", "name": "28bf47b77b2debf2e70a0cdd687fde2b", "rental_uris": {"ios": "https://dc.lft.to/lastmile_qr_scan", "android": "https://dc.lft.to/lastmile_qr_scan"}}, {"is_disabled": 0, "fusion_lat": 0.0, "lat": 38.92291483333333, "type": "electric_scooter", "lon": -77.03196316666667, "is_reserved": 0, "fusion_lon": 0.0, "bike_id": "d524f0fcd3e42f7885babc27dc664699", "name": "d524f0fcd3e42f7885babc27dc664699", "rental_uris": {"ios": "https://dc.lft.to/lastmile_qr_scan", "android": "https://dc.lft.to/lastmile_qr_scan"}}, {"is_disabled": 0, "fusion_lat": 0.0, "lat": 38.93827816666666, "type": "electric_bike", "lon": -77.03284516666666, "is_reserved": 0, "fusion_lon": 0.0, "bike_id": "06c04050ba601f635ea445a7606c6f67", "name": "06c04050ba601f635ea445a7606c6f67", "rental_uris": {"ios": "https://dc.lft.to/lastmile_qr_scan", "android": "https://dc.lft.to/lastmile_qr_scan"}}, {"is_disabled": 0, "fusion_lat": 0.0, "lat": 38.87542216666667, "type": "electric_scooter", "lon": -77.00068183333333, "is_reserved": 0, "fusion_lon": 0.0, "bike_id": "5a7d0e462c0ab10a9c840ca1354ae718", "name": "5a7d0e462c0ab10a9c840ca1354ae718", "rental_uris": {"ios": "https://dc.lft.to/lastmile_qr_scan", "android": "https://dc.lft.to/lastmile_qr_scan"}}, {"is_disabled": 0, "fusion_lat": 0.0, "lat": 38.89914233333333, "type": "electric_scooter", "lon": -77.03295883333334, "is_reserved": 0, "fusion_lon": 0.0, "bike_id": "f376191c0c3d7ccd8d30768acd47a0c6", "name": "f376191c0c3d7ccd8d30768acd47a0c6", "rental_uris": {"ios": "https://dc.lft.to/lastmile_qr_scan", "android": "https://dc.lft.to/lastmile_qr_scan"}}, {"is_disabled": 0, "fusion_lat": 0.0, "lat": 38.9129995, "type": "electric_bike", "lon": -77.08289433333333, "is_reserved": 0, "fusion_lon": 0.0, "bike_id": "de15f34ace99383611deea12ac48276b", "name": "de15f34ace99383611deea12ac48276b", "rental_uris": {"ios": "https://dc.lft.to/lastmile_qr_scan", "android": "https://dc.lft.to/lastmile_qr_scan"}}, {"is_disabled": 0, "fusion_lat": 0.0, "lat": 38.879220333333336, "type": "electric_scooter", "lon": -76.99251866666667, "is_reserved": 0, "fusion_lon": 0.0, "bike_id": "0ce9a417afb5c4a709b58e11110887ee", "name": "0ce9a417afb5c4a709b58e11110887ee", "rental_uris": {"ios": "https://dc.lft.to/lastmile_qr_scan", "android": "https://dc.lft.to/lastmile_qr_scan"}}, {"is_disabled": 0, "fusion_lat": 0.0, "lat": 38.93795033333333, "type": "electric_scooter", "lon": -77.06001316666666, "is_reserved": 0, "fusion_lon": 0.0, "bike_id": "62442494fb3eeb753fbdd4cc97051dd1", "name": "62442494fb3eeb753fbdd4cc97051dd1", "rental_uris": {"ios": "https://dc.lft.to/lastmile_qr_scan", "android": "https://dc.lft.to/lastmile_qr_scan"}}, {"is_disabled": 0, "fusion_lat": 0.0, "lat": 38.92288033333333, "type": "electric_scooter", "lon": -77.04146416666667, "is_reserved": 0, "fusion_lon": 0.0, "bike_id": "69bc5cac0dc157dfc97b9383a5ce1850", "name": "69bc5cac0dc157dfc97b9383a5ce1850", "rental_uris": {"ios": "https://dc.lft.to/lastmile_qr_scan", "android": "https://dc.lft.to/lastmile_qr_scan"}}, {"is_disabled": 0, "fusion_lat": 0.0, "lat": 38.91248216666666, "type": "electric_scooter", "lon": -77.02227116666667, "is_reserved": 0, "fusion_lon": 0.0, "bike_id": "10a32b6ad47878a3736c47221c45b26f", "name": "10a32b6ad47878a3736c47221c45b26f", "rental_uris": {"ios": "https://dc.lft.to/lastmile_qr_scan", "android": "https://dc.lft.to/lastmile_qr_scan"}}, {"is_disabled": 0, "fusion_lat": 0.0, "lat": 38.916949, "type": "electric_scooter", "lon": -77.0123355, "is_reserved": 0, "fusion_lon": 0.0, "bike_id": "423995a382e39678e12adf8b93614f67", "name": "423995a382e39678e12adf8b93614f67", "rental_uris": {"ios": "https://dc.lft.to/lastmile_qr_scan", "android": "https://dc.lft.to/lastmile_qr_scan"}}, {"is_disabled": 0, "fusion_lat": 0.0, "lat": 38.933651833333336, "type": "electric_scooter", "lon": -77.034486, "is_reserved": 0, "fusion_lon": 0.0, "bike_id": "46b75b8749c6e71743bff8fa7974ef74", "name": "46b75b8749c6e71743bff8fa7974ef74", "rental_uris": {"ios": "https://dc.lft.to/lastmile_qr_scan", "android": "https://dc.lft.to/lastmile_qr_scan"}}, {"is_disabled": 0, "fusion_lat": 0.0, "lat": 38.91332766666667, "type": "electric_scooter", "lon": -77.04818066666667, "is_reserved": 0, "fusion_lon": 0.0, "bike_id": "21333393a759ca75539a853fbbf3bbe6", "name": "21333393a759ca75539a853fbbf3bbe6", "rental_uris": {"ios": "https://dc.lft.to/lastmile_qr_scan", "android": "https://dc.lft.to/lastmile_qr_scan"}}, {"is_disabled": 0, "fusion_lat": 0.0, "lat": 38.897998666666666, "type": "electric_scooter", "lon": -77.01912466666667, "is_reserved": 0, "fusion_lon": 0.0, "bike_id": "05872dc5ee3a19535c3b97ba8b183425", "name": "05872dc5ee3a19535c3b97ba8b183425", "rental_uris": {"ios": "https://dc.lft.to/lastmile_qr_scan", "android": "https://dc.lft.to/lastmile_qr_scan"}}, {"is_disabled": 0, "fusion_lat": 0.0, "lat": 38.901834666666666, "type": "electric_scooter", "lon": -76.9346235, "is_reserved": 0, "fusion_lon": 0.0, "bike_id": "95d59ffcadcbe22db39286507062e70a", "name": "95d59ffcadcbe22db39286507062e70a", "rental_uris": {"ios": "https://dc.lft.to/lastmile_qr_scan", "android": "https://dc.lft.to/lastmile_qr_scan"}}, {"is_disabled": 0, "fusion_lat": 0.0, "lat": 38.903429833333334, "type": "electric_scooter", "lon": -76.97243916666666, "is_reserved": 0, "fusion_lon": 0.0, "bike_id": "f3159dd700dd14e4eb8643ebe9d688a8", "name": "f3159dd700dd14e4eb8643ebe9d688a8", "rental_uris": {"ios": "https://dc.lft.to/lastmile_qr_scan", "android": "https://dc.lft.to/lastmile_qr_scan"}}, {"is_disabled": 0, "fusion_lat": 0.0, "lat": 38.90193283333333, "type": "electric_scooter", "lon": -77.02173766666667, "is_reserved": 0, "fusion_lon": 0.0, "bike_id": "ac3b2a7ba79fe628a537d9ea40588528", "name": "ac3b2a7ba79fe628a537d9ea40588528", "rental_uris": {"ios": "https://dc.lft.to/lastmile_qr_scan", "android": "https://dc.lft.to/lastmile_qr_scan"}}, {"is_disabled": 0, "fusion_lat": 0.0, "lat": 38.91984933333333, "type": "electric_scooter", "lon": -77.0235125, "is_reserved": 0, "fusion_lon": 0.0, "bike_id": "15e932cc2d924fe7d8fb0acc80d4c0a0", "name": "15e932cc2d924fe7d8fb0acc80d4c0a0", "rental_uris": {"ios": "https://dc.lft.to/lastmile_qr_scan", "android": "https://dc.lft.to/lastmile_qr_scan"}}, {"is_disabled": 0, "fusion_lat": 0.0, "lat": 38.8661385, "type": "electric_scooter", "lon": -76.9866775, "is_reserved": 0, "fusion_lon": 0.0, "bike_id": "00ea7df04764002ff247318008e9ca3f", "name": "00ea7df04764002ff247318008e9ca3f", "rental_uris": {"ios": "https://dc.lft.to/lastmile_qr_scan", "android": "https://dc.lft.to/lastmile_qr_scan"}}, {"is_disabled": 0, "fusion_lat": 0.0, "lat": 38.90447316666667, "type": "electric_scooter", "lon": -77.05923983333334, "is_reserved": 0, "fusion_lon": 0.0, "bike_id": "18a6b9d5cf3984fb4e5427bd8fa25ba7", "name": "18a6b9d5cf3984fb4e5427bd8fa25ba7", "rental_uris": {"ios": "https://dc.lft.to/lastmile_qr_scan", "android": "https://dc.lft.to/lastmile_qr_scan"}}, {"is_disabled": 0, "fusion_lat": 0.0, "lat": 38.9236035, "type": "electric_scooter", "lon": -77.05089016666666, "is_reserved": 0, "fusion_lon": 0.0, "bike_id": "332a34cb756edda5d4eabd6fede516b3", "name": "332a34cb756edda5d4eabd6fede516b3", "rental_uris": {"ios": "https://dc.lft.to/lastmile_qr_scan", "android": "https://dc.lft.to/lastmile_qr_scan"}}, {"is_disabled": 0, "fusion_lat": 0.0, "lat": 38.904222, "type": "electric_scooter", "lon": -77.04877383333333, "is_reserved": 0, "fusion_lon": 0.0, "bike_id": "a043e1a4b0119cd4798395895689243a", "name": "a043e1a4b0119cd4798395895689243a", "rental_uris": {"ios": "https://dc.lft.to/lastmile_qr_scan", "android": "https://dc.lft.to/lastmile_qr_scan"}}, {"is_disabled": 0, "fusion_lat": 0.0, "lat": 38.881031166666666, "type": "electric_bike", "lon": -77.01666266666666, "is_reserved": 0, "fusion_lon": 0.0, "bike_id": "824a849b706598914bc25efecde27832", "name": "824a849b706598914bc25efecde27832", "rental_uris": {"ios": "https://dc.lft.to/lastmile_qr_scan", "android": "https://dc.lft.to/lastmile_qr_scan"}}, {"is_disabled": 0, "fusion_lat": 0.0, "lat": 38.95390883333334, "type": "electric_bike", "lon": -77.02756083333334, "is_reserved": 0, "fusion_lon": 0.0, "bike_id": "67718cb3de229d630b9100c0a5c5eb30", "name": "67718cb3de229d630b9100c0a5c5eb30", "rental_uris": {"ios": "https://dc.lft.to/lastmile_qr_scan", "android": "https://dc.lft.to/lastmile_qr_scan"}}, {"is_disabled": 0, "fusion_lat": 0.0, "lat": 38.91328466666667, "type": "electric_scooter", "lon": -77.04842783333334, "is_reserved": 0, "fusion_lon": 0.0, "bike_id": "196eefb21807c184a2e4cd7352e4b794", "name": "196eefb21807c184a2e4cd7352e4b794", "rental_uris": {"ios": "https://dc.lft.to/lastmile_qr_scan", "android": "https://dc.lft.to/lastmile_qr_scan"}}, {"is_disabled": 0, "fusion_lat": 0.0, "lat": 38.912508333333335, "type": "electric_scooter", "lon": -77.03489933333333, "is_reserved": 0, "fusion_lon": 0.0, "bike_id": "a61f26abd0ae8016e2ffe206f09052a6", "name": "a61f26abd0ae8016e2ffe206f09052a6", "rental_uris": {"ios": "https://dc.lft.to/lastmile_qr_scan", "android": "https://dc.lft.to/lastmile_qr_scan"}}, {"is_disabled": 0, "fusion_lat": 0.0, "lat": 38.885862, "type": "electric_scooter", "lon": -77.00064883333333, "is_reserved": 0, "fusion_lon": 0.0, "bike_id": "2eb06e93bf456015a6b37c0ef2b3d354", "name": "2eb06e93bf456015a6b37c0ef2b3d354", "rental_uris": {"ios": "https://dc.lft.to/lastmile_qr_scan", "android": "https://dc.lft.to/lastmile_qr_scan"}}, {"is_disabled": 0, "fusion_lat": 0.0, "lat": 38.91673683333333, "type": "electric_scooter", "lon": -77.0157995, "is_reserved": 0, "fusion_lon": 0.0, "bike_id": "c7bc9c6e6c40706fda4467adfb53fd29", "name": "c7bc9c6e6c40706fda4467adfb53fd29", "rental_uris": {"ios": "https://dc.lft.to/lastmile_qr_scan", "android": "https://dc.lft.to/lastmile_qr_scan"}}, {"is_disabled": 0, "fusion_lat": 0.0, "lat": 38.909706166666666, "type": "electric_scooter", "lon": -77.03901833333333, "is_reserved": 0, "fusion_lon": 0.0, "bike_id": "5f1ad39c86afd0ba83132a5f9f3cd51b", "name": "5f1ad39c86afd0ba83132a5f9f3cd51b", "rental_uris": {"ios": "https://dc.lft.to/lastmile_qr_scan", "android": "https://dc.lft.to/lastmile_qr_scan"}}, {"is_disabled": 0, "fusion_lat": 0.0, "lat": 38.92018366666667, "type": "electric_scooter", "lon": -77.0021265, "is_reserved": 0, "fusion_lon": 0.0, "bike_id": "2697bb69a5e1e31323f4815bd80af698", "name": "2697bb69a5e1e31323f4815bd80af698", "rental_uris": {"ios": "https://dc.lft.to/lastmile_qr_scan", "android": "https://dc.lft.to/lastmile_qr_scan"}}, {"is_disabled": 0, "fusion_lat": 0.0, "lat": 38.89679233333333, "type": "electric_scooter", "lon": -76.9352895, "is_reserved": 0, "fusion_lon": 0.0, "bike_id": "4c1664b1ca1479c432f0096542f0ef1e", "name": "4c1664b1ca1479c432f0096542f0ef1e", "rental_uris": {"ios": "https://dc.lft.to/lastmile_qr_scan", "android": "https://dc.lft.to/lastmile_qr_scan"}}, {"is_disabled": 0, "fusion_lat": 0.0, "lat": 38.927482833333336, "type": "electric_scooter", "lon": -77.02483533333333, "is_reserved": 0, "fusion_lon": 0.0, "bike_id": "e75279f1a4885bd48691c2077d5c7d0b", "name": "e75279f1a4885bd48691c2077d5c7d0b", "rental_uris": {"ios": "https://dc.lft.to/lastmile_qr_scan", "android": "https://dc.lft.to/lastmile_qr_scan"}}, {"is_disabled": 0, "fusion_lat": 0.0, "lat": 38.9231515, "type": "electric_scooter", "lon": -77.04092516666667, "is_reserved": 0, "fusion_lon": 0.0, "bike_id": "399027db4312c1b6e3aad7108b10d673", "name": "399027db4312c1b6e3aad7108b10d673", "rental_uris": {"ios": "https://dc.lft.to/lastmile_qr_scan", "android": "https://dc.lft.to/lastmile_qr_scan"}}, {"is_disabled": 0, "fusion_lat": 0.0, "lat": 38.919675, "type": "electric_scooter", "lon": -77.03960916666666, "is_reserved": 0, "fusion_lon": 0.0, "bike_id": "bec2ff023cf9a8fc1ca35840e1995c16", "name": "bec2ff023cf9a8fc1ca35840e1995c16", "rental_uris": {"ios": "https://dc.lft.to/lastmile_qr_scan", "android": "https://dc.lft.to/lastmile_qr_scan"}}, {"is_disabled": 0, "fusion_lat": 0.0, "lat": 38.899451, "type": "electric_scooter", "lon": -76.99017933333333, "is_reserved": 0, "fusion_lon": 0.0, "bike_id": "195c794f1d99c844b620175596412644", "name": "195c794f1d99c844b620175596412644", "rental_uris": {"ios": "https://dc.lft.to/lastmile_qr_scan", "android": "https://dc.lft.to/lastmile_qr_scan"}}, {"is_disabled": 0, "fusion_lat": 0.0, "lat": 38.91733083333333, "type": "electric_scooter", "lon": -77.04173233333333, "is_reserved": 0, "fusion_lon": 0.0, "bike_id": "47fba5d5a0d26bc6ff6fc5f1b20ba0b7", "name": "47fba5d5a0d26bc6ff6fc5f1b20ba0b7", "rental_uris": {"ios": "https://dc.lft.to/lastmile_qr_scan", "android": "https://dc.lft.to/lastmile_qr_scan"}}, {"is_disabled": 0, "fusion_lat": 0.0, "lat": 38.919188166666665, "type": "electric_scooter", "lon": -77.03172966666666, "is_reserved": 0, "fusion_lon": 0.0, "bike_id": "412cb3e41e80682532b8898054f548d0", "name": "412cb3e41e80682532b8898054f548d0", "rental_uris": {"ios": "https://dc.lft.to/lastmile_qr_scan", "android": "https://dc.lft.to/lastmile_qr_scan"}}, {"is_disabled": 0, "fusion_lat": 0.0, "lat": 38.95283233333333, "type": "electric_bike", "lon": -77.06847833333333, "is_reserved": 0, "fusion_lon": 0.0, "bike_id": "fb86d75cf7e6c38c40a5f6634665315c", "name": "fb86d75cf7e6c38c40a5f6634665315c", "rental_uris": {"ios": "https://dc.lft.to/lastmile_qr_scan", "android": "https://dc.lft.to/lastmile_qr_scan"}}, {"is_disabled": 0, "fusion_lat": 0.0, "lat": 38.90646866666667, "type": "electric_scooter", "lon": -76.9837525, "is_reserved": 0, "fusion_lon": 0.0, "bike_id": "31a61b8d34b68704eef0e061e10e34dd", "name": "31a61b8d34b68704eef0e061e10e34dd", "rental_uris": {"ios": "https://dc.lft.to/lastmile_qr_scan", "android": "https://dc.lft.to/lastmile_qr_scan"}}, {"is_disabled": 0, "fusion_lat": 0.0, "lat": 38.93959566666667, "type": "electric_bike", "lon": -77.36089066666666, "is_reserved": 0, "fusion_lon": 0.0, "bike_id": "7562695d4bbcd3f23d2df2dbd61ad8ba", "name": "7562695d4bbcd3f23d2df2dbd61ad8ba", "rental_uris": {"ios": "https://dc.lft.to/lastmile_qr_scan", "android": "https://dc.lft.to/lastmile_qr_scan"}}, {"is_disabled": 0, "fusion_lat": 0.0, "lat": 38.895556166666665, "type": "electric_scooter", "lon": -76.93078333333334, "is_reserved": 0, "fusion_lon": 0.0, "bike_id": "67327700d9ef4fcc2a5405e22ed87338", "name": "67327700d9ef4fcc2a5405e22ed87338", "rental_uris": {"ios": "https://dc.lft.to/lastmile_qr_scan", "android": "https://dc.lft.to/lastmile_qr_scan"}}, {"is_disabled": 0, "fusion_lat": 0.0, "lat": 38.903657333333335, "type": "electric_scooter", "lon": -77.029345, "is_reserved": 0, "fusion_lon": 0.0, "bike_id": "d6211465d03c58298e991dfbd764da29", "name": "d6211465d03c58298e991dfbd764da29", "rental_uris": {"ios": "https://dc.lft.to/lastmile_qr_scan", "android": "https://dc.lft.to/lastmile_qr_scan"}}, {"is_disabled": 0, "fusion_lat": 0.0, "lat": 38.9245865, "type": "electric_scooter", "lon": -77.05753383333334, "is_reserved": 0, "fusion_lon": 0.0, "bike_id": "b96c2030fdb15c78db97dc9df9cd9848", "name": "b96c2030fdb15c78db97dc9df9cd9848", "rental_uris": {"ios": "https://dc.lft.to/lastmile_qr_scan", "android": "https://dc.lft.to/lastmile_qr_scan"}}, {"is_disabled": 0, "fusion_lat": 0.0, "lat": 38.92475666666667, "type": "electric_scooter", "lon": -77.03379833333334, "is_reserved": 0, "fusion_lon": 0.0, "bike_id": "4d47e9b39815c4bc9d64316040985739", "name": "4d47e9b39815c4bc9d64316040985739", "rental_uris": {"ios": "https://dc.lft.to/lastmile_qr_scan", "android": "https://dc.lft.to/lastmile_qr_scan"}}, {"is_disabled": 0, "fusion_lat": 0.0, "lat": 38.92121983333333, "type": "electric_scooter", "lon": -77.04114783333333, "is_reserved": 0, "fusion_lon": 0.0, "bike_id": "c8b71954d97eb583b37229aac406b125", "name": "c8b71954d97eb583b37229aac406b125", "rental_uris": {"ios": "https://dc.lft.to/lastmile_qr_scan", "android": "https://dc.lft.to/lastmile_qr_scan"}}, {"is_disabled": 0, "fusion_lat": 0.0, "lat": 38.88483766666667, "type": "electric_scooter", "lon": -76.94596216666666, "is_reserved": 0, "fusion_lon": 0.0, "bike_id": "62e4556bf342649b4f23439132a877ca", "name": "62e4556bf342649b4f23439132a877ca", "rental_uris": {"ios": "https://dc.lft.to/lastmile_qr_scan", "android": "https://dc.lft.to/lastmile_qr_scan"}}, {"is_disabled": 0, "fusion_lat": 0.0, "lat": 38.896055, "type": "electric_scooter", "lon": -76.9552235, "is_reserved": 0, "fusion_lon": 0.0, "bike_id": "adbc522ed4410f32e786b6743267f4bf", "name": "adbc522ed4410f32e786b6743267f4bf", "rental_uris": {"ios": "https://dc.lft.to/lastmile_qr_scan", "android": "https://dc.lft.to/lastmile_qr_scan"}}, {"is_disabled": 0, "fusion_lat": 0.0, "lat": 38.890247333333335, "type": "electric_scooter", "lon": -76.937285, "is_reserved": 0, "fusion_lon": 0.0, "bike_id": "2507929f609315d4f567a1aa9d5aac70", "name": "2507929f609315d4f567a1aa9d5aac70", "rental_uris": {"ios": "https://dc.lft.to/lastmile_qr_scan", "android": "https://dc.lft.to/lastmile_qr_scan"}}, {"is_disabled": 0, "fusion_lat": 0.0, "lat": 38.888859, "type": "electric_scooter", "lon": -76.9315565, "is_reserved": 0, "fusion_lon": 0.0, "bike_id": "9858b9ecd40aba0b01d5c1c6a8b3b371", "name": "9858b9ecd40aba0b01d5c1c6a8b3b371", "rental_uris": {"ios": "https://dc.lft.to/lastmile_qr_scan", "android": "https://dc.lft.to/lastmile_qr_scan"}}, {"is_disabled": 0, "fusion_lat": 0.0, "lat": 38.9211015, "type": "electric_scooter", "lon": -77.0422005, "is_reserved": 0, "fusion_lon": 0.0, "bike_id": "912313729e171a670abc6c5548815102", "name": "912313729e171a670abc6c5548815102", "rental_uris": {"ios": "https://dc.lft.to/lastmile_qr_scan", "android": "https://dc.lft.to/lastmile_qr_scan"}}, {"is_disabled": 0, "fusion_lat": 0.0, "lat": 38.916955333333334, "type": "electric_scooter", "lon": -77.03468816666667, "is_reserved": 0, "fusion_lon": 0.0, "bike_id": "2ce2579886ac1e833dbe7585a6b0ce25", "name": "2ce2579886ac1e833dbe7585a6b0ce25", "rental_uris": {"ios": "https://dc.lft.to/lastmile_qr_scan", "android": "https://dc.lft.to/lastmile_qr_scan"}}, {"is_disabled": 0, "fusion_lat": 0.0, "lat": 38.91909866666666, "type": "electric_scooter", "lon": -77.04615483333333, "is_reserved": 0, "fusion_lon": 0.0, "bike_id": "152086b1cf9c882b12669698e16ce7f6", "name": "152086b1cf9c882b12669698e16ce7f6", "rental_uris": {"ios": "https://dc.lft.to/lastmile_qr_scan", "android": "https://dc.lft.to/lastmile_qr_scan"}}, {"is_disabled": 0, "fusion_lat": 0.0, "lat": 38.908719833333336, "type": "electric_scooter", "lon": -76.99797466666666, "is_reserved": 0, "fusion_lon": 0.0, "bike_id": "8d4f766ecce012c5a410b7a6184164f4", "name": "8d4f766ecce012c5a410b7a6184164f4", "rental_uris": {"ios": "https://dc.lft.to/lastmile_qr_scan", "android": "https://dc.lft.to/lastmile_qr_scan"}}, {"is_disabled": 0, "fusion_lat": 0.0, "lat": 38.92372683333333, "type": "electric_scooter", "lon": -77.01915516666666, "is_reserved": 0, "fusion_lon": 0.0, "bike_id": "dc92e1a5849e098ed3eef58576e022aa", "name": "dc92e1a5849e098ed3eef58576e022aa", "rental_uris": {"ios": "https://dc.lft.to/lastmile_qr_scan", "android": "https://dc.lft.to/lastmile_qr_scan"}}, {"is_disabled": 0, "fusion_lat": 0.0, "lat": 38.880658, "type": "electric_scooter", "lon": -77.00556516666667, "is_reserved": 0, "fusion_lon": 0.0, "bike_id": "e9692c6a785b2bd35a9fbf220009fa9f", "name": "e9692c6a785b2bd35a9fbf220009fa9f", "rental_uris": {"ios": "https://dc.lft.to/lastmile_qr_scan", "android": "https://dc.lft.to/lastmile_qr_scan"}}, {"is_disabled": 0, "fusion_lat": 0.0, "lat": 38.915257833333335, "type": "electric_scooter", "lon": -77.02000683333333, "is_reserved": 0, "fusion_lon": 0.0, "bike_id": "614767af012394ac201f799370731d74", "name": "614767af012394ac201f799370731d74", "rental_uris": {"ios": "https://dc.lft.to/lastmile_qr_scan", "android": "https://dc.lft.to/lastmile_qr_scan"}}, {"is_disabled": 0, "fusion_lat": 0.0, "lat": 38.8747965, "type": "electric_bike", "lon": -76.96526116666666, "is_reserved": 0, "fusion_lon": 0.0, "bike_id": "cddb8dde0f56c04c8fb573b9030ebfd8", "name": "cddb8dde0f56c04c8fb573b9030ebfd8", "rental_uris": {"ios": "https://dc.lft.to/lastmile_qr_scan", "android": "https://dc.lft.to/lastmile_qr_scan"}}, {"is_disabled": 0, "fusion_lat": 0.0, "lat": 38.9154105, "type": "electric_scooter", "lon": -77.03799266666667, "is_reserved": 0, "fusion_lon": 0.0, "bike_id": "13082d90b51cad6cb997c2118fe02df1", "name": "13082d90b51cad6cb997c2118fe02df1", "rental_uris": {"ios": "https://dc.lft.to/lastmile_qr_scan", "android": "https://dc.lft.to/lastmile_qr_scan"}}, {"is_disabled": 0, "fusion_lat": 0.0, "lat": 38.92073883333333, "type": "electric_scooter", "lon": -77.03213466666666, "is_reserved": 0, "fusion_lon": 0.0, "bike_id": "bc00621c32862dcd57965846b81dfd79", "name": "bc00621c32862dcd57965846b81dfd79", "rental_uris": {"ios": "https://dc.lft.to/lastmile_qr_scan", "android": "https://dc.lft.to/lastmile_qr_scan"}}, {"is_disabled": 0, "fusion_lat": 0.0, "lat": 38.905781, "type": "electric_scooter", "lon": -77.04885083333333, "is_reserved": 0, "fusion_lon": 0.0, "bike_id": "14e6728bc8424e392f74e070b9eb84c2", "name": "14e6728bc8424e392f74e070b9eb84c2", "rental_uris": {"ios": "https://dc.lft.to/lastmile_qr_scan", "android": "https://dc.lft.to/lastmile_qr_scan"}}, {"is_disabled": 0, "fusion_lat": 0.0, "lat": 38.90653616666667, "type": "electric_scooter", "lon": -77.0414095, "is_reserved": 0, "fusion_lon": 0.0, "bike_id": "6046dd94fe539a7d6b91c9e1399d1536", "name": "6046dd94fe539a7d6b91c9e1399d1536", "rental_uris": {"ios": "https://dc.lft.to/lastmile_qr_scan", "android": "https://dc.lft.to/lastmile_qr_scan"}}, {"is_disabled": 0, "fusion_lat": 0.0, "lat": 38.923347, "type": "electric_scooter", "lon": -77.0361555, "is_reserved": 0, "fusion_lon": 0.0, "bike_id": "0c7f9a650a9faabd7e3a90d7c65da715", "name": "0c7f9a650a9faabd7e3a90d7c65da715", "rental_uris": {"ios": "https://dc.lft.to/lastmile_qr_scan", "android": "https://dc.lft.to/lastmile_qr_scan"}}, {"is_disabled": 0, "fusion_lat": 0.0, "lat": 38.88590666666666, "type": "electric_scooter", "lon": -77.0199195, "is_reserved": 0, "fusion_lon": 0.0, "bike_id": "a4f9beec288c67d93ae3fcb99eeba86f", "name": "a4f9beec288c67d93ae3fcb99eeba86f", "rental_uris": {"ios": "https://dc.lft.to/lastmile_qr_scan", "android": "https://dc.lft.to/lastmile_qr_scan"}}, {"is_disabled": 0, "fusion_lat": 0.0, "lat": 38.92075366666667, "type": "electric_scooter", "lon": -77.04555066666667, "is_reserved": 0, "fusion_lon": 0.0, "bike_id": "ae5e6d725b02fe62ef8bbb72de51e465", "name": "ae5e6d725b02fe62ef8bbb72de51e465", "rental_uris": {"ios": "https://dc.lft.to/lastmile_qr_scan", "android": "https://dc.lft.to/lastmile_qr_scan"}}, {"is_disabled": 0, "fusion_lat": 0.0, "lat": 38.916946333333335, "type": "electric_scooter", "lon": -77.03483466666667, "is_reserved": 0, "fusion_lon": 0.0, "bike_id": "8537e59f7e8ce273bf165239ea26995d", "name": "8537e59f7e8ce273bf165239ea26995d", "rental_uris": {"ios": "https://dc.lft.to/lastmile_qr_scan", "android": "https://dc.lft.to/lastmile_qr_scan"}}, {"is_disabled": 0, "fusion_lat": 0.0, "lat": 38.966244833333334, "type": "electric_bike", "lon": -77.03424366666667, "is_reserved": 0, "fusion_lon": 0.0, "bike_id": "5c5139c0e35f3dd7ed2b56198f4565f7", "name": "5c5139c0e35f3dd7ed2b56198f4565f7", "rental_uris": {"ios": "https://dc.lft.to/lastmile_qr_scan", "android": "https://dc.lft.to/lastmile_qr_scan"}}, {"is_disabled": 0, "fusion_lat": 0.0, "lat": 38.960297, "type": "electric_bike", "lon": -77.03390516666667, "is_reserved": 0, "fusion_lon": 0.0, "bike_id": "30c4b62896506f572c59e77002a34c82", "name": "30c4b62896506f572c59e77002a34c82", "rental_uris": {"ios": "https://dc.lft.to/lastmile_qr_scan", "android": "https://dc.lft.to/lastmile_qr_scan"}}, {"is_disabled": 0, "fusion_lat": 0.0, "lat": 38.9231105, "type": "electric_scooter", "lon": -77.04124216666666, "is_reserved": 0, "fusion_lon": 0.0, "bike_id": "96c488b7229275eeea9bb1931afe797a", "name": "96c488b7229275eeea9bb1931afe797a", "rental_uris": {"ios": "https://dc.lft.to/lastmile_qr_scan", "android": "https://dc.lft.to/lastmile_qr_scan"}}, {"is_disabled": 0, "fusion_lat": 0.0, "lat": 38.89270233333333, "type": "electric_scooter", "lon": -76.94918866666667, "is_reserved": 0, "fusion_lon": 0.0, "bike_id": "facbc0334560d903bae40121c3eb6862", "name": "facbc0334560d903bae40121c3eb6862", "rental_uris": {"ios": "https://dc.lft.to/lastmile_qr_scan", "android": "https://dc.lft.to/lastmile_qr_scan"}}, {"is_disabled": 0, "fusion_lat": 0.0, "lat": 38.90470833333333, "type": "electric_scooter", "lon": -76.98905466666666, "is_reserved": 0, "fusion_lon": 0.0, "bike_id": "d972fb55c90b5e3e89df43f82cc30464", "name": "d972fb55c90b5e3e89df43f82cc30464", "rental_uris": {"ios": "https://dc.lft.to/lastmile_qr_scan", "android": "https://dc.lft.to/lastmile_qr_scan"}}, {"is_disabled": 0, "fusion_lat": 0.0, "lat": 38.9267985, "type": "electric_scooter", "lon": -77.014945, "is_reserved": 0, "fusion_lon": 0.0, "bike_id": "486736d5fa6f36113be20d0cb8f03ffe", "name": "486736d5fa6f36113be20d0cb8f03ffe", "rental_uris": {"ios": "https://dc.lft.to/lastmile_qr_scan", "android": "https://dc.lft.to/lastmile_qr_scan"}}, {"is_disabled": 0, "fusion_lat": 0.0, "lat": 38.91395933333333, "type": "electric_scooter", "lon": -77.03927016666667, "is_reserved": 0, "fusion_lon": 0.0, "bike_id": "33df47baec251c5ec2efde9674bf5aec", "name": "33df47baec251c5ec2efde9674bf5aec", "rental_uris": {"ios": "https://dc.lft.to/lastmile_qr_scan", "android": "https://dc.lft.to/lastmile_qr_scan"}}, {"is_disabled": 0, "fusion_lat": 0.0, "lat": 38.90810283333333, "type": "electric_scooter", "lon": -76.99858383333333, "is_reserved": 0, "fusion_lon": 0.0, "bike_id": "239d058df5aca28150ef968777b4e148", "name": "239d058df5aca28150ef968777b4e148", "rental_uris": {"ios": "https://dc.lft.to/lastmile_qr_scan", "android": "https://dc.lft.to/lastmile_qr_scan"}}, {"is_disabled": 0, "fusion_lat": 0.0, "lat": 38.940424166666666, "type": "electric_scooter", "lon": -77.02982766666666, "is_reserved": 0, "fusion_lon": 0.0, "bike_id": "1aa2be91f47ee2207a05f9ca1f263784", "name": "1aa2be91f47ee2207a05f9ca1f263784", "rental_uris": {"ios": "https://dc.lft.to/lastmile_qr_scan", "android": "https://dc.lft.to/lastmile_qr_scan"}}, {"is_disabled": 0, "fusion_lat": 0.0, "lat": 38.853136, "type": "electric_scooter", "lon": -76.979989, "is_reserved": 0, "fusion_lon": 0.0, "bike_id": "b517a4cca691be2876b917e440f281f3", "name": "b517a4cca691be2876b917e440f281f3", "rental_uris": {"ios": "https://dc.lft.to/lastmile_qr_scan", "android": "https://dc.lft.to/lastmile_qr_scan"}}, {"is_disabled": 0, "fusion_lat": 0.0, "lat": 38.9147735, "type": "electric_scooter", "lon": -77.0094755, "is_reserved": 0, "fusion_lon": 0.0, "bike_id": "e6f4cddffea58e73e1561f6f6dc83365", "name": "e6f4cddffea58e73e1561f6f6dc83365", "rental_uris": {"ios": "https://dc.lft.to/lastmile_qr_scan", "android": "https://dc.lft.to/lastmile_qr_scan"}}, {"is_disabled": 0, "fusion_lat": 0.0, "lat": 38.92256366666667, "type": "electric_scooter", "lon": -77.04130583333334, "is_reserved": 0, "fusion_lon": 0.0, "bike_id": "7f6c5b83c4e2dfce6cef751a00e290eb", "name": "7f6c5b83c4e2dfce6cef751a00e290eb", "rental_uris": {"ios": "https://dc.lft.to/lastmile_qr_scan", "android": "https://dc.lft.to/lastmile_qr_scan"}}, {"is_disabled": 0, "fusion_lat": 0.0, "lat": 38.908491, "type": "electric_scooter", "lon": -77.04465583333334, "is_reserved": 0, "fusion_lon": 0.0, "bike_id": "88c8c73b409629b211a53e0723d74716", "name": "88c8c73b409629b211a53e0723d74716", "rental_uris": {"ios": "https://dc.lft.to/lastmile_qr_scan", "android": "https://dc.lft.to/lastmile_qr_scan"}}, {"is_disabled": 0, "fusion_lat": 0.0, "lat": 38.87226483333333, "type": "electric_scooter", "lon": -77.01206316666666, "is_reserved": 0, "fusion_lon": 0.0, "bike_id": "017052eda3879bbd138ff8e7df6df5a2", "name": "017052eda3879bbd138ff8e7df6df5a2", "rental_uris": {"ios": "https://dc.lft.to/lastmile_qr_scan", "android": "https://dc.lft.to/lastmile_qr_scan"}}, {"is_disabled": 0, "fusion_lat": 0.0, "lat": 38.90320633333333, "type": "electric_scooter", "lon": -76.9729775, "is_reserved": 0, "fusion_lon": 0.0, "bike_id": "ba3daa2f4eda4ed89ed32c6cf647e019", "name": "ba3daa2f4eda4ed89ed32c6cf647e019", "rental_uris": {"ios": "https://dc.lft.to/lastmile_qr_scan", "android": "https://dc.lft.to/lastmile_qr_scan"}}, {"is_disabled": 0, "fusion_lat": 0.0, "lat": 38.931092166666666, "type": "electric_scooter", "lon": -77.0239695, "is_reserved": 0, "fusion_lon": 0.0, "bike_id": "6b39824ec316e57a4837b4d31163ff22", "name": "6b39824ec316e57a4837b4d31163ff22", "rental_uris": {"ios": "https://dc.lft.to/lastmile_qr_scan", "android": "https://dc.lft.to/lastmile_qr_scan"}}, {"is_disabled": 0, "fusion_lat": 0.0, "lat": 38.89603316666667, "type": "electric_scooter", "lon": -77.04236183333333, "is_reserved": 0, "fusion_lon": 0.0, "bike_id": "3a9ac86092ef8284b50c026e52038de9", "name": "3a9ac86092ef8284b50c026e52038de9", "rental_uris": {"ios": "https://dc.lft.to/lastmile_qr_scan", "android": "https://dc.lft.to/lastmile_qr_scan"}}, {"is_disabled": 0, "fusion_lat": 0.0, "lat": 38.899105, "type": "electric_scooter", "lon": -77.00370833333334, "is_reserved": 0, "fusion_lon": 0.0, "bike_id": "345d5c5c7f52c56db88cbc3250cb4f90", "name": "345d5c5c7f52c56db88cbc3250cb4f90", "rental_uris": {"ios": "https://dc.lft.to/lastmile_qr_scan", "android": "https://dc.lft.to/lastmile_qr_scan"}}, {"is_disabled": 0, "fusion_lat": 0.0, "lat": 38.9003535, "type": "electric_scooter", "lon": -77.0020055, "is_reserved": 0, "fusion_lon": 0.0, "bike_id": "71823b8cbae98b176e6b5e3567eb5fa5", "name": "71823b8cbae98b176e6b5e3567eb5fa5", "rental_uris": {"ios": "https://dc.lft.to/lastmile_qr_scan", "android": "https://dc.lft.to/lastmile_qr_scan"}}, {"is_disabled": 0, "fusion_lat": 0.0, "lat": 38.9057395, "type": "electric_scooter", "lon": -77.0220475, "is_reserved": 0, "fusion_lon": 0.0, "bike_id": "833129f11f7db6bee1a8088761f995e6", "name": "833129f11f7db6bee1a8088761f995e6", "rental_uris": {"ios": "https://dc.lft.to/lastmile_qr_scan", "android": "https://dc.lft.to/lastmile_qr_scan"}}, {"is_disabled": 0, "fusion_lat": 0.0, "lat": 38.91906083333333, "type": "electric_scooter", "lon": -77.04110866666667, "is_reserved": 0, "fusion_lon": 0.0, "bike_id": "1919237692aa0fd96300bbf5bafc9dae", "name": "1919237692aa0fd96300bbf5bafc9dae", "rental_uris": {"ios": "https://dc.lft.to/lastmile_qr_scan", "android": "https://dc.lft.to/lastmile_qr_scan"}}, {"is_disabled": 0, "fusion_lat": 0.0, "lat": 38.933929666666664, "type": "electric_scooter", "lon": -77.020582, "is_reserved": 0, "fusion_lon": 0.0, "bike_id": "96680b0c65a99030389edd7ffa2c1689", "name": "96680b0c65a99030389edd7ffa2c1689", "rental_uris": {"ios": "https://dc.lft.to/lastmile_qr_scan", "android": "https://dc.lft.to/lastmile_qr_scan"}}, {"is_disabled": 0, "fusion_lat": 0.0, "lat": 38.93314733333333, "type": "electric_scooter", "lon": -77.0328315, "is_reserved": 0, "fusion_lon": 0.0, "bike_id": "34c0fb07f634a452abb33d1b0a9c5a37", "name": "34c0fb07f634a452abb33d1b0a9c5a37", "rental_uris": {"ios": "https://dc.lft.to/lastmile_qr_scan", "android": "https://dc.lft.to/lastmile_qr_scan"}}, {"is_disabled": 0, "fusion_lat": 0.0, "lat": 38.961481166666665, "type": "electric_scooter", "lon": -76.99771983333333, "is_reserved": 0, "fusion_lon": 0.0, "bike_id": "7bb495bdf4ee9febe61c70459f93df9b", "name": "7bb495bdf4ee9febe61c70459f93df9b", "rental_uris": {"ios": "https://dc.lft.to/lastmile_qr_scan", "android": "https://dc.lft.to/lastmile_qr_scan"}}, {"is_disabled": 0, "fusion_lat": 0.0, "lat": 38.905083, "type": "electric_scooter", "lon": -77.0590895, "is_reserved": 0, "fusion_lon": 0.0, "bike_id": "454294c6ef9b4ed2e87228b89599ffa6", "name": "454294c6ef9b4ed2e87228b89599ffa6", "rental_uris": {"ios": "https://dc.lft.to/lastmile_qr_scan", "android": "https://dc.lft.to/lastmile_qr_scan"}}, {"is_disabled": 0, "fusion_lat": 0.0, "lat": 38.90264416666667, "type": "electric_scooter", "lon": -77.04910066666666, "is_reserved": 0, "fusion_lon": 0.0, "bike_id": "9fd0d9af104604138de996b9bd96fa8b", "name": "9fd0d9af104604138de996b9bd96fa8b", "rental_uris": {"ios": "https://dc.lft.to/lastmile_qr_scan", "android": "https://dc.lft.to/lastmile_qr_scan"}}, {"is_disabled": 0, "fusion_lat": 0.0, "lat": 38.91051616666667, "type": "electric_scooter", "lon": -77.015261, "is_reserved": 0, "fusion_lon": 0.0, "bike_id": "9b05da808d3b8ef47a5e1f2e2c63f125", "name": "9b05da808d3b8ef47a5e1f2e2c63f125", "rental_uris": {"ios": "https://dc.lft.to/lastmile_qr_scan", "android": "https://dc.lft.to/lastmile_qr_scan"}}, {"is_disabled": 0, "fusion_lat": 0.0, "lat": 38.93359816666667, "type": "electric_scooter", "lon": -77.05713133333333, "is_reserved": 0, "fusion_lon": 0.0, "bike_id": "103aa48e21edc127b12d2a979ebe63c9", "name": "103aa48e21edc127b12d2a979ebe63c9", "rental_uris": {"ios": "https://dc.lft.to/lastmile_qr_scan", "android": "https://dc.lft.to/lastmile_qr_scan"}}, {"is_disabled": 0, "fusion_lat": 0.0, "lat": 38.87644183333333, "type": "electric_scooter", "lon": -77.01582733333333, "is_reserved": 0, "fusion_lon": 0.0, "bike_id": "b1ff24284c792d45b733267285c79f3d", "name": "b1ff24284c792d45b733267285c79f3d", "rental_uris": {"ios": "https://dc.lft.to/lastmile_qr_scan", "android": "https://dc.lft.to/lastmile_qr_scan"}}, {"is_disabled": 0, "fusion_lat": 0.0, "lat": 38.90505683333333, "type": "electric_scooter", "lon": -77.06662483333334, "is_reserved": 0, "fusion_lon": 0.0, "bike_id": "3a12be4de7d4d9e4efc876733896593e", "name": "3a12be4de7d4d9e4efc876733896593e", "rental_uris": {"ios": "https://dc.lft.to/lastmile_qr_scan", "android": "https://dc.lft.to/lastmile_qr_scan"}}, {"is_disabled": 0, "fusion_lat": 0.0, "lat": 38.874818833333336, "type": "electric_scooter", "lon": -77.001167, "is_reserved": 0, "fusion_lon": 0.0, "bike_id": "dd5056731916776c18a1225f93bf1dee", "name": "dd5056731916776c18a1225f93bf1dee", "rental_uris": {"ios": "https://dc.lft.to/lastmile_qr_scan", "android": "https://dc.lft.to/lastmile_qr_scan"}}, {"is_disabled": 0, "fusion_lat": 0.0, "lat": 38.95635383333333, "type": "electric_scooter", "lon": -77.033007, "is_reserved": 0, "fusion_lon": 0.0, "bike_id": "aeb2e3e5d9d36fd1537476e189d4bfd8", "name": "aeb2e3e5d9d36fd1537476e189d4bfd8", "rental_uris": {"ios": "https://dc.lft.to/lastmile_qr_scan", "android": "https://dc.lft.to/lastmile_qr_scan"}}, {"is_disabled": 0, "fusion_lat": 0.0, "lat": 38.87196616666667, "type": "electric_scooter", "lon": -77.00606233333333, "is_reserved": 0, "fusion_lon": 0.0, "bike_id": "c3b1bdde803c5d2221ef160cb0920f7d", "name": "c3b1bdde803c5d2221ef160cb0920f7d", "rental_uris": {"ios": "https://dc.lft.to/lastmile_qr_scan", "android": "https://dc.lft.to/lastmile_qr_scan"}}, {"is_disabled": 0, "fusion_lat": 0.0, "lat": 38.90078916666667, "type": "electric_scooter", "lon": -77.050309, "is_reserved": 0, "fusion_lon": 0.0, "bike_id": "a7125bcc1bb3c9744bc69af08197796c", "name": "a7125bcc1bb3c9744bc69af08197796c", "rental_uris": {"ios": "https://dc.lft.to/lastmile_qr_scan", "android": "https://dc.lft.to/lastmile_qr_scan"}}, {"is_disabled": 0, "fusion_lat": 0.0, "lat": 38.925482, "type": "electric_scooter", "lon": -77.03784116666667, "is_reserved": 0, "fusion_lon": 0.0, "bike_id": "d6e7866d22d8aebba3c44db46a999b5a", "name": "d6e7866d22d8aebba3c44db46a999b5a", "rental_uris": {"ios": "https://dc.lft.to/lastmile_qr_scan", "android": "https://dc.lft.to/lastmile_qr_scan"}}, {"is_disabled": 0, "fusion_lat": 0.0, "lat": 38.892214333333335, "type": "electric_scooter", "lon": -77.046425, "is_reserved": 0, "fusion_lon": 0.0, "bike_id": "842eaf4688f311a9369d10451e4b30c7", "name": "842eaf4688f311a9369d10451e4b30c7", "rental_uris": {"ios": "https://dc.lft.to/lastmile_qr_scan", "android": "https://dc.lft.to/lastmile_qr_scan"}}, {"is_disabled": 0, "fusion_lat": 0.0, "lat": 38.91822, "type": "electric_scooter", "lon": -77.03838066666667, "is_reserved": 0, "fusion_lon": 0.0, "bike_id": "10b6fcb3d0273a24c122024af056ba08", "name": "10b6fcb3d0273a24c122024af056ba08", "rental_uris": {"ios": "https://dc.lft.to/lastmile_qr_scan", "android": "https://dc.lft.to/lastmile_qr_scan"}}, {"is_disabled": 0, "fusion_lat": 0.0, "lat": 38.904903833333336, "type": "electric_scooter", "lon": -77.06790516666666, "is_reserved": 0, "fusion_lon": 0.0, "bike_id": "6c7edeffbf6db914078bea048ba295f9", "name": "6c7edeffbf6db914078bea048ba295f9", "rental_uris": {"ios": "https://dc.lft.to/lastmile_qr_scan", "android": "https://dc.lft.to/lastmile_qr_scan"}}, {"is_disabled": 0, "fusion_lat": 0.0, "lat": 38.909553333333335, "type": "electric_scooter", "lon": -77.0464485, "is_reserved": 0, "fusion_lon": 0.0, "bike_id": "5441668d2a96d59a983acfe7524f3aab", "name": "5441668d2a96d59a983acfe7524f3aab", "rental_uris": {"ios": "https://dc.lft.to/lastmile_qr_scan", "android": "https://dc.lft.to/lastmile_qr_scan"}}, {"is_disabled": 0, "fusion_lat": 0.0, "lat": 38.94902316666666, "type": "electric_bike", "lon": -76.97239016666667, "is_reserved": 0, "fusion_lon": 0.0, "bike_id": "f5c153870b494b67975fcea022369f0c", "name": "f5c153870b494b67975fcea022369f0c", "rental_uris": {"ios": "https://dc.lft.to/lastmile_qr_scan", "android": "https://dc.lft.to/lastmile_qr_scan"}}, {"is_disabled": 0, "fusion_lat": 0.0, "lat": 38.89835216666667, "type": "electric_scooter", "lon": -77.0333995, "is_reserved": 0, "fusion_lon": 0.0, "bike_id": "83ea02f602bc05c3d56e16c166ee3f08", "name": "83ea02f602bc05c3d56e16c166ee3f08", "rental_uris": {"ios": "https://dc.lft.to/lastmile_qr_scan", "android": "https://dc.lft.to/lastmile_qr_scan"}}, {"is_disabled": 0, "fusion_lat": 0.0, "lat": 38.942353833333335, "type": "electric_scooter", "lon": -77.0724015, "is_reserved": 0, "fusion_lon": 0.0, "bike_id": "34df356655aa7fac9bffa8431a419e82", "name": "34df356655aa7fac9bffa8431a419e82", "rental_uris": {"ios": "https://dc.lft.to/lastmile_qr_scan", "android": "https://dc.lft.to/lastmile_qr_scan"}}, {"is_disabled": 0, "fusion_lat": 0.0, "lat": 38.93074983333333, "type": "electric_scooter", "lon": -77.03125466666667, "is_reserved": 0, "fusion_lon": 0.0, "bike_id": "c27794f5d122e1bd11c210f545f129c5", "name": "c27794f5d122e1bd11c210f545f129c5", "rental_uris": {"ios": "https://dc.lft.to/lastmile_qr_scan", "android": "https://dc.lft.to/lastmile_qr_scan"}}, {"is_disabled": 0, "fusion_lat": 0.0, "lat": 38.8886745, "type": "electric_bike", "lon": -76.99470983333333, "is_reserved": 0, "fusion_lon": 0.0, "bike_id": "3cdee9f259b7326d7ae03b9b7f7060e7", "name": "3cdee9f259b7326d7ae03b9b7f7060e7", "rental_uris": {"ios": "https://dc.lft.to/lastmile_qr_scan", "android": "https://dc.lft.to/lastmile_qr_scan"}}, {"is_disabled": 0, "fusion_lat": 0.0, "lat": 38.893701666666665, "type": "electric_scooter", "lon": -77.04775066666667, "is_reserved": 0, "fusion_lon": 0.0, "bike_id": "fc63d0c86640b88e78ac97bf8141ddc6", "name": "fc63d0c86640b88e78ac97bf8141ddc6", "rental_uris": {"ios": "https://dc.lft.to/lastmile_qr_scan", "android": "https://dc.lft.to/lastmile_qr_scan"}}, {"is_disabled": 0, "fusion_lat": 0.0, "lat": 38.941774, "type": "electric_scooter", "lon": -77.030928, "is_reserved": 0, "fusion_lon": 0.0, "bike_id": "85731d7817622c0903e3e1462e41c459", "name": "85731d7817622c0903e3e1462e41c459", "rental_uris": {"ios": "https://dc.lft.to/lastmile_qr_scan", "android": "https://dc.lft.to/lastmile_qr_scan"}}, {"is_disabled": 0, "fusion_lat": 0.0, "lat": 38.9079735, "type": "electric_scooter", "lon": -76.99701766666666, "is_reserved": 0, "fusion_lon": 0.0, "bike_id": "251ff681b701f515a08d84f643035e54", "name": "251ff681b701f515a08d84f643035e54", "rental_uris": {"ios": "https://dc.lft.to/lastmile_qr_scan", "android": "https://dc.lft.to/lastmile_qr_scan"}}, {"is_disabled": 0, "fusion_lat": 0.0, "lat": 38.9205005, "type": "electric_scooter", "lon": -77.03374183333334, "is_reserved": 0, "fusion_lon": 0.0, "bike_id": "d33ec3c0bde81864a26068bdb8cef62c", "name": "d33ec3c0bde81864a26068bdb8cef62c", "rental_uris": {"ios": "https://dc.lft.to/lastmile_qr_scan", "android": "https://dc.lft.to/lastmile_qr_scan"}}, {"is_disabled": 0, "fusion_lat": 0.0, "lat": 38.87475583333333, "type": "electric_scooter", "lon": -77.00930433333333, "is_reserved": 0, "fusion_lon": 0.0, "bike_id": "1f69c74defbb77b1376ea946e5e23553", "name": "1f69c74defbb77b1376ea946e5e23553", "rental_uris": {"ios": "https://dc.lft.to/lastmile_qr_scan", "android": "https://dc.lft.to/lastmile_qr_scan"}}, {"is_disabled": 0, "fusion_lat": 0.0, "lat": 38.930588, "type": "electric_scooter", "lon": -77.04176966666667, "is_reserved": 0, "fusion_lon": 0.0, "bike_id": "f3afe06241c5cef707eac71ca564d213", "name": "f3afe06241c5cef707eac71ca564d213", "rental_uris": {"ios": "https://dc.lft.to/lastmile_qr_scan", "android": "https://dc.lft.to/lastmile_qr_scan"}}, {"is_disabled": 0, "fusion_lat": 0.0, "lat": 38.91716016666667, "type": "electric_scooter", "lon": -77.03837916666667, "is_reserved": 0, "fusion_lon": 0.0, "bike_id": "cd4172286dbef68e3ebee34dcbca7eb6", "name": "cd4172286dbef68e3ebee34dcbca7eb6", "rental_uris": {"ios": "https://dc.lft.to/lastmile_qr_scan", "android": "https://dc.lft.to/lastmile_qr_scan"}}, {"is_disabled": 0, "fusion_lat": 0.0, "lat": 38.90265266666667, "type": "electric_scooter", "lon": -77.01732933333334, "is_reserved": 0, "fusion_lon": 0.0, "bike_id": "5eef449b5f96467acf11532791c60fa1", "name": "5eef449b5f96467acf11532791c60fa1", "rental_uris": {"ios": "https://dc.lft.to/lastmile_qr_scan", "android": "https://dc.lft.to/lastmile_qr_scan"}}, {"is_disabled": 0, "fusion_lat": 0.0, "lat": 38.899057666666664, "type": "electric_scooter", "lon": -76.9335055, "is_reserved": 0, "fusion_lon": 0.0, "bike_id": "40d184af3329bf13c9055e971853fb5d", "name": "40d184af3329bf13c9055e971853fb5d", "rental_uris": {"ios": "https://dc.lft.to/lastmile_qr_scan", "android": "https://dc.lft.to/lastmile_qr_scan"}}, {"is_disabled": 0, "fusion_lat": 0.0, "lat": 38.91619083333333, "type": "electric_scooter", "lon": -77.03207216666667, "is_reserved": 0, "fusion_lon": 0.0, "bike_id": "bcdca67de362c6a454e508ac9514bfea", "name": "bcdca67de362c6a454e508ac9514bfea", "rental_uris": {"ios": "https://dc.lft.to/lastmile_qr_scan", "android": "https://dc.lft.to/lastmile_qr_scan"}}, {"is_disabled": 0, "fusion_lat": 0.0, "lat": 38.8581055, "type": "electric_scooter", "lon": -76.98650233333333, "is_reserved": 0, "fusion_lon": 0.0, "bike_id": "c88ac816a634637a9d24da0c3d6d9a5f", "name": "c88ac816a634637a9d24da0c3d6d9a5f", "rental_uris": {"ios": "https://dc.lft.to/lastmile_qr_scan", "android": "https://dc.lft.to/lastmile_qr_scan"}}, {"is_disabled": 0, "fusion_lat": 0.0, "lat": 38.89014616666667, "type": "electric_scooter", "lon": -76.93744816666667, "is_reserved": 0, "fusion_lon": 0.0, "bike_id": "990bd3c0580c0b29f753ea9fb9fb6e25", "name": "990bd3c0580c0b29f753ea9fb9fb6e25", "rental_uris": {"ios": "https://dc.lft.to/lastmile_qr_scan", "android": "https://dc.lft.to/lastmile_qr_scan"}}, {"is_disabled": 0, "fusion_lat": 0.0, "lat": 38.9086495, "type": "electric_scooter", "lon": -77.08593616666667, "is_reserved": 0, "fusion_lon": 0.0, "bike_id": "fa6455e90f8d4e3ce29d923c86e93be5", "name": "fa6455e90f8d4e3ce29d923c86e93be5", "rental_uris": {"ios": "https://dc.lft.to/lastmile_qr_scan", "android": "https://dc.lft.to/lastmile_qr_scan"}}, {"is_disabled": 0, "fusion_lat": 0.0, "lat": 38.9015335, "type": "electric_scooter", "lon": -77.04034, "is_reserved": 0, "fusion_lon": 0.0, "bike_id": "dfdf796705f259f11787261aeb061d20", "name": "dfdf796705f259f11787261aeb061d20", "rental_uris": {"ios": "https://dc.lft.to/lastmile_qr_scan", "android": "https://dc.lft.to/lastmile_qr_scan"}}, {"is_disabled": 0, "fusion_lat": 0.0, "lat": 38.930401833333335, "type": "electric_scooter", "lon": -77.03220433333334, "is_reserved": 0, "fusion_lon": 0.0, "bike_id": "f7eb5b26b28fcbcff0c0b667f76b8954", "name": "f7eb5b26b28fcbcff0c0b667f76b8954", "rental_uris": {"ios": "https://dc.lft.to/lastmile_qr_scan", "android": "https://dc.lft.to/lastmile_qr_scan"}}, {"is_disabled": 0, "fusion_lat": 0.0, "lat": 38.90110333333333, "type": "electric_scooter", "lon": -77.051404, "is_reserved": 0, "fusion_lon": 0.0, "bike_id": "00152989790d12019388c49222fe7f05", "name": "00152989790d12019388c49222fe7f05", "rental_uris": {"ios": "https://dc.lft.to/lastmile_qr_scan", "android": "https://dc.lft.to/lastmile_qr_scan"}}, {"is_disabled": 0, "fusion_lat": 0.0, "lat": 38.890478, "type": "electric_scooter", "lon": -76.93751916666666, "is_reserved": 0, "fusion_lon": 0.0, "bike_id": "972281a878e344e327d95bce5716ff87", "name": "972281a878e344e327d95bce5716ff87", "rental_uris": {"ios": "https://dc.lft.to/lastmile_qr_scan", "android": "https://dc.lft.to/lastmile_qr_scan"}}, {"is_disabled": 0, "fusion_lat": 0.0, "lat": 38.920396333333336, "type": "electric_scooter", "lon": -77.0417485, "is_reserved": 0, "fusion_lon": 0.0, "bike_id": "193fbcc38e74b3b51f79ea0acdc73268", "name": "193fbcc38e74b3b51f79ea0acdc73268", "rental_uris": {"ios": "https://dc.lft.to/lastmile_qr_scan", "android": "https://dc.lft.to/lastmile_qr_scan"}}, {"is_disabled": 0, "fusion_lat": 0.0, "lat": 38.89370433333333, "type": "electric_scooter", "lon": -76.94999616666666, "is_reserved": 0, "fusion_lon": 0.0, "bike_id": "02ae6218c69beb0991270e195e492af6", "name": "02ae6218c69beb0991270e195e492af6", "rental_uris": {"ios": "https://dc.lft.to/lastmile_qr_scan", "android": "https://dc.lft.to/lastmile_qr_scan"}}, {"is_disabled": 0, "fusion_lat": 0.0, "lat": 38.905803166666665, "type": "electric_scooter", "lon": -77.00704983333334, "is_reserved": 0, "fusion_lon": 0.0, "bike_id": "1577030ca2b53a2cad763e7d174234b9", "name": "1577030ca2b53a2cad763e7d174234b9", "rental_uris": {"ios": "https://dc.lft.to/lastmile_qr_scan", "android": "https://dc.lft.to/lastmile_qr_scan"}}, {"is_disabled": 0, "fusion_lat": 0.0, "lat": 38.9188615, "type": "electric_scooter", "lon": -77.0296785, "is_reserved": 0, "fusion_lon": 0.0, "bike_id": "819018347627fd976a5ce8974307ba61", "name": "819018347627fd976a5ce8974307ba61", "rental_uris": {"ios": "https://dc.lft.to/lastmile_qr_scan", "android": "https://dc.lft.to/lastmile_qr_scan"}}, {"is_disabled": 0, "fusion_lat": 0.0, "lat": 38.884761166666664, "type": "electric_scooter", "lon": -77.01503533333333, "is_reserved": 0, "fusion_lon": 0.0, "bike_id": "8a50b900ca0f1e1c46086ec2e954cf68", "name": "8a50b900ca0f1e1c46086ec2e954cf68", "rental_uris": {"ios": "https://dc.lft.to/lastmile_qr_scan", "android": "https://dc.lft.to/lastmile_qr_scan"}}, {"is_disabled": 0, "fusion_lat": 0.0, "lat": 38.907182666666664, "type": "electric_scooter", "lon": -77.0435485, "is_reserved": 0, "fusion_lon": 0.0, "bike_id": "11cb5754138fbf625ffcc10c3dd0273b", "name": "11cb5754138fbf625ffcc10c3dd0273b", "rental_uris": {"ios": "https://dc.lft.to/lastmile_qr_scan", "android": "https://dc.lft.to/lastmile_qr_scan"}}, {"is_disabled": 0, "fusion_lat": 0.0, "lat": 38.963932166666666, "type": "electric_scooter", "lon": -77.02594916666666, "is_reserved": 0, "fusion_lon": 0.0, "bike_id": "77a197fefe9e85bbdcc88f0a40fc1a92", "name": "77a197fefe9e85bbdcc88f0a40fc1a92", "rental_uris": {"ios": "https://dc.lft.to/lastmile_qr_scan", "android": "https://dc.lft.to/lastmile_qr_scan"}}, {"is_disabled": 0, "fusion_lat": 0.0, "lat": 38.9213705, "type": "electric_scooter", "lon": -77.0179825, "is_reserved": 0, "fusion_lon": 0.0, "bike_id": "e16a822b77aea0dc42ee3dbce9f86962", "name": "e16a822b77aea0dc42ee3dbce9f86962", "rental_uris": {"ios": "https://dc.lft.to/lastmile_qr_scan", "android": "https://dc.lft.to/lastmile_qr_scan"}}, {"is_disabled": 0, "fusion_lat": 0.0, "lat": 38.849329166666664, "type": "electric_bike", "lon": -77.10017716666667, "is_reserved": 0, "fusion_lon": 0.0, "bike_id": "4c1dce9eea9bbd531a5aecec4d89adce", "name": "4c1dce9eea9bbd531a5aecec4d89adce", "rental_uris": {"ios": "https://dc.lft.to/lastmile_qr_scan", "android": "https://dc.lft.to/lastmile_qr_scan"}}, {"is_disabled": 0, "fusion_lat": 0.0, "lat": 38.9149895, "type": "electric_scooter", "lon": -76.98382333333333, "is_reserved": 0, "fusion_lon": 0.0, "bike_id": "99edad7b1b6a1e7819fda62042e9b06b", "name": "99edad7b1b6a1e7819fda62042e9b06b", "rental_uris": {"ios": "https://dc.lft.to/lastmile_qr_scan", "android": "https://dc.lft.to/lastmile_qr_scan"}}, {"is_disabled": 0, "fusion_lat": 0.0, "lat": 38.92011516666667, "type": "electric_scooter", "lon": -77.032062, "is_reserved": 0, "fusion_lon": 0.0, "bike_id": "7419cd9779d979c1a7c2ae722a883ef0", "name": "7419cd9779d979c1a7c2ae722a883ef0", "rental_uris": {"ios": "https://dc.lft.to/lastmile_qr_scan", "android": "https://dc.lft.to/lastmile_qr_scan"}}, {"is_disabled": 0, "fusion_lat": 0.0, "lat": 38.905579833333334, "type": "electric_scooter", "lon": -77.03817016666666, "is_reserved": 0, "fusion_lon": 0.0, "bike_id": "9c3541db68235c7447e48dfdbf5cc05c", "name": "9c3541db68235c7447e48dfdbf5cc05c", "rental_uris": {"ios": "https://dc.lft.to/lastmile_qr_scan", "android": "https://dc.lft.to/lastmile_qr_scan"}}, {"is_disabled": 0, "fusion_lat": 0.0, "lat": 38.930901666666664, "type": "electric_scooter", "lon": -77.03753666666667, "is_reserved": 0, "fusion_lon": 0.0, "bike_id": "3f0fe19067f7ab18c54df52db02a3992", "name": "3f0fe19067f7ab18c54df52db02a3992", "rental_uris": {"ios": "https://dc.lft.to/lastmile_qr_scan", "android": "https://dc.lft.to/lastmile_qr_scan"}}, {"is_disabled": 0, "fusion_lat": 0.0, "lat": 38.9622605, "type": "electric_bike", "lon": -77.02629183333333, "is_reserved": 0, "fusion_lon": 0.0, "bike_id": "e775c7e0bf7726cc57e9cde6635ad361", "name": "e775c7e0bf7726cc57e9cde6635ad361", "rental_uris": {"ios": "https://dc.lft.to/lastmile_qr_scan", "android": "https://dc.lft.to/lastmile_qr_scan"}}, {"is_disabled": 0, "fusion_lat": 0.0, "lat": 38.9305625, "type": "electric_scooter", "lon": -77.026582, "is_reserved": 0, "fusion_lon": 0.0, "bike_id": "cebe9eb99ed437926060d64a51055fdb", "name": "cebe9eb99ed437926060d64a51055fdb", "rental_uris": {"ios": "https://dc.lft.to/lastmile_qr_scan", "android": "https://dc.lft.to/lastmile_qr_scan"}}, {"is_disabled": 0, "fusion_lat": 0.0, "lat": 38.857660833333334, "type": "electric_bike", "lon": -76.98768783333334, "is_reserved": 0, "fusion_lon": 0.0, "bike_id": "6a57e1d1d1aa415046372b3891016be5", "name": "6a57e1d1d1aa415046372b3891016be5", "rental_uris": {"ios": "https://dc.lft.to/lastmile_qr_scan", "android": "https://dc.lft.to/lastmile_qr_scan"}}, {"is_disabled": 0, "fusion_lat": 0.0, "lat": 38.8662005, "type": "electric_scooter", "lon": -76.98693033333333, "is_reserved": 0, "fusion_lon": 0.0, "bike_id": "8242387670b6c629dfb981425e063753", "name": "8242387670b6c629dfb981425e063753", "rental_uris": {"ios": "https://dc.lft.to/lastmile_qr_scan", "android": "https://dc.lft.to/lastmile_qr_scan"}}, {"is_disabled": 0, "fusion_lat": 0.0, "lat": 38.90127716666667, "type": "electric_scooter", "lon": -77.00283466666667, "is_reserved": 0, "fusion_lon": 0.0, "bike_id": "2f79e8d0ee2546103995917628a2c2af", "name": "2f79e8d0ee2546103995917628a2c2af", "rental_uris": {"ios": "https://dc.lft.to/lastmile_qr_scan", "android": "https://dc.lft.to/lastmile_qr_scan"}}, {"is_disabled": 0, "fusion_lat": 0.0, "lat": 38.842909666666664, "type": "electric_scooter", "lon": -76.999469, "is_reserved": 0, "fusion_lon": 0.0, "bike_id": "0b3a61b399ffc1dacd4a5269be9d2263", "name": "0b3a61b399ffc1dacd4a5269be9d2263", "rental_uris": {"ios": "https://dc.lft.to/lastmile_qr_scan", "android": "https://dc.lft.to/lastmile_qr_scan"}}, {"is_disabled": 0, "fusion_lat": 0.0, "lat": 38.91598416666667, "type": "electric_scooter", "lon": -77.01180416666666, "is_reserved": 0, "fusion_lon": 0.0, "bike_id": "e0945e175ac4e9ff63cb99f7b41ef87f", "name": "e0945e175ac4e9ff63cb99f7b41ef87f", "rental_uris": {"ios": "https://dc.lft.to/lastmile_qr_scan", "android": "https://dc.lft.to/lastmile_qr_scan"}}, {"is_disabled": 0, "fusion_lat": 0.0, "lat": 38.9343115, "type": "electric_scooter", "lon": -77.03999816666666, "is_reserved": 0, "fusion_lon": 0.0, "bike_id": "96c10f9c8edcfc30d09ae2d29a1d314d", "name": "96c10f9c8edcfc30d09ae2d29a1d314d", "rental_uris": {"ios": "https://dc.lft.to/lastmile_qr_scan", "android": "https://dc.lft.to/lastmile_qr_scan"}}, {"is_disabled": 0, "fusion_lat": 0.0, "lat": 38.90263566666667, "type": "electric_scooter", "lon": -77.0418435, "is_reserved": 0, "fusion_lon": 0.0, "bike_id": "8d7231c9afff1db60ba9980f9f597a14", "name": "8d7231c9afff1db60ba9980f9f597a14", "rental_uris": {"ios": "https://dc.lft.to/lastmile_qr_scan", "android": "https://dc.lft.to/lastmile_qr_scan"}}, {"is_disabled": 0, "fusion_lat": 0.0, "lat": 38.88732433333333, "type": "electric_scooter", "lon": -77.00323166666666, "is_reserved": 0, "fusion_lon": 0.0, "bike_id": "dcbe244034d0783f9b8b0ca69185ebc0", "name": "dcbe244034d0783f9b8b0ca69185ebc0", "rental_uris": {"ios": "https://dc.lft.to/lastmile_qr_scan", "android": "https://dc.lft.to/lastmile_qr_scan"}}, {"is_disabled": 0, "fusion_lat": 0.0, "lat": 38.837217833333334, "type": "electric_bike", "lon": -76.99761166666667, "is_reserved": 0, "fusion_lon": 0.0, "bike_id": "08434f2fd4e9438091076b09f28db017", "name": "08434f2fd4e9438091076b09f28db017", "rental_uris": {"ios": "https://dc.lft.to/lastmile_qr_scan", "android": "https://dc.lft.to/lastmile_qr_scan"}}, {"is_disabled": 0, "fusion_lat": 0.0, "lat": 38.947151, "type": "electric_scooter", "lon": -77.03346283333333, "is_reserved": 0, "fusion_lon": 0.0, "bike_id": "26f52131292cc81c4da6094fcd36d03d", "name": "26f52131292cc81c4da6094fcd36d03d", "rental_uris": {"ios": "https://dc.lft.to/lastmile_qr_scan", "android": "https://dc.lft.to/lastmile_qr_scan"}}, {"is_disabled": 0, "fusion_lat": 0.0, "lat": 38.91763266666667, "type": "electric_scooter", "lon": -77.0404495, "is_reserved": 0, "fusion_lon": 0.0, "bike_id": "16f165f20fc781e6a00df08a8e2e4dbe", "name": "16f165f20fc781e6a00df08a8e2e4dbe", "rental_uris": {"ios": "https://dc.lft.to/lastmile_qr_scan", "android": "https://dc.lft.to/lastmile_qr_scan"}}, {"is_disabled": 0, "fusion_lat": 0.0, "lat": 38.80757233333333, "type": "electric_bike", "lon": -77.09456716666666, "is_reserved": 0, "fusion_lon": 0.0, "bike_id": "338585681a355a063f44ac7019ae390f", "name": "338585681a355a063f44ac7019ae390f", "rental_uris": {"ios": "https://dc.lft.to/lastmile_qr_scan", "android": "https://dc.lft.to/lastmile_qr_scan"}}, {"is_disabled": 0, "fusion_lat": 0.0, "lat": 38.93709283333333, "type": "electric_scooter", "lon": -77.02937366666667, "is_reserved": 0, "fusion_lon": 0.0, "bike_id": "19c5d646d4232ca2bae0ac262b3738f6", "name": "19c5d646d4232ca2bae0ac262b3738f6", "rental_uris": {"ios": "https://dc.lft.to/lastmile_qr_scan", "android": "https://dc.lft.to/lastmile_qr_scan"}}, {"is_disabled": 0, "fusion_lat": 0.0, "lat": 38.9050315, "type": "electric_scooter", "lon": -77.02592133333333, "is_reserved": 0, "fusion_lon": 0.0, "bike_id": "146f320c5ff92cae5fb0d2ae6abdb291", "name": "146f320c5ff92cae5fb0d2ae6abdb291", "rental_uris": {"ios": "https://dc.lft.to/lastmile_qr_scan", "android": "https://dc.lft.to/lastmile_qr_scan"}}, {"is_disabled": 0, "fusion_lat": 0.0, "lat": 38.92830583333333, "type": "electric_scooter", "lon": -77.01387516666666, "is_reserved": 0, "fusion_lon": 0.0, "bike_id": "7de95182c40415c41ccbd960c42c6ef2", "name": "7de95182c40415c41ccbd960c42c6ef2", "rental_uris": {"ios": "https://dc.lft.to/lastmile_qr_scan", "android": "https://dc.lft.to/lastmile_qr_scan"}}, {"is_disabled": 0, "fusion_lat": 0.0, "lat": 38.8849055, "type": "electric_scooter", "lon": -77.00348583333333, "is_reserved": 0, "fusion_lon": 0.0, "bike_id": "9d47ce76c039b5fc890001fe359f629a", "name": "9d47ce76c039b5fc890001fe359f629a", "rental_uris": {"ios": "https://dc.lft.to/lastmile_qr_scan", "android": "https://dc.lft.to/lastmile_qr_scan"}}, {"is_disabled": 0, "fusion_lat": 0.0, "lat": 38.8974735, "type": "electric_scooter", "lon": -77.00776416666666, "is_reserved": 0, "fusion_lon": 0.0, "bike_id": "eaeff4b6e91d5048d3a17e0a06b37636", "name": "eaeff4b6e91d5048d3a17e0a06b37636", "rental_uris": {"ios": "https://dc.lft.to/lastmile_qr_scan", "android": "https://dc.lft.to/lastmile_qr_scan"}}, {"is_disabled": 0, "fusion_lat": 0.0, "lat": 38.88993083333333, "type": "electric_scooter", "lon": -76.95563966666667, "is_reserved": 0, "fusion_lon": 0.0, "bike_id": "ae68583c6512db2f34cd0aafb6a02a41", "name": "ae68583c6512db2f34cd0aafb6a02a41", "rental_uris": {"ios": "https://dc.lft.to/lastmile_qr_scan", "android": "https://dc.lft.to/lastmile_qr_scan"}}, {"is_disabled": 0, "fusion_lat": 0.0, "lat": 38.855191833333336, "type": "electric_bike", "lon": -76.98428566666666, "is_reserved": 0, "fusion_lon": 0.0, "bike_id": "7eb0cdba56bd3815469d6471df1fa8eb", "name": "7eb0cdba56bd3815469d6471df1fa8eb", "rental_uris": {"ios": "https://dc.lft.to/lastmile_qr_scan", "android": "https://dc.lft.to/lastmile_qr_scan"}}, {"is_disabled": 0, "fusion_lat": 0.0, "lat": 38.95790933333333, "type": "electric_bike", "lon": -77.00197516666667, "is_reserved": 0, "fusion_lon": 0.0, "bike_id": "158003cdcbbffcad9e94aabc8dec00d9", "name": "158003cdcbbffcad9e94aabc8dec00d9", "rental_uris": {"ios": "https://dc.lft.to/lastmile_qr_scan", "android": "https://dc.lft.to/lastmile_qr_scan"}}, {"is_disabled": 0, "fusion_lat": 0.0, "lat": 38.92172866666667, "type": "electric_scooter", "lon": -77.04015733333334, "is_reserved": 0, "fusion_lon": 0.0, "bike_id": "4fc068b25bcf3fb3c3907e5723408027", "name": "4fc068b25bcf3fb3c3907e5723408027", "rental_uris": {"ios": "https://dc.lft.to/lastmile_qr_scan", "android": "https://dc.lft.to/lastmile_qr_scan"}}, {"is_disabled": 0, "fusion_lat": 0.0, "lat": 38.89836666666667, "type": "electric_scooter", "lon": -77.00748816666666, "is_reserved": 0, "fusion_lon": 0.0, "bike_id": "f4dde77762e22c3d9d115fc016cdcaa5", "name": "f4dde77762e22c3d9d115fc016cdcaa5", "rental_uris": {"ios": "https://dc.lft.to/lastmile_qr_scan", "android": "https://dc.lft.to/lastmile_qr_scan"}}, {"is_disabled": 0, "fusion_lat": 0.0, "lat": 38.9126555, "type": "electric_scooter", "lon": -77.022645, "is_reserved": 0, "fusion_lon": 0.0, "bike_id": "322ef37e06a80cad2ee7041738962902", "name": "322ef37e06a80cad2ee7041738962902", "rental_uris": {"ios": "https://dc.lft.to/lastmile_qr_scan", "android": "https://dc.lft.to/lastmile_qr_scan"}}, {"is_disabled": 0, "fusion_lat": 0.0, "lat": 38.89290916666667, "type": "electric_scooter", "lon": -76.99853866666666, "is_reserved": 0, "fusion_lon": 0.0, "bike_id": "753de5a187764643c6edebd08bdcb566", "name": "753de5a187764643c6edebd08bdcb566", "rental_uris": {"ios": "https://dc.lft.to/lastmile_qr_scan", "android": "https://dc.lft.to/lastmile_qr_scan"}}, {"is_disabled": 0, "fusion_lat": 0.0, "lat": 38.91963283333333, "type": "electric_scooter", "lon": -77.027116, "is_reserved": 0, "fusion_lon": 0.0, "bike_id": "f45f50a2239da8deb093ff02c8e82a05", "name": "f45f50a2239da8deb093ff02c8e82a05", "rental_uris": {"ios": "https://dc.lft.to/lastmile_qr_scan", "android": "https://dc.lft.to/lastmile_qr_scan"}}, {"is_disabled": 0, "fusion_lat": 0.0, "lat": 38.9126755, "type": "electric_scooter", "lon": -77.0338015, "is_reserved": 0, "fusion_lon": 0.0, "bike_id": "4b1bda4f7ee1634c5df7ed7f82d16159", "name": "4b1bda4f7ee1634c5df7ed7f82d16159", "rental_uris": {"ios": "https://dc.lft.to/lastmile_qr_scan", "android": "https://dc.lft.to/lastmile_qr_scan"}}, {"is_disabled": 0, "fusion_lat": 0.0, "lat": 38.908368333333335, "type": "electric_scooter", "lon": -77.02694216666667, "is_reserved": 0, "fusion_lon": 0.0, "bike_id": "4fd295bf2b3cbe18d8bc7965c97c37a3", "name": "4fd295bf2b3cbe18d8bc7965c97c37a3", "rental_uris": {"ios": "https://dc.lft.to/lastmile_qr_scan", "android": "https://dc.lft.to/lastmile_qr_scan"}}, {"is_disabled": 0, "fusion_lat": 0.0, "lat": 38.866597166666665, "type": "electric_scooter", "lon": -76.98902033333333, "is_reserved": 0, "fusion_lon": 0.0, "bike_id": "9fea36e765c2df745635ffd87cca9871", "name": "9fea36e765c2df745635ffd87cca9871", "rental_uris": {"ios": "https://dc.lft.to/lastmile_qr_scan", "android": "https://dc.lft.to/lastmile_qr_scan"}}, {"is_disabled": 0, "fusion_lat": 0.0, "lat": 38.92567283333333, "type": "electric_scooter", "lon": -77.052619, "is_reserved": 0, "fusion_lon": 0.0, "bike_id": "1085d7837b62c6eef42a71ec91aa7f77", "name": "1085d7837b62c6eef42a71ec91aa7f77", "rental_uris": {"ios": "https://dc.lft.to/lastmile_qr_scan", "android": "https://dc.lft.to/lastmile_qr_scan"}}, {"is_disabled": 0, "fusion_lat": 0.0, "lat": 38.94629583333333, "type": "electric_scooter", "lon": -77.01843583333333, "is_reserved": 0, "fusion_lon": 0.0, "bike_id": "496a9f05f65d2a8e82b72617b6227c34", "name": "496a9f05f65d2a8e82b72617b6227c34", "rental_uris": {"ios": "https://dc.lft.to/lastmile_qr_scan", "android": "https://dc.lft.to/lastmile_qr_scan"}}, {"is_disabled": 0, "fusion_lat": 0.0, "lat": 38.865242333333335, "type": "electric_scooter", "lon": -76.990329, "is_reserved": 0, "fusion_lon": 0.0, "bike_id": "fd3c2f42708b065d04009991e15a9b45", "name": "fd3c2f42708b065d04009991e15a9b45", "rental_uris": {"ios": "https://dc.lft.to/lastmile_qr_scan", "android": "https://dc.lft.to/lastmile_qr_scan"}}, {"is_disabled": 0, "fusion_lat": 0.0, "lat": 38.838105666666664, "type": "electric_bike", "lon": -77.09523833333333, "is_reserved": 0, "fusion_lon": 0.0, "bike_id": "9d5b1518a338423597be99dc703e6292", "name": "9d5b1518a338423597be99dc703e6292", "rental_uris": {"ios": "https://dc.lft.to/lastmile_qr_scan", "android": "https://dc.lft.to/lastmile_qr_scan"}}, {"is_disabled": 0, "fusion_lat": 0.0, "lat": 38.8386475, "type": "electric_bike", "lon": -76.9969825, "is_reserved": 0, "fusion_lon": 0.0, "bike_id": "016e56838c00e7b5acc04c3c627c4dfb", "name": "016e56838c00e7b5acc04c3c627c4dfb", "rental_uris": {"ios": "https://dc.lft.to/lastmile_qr_scan", "android": "https://dc.lft.to/lastmile_qr_scan"}}, {"is_disabled": 0, "fusion_lat": 0.0, "lat": 38.897405666666664, "type": "electric_scooter", "lon": -76.93844616666667, "is_reserved": 0, "fusion_lon": 0.0, "bike_id": "787465fad625174df4ea6056aedfb571", "name": "787465fad625174df4ea6056aedfb571", "rental_uris": {"ios": "https://dc.lft.to/lastmile_qr_scan", "android": "https://dc.lft.to/lastmile_qr_scan"}}, {"is_disabled": 0, "fusion_lat": 0.0, "lat": 38.914772, "type": "electric_scooter", "lon": -76.98440466666666, "is_reserved": 0, "fusion_lon": 0.0, "bike_id": "0cf31e0dbe825e1b7fed5f3958679714", "name": "0cf31e0dbe825e1b7fed5f3958679714", "rental_uris": {"ios": "https://dc.lft.to/lastmile_qr_scan", "android": "https://dc.lft.to/lastmile_qr_scan"}}, {"is_disabled": 0, "fusion_lat": 0.0, "lat": 38.90028566666667, "type": "electric_scooter", "lon": -76.9987025, "is_reserved": 0, "fusion_lon": 0.0, "bike_id": "473fef11ab5e832d78b7c86531f4fc00", "name": "473fef11ab5e832d78b7c86531f4fc00", "rental_uris": {"ios": "https://dc.lft.to/lastmile_qr_scan", "android": "https://dc.lft.to/lastmile_qr_scan"}}, {"is_disabled": 0, "fusion_lat": 0.0, "lat": 38.9212205, "type": "electric_scooter", "lon": -77.04577183333333, "is_reserved": 0, "fusion_lon": 0.0, "bike_id": "ffc41b723a381f8373fbdc47618352af", "name": "ffc41b723a381f8373fbdc47618352af", "rental_uris": {"ios": "https://dc.lft.to/lastmile_qr_scan", "android": "https://dc.lft.to/lastmile_qr_scan"}}, {"is_disabled": 0, "fusion_lat": 0.0, "lat": 38.876291333333334, "type": "electric_scooter", "lon": -76.96530083333333, "is_reserved": 0, "fusion_lon": 0.0, "bike_id": "7d46799e940124b69f6ad5fdd820ba0f", "name": "7d46799e940124b69f6ad5fdd820ba0f", "rental_uris": {"ios": "https://dc.lft.to/lastmile_qr_scan", "android": "https://dc.lft.to/lastmile_qr_scan"}}, {"is_disabled": 0, "fusion_lat": 0.0, "lat": 38.878369666666664, "type": "electric_scooter", "lon": -77.01966066666667, "is_reserved": 0, "fusion_lon": 0.0, "bike_id": "eb103bee97b6742ff2a4dc099446f4d7", "name": "eb103bee97b6742ff2a4dc099446f4d7", "rental_uris": {"ios": "https://dc.lft.to/lastmile_qr_scan", "android": "https://dc.lft.to/lastmile_qr_scan"}}, {"is_disabled": 0, "fusion_lat": 0.0, "lat": 38.916920166666664, "type": "electric_scooter", "lon": -77.04598466666667, "is_reserved": 0, "fusion_lon": 0.0, "bike_id": "717aa090c62e50dfd3808c853ec28d88", "name": "717aa090c62e50dfd3808c853ec28d88", "rental_uris": {"ios": "https://dc.lft.to/lastmile_qr_scan", "android": "https://dc.lft.to/lastmile_qr_scan"}}, {"is_disabled": 0, "fusion_lat": 0.0, "lat": 38.9129965, "type": "electric_scooter", "lon": -77.0196265, "is_reserved": 0, "fusion_lon": 0.0, "bike_id": "dc3a59acd90bd68bf5d898820c07eb98", "name": "dc3a59acd90bd68bf5d898820c07eb98", "rental_uris": {"ios": "https://dc.lft.to/lastmile_qr_scan", "android": "https://dc.lft.to/lastmile_qr_scan"}}, {"is_disabled": 0, "fusion_lat": 0.0, "lat": 38.93990683333333, "type": "electric_scooter", "lon": -77.02887616666666, "is_reserved": 0, "fusion_lon": 0.0, "bike_id": "c7a1e4d1e0f851c580d7819552b7a278", "name": "c7a1e4d1e0f851c580d7819552b7a278", "rental_uris": {"ios": "https://dc.lft.to/lastmile_qr_scan", "android": "https://dc.lft.to/lastmile_qr_scan"}}, {"is_disabled": 0, "fusion_lat": 0.0, "lat": 38.85963383333333, "type": "electric_scooter", "lon": -76.991097, "is_reserved": 0, "fusion_lon": 0.0, "bike_id": "4f4fbf2eb6bbf6bfb708bdc2d3f327c1", "name": "4f4fbf2eb6bbf6bfb708bdc2d3f327c1", "rental_uris": {"ios": "https://dc.lft.to/lastmile_qr_scan", "android": "https://dc.lft.to/lastmile_qr_scan"}}, {"is_disabled": 0, "fusion_lat": 0.0, "lat": 38.92476716666667, "type": "electric_scooter", "lon": -77.0263095, "is_reserved": 0, "fusion_lon": 0.0, "bike_id": "ec3f5b30595bf1c05da662ed784eb8b5", "name": "ec3f5b30595bf1c05da662ed784eb8b5", "rental_uris": {"ios": "https://dc.lft.to/lastmile_qr_scan", "android": "https://dc.lft.to/lastmile_qr_scan"}}, {"is_disabled": 0, "fusion_lat": 0.0, "lat": 38.89221366666666, "type": "electric_scooter", "lon": -77.04652883333333, "is_reserved": 0, "fusion_lon": 0.0, "bike_id": "2f35afd17f1c1d84286865ad4e720096", "name": "2f35afd17f1c1d84286865ad4e720096", "rental_uris": {"ios": "https://dc.lft.to/lastmile_qr_scan", "android": "https://dc.lft.to/lastmile_qr_scan"}}, {"is_disabled": 0, "fusion_lat": 0.0, "lat": 38.9180795, "type": "electric_scooter", "lon": -77.032964, "is_reserved": 0, "fusion_lon": 0.0, "bike_id": "41331d2406aa1af17c914ee3b1eb4743", "name": "41331d2406aa1af17c914ee3b1eb4743", "rental_uris": {"ios": "https://dc.lft.to/lastmile_qr_scan", "android": "https://dc.lft.to/lastmile_qr_scan"}}, {"is_disabled": 0, "fusion_lat": 0.0, "lat": 38.93636716666666, "type": "electric_scooter", "lon": -77.03663416666667, "is_reserved": 0, "fusion_lon": 0.0, "bike_id": "d2807ed7ef2e00ec7b3d51ece1720116", "name": "d2807ed7ef2e00ec7b3d51ece1720116", "rental_uris": {"ios": "https://dc.lft.to/lastmile_qr_scan", "android": "https://dc.lft.to/lastmile_qr_scan"}}, {"is_disabled": 0, "fusion_lat": 0.0, "lat": 38.9137355, "type": "electric_scooter", "lon": -77.01998633333334, "is_reserved": 0, "fusion_lon": 0.0, "bike_id": "c4b18e16dfe5520f0cabc2c14c3de4bc", "name": "c4b18e16dfe5520f0cabc2c14c3de4bc", "rental_uris": {"ios": "https://dc.lft.to/lastmile_qr_scan", "android": "https://dc.lft.to/lastmile_qr_scan"}},