{"data": {"bikes": [{"rental_uris": {"android": "https://dc.lft.to/lastmile_qr_scan", "ios": "https://dc.lft.to/lastmile_qr_scan"}, "lon": -77.0121325, "name": "494ea36737077e64e07e83ea11297b3c", "lat": 38.91824033333333, "is_reserved": 0, "fusion_lat": 0.0, "bike_id": "494ea36737077e64e07e83ea11297b3c", "type": "electric_scooter", "is_disabled": 0, "fusion_lon": 0.0}, {"rental_uris": {"android": "https://dc.lft.to/lastmile_qr_scan", "ios": "https://dc.lft.to/lastmile_qr_scan"}, "lon": -77.02210516666666, "name": "642034a5441c192b9ab6d420a60ac9aa", "lat": 38.892697166666665, "is_reserved": 0, "fusion_lat": 0.0, "bike_id": "642034a5441c192b9ab6d420a60ac9aa", "type": "electric_scooter", "is_disabled": 0, "fusion_lon": 0.0}, {"rental_uris": {"android": "https://dc.lft.to/lastmile_qr_scan", "ios": "https://dc.lft.to/lastmile_qr_scan"}, "lon": -77.04344233333333, "name": "051bd0ff262c3b1b22b829ecd5494192", "lat": 38.913267833333336, "is_reserved": 0, "fusion_lat": 0.0, "bike_id": "051bd0ff262c3b1b22b829ecd5494192", "type": "electric_scooter", "is_disabled": 0, "fusion_lon": 0.0}, {"rental_uris": {"android": "https://dc.lft.to/lastmile_qr_scan", "ios": "https://dc.lft.to/lastmile_qr_scan"}, "lon": -77.02365316666666, "name": "6ff567831f5524e4c0e2505deca4cb81", "lat": 38.932703833333335, "is_reserved": 0, "fusion_lat": 0.0, "bike_id": "6ff567831f5524e4c0e2505deca4cb81", "type": "electric_scooter", "is_disabled": 0, "fusion_lon": 0.0}, {"rental_uris": {"android": "https://dc.lft.to/lastmile_qr_scan", "ios": "https://dc.lft.to/lastmile_qr_scan"}, "lon": -77.04688966666667, "name": "16d39a76294c82c75bf9ef25a7ef8d81", "lat": 38.89222783333334, "is_reserved": 0, "fusion_lat": 0.0, "bike_id": "16d39a76294c82c75bf9ef25a7ef8d81", "type": "electric_scooter", "is_disabled": 0, "fusion_lon": 0.0}, {"rental_uris": {"android": "https://dc.lft.to/lastmile_qr_scan", "ios": "https://dc.lft.to/lastmile_qr_scan"}, "lon": -77.0314555, "name": "adb8ceef570fd5976cf0bf27c58c3e04", "lat": 38.94182083333333, "is_reserved": 0, "fusion_lat": 0.0, "bike_id": "adb8ceef570fd5976cf0bf27c58c3e04", "type": "electric_scooter", "is_disabled": 0, "fusion_lon": 0.0}, {"rental_uris": {"android": "https://dc.lft.to/lastmile_qr_scan", "ios": "https://dc.lft.to/lastmile_qr_scan"}, "lon": -77.01479516666667, "name": "44850319d89d2ebfe78b8e50f7133e6d", "lat": 38.918558, "is_reserved": 0, "fusion_lat": 0.0, "bike_id": "44850319d89d2ebfe78b8e50f7133e6d", "type": "electric_scooter", "is_disabled": 0, "fusion_lon": 0.0}, {"rental_uris": {"android": "https://dc.lft.to/lastmile_qr_scan", "ios": "https://dc.lft.to/lastmile_qr_scan"}, "lon": -77.0230045, "name": "eeee7a70e7361dbe1b399b3a85034b25", "lat": 38.89584633333333, "is_reserved": 0, "fusion_lat": 0.0, "bike_id": "eeee7a70e7361dbe1b399b3a85034b25", "type": "electric_scooter", "is_disabled": 0, "fusion_lon": 0.0}, {"rental_uris": {"android": "https://dc.lft.to/lastmile_qr_scan", "ios": "https://dc.lft.to/lastmile_qr_scan"}, "lon": -77.02205816666667, "name": "a933e6d47d74d22db737e2d00462475a", "lat": 38.895884833333334, "is_reserved": 0, "fusion_lat": 0.0, "bike_id": "a933e6d47d74d22db737e2d00462475a", "type": "electric_scooter", "is_disabled": 0, "fusion_lon": 0.0}, {"rental_uris": {"android": "https://dc.lft.to/lastmile_qr_scan", "ios": "https://dc.lft.to/lastmile_qr_scan"}, "lon": -76.94720716666667, "name": "bfdb46a5fc1bccf798d460ca4c2a14ee", "lat": 38.897440833333334, "is_reserved": 0, "fusion_lat": 0.0, "bike_id": "bfdb46a5fc1bccf798d460ca4c2a14ee", "type": "electric_scooter", "is_disabled": 0, "fusion_lon": 0.0}, {"rental_uris": {"android": "https://dc.lft.to/lastmile_qr_scan", "ios": "https://dc.lft.to/lastmile_qr_scan"}, "lon": -77.07888116666666, "name": "59a64cf282f24146384d7b73acbbbe57", "lat": 38.84828866666667, "is_reserved": 0, "fusion_lat": 0.0, "bike_id": "59a64cf282f24146384d7b73acbbbe57", "type": "electric_bike", "is_disabled": 0, "fusion_lon": 0.0}, {"rental_uris": {"android": "https://dc.lft.to/lastmile_qr_scan", "ios": "https://dc.lft.to/lastmile_qr_scan"}, "lon": -76.930754, "name": "2074d6391380e6030d6bcdd1e8a9e8ad", "lat": 38.90166166666667, "is_reserved": 0, "fusion_lat": 0.0, "bike_id": "2074d6391380e6030d6bcdd1e8a9e8ad", "type": "electric_scooter", "is_disabled": 0, "fusion_lon": 0.0}, {"rental_uris": {"android": "https://dc.lft.to/lastmile_qr_scan", "ios": "https://dc.lft.to/lastmile_qr_scan"}, "lon": -77.02807266666667, "name": "09f815c0488b50ceeef207960e460f8a", "lat": 38.965734166666664, "is_reserved": 0, "fusion_lat": 0.0, "bike_id": "09f815c0488b50ceeef207960e460f8a", "type": "electric_bike", "is_disabled": 0, "fusion_lon": 0.0}, {"rental_uris": {"android": "https://dc.lft.to/lastmile_qr_scan", "ios": "https://dc.lft.to/lastmile_qr_scan"}, "lon": -77.0283995, "name": "1abfe8445b84eacefa48bd6ccf59fc18", "lat": 38.917021166666665, "is_reserved": 0, "fusion_lat": 0.0, "bike_id": "1abfe8445b84eacefa48bd6ccf59fc18", "type": "electric_scooter", "is_disabled": 0, "fusion_lon": 0.0}, {"rental_uris": {"android": "https://dc.lft.to/lastmile_qr_scan", "ios": "https://dc.lft.to/lastmile_qr_scan"}, "lon": -77.02693416666666, "name": "4f6a5f0e15ec5118afdd7cabdda034df", "lat": 38.9498285, "is_reserved": 0, "fusion_lat": 0.0, "bike_id": "4f6a5f0e15ec5118afdd7cabdda034df", "type": "electric_scooter", "is_disabled": 0, "fusion_lon": 0.0}, {"rental_uris": {"android": "https://dc.lft.to/lastmile_qr_scan", "ios": "https://dc.lft.to/lastmile_qr_scan"}, "lon": -76.95427333333333, "name": "f3941061a9e341681287918c32e1a292", "lat": 38.88551366666667, "is_reserved": 0, "fusion_lat": 0.0, "bike_id": "f3941061a9e341681287918c32e1a292", "type": "electric_bike", "is_disabled": 0, "fusion_lon": 0.0}, {"rental_uris": {"android": "https://dc.lft.to/lastmile_qr_scan", "ios": "https://dc.lft.to/lastmile_qr_scan"}, "lon": -77.02218633333334, "name": "26f9c3bc2fb1025f6643fca951f0a7ec", "lat": 38.93552183333333, "is_reserved": 0, "fusion_lat": 0.0, "bike_id": "26f9c3bc2fb1025f6643fca951f0a7ec", "type": "electric_scooter", "is_disabled": 0, "fusion_lon": 0.0}, {"rental_uris": {"android": "https://dc.lft.to/lastmile_qr_scan", "ios": "https://dc.lft.to/lastmile_qr_scan"}, "lon": -77.00917916666667, "name": "c68081fab360298f227d840a6b9f647f", "lat": 38.923416833333334, "is_reserved": 0, "fusion_lat": 0.0, "bike_id": "c68081fab360298f227d840a6b9f647f", "type": "electric_scooter", "is_disabled": 0, "fusion_lon": 0.0}, {"rental_uris": {"android": "https://dc.lft.to/lastmile_qr_scan", "ios": "https://dc.lft.to/lastmile_qr_scan"}, "lon": -77.02699583333333, "name": "ae672ffa15dc18e1b095a8893207069d", "lat": 38.906877, "is_reserved": 0, "fusion_lat": 0.0, "bike_id": "ae672ffa15dc18e1b095a8893207069d", "type": "electric_scooter", "is_disabled": 0, "fusion_lon": 0.0}, {"rental_uris": {"android": "https://dc.lft.to/lastmile_qr_scan", "ios": "https://dc.lft.to/lastmile_qr_scan"}, "lon": -77.0488315, "name": "31e5f2f4b5386a05104e73e9e7045804", "lat": 38.898687, "is_reserved": 0, "fusion_lat": 0.0, "bike_id": "31e5f2f4b5386a05104e73e9e7045804", "type": "electric_scooter", "is_disabled": 0, "fusion_lon": 0.0}, {"rental_uris": {"android": "https://dc.lft.to/lastmile_qr_scan", "ios": "https://dc.lft.to/lastmile_qr_scan"}, "lon": -77.04351733333333, "name": "ddebe84958cd1dc0b794e34501da2481", "lat": 38.901424, "is_reserved": 0, "fusion_lat": 0.0, "bike_id": "ddebe84958cd1dc0b794e34501da2481", "type": "electric_scooter", "is_disabled": 0, "fusion_lon": 0.0}, {"rental_uris": {"android": "https://dc.lft.to/lastmile_qr_scan", "ios": "https://dc.lft.to/lastmile_qr_scan"}, "lon": -77.04330883333333, "name": "1456972d9b47a60e674d43f33e1b342f", "lat": 38.892273333333335, "is_reserved": 0, "fusion_lat": 0.0, "bike_id": "1456972d9b47a60e674d43f33e1b342f", "type": "electric_scooter", "is_disabled": 0, "fusion_lon": 0.0}, {"rental_uris": {"android": "https://dc.lft.to/lastmile_qr_scan", "ios": "https://dc.lft.to/lastmile_qr_scan"}, "lon": -77.01062183333333, "name": "c6e6d239a9775a9d9b6d1ce69069ea82", "lat": 38.907875833333335, "is_reserved": 0, "fusion_lat": 0.0, "bike_id": "c6e6d239a9775a9d9b6d1ce69069ea82", "type": "electric_scooter", "is_disabled": 0, "fusion_lon": 0.0}, {"rental_uris": {"android": "https://dc.lft.to/lastmile_qr_scan", "ios": "https://dc.lft.to/lastmile_qr_scan"}, "lon": -77.01187766666666, "name": "a790c1a05785b53ec06fd8554a7d9548", "lat": 38.90036966666667, "is_reserved": 0, "fusion_lat": 0.0, "bike_id": "a790c1a05785b53ec06fd8554a7d9548", "type": "electric_scooter", "is_disabled": 0, "fusion_lon": 0.0}, {"rental_uris": {"android": "https://dc.lft.to/lastmile_qr_scan", "ios": "https://dc.lft.to/lastmile_qr_scan"}, "lon": -77.02830266666666, "name": "1bf06014f6738f4ef769070c1a41538c", "lat": 38.886529333333336, "is_reserved": 0, "fusion_lat": 0.0, "bike_id": "1bf06014f6738f4ef769070c1a41538c", "type": "electric_bike", "is_disabled": 0, "fusion_lon": 0.0}, {"rental_uris": {"android": "https://dc.lft.to/lastmile_qr_scan", "ios": "https://dc.lft.to/lastmile_qr_scan"}, "lon": -77.036302, "name": "6646a9998c76a36e9234aa6e1355bb90", "lat": 38.9367835, "is_reserved": 0, "fusion_lat": 0.0, "bike_id": "6646a9998c76a36e9234aa6e1355bb90", "type": "electric_scooter", "is_disabled": 0, "fusion_lon": 0.0}, {"rental_uris": {"android": "https://dc.lft.to/lastmile_qr_scan", "ios": "https://dc.lft.to/lastmile_qr_scan"}, "lon": -77.00412966666667, "name": "9880f2df015ee077f8de15e33da087dc", "lat": 38.87712033333333, "is_reserved": 0, "fusion_lat": 0.0, "bike_id": "9880f2df015ee077f8de15e33da087dc", "type": "electric_scooter", "is_disabled": 0, "fusion_lon": 0.0}, {"rental_uris": {"android": "https://dc.lft.to/lastmile_qr_scan", "ios": "https://dc.lft.to/lastmile_qr_scan"}, "lon": -77.03573533333334, "name": "8ab750dc00594a0786ddd74da61aa5ea", "lat": 38.90962366666667, "is_reserved": 0, "fusion_lat": 0.0, "bike_id": "8ab750dc00594a0786ddd74da61aa5ea", "type": "electric_scooter", "is_disabled": 0, "fusion_lon": 0.0}, {"rental_uris": {"android": "https://dc.lft.to/lastmile_qr_scan", "ios": "https://dc.lft.to/lastmile_qr_scan"}, "lon": -77.05140133333333, "name": "915df84b35a2292e24711999060bb735", "lat": 38.89756633333333, "is_reserved": 0, "fusion_lat": 0.0, "bike_id": "915df84b35a2292e24711999060bb735", "type": "electric_scooter", "is_disabled": 0, "fusion_lon": 0.0}, {"rental_uris": {"android": "https://dc.lft.to/lastmile_qr_scan", "ios": "https://dc.lft.to/lastmile_qr_scan"}, "lon": -77.00539233333333, "name": "fc787c3306ff11f6b3afe39e08275349", "lat": 38.91263333333333, "is_reserved": 0, "fusion_lat": 0.0, "bike_id": "fc787c3306ff11f6b3afe39e08275349", "type": "electric_scooter", "is_disabled": 0, "fusion_lon": 0.0}, {"rental_uris": {"android": "https://dc.lft.to/lastmile_qr_scan", "ios": "https://dc.lft.to/lastmile_qr_scan"}, "lon": -77.0093025, "name": "6eaf4c52f56b9ba53bd08d575aba6cad", "lat": 38.89641616666667, "is_reserved": 0, "fusion_lat": 0.0, "bike_id": "6eaf4c52f56b9ba53bd08d575aba6cad", "type": "electric_scooter", "is_disabled": 0, "fusion_lon": 0.0}, {"rental_uris": {"android": "https://dc.lft.to/lastmile_qr_scan", "ios": "https://dc.lft.to/lastmile_qr_scan"}, "lon": -76.98570883333333, "name": "93403e386ab6584b89179d27f907ccdd", "lat": 38.8668415, "is_reserved": 0, "fusion_lat": 0.0, "bike_id": "93403e386ab6584b89179d27f907ccdd", "type": "electric_scooter", "is_disabled": 0, "fusion_lon": 0.0}, {"rental_uris": {"android": "https://dc.lft.to/lastmile_qr_scan", "ios": "https://dc.lft.to/lastmile_qr_scan"}, "lon": -76.979762, "name": "d9186382acff9f2c715dd100607f7e7b", "lat": 38.89740316666666, "is_reserved": 0, "fusion_lat": 0.0, "bike_id": "d9186382acff9f2c715dd100607f7e7b", "type": "electric_scooter", "is_disabled": 0, "fusion_lon": 0.0}, {"rental_uris": {"android": "https://dc.lft.to/lastmile_qr_scan", "ios": "https://dc.lft.to/lastmile_qr_scan"}, "lon": -77.04514216666666, "name": "c2f9b5d70adf79100b939ff848ad185a", "lat": 38.89222183333333, "is_reserved": 0, "fusion_lat": 0.0, "bike_id": "c2f9b5d70adf79100b939ff848ad185a", "type": "electric_scooter", "is_disabled": 0, "fusion_lon": 0.0}, {"rental_uris": {"android": "https://dc.lft.to/lastmile_qr_scan", "ios": "https://dc.lft.to/lastmile_qr_scan"}, "lon": -77.03278933333333, "name": "e2ff257c326e0151cbfe65dcdb52f216", "lat": 38.940890333333336, "is_reserved": 0, "fusion_lat": 0.0, "bike_id": "e2ff257c326e0151cbfe65dcdb52f216", "type": "electric_scooter", "is_disabled": 0, "fusion_lon": 0.0}, {"rental_uris": {"android": "https://dc.lft.to/lastmile_qr_scan", "ios": "https://dc.lft.to/lastmile_qr_scan"}, "lon": -77.01605066666667, "name": "c9716a5af7997a85f63f07a27580528c", "lat": 38.8997525, "is_reserved": 0, "fusion_lat": 0.0, "bike_id": "c9716a5af7997a85f63f07a27580528c", "type": "electric_scooter", "is_disabled": 0, "fusion_lon": 0.0}, {"rental_uris": {"android": "https://dc.lft.to/lastmile_qr_scan", "ios": "https://dc.lft.to/lastmile_qr_scan"}, "lon": -77.03572266666667, "name": "edb67a8681ec3fad3b1ac9ef07cd854a", "lat": 38.90146083333333, "is_reserved": 0, "fusion_lat": 0.0, "bike_id": "edb67a8681ec3fad3b1ac9ef07cd854a", "type": "electric_scooter", "is_disabled": 0, "fusion_lon": 0.0}, {"rental_uris": {"android": "https://dc.lft.to/lastmile_qr_scan", "ios": "https://dc.lft.to/lastmile_qr_scan"}, "lon": -77.02095633333333, "name": "59a90d250c7f111e208b1521c2dc28cd", "lat": 38.901913666666665, "is_reserved": 0, "fusion_lat": 0.0, "bike_id": "59a90d250c7f111e208b1521c2dc28cd", "type": "electric_scooter", "is_disabled": 0, "fusion_lon": 0.0}, {"rental_uris": {"android": "https://dc.lft.to/lastmile_qr_scan", "ios": "https://dc.lft.to/lastmile_qr_scan"}, "lon": -77.09164166666666, "name": "432ad4c1d276499a4a10606abef06a46", "lat": 38.93962116666667, "is_reserved": 0, "fusion_lat": 0.0, "bike_id": "432ad4c1d276499a4a10606abef06a46", "type": "electric_scooter", "is_disabled": 0, "fusion_lon": 0.0}, {"rental_uris": {"android": "https://dc.lft.to/lastmile_qr_scan", "ios": "https://dc.lft.to/lastmile_qr_scan"}, "lon": -77.03563083333333, "name": "5cd33b1d38b5de51f2a829e74f17ac6b", "lat": 38.92698883333333, "is_reserved": 0, "fusion_lat": 0.0, "bike_id": "5cd33b1d38b5de51f2a829e74f17ac6b", "type": "electric_scooter", "is_disabled": 0, "fusion_lon": 0.0}, {"rental_uris": {"android": "https://dc.lft.to/lastmile_qr_scan", "ios": "https://dc.lft.to/lastmile_qr_scan"}, "lon": -77.0268545, "name": "e28eeaf0a41c77709584bb59c8ca538c", "lat": 38.9095205, "is_reserved": 0, "fusion_lat": 0.0, "bike_id": "e28eeaf0a41c77709584bb59c8ca538c", "type": "electric_scooter", "is_disabled": 0, "fusion_lon": 0.0}, {"rental_uris": {"android": "https://dc.lft.to/lastmile_qr_scan", "ios": "https://dc.lft.to/lastmile_qr_scan"}, "lon": -77.02980666666667, "name": "b43eb3ea3d1c5d0e2f9b1539fe8d06c4", "lat": 38.94603933333333, "is_reserved": 0, "fusion_lat": 0.0, "bike_id": "b43eb3ea3d1c5d0e2f9b1539fe8d06c4", "type": "electric_scooter", "is_disabled": 0, "fusion_lon": 0.0}, {"rental_uris": {"android": "https://dc.lft.to/lastmile_qr_scan", "ios": "https://dc.lft.to/lastmile_qr_scan"}, "lon": -76.98655566666666, "name": "11b1e6cf866cd8246cf0991835b836c5", "lat": 38.85807416666667, "is_reserved": 0, "fusion_lat": 0.0, "bike_id": "11b1e6cf866cd8246cf0991835b836c5", "type": "electric_scooter", "is_disabled": 0, "fusion_lon": 0.0}, {"rental_uris": {"android": "https://dc.lft.to/lastmile_qr_scan", "ios": "https://dc.lft.to/lastmile_qr_scan"}, "lon": -76.98727766666667, "name": "a0c5dcb17e9102e89621536a6785a9d2", "lat": 38.86335233333333, "is_reserved": 0, "fusion_lat": 0.0, "bike_id": "a0c5dcb17e9102e89621536a6785a9d2", "type": "electric_bike", "is_disabled": 0, "fusion_lon": 0.0}, {"rental_uris": {"android": "https://dc.lft.to/lastmile_qr_scan", "ios": "https://dc.lft.to/lastmile_qr_scan"}, "lon": -77.07883216666667, "name": "985f056650ce9cf5346d19f6af7c628b", "lat": 38.842568, "is_reserved": 0, "fusion_lat": 0.0, "bike_id": "985f056650ce9cf5346d19f6af7c628b", "type": "electric_bike", "is_disabled": 0, "fusion_lon": 0.0}, {"rental_uris": {"android": "https://dc.lft.to/lastmile_qr_scan", "ios": "https://dc.lft.to/lastmile_qr_scan"}, "lon": -77.03178133333333, "name": "b70b12cdd5d7767fbf686401751e34c4", "lat": 38.9175555, "is_reserved": 0, "fusion_lat": 0.0, "bike_id": "b70b12cdd5d7767fbf686401751e34c4", "type": "electric_scooter", "is_disabled": 0, "fusion_lon": 0.0}, {"rental_uris": {"android": "https://dc.lft.to/lastmile_qr_scan", "ios": "https://dc.lft.to/lastmile_qr_scan"}, "lon": -77.03445883333333, "name": "861ee3fc48de8f033f082afa40febf63", "lat": 38.909497333333334, "is_reserved": 0, "fusion_lat": 0.0, "bike_id": "861ee3fc48de8f033f082afa40febf63", "type": "electric_scooter", "is_disabled": 0, "fusion_lon": 0.0}, {"rental_uris": {"android": "https://dc.lft.to/lastmile_qr_scan", "ios": "https://dc.lft.to/lastmile_qr_scan"}, "lon": -77.042715, "name": "e793d09238a87634b29e77ce8bd89e8f", "lat": 38.90739883333333, "is_reserved": 0, "fusion_lat": 0.0, "bike_id": "e793d09238a87634b29e77ce8bd89e8f", "type": "electric_scooter", "is_disabled": 0, "fusion_lon": 0.0}, {"rental_uris": {"android": "https://dc.lft.to/lastmile_qr_scan", "ios": "https://dc.lft.to/lastmile_qr_scan"}, "lon": -77.02216383333334, "name": "62ef9baaca4ae3a8c553096632755a22", "lat": 38.91271583333333, "is_reserved": 0, "fusion_lat": 0.0, "bike_id": "62ef9baaca4ae3a8c553096632755a22", "type": "electric_scooter", "is_disabled": 0, "fusion_lon": 0.0}, {"rental_uris": {"android": "https://dc.lft.to/lastmile_qr_scan", "ios": "https://dc.lft.to/lastmile_qr_scan"}, "lon": -77.003013, "name": "38c6b15e9bc700d57a1ebbd9cf4c4a05", "lat": 38.83367633333334, "is_reserved": 0, "fusion_lat": 0.0, "bike_id": "38c6b15e9bc700d57a1ebbd9cf4c4a05", "type": "electric_bike", "is_disabled": 0, "fusion_lon": 0.0}, {"rental_uris": {"android": "https://dc.lft.to/lastmile_qr_scan", "ios": "https://dc.lft.to/lastmile_qr_scan"}, "lon": -77.03870616666667, "name": "07819292fba34857240346fc1fd5b473", "lat": 38.91564566666667, "is_reserved": 0, "fusion_lat": 0.0, "bike_id": "07819292fba34857240346fc1fd5b473", "type": "electric_scooter", "is_disabled": 0, "fusion_lon": 0.0}, {"rental_uris": {"android": "https://dc.lft.to/lastmile_qr_scan", "ios": "https://dc.lft.to/lastmile_qr_scan"}, "lon": -77.038415, "name": "39dc5194fd1be53263d16692d4e60163", "lat": 38.909866, "is_reserved": 0, "fusion_lat": 0.0, "bike_id": "39dc5194fd1be53263d16692d4e60163", "type": "electric_scooter", "is_disabled": 0, "fusion_lon": 0.0}, {"rental_uris": {"android": "https://dc.lft.to/lastmile_qr_scan", "ios": "https://dc.lft.to/lastmile_qr_scan"}, "lon": -77.0469365, "name": "bcd447b3a39492b554b6842cba4fa496", "lat": 38.921771666666665, "is_reserved": 0, "fusion_lat": 0.0, "bike_id": "bcd447b3a39492b554b6842cba4fa496", "type": "electric_scooter", "is_disabled": 0, "fusion_lon": 0.0}, {"rental_uris": {"android": "https://dc.lft.to/lastmile_qr_scan", "ios": "https://dc.lft.to/lastmile_qr_scan"}, "lon": -77.03522733333334, "name": "30d33571adca4d186ab6569f48856921", "lat": 38.9253735, "is_reserved": 0, "fusion_lat": 0.0, "bike_id": "30d33571adca4d186ab6569f48856921", "type": "electric_scooter", "is_disabled": 0, "fusion_lon": 0.0}, {"rental_uris": {"android": "https://dc.lft.to/lastmile_qr_scan", "ios": "https://dc.lft.to/lastmile_qr_scan"}, "lon": -77.04266, "name": "4dabccc8cbc44888e782356693303f27", "lat": 38.906384833333334, "is_reserved": 0, "fusion_lat": 0.0, "bike_id": "4dabccc8cbc44888e782356693303f27", "type": "electric_scooter", "is_disabled": 0, "fusion_lon": 0.0}, {"rental_uris": {"android": "https://dc.lft.to/lastmile_qr_scan", "ios": "https://dc.lft.to/lastmile_qr_scan"}, "lon": -77.02998083333334, "name": "277948b811740d12af18fd0f82a89cb6", "lat": 38.90860033333333, "is_reserved": 0, "fusion_lat": 0.0, "bike_id": "277948b811740d12af18fd0f82a89cb6", "type": "electric_scooter", "is_disabled": 0, "fusion_lon": 0.0}, {"rental_uris": {"android": "https://dc.lft.to/lastmile_qr_scan", "ios": "https://dc.lft.to/lastmile_qr_scan"}, "lon": -77.03511, "name": "626b5424cecc5ba9a5d37fe84b9e46e5", "lat": 38.912609, "is_reserved": 0, "fusion_lat": 0.0, "bike_id": "626b5424cecc5ba9a5d37fe84b9e46e5", "type": "electric_scooter", "is_disabled": 0, "fusion_lon": 0.0}, {"rental_uris": {"android": "https://dc.lft.to/lastmile_qr_scan", "ios": "https://dc.lft.to/lastmile_qr_scan"}, "lon": -77.034473, "name": "0d84ebc1d666bd8992a6fb9f9d386ad2", "lat": 38.918064, "is_reserved": 0, "fusion_lat": 0.0, "bike_id": "0d84ebc1d666bd8992a6fb9f9d386ad2", "type": "electric_scooter", "is_disabled": 0, "fusion_lon": 0.0}, {"rental_uris": {"android": "https://dc.lft.to/lastmile_qr_scan", "ios": "https://dc.lft.to/lastmile_qr_scan"}, "lon": -77.031036, "name": "6aa9722d73bb83f1677e03bc20739a42", "lat": 38.883242, "is_reserved": 0, "fusion_lat": 0.0, "bike_id": "6aa9722d73bb83f1677e03bc20739a42", "type": "electric_scooter", "is_disabled": 0, "fusion_lon": 0.0}, {"rental_uris": {"android": "https://dc.lft.to/lastmile_qr_scan", "ios": "https://dc.lft.to/lastmile_qr_scan"}, "lon": -77.00535516666666, "name": "05ef4beb16318c957f983bdc88381622", "lat": 38.876475, "is_reserved": 0, "fusion_lat": 0.0, "bike_id": "05ef4beb16318c957f983bdc88381622", "type": "electric_scooter", "is_disabled": 0, "fusion_lon": 0.0}, {"rental_uris": {"android": "https://dc.lft.to/lastmile_qr_scan", "ios": "https://dc.lft.to/lastmile_qr_scan"}, "lon": -77.0295565, "name": "5cdb128e755e2d56d1432ff8de07e559", "lat": 38.91685983333333, "is_reserved": 0, "fusion_lat": 0.0, "bike_id": "5cdb128e755e2d56d1432ff8de07e559", "type": "electric_scooter", "is_disabled": 0, "fusion_lon": 0.0}, {"rental_uris": {"android": "https://dc.lft.to/lastmile_qr_scan", "ios": "https://dc.lft.to/lastmile_qr_scan"}, "lon": -77.0293065, "name": "3cf1e1bed1d2c3528cc5b436877da9ee", "lat": 38.91689616666667, "is_reserved": 0, "fusion_lat": 0.0, "bike_id": "3cf1e1bed1d2c3528cc5b436877da9ee", "type": "electric_scooter", "is_disabled": 0, "fusion_lon": 0.0}, {"rental_uris": {"android": "https://dc.lft.to/lastmile_qr_scan", "ios": "https://dc.lft.to/lastmile_qr_scan"}, "lon": -77.04078516666667, "name": "60816b84b1108aa3adf8a7f0afb42ac1", "lat": 38.91708283333333, "is_reserved": 0, "fusion_lat": 0.0, "bike_id": "60816b84b1108aa3adf8a7f0afb42ac1", "type": "electric_scooter", "is_disabled": 0, "fusion_lon": 0.0}, {"rental_uris": {"android": "https://dc.lft.to/lastmile_qr_scan", "ios": "https://dc.lft.to/lastmile_qr_scan"}, "lon": -77.02402916666666, "name": "558d98e6bf650674033066ccc9124a92", "lat": 38.91903216666667, "is_reserved": 0, "fusion_lat": 0.0, "bike_id": "558d98e6bf650674033066ccc9124a92", "type": "electric_scooter", "is_disabled": 0, "fusion_lon": 0.0}, {"rental_uris": {"android": "https://dc.lft.to/lastmile_qr_scan", "ios": "https://dc.lft.to/lastmile_qr_scan"}, "lon": -77.0137055, "name": "2f5a18110b6fd25e2e79aeb16ac1465d", "lat": 38.911243999999996, "is_reserved": 0, "fusion_lat": 0.0, "bike_id": "2f5a18110b6fd25e2e79aeb16ac1465d", "type": "electric_scooter", "is_disabled": 0, "fusion_lon": 0.0}, {"rental_uris": {"android": "https://dc.lft.to/lastmile_qr_scan", "ios": "https://dc.lft.to/lastmile_qr_scan"}, "lon": -77.03662083333333, "name": "818ff4e0bad9b82560c71a0e08e5e032", "lat": 38.910058166666666, "is_reserved": 0, "fusion_lat": 0.0, "bike_id": "818ff4e0bad9b82560c71a0e08e5e032", "type": "electric_scooter", "is_disabled": 0, "fusion_lon": 0.0}, {"rental_uris": {"android": "https://dc.lft.to/lastmile_qr_scan", "ios": "https://dc.lft.to/lastmile_qr_scan"}, "lon": -77.01006083333333, "name": "a21a5f674a07e545d1ca6cd67074d957", "lat": 38.9156655, "is_reserved": 0, "fusion_lat": 0.0, "bike_id": "a21a5f674a07e545d1ca6cd67074d957", "type": "electric_scooter", "is_disabled": 0, "fusion_lon": 0.0}, {"rental_uris": {"android": "https://dc.lft.to/lastmile_qr_scan", "ios": "https://dc.lft.to/lastmile_qr_scan"}, "lon": -76.94980666666666, "name": "15dc0cd8252de3f69e24aa3170cbebf7", "lat": 38.884646000000004, "is_reserved": 0, "fusion_lat": 0.0, "bike_id": "15dc0cd8252de3f69e24aa3170cbebf7", "type": "electric_scooter", "is_disabled": 0, "fusion_lon": 0.0}, {"rental_uris": {"android": "https://dc.lft.to/lastmile_qr_scan", "ios": "https://dc.lft.to/lastmile_qr_scan"}, "lon": -77.0280395, "name": "e8930785b119842feadb0191294bb745", "lat": 38.899179, "is_reserved": 0, "fusion_lat": 0.0, "bike_id": "e8930785b119842feadb0191294bb745", "type": "electric_scooter", "is_disabled": 0, "fusion_lon": 0.0}, {"rental_uris": {"android": "https://dc.lft.to/lastmile_qr_scan", "ios": "https://dc.lft.to/lastmile_qr_scan"}, "lon": -77.0748145, "name": "5441a96cbe588ca67869ce609ed3446c", "lat": 38.9069695, "is_reserved": 0, "fusion_lat": 0.0, "bike_id": "5441a96cbe588ca67869ce609ed3446c", "type": "electric_scooter", "is_disabled": 0, "fusion_lon": 0.0}, {"rental_uris": {"android": "https://dc.lft.to/lastmile_qr_scan", "ios": "https://dc.lft.to/lastmile_qr_scan"}, "lon": -77.02328366666667, "name": "eeba8ea59b2c036d738e4ccd4bb518f0", "lat": 38.928755833333334, "is_reserved": 0, "fusion_lat": 0.0, "bike_id": "eeba8ea59b2c036d738e4ccd4bb518f0", "type": "electric_scooter", "is_disabled": 0, "fusion_lon": 0.0}, {"rental_uris": {"android": "https://dc.lft.to/lastmile_qr_scan", "ios": "https://dc.lft.to/lastmile_qr_scan"}, "lon": -77.02353600000001, "name": "a49575a217714d3d85adb8162b3557df", "lat": 38.920547166666665, "is_reserved": 0, "fusion_lat": 0.0, "bike_id": "a49575a217714d3d85adb8162b3557df", "type": "electric_scooter", "is_disabled": 0, "fusion_lon": 0.0}, {"rental_uris": {"android": "https://dc.lft.to/lastmile_qr_scan", "ios": "https://dc.lft.to/lastmile_qr_scan"}, "lon": -76.998114, "name": "7a7c7d93046508d21ce0da2b90f87330", "lat": 38.9323335, "is_reserved": 0, "fusion_lat": 0.0, "bike_id": "7a7c7d93046508d21ce0da2b90f87330", "type": "electric_scooter", "is_disabled": 0, "fusion_lon": 0.0}, {"rental_uris": {"android": "https://dc.lft.to/lastmile_qr_scan", "ios": "https://dc.lft.to/lastmile_qr_scan"}, "lon": -77.02204516666667, "name": "2476fb1199c7b9f8c4b98234f9db67c9", "lat": 38.9104505, "is_reserved": 0, "fusion_lat": 0.0, "bike_id": "2476fb1199c7b9f8c4b98234f9db67c9", "type": "electric_scooter", "is_disabled": 0, "fusion_lon": 0.0}, {"rental_uris": {"android": "https://dc.lft.to/lastmile_qr_scan", "ios": "https://dc.lft.to/lastmile_qr_scan"}, "lon": -77.00927716666666, "name": "631c7dd236629b810f83baf1045afebd", "lat": 38.89598433333333, "is_reserved": 0, "fusion_lat": 0.0, "bike_id": "631c7dd236629b810f83baf1045afebd", "type": "electric_scooter", "is_disabled": 0, "fusion_lon": 0.0}, {"rental_uris": {"android": "https://dc.lft.to/lastmile_qr_scan", "ios": "https://dc.lft.to/lastmile_qr_scan"}, "lon": -76.99247766666667, "name": "bb1f981ec62b7231793a0ba80aaa2cec", "lat": 38.794680666666665, "is_reserved": 0, "fusion_lat": 0.0, "bike_id": "bb1f981ec62b7231793a0ba80aaa2cec", "type": "electric_bike", "is_disabled": 0, "fusion_lon": 0.0}, {"rental_uris": {"android": "https://dc.lft.to/lastmile_qr_scan", "ios": "https://dc.lft.to/lastmile_qr_scan"}, "lon": -77.034755, "name": "bf73b9eb3a34be7858d99cf30d16bdbd", "lat": 38.90639516666667, "is_reserved": 0, "fusion_lat": 0.0, "bike_id": "bf73b9eb3a34be7858d99cf30d16bdbd", "type": "electric_scooter", "is_disabled": 0, "fusion_lon": 0.0}, {"rental_uris": {"android": "https://dc.lft.to/lastmile_qr_scan", "ios": "https://dc.lft.to/lastmile_qr_scan"}, "lon": -77.077019, "name": "5d5200d5da039e436198f0fe40fe5ccd", "lat": 38.943858166666665, "is_reserved": 0, "fusion_lat": 0.0, "bike_id": "5d5200d5da039e436198f0fe40fe5ccd", "type": "electric_scooter", "is_disabled": 0, "fusion_lon": 0.0}, {"rental_uris": {"android": "https://dc.lft.to/lastmile_qr_scan", "ios": "https://dc.lft.to/lastmile_qr_scan"}, "lon": -77.03125166666666, "name": "f31712d46da8f9019079d05723146e76", "lat": 38.917108666666664, "is_reserved": 0, "fusion_lat": 0.0, "bike_id": "f31712d46da8f9019079d05723146e76", "type": "electric_scooter", "is_disabled": 0, "fusion_lon": 0.0}, {"rental_uris": {"android": "https://dc.lft.to/lastmile_qr_scan", "ios": "https://dc.lft.to/lastmile_qr_scan"}, "lon": -77.02413133333333, "name": "321c430eff2f8bd07dc0fa54b860558a", "lat": 38.908618833333335, "is_reserved": 0, "fusion_lat": 0.0, "bike_id": "321c430eff2f8bd07dc0fa54b860558a", "type": "electric_scooter", "is_disabled": 0, "fusion_lon": 0.0}, {"rental_uris": {"android": "https://dc.lft.to/lastmile_qr_scan", "ios": "https://dc.lft.to/lastmile_qr_scan"}, "lon": -77.02202583333333, "name": "dba8cf8a8d7b2d6074d2ec34f40314d3", "lat": 38.91987566666667, "is_reserved": 0, "fusion_lat": 0.0, "bike_id": "dba8cf8a8d7b2d6074d2ec34f40314d3", "type": "electric_scooter", "is_disabled": 0, "fusion_lon": 0.0}, {"rental_uris": {"android": "https://dc.lft.to/lastmile_qr_scan", "ios": "https://dc.lft.to/lastmile_qr_scan"}, "lon": -76.98391233333334, "name": "99c6802601a12d3ed65d0981d086d215", "lat": 38.8666695, "is_reserved": 0, "fusion_lat": 0.0, "bike_id": "99c6802601a12d3ed65d0981d086d215", "type": "electric_scooter", "is_disabled": 0, "fusion_lon": 0.0}, {"rental_uris": {"android": "https://dc.lft.to/lastmile_qr_scan", "ios": "https://dc.lft.to/lastmile_qr_scan"}, "lon": -77.0142565, "name": "9a000a1cca6ffbb611f44c6ddc3ea162", "lat": 38.972204166666664, "is_reserved": 0, "fusion_lat": 0.0, "bike_id": "9a000a1cca6ffbb611f44c6ddc3ea162", "type": "electric_bike", "is_disabled": 0, "fusion_lon": 0.0}, {"rental_uris": {"android": "https://dc.lft.to/lastmile_qr_scan", "ios": "https://dc.lft.to/lastmile_qr_scan"}, "lon": -77.05471083333333, "name": "6ce52b9d25ef3cac638f9c559a0d950f", "lat": 38.8966845, "is_reserved": 0, "fusion_lat": 0.0, "bike_id": "6ce52b9d25ef3cac638f9c559a0d950f", "type": "electric_scooter", "is_disabled": 0, "fusion_lon": 0.0}, {"rental_uris": {"android": "https://dc.lft.to/lastmile_qr_scan", "ios": "https://dc.lft.to/lastmile_qr_scan"}, "lon": -77.0334545, "name": "f977ebc034606f2429fd8b7ab83ea03b", "lat": 38.935156, "is_reserved": 0, "fusion_lat": 0.0, "bike_id": "f977ebc034606f2429fd8b7ab83ea03b", "type": "electric_scooter", "is_disabled": 0, "fusion_lon": 0.0}, {"rental_uris": {"android": "https://dc.lft.to/lastmile_qr_scan", "ios": "https://dc.lft.to/lastmile_qr_scan"}, "lon": -76.98543866666667, "name": "33b294c89bdbb18a86095eb3fa1d8d9e", "lat": 38.866919833333334, "is_reserved": 0, "fusion_lat": 0.0, "bike_id": "33b294c89bdbb18a86095eb3fa1d8d9e", "type": "electric_scooter", "is_disabled": 0, "fusion_lon": 0.0}, {"rental_uris": {"android": "https://dc.lft.to/lastmile_qr_scan", "ios": "https://dc.lft.to/lastmile_qr_scan"}, "lon": -76.9334005, "name": "8d42bf98a712e17b4c2d36eef53e2548", "lat": 38.9086675, "is_reserved": 0, "fusion_lat": 0.0, "bike_id": "8d42bf98a712e17b4c2d36eef53e2548", "type": "electric_scooter", "is_disabled": 0, "fusion_lon": 0.0}, {"rental_uris": {"android": "https://dc.lft.to/lastmile_qr_scan", "ios": "https://dc.lft.to/lastmile_qr_scan"}, "lon": -77.085914, "name": "5c364a975bec3e8d27aaefd890f77ddb", "lat": 38.908673666666665, "is_reserved": 0, "fusion_lat": 0.0, "bike_id": "5c364a975bec3e8d27aaefd890f77ddb", "type": "electric_scooter", "is_disabled": 0, "fusion_lon": 0.0}, {"rental_uris": {"android": "https://dc.lft.to/lastmile_qr_scan", "ios": "https://dc.lft.to/lastmile_qr_scan"}, "lon": -77.071971, "name": "a946b00e66161f38aad21a35b1218ac3", "lat": 38.9068055, "is_reserved": 0, "fusion_lat": 0.0, "bike_id": "a946b00e66161f38aad21a35b1218ac3", "type": "electric_scooter", "is_disabled": 0, "fusion_lon": 0.0}, {"rental_uris": {"android": "https://dc.lft.to/lastmile_qr_scan", "ios": "https://dc.lft.to/lastmile_qr_scan"}, "lon": -77.02386816666667, "name": "0cc8fa52a0801d0b069842250072bd0a", "lat": 38.892278833333336, "is_reserved": 0, "fusion_lat": 0.0, "bike_id": "0cc8fa52a0801d0b069842250072bd0a", "type": "electric_scooter", "is_disabled": 0, "fusion_lon": 0.0}, {"rental_uris": {"android": "https://dc.lft.to/lastmile_qr_scan", "ios": "https://dc.lft.to/lastmile_qr_scan"}, "lon": -76.99898133333333, "name": "f6983414a64296fd08a9c9f953367756", "lat": 38.94273666666667, "is_reserved": 0, "fusion_lat": 0.0, "bike_id": "f6983414a64296fd08a9c9f953367756", "type": "electric_bike", "is_disabled": 0, "fusion_lon": 0.0}, {"rental_uris": {"android": "https://dc.lft.to/lastmile_qr_scan", "ios": "https://dc.lft.to/lastmile_qr_scan"}, "lon": -77.03195683333334, "name": "96529b95fe6c8c6bfcef19bc9cb2f669", "lat": 38.930750833333335, "is_reserved": 0, "fusion_lat": 0.0, "bike_id": "96529b95fe6c8c6bfcef19bc9cb2f669", "type": "electric_scooter", "is_disabled": 0, "fusion_lon": 0.0}, {"rental_uris": {"android": "https://dc.lft.to/lastmile_qr_scan", "ios": "https://dc.lft.to/lastmile_qr_scan"}, "lon": -77.05410066666667, "name": "5bb2b02e21d46eb91f2aabe6e57e85b8", "lat": 38.90123116666667, "is_reserved": 0, "fusion_lat": 0.0, "bike_id": "5bb2b02e21d46eb91f2aabe6e57e85b8", "type": "electric_scooter", "is_disabled": 0, "fusion_lon": 0.0}, {"rental_uris": {"android": "https://dc.lft.to/lastmile_qr_scan", "ios": "https://dc.lft.to/lastmile_qr_scan"}, "lon": -77.05106383333333, "name": "639bc26a8162a60735a5c61c11464420", "lat": 38.92490733333333, "is_reserved": 0, "fusion_lat": 0.0, "bike_id": "639bc26a8162a60735a5c61c11464420", "type": "electric_scooter", "is_disabled": 0, "fusion_lon": 0.0}, {"rental_uris": {"android": "https://dc.lft.to/lastmile_qr_scan", "ios": "https://dc.lft.to/lastmile_qr_scan"}, "lon": -77.03264333333334, "name": "5a561c151ffd348503dc114de53140fd", "lat": 38.932596833333335, "is_reserved": 0, "fusion_lat": 0.0, "bike_id": "5a561c151ffd348503dc114de53140fd", "type": "electric_scooter", "is_disabled": 0, "fusion_lon": 0.0}, {"rental_uris": {"android": "https://dc.lft.to/lastmile_qr_scan", "ios": "https://dc.lft.to/lastmile_qr_scan"}, "lon": -76.98844666666666, "name": "8921008d2eeff0727aa8b07e5756ec10", "lat": 38.89256433333333, "is_reserved": 0, "fusion_lat": 0.0, "bike_id": "8921008d2eeff0727aa8b07e5756ec10", "type": "electric_scooter", "is_disabled": 0, "fusion_lon": 0.0}, {"rental_uris": {"android": "https://dc.lft.to/lastmile_qr_scan", "ios": "https://dc.lft.to/lastmile_qr_scan"}, "lon": -77.01171366666667, "name": "90ba8013d8d0278ec30a986e77396be1", "lat": 38.9157715, "is_reserved": 0, "fusion_lat": 0.0, "bike_id": "90ba8013d8d0278ec30a986e77396be1", "type": "electric_scooter", "is_disabled": 0, "fusion_lon": 0.0}, {"rental_uris": {"android": "https://dc.lft.to/lastmile_qr_scan", "ios": "https://dc.lft.to/lastmile_qr_scan"}, "lon": -76.99941966666667, "name": "65fecf6106a9a025ca41a1c161efd4af", "lat": 38.874104833333334, "is_reserved": 0, "fusion_lat": 0.0, "bike_id": "65fecf6106a9a025ca41a1c161efd4af", "type": "electric_scooter", "is_disabled": 0, "fusion_lon": 0.0}, {"rental_uris": {"android": "https://dc.lft.to/lastmile_qr_scan", "ios": "https://dc.lft.to/lastmile_qr_scan"}, "lon": -77.03224966666667, "name": "166dd57d6001b61c78a2ac9d8b678b3e", "lat": 38.922687, "is_reserved": 0, "fusion_lat": 0.0, "bike_id": "166dd57d6001b61c78a2ac9d8b678b3e", "type": "electric_scooter", "is_disabled": 0, "fusion_lon": 0.0}, {"rental_uris": {"android": "https://dc.lft.to/lastmile_qr_scan", "ios": "https://dc.lft.to/lastmile_qr_scan"}, "lon": -77.02096016666667, "name": "4762c3d07329d48e3e2c40031e9d6827", "lat": 38.91006383333333, "is_reserved": 0, "fusion_lat": 0.0, "bike_id": "4762c3d07329d48e3e2c40031e9d6827", "type": "electric_scooter", "is_disabled": 0, "fusion_lon": 0.0}, {"rental_uris": {"android": "https://dc.lft.to/lastmile_qr_scan", "ios": "https://dc.lft.to/lastmile_qr_scan"}, "lon": -77.0076895, "name": "89a82f7c8ac7f86ecf996ec9c12a82f6", "lat": 38.90725033333333, "is_reserved": 0, "fusion_lat": 0.0, "bike_id": "89a82f7c8ac7f86ecf996ec9c12a82f6", "type": "electric_scooter", "is_disabled": 0, "fusion_lon": 0.0}, {"rental_uris": {"android": "https://dc.lft.to/lastmile_qr_scan", "ios": "https://dc.lft.to/lastmile_qr_scan"}, "lon": -77.04514733333333, "name": "3510ebb390dd08c37ef02002ae5a3206", "lat": 38.90781616666666, "is_reserved": 0, "fusion_lat": 0.0, "bike_id": "3510ebb390dd08c37ef02002ae5a3206", "type": "electric_scooter", "is_disabled": 0, "fusion_lon": 0.0}, {"rental_uris": {"android": "https://dc.lft.to/lastmile_qr_scan", "ios": "https://dc.lft.to/lastmile_qr_scan"}, "lon": -77.00130966666667, "name": "856b7afc8e43ca97e0580c3d1032c6d0", "lat": 38.878837833333336, "is_reserved": 0, "fusion_lat": 0.0, "bike_id": "856b7afc8e43ca97e0580c3d1032c6d0", "type": "electric_scooter", "is_disabled": 0, "fusion_lon": 0.0}, {"rental_uris": {"android": "https://dc.lft.to/lastmile_qr_scan", "ios": "https://dc.lft.to/lastmile_qr_scan"}, "lon": -76.98604233333333, "name": "2777a6d8fbb26f1ac3d6b27b5dd9b2c3", "lat": 38.860107666666664, "is_reserved": 0, "fusion_lat": 0.0, "bike_id": "2777a6d8fbb26f1ac3d6b27b5dd9b2c3", "type": "electric_scooter", "is_disabled": 0, "fusion_lon": 0.0}, {"rental_uris": {"android": "https://dc.lft.to/lastmile_qr_scan", "ios": "https://dc.lft.to/lastmile_qr_scan"}, "lon": -77.01451316666666, "name": "ac6e395cf592afd670c3e22cb402c995", "lat": 38.975055, "is_reserved": 0, "fusion_lat": 0.0, "bike_id": "ac6e395cf592afd670c3e22cb402c995", "type": "electric_scooter", "is_disabled": 0, "fusion_lon": 0.0}, {"rental_uris": {"android": "https://dc.lft.to/lastmile_qr_scan", "ios": "https://dc.lft.to/lastmile_qr_scan"}, "lon": -76.98194733333334, "name": "ebce5ca81ab477a932893e25b1d24b0e", "lat": 38.920618833333336, "is_reserved": 0, "fusion_lat": 0.0, "bike_id": "ebce5ca81ab477a932893e25b1d24b0e", "type": "electric_scooter", "is_disabled": 0, "fusion_lon": 0.0}, {"rental_uris": {"android": "https://dc.lft.to/lastmile_qr_scan", "ios": "https://dc.lft.to/lastmile_qr_scan"}, "lon": -77.01748066666667, "name": "3f62630526d99fa2845cbc3409b43070", "lat": 38.90077216666667, "is_reserved": 0, "fusion_lat": 0.0, "bike_id": "3f62630526d99fa2845cbc3409b43070", "type": "electric_scooter", "is_disabled": 0, "fusion_lon": 0.0}, {"rental_uris": {"android": "https://dc.lft.to/lastmile_qr_scan", "ios": "https://dc.lft.to/lastmile_qr_scan"}, "lon": -77.03633833333333, "name": "0cbdd7940505014842f5e9e9a79574e5", "lat": 38.932883333333336, "is_reserved": 0, "fusion_lat": 0.0, "bike_id": "0cbdd7940505014842f5e9e9a79574e5", "type": "electric_bike", "is_disabled": 0, "fusion_lon": 0.0}, {"rental_uris": {"android": "https://dc.lft.to/lastmile_qr_scan", "ios": "https://dc.lft.to/lastmile_qr_scan"}, "lon": -77.0005385, "name": "b9c7da02bb2a7584418b4e153e68c494", "lat": 38.89440116666667, "is_reserved": 0, "fusion_lat": 0.0, "bike_id": "b9c7da02bb2a7584418b4e153e68c494", "type": "electric_scooter", "is_disabled": 0, "fusion_lon": 0.0}, {"rental_uris": {"android": "https://dc.lft.to/lastmile_qr_scan", "ios": "https://dc.lft.to/lastmile_qr_scan"}, "lon": -76.96551966666667, "name": "8f19100305dea3d854464a8ba4a3cb3e", "lat": 38.91850316666667, "is_reserved": 0, "fusion_lat": 0.0, "bike_id": "8f19100305dea3d854464a8ba4a3cb3e", "type": "electric_scooter", "is_disabled": 0, "fusion_lon": 0.0}, {"rental_uris": {"android": "https://dc.lft.to/lastmile_qr_scan", "ios": "https://dc.lft.to/lastmile_qr_scan"}, "lon": -77.02490316666666, "name": "ccf51ddf466ed46d0af358b7514d52ef", "lat": 38.94185783333333, "is_reserved": 0, "fusion_lat": 0.0, "bike_id": "ccf51ddf466ed46d0af358b7514d52ef", "type": "electric_bike", "is_disabled": 0, "fusion_lon": 0.0}, {"rental_uris": {"android": "https://dc.lft.to/lastmile_qr_scan", "ios": "https://dc.lft.to/lastmile_qr_scan"}, "lon": -76.98564816666666, "name": "308ce1e076bd8b0a90620bdfecfdd313", "lat": 38.866833166666666, "is_reserved": 0, "fusion_lat": 0.0, "bike_id": "308ce1e076bd8b0a90620bdfecfdd313", "type": "electric_scooter", "is_disabled": 0, "fusion_lon": 0.0}, {"rental_uris": {"android": "https://dc.lft.to/lastmile_qr_scan", "ios": "https://dc.lft.to/lastmile_qr_scan"}, "lon": -77.024854, "name": "2e74b7930627c20ea0692e77bea95c90", "lat": 38.93887316666667, "is_reserved": 0, "fusion_lat": 0.0, "bike_id": "2e74b7930627c20ea0692e77bea95c90", "type": "electric_scooter", "is_disabled": 0, "fusion_lon": 0.0}, {"rental_uris": {"android": "https://dc.lft.to/lastmile_qr_scan", "ios": "https://dc.lft.to/lastmile_qr_scan"}, "lon": -76.980605, "name": "a3dc16e64e62ef2ceab9bf50598f3ae2", "lat": 38.88527233333333, "is_reserved": 0, "fusion_lat": 0.0, "bike_id": "a3dc16e64e62ef2ceab9bf50598f3ae2", "type": "electric_scooter", "is_disabled": 0, "fusion_lon": 0.0}, {"rental_uris": {"android": "https://dc.lft.to/lastmile_qr_scan", "ios": "https://dc.lft.to/lastmile_qr_scan"}, "lon": -76.9937775, "name": "a86f458ce7d469810b917ec3495038b3", "lat": 38.9909705, "is_reserved": 0, "fusion_lat": 0.0, "bike_id": "a86f458ce7d469810b917ec3495038b3", "type": "electric_bike", "is_disabled": 0, "fusion_lon": 0.0}, {"rental_uris": {"android": "https://dc.lft.to/lastmile_qr_scan", "ios": "https://dc.lft.to/lastmile_qr_scan"}, "lon": -77.018827, "name": "e32054eaeb1612d2f0515f6a23f8bfa6", "lat": 38.90069533333333, "is_reserved": 0, "fusion_lat": 0.0, "bike_id": "e32054eaeb1612d2f0515f6a23f8bfa6", "type": "electric_scooter", "is_disabled": 0, "fusion_lon": 0.0}, {"rental_uris": {"android": "https://dc.lft.to/lastmile_qr_scan", "ios": "https://dc.lft.to/lastmile_qr_scan"}, "lon": -77.004144, "name": "0478de8b7a2e9521488044a8ea78425e", "lat": 38.87719383333334, "is_reserved": 0, "fusion_lat": 0.0, "bike_id": "0478de8b7a2e9521488044a8ea78425e", "type": "electric_scooter", "is_disabled": 0, "fusion_lon": 0.0}, {"rental_uris": {"android": "https://dc.lft.to/lastmile_qr_scan", "ios": "https://dc.lft.to/lastmile_qr_scan"}, "lon": -77.02204966666666, "name": "879684ef43d9afe39843a6b1d336547d", "lat": 38.892331, "is_reserved": 0, "fusion_lat": 0.0, "bike_id": "879684ef43d9afe39843a6b1d336547d", "type": "electric_scooter", "is_disabled": 0, "fusion_lon": 0.0}, {"rental_uris": {"android": "https://dc.lft.to/lastmile_qr_scan", "ios": "https://dc.lft.to/lastmile_qr_scan"}, "lon": -77.0266525, "name": "c05e2b4ca12e3aef6a8ca51bc6126fd0", "lat": 38.93100716666667, "is_reserved": 0, "fusion_lat": 0.0, "bike_id": "c05e2b4ca12e3aef6a8ca51bc6126fd0", "type": "electric_scooter", "is_disabled": 0, "fusion_lon": 0.0}, {"rental_uris": {"android": "https://dc.lft.to/lastmile_qr_scan", "ios": "https://dc.lft.to/lastmile_qr_scan"}, "lon": -77.027841, "name": "00c65bd78a7bd31e14fb85cf4fba7b9f", "lat": 38.938650333333335, "is_reserved": 0, "fusion_lat": 0.0, "bike_id": "00c65bd78a7bd31e14fb85cf4fba7b9f", "type": "electric_scooter", "is_disabled": 0, "fusion_lon": 0.0}, {"rental_uris": {"android": "https://dc.lft.to/lastmile_qr_scan", "ios": "https://dc.lft.to/lastmile_qr_scan"}, "lon": -77.0171825, "name": "af0a6ca63de9c5121b9b29322c5c2e44", "lat": 38.8793705, "is_reserved": 0, "fusion_lat": 0.0, "bike_id": "af0a6ca63de9c5121b9b29322c5c2e44", "type": "electric_scooter", "is_disabled": 0, "fusion_lon": 0.0}, {"rental_uris": {"android": "https://dc.lft.to/lastmile_qr_scan", "ios": "https://dc.lft.to/lastmile_qr_scan"}, "lon": -77.045838, "name": "ba2b0305712f7158d51c76f402ac3faf", "lat": 38.921487166666665, "is_reserved": 0, "fusion_lat": 0.0, "bike_id": "ba2b0305712f7158d51c76f402ac3faf", "type": "electric_scooter", "is_disabled": 0, "fusion_lon": 0.0}, {"rental_uris": {"android": "https://dc.lft.to/lastmile_qr_scan", "ios": "https://dc.lft.to/lastmile_qr_scan"}, "lon": -77.02411116666667, "name": "49ed5c17809f1e7d1fb5d365c73fac2c", "lat": 38.89223066666667, "is_reserved": 0, "fusion_lat": 0.0, "bike_id": "49ed5c17809f1e7d1fb5d365c73fac2c", "type": "electric_scooter", "is_disabled": 0, "fusion_lon": 0.0}, {"rental_uris": {"android": "https://dc.lft.to/lastmile_qr_scan", "ios": "https://dc.lft.to/lastmile_qr_scan"}, "lon": -77.03675233333334, "name": "03f74621121c2cca9c467b40228f8918", "lat": 38.9392235, "is_reserved": 0, "fusion_lat": 0.0, "bike_id": "03f74621121c2cca9c467b40228f8918", "type": "electric_scooter", "is_disabled": 0, "fusion_lon": 0.0}, {"rental_uris": {"android": "https://dc.lft.to/lastmile_qr_scan", "ios": "https://dc.lft.to/lastmile_qr_scan"}, "lon": -77.02282866666667, "name": "ba69ef6531b457b65dff37957d17810b", "lat": 38.92709333333333, "is_reserved": 0, "fusion_lat": 0.0, "bike_id": "ba69ef6531b457b65dff37957d17810b", "type": "electric_scooter", "is_disabled": 0, "fusion_lon": 0.0}, {"rental_uris": {"android": "https://dc.lft.to/lastmile_qr_scan", "ios": "https://dc.lft.to/lastmile_qr_scan"}, "lon": -77.043931, "name": "c366e76bfeada4f518e25981ef73fb62", "lat": 38.8972685, "is_reserved": 0, "fusion_lat": 0.0, "bike_id": "c366e76bfeada4f518e25981ef73fb62", "type": "electric_scooter", "is_disabled": 0, "fusion_lon": 0.0}, {"rental_uris": {"android": "https://dc.lft.to/lastmile_qr_scan", "ios": "https://dc.lft.to/lastmile_qr_scan"}, "lon": -77.0409075, "name": "b54c3c0e8c0c9c20be23da0127fe6805", "lat": 38.9148635, "is_reserved": 0, "fusion_lat": 0.0, "bike_id": "b54c3c0e8c0c9c20be23da0127fe6805", "type": "electric_scooter", "is_disabled": 0, "fusion_lon": 0.0}, {"rental_uris": {"android": "https://dc.lft.to/lastmile_qr_scan", "ios": "https://dc.lft.to/lastmile_qr_scan"}, "lon": -77.03639166666666, "name": "a283246048f222787a29a08a2cd84cf1", "lat": 38.9165345, "is_reserved": 0, "fusion_lat": 0.0, "bike_id": "a283246048f222787a29a08a2cd84cf1", "type": "electric_scooter", "is_disabled": 0, "fusion_lon": 0.0}, {"rental_uris": {"android": "https://dc.lft.to/lastmile_qr_scan", "ios": "https://dc.lft.to/lastmile_qr_scan"}, "lon": -77.010211, "name": "1c3ffaf8be97bb10324d8af66ff4d9a6", "lat": 38.908524, "is_reserved": 0, "fusion_lat": 0.0, "bike_id": "1c3ffaf8be97bb10324d8af66ff4d9a6", "type": "electric_scooter", "is_disabled": 0, "fusion_lon": 0.0}, {"rental_uris": {"android": "https://dc.lft.to/lastmile_qr_scan", "ios": "https://dc.lft.to/lastmile_qr_scan"}, "lon": -77.02405516666667, "name": "a9d58898f63c70aafcbcc87ebef98fcf", "lat": 38.896870166666666, "is_reserved": 0, "fusion_lat": 0.0, "bike_id": "a9d58898f63c70aafcbcc87ebef98fcf", "type": "electric_bike", "is_disabled": 0, "fusion_lon": 0.0}, {"rental_uris": {"android": "https://dc.lft.to/lastmile_qr_scan", "ios": "https://dc.lft.to/lastmile_qr_scan"}, "lon": -77.0251265, "name": "4004f859a8c0479bd99571221fa0b984", "lat": 38.9181315, "is_reserved": 0, "fusion_lat": 0.0, "bike_id": "4004f859a8c0479bd99571221fa0b984", "type": "electric_scooter", "is_disabled": 0, "fusion_lon": 0.0}, {"rental_uris": {"android": "https://dc.lft.to/lastmile_qr_scan", "ios": "https://dc.lft.to/lastmile_qr_scan"}, "lon": -77.01628983333333, "name": "f6407d2c955265145452acb215093928", "lat": 38.90377933333333, "is_reserved": 0, "fusion_lat": 0.0, "bike_id": "f6407d2c955265145452acb215093928", "type": "electric_scooter", "is_disabled": 0, "fusion_lon": 0.0}, {"rental_uris": {"android": "https://dc.lft.to/lastmile_qr_scan", "ios": "https://dc.lft.to/lastmile_qr_scan"}, "lon": -77.024213, "name": "7ac350637acf7fe20d1d99fa41378bee", "lat": 38.920391, "is_reserved": 0, "fusion_lat": 0.0, "bike_id": "7ac350637acf7fe20d1d99fa41378bee", "type": "electric_scooter", "is_disabled": 0, "fusion_lon": 0.0}, {"rental_uris": {"android": "https://dc.lft.to/lastmile_qr_scan", "ios": "https://dc.lft.to/lastmile_qr_scan"}, "lon": -76.90413166666667, "name": "94dab8f82894986465350fb8a4a1dfc7", "lat": 38.94054166666667, "is_reserved": 0, "fusion_lat": 0.0, "bike_id": "94dab8f82894986465350fb8a4a1dfc7", "type": "electric_bike", "is_disabled": 0, "fusion_lon": 0.0}, {"rental_uris": {"android": "https://dc.lft.to/lastmile_qr_scan", "ios": "https://dc.lft.to/lastmile_qr_scan"}, "lon": -77.038202, "name": "c3dafc50803d46cea7c756074f8f80e9", "lat": 38.903055333333334, "is_reserved": 0, "fusion_lat": 0.0, "bike_id": "c3dafc50803d46cea7c756074f8f80e9", "type": "electric_scooter", "is_disabled": 0, "fusion_lon": 0.0}, {"rental_uris": {"android": "https://dc.lft.to/lastmile_qr_scan", "ios": "https://dc.lft.to/lastmile_qr_scan"}, "lon": -77.039576, "name": "c4486151a40aa8a747a18f8ee4a3be99", "lat": 38.892447, "is_reserved": 0, "fusion_lat": 0.0, "bike_id": "c4486151a40aa8a747a18f8ee4a3be99", "type": "electric_scooter", "is_disabled": 0, "fusion_lon": 0.0}, {"rental_uris": {"android": "https://dc.lft.to/lastmile_qr_scan", "ios": "https://dc.lft.to/lastmile_qr_scan"}, "lon": -77.0453125, "name": "0bf898bec42d6fbaad25b605ae58eeb4", "lat": 38.8947365, "is_reserved": 0, "fusion_lat": 0.0, "bike_id": "0bf898bec42d6fbaad25b605ae58eeb4", "type": "electric_scooter", "is_disabled": 0, "fusion_lon": 0.0}, {"rental_uris": {"android": "https://dc.lft.to/lastmile_qr_scan", "ios": "https://dc.lft.to/lastmile_qr_scan"}, "lon": -77.00757416666667, "name": "571a976eca9f8de8794707745ff5e1cb", "lat": 38.87115633333333, "is_reserved": 0, "fusion_lat": 0.0, "bike_id": "571a976eca9f8de8794707745ff5e1cb", "type": "electric_scooter", "is_disabled": 0, "fusion_lon": 0.0}, {"rental_uris": {"android": "https://dc.lft.to/lastmile_qr_scan", "ios": "https://dc.lft.to/lastmile_qr_scan"}, "lon": -77.02344166666667, "name": "ac4f5c8e64beb75354be8d2366b2f0ab", "lat": 38.92712783333333, "is_reserved": 0, "fusion_lat": 0.0, "bike_id": "ac4f5c8e64beb75354be8d2366b2f0ab", "type": "electric_scooter", "is_disabled": 0, "fusion_lon": 0.0}, {"rental_uris": {"android": "https://dc.lft.to/lastmile_qr_scan", "ios": "https://dc.lft.to/lastmile_qr_scan"}, "lon": -77.0327905, "name": "7895d3d6fd402aecc49cc0190f399a6e", "lat": 38.922614333333335, "is_reserved": 0, "fusion_lat": 0.0, "bike_id": "7895d3d6fd402aecc49cc0190f399a6e", "type": "electric_scooter", "is_disabled": 0, "fusion_lon": 0.0}, {"rental_uris": {"android": "https://dc.lft.to/lastmile_qr_scan", "ios": "https://dc.lft.to/lastmile_qr_scan"}, "lon": -77.03247866666666, "name": "4069c74743ad4cb9ee0aafb45ab0f404", "lat": 38.92729883333333, "is_reserved": 0, "fusion_lat": 0.0, "bike_id": "4069c74743ad4cb9ee0aafb45ab0f404", "type": "electric_scooter", "is_disabled": 0, "fusion_lon": 0.0}, {"rental_uris": {"android": "https://dc.lft.to/lastmile_qr_scan", "ios": "https://dc.lft.to/lastmile_qr_scan"}, "lon": -77.03348683333333, "name": "fa585cd84f254b0b2306a0ce2155d674", "lat": 38.9358645, "is_reserved": 0, "fusion_lat": 0.0, "bike_id": "fa585cd84f254b0b2306a0ce2155d674", "type": "electric_scooter", "is_disabled": 0, "fusion_lon": 0.0}, {"rental_uris": {"android": "https://dc.lft.to/lastmile_qr_scan", "ios": "https://dc.lft.to/lastmile_qr_scan"}, "lon": -77.0456975, "name": "edab955ed3778d1419af2bbde3372f0d", "lat": 38.908614666666665, "is_reserved": 0, "fusion_lat": 0.0, "bike_id": "edab955ed3778d1419af2bbde3372f0d", "type": "electric_scooter", "is_disabled": 0, "fusion_lon": 0.0}, {"rental_uris": {"android": "https://dc.lft.to/lastmile_qr_scan", "ios": "https://dc.lft.to/lastmile_qr_scan"}, "lon": -77.03832266666667, "name": "8742fc7cdd526de5cd40bba592a087e0", "lat": 38.90270833333334, "is_reserved": 0, "fusion_lat": 0.0, "bike_id": "8742fc7cdd526de5cd40bba592a087e0", "type": "electric_scooter", "is_disabled": 0, "fusion_lon": 0.0}, {"rental_uris": {"android": "https://dc.lft.to/lastmile_qr_scan", "ios": "https://dc.lft.to/lastmile_qr_scan"}, "lon": -77.04766433333333, "name": "fe14aa8230b2e9d821ea64b0c63f999c", "lat": 38.91755116666667, "is_reserved": 0, "fusion_lat": 0.0, "bike_id": "fe14aa8230b2e9d821ea64b0c63f999c", "type": "electric_scooter", "is_disabled": 0, "fusion_lon": 0.0}, {"rental_uris": {"android": "https://dc.lft.to/lastmile_qr_scan", "ios": "https://dc.lft.to/lastmile_qr_scan"}, "lon": -77.042993, "name": "8b293d104ad777a8823c5907e4703a16", "lat": 38.92331333333333, "is_reserved": 0, "fusion_lat": 0.0, "bike_id": "8b293d104ad777a8823c5907e4703a16", "type": "electric_scooter", "is_disabled": 0, "fusion_lon": 0.0}, {"rental_uris": {"android": "https://dc.lft.to/lastmile_qr_scan", "ios": "https://dc.lft.to/lastmile_qr_scan"}, "lon": -76.99618866666667, "name": "ed65a0243347611c46fe0e568d4abd55", "lat": 38.950778166666666, "is_reserved": 0, "fusion_lat": 0.0, "bike_id": "ed65a0243347611c46fe0e568d4abd55", "type": "electric_scooter", "is_disabled": 0, "fusion_lon": 0.0}, {"rental_uris": {"android": "https://dc.lft.to/lastmile_qr_scan", "ios": "https://dc.lft.to/lastmile_qr_scan"}, "lon": -77.05274983333334, "name": "ef4168751ae842da39ef6936938c9a77", "lat": 38.91009716666667, "is_reserved": 0, "fusion_lat": 0.0, "bike_id": "ef4168751ae842da39ef6936938c9a77", "type": "electric_scooter", "is_disabled": 0, "fusion_lon": 0.0}, {"rental_uris": {"android": "https://dc.lft.to/lastmile_qr_scan", "ios": "https://dc.lft.to/lastmile_qr_scan"}, "lon": -76.99278283333334, "name": "8710b1ca910716952250b8c6acc320a5", "lat": 38.972552666666665, "is_reserved": 0, "fusion_lat": 0.0, "bike_id": "8710b1ca910716952250b8c6acc320a5", "type": "electric_bike", "is_disabled": 0, "fusion_lon": 0.0}, {"rental_uris": {"android": "https://dc.lft.to/lastmile_qr_scan", "ios": "https://dc.lft.to/lastmile_qr_scan"}, "lon": -77.04350716666667, "name": "ccf8ae78b43c03af0206ac60abc76d95", "lat": 38.904216, "is_reserved": 0, "fusion_lat": 0.0, "bike_id": "ccf8ae78b43c03af0206ac60abc76d95", "type": "electric_scooter", "is_disabled": 0, "fusion_lon": 0.0}, {"rental_uris": {"android": "https://dc.lft.to/lastmile_qr_scan", "ios": "https://dc.lft.to/lastmile_qr_scan"}, "lon": -77.04465066666667, "name": "03fdeee378414de95235b5d8b033b0a9", "lat": 38.90256466666666, "is_reserved": 0, "fusion_lat": 0.0, "bike_id": "03fdeee378414de95235b5d8b033b0a9", "type": "electric_scooter", "is_disabled": 0, "fusion_lon": 0.0}, {"rental_uris": {"android": "https://dc.lft.to/lastmile_qr_scan", "ios": "https://dc.lft.to/lastmile_qr_scan"}, "lon": -77.03381233333333, "name": "4e58f1fc3e4e9de74f753fc875181d57", "lat": 38.925387666666666, "is_reserved": 0, "fusion_lat": 0.0, "bike_id": "4e58f1fc3e4e9de74f753fc875181d57", "type": "electric_scooter", "is_disabled": 0, "fusion_lon": 0.0}, {"rental_uris": {"android": "https://dc.lft.to/lastmile_qr_scan", "ios": "https://dc.lft.to/lastmile_qr_scan"}, "lon": -77.05341516666667, "name": "6079a53ad3bc46318b690671be2e49e9", "lat": 39.040815, "is_reserved": 0, "fusion_lat": 0.0, "bike_id": "6079a53ad3bc46318b690671be2e49e9", "type": "electric_bike", "is_disabled": 0, "fusion_lon": 0.0}, {"rental_uris": {"android": "https://dc.lft.to/lastmile_qr_scan", "ios": "https://dc.lft.to/lastmile_qr_scan"}, "lon": -77.0862935, "name": "87d1bf6f01c1a55d855b23032c44650a", "lat": 38.88070533333333, "is_reserved": 0, "fusion_lat": 0.0, "bike_id": "87d1bf6f01c1a55d855b23032c44650a", "type": "electric_bike", "is_disabled": 0, "fusion_lon": 0.0}, {"rental_uris": {"android": "https://dc.lft.to/lastmile_qr_scan", "ios": "https://dc.lft.to/lastmile_qr_scan"}, "lon": -77.02296683333333, "name": "cd1972ef80cc802958891804c443e81a", "lat": 38.920843, "is_reserved": 0, "fusion_lat": 0.0, "bike_id": "cd1972ef80cc802958891804c443e81a", "type": "electric_scooter", "is_disabled": 0, "fusion_lon": 0.0}, {"rental_uris": {"android": "https://dc.lft.to/lastmile_qr_scan", "ios": "https://dc.lft.to/lastmile_qr_scan"}, "lon": -77.02415866666666, "name": "dd41008a31ac5c2ea86f54f54199a696", "lat": 38.912137666666666, "is_reserved": 0, "fusion_lat": 0.0, "bike_id": "dd41008a31ac5c2ea86f54f54199a696", "type": "electric_scooter", "is_disabled": 0, "fusion_lon": 0.0}, {"rental_uris": {"android": "https://dc.lft.to/lastmile_qr_scan", "ios": "https://dc.lft.to/lastmile_qr_scan"}, "lon": -77.0434485, "name": "e971df182c31ae041a508bfc4b31ede8", "lat": 38.904194333333336, "is_reserved": 0, "fusion_lat": 0.0, "bike_id": "e971df182c31ae041a508bfc4b31ede8", "type": "electric_scooter", "is_disabled": 0, "fusion_lon": 0.0}, {"rental_uris": {"android": "https://dc.lft.to/lastmile_qr_scan", "ios": "https://dc.lft.to/lastmile_qr_scan"}, "lon": -77.03885333333334, "name": "b843e341be26a99d74b1081154be661c", "lat": 38.922588, "is_reserved": 0, "fusion_lat": 0.0, "bike_id": "b843e341be26a99d74b1081154be661c", "type": "electric_scooter", "is_disabled": 0, "fusion_lon": 0.0}, {"rental_uris": {"android": "https://dc.lft.to/lastmile_qr_scan", "ios": "https://dc.lft.to/lastmile_qr_scan"}, "lon": -77.0366405, "name": "a52e68138c1fe9e47ab6aa894fce8e78", "lat": 38.91006, "is_reserved": 0, "fusion_lat": 0.0, "bike_id": "a52e68138c1fe9e47ab6aa894fce8e78", "type": "electric_scooter", "is_disabled": 0, "fusion_lon": 0.0}, {"rental_uris": {"android": "https://dc.lft.to/lastmile_qr_scan", "ios": "https://dc.lft.to/lastmile_qr_scan"}, "lon": -76.97056616666667, "name": "1c29bfe9f7bb2b7620b8597d58743f38", "lat": 38.98460516666667, "is_reserved": 0, "fusion_lat": 0.0, "bike_id": "1c29bfe9f7bb2b7620b8597d58743f38", "type": "electric_bike", "is_disabled": 0, "fusion_lon": 0.0}, {"rental_uris": {"android": "https://dc.lft.to/lastmile_qr_scan", "ios": "https://dc.lft.to/lastmile_qr_scan"}, "lon": -77.00225483333334, "name": "061e11c632a96aac0f1ea49a026f54ad", "lat": 38.908673666666665, "is_reserved": 0, "fusion_lat": 0.0, "bike_id": "061e11c632a96aac0f1ea49a026f54ad", "type": "electric_scooter", "is_disabled": 0, "fusion_lon": 0.0}, {"rental_uris": {"android": "https://dc.lft.to/lastmile_qr_scan", "ios": "https://dc.lft.to/lastmile_qr_scan"}, "lon": -76.98627633333334, "name": "b1d4196cb7ecee48788189cef22a754d", "lat": 38.932885666666664, "is_reserved": 0, "fusion_lat": 0.0, "bike_id": "b1d4196cb7ecee48788189cef22a754d", "type": "electric_scooter", "is_disabled": 0, "fusion_lon": 0.0}, {"rental_uris": {"android": "https://dc.lft.to/lastmile_qr_scan", "ios": "https://dc.lft.to/lastmile_qr_scan"}, "lon": -76.965532, "name": "745ecff533d5209ffcf7a40840d7c31a", "lat": 38.918488833333335, "is_reserved": 0, "fusion_lat": 0.0, "bike_id": "745ecff533d5209ffcf7a40840d7c31a", "type": "electric_scooter", "is_disabled": 0, "fusion_lon": 0.0}, {"rental_uris": {"android": "https://dc.lft.to/lastmile_qr_scan", "ios": "https://dc.lft.to/lastmile_qr_scan"}, "lon": -77.02381016666666, "name": "7d710cfa449e8b2a37af41c55e3fc2a8", "lat": 38.9197075, "is_reserved": 0, "fusion_lat": 0.0, "bike_id": "7d710cfa449e8b2a37af41c55e3fc2a8", "type": "electric_scooter", "is_disabled": 0, "fusion_lon": 0.0}, {"rental_uris": {"android": "https://dc.lft.to/lastmile_qr_scan", "ios": "https://dc.lft.to/lastmile_qr_scan"}, "lon": -77.03226883333333, "name": "cbbe26d57be1af0143a2d59fca6403bf", "lat": 38.910415, "is_reserved": 0, "fusion_lat": 0.0, "bike_id": "cbbe26d57be1af0143a2d59fca6403bf", "type": "electric_scooter", "is_disabled": 0, "fusion_lon": 0.0}, {"rental_uris": {"android": "https://dc.lft.to/lastmile_qr_scan", "ios": "https://dc.lft.to/lastmile_qr_scan"}, "lon": -76.999003, "name": "848753bd9ab5d9e2d39b001756e24f86", "lat": 38.90956083333333, "is_reserved": 0, "fusion_lat": 0.0, "bike_id": "848753bd9ab5d9e2d39b001756e24f86", "type": "electric_bike", "is_disabled": 0, "fusion_lon": 0.0}, {"rental_uris": {"android": "https://dc.lft.to/lastmile_qr_scan", "ios": "https://dc.lft.to/lastmile_qr_scan"}, "lon": -77.012385, "name": "be4bfbe2f11b88ec5b928b4c4ba4e85d", "lat": 38.8721115, "is_reserved": 0, "fusion_lat": 0.0, "bike_id": "be4bfbe2f11b88ec5b928b4c4ba4e85d", "type": "electric_scooter", "is_disabled": 0, "fusion_lon": 0.0}, {"rental_uris": {"android": "https://dc.lft.to/lastmile_qr_scan", "ios": "https://dc.lft.to/lastmile_qr_scan"}, "lon": -76.91600516666666, "name": "ba5d596b2e99ed53cc45b01d67d8c271", "lat": 38.87980366666667, "is_reserved": 0, "fusion_lat": 0.0, "bike_id": "ba5d596b2e99ed53cc45b01d67d8c271", "type": "electric_bike", "is_disabled": 0, "fusion_lon": 0.0}, {"rental_uris": {"android": "https://dc.lft.to/lastmile_qr_scan", "ios": "https://dc.lft.to/lastmile_qr_scan"}, "lon": -77.05602983333333, "name": "10b83452f798e5b22248e27726b831ce", "lat": 38.93701883333333, "is_reserved": 0, "fusion_lat": 0.0, "bike_id": "10b83452f798e5b22248e27726b831ce", "type": "electric_scooter", "is_disabled": 0, "fusion_lon": 0.0}, {"rental_uris": {"android": "https://dc.lft.to/lastmile_qr_scan", "ios": "https://dc.lft.to/lastmile_qr_scan"}, "lon": -77.03186616666666, "name": "c1a7aeb26f0836f7cfe724de11f35558", "lat": 38.91349983333333, "is_reserved": 0, "fusion_lat": 0.0, "bike_id": "c1a7aeb26f0836f7cfe724de11f35558", "type": "electric_scooter", "is_disabled": 0, "fusion_lon": 0.0}, {"rental_uris": {"android": "https://dc.lft.to/lastmile_qr_scan", "ios": "https://dc.lft.to/lastmile_qr_scan"}, "lon": -77.00254366666667, "name": "28ffe2f53e464dc13102efc8ec5b324a", "lat": 38.894904, "is_reserved": 0, "fusion_lat": 0.0, "bike_id": "28ffe2f53e464dc13102efc8ec5b324a", "type": "electric_scooter", "is_disabled": 0, "fusion_lon": 0.0}, {"rental_uris": {"android": "https://dc.lft.to/lastmile_qr_scan", "ios": "https://dc.lft.to/lastmile_qr_scan"}, "lon": -77.046228, "name": "38578b4911429930ca57977270b83942", "lat": 38.89736516666667, "is_reserved": 0, "fusion_lat": 0.0, "bike_id": "38578b4911429930ca57977270b83942", "type": "electric_scooter", "is_disabled": 0, "fusion_lon": 0.0}, {"rental_uris": {"android": "https://dc.lft.to/lastmile_qr_scan", "ios": "https://dc.lft.to/lastmile_qr_scan"}, "lon": -77.02172433333334, "name": "d5343af7d7753778f3b3f087508c0ff2", "lat": 38.91995466666667, "is_reserved": 0, "fusion_lat": 0.0, "bike_id": "d5343af7d7753778f3b3f087508c0ff2", "type": "electric_scooter", "is_disabled": 0, "fusion_lon": 0.0}, {"rental_uris": {"android": "https://dc.lft.to/lastmile_qr_scan", "ios": "https://dc.lft.to/lastmile_qr_scan"}, "lon": -77.0326105, "name": "4abf84353893e488075aa81fcf3eb4eb", "lat": 38.93984283333333, "is_reserved": 0, "fusion_lat": 0.0, "bike_id": "4abf84353893e488075aa81fcf3eb4eb", "type": "electric_scooter", "is_disabled": 0, "fusion_lon": 0.0}, {"rental_uris": {"android": "https://dc.lft.to/lastmile_qr_scan", "ios": "https://dc.lft.to/lastmile_qr_scan"}, "lon": -77.019758, "name": "32594196047be68a271eaeade7951d2f", "lat": 38.96381483333333, "is_reserved": 0, "fusion_lat": 0.0, "bike_id": "32594196047be68a271eaeade7951d2f", "type": "electric_bike", "is_disabled": 0, "fusion_lon": 0.0}, {"rental_uris": {"android": "https://dc.lft.to/lastmile_qr_scan", "ios": "https://dc.lft.to/lastmile_qr_scan"}, "lon": -77.0161965, "name": "3398763929733730820eec7896ab9d3d", "lat": 38.956447833333335, "is_reserved": 0, "fusion_lat": 0.0, "bike_id": "3398763929733730820eec7896ab9d3d", "type": "electric_scooter", "is_disabled": 0, "fusion_lon": 0.0}, {"rental_uris": {"android": "https://dc.lft.to/lastmile_qr_scan", "ios": "https://dc.lft.to/lastmile_qr_scan"}, "lon": -77.0205015, "name": "c5032390b5ed96633fed93936b243591", "lat": 38.915561, "is_reserved": 0, "fusion_lat": 0.0, "bike_id": "c5032390b5ed96633fed93936b243591", "type": "electric_scooter", "is_disabled": 0, "fusion_lon": 0.0}, {"rental_uris": {"android": "https://dc.lft.to/lastmile_qr_scan", "ios": "https://dc.lft.to/lastmile_qr_scan"}, "lon": -76.97667166666666, "name": "418c17b8dfc33779c019d7537608c006", "lat": 38.84052466666667, "is_reserved": 0, "fusion_lat": 0.0, "bike_id": "418c17b8dfc33779c019d7537608c006", "type": "electric_scooter", "is_disabled": 0, "fusion_lon": 0.0}, {"rental_uris": {"android": "https://dc.lft.to/lastmile_qr_scan", "ios": "https://dc.lft.to/lastmile_qr_scan"}, "lon": -77.0141485, "name": "ff516277c3ee514fd9c210b0028beed6", "lat": 38.92815383333333, "is_reserved": 0, "fusion_lat": 0.0, "bike_id": "ff516277c3ee514fd9c210b0028beed6", "type": "electric_scooter", "is_disabled": 0, "fusion_lon": 0.0}, {"rental_uris": {"android": "https://dc.lft.to/lastmile_qr_scan", "ios": "https://dc.lft.to/lastmile_qr_scan"}, "lon": -77.03968716666667, "name": "2185a5636e331bc39ae276d47b35c690", "lat": 38.9198015, "is_reserved": 0, "fusion_lat": 0.0, "bike_id": "2185a5636e331bc39ae276d47b35c690", "type": "electric_scooter", "is_disabled": 0, "fusion_lon": 0.0}, {"rental_uris": {"android": "https://dc.lft.to/lastmile_qr_scan", "ios": "https://dc.lft.to/lastmile_qr_scan"}, "lon": -77.00529133333333, "name": "cfcb83e18ebf9f6248811c3241d7e8d3", "lat": 38.846429666666666, "is_reserved": 0, "fusion_lat": 0.0, "bike_id": "cfcb83e18ebf9f6248811c3241d7e8d3", "type": "electric_scooter", "is_disabled": 0, "fusion_lon": 0.0}, {"rental_uris": {"android": "https://dc.lft.to/lastmile_qr_scan", "ios": "https://dc.lft.to/lastmile_qr_scan"}, "lon": -76.93180883333333, "name": "f98359c2863b8672179e634c62141969", "lat": 38.89831366666667, "is_reserved": 0, "fusion_lat": 0.0, "bike_id": "f98359c2863b8672179e634c62141969", "type": "electric_scooter", "is_disabled": 0, "fusion_lon": 0.0}, {"rental_uris": {"android": "https://dc.lft.to/lastmile_qr_scan", "ios": "https://dc.lft.to/lastmile_qr_scan"}, "lon": -77.041408, "name": "27cedbfc784e78b8feb67595b634a878", "lat": 38.904006833333334, "is_reserved": 0, "fusion_lat": 0.0, "bike_id": "27cedbfc784e78b8feb67595b634a878", "type": "electric_scooter", "is_disabled": 0, "fusion_lon": 0.0}, {"rental_uris": {"android": "https://dc.lft.to/lastmile_qr_scan", "ios": "https://dc.lft.to/lastmile_qr_scan"}, "lon": -76.97853933333333, "name": "d98201fdb46f93e16f5cadbbd20f9164", "lat": 38.84470533333333, "is_reserved": 0, "fusion_lat": 0.0, "bike_id": "d98201fdb46f93e16f5cadbbd20f9164", "type": "electric_bike", "is_disabled": 0, "fusion_lon": 0.0}, {"rental_uris": {"android": "https://dc.lft.to/lastmile_qr_scan", "ios": "https://dc.lft.to/lastmile_qr_scan"}, "lon": -77.01103766666667, "name": "a26259924c9d600ea381c5e937c0b6ea", "lat": 38.90722983333333, "is_reserved": 0, "fusion_lat": 0.0, "bike_id": "a26259924c9d600ea381c5e937c0b6ea", "type": "electric_scooter", "is_disabled": 0, "fusion_lon": 0.0}, {"rental_uris": {"android": "https://dc.lft.to/lastmile_qr_scan", "ios": "https://dc.lft.to/lastmile_qr_scan"}, "lon": -77.04460666666667, "name": "bb0abbc02102c21d90592b4c4046c012", "lat": 38.90235033333333, "is_reserved": 0, "fusion_lat": 0.0, "bike_id": "bb0abbc02102c21d90592b4c4046c012", "type": "electric_scooter", "is_disabled": 0, "fusion_lon": 0.0}, {"rental_uris": {"android": "https://dc.lft.to/lastmile_qr_scan", "ios": "https://dc.lft.to/lastmile_qr_scan"}, "lon": -77.03158633333334, "name": "dd1b82311e5d93e7c6b4b9f95b758a83", "lat": 38.89538733333333, "is_reserved": 0, "fusion_lat": 0.0, "bike_id": "dd1b82311e5d93e7c6b4b9f95b758a83", "type": "electric_scooter", "is_disabled": 0, "fusion_lon": 0.0}, {"rental_uris": {"android": "https://dc.lft.to/lastmile_qr_scan", "ios": "https://dc.lft.to/lastmile_qr_scan"}, "lon": -76.96681283333334, "name": "b79a81a5bb49165c345aeba3d3f4cc57", "lat": 38.855984166666666, "is_reserved": 0, "fusion_lat": 0.0, "bike_id": "b79a81a5bb49165c345aeba3d3f4cc57", "type": "electric_scooter", "is_disabled": 0, "fusion_lon": 0.0}, {"rental_uris": {"android": "https://dc.lft.to/lastmile_qr_scan", "ios": "https://dc.lft.to/lastmile_qr_scan"}, "lon": -77.02294583333334, "name": "3200b3b670e14571754babbc2899f271", "lat": 38.897078666666665, "is_reserved": 0, "fusion_lat": 0.0, "bike_id": "3200b3b670e14571754babbc2899f271", "type": "electric_scooter", "is_disabled": 0, "fusion_lon": 0.0}, {"rental_uris": {"android": "https://dc.lft.to/lastmile_qr_scan", "ios": "https://dc.lft.to/lastmile_qr_scan"}, "lon": -77.05022683333334, "name": "6e21d5d33f52a393a46b771b6553e455", "lat": 38.923688, "is_reserved": 0, "fusion_lat": 0.0, "bike_id": "6e21d5d33f52a393a46b771b6553e455", "type": "electric_scooter", "is_disabled": 0, "fusion_lon": 0.0}, {"rental_uris": {"android": "https://dc.lft.to/lastmile_qr_scan", "ios": "https://dc.lft.to/lastmile_qr_scan"}, "lon": -77.0178885, "name": "112407cbd58bd6354719e1bb542a9c84", "lat": 38.9204195, "is_reserved": 0, "fusion_lat": 0.0, "bike_id": "112407cbd58bd6354719e1bb542a9c84", "type": "electric_scooter", "is_disabled": 0, "fusion_lon": 0.0}, {"rental_uris": {"android": "https://dc.lft.to/lastmile_qr_scan", "ios": "https://dc.lft.to/lastmile_qr_scan"}, "lon": -77.02721583333333, "name": "1f34f127464725310991087a70eca1e8", "lat": 38.92572583333333, "is_reserved": 0, "fusion_lat": 0.0, "bike_id": "1f34f127464725310991087a70eca1e8", "type": "electric_scooter", "is_disabled": 0, "fusion_lon": 0.0}, {"rental_uris": {"android": "https://dc.lft.to/lastmile_qr_scan", "ios": "https://dc.lft.to/lastmile_qr_scan"}, "lon": -77.017629, "name": "271bb47e7bbb0dc4fcc9384c467c172c", "lat": 38.90252516666666, "is_reserved": 0, "fusion_lat": 0.0, "bike_id": "271bb47e7bbb0dc4fcc9384c467c172c", "type": "electric_scooter", "is_disabled": 0, "fusion_lon": 0.0}, {"rental_uris": {"android": "https://dc.lft.to/lastmile_qr_scan", "ios": "https://dc.lft.to/lastmile_qr_scan"}, "lon": -77.03246016666667, "name": "470cc9771dcb617dc91045d233982660", "lat": 38.92803116666666, "is_reserved": 0, "fusion_lat": 0.0, "bike_id": "470cc9771dcb617dc91045d233982660", "type": "electric_bike", "is_disabled": 0, "fusion_lon": 0.0}, {"rental_uris": {"android": "https://dc.lft.to/lastmile_qr_scan", "ios": "https://dc.lft.to/lastmile_qr_scan"}, "lon": -76.99959933333334, "name": "6307a4162860a1d2151298eff9cd0a09", "lat": 38.908454666666664, "is_reserved": 0, "fusion_lat": 0.0, "bike_id": "6307a4162860a1d2151298eff9cd0a09", "type": "electric_scooter", "is_disabled": 0, "fusion_lon": 0.0}, {"rental_uris": {"android": "https://dc.lft.to/lastmile_qr_scan", "ios": "https://dc.lft.to/lastmile_qr_scan"}, "lon": -77.04596266666667, "name": "1cc9ba7406985d09f080cda56a50ac13", "lat": 38.914563333333334, "is_reserved": 0, "fusion_lat": 0.0, "bike_id": "1cc9ba7406985d09f080cda56a50ac13", "type": "electric_scooter", "is_disabled": 0, "fusion_lon": 0.0}, {"rental_uris": {"android": "https://dc.lft.to/lastmile_qr_scan", "ios": "https://dc.lft.to/lastmile_qr_scan"}, "lon": -77.013422, "name": "d6d67ed2780a2d42e60ac4b4e9139f9e", "lat": 38.926416333333336, "is_reserved": 0, "fusion_lat": 0.0, "bike_id": "d6d67ed2780a2d42e60ac4b4e9139f9e", "type": "electric_scooter", "is_disabled": 0, "fusion_lon": 0.0}, {"rental_uris": {"android": "https://dc.lft.to/lastmile_qr_scan", "ios": "https://dc.lft.to/lastmile_qr_scan"}, "lon": -77.02091083333333, "name": "7f39b9c546ecbed170be82468197dab1", "lat": 38.8849185, "is_reserved": 0, "fusion_lat": 0.0, "bike_id": "7f39b9c546ecbed170be82468197dab1", "type": "electric_scooter", "is_disabled": 0, "fusion_lon": 0.0}, {"rental_uris": {"android": "https://dc.lft.to/lastmile_qr_scan", "ios": "https://dc.lft.to/lastmile_qr_scan"}, "lon": -77.02279983333334, "name": "2fc7b14c10f367b2ef763c18b142567f", "lat": 38.9125815, "is_reserved": 0, "fusion_lat": 0.0, "bike_id": "2fc7b14c10f367b2ef763c18b142567f", "type": "electric_scooter", "is_disabled": 0, "fusion_lon": 0.0}, {"rental_uris": {"android": "https://dc.lft.to/lastmile_qr_scan", "ios": "https://dc.lft.to/lastmile_qr_scan"}, "lon": -77.02211183333333, "name": "a5dfcb886c66c96528c83b1131e6b9ec", "lat": 38.896310166666666, "is_reserved": 0, "fusion_lat": 0.0, "bike_id": "a5dfcb886c66c96528c83b1131e6b9ec", "type": "electric_scooter", "is_disabled": 0, "fusion_lon": 0.0}, {"rental_uris": {"android": "https://dc.lft.to/lastmile_qr_scan", "ios": "https://dc.lft.to/lastmile_qr_scan"}, "lon": -76.98890383333334, "name": "0382fdd8438556f64c7a1424f41681fe", "lat": 38.866658, "is_reserved": 0, "fusion_lat": 0.0, "bike_id": "0382fdd8438556f64c7a1424f41681fe", "type": "electric_scooter", "is_disabled": 0, "fusion_lon": 0.0}, {"rental_uris": {"android": "https://dc.lft.to/lastmile_qr_scan", "ios": "https://dc.lft.to/lastmile_qr_scan"}, "lon": -77.0110945, "name": "0c15ce8d1e73e14d063659f769ba2989", "lat": 38.90783733333333, "is_reserved": 0, "fusion_lat": 0.0, "bike_id": "0c15ce8d1e73e14d063659f769ba2989", "type": "electric_scooter", "is_disabled": 0, "fusion_lon": 0.0}, {"rental_uris": {"android": "https://dc.lft.to/lastmile_qr_scan", "ios": "https://dc.lft.to/lastmile_qr_scan"}, "lon": -77.02119683333333, "name": "f2c195136dec80855d1e1da4b92cf186", "lat": 38.8874205, "is_reserved": 0, "fusion_lat": 0.0, "bike_id": "f2c195136dec80855d1e1da4b92cf186", "type": "electric_scooter", "is_disabled": 0, "fusion_lon": 0.0}, {"rental_uris": {"android": "https://dc.lft.to/lastmile_qr_scan", "ios": "https://dc.lft.to/lastmile_qr_scan"}, "lon": -77.07072433333333, "name": "aec5667488ca61a6620e2f2a6faa98da", "lat": 38.9145955, "is_reserved": 0, "fusion_lat": 0.0, "bike_id": "aec5667488ca61a6620e2f2a6faa98da", "type": "electric_scooter", "is_disabled": 0, "fusion_lon": 0.0}, {"rental_uris": {"android": "https://dc.lft.to/lastmile_qr_scan", "ios": "https://dc.lft.to/lastmile_qr_scan"}, "lon": -77.00396666666667, "name": "c44ccce8656d7a7d65c2764ec138a142", "lat": 38.905745333333336, "is_reserved": 0, "fusion_lat": 0.0, "bike_id": "c44ccce8656d7a7d65c2764ec138a142", "type": "electric_scooter", "is_disabled": 0, "fusion_lon": 0.0}, {"rental_uris": {"android": "https://dc.lft.to/lastmile_qr_scan", "ios": "https://dc.lft.to/lastmile_qr_scan"}, "lon": -77.03472016666667, "name": "71f83c4f0f7bf2a9bea4acd539222ed8", "lat": 38.92065083333333, "is_reserved": 0, "fusion_lat": 0.0, "bike_id": "71f83c4f0f7bf2a9bea4acd539222ed8", "type": "electric_scooter", "is_disabled": 0, "fusion_lon": 0.0}, {"rental_uris": {"android": "https://dc.lft.to/lastmile_qr_scan", "ios": "https://dc.lft.to/lastmile_qr_scan"}, "lon": -76.95419133333333, "name": "f9f1f8d52482a297e263c4056d05c23f", "lat": 38.88403666666667, "is_reserved": 0, "fusion_lat": 0.0, "bike_id": "f9f1f8d52482a297e263c4056d05c23f", "type": "electric_bike", "is_disabled": 0, "fusion_lon": 0.0}, {"rental_uris": {"android": "https://dc.lft.to/lastmile_qr_scan", "ios": "https://dc.lft.to/lastmile_qr_scan"}, "lon": -77.022055, "name": "c571560f468faf58c03d1e06dcb006a9", "lat": 38.892309833333336, "is_reserved": 0, "fusion_lat": 0.0, "bike_id": "c571560f468faf58c03d1e06dcb006a9", "type": "electric_scooter", "is_disabled": 0, "fusion_lon": 0.0}, {"rental_uris": {"android": "https://dc.lft.to/lastmile_qr_scan", "ios": "https://dc.lft.to/lastmile_qr_scan"}, "lon": -77.0414705, "name": "9c66fff3f9f5d5c3c98d32eb275627c0", "lat": 38.901102, "is_reserved": 0, "fusion_lat": 0.0, "bike_id": "9c66fff3f9f5d5c3c98d32eb275627c0", "type": "electric_scooter", "is_disabled": 0, "fusion_lon": 0.0}, {"rental_uris": {"android": "https://dc.lft.to/lastmile_qr_scan", "ios": "https://dc.lft.to/lastmile_qr_scan"}, "lon": -77.03885683333333, "name": "fb5ef58795dfc3618436d1beb9662494", "lat": 38.93276683333333, "is_reserved": 0, "fusion_lat": 0.0, "bike_id": "fb5ef58795dfc3618436d1beb9662494", "type": "electric_scooter", "is_disabled": 0, "fusion_lon": 0.0}, {"rental_uris": {"android": "https://dc.lft.to/lastmile_qr_scan", "ios": "https://dc.lft.to/lastmile_qr_scan"}, "lon": -77.02194016666667, "name": "063a01d608bc8d25df0fb228474e9db4", "lat": 38.9306605, "is_reserved": 0, "fusion_lat": 0.0, "bike_id": "063a01d608bc8d25df0fb228474e9db4", "type": "electric_scooter", "is_disabled": 0, "fusion_lon": 0.0}, {"rental_uris": {"android": "https://dc.lft.to/lastmile_qr_scan", "ios": "https://dc.lft.to/lastmile_qr_scan"}, "lon": -77.0726265, "name": "9148466e50e9d4afbb801cf7642909ea", "lat": 38.90902066666666, "is_reserved": 0, "fusion_lat": 0.0, "bike_id": "9148466e50e9d4afbb801cf7642909ea", "type": "electric_scooter", "is_disabled": 0, "fusion_lon": 0.0}, {"rental_uris": {"android": "https://dc.lft.to/lastmile_qr_scan", "ios": "https://dc.lft.to/lastmile_qr_scan"}, "lon": -77.03563966666667, "name": "ecf353c8693956c53e5316af9db19942", "lat": 38.9012365, "is_reserved": 0, "fusion_lat": 0.0, "bike_id": "ecf353c8693956c53e5316af9db19942", "type": "electric_scooter", "is_disabled": 0, "fusion_lon": 0.0}, {"rental_uris": {"android": "https://dc.lft.to/lastmile_qr_scan", "ios": "https://dc.lft.to/lastmile_qr_scan"}, "lon": -77.02181116666667, "name": "b0f301c92b9af5ec0d0988705351ef57", "lat": 38.90967233333333, "is_reserved": 0, "fusion_lat": 0.0, "bike_id": "b0f301c92b9af5ec0d0988705351ef57", "type": "electric_scooter", "is_disabled": 0, "fusion_lon": 0.0}, {"rental_uris": {"android": "https://dc.lft.to/lastmile_qr_scan", "ios": "https://dc.lft.to/lastmile_qr_scan"}, "lon": -77.0713995, "name": "8885030db3f9d08995fd69b0e81166aa", "lat": 38.930045666666665, "is_reserved": 0, "fusion_lat": 0.0, "bike_id": "8885030db3f9d08995fd69b0e81166aa", "type": "electric_bike", "is_disabled": 0, "fusion_lon": 0.0}, {"rental_uris": {"android": "https://dc.lft.to/lastmile_qr_scan", "ios": "https://dc.lft.to/lastmile_qr_scan"}, "lon": -77.0474005, "name": "164dcbfdfc281bba5fe14e2016255440", "lat": 38.8972205, "is_reserved": 0, "fusion_lat": 0.0, "bike_id": "164dcbfdfc281bba5fe14e2016255440", "type": "electric_scooter", "is_disabled": 0, "fusion_lon": 0.0}, {"rental_uris": {"android": "https://dc.lft.to/lastmile_qr_scan", "ios": "https://dc.lft.to/lastmile_qr_scan"}, "lon": -77.08020416666666, "name": "eecc39d73917ce4632c9a70d2f9c2afe", "lat": 38.94793966666667, "is_reserved": 0, "fusion_lat": 0.0, "bike_id": "eecc39d73917ce4632c9a70d2f9c2afe", "type": "electric_scooter", "is_disabled": 0, "fusion_lon": 0.0}, {"rental_uris": {"android": "https://dc.lft.to/lastmile_qr_scan", "ios": "https://dc.lft.to/lastmile_qr_scan"}, "lon": -77.0388665, "name": "97b0e58fec14bd05efb40ac0b59f74b9", "lat": 38.9184595, "is_reserved": 0, "fusion_lat": 0.0, "bike_id": "97b0e58fec14bd05efb40ac0b59f74b9", "type": "electric_scooter", "is_disabled": 0, "fusion_lon": 0.0}, {"rental_uris": {"android": "https://dc.lft.to/lastmile_qr_scan", "ios": "https://dc.lft.to/lastmile_qr_scan"}, "lon": -77.0092915, "name": "83ce67678ab72c975901e2fc7559547c", "lat": 38.90744483333334, "is_reserved": 0, "fusion_lat": 0.0, "bike_id": "83ce67678ab72c975901e2fc7559547c", "type": "electric_scooter", "is_disabled": 0, "fusion_lon": 0.0}, {"rental_uris": {"android": "https://dc.lft.to/lastmile_qr_scan", "ios": "https://dc.lft.to/lastmile_qr_scan"}, "lon": -77.03700133333334, "name": "43f8e36e02c9f2b73daadc9f3955852c", "lat": 38.918101666666665, "is_reserved": 0, "fusion_lat": 0.0, "bike_id": "43f8e36e02c9f2b73daadc9f3955852c", "type": "electric_scooter", "is_disabled": 0, "fusion_lon": 0.0}, {"rental_uris": {"android": "https://dc.lft.to/lastmile_qr_scan", "ios": "https://dc.lft.to/lastmile_qr_scan"}, "lon": -77.02107533333333, "name": "91c3794b45cc6b43c49280f4e969d7e5", "lat": 38.9215065, "is_reserved": 0, "fusion_lat": 0.0, "bike_id": "91c3794b45cc6b43c49280f4e969d7e5", "type": "electric_scooter", "is_disabled": 0, "fusion_lon": 0.0}, {"rental_uris": {"android": "https://dc.lft.to/lastmile_qr_scan", "ios": "https://dc.lft.to/lastmile_qr_scan"}, "lon": -76.99726983333333, "name": "ad327dd79d4325a94913367ad404d8ed", "lat": 38.89939483333333, "is_reserved": 0, "fusion_lat": 0.0, "bike_id": "ad327dd79d4325a94913367ad404d8ed", "type": "electric_scooter", "is_disabled": 0, "fusion_lon": 0.0}, {"rental_uris": {"android": "https://dc.lft.to/lastmile_qr_scan", "ios": "https://dc.lft.to/lastmile_qr_scan"}, "lon": -77.02519766666667, "name": "dcbd4776f034dc2a0bf013dfc49a85da", "lat": 38.9248945, "is_reserved": 0, "fusion_lat": 0.0, "bike_id": "dcbd4776f034dc2a0bf013dfc49a85da", "type": "electric_scooter", "is_disabled": 0, "fusion_lon": 0.0}, {"rental_uris": {"android": "https://dc.lft.to/lastmile_qr_scan", "ios": "https://dc.lft.to/lastmile_qr_scan"}, "lon": -77.08156633333333, "name": "13d8ec399274cba0935ce295315de0e3", "lat": 38.9348395, "is_reserved": 0, "fusion_lat": 0.0, "bike_id": "13d8ec399274cba0935ce295315de0e3", "type": "electric_scooter", "is_disabled": 0, "fusion_lon": 0.0}, {"rental_uris": {"android": "https://dc.lft.to/lastmile_qr_scan", "ios": "https://dc.lft.to/lastmile_qr_scan"}, "lon": -76.9913, "name": "8db7630b95588077e82d677f955399ff", "lat": 38.84639933333333, "is_reserved": 0, "fusion_lat": 0.0, "bike_id": "8db7630b95588077e82d677f955399ff", "type": "electric_scooter", "is_disabled": 0, "fusion_lon": 0.0}, {"rental_uris": {"android": "https://dc.lft.to/lastmile_qr_scan", "ios": "https://dc.lft.to/lastmile_qr_scan"}, "lon": -77.02375466666666, "name": "247d9e1a4fd252490463e00ebb103b1d", "lat": 38.91990116666667, "is_reserved": 0, "fusion_lat": 0.0, "bike_id": "247d9e1a4fd252490463e00ebb103b1d", "type": "electric_scooter", "is_disabled": 0, "fusion_lon": 0.0}, {"rental_uris": {"android": "https://dc.lft.to/lastmile_qr_scan", "ios": "https://dc.lft.to/lastmile_qr_scan"}, "lon": -77.02555266666667, "name": "8975c54675ffc8f8e6d44f625f62d72c", "lat": 38.941653, "is_reserved": 0, "fusion_lat": 0.0, "bike_id": "8975c54675ffc8f8e6d44f625f62d72c", "type": "electric_scooter", "is_disabled": 0, "fusion_lon": 0.0}, {"rental_uris": {"android": "https://dc.lft.to/lastmile_qr_scan", "ios": "https://dc.lft.to/lastmile_qr_scan"}, "lon": -76.98544066666666, "name": "b3a6a623a5a080933852d312e3e6c9fc", "lat": 38.86689716666667, "is_reserved": 0, "fusion_lat": 0.0, "bike_id": "b3a6a623a5a080933852d312e3e6c9fc", "type": "electric_scooter", "is_disabled": 0, "fusion_lon": 0.0}, {"rental_uris": {"android": "https://dc.lft.to/lastmile_qr_scan", "ios": "https://dc.lft.to/lastmile_qr_scan"}, "lon": -77.02642666666667, "name": "1fa84959d2412253d9d88b8b2eab175c", "lat": 38.8810385, "is_reserved": 0, "fusion_lat": 0.0, "bike_id": "1fa84959d2412253d9d88b8b2eab175c", "type": "electric_scooter", "is_disabled": 0, "fusion_lon": 0.0}, {"rental_uris": {"android": "https://dc.lft.to/lastmile_qr_scan", "ios": "https://dc.lft.to/lastmile_qr_scan"}, "lon": -76.946328, "name": "db4a9c45d08dde5d651f83f2b93a8861", "lat": 38.8982905, "is_reserved": 0, "fusion_lat": 0.0, "bike_id": "db4a9c45d08dde5d651f83f2b93a8861", "type": "electric_scooter", "is_disabled": 0, "fusion_lon": 0.0}, {"rental_uris": {"android": "https://dc.lft.to/lastmile_qr_scan", "ios": "https://dc.lft.to/lastmile_qr_scan"}, "lon": -77.02495983333333, "name": "49dfa8198953a89d2e114e10c5d08d79", "lat": 38.90723633333333, "is_reserved": 0, "fusion_lat": 0.0, "bike_id": "49dfa8198953a89d2e114e10c5d08d79", "type": "electric_scooter", "is_disabled": 0, "fusion_lon": 0.0}, {"rental_uris": {"android": "https://dc.lft.to/lastmile_qr_scan", "ios": "https://dc.lft.to/lastmile_qr_scan"}, "lon": -77.01651416666667, "name": "d05dd2c7d9891eb9ba8d0673a5651cce", "lat": 38.88116933333333, "is_reserved": 0, "fusion_lat": 0.0, "bike_id": "d05dd2c7d9891eb9ba8d0673a5651cce", "type": "electric_scooter", "is_disabled": 0, "fusion_lon": 0.0}, {"rental_uris": {"android": "https://dc.lft.to/lastmile_qr_scan", "ios": "https://dc.lft.to/lastmile_qr_scan"}, "lon": -77.03128533333333, "name": "5b0810fdec846816207ffd8ebd053383", "lat": 38.929672833333335, "is_reserved": 0, "fusion_lat": 0.0, "bike_id": "5b0810fdec846816207ffd8ebd053383", "type": "electric_scooter", "is_disabled": 0, "fusion_lon": 0.0}, {"rental_uris": {"android": "https://dc.lft.to/lastmile_qr_scan", "ios": "https://dc.lft.to/lastmile_qr_scan"}, "lon": -77.030921, "name": "ad5a017f0e2ef32cb060826ea2eeae1b", "lat": 38.935404166666665, "is_reserved": 0, "fusion_lat": 0.0, "bike_id": "ad5a017f0e2ef32cb060826ea2eeae1b", "type": "electric_scooter", "is_disabled": 0, "fusion_lon": 0.0}, {"rental_uris": {"android": "https://dc.lft.to/lastmile_qr_scan", "ios": "https://dc.lft.to/lastmile_qr_scan"}, "lon": -76.99767816666666, "name": "d4c3a5e2caaaeec599680201e5efb127", "lat": 38.90890683333333, "is_reserved": 0, "fusion_lat": 0.0, "bike_id": "d4c3a5e2caaaeec599680201e5efb127", "type": "electric_scooter", "is_disabled": 0, "fusion_lon": 0.0}, {"rental_uris": {"android": "https://dc.lft.to/lastmile_qr_scan", "ios": "https://dc.lft.to/lastmile_qr_scan"}, "lon": -77.01915466666667, "name": "cb7bdb10b32aff374e30d4615db0f2ef", "lat": 38.937717166666665, "is_reserved": 0, "fusion_lat": 0.0, "bike_id": "cb7bdb10b32aff374e30d4615db0f2ef", "type": "electric_bike", "is_disabled": 0, "fusion_lon": 0.0}, {"rental_uris": {"android": "https://dc.lft.to/lastmile_qr_scan", "ios": "https://dc.lft.to/lastmile_qr_scan"}, "lon": -77.044634, "name": "5396595acca8f8302393173ea2f08608", "lat": 38.902387, "is_reserved": 0, "fusion_lat": 0.0, "bike_id": "5396595acca8f8302393173ea2f08608", "type": "electric_scooter", "is_disabled": 0, "fusion_lon": 0.0}, {"rental_uris": {"android": "https://dc.lft.to/lastmile_qr_scan", "ios": "https://dc.lft.to/lastmile_qr_scan"}, "lon": -76.995158, "name": "ea8ed43f4991df43e26c8187090ef012", "lat": 38.82175083333333, "is_reserved": 0, "fusion_lat": 0.0, "bike_id": "ea8ed43f4991df43e26c8187090ef012", "type": "electric_bike", "is_disabled": 0, "fusion_lon": 0.0}, {"rental_uris": {"android": "https://dc.lft.to/lastmile_qr_scan", "ios": "https://dc.lft.to/lastmile_qr_scan"}, "lon": -77.03208633333334, "name": "2f7e9087fe6ec4e29b89e9479b4af0dd", "lat": 38.92140466666667, "is_reserved": 0, "fusion_lat": 0.0, "bike_id": "2f7e9087fe6ec4e29b89e9479b4af0dd", "type": "electric_scooter", "is_disabled": 0, "fusion_lon": 0.0}, {"rental_uris": {"android": "https://dc.lft.to/lastmile_qr_scan", "ios": "https://dc.lft.to/lastmile_qr_scan"}, "lon": -77.107874, "name": "3d926516aed634b2632e0504190aac8f", "lat": 38.852514, "is_reserved": 0, "fusion_lat": 0.0, "bike_id": "3d926516aed634b2632e0504190aac8f", "type": "electric_bike", "is_disabled": 0, "fusion_lon": 0.0}, {"rental_uris": {"android": "https://dc.lft.to/lastmile_qr_scan", "ios": "https://dc.lft.to/lastmile_qr_scan"}, "lon": -77.01962733333333, "name": "a7694ace9209a8d4d2d47c9b03ba7397", "lat": 38.89256016666667, "is_reserved": 0, "fusion_lat": 0.0, "bike_id": "a7694ace9209a8d4d2d47c9b03ba7397", "type": "electric_scooter", "is_disabled": 0, "fusion_lon": 0.0}, {"rental_uris": {"android": "https://dc.lft.to/lastmile_qr_scan", "ios": "https://dc.lft.to/lastmile_qr_scan"}, "lon": -76.99549316666666, "name": "ef4515a6d5e46b62ece71e784fe53395", "lat": 38.90020466666667, "is_reserved": 0, "fusion_lat": 0.0, "bike_id": "ef4515a6d5e46b62ece71e784fe53395", "type": "electric_scooter", "is_disabled": 0, "fusion_lon": 0.0}, {"rental_uris": {"android": "https://dc.lft.to/lastmile_qr_scan", "ios": "https://dc.lft.to/lastmile_qr_scan"}, "lon": -77.024253, "name": "8960a021a376663816fbad8b5397abe6", "lat": 38.92655, "is_reserved": 0, "fusion_lat": 0.0, "bike_id": "8960a021a376663816fbad8b5397abe6", "type": "electric_scooter", "is_disabled": 0, "fusion_lon": 0.0}, {"rental_uris": {"android": "https://dc.lft.to/lastmile_qr_scan", "ios": "https://dc.lft.to/lastmile_qr_scan"}, "lon": -77.00016966666666, "name": "cf181a801855821c37abf056da89f74d", "lat": 38.90245483333333, "is_reserved": 0, "fusion_lat": 0.0, "bike_id": "cf181a801855821c37abf056da89f74d", "type": "electric_scooter", "is_disabled": 0, "fusion_lon": 0.0}, {"rental_uris": {"android": "https://dc.lft.to/lastmile_qr_scan", "ios": "https://dc.lft.to/lastmile_qr_scan"}, "lon": -77.02374583333334, "name": "3707399742af9f2fe54f1de80f964743", "lat": 38.907262333333335, "is_reserved": 0, "fusion_lat": 0.0, "bike_id": "3707399742af9f2fe54f1de80f964743", "type": "electric_scooter", "is_disabled": 0, "fusion_lon": 0.0}, {"rental_uris": {"android": "https://dc.lft.to/lastmile_qr_scan", "ios": "https://dc.lft.to/lastmile_qr_scan"}, "lon": -77.02698433333333, "name": "d1f7deff07d132ad4aa5ac30a5a8a9ee", "lat": 38.89436283333333, "is_reserved": 0, "fusion_lat": 0.0, "bike_id": "d1f7deff07d132ad4aa5ac30a5a8a9ee", "type": "electric_scooter", "is_disabled": 0, "fusion_lon": 0.0}, {"rental_uris": {"android": "https://dc.lft.to/lastmile_qr_scan", "ios": "https://dc.lft.to/lastmile_qr_scan"}, "lon": -77.006429, "name": "fde56830bcd5f9a266e5648f71453f0c", "lat": 38.89997116666667, "is_reserved": 0, "fusion_lat": 0.0, "bike_id": "fde56830bcd5f9a266e5648f71453f0c", "type": "electric_scooter", "is_disabled": 0, "fusion_lon": 0.0}, {"rental_uris": {"android": "https://dc.lft.to/lastmile_qr_scan", "ios": "https://dc.lft.to/lastmile_qr_scan"}, "lon": -77.02239883333333, "name": "cf7b775affe7ce410ce94b18c29d8c07", "lat": 38.9085875, "is_reserved": 0, "fusion_lat": 0.0, "bike_id": "cf7b775affe7ce410ce94b18c29d8c07", "type": "electric_scooter", "is_disabled": 0, "fusion_lon": 0.0}, {"rental_uris": {"android": "https://dc.lft.to/lastmile_qr_scan", "ios": "https://dc.lft.to/lastmile_qr_scan"}, "lon": -77.04736666666666, "name": "d132826f5669fdf702ac4166f55e4e3e", "lat": 38.89722183333333, "is_reserved": 0, "fusion_lat": 0.0, "bike_id": "d132826f5669fdf702ac4166f55e4e3e", "type": "electric_scooter", "is_disabled": 0, "fusion_lon": 0.0}, {"rental_uris": {"android": "https://dc.lft.to/lastmile_qr_scan", "ios": "https://dc.lft.to/lastmile_qr_scan"}, "lon": -77.00451516666666, "name": "3809570d62773d6ab0bc4ccda50da2f0", "lat": 38.9123965, "is_reserved": 0, "fusion_lat": 0.0, "bike_id": "3809570d62773d6ab0bc4ccda50da2f0", "type": "electric_scooter", "is_disabled": 0, "fusion_lon": 0.0}, {"rental_uris": {"android": "https://dc.lft.to/lastmile_qr_scan", "ios": "https://dc.lft.to/lastmile_qr_scan"}, "lon": -77.03843566666667, "name": "b10996138e4b501edfc95b53429f8f87", "lat": 38.926509833333334, "is_reserved": 0, "fusion_lat": 0.0, "bike_id": "b10996138e4b501edfc95b53429f8f87", "type": "electric_scooter", "is_disabled": 0, "fusion_lon": 0.0}, {"rental_uris": {"android": "https://dc.lft.to/lastmile_qr_scan", "ios": "https://dc.lft.to/lastmile_qr_scan"}, "lon": -77.00198, "name": "60800d14b6f2c5e231ff084741c9ce49", "lat": 38.9003945, "is_reserved": 0, "fusion_lat": 0.0, "bike_id": "60800d14b6f2c5e231ff084741c9ce49", "type": "electric_scooter", "is_disabled": 0, "fusion_lon": 0.0}, {"rental_uris": {"android": "https://dc.lft.to/lastmile_qr_scan", "ios": "https://dc.lft.to/lastmile_qr_scan"}, "lon": -76.98360916666667, "name": "b35df6a4d831a1726c9cbd3a01389ee2", "lat": 38.894369833333336, "is_reserved": 0, "fusion_lat": 0.0, "bike_id": "b35df6a4d831a1726c9cbd3a01389ee2", "type": "electric_scooter", "is_disabled": 0, "fusion_lon": 0.0}, {"rental_uris": {"android": "https://dc.lft.to/lastmile_qr_scan", "ios": "https://dc.lft.to/lastmile_qr_scan"}, "lon": -77.03847683333333, "name": "d3dd72501c398850c43a86d765616b89", "lat": 38.9122035, "is_reserved": 0, "fusion_lat": 0.0, "bike_id": "d3dd72501c398850c43a86d765616b89", "type": "electric_scooter", "is_disabled": 0, "fusion_lon": 0.0}, {"rental_uris": {"android": "https://dc.lft.to/lastmile_qr_scan", "ios": "https://dc.lft.to/lastmile_qr_scan"}, "lon": -77.04437616666667, "name": "6c1aba1b5497eeeb1fb0d378eeb30a78", "lat": 38.92228333333333, "is_reserved": 0, "fusion_lat": 0.0, "bike_id": "6c1aba1b5497eeeb1fb0d378eeb30a78", "type": "electric_scooter", "is_disabled": 0, "fusion_lon": 0.0}, {"rental_uris": {"android": "https://dc.lft.to/lastmile_qr_scan", "ios": "https://dc.lft.to/lastmile_qr_scan"}, "lon": -77.02240783333333, "name": "098df09f9bdfbd23ca3ceb2696455adc", "lat": 38.981078333333336, "is_reserved": 0, "fusion_lat": 0.0, "bike_id": "098df09f9bdfbd23ca3ceb2696455adc", "type": "electric_scooter", "is_disabled": 0, "fusion_lon": 0.0}, {"rental_uris": {"android": "https://dc.lft.to/lastmile_qr_scan", "ios": "https://dc.lft.to/lastmile_qr_scan"}, "lon": -77.02844283333333, "name": "71a7fa752a86c293dcfd55279132d674", "lat": 38.8937275, "is_reserved": 0, "fusion_lat": 0.0, "bike_id": "71a7fa752a86c293dcfd55279132d674", "type": "electric_scooter", "is_disabled": 0, "fusion_lon": 0.0}, {"rental_uris": {"android": "https://dc.lft.to/lastmile_qr_scan", "ios": "https://dc.lft.to/lastmile_qr_scan"}, "lon": -77.0996285, "name": "42442211c1eabac0d05a827d1bf40db3", "lat": 38.857891333333335, "is_reserved": 0, "fusion_lat": 0.0, "bike_id": "42442211c1eabac0d05a827d1bf40db3", "type": "electric_bike", "is_disabled": 0, "fusion_lon": 0.0}, {"rental_uris": {"android": "https://dc.lft.to/lastmile_qr_scan", "ios": "https://dc.lft.to/lastmile_qr_scan"}, "lon": -77.05389783333334, "name": "06011b3bf6b22d85d4797276b13ef982", "lat": 38.91067316666667, "is_reserved": 0, "fusion_lat": 0.0, "bike_id": "06011b3bf6b22d85d4797276b13ef982", "type": "electric_scooter", "is_disabled": 0, "fusion_lon": 0.0}, {"rental_uris": {"android": "https://dc.lft.to/lastmile_qr_scan", "ios": "https://dc.lft.to/lastmile_qr_scan"}, "lon": -77.02179766666667, "name": "87db33c191d8e208a3d8ed1f62c7a320", "lat": 38.8929815, "is_reserved": 0, "fusion_lat": 0.0, "bike_id": "87db33c191d8e208a3d8ed1f62c7a320", "type": "electric_scooter", "is_disabled": 0, "fusion_lon": 0.0}, {"rental_uris": {"android": "https://dc.lft.to/lastmile_qr_scan", "ios": "https://dc.lft.to/lastmile_qr_scan"}, "lon": -76.9966965, "name": "82a0ad2462b881aeac3d84420024a292", "lat": 38.81612883333333, "is_reserved": 0, "fusion_lat": 0.0, "bike_id": "82a0ad2462b881aeac3d84420024a292", "type": "electric_bike", "is_disabled": 0, "fusion_lon": 0.0}, {"rental_uris": {"android": "https://dc.lft.to/lastmile_qr_scan", "ios": "https://dc.lft.to/lastmile_qr_scan"}, "lon": -76.97237116666666, "name": "9a561a0a734f5a410429935dce7f4bac", "lat": 38.904282333333335, "is_reserved": 0, "fusion_lat": 0.0, "bike_id": "9a561a0a734f5a410429935dce7f4bac", "type": "electric_bike", "is_disabled": 0, "fusion_lon": 0.0}, {"rental_uris": {"android": "https://dc.lft.to/lastmile_qr_scan", "ios": "https://dc.lft.to/lastmile_qr_scan"}, "lon": -76.9876755, "name": "509d19d0029f0b1d7f8dc91b49b28878", "lat": 38.900295666666665, "is_reserved": 0, "fusion_lat": 0.0, "bike_id": "509d19d0029f0b1d7f8dc91b49b28878", "type": "electric_scooter", "is_disabled": 0, "fusion_lon": 0.0}, {"rental_uris": {"android": "https://dc.lft.to/lastmile_qr_scan", "ios": "https://dc.lft.to/lastmile_qr_scan"}, "lon": -77.03257533333333, "name": "192e1fcda7c91d1750632ad1bd887801", "lat": 38.9141935, "is_reserved": 0, "fusion_lat": 0.0, "bike_id": "192e1fcda7c91d1750632ad1bd887801", "type": "electric_scooter", "is_disabled": 0, "fusion_lon": 0.0}, {"rental_uris": {"android": "https://dc.lft.to/lastmile_qr_scan", "ios": "https://dc.lft.to/lastmile_qr_scan"}, "lon": -77.02481616666667, "name": "896901d19c61844077140710b7debc1a", "lat": 38.9193035, "is_reserved": 0, "fusion_lat": 0.0, "bike_id": "896901d19c61844077140710b7debc1a", "type": "electric_scooter", "is_disabled": 0, "fusion_lon": 0.0}, {"rental_uris": {"android": "https://dc.lft.to/lastmile_qr_scan", "ios": "https://dc.lft.to/lastmile_qr_scan"}, "lon": -76.9583895, "name": "a7d0f318e0c220a65943c2ebdc8e0731", "lat": 38.9304775, "is_reserved": 0, "fusion_lat": 0.0, "bike_id": "a7d0f318e0c220a65943c2ebdc8e0731", "type": "electric_bike", "is_disabled": 0, "fusion_lon": 0.0}, {"rental_uris": {"android": "https://dc.lft.to/lastmile_qr_scan", "ios": "https://dc.lft.to/lastmile_qr_scan"}, "lon": -77.044991, "name": "0c7de32994a32ed3561af41a01738eb8", "lat": 39.01416183333333, "is_reserved": 0, "fusion_lat": 0.0, "bike_id": "0c7de32994a32ed3561af41a01738eb8", "type": "electric_bike", "is_disabled": 0, "fusion_lon": 0.0}, {"rental_uris": {"android": "https://dc.lft.to/lastmile_qr_scan", "ios": "https://dc.lft.to/lastmile_qr_scan"}, "lon": -77.02743583333333, "name": "e8b11cd88b855d54fb878abbd940e2de", "lat": 38.89988266666667, "is_reserved": 0, "fusion_lat": 0.0, "bike_id": "e8b11cd88b855d54fb878abbd940e2de", "type": "electric_scooter", "is_disabled": 0, "fusion_lon": 0.0}, {"rental_uris": {"android": "https://dc.lft.to/lastmile_qr_scan", "ios": "https://dc.lft.to/lastmile_qr_scan"}, "lon": -77.02532066666667, "name": "9ef95ae8e0d423aeb58ff9bfefd43d91", "lat": 38.9206285, "is_reserved": 0, "fusion_lat": 0.0, "bike_id": "9ef95ae8e0d423aeb58ff9bfefd43d91", "type": "electric_scooter", "is_disabled": 0, "fusion_lon": 0.0}, {"rental_uris": {"android": "https://dc.lft.to/lastmile_qr_scan", "ios": "https://dc.lft.to/lastmile_qr_scan"}, "lon": -77.027179, "name": "ebdf4a3bce2a84754d3e4986c48980f8", "lat": 38.926685166666665, "is_reserved": 0, "fusion_lat": 0.0, "bike_id": "ebdf4a3bce2a84754d3e4986c48980f8", "type": "electric_scooter", "is_disabled": 0, "fusion_lon": 0.0}, {"rental_uris": {"android": "https://dc.lft.to/lastmile_qr_scan", "ios": "https://dc.lft.to/lastmile_qr_scan"}, "lon": -77.01847016666666, "name": "01a17d3a1c9c006eade4a6e2336f9919", "lat": 38.930999166666666, "is_reserved": 0, "fusion_lat": 0.0, "bike_id": "01a17d3a1c9c006eade4a6e2336f9919", "type": "electric_bike", "is_disabled": 0, "fusion_lon": 0.0}, {"rental_uris": {"android": "https://dc.lft.to/lastmile_qr_scan", "ios": "https://dc.lft.to/lastmile_qr_scan"}, "lon": -77.04738783333333, "name": "3c1029ff88ce47153ffe554f1d894460", "lat": 38.90861183333333, "is_reserved": 0, "fusion_lat": 0.0, "bike_id": "3c1029ff88ce47153ffe554f1d894460", "type": "electric_scooter", "is_disabled": 0, "fusion_lon": 0.0}, {"rental_uris": {"android": "https://dc.lft.to/lastmile_qr_scan", "ios": "https://dc.lft.to/lastmile_qr_scan"}, "lon": -77.03833916666666, "name": "ab8ff8e4e85a360b02679ae76f9434bd", "lat": 38.94193416666667, "is_reserved": 0, "fusion_lat": 0.0, "bike_id": "ab8ff8e4e85a360b02679ae76f9434bd", "type": "electric_scooter", "is_disabled": 0, "fusion_lon": 0.0}, {"rental_uris": {"android": "https://dc.lft.to/lastmile_qr_scan", "ios": "https://dc.lft.to/lastmile_qr_scan"}, "lon": -77.02833883333334, "name": "8cae9e13e84ad6ab8bce8be5791a365f", "lat": 38.893758, "is_reserved": 0, "fusion_lat": 0.0, "bike_id": "8cae9e13e84ad6ab8bce8be5791a365f", "type": "electric_scooter", "is_disabled": 0, "fusion_lon": 0.0}, {"rental_uris": {"android": "https://dc.lft.to/lastmile_qr_scan", "ios": "https://dc.lft.to/lastmile_qr_scan"}, "lon": -77.008177, "name": "5d711f240125f38c341a132c2859304a", "lat": 38.90261666666667, "is_reserved": 0, "fusion_lat": 0.0, "bike_id": "5d711f240125f38c341a132c2859304a", "type": "electric_scooter", "is_disabled": 0, "fusion_lon": 0.0}, {"rental_uris": {"android": "https://dc.lft.to/lastmile_qr_scan", "ios": "https://dc.lft.to/lastmile_qr_scan"}, "lon": -77.04703816666667, "name": "70dc54140f2e78883bfd777c439fd670", "lat": 38.92188316666667, "is_reserved": 0, "fusion_lat": 0.0, "bike_id": "70dc54140f2e78883bfd777c439fd670", "type": "electric_scooter", "is_disabled": 0, "fusion_lon": 0.0}, {"rental_uris": {"android": "https://dc.lft.to/lastmile_qr_scan", "ios": "https://dc.lft.to/lastmile_qr_scan"}, "lon": -77.03650066666667, "name": "a902794482d5fc11fbb95b57d2cd207f", "lat": 38.922678, "is_reserved": 0, "fusion_lat": 0.0, "bike_id": "a902794482d5fc11fbb95b57d2cd207f", "type": "electric_scooter", "is_disabled": 0, "fusion_lon": 0.0}, {"rental_uris": {"android": "https://dc.lft.to/lastmile_qr_scan", "ios": "https://dc.lft.to/lastmile_qr_scan"}, "lon": -77.0450245, "name": "d58e79a6721651ec27c88cf7f3059181", "lat": 38.91597066666667, "is_reserved": 0, "fusion_lat": 0.0, "bike_id": "d58e79a6721651ec27c88cf7f3059181", "type": "electric_scooter", "is_disabled": 0, "fusion_lon": 0.0}, {"rental_uris": {"android": "https://dc.lft.to/lastmile_qr_scan", "ios": "https://dc.lft.to/lastmile_qr_scan"}, "lon": -77.02207166666666, "name": "377f023cd927a264c39ebdad26a17aa0", "lat": 38.905725833333335, "is_reserved": 0, "fusion_lat": 0.0, "bike_id": "377f023cd927a264c39ebdad26a17aa0", "type": "electric_scooter", "is_disabled": 0, "fusion_lon": 0.0}, {"rental_uris": {"android": "https://dc.lft.to/lastmile_qr_scan", "ios": "https://dc.lft.to/lastmile_qr_scan"}, "lon": -77.02747083333334, "name": "242e7f9bbdadcc2f560cb93cfa030fc9", "lat": 38.9028315, "is_reserved": 0, "fusion_lat": 0.0, "bike_id": "242e7f9bbdadcc2f560cb93cfa030fc9", "type": "electric_scooter", "is_disabled": 0, "fusion_lon": 0.0}, {"rental_uris": {"android": "https://dc.lft.to/lastmile_qr_scan", "ios": "https://dc.lft.to/lastmile_qr_scan"}, "lon": -77.02708733333333, "name": "2230e8f2d4b837fb65a8531c7c9aa85e", "lat": 38.92638083333333, "is_reserved": 0, "fusion_lat": 0.0, "bike_id": "2230e8f2d4b837fb65a8531c7c9aa85e", "type": "electric_scooter", "is_disabled": 0, "fusion_lon": 0.0}, {"rental_uris": {"android": "https://dc.lft.to/lastmile_qr_scan", "ios": "https://dc.lft.to/lastmile_qr_scan"}, "lon": -77.00042766666667, "name": "fe57b1beae101c2fb7ca8fee4b521257", "lat": 38.874462333333334, "is_reserved": 0, "fusion_lat": 0.0, "bike_id": "fe57b1beae101c2fb7ca8fee4b521257", "type": "electric_scooter", "is_disabled": 0, "fusion_lon": 0.0}, {"rental_uris": {"android": "https://dc.lft.to/lastmile_qr_scan", "ios": "https://dc.lft.to/lastmile_qr_scan"},