{"data": {"bikes": [{"lon": -77.03334716666667, "bike_id": "f6824ac09633c4cbfc0c36e2bc155d6a", "lat": 38.915586, "fusion_lon": 0.0, "fusion_lat": 0.0, "type": "electric_scooter", "name": "f6824ac09633c4cbfc0c36e2bc155d6a", "is_disabled": 0, "rental_uris": {"ios": "https://dc.lft.to/lastmile_qr_scan", "android": "https://dc.lft.to/lastmile_qr_scan"}, "is_reserved": 0}, {"lon": -77.041097, "bike_id": "d2da57d314731f0a85c4391671522d53", "lat": 38.9245505, "fusion_lon": 0.0, "fusion_lat": 0.0, "type": "electric_scooter", "name": "d2da57d314731f0a85c4391671522d53", "is_disabled": 0, "rental_uris": {"ios": "https://dc.lft.to/lastmile_qr_scan", "android": "https://dc.lft.to/lastmile_qr_scan"}, "is_reserved": 0}, {"lon": -77.02451133333334, "bike_id": "c8a2bdb775c6a5b7f9c45ee9d9df5ab0", "lat": 38.92344166666667, "fusion_lon": 0.0, "fusion_lat": 0.0, "type": "electric_scooter", "name": "c8a2bdb775c6a5b7f9c45ee9d9df5ab0", "is_disabled": 0, "rental_uris": {"ios": "https://dc.lft.to/lastmile_qr_scan", "android": "https://dc.lft.to/lastmile_qr_scan"}, "is_reserved": 0}, {"lon": -77.03669433333333, "bike_id": "05dd95767e9ebedbe9df3c3d2b2bc2c2", "lat": 38.922388166666664, "fusion_lon": 0.0, "fusion_lat": 0.0, "type": "electric_scooter", "name": "05dd95767e9ebedbe9df3c3d2b2bc2c2", "is_disabled": 0, "rental_uris": {"ios": "https://dc.lft.to/lastmile_qr_scan", "android": "https://dc.lft.to/lastmile_qr_scan"}, "is_reserved": 0}, {"lon": -77.03467933333333, "bike_id": "72bcc4e7c2382f6f1b4d9302bf77f43e", "lat": 38.90952733333334, "fusion_lon": 0.0, "fusion_lat": 0.0, "type": "electric_scooter", "name": "72bcc4e7c2382f6f1b4d9302bf77f43e", "is_disabled": 0, "rental_uris": {"ios": "https://dc.lft.to/lastmile_qr_scan", "android": "https://dc.lft.to/lastmile_qr_scan"}, "is_reserved": 0}, {"lon": -77.05062983333333, "bike_id": "4f74547bac46178104df184cf23103ae", "lat": 38.925785833333336, "fusion_lon": 0.0, "fusion_lat": 0.0, "type": "electric_scooter", "name": "4f74547bac46178104df184cf23103ae", "is_disabled": 0, "rental_uris": {"ios": "https://dc.lft.to/lastmile_qr_scan", "android": "https://dc.lft.to/lastmile_qr_scan"}, "is_reserved": 0}, {"lon": -76.98442766666666, "bike_id": "57fe2466ae8b4a5f42e4a69177c57c68", "lat": 38.91468033333334, "fusion_lon": 0.0, "fusion_lat": 0.0, "type": "electric_scooter", "name": "57fe2466ae8b4a5f42e4a69177c57c68", "is_disabled": 0, "rental_uris": {"ios": "https://dc.lft.to/lastmile_qr_scan", "android": "https://dc.lft.to/lastmile_qr_scan"}, "is_reserved": 0}, {"lon": -77.02522316666666, "bike_id": "3c78864c7d02b1d60a794c6e293480c4", "lat": 38.88047733333333, "fusion_lon": 0.0, "fusion_lat": 0.0, "type": "electric_scooter", "name": "3c78864c7d02b1d60a794c6e293480c4", "is_disabled": 0, "rental_uris": {"ios": "https://dc.lft.to/lastmile_qr_scan", "android": "https://dc.lft.to/lastmile_qr_scan"}, "is_reserved": 0}, {"lon": -76.98988616666666, "bike_id": "dc1cc47680cfc5e276111537d078f339", "lat": 38.9336085, "fusion_lon": 0.0, "fusion_lat": 0.0, "type": "electric_scooter", "name": "dc1cc47680cfc5e276111537d078f339", "is_disabled": 0, "rental_uris": {"ios": "https://dc.lft.to/lastmile_qr_scan", "android": "https://dc.lft.to/lastmile_qr_scan"}, "is_reserved": 0}, {"lon": -77.04266533333333, "bike_id": "ca9fd6143df5345bd07999b5c9a59da7", "lat": 38.92301966666667, "fusion_lon": 0.0, "fusion_lat": 0.0, "type": "electric_scooter", "name": "ca9fd6143df5345bd07999b5c9a59da7", "is_disabled": 0, "rental_uris": {"ios": "https://dc.lft.to/lastmile_qr_scan", "android": "https://dc.lft.to/lastmile_qr_scan"}, "is_reserved": 0}, {"lon": -77.02706066666667, "bike_id": "243a1fd6eae56f039054cbcaaf5b92a9", "lat": 38.91634, "fusion_lon": 0.0, "fusion_lat": 0.0, "type": "electric_scooter", "name": "243a1fd6eae56f039054cbcaaf5b92a9", "is_disabled": 0, "rental_uris": {"ios": "https://dc.lft.to/lastmile_qr_scan", "android": "https://dc.lft.to/lastmile_qr_scan"}, "is_reserved": 0}, {"lon": -76.99177083333333, "bike_id": "45515249998f4362f72eb1eec0b9477a", "lat": 38.889877, "fusion_lon": 0.0, "fusion_lat": 0.0, "type": "electric_scooter", "name": "45515249998f4362f72eb1eec0b9477a", "is_disabled": 0, "rental_uris": {"ios": "https://dc.lft.to/lastmile_qr_scan", "android": "https://dc.lft.to/lastmile_qr_scan"}, "is_reserved": 0}, {"lon": -77.02405416666667, "bike_id": "e56e8471eccab9df78f5d67f0555ef1c", "lat": 38.90676833333333, "fusion_lon": 0.0, "fusion_lat": 0.0, "type": "electric_scooter", "name": "e56e8471eccab9df78f5d67f0555ef1c", "is_disabled": 0, "rental_uris": {"ios": "https://dc.lft.to/lastmile_qr_scan", "android": "https://dc.lft.to/lastmile_qr_scan"}, "is_reserved": 0}, {"lon": -77.03857483333333, "bike_id": "287b21d8c1264dd10f977d145edcc95e", "lat": 38.9101695, "fusion_lon": 0.0, "fusion_lat": 0.0, "type": "electric_scooter", "name": "287b21d8c1264dd10f977d145edcc95e", "is_disabled": 0, "rental_uris": {"ios": "https://dc.lft.to/lastmile_qr_scan", "android": "https://dc.lft.to/lastmile_qr_scan"}, "is_reserved": 0}, {"lon": -77.010514, "bike_id": "079146c1512a6a8f45549bc9a725ab61", "lat": 38.96346483333333, "fusion_lon": 0.0, "fusion_lat": 0.0, "type": "electric_scooter", "name": "079146c1512a6a8f45549bc9a725ab61", "is_disabled": 0, "rental_uris": {"ios": "https://dc.lft.to/lastmile_qr_scan", "android": "https://dc.lft.to/lastmile_qr_scan"}, "is_reserved": 0}, {"lon": -77.00675116666666, "bike_id": "7dd1145550a7ee010bf6600f731f3c9c", "lat": 38.9002535, "fusion_lon": 0.0, "fusion_lat": 0.0, "type": "electric_scooter", "name": "7dd1145550a7ee010bf6600f731f3c9c", "is_disabled": 0, "rental_uris": {"ios": "https://dc.lft.to/lastmile_qr_scan", "android": "https://dc.lft.to/lastmile_qr_scan"}, "is_reserved": 0}, {"lon": -77.02027066666666, "bike_id": "20c73c06941c73ed9c4625e17d0b3f3b", "lat": 38.916557, "fusion_lon": 0.0, "fusion_lat": 0.0, "type": "electric_scooter", "name": "20c73c06941c73ed9c4625e17d0b3f3b", "is_disabled": 0, "rental_uris": {"ios": "https://dc.lft.to/lastmile_qr_scan", "android": "https://dc.lft.to/lastmile_qr_scan"}, "is_reserved": 0}, {"lon": -77.02136016666667, "bike_id": "5e9dd30c5a03082da2e0f64182c642e1", "lat": 38.91602733333333, "fusion_lon": 0.0, "fusion_lat": 0.0, "type": "electric_scooter", "name": "5e9dd30c5a03082da2e0f64182c642e1", "is_disabled": 0, "rental_uris": {"ios": "https://dc.lft.to/lastmile_qr_scan", "android": "https://dc.lft.to/lastmile_qr_scan"}, "is_reserved": 0}, {"lon": -77.02258383333333, "bike_id": "ce7e29679e7f257b9abffe316ec9c13f", "lat": 38.923364166666666, "fusion_lon": 0.0, "fusion_lat": 0.0, "type": "electric_scooter", "name": "ce7e29679e7f257b9abffe316ec9c13f", "is_disabled": 0, "rental_uris": {"ios": "https://dc.lft.to/lastmile_qr_scan", "android": "https://dc.lft.to/lastmile_qr_scan"}, "is_reserved": 0}, {"lon": -77.0318275, "bike_id": "20cca6c9576257e6979796191483a869", "lat": 38.91683716666667, "fusion_lon": 0.0, "fusion_lat": 0.0, "type": "electric_scooter", "name": "20cca6c9576257e6979796191483a869", "is_disabled": 0, "rental_uris": {"ios": "https://dc.lft.to/lastmile_qr_scan", "android": "https://dc.lft.to/lastmile_qr_scan"}, "is_reserved": 0}, {"lon": -77.11915116666667, "bike_id": "7f2b6a5e841c339db5470efc2526562e", "lat": 38.8763315, "fusion_lon": 0.0, "fusion_lat": 0.0, "type": "electric_bike", "name": "7f2b6a5e841c339db5470efc2526562e", "is_disabled": 0, "rental_uris": {"ios": "https://dc.lft.to/lastmile_qr_scan", "android": "https://dc.lft.to/lastmile_qr_scan"}, "is_reserved": 0}, {"lon": -77.04172333333334, "bike_id": "553a7a24c8cb94c57ac8ce66219a8cd8", "lat": 38.90454366666667, "fusion_lon": 0.0, "fusion_lat": 0.0, "type": "electric_scooter", "name": "553a7a24c8cb94c57ac8ce66219a8cd8", "is_disabled": 0, "rental_uris": {"ios": "https://dc.lft.to/lastmile_qr_scan", "android": "https://dc.lft.to/lastmile_qr_scan"}, "is_reserved": 0}, {"lon": -77.04291966666666, "bike_id": "4eaca8e2f44e6dfc25f0e387d85ca694", "lat": 38.922446, "fusion_lon": 0.0, "fusion_lat": 0.0, "type": "electric_scooter", "name": "4eaca8e2f44e6dfc25f0e387d85ca694", "is_disabled": 0, "rental_uris": {"ios": "https://dc.lft.to/lastmile_qr_scan", "android": "https://dc.lft.to/lastmile_qr_scan"}, "is_reserved": 0}, {"lon": -77.0293745, "bike_id": "0dbab8df8d10ddd6f0874ae9e5bf3a28", "lat": 38.9208055, "fusion_lon": 0.0, "fusion_lat": 0.0, "type": "electric_scooter", "name": "0dbab8df8d10ddd6f0874ae9e5bf3a28", "is_disabled": 0, "rental_uris": {"ios": "https://dc.lft.to/lastmile_qr_scan", "android": "https://dc.lft.to/lastmile_qr_scan"}, "is_reserved": 0}, {"lon": -77.059274, "bike_id": "75a5ac326dc194ab7addc9a758ff2bb5", "lat": 38.862422, "fusion_lon": 0.0, "fusion_lat": 0.0, "type": "electric_scooter", "name": "75a5ac326dc194ab7addc9a758ff2bb5", "is_disabled": 0, "rental_uris": {"ios": "https://dc.lft.to/lastmile_qr_scan", "android": "https://dc.lft.to/lastmile_qr_scan"}, "is_reserved": 0}, {"lon": -77.05230183333333, "bike_id": "8ef946c8659e7d39079e57ff816859a4", "lat": 38.92461466666666, "fusion_lon": 0.0, "fusion_lat": 0.0, "type": "electric_scooter", "name": "8ef946c8659e7d39079e57ff816859a4", "is_disabled": 0, "rental_uris": {"ios": "https://dc.lft.to/lastmile_qr_scan", "android": "https://dc.lft.to/lastmile_qr_scan"}, "is_reserved": 0}, {"lon": -77.00842566666667, "bike_id": "4f0052fdc2b5ca4a656d9b92959c8b2f", "lat": 38.916210166666666, "fusion_lon": 0.0, "fusion_lat": 0.0, "type": "electric_scooter", "name": "4f0052fdc2b5ca4a656d9b92959c8b2f", "is_disabled": 0, "rental_uris": {"ios": "https://dc.lft.to/lastmile_qr_scan", "android": "https://dc.lft.to/lastmile_qr_scan"}, "is_reserved": 0}, {"lon": -77.02988833333333, "bike_id": "6c3cfd331d3627a69d12b0c8b8076e81", "lat": 38.90280466666667, "fusion_lon": 0.0, "fusion_lat": 0.0, "type": "electric_scooter", "name": "6c3cfd331d3627a69d12b0c8b8076e81", "is_disabled": 0, "rental_uris": {"ios": "https://dc.lft.to/lastmile_qr_scan", "android": "https://dc.lft.to/lastmile_qr_scan"}, "is_reserved": 0}, {"lon": -77.00203883333333, "bike_id": "94a6f7241fcd33ec4c5562b84d03002d", "lat": 38.902399333333335, "fusion_lon": 0.0, "fusion_lat": 0.0, "type": "electric_scooter", "name": "94a6f7241fcd33ec4c5562b84d03002d", "is_disabled": 0, "rental_uris": {"ios": "https://dc.lft.to/lastmile_qr_scan", "android": "https://dc.lft.to/lastmile_qr_scan"}, "is_reserved": 0}, {"lon": -77.03363433333334, "bike_id": "ba923a29f056fd4ba474e430a1b3eaa5", "lat": 38.90157083333333, "fusion_lon": 0.0, "fusion_lat": 0.0, "type": "electric_scooter", "name": "ba923a29f056fd4ba474e430a1b3eaa5", "is_disabled": 0, "rental_uris": {"ios": "https://dc.lft.to/lastmile_qr_scan", "android": "https://dc.lft.to/lastmile_qr_scan"}, "is_reserved": 0}, {"lon": -77.042539, "bike_id": "f84efb7a340ea52885d84e3312ac3e79", "lat": 38.92253783333334, "fusion_lon": 0.0, "fusion_lat": 0.0, "type": "electric_scooter", "name": "f84efb7a340ea52885d84e3312ac3e79", "is_disabled": 0, "rental_uris": {"ios": "https://dc.lft.to/lastmile_qr_scan", "android": "https://dc.lft.to/lastmile_qr_scan"}, "is_reserved": 0}, {"lon": -76.9889725, "bike_id": "aba4bed8c83385b9e29c357f19597efb", "lat": 38.91339966666666, "fusion_lon": 0.0, "fusion_lat": 0.0, "type": "electric_scooter", "name": "aba4bed8c83385b9e29c357f19597efb", "is_disabled": 0, "rental_uris": {"ios": "https://dc.lft.to/lastmile_qr_scan", "android": "https://dc.lft.to/lastmile_qr_scan"}, "is_reserved": 0}, {"lon": -77.03426266666666, "bike_id": "2ecc9431cc749d870a44eca4c097c3ae", "lat": 38.91928466666667, "fusion_lon": 0.0, "fusion_lat": 0.0, "type": "electric_scooter", "name": "2ecc9431cc749d870a44eca4c097c3ae", "is_disabled": 0, "rental_uris": {"ios": "https://dc.lft.to/lastmile_qr_scan", "android": "https://dc.lft.to/lastmile_qr_scan"}, "is_reserved": 0}, {"lon": -77.02047816666666, "bike_id": "8d6b7f608adeff91bd424e97b9390d9b", "lat": 38.915555833333336, "fusion_lon": 0.0, "fusion_lat": 0.0, "type": "electric_scooter", "name": "8d6b7f608adeff91bd424e97b9390d9b", "is_disabled": 0, "rental_uris": {"ios": "https://dc.lft.to/lastmile_qr_scan", "android": "https://dc.lft.to/lastmile_qr_scan"}, "is_reserved": 0}, {"lon": -77.02235666666667, "bike_id": "aa07e9afbaebff7b96102e11e89b1dad", "lat": 38.904147333333334, "fusion_lon": 0.0, "fusion_lat": 0.0, "type": "electric_scooter", "name": "aa07e9afbaebff7b96102e11e89b1dad", "is_disabled": 0, "rental_uris": {"ios": "https://dc.lft.to/lastmile_qr_scan", "android": "https://dc.lft.to/lastmile_qr_scan"}, "is_reserved": 0}, {"lon": -77.0324455, "bike_id": "c44fe9fb56004d961da201e4f655fb18", "lat": 38.915664166666666, "fusion_lon": 0.0, "fusion_lat": 0.0, "type": "electric_scooter", "name": "c44fe9fb56004d961da201e4f655fb18", "is_disabled": 0, "rental_uris": {"ios": "https://dc.lft.to/lastmile_qr_scan", "android": "https://dc.lft.to/lastmile_qr_scan"}, "is_reserved": 0}, {"lon": -76.9783205, "bike_id": "7e681b4add4f0ab59f25dec3a969c585", "lat": 38.843640666666666, "fusion_lon": 0.0, "fusion_lat": 0.0, "type": "electric_bike", "name": "7e681b4add4f0ab59f25dec3a969c585", "is_disabled": 0, "rental_uris": {"ios": "https://dc.lft.to/lastmile_qr_scan", "android": "https://dc.lft.to/lastmile_qr_scan"}, "is_reserved": 0}, {"lon": -77.04739983333333, "bike_id": "d30b8e11c997472a83f4e6fa308008f6", "lat": 38.9096515, "fusion_lon": 0.0, "fusion_lat": 0.0, "type": "electric_scooter", "name": "d30b8e11c997472a83f4e6fa308008f6", "is_disabled": 0, "rental_uris": {"ios": "https://dc.lft.to/lastmile_qr_scan", "android": "https://dc.lft.to/lastmile_qr_scan"}, "is_reserved": 0}, {"lon": -77.03107733333333, "bike_id": "130acef3357816844841a2463d6fa952", "lat": 38.933222666666666, "fusion_lon": 0.0, "fusion_lat": 0.0, "type": "electric_scooter", "name": "130acef3357816844841a2463d6fa952", "is_disabled": 0, "rental_uris": {"ios": "https://dc.lft.to/lastmile_qr_scan", "android": "https://dc.lft.to/lastmile_qr_scan"}, "is_reserved": 0}, {"lon": -77.11766416666667, "bike_id": "08b5909aa64d0fd577f01802bca3cac2", "lat": 38.855850333333336, "fusion_lon": 0.0, "fusion_lat": 0.0, "type": "electric_bike", "name": "08b5909aa64d0fd577f01802bca3cac2", "is_disabled": 0, "rental_uris": {"ios": "https://dc.lft.to/lastmile_qr_scan", "android": "https://dc.lft.to/lastmile_qr_scan"}, "is_reserved": 0}, {"lon": -77.03584816666667, "bike_id": "54ccd23c67737061f55957a9925f20e0", "lat": 38.99225466666667, "fusion_lon": 0.0, "fusion_lat": 0.0, "type": "electric_scooter", "name": "54ccd23c67737061f55957a9925f20e0", "is_disabled": 0, "rental_uris": {"ios": "https://dc.lft.to/lastmile_qr_scan", "android": "https://dc.lft.to/lastmile_qr_scan"}, "is_reserved": 0}, {"lon": -76.93069266666667, "bike_id": "4795aeb12ee44d93ca6f5c98b5a62019", "lat": 38.895593166666664, "fusion_lon": 0.0, "fusion_lat": 0.0, "type": "electric_scooter", "name": "4795aeb12ee44d93ca6f5c98b5a62019", "is_disabled": 0, "rental_uris": {"ios": "https://dc.lft.to/lastmile_qr_scan", "android": "https://dc.lft.to/lastmile_qr_scan"}, "is_reserved": 0}, {"lon": -77.002015, "bike_id": "52f46ddfcb88469a0aa97ce86489810e", "lat": 38.902390833333335, "fusion_lon": 0.0, "fusion_lat": 0.0, "type": "electric_scooter", "name": "52f46ddfcb88469a0aa97ce86489810e", "is_disabled": 0, "rental_uris": {"ios": "https://dc.lft.to/lastmile_qr_scan", "android": "https://dc.lft.to/lastmile_qr_scan"}, "is_reserved": 0}, {"lon": -77.024749, "bike_id": "150eee6e9b6a418043870cb3de63a687", "lat": 38.920004666666664, "fusion_lon": 0.0, "fusion_lat": 0.0, "type": "electric_scooter", "name": "150eee6e9b6a418043870cb3de63a687", "is_disabled": 0, "rental_uris": {"ios": "https://dc.lft.to/lastmile_qr_scan", "android": "https://dc.lft.to/lastmile_qr_scan"}, "is_reserved": 0}, {"lon": -77.03871833333334, "bike_id": "3dce83670d93bc1f220f2e13971e604b", "lat": 38.911859166666666, "fusion_lon": 0.0, "fusion_lat": 0.0, "type": "electric_scooter", "name": "3dce83670d93bc1f220f2e13971e604b", "is_disabled": 0, "rental_uris": {"ios": "https://dc.lft.to/lastmile_qr_scan", "android": "https://dc.lft.to/lastmile_qr_scan"}, "is_reserved": 0}, {"lon": -77.0313535, "bike_id": "1f6034887ba35f062ade9c2d42673cf6", "lat": 38.91758266666667, "fusion_lon": 0.0, "fusion_lat": 0.0, "type": "electric_scooter", "name": "1f6034887ba35f062ade9c2d42673cf6", "is_disabled": 0, "rental_uris": {"ios": "https://dc.lft.to/lastmile_qr_scan", "android": "https://dc.lft.to/lastmile_qr_scan"}, "is_reserved": 0}, {"lon": -77.01943066666666, "bike_id": "aa4b0c5b0d06660d8201fa7f8de85cea", "lat": 38.93188033333333, "fusion_lon": 0.0, "fusion_lat": 0.0, "type": "electric_scooter", "name": "aa4b0c5b0d06660d8201fa7f8de85cea", "is_disabled": 0, "rental_uris": {"ios": "https://dc.lft.to/lastmile_qr_scan", "android": "https://dc.lft.to/lastmile_qr_scan"}, "is_reserved": 0}, {"lon": -76.9775365, "bike_id": "ddbf64086c4d252f9b4ad552192b6b49", "lat": 38.8650355, "fusion_lon": 0.0, "fusion_lat": 0.0, "type": "electric_scooter", "name": "ddbf64086c4d252f9b4ad552192b6b49", "is_disabled": 0, "rental_uris": {"ios": "https://dc.lft.to/lastmile_qr_scan", "android": "https://dc.lft.to/lastmile_qr_scan"}, "is_reserved": 0}, {"lon": -77.04178233333333, "bike_id": "a683021438651ae7b6290a32c838fa89", "lat": 38.904338833333334, "fusion_lon": 0.0, "fusion_lat": 0.0, "type": "electric_scooter", "name": "a683021438651ae7b6290a32c838fa89", "is_disabled": 0, "rental_uris": {"ios": "https://dc.lft.to/lastmile_qr_scan", "android": "https://dc.lft.to/lastmile_qr_scan"}, "is_reserved": 0}, {"lon": -77.0113135, "bike_id": "676efe3ace53c30a28119c9ad6776098", "lat": 38.894888333333334, "fusion_lon": 0.0, "fusion_lat": 0.0, "type": "electric_scooter", "name": "676efe3ace53c30a28119c9ad6776098", "is_disabled": 0, "rental_uris": {"ios": "https://dc.lft.to/lastmile_qr_scan", "android": "https://dc.lft.to/lastmile_qr_scan"}, "is_reserved": 0}, {"lon": -76.98847616666667, "bike_id": "3d3ef1e9d7ab51e4acb6ab311d105904", "lat": 38.901311, "fusion_lon": 0.0, "fusion_lat": 0.0, "type": "electric_scooter", "name": "3d3ef1e9d7ab51e4acb6ab311d105904", "is_disabled": 0, "rental_uris": {"ios": "https://dc.lft.to/lastmile_qr_scan", "android": "https://dc.lft.to/lastmile_qr_scan"}, "is_reserved": 0}, {"lon": -77.01151516666667, "bike_id": "9a4496e0779ba8d627bb94f7778db5cd", "lat": 38.895750666666665, "fusion_lon": 0.0, "fusion_lat": 0.0, "type": "electric_scooter", "name": "9a4496e0779ba8d627bb94f7778db5cd", "is_disabled": 0, "rental_uris": {"ios": "https://dc.lft.to/lastmile_qr_scan", "android": "https://dc.lft.to/lastmile_qr_scan"}, "is_reserved": 0}, {"lon": -77.01792916666666, "bike_id": "11fa17cfe22f04fc3173d8fe4bbd2450", "lat": 38.9200035, "fusion_lon": 0.0, "fusion_lat": 0.0, "type": "electric_scooter", "name": "11fa17cfe22f04fc3173d8fe4bbd2450", "is_disabled": 0, "rental_uris": {"ios": "https://dc.lft.to/lastmile_qr_scan", "android": "https://dc.lft.to/lastmile_qr_scan"}, "is_reserved": 0}, {"lon": -77.12226733333334, "bike_id": "458f71c87c1f6f6550a96f1b36b94930", "lat": 38.853020666666666, "fusion_lon": 0.0, "fusion_lat": 0.0, "type": "electric_bike", "name": "458f71c87c1f6f6550a96f1b36b94930", "is_disabled": 0, "rental_uris": {"ios": "https://dc.lft.to/lastmile_qr_scan", "android": "https://dc.lft.to/lastmile_qr_scan"}, "is_reserved": 0}, {"lon": -77.0245915, "bike_id": "b8269f3159ae8c0e0fdc649df63c61ab", "lat": 38.91849283333333, "fusion_lon": 0.0, "fusion_lat": 0.0, "type": "electric_scooter", "name": "b8269f3159ae8c0e0fdc649df63c61ab", "is_disabled": 0, "rental_uris": {"ios": "https://dc.lft.to/lastmile_qr_scan", "android": "https://dc.lft.to/lastmile_qr_scan"}, "is_reserved": 0}, {"lon": -77.01458083333333, "bike_id": "26974db74a2f43eedd7b415ff6f63202", "lat": 38.905209, "fusion_lon": 0.0, "fusion_lat": 0.0, "type": "electric_scooter", "name": "26974db74a2f43eedd7b415ff6f63202", "is_disabled": 0, "rental_uris": {"ios": "https://dc.lft.to/lastmile_qr_scan", "android": "https://dc.lft.to/lastmile_qr_scan"}, "is_reserved": 0}, {"lon": -77.02749216666666, "bike_id": "0ebb235dc787ae18a2cff6aecad18d7d", "lat": 38.965661833333336, "fusion_lon": 0.0, "fusion_lat": 0.0, "type": "electric_bike", "name": "0ebb235dc787ae18a2cff6aecad18d7d", "is_disabled": 0, "rental_uris": {"ios": "https://dc.lft.to/lastmile_qr_scan", "android": "https://dc.lft.to/lastmile_qr_scan"}, "is_reserved": 0}, {"lon": -76.95663716666667, "bike_id": "494507a552c84fbc5ce75d1bfc7a856f", "lat": 38.89628183333333, "fusion_lon": 0.0, "fusion_lat": 0.0, "type": "electric_scooter", "name": "494507a552c84fbc5ce75d1bfc7a856f", "is_disabled": 0, "rental_uris": {"ios": "https://dc.lft.to/lastmile_qr_scan", "android": "https://dc.lft.to/lastmile_qr_scan"}, "is_reserved": 0}, {"lon": -77.051477, "bike_id": "281858ffe5050a0bf048d1067ce9f07a", "lat": 38.90510366666667, "fusion_lon": 0.0, "fusion_lat": 0.0, "type": "electric_scooter", "name": "281858ffe5050a0bf048d1067ce9f07a", "is_disabled": 0, "rental_uris": {"ios": "https://dc.lft.to/lastmile_qr_scan", "android": "https://dc.lft.to/lastmile_qr_scan"}, "is_reserved": 0}, {"lon": -77.034751, "bike_id": "a1830fe50f3c1492fca181f182a54036", "lat": 38.92069, "fusion_lon": 0.0, "fusion_lat": 0.0, "type": "electric_scooter", "name": "a1830fe50f3c1492fca181f182a54036", "is_disabled": 0, "rental_uris": {"ios": "https://dc.lft.to/lastmile_qr_scan", "android": "https://dc.lft.to/lastmile_qr_scan"}, "is_reserved": 0}, {"lon": -77.01811433333333, "bike_id": "4b94621cf7b2c72c94857d212270f649", "lat": 38.964869, "fusion_lon": 0.0, "fusion_lat": 0.0, "type": "electric_scooter", "name": "4b94621cf7b2c72c94857d212270f649", "is_disabled": 0, "rental_uris": {"ios": "https://dc.lft.to/lastmile_qr_scan", "android": "https://dc.lft.to/lastmile_qr_scan"}, "is_reserved": 0}, {"lon": -77.06036266666666, "bike_id": "3e83a6660ac5b5c82fbe64735ec03c53", "lat": 38.93366783333333, "fusion_lon": 0.0, "fusion_lat": 0.0, "type": "electric_scooter", "name": "3e83a6660ac5b5c82fbe64735ec03c53", "is_disabled": 0, "rental_uris": {"ios": "https://dc.lft.to/lastmile_qr_scan", "android": "https://dc.lft.to/lastmile_qr_scan"}, "is_reserved": 0}, {"lon": -77.04648583333334, "bike_id": "83b9ddd4172a5a6a0f579c244843658e", "lat": 39.054998, "fusion_lon": 0.0, "fusion_lat": 0.0, "type": "electric_bike", "name": "83b9ddd4172a5a6a0f579c244843658e", "is_disabled": 0, "rental_uris": {"ios": "https://dc.lft.to/lastmile_qr_scan", "android": "https://dc.lft.to/lastmile_qr_scan"}, "is_reserved": 0}, {"lon": -77.162429, "bike_id": "5fb3d9b84cb2d12888b493b9f0509804", "lat": 38.88658, "fusion_lon": 0.0, "fusion_lat": 0.0, "type": "electric_bike", "name": "5fb3d9b84cb2d12888b493b9f0509804", "is_disabled": 0, "rental_uris": {"ios": "https://dc.lft.to/lastmile_qr_scan", "android": "https://dc.lft.to/lastmile_qr_scan"}, "is_reserved": 0}, {"lon": -76.96138033333334, "bike_id": "5d19e03cea52eafd159a40ff7a45da18", "lat": 38.94206416666667, "fusion_lon": 0.0, "fusion_lat": 0.0, "type": "electric_bike", "name": "5d19e03cea52eafd159a40ff7a45da18", "is_disabled": 0, "rental_uris": {"ios": "https://dc.lft.to/lastmile_qr_scan", "android": "https://dc.lft.to/lastmile_qr_scan"}, "is_reserved": 0}, {"lon": -76.88404383333334, "bike_id": "e0abaf63e2d2f4948df357ebcbe6693e", "lat": 38.931666666666665, "fusion_lon": 0.0, "fusion_lat": 0.0, "type": "electric_bike", "name": "e0abaf63e2d2f4948df357ebcbe6693e", "is_disabled": 0, "rental_uris": {"ios": "https://dc.lft.to/lastmile_qr_scan", "android": "https://dc.lft.to/lastmile_qr_scan"}, "is_reserved": 0}, {"lon": -77.03884566666666, "bike_id": "33727a521dd895ba8cb7560dd870ec88", "lat": 38.94868833333334, "fusion_lon": 0.0, "fusion_lat": 0.0, "type": "electric_scooter", "name": "33727a521dd895ba8cb7560dd870ec88", "is_disabled": 0, "rental_uris": {"ios": "https://dc.lft.to/lastmile_qr_scan", "android": "https://dc.lft.to/lastmile_qr_scan"}, "is_reserved": 0}, {"lon": -77.04417866666667, "bike_id": "12302be37bc8b1de330e36ebfcd3c7a8", "lat": 38.9127025, "fusion_lon": 0.0, "fusion_lat": 0.0, "type": "electric_scooter", "name": "12302be37bc8b1de330e36ebfcd3c7a8", "is_disabled": 0, "rental_uris": {"ios": "https://dc.lft.to/lastmile_qr_scan", "android": "https://dc.lft.to/lastmile_qr_scan"}, "is_reserved": 0}, {"lon": -77.0574295, "bike_id": "bb123a1a9d6988d7ecc7dad703f247e2", "lat": 38.9339225, "fusion_lon": 0.0, "fusion_lat": 0.0, "type": "electric_scooter", "name": "bb123a1a9d6988d7ecc7dad703f247e2", "is_disabled": 0, "rental_uris": {"ios": "https://dc.lft.to/lastmile_qr_scan", "android": "https://dc.lft.to/lastmile_qr_scan"}, "is_reserved": 0}, {"lon": -77.03149166666667, "bike_id": "fd566c6b2489a75bf59218fe3f8bc0a4", "lat": 38.928616166666664, "fusion_lon": 0.0, "fusion_lat": 0.0, "type": "electric_scooter", "name": "fd566c6b2489a75bf59218fe3f8bc0a4", "is_disabled": 0, "rental_uris": {"ios": "https://dc.lft.to/lastmile_qr_scan", "android": "https://dc.lft.to/lastmile_qr_scan"}, "is_reserved": 0}, {"lon": -76.997132, "bike_id": "78e632b420dcbfacc11e44494c1878ed", "lat": 38.900133, "fusion_lon": 0.0, "fusion_lat": 0.0, "type": "electric_scooter", "name": "78e632b420dcbfacc11e44494c1878ed", "is_disabled": 0, "rental_uris": {"ios": "https://dc.lft.to/lastmile_qr_scan", "android": "https://dc.lft.to/lastmile_qr_scan"}, "is_reserved": 0}, {"lon": -76.997683, "bike_id": "da6919dad71d920cbc82742d8a520de5", "lat": 38.9013015, "fusion_lon": 0.0, "fusion_lat": 0.0, "type": "electric_scooter", "name": "da6919dad71d920cbc82742d8a520de5", "is_disabled": 0, "rental_uris": {"ios": "https://dc.lft.to/lastmile_qr_scan", "android": "https://dc.lft.to/lastmile_qr_scan"}, "is_reserved": 0}, {"lon": -77.004774, "bike_id": "543131ca0d9ec4ba09a23a73f27e9f41", "lat": 38.895832, "fusion_lon": 0.0, "fusion_lat": 0.0, "type": "electric_scooter", "name": "543131ca0d9ec4ba09a23a73f27e9f41", "is_disabled": 0, "rental_uris": {"ios": "https://dc.lft.to/lastmile_qr_scan", "android": "https://dc.lft.to/lastmile_qr_scan"}, "is_reserved": 0}, {"lon": -77.03196866666667, "bike_id": "18d9d1260007ada2d53d028297aab8d7", "lat": 38.912607333333334, "fusion_lon": 0.0, "fusion_lat": 0.0, "type": "electric_scooter", "name": "18d9d1260007ada2d53d028297aab8d7", "is_disabled": 0, "rental_uris": {"ios": "https://dc.lft.to/lastmile_qr_scan", "android": "https://dc.lft.to/lastmile_qr_scan"}, "is_reserved": 0}, {"lon": -77.03213066666666, "bike_id": "e56c5eacabe75b549b4be22b567832f5", "lat": 38.92105333333333, "fusion_lon": 0.0, "fusion_lat": 0.0, "type": "electric_bike", "name": "e56c5eacabe75b549b4be22b567832f5", "is_disabled": 0, "rental_uris": {"ios": "https://dc.lft.to/lastmile_qr_scan", "android": "https://dc.lft.to/lastmile_qr_scan"}, "is_reserved": 0}, {"lon": -76.98781983333333, "bike_id": "7c0d0ecca80085f413fbc1d68dabb66a", "lat": 38.86604783333333, "fusion_lon": 0.0, "fusion_lat": 0.0, "type": "electric_bike", "name": "7c0d0ecca80085f413fbc1d68dabb66a", "is_disabled": 0, "rental_uris": {"ios": "https://dc.lft.to/lastmile_qr_scan", "android": "https://dc.lft.to/lastmile_qr_scan"}, "is_reserved": 0}, {"lon": -77.040357, "bike_id": "87bec77279cf417204e9be90d5d45484", "lat": 38.9185915, "fusion_lon": 0.0, "fusion_lat": 0.0, "type": "electric_scooter", "name": "87bec77279cf417204e9be90d5d45484", "is_disabled": 0, "rental_uris": {"ios": "https://dc.lft.to/lastmile_qr_scan", "android": "https://dc.lft.to/lastmile_qr_scan"}, "is_reserved": 0}, {"lon": -77.185622, "bike_id": "2bbc1e189977d08ea8807f384c6aa2ad", "lat": 39.09977216666667, "fusion_lon": 0.0, "fusion_lat": 0.0, "type": "electric_bike", "name": "2bbc1e189977d08ea8807f384c6aa2ad", "is_disabled": 0, "rental_uris": {"ios": "https://dc.lft.to/lastmile_qr_scan", "android": "https://dc.lft.to/lastmile_qr_scan"}, "is_reserved": 0}, {"lon": -77.03170933333334, "bike_id": "4c86861dd3529551092eab8bdf754142", "lat": 38.936067, "fusion_lon": 0.0, "fusion_lat": 0.0, "type": "electric_scooter", "name": "4c86861dd3529551092eab8bdf754142", "is_disabled": 0, "rental_uris": {"ios": "https://dc.lft.to/lastmile_qr_scan", "android": "https://dc.lft.to/lastmile_qr_scan"}, "is_reserved": 0}, {"lon": -77.032541, "bike_id": "de78499860f513c0f3c72497d03d573e", "lat": 38.905538166666666, "fusion_lon": 0.0, "fusion_lat": 0.0, "type": "electric_scooter", "name": "de78499860f513c0f3c72497d03d573e", "is_disabled": 0, "rental_uris": {"ios": "https://dc.lft.to/lastmile_qr_scan", "android": "https://dc.lft.to/lastmile_qr_scan"}, "is_reserved": 0}, {"lon": -77.0009695, "bike_id": "5c493d057a905907d80bef0ff4c967b6", "lat": 38.875886333333334, "fusion_lon": 0.0, "fusion_lat": 0.0, "type": "electric_scooter", "name": "5c493d057a905907d80bef0ff4c967b6", "is_disabled": 0, "rental_uris": {"ios": "https://dc.lft.to/lastmile_qr_scan", "android": "https://dc.lft.to/lastmile_qr_scan"}, "is_reserved": 0}, {"lon": -77.03127433333333, "bike_id": "54aaad827d94e5fe82896ae249632914", "lat": 38.94505683333333, "fusion_lon": 0.0, "fusion_lat": 0.0, "type": "electric_scooter", "name": "54aaad827d94e5fe82896ae249632914", "is_disabled": 0, "rental_uris": {"ios": "https://dc.lft.to/lastmile_qr_scan", "android": "https://dc.lft.to/lastmile_qr_scan"}, "is_reserved": 0}, {"lon": -77.02794283333333, "bike_id": "dad02a880d2b590101a03b4c036d0be1", "lat": 38.916926333333336, "fusion_lon": 0.0, "fusion_lat": 0.0, "type": "electric_scooter", "name": "dad02a880d2b590101a03b4c036d0be1", "is_disabled": 0, "rental_uris": {"ios": "https://dc.lft.to/lastmile_qr_scan", "android": "https://dc.lft.to/lastmile_qr_scan"}, "is_reserved": 0}, {"lon": -77.042645, "bike_id": "310aeaaa21e660ccd6ca56cb2ebe7290", "lat": 38.917842666666665, "fusion_lon": 0.0, "fusion_lat": 0.0, "type": "electric_scooter", "name": "310aeaaa21e660ccd6ca56cb2ebe7290", "is_disabled": 0, "rental_uris": {"ios": "https://dc.lft.to/lastmile_qr_scan", "android": "https://dc.lft.to/lastmile_qr_scan"}, "is_reserved": 0}, {"lon": -76.9762435, "bike_id": "5143287d2171dfc69182d0e0b57735ee", "lat": 38.903811, "fusion_lon": 0.0, "fusion_lat": 0.0, "type": "electric_scooter", "name": "5143287d2171dfc69182d0e0b57735ee", "is_disabled": 0, "rental_uris": {"ios": "https://dc.lft.to/lastmile_qr_scan", "android": "https://dc.lft.to/lastmile_qr_scan"}, "is_reserved": 0}, {"lon": -77.02390666666666, "bike_id": "28b6b2577f5db2645104780682489d6a", "lat": 38.9206945, "fusion_lon": 0.0, "fusion_lat": 0.0, "type": "electric_scooter", "name": "28b6b2577f5db2645104780682489d6a", "is_disabled": 0, "rental_uris": {"ios": "https://dc.lft.to/lastmile_qr_scan", "android": "https://dc.lft.to/lastmile_qr_scan"}, "is_reserved": 0}, {"lon": -76.99833766666667, "bike_id": "053637fb35c72121a8dbba579751c33b", "lat": 38.90498683333333, "fusion_lon": 0.0, "fusion_lat": 0.0, "type": "electric_scooter", "name": "053637fb35c72121a8dbba579751c33b", "is_disabled": 0, "rental_uris": {"ios": "https://dc.lft.to/lastmile_qr_scan", "android": "https://dc.lft.to/lastmile_qr_scan"}, "is_reserved": 0}, {"lon": -77.047186, "bike_id": "e5366cc42c2872992fe2c1a6477381f9", "lat": 38.922365666666664, "fusion_lon": 0.0, "fusion_lat": 0.0, "type": "electric_scooter", "name": "e5366cc42c2872992fe2c1a6477381f9", "is_disabled": 0, "rental_uris": {"ios": "https://dc.lft.to/lastmile_qr_scan", "android": "https://dc.lft.to/lastmile_qr_scan"}, "is_reserved": 0}, {"lon": -77.02896116666666, "bike_id": "5ba2e504be18a4efac565cf52e148b31", "lat": 38.90377733333333, "fusion_lon": 0.0, "fusion_lat": 0.0, "type": "electric_scooter", "name": "5ba2e504be18a4efac565cf52e148b31", "is_disabled": 0, "rental_uris": {"ios": "https://dc.lft.to/lastmile_qr_scan", "android": "https://dc.lft.to/lastmile_qr_scan"}, "is_reserved": 0}, {"lon": -77.038376, "bike_id": "96411f9a4183ba40a942227c77739519", "lat": 38.914867, "fusion_lon": 0.0, "fusion_lat": 0.0, "type": "electric_scooter", "name": "96411f9a4183ba40a942227c77739519", "is_disabled": 0, "rental_uris": {"ios": "https://dc.lft.to/lastmile_qr_scan", "android": "https://dc.lft.to/lastmile_qr_scan"}, "is_reserved": 0}, {"lon": -76.96360416666667, "bike_id": "a04ffb8530d4a698d16016e88c26125d", "lat": 38.9349875, "fusion_lon": 0.0, "fusion_lat": 0.0, "type": "electric_scooter", "name": "a04ffb8530d4a698d16016e88c26125d", "is_disabled": 0, "rental_uris": {"ios": "https://dc.lft.to/lastmile_qr_scan", "android": "https://dc.lft.to/lastmile_qr_scan"}, "is_reserved": 0}, {"lon": -76.93610516666666, "bike_id": "0c2a2ec609e90c0506cf3111113a8b5b", "lat": 38.89684533333333, "fusion_lon": 0.0, "fusion_lat": 0.0, "type": "electric_scooter", "name": "0c2a2ec609e90c0506cf3111113a8b5b", "is_disabled": 0, "rental_uris": {"ios": "https://dc.lft.to/lastmile_qr_scan", "android": "https://dc.lft.to/lastmile_qr_scan"}, "is_reserved": 0}, {"lon": -77.0092215, "bike_id": "ca886f2c480504666b5b7d9d70caeaca", "lat": 38.827828333333336, "fusion_lon": 0.0, "fusion_lat": 0.0, "type": "electric_bike", "name": "ca886f2c480504666b5b7d9d70caeaca", "is_disabled": 0, "rental_uris": {"ios": "https://dc.lft.to/lastmile_qr_scan", "android": "https://dc.lft.to/lastmile_qr_scan"}, "is_reserved": 0}, {"lon": -77.04478466666667, "bike_id": "7dc3e70fc5d36604d4e2aa72756afcbc", "lat": 38.9187645, "fusion_lon": 0.0, "fusion_lat": 0.0, "type": "electric_scooter", "name": "7dc3e70fc5d36604d4e2aa72756afcbc", "is_disabled": 0, "rental_uris": {"ios": "https://dc.lft.to/lastmile_qr_scan", "android": "https://dc.lft.to/lastmile_qr_scan"}, "is_reserved": 0}, {"lon": -77.00067733333333, "bike_id": "f82388dfa7a715af531c567aef36f6bd", "lat": 38.92431166666667, "fusion_lon": 0.0, "fusion_lat": 0.0, "type": "electric_scooter", "name": "f82388dfa7a715af531c567aef36f6bd", "is_disabled": 0, "rental_uris": {"ios": "https://dc.lft.to/lastmile_qr_scan", "android": "https://dc.lft.to/lastmile_qr_scan"}, "is_reserved": 0}, {"lon": -77.01526183333333, "bike_id": "84b8e9a8fe55aceed95c91894480ac43", "lat": 38.92674683333333, "fusion_lon": 0.0, "fusion_lat": 0.0, "type": "electric_scooter", "name": "84b8e9a8fe55aceed95c91894480ac43", "is_disabled": 0, "rental_uris": {"ios": "https://dc.lft.to/lastmile_qr_scan", "android": "https://dc.lft.to/lastmile_qr_scan"}, "is_reserved": 0}, {"lon": -77.0198095, "bike_id": "3c1a466cea0b2decd021bd5424c70867", "lat": 38.96029583333333, "fusion_lon": 0.0, "fusion_lat": 0.0, "type": "electric_scooter", "name": "3c1a466cea0b2decd021bd5424c70867", "is_disabled": 0, "rental_uris": {"ios": "https://dc.lft.to/lastmile_qr_scan", "android": "https://dc.lft.to/lastmile_qr_scan"}, "is_reserved": 0}, {"lon": -77.015361, "bike_id": "6f04d2c60c0d8fad31a09d96d253ec65", "lat": 38.88321083333334, "fusion_lon": 0.0, "fusion_lat": 0.0, "type": "electric_scooter", "name": "6f04d2c60c0d8fad31a09d96d253ec65", "is_disabled": 0, "rental_uris": {"ios": "https://dc.lft.to/lastmile_qr_scan", "android": "https://dc.lft.to/lastmile_qr_scan"}, "is_reserved": 0}, {"lon": -77.03264083333333, "bike_id": "1fb0576fcdbc34b4c3702d2e9e5c5f1a", "lat": 38.937717666666664, "fusion_lon": 0.0, "fusion_lat": 0.0, "type": "electric_scooter", "name": "1fb0576fcdbc34b4c3702d2e9e5c5f1a", "is_disabled": 0, "rental_uris": {"ios": "https://dc.lft.to/lastmile_qr_scan", "android": "https://dc.lft.to/lastmile_qr_scan"}, "is_reserved": 0}, {"lon": -77.03225216666667, "bike_id": "210e725d940a32a1aa012110d914311b", "lat": 38.908920333333334, "fusion_lon": 0.0, "fusion_lat": 0.0, "type": "electric_scooter", "name": "210e725d940a32a1aa012110d914311b", "is_disabled": 0, "rental_uris": {"ios": "https://dc.lft.to/lastmile_qr_scan", "android": "https://dc.lft.to/lastmile_qr_scan"}, "is_reserved": 0}, {"lon": -77.0269025, "bike_id": "ae87880d9d5ac2ac9fc1088eaa60dca6", "lat": 38.94884783333333, "fusion_lon": 0.0, "fusion_lat": 0.0, "type": "electric_scooter", "name": "ae87880d9d5ac2ac9fc1088eaa60dca6", "is_disabled": 0, "rental_uris": {"ios": "https://dc.lft.to/lastmile_qr_scan", "android": "https://dc.lft.to/lastmile_qr_scan"}, "is_reserved": 0}, {"lon": -76.98754833333334, "bike_id": "20aab204fe7a5b3c979f7dc61fbccc7d", "lat": 38.9038475, "fusion_lon": 0.0, "fusion_lat": 0.0, "type": "electric_scooter", "name": "20aab204fe7a5b3c979f7dc61fbccc7d", "is_disabled": 0, "rental_uris": {"ios": "https://dc.lft.to/lastmile_qr_scan", "android": "https://dc.lft.to/lastmile_qr_scan"}, "is_reserved": 0}, {"lon": -77.04319633333333, "bike_id": "b83e578f73741c5433471140f5bcf7be", "lat": 38.918846333333335, "fusion_lon": 0.0, "fusion_lat": 0.0, "type": "electric_scooter", "name": "b83e578f73741c5433471140f5bcf7be", "is_disabled": 0, "rental_uris": {"ios": "https://dc.lft.to/lastmile_qr_scan", "android": "https://dc.lft.to/lastmile_qr_scan"}, "is_reserved": 0}, {"lon": -76.98712733333333, "bike_id": "a4b7e76e9651f8f2193d31090fec944b", "lat": 38.866900666666666, "fusion_lon": 0.0, "fusion_lat": 0.0, "type": "electric_scooter", "name": "a4b7e76e9651f8f2193d31090fec944b", "is_disabled": 0, "rental_uris": {"ios": "https://dc.lft.to/lastmile_qr_scan", "android": "https://dc.lft.to/lastmile_qr_scan"}, "is_reserved": 0}, {"lon": -76.98541716666666, "bike_id": "46b71460b6a6cea41d4d03ae8f1c6658", "lat": 38.9101975, "fusion_lon": 0.0, "fusion_lat": 0.0, "type": "electric_scooter", "name": "46b71460b6a6cea41d4d03ae8f1c6658", "is_disabled": 0, "rental_uris": {"ios": "https://dc.lft.to/lastmile_qr_scan", "android": "https://dc.lft.to/lastmile_qr_scan"}, "is_reserved": 0}, {"lon": -77.0315755, "bike_id": "22e103c4e5b2e41ae7256dbad3cdd497", "lat": 38.8842005, "fusion_lon": 0.0, "fusion_lat": 0.0, "type": "electric_scooter", "name": "22e103c4e5b2e41ae7256dbad3cdd497", "is_disabled": 0, "rental_uris": {"ios": "https://dc.lft.to/lastmile_qr_scan", "android": "https://dc.lft.to/lastmile_qr_scan"}, "is_reserved": 0}, {"lon": -77.00285433333333, "bike_id": "e3ef91da4c7622dfa8e7007026c139b3", "lat": 38.911677166666664, "fusion_lon": 0.0, "fusion_lat": 0.0, "type": "electric_bike", "name": "e3ef91da4c7622dfa8e7007026c139b3", "is_disabled": 0, "rental_uris": {"ios": "https://dc.lft.to/lastmile_qr_scan", "android": "https://dc.lft.to/lastmile_qr_scan"}, "is_reserved": 0}, {"lon": -77.039107, "bike_id": "bdb03aeff207fb6fa8f870749a9dc174", "lat": 38.90133983333333, "fusion_lon": 0.0, "fusion_lat": 0.0, "type": "electric_bike", "name": "bdb03aeff207fb6fa8f870749a9dc174", "is_disabled": 0, "rental_uris": {"ios": "https://dc.lft.to/lastmile_qr_scan", "android": "https://dc.lft.to/lastmile_qr_scan"}, "is_reserved": 0}, {"lon": -77.01398, "bike_id": "09cba0aa7e2ca9e3ef8b09d075633fa1", "lat": 38.9279855, "fusion_lon": 0.0, "fusion_lat": 0.0, "type": "electric_scooter", "name": "09cba0aa7e2ca9e3ef8b09d075633fa1", "is_disabled": 0, "rental_uris": {"ios": "https://dc.lft.to/lastmile_qr_scan", "android": "https://dc.lft.to/lastmile_qr_scan"}, "is_reserved": 0}, {"lon": -77.031937, "bike_id": "3a77e7bce82e19e3f319c65ef093530f", "lat": 38.915747333333336, "fusion_lon": 0.0, "fusion_lat": 0.0, "type": "electric_scooter", "name": "3a77e7bce82e19e3f319c65ef093530f", "is_disabled": 0, "rental_uris": {"ios": "https://dc.lft.to/lastmile_qr_scan", "android": "https://dc.lft.to/lastmile_qr_scan"}, "is_reserved": 0}, {"lon": -76.95016433333333, "bike_id": "1c926d5569f74a732947e4242b81eced", "lat": 38.89396216666667, "fusion_lon": 0.0, "fusion_lat": 0.0, "type": "electric_scooter", "name": "1c926d5569f74a732947e4242b81eced", "is_disabled": 0, "rental_uris": {"ios": "https://dc.lft.to/lastmile_qr_scan", "android": "https://dc.lft.to/lastmile_qr_scan"}, "is_reserved": 0}, {"lon": -77.00140866666666, "bike_id": "9325a3d405701579754b0e6768cd16d3", "lat": 38.84282533333333, "fusion_lon": 0.0, "fusion_lat": 0.0, "type": "electric_scooter", "name": "9325a3d405701579754b0e6768cd16d3", "is_disabled": 0, "rental_uris": {"ios": "https://dc.lft.to/lastmile_qr_scan", "android": "https://dc.lft.to/lastmile_qr_scan"}, "is_reserved": 0}, {"lon": -76.98718033333333, "bike_id": "a4e41dbcac4c2b0dc2a4186e3c71c533", "lat": 38.86699766666667, "fusion_lon": 0.0, "fusion_lat": 0.0, "type": "electric_scooter", "name": "a4e41dbcac4c2b0dc2a4186e3c71c533", "is_disabled": 0, "rental_uris": {"ios": "https://dc.lft.to/lastmile_qr_scan", "android": "https://dc.lft.to/lastmile_qr_scan"}, "is_reserved": 0}, {"lon": -77.02103483333333, "bike_id": "44177f4f26dbf600119532ebebd8e4f4", "lat": 38.9217955, "fusion_lon": 0.0, "fusion_lat": 0.0, "type": "electric_scooter", "name": "44177f4f26dbf600119532ebebd8e4f4", "is_disabled": 0, "rental_uris": {"ios": "https://dc.lft.to/lastmile_qr_scan", "android": "https://dc.lft.to/lastmile_qr_scan"}, "is_reserved": 0}, {"lon": -77.02682916666667, "bike_id": "bbb959371b6313dfb28afad9df82c867", "lat": 38.98488116666667, "fusion_lon": 0.0, "fusion_lat": 0.0, "type": "electric_scooter", "name": "bbb959371b6313dfb28afad9df82c867", "is_disabled": 0, "rental_uris": {"ios": "https://dc.lft.to/lastmile_qr_scan", "android": "https://dc.lft.to/lastmile_qr_scan"}, "is_reserved": 0}, {"lon": -76.93175633333334, "bike_id": "25e0426cd76d7e8e2563df11961e4f4f", "lat": 38.89882983333333, "fusion_lon": 0.0, "fusion_lat": 0.0, "type": "electric_scooter", "name": "25e0426cd76d7e8e2563df11961e4f4f", "is_disabled": 0, "rental_uris": {"ios": "https://dc.lft.to/lastmile_qr_scan", "android": "https://dc.lft.to/lastmile_qr_scan"}, "is_reserved": 0}, {"lon": -76.99007566666667, "bike_id": "691a3be81438a89724f0e2333b5fef28", "lat": 38.946003, "fusion_lon": 0.0, "fusion_lat": 0.0, "type": "electric_scooter", "name": "691a3be81438a89724f0e2333b5fef28", "is_disabled": 0, "rental_uris": {"ios": "https://dc.lft.to/lastmile_qr_scan", "android": "https://dc.lft.to/lastmile_qr_scan"}, "is_reserved": 0}, {"lon": -77.03208516666666, "bike_id": "a30a2680b929b119720d4a1b3d89a566", "lat": 38.928627, "fusion_lon": 0.0, "fusion_lat": 0.0, "type": "electric_scooter", "name": "a30a2680b929b119720d4a1b3d89a566", "is_disabled": 0, "rental_uris": {"ios": "https://dc.lft.to/lastmile_qr_scan", "android": "https://dc.lft.to/lastmile_qr_scan"}, "is_reserved": 0}, {"lon": -77.02424033333334, "bike_id": "d426fba6a615f16c3cc2f784ad9d65e9", "lat": 38.9232375, "fusion_lon": 0.0, "fusion_lat": 0.0, "type": "electric_scooter", "name": "d426fba6a615f16c3cc2f784ad9d65e9", "is_disabled": 0, "rental_uris": {"ios": "https://dc.lft.to/lastmile_qr_scan", "android": "https://dc.lft.to/lastmile_qr_scan"}, "is_reserved": 0}, {"lon": -77.038655, "bike_id": "210b30144e388d4b4a1e816baba7dd80", "lat": 38.92010616666666, "fusion_lon": 0.0, "fusion_lat": 0.0, "type": "electric_scooter", "name": "210b30144e388d4b4a1e816baba7dd80", "is_disabled": 0, "rental_uris": {"ios": "https://dc.lft.to/lastmile_qr_scan", "android": "https://dc.lft.to/lastmile_qr_scan"}, "is_reserved": 0}, {"lon": -76.94503666666667, "bike_id": "63929f943242b0d453c910acf0a86ae7", "lat": 38.8648425, "fusion_lon": 0.0, "fusion_lat": 0.0, "type": "electric_bike", "name": "63929f943242b0d453c910acf0a86ae7", "is_disabled": 0, "rental_uris": {"ios": "https://dc.lft.to/lastmile_qr_scan", "android": "https://dc.lft.to/lastmile_qr_scan"}, "is_reserved": 0}, {"lon": -76.99367516666666, "bike_id": "9e893be6728e0a935a96bada479847d7", "lat": 38.940268, "fusion_lon": 0.0, "fusion_lat": 0.0, "type": "electric_scooter", "name": "9e893be6728e0a935a96bada479847d7", "is_disabled": 0, "rental_uris": {"ios": "https://dc.lft.to/lastmile_qr_scan", "android": "https://dc.lft.to/lastmile_qr_scan"}, "is_reserved": 0}, {"lon": -77.01756216666666, "bike_id": "c12f0697df3111bcd6fc687e3bb78367", "lat": 38.91278833333333, "fusion_lon": 0.0, "fusion_lat": 0.0, "type": "electric_bike", "name": "c12f0697df3111bcd6fc687e3bb78367", "is_disabled": 0, "rental_uris": {"ios": "https://dc.lft.to/lastmile_qr_scan", "android": "https://dc.lft.to/lastmile_qr_scan"}, "is_reserved": 0}, {"lon": -77.04981833333333, "bike_id": "62964a1dcde7574f5992b4fa9e09670a", "lat": 39.06292583333333, "fusion_lon": 0.0, "fusion_lat": 0.0, "type": "electric_bike", "name": "62964a1dcde7574f5992b4fa9e09670a", "is_disabled": 0, "rental_uris": {"ios": "https://dc.lft.to/lastmile_qr_scan", "android": "https://dc.lft.to/lastmile_qr_scan"}, "is_reserved": 0}, {"lon": -76.99854566666667, "bike_id": "cf182f62e41d2b9de72df5c5c5760204", "lat": 38.901017333333336, "fusion_lon": 0.0, "fusion_lat": 0.0, "type": "electric_scooter", "name": "cf182f62e41d2b9de72df5c5c5760204", "is_disabled": 0, "rental_uris": {"ios": "https://dc.lft.to/lastmile_qr_scan", "android": "https://dc.lft.to/lastmile_qr_scan"}, "is_reserved": 0}, {"lon": -77.05132483333334, "bike_id": "a714ea2cb71f085fcff12348b19c19b9", "lat": 38.898591, "fusion_lon": 0.0, "fusion_lat": 0.0, "type": "electric_scooter", "name": "a714ea2cb71f085fcff12348b19c19b9", "is_disabled": 0, "rental_uris": {"ios": "https://dc.lft.to/lastmile_qr_scan", "android": "https://dc.lft.to/lastmile_qr_scan"}, "is_reserved": 0}, {"lon": -77.12657766666666, "bike_id": "ab61c5f065d3e97a84ab7909ef8da3f1", "lat": 38.815164333333335, "fusion_lon": 0.0, "fusion_lat": 0.0, "type": "electric_bike", "name": "ab61c5f065d3e97a84ab7909ef8da3f1", "is_disabled": 0, "rental_uris": {"ios": "https://dc.lft.to/lastmile_qr_scan", "android": "https://dc.lft.to/lastmile_qr_scan"}, "is_reserved": 0}, {"lon": -76.927342, "bike_id": "02f67d9b0a5c48e1648ec07f89d166d2", "lat": 38.8896555, "fusion_lon": 0.0, "fusion_lat": 0.0, "type": "electric_scooter", "name": "02f67d9b0a5c48e1648ec07f89d166d2", "is_disabled": 0, "rental_uris": {"ios": "https://dc.lft.to/lastmile_qr_scan", "android": "https://dc.lft.to/lastmile_qr_scan"}, "is_reserved": 0}, {"lon": -77.0444255, "bike_id": "197b07e3f2d3b65afc52fea455b87e30", "lat": 38.9188975, "fusion_lon": 0.0, "fusion_lat": 0.0, "type": "electric_scooter", "name": "197b07e3f2d3b65afc52fea455b87e30", "is_disabled": 0, "rental_uris": {"ios": "https://dc.lft.to/lastmile_qr_scan", "android": "https://dc.lft.to/lastmile_qr_scan"}, "is_reserved": 0}, {"lon": -77.002141, "bike_id": "66084cd6fab1cfe4dd4890166723906a", "lat": 38.881319, "fusion_lon": 0.0, "fusion_lat": 0.0, "type": "electric_scooter", "name": "66084cd6fab1cfe4dd4890166723906a", "is_disabled": 0, "rental_uris": {"ios": "https://dc.lft.to/lastmile_qr_scan", "android": "https://dc.lft.to/lastmile_qr_scan"}, "is_reserved": 0}, {"lon": -76.93352583333333, "bike_id": "62a28f629236a9d20bf406e3f936ad14", "lat": 38.89901416666667, "fusion_lon": 0.0, "fusion_lat": 0.0, "type": "electric_scooter", "name": "62a28f629236a9d20bf406e3f936ad14", "is_disabled": 0, "rental_uris": {"ios": "https://dc.lft.to/lastmile_qr_scan", "android": "https://dc.lft.to/lastmile_qr_scan"}, "is_reserved": 0}, {"lon": -77.044796, "bike_id": "33ce05a21e464296ef90307ecab05ed3", "lat": 38.909299833333336, "fusion_lon": 0.0, "fusion_lat": 0.0, "type": "electric_scooter", "name": "33ce05a21e464296ef90307ecab05ed3", "is_disabled": 0, "rental_uris": {"ios": "https://dc.lft.to/lastmile_qr_scan", "android": "https://dc.lft.to/lastmile_qr_scan"}, "is_reserved": 0}, {"lon": -77.08323683333333, "bike_id": "8236670d3c85fb7c0d27ff72c191b09d", "lat": 38.92982583333333, "fusion_lon": 0.0, "fusion_lat": 0.0, "type": "electric_scooter", "name": "8236670d3c85fb7c0d27ff72c191b09d", "is_disabled": 0, "rental_uris": {"ios": "https://dc.lft.to/lastmile_qr_scan", "android": "https://dc.lft.to/lastmile_qr_scan"}, "is_reserved": 0}, {"lon": -77.04629966666667, "bike_id": "289b5e8e12fbf9c5932abc1319bed366", "lat": 38.91915616666667, "fusion_lon": 0.0, "fusion_lat": 0.0, "type": "electric_scooter", "name": "289b5e8e12fbf9c5932abc1319bed366", "is_disabled": 0, "rental_uris": {"ios": "https://dc.lft.to/lastmile_qr_scan", "android": "https://dc.lft.to/lastmile_qr_scan"}, "is_reserved": 0}, {"lon": -77.05339716666667, "bike_id": "66f1541255ff4458cce5b4253170b029", "lat": 38.927146, "fusion_lon": 0.0, "fusion_lat": 0.0, "type": "electric_scooter", "name": "66f1541255ff4458cce5b4253170b029", "is_disabled": 0, "rental_uris": {"ios": "https://dc.lft.to/lastmile_qr_scan", "android": "https://dc.lft.to/lastmile_qr_scan"}, "is_reserved": 0}, {"lon": -77.04036466666666, "bike_id": "106c2c986efa8bb55a8b5831b0799f06", "lat": 38.91858766666667, "fusion_lon": 0.0, "fusion_lat": 0.0, "type": "electric_scooter", "name": "106c2c986efa8bb55a8b5831b0799f06", "is_disabled": 0, "rental_uris": {"ios": "https://dc.lft.to/lastmile_qr_scan", "android": "https://dc.lft.to/lastmile_qr_scan"}, "is_reserved": 0}, {"lon": -76.98187766666666, "bike_id": "5d22f1c5882d5fd8ca11984eef111ac6", "lat": 38.9260165, "fusion_lon": 0.0, "fusion_lat": 0.0, "type": "electric_scooter", "name": "5d22f1c5882d5fd8ca11984eef111ac6", "is_disabled": 0, "rental_uris": {"ios": "https://dc.lft.to/lastmile_qr_scan", "android": "https://dc.lft.to/lastmile_qr_scan"}, "is_reserved": 0}, {"lon": -76.9829365, "bike_id": "0b5559a92d3169b2320f01f18a711271", "lat": 38.900503, "fusion_lon": 0.0, "fusion_lat": 0.0, "type": "electric_scooter", "name": "0b5559a92d3169b2320f01f18a711271", "is_disabled": 0, "rental_uris": {"ios": "https://dc.lft.to/lastmile_qr_scan", "android": "https://dc.lft.to/lastmile_qr_scan"}, "is_reserved": 0}, {"lon": -77.02353566666666, "bike_id": "c58dcc96ceda195904c72f17586989a6", "lat": 38.9206205, "fusion_lon": 0.0, "fusion_lat": 0.0, "type": "electric_scooter", "name": "c58dcc96ceda195904c72f17586989a6", "is_disabled": 0, "rental_uris": {"ios": "https://dc.lft.to/lastmile_qr_scan", "android": "https://dc.lft.to/lastmile_qr_scan"}, "is_reserved": 0}, {"lon": -77.028047, "bike_id": "c24726a9c0acf495d5ff313e7b7347ed", "lat": 38.917097166666665, "fusion_lon": 0.0, "fusion_lat": 0.0, "type": "electric_scooter", "name": "c24726a9c0acf495d5ff313e7b7347ed", "is_disabled": 0, "rental_uris": {"ios": "https://dc.lft.to/lastmile_qr_scan", "android": "https://dc.lft.to/lastmile_qr_scan"}, "is_reserved": 0}, {"lon": -77.0303575, "bike_id": "171877fc8e1381226664eb30851fa3df", "lat": 38.905776, "fusion_lon": 0.0, "fusion_lat": 0.0, "type": "electric_scooter", "name": "171877fc8e1381226664eb30851fa3df", "is_disabled": 0, "rental_uris": {"ios": "https://dc.lft.to/lastmile_qr_scan", "android": "https://dc.lft.to/lastmile_qr_scan"}, "is_reserved": 0}, {"lon": -77.04505883333333, "bike_id": "f0b617966a87791734f64f800dccfbaa", "lat": 38.91602366666667, "fusion_lon": 0.0, "fusion_lat": 0.0, "type": "electric_scooter", "name": "f0b617966a87791734f64f800dccfbaa", "is_disabled": 0, "rental_uris": {"ios": "https://dc.lft.to/lastmile_qr_scan", "android": "https://dc.lft.to/lastmile_qr_scan"}, "is_reserved": 0}, {"lon": -76.98752766666667, "bike_id": "895f63aaa71dc99a49fa720241f42340", "lat": 38.90027366666666, "fusion_lon": 0.0, "fusion_lat": 0.0, "type": "electric_scooter", "name": "895f63aaa71dc99a49fa720241f42340", "is_disabled": 0, "rental_uris": {"ios": "https://dc.lft.to/lastmile_qr_scan", "android": "https://dc.lft.to/lastmile_qr_scan"}, "is_reserved": 0}, {"lon": -77.025174, "bike_id": "e1bc4dbaefd39e470e3536e107f6df8c", "lat": 38.916894, "fusion_lon": 0.0, "fusion_lat": 0.0, "type": "electric_scooter", "name": "e1bc4dbaefd39e470e3536e107f6df8c", "is_disabled": 0, "rental_uris": {"ios": "https://dc.lft.to/lastmile_qr_scan", "android": "https://dc.lft.to/lastmile_qr_scan"}, "is_reserved": 0}, {"lon": -76.98880966666667, "bike_id": "15d881c0478559a810ef3dadca0c651b", "lat": 38.8665945, "fusion_lon": 0.0, "fusion_lat": 0.0, "type": "electric_scooter", "name": "15d881c0478559a810ef3dadca0c651b", "is_disabled": 0, "rental_uris": {"ios": "https://dc.lft.to/lastmile_qr_scan", "android": "https://dc.lft.to/lastmile_qr_scan"}, "is_reserved": 0}, {"lon": -77.06406483333333, "bike_id": "0136675431a67d89716683b9ac302fd0", "lat": 38.84067, "fusion_lon": 0.0, "fusion_lat": 0.0, "type": "electric_bike", "name": "0136675431a67d89716683b9ac302fd0", "is_disabled": 0, "rental_uris": {"ios": "https://dc.lft.to/lastmile_qr_scan", "android": "https://dc.lft.to/lastmile_qr_scan"}, "is_reserved": 0}, {"lon": -77.02413716666666, "bike_id": "361636b80da47f0037b4a4b9f377db93", "lat": 38.899971, "fusion_lon": 0.0, "fusion_lat": 0.0, "type": "electric_scooter", "name": "361636b80da47f0037b4a4b9f377db93", "is_disabled": 0, "rental_uris": {"ios": "https://dc.lft.to/lastmile_qr_scan", "android": "https://dc.lft.to/lastmile_qr_scan"}, "is_reserved": 0}, {"lon": -77.02160166666667, "bike_id": "6460b1bd83a6f5569ce19493907a7cb3", "lat": 38.902238, "fusion_lon": 0.0, "fusion_lat": 0.0, "type": "electric_scooter", "name": "6460b1bd83a6f5569ce19493907a7cb3", "is_disabled": 0, "rental_uris": {"ios": "https://dc.lft.to/lastmile_qr_scan", "android": "https://dc.lft.to/lastmile_qr_scan"}, "is_reserved": 0}, {"lon": -77.00480883333333, "bike_id": "fc5ed8bfb74140fd9b1c3e90dd750590", "lat": 38.92062416666667, "fusion_lon": 0.0, "fusion_lat": 0.0, "type": "electric_scooter", "name": "fc5ed8bfb74140fd9b1c3e90dd750590", "is_disabled": 0, "rental_uris": {"ios": "https://dc.lft.to/lastmile_qr_scan", "android": "https://dc.lft.to/lastmile_qr_scan"}, "is_reserved": 0}, {"lon": -77.03056833333333, "bike_id": "2673c0b4b399bb7099649cd2440e573b", "lat": 38.9167865, "fusion_lon": 0.0, "fusion_lat": 0.0, "type": "electric_scooter", "name": "2673c0b4b399bb7099649cd2440e573b", "is_disabled": 0, "rental_uris": {"ios": "https://dc.lft.to/lastmile_qr_scan", "android": "https://dc.lft.to/lastmile_qr_scan"}, "is_reserved": 0}, {"lon": -77.04613516666667, "bike_id": "bfc554c10c3031d55a1489b72672d703", "lat": 38.8838, "fusion_lon": 0.0, "fusion_lat": 0.0, "type": "electric_scooter", "name": "bfc554c10c3031d55a1489b72672d703", "is_disabled": 0, "rental_uris": {"ios": "https://dc.lft.to/lastmile_qr_scan", "android": "https://dc.lft.to/lastmile_qr_scan"}, "is_reserved": 0}, {"lon": -77.02953366666667, "bike_id": "f9a09ff1cfc999ada67613c2e4484f87", "lat": 38.921749166666665, "fusion_lon": 0.0, "fusion_lat": 0.0, "type": "electric_scooter", "name": "f9a09ff1cfc999ada67613c2e4484f87", "is_disabled": 0, "rental_uris": {"ios": "https://dc.lft.to/lastmile_qr_scan", "android": "https://dc.lft.to/lastmile_qr_scan"}, "is_reserved": 0}, {"lon": -76.98711216666666, "bike_id": "0abd874f8e2f0a7de2ad978b68cc032b", "lat": 38.867007666666666, "fusion_lon": 0.0, "fusion_lat": 0.0, "type": "electric_scooter", "name": "0abd874f8e2f0a7de2ad978b68cc032b", "is_disabled": 0, "rental_uris": {"ios": "https://dc.lft.to/lastmile_qr_scan", "android": "https://dc.lft.to/lastmile_qr_scan"}, "is_reserved": 0}, {"lon": -76.97852583333334, "bike_id": "76b7e9595fbd6a6302323a5b8d5ae1be", "lat": 38.870765166666665, "fusion_lon": 0.0, "fusion_lat": 0.0, "type": "electric_scooter", "name": "76b7e9595fbd6a6302323a5b8d5ae1be", "is_disabled": 0, "rental_uris": {"ios": "https://dc.lft.to/lastmile_qr_scan", "android": "https://dc.lft.to/lastmile_qr_scan"}, "is_reserved": 0}, {"lon": -77.00194066666667, "bike_id": "d5920092c9bb3508bd43f213f8986ae3", "lat": 38.91477016666666, "fusion_lon": 0.0, "fusion_lat": 0.0, "type": "electric_scooter", "name": "d5920092c9bb3508bd43f213f8986ae3", "is_disabled": 0, "rental_uris": {"ios": "https://dc.lft.to/lastmile_qr_scan", "android": "https://dc.lft.to/lastmile_qr_scan"}, "is_reserved": 0}, {"lon": -77.03863616666666, "bike_id": "dcf81af6355d662cf8093ee0be6ea84e", "lat": 38.91708916666666, "fusion_lon": 0.0, "fusion_lat": 0.0, "type": "electric_scooter", "name": "dcf81af6355d662cf8093ee0be6ea84e", "is_disabled": 0, "rental_uris": {"ios": "https://dc.lft.to/lastmile_qr_scan", "android": "https://dc.lft.to/lastmile_qr_scan"}, "is_reserved": 0}, {"lon": -76.99273533333333, "bike_id": "1c5792055e1b7ae155fbb4fbc4373118", "lat": 38.899470666666666, "fusion_lon": 0.0, "fusion_lat": 0.0, "type": "electric_scooter", "name": "1c5792055e1b7ae155fbb4fbc4373118", "is_disabled": 0, "rental_uris": {"ios": "https://dc.lft.to/lastmile_qr_scan", "android": "https://dc.lft.to/lastmile_qr_scan"}, "is_reserved": 0}, {"lon": -77.02112383333333, "bike_id": "d605ed693e4f890a1e10108635e4bcdc", "lat": 38.9060325, "fusion_lon": 0.0, "fusion_lat": 0.0, "type": "electric_scooter", "name": "d605ed693e4f890a1e10108635e4bcdc", "is_disabled": 0, "rental_uris": {"ios": "https://dc.lft.to/lastmile_qr_scan", "android": "https://dc.lft.to/lastmile_qr_scan"}, "is_reserved": 0}, {"lon": -77.05221883333333, "bike_id": "20d1c27f2ec7a8692b457aaa07297a4d", "lat": 38.89994316666667, "fusion_lon": 0.0, "fusion_lat": 0.0, "type": "electric_scooter", "name": "20d1c27f2ec7a8692b457aaa07297a4d", "is_disabled": 0, "rental_uris": {"ios": "https://dc.lft.to/lastmile_qr_scan", "android": "https://dc.lft.to/lastmile_qr_scan"}, "is_reserved": 0}, {"lon": -77.04393166666667, "bike_id": "667de5603d5a0472f3928e2d695c288d", "lat": 39.04717483333334, "fusion_lon": 0.0, "fusion_lat": 0.0, "type": "electric_bike", "name": "667de5603d5a0472f3928e2d695c288d", "is_disabled": 0, "rental_uris": {"ios": "https://dc.lft.to/lastmile_qr_scan", "android": "https://dc.lft.to/lastmile_qr_scan"}, "is_reserved": 0}, {"lon": -77.05001933333334, "bike_id": "e1f44ac092a35b9650fe39649dbe8835", "lat": 38.89231, "fusion_lon": 0.0, "fusion_lat": 0.0, "type": "electric_scooter", "name": "e1f44ac092a35b9650fe39649dbe8835", "is_disabled": 0, "rental_uris": {"ios": "https://dc.lft.to/lastmile_qr_scan", "android": "https://dc.lft.to/lastmile_qr_scan"}, "is_reserved": 0}, {"lon": -77.02220116666666, "bike_id": "6e2cc9897030ffc2ac4197b86605f16c", "lat": 38.92621283333333, "fusion_lon": 0.0, "fusion_lat": 0.0, "type": "electric_scooter", "name": "6e2cc9897030ffc2ac4197b86605f16c", "is_disabled": 0, "rental_uris": {"ios": "https://dc.lft.to/lastmile_qr_scan", "android": "https://dc.lft.to/lastmile_qr_scan"}, "is_reserved": 0}, {"lon": -77.0434375, "bike_id": "3ef4b197cda752c51d9e33b90a02dc08", "lat": 38.91509283333333, "fusion_lon": 0.0, "fusion_lat": 0.0, "type": "electric_scooter", "name": "3ef4b197cda752c51d9e33b90a02dc08", "is_disabled": 0, "rental_uris": {"ios": "https://dc.lft.to/lastmile_qr_scan", "android": "https://dc.lft.to/lastmile_qr_scan"}, "is_reserved": 0}, {"lon": -77.03865316666666, "bike_id": "1767182b733ed6a8463fe663964c21ff", "lat": 38.9316895, "fusion_lon": 0.0, "fusion_lat": 0.0, "type": "electric_scooter", "name": "1767182b733ed6a8463fe663964c21ff", "is_disabled": 0, "rental_uris": {"ios": "https://dc.lft.to/lastmile_qr_scan", "android": "https://dc.lft.to/lastmile_qr_scan"}, "is_reserved": 0}, {"lon": -76.995186, "bike_id": "3904063aacab329175767addca18c1c1", "lat": 38.862539166666664, "fusion_lon": 0.0, "fusion_lat": 0.0, "type": "electric_scooter", "name": "3904063aacab329175767addca18c1c1", "is_disabled": 0, "rental_uris": {"ios": "https://dc.lft.to/lastmile_qr_scan", "android": "https://dc.lft.to/lastmile_qr_scan"}, "is_reserved": 0}, {"lon": -76.98924183333334, "bike_id": "7e2cd0f739d5fcbb7e1b061da882915e", "lat": 38.85808983333333, "fusion_lon": 0.0, "fusion_lat": 0.0, "type": "electric_scooter", "name": "7e2cd0f739d5fcbb7e1b061da882915e", "is_disabled": 0, "rental_uris": {"ios": "https://dc.lft.to/lastmile_qr_scan", "android": "https://dc.lft.to/lastmile_qr_scan"}, "is_reserved": 0}, {"lon": -77.03522816666667, "bike_id": "d06f8cfc9beb5255847d8683f3f825d6", "lat": 38.92338766666667, "fusion_lon": 0.0, "fusion_lat": 0.0, "type": "electric_scooter", "name": "d06f8cfc9beb5255847d8683f3f825d6", "is_disabled": 0, "rental_uris": {"ios": "https://dc.lft.to/lastmile_qr_scan", "android": "https://dc.lft.to/lastmile_qr_scan"}, "is_reserved": 0}, {"lon": -76.997587, "bike_id": "39fae3f437729dbc76322edeb8b0c04b", "lat": 38.950097666666665, "fusion_lon": 0.0, "fusion_lat": 0.0, "type": "electric_bike", "name": "39fae3f437729dbc76322edeb8b0c04b", "is_disabled": 0, "rental_uris": {"ios": "https://dc.lft.to/lastmile_qr_scan", "android": "https://dc.lft.to/lastmile_qr_scan"}, "is_reserved": 0}, {"lon": -77.01543983333333, "bike_id": "0c57f7744262779cf3f1818d7857ddf9", "lat": 38.88333216666667, "fusion_lon": 0.0, "fusion_lat": 0.0, "type": "electric_scooter", "name": "0c57f7744262779cf3f1818d7857ddf9", "is_disabled": 0, "rental_uris": {"ios": "https://dc.lft.to/lastmile_qr_scan", "android": "https://dc.lft.to/lastmile_qr_scan"}, "is_reserved": 0}, {"lon": -77.00625666666667, "bike_id": "96b2abb060f23cb6d7597bf49d2a1764", "lat": 38.87172233333333, "fusion_lon": 0.0, "fusion_lat": 0.0, "type": "electric_scooter", "name": "96b2abb060f23cb6d7597bf49d2a1764", "is_disabled": 0, "rental_uris": {"ios": "https://dc.lft.to/lastmile_qr_scan", "android": "https://dc.lft.to/lastmile_qr_scan"}, "is_reserved": 0}, {"lon": -77.02256233333334, "bike_id": "8be7c7ff97ababb2fe3a23a417fc4bc4", "lat": 38.925265333333336, "fusion_lon": 0.0, "fusion_lat": 0.0, "type": "electric_scooter", "name": "8be7c7ff97ababb2fe3a23a417fc4bc4", "is_disabled": 0, "rental_uris": {"ios": "https://dc.lft.to/lastmile_qr_scan", "android": "https://dc.lft.to/lastmile_qr_scan"}, "is_reserved": 0}, {"lon": -76.9499865, "bike_id": "9b947236bbe573d89b4a99ece308c82f", "lat": 38.8938015, "fusion_lon": 0.0, "fusion_lat": 0.0, "type": "electric_scooter", "name": "9b947236bbe573d89b4a99ece308c82f", "is_disabled": 0, "rental_uris": {"ios": "https://dc.lft.to/lastmile_qr_scan", "android": "https://dc.lft.to/lastmile_qr_scan"}, "is_reserved": 0}, {"lon": -77.02685666666666, "bike_id": "c7e877434a461303289d8f6a3aaa395b", "lat": 38.904802833333335, "fusion_lon": 0.0, "fusion_lat": 0.0, "type": "electric_scooter", "name": "c7e877434a461303289d8f6a3aaa395b", "is_disabled": 0, "rental_uris": {"ios": "https://dc.lft.to/lastmile_qr_scan", "android": "https://dc.lft.to/lastmile_qr_scan"}, "is_reserved": 0}, {"lon": -76.9786155, "bike_id": "07c471600634e0282d6a31026b67d17a", "lat": 38.907189333333335, "fusion_lon": 0.0, "fusion_lat": 0.0, "type": "electric_scooter", "name": "07c471600634e0282d6a31026b67d17a", "is_disabled": 0, "rental_uris": {"ios": "https://dc.lft.to/lastmile_qr_scan", "android": "https://dc.lft.to/lastmile_qr_scan"}, "is_reserved": 0}, {"lon": -77.02382833333333, "bike_id": "726220f28a90bb4ebe8aac8f0bd937c3", "lat": 38.902789166666665, "fusion_lon": 0.0, "fusion_lat": 0.0, "type": "electric_scooter", "name": "726220f28a90bb4ebe8aac8f0bd937c3", "is_disabled": 0, "rental_uris": {"ios": "https://dc.lft.to/lastmile_qr_scan", "android": "https://dc.lft.to/lastmile_qr_scan"}, "is_reserved": 0}, {"lon": -77.02615116666666, "bike_id": "96d6b200f48cb47802d6419704688dfd", "lat": 38.91419583333333, "fusion_lon": 0.0, "fusion_lat": 0.0, "type": "electric_scooter", "name": "96d6b200f48cb47802d6419704688dfd", "is_disabled": 0, "rental_uris": {"ios": "https://dc.lft.to/lastmile_qr_scan", "android": "https://dc.lft.to/lastmile_qr_scan"}, "is_reserved": 0}, {"lon": -77.022092, "bike_id": "74729c3c30aee354b04736a4144e00a4", "lat": 38.90542966666667, "fusion_lon": 0.0, "fusion_lat": 0.0, "type": "electric_scooter", "name": "74729c3c30aee354b04736a4144e00a4", "is_disabled": 0, "rental_uris": {"ios": "https://dc.lft.to/lastmile_qr_scan", "android": "https://dc.lft.to/lastmile_qr_scan"}, "is_reserved": 0}, {"lon": -77.042418, "bike_id": "5b361810d5189341dcd002c8a528729b", "lat": 38.92222616666667, "fusion_lon": 0.0, "fusion_lat": 0.0, "type": "electric_scooter", "name": "5b361810d5189341dcd002c8a528729b", "is_disabled": 0, "rental_uris": {"ios": "https://dc.lft.to/lastmile_qr_scan", "android": "https://dc.lft.to/lastmile_qr_scan"}, "is_reserved": 0}, {"lon": -77.04358116666667, "bike_id": "f1daa09b0e641f45f5739ac492db88b3", "lat": 38.9158855, "fusion_lon": 0.0, "fusion_lat": 0.0, "type": "electric_scooter", "name": "f1daa09b0e641f45f5739ac492db88b3", "is_disabled": 0, "rental_uris": {"ios": "https://dc.lft.to/lastmile_qr_scan", "android": "https://dc.lft.to/lastmile_qr_scan"}, "is_reserved": 0}, {"lon": -77.02613716666667, "bike_id": "bce268e4e9069fd997f14b76b5d81e76", "lat": 38.89598133333333, "fusion_lon": 0.0, "fusion_lat": 0.0, "type": "electric_bike", "name": "bce268e4e9069fd997f14b76b5d81e76", "is_disabled": 0, "rental_uris": {"ios": "https://dc.lft.to/lastmile_qr_scan", "android": "https://dc.lft.to/lastmile_qr_scan"}, "is_reserved": 0}, {"lon": -77.0143965, "bike_id": "9a0a1afa62ceadf391c3a9830d3196d2", "lat": 38.905393833333335, "fusion_lon": 0.0, "fusion_lat": 0.0, "type": "electric_scooter", "name": "9a0a1afa62ceadf391c3a9830d3196d2", "is_disabled": 0, "rental_uris": {"ios": "https://dc.lft.to/lastmile_qr_scan", "android": "https://dc.lft.to/lastmile_qr_scan"}, "is_reserved": 0}, {"lon": -77.02803166666666, "bike_id": "83a15df4f7f00607d564158979ee4cf8", "lat": 38.91701966666667, "fusion_lon": 0.0, "fusion_lat": 0.0, "type": "electric_scooter", "name": "83a15df4f7f00607d564158979ee4cf8", "is_disabled": 0, "rental_uris": {"ios": "https://dc.lft.to/lastmile_qr_scan", "android": "https://dc.lft.to/lastmile_qr_scan"}, "is_reserved": 0}, {"lon": -77.03179916666667, "bike_id": "36c73033e45a3de9e1067648f774e544", "lat": 38.91239066666667, "fusion_lon": 0.0, "fusion_lat": 0.0, "type": "electric_scooter", "name": "36c73033e45a3de9e1067648f774e544", "is_disabled": 0, "rental_uris": {"ios": "https://dc.lft.to/lastmile_qr_scan", "android": "https://dc.lft.to/lastmile_qr_scan"}, "is_reserved": 0}, {"lon": -77.13908516666666, "bike_id": "fd9d2bdd886ef0baf3fa6459d1635f91", "lat": 38.896763, "fusion_lon": 0.0, "fusion_lat": 0.0, "type": "electric_bike", "name": "fd9d2bdd886ef0baf3fa6459d1635f91", "is_disabled": 0, "rental_uris": {"ios": "https://dc.lft.to/lastmile_qr_scan", "android": "https://dc.lft.to/lastmile_qr_scan"}, "is_reserved": 0}, {"lon": -77.02548416666667, "bike_id": "c25eecab2366adbd1481de138ee46361", "lat": 38.922550666666666, "fusion_lon": 0.0, "fusion_lat": 0.0, "type": "electric_scooter", "name": "c25eecab2366adbd1481de138ee46361", "is_disabled": 0, "rental_uris": {"ios": "https://dc.lft.to/lastmile_qr_scan", "android": "https://dc.lft.to/lastmile_qr_scan"}, "is_reserved": 0}, {"lon": -77.02702833333333, "bike_id": "c33750b2c45952c74eaf3139f016acf2", "lat": 38.90247033333333, "fusion_lon": 0.0, "fusion_lat": 0.0, "type": "electric_scooter", "name": "c33750b2c45952c74eaf3139f016acf2", "is_disabled": 0, "rental_uris": {"ios": "https://dc.lft.to/lastmile_qr_scan", "android": "https://dc.lft.to/lastmile_qr_scan"}, "is_reserved": 0}, {"lon": -77.01481116666666, "bike_id": "5e12c82b7685e0fc10c2047c2900263a", "lat": 38.958707, "fusion_lon": 0.0, "fusion_lat": 0.0, "type": "electric_scooter", "name": "5e12c82b7685e0fc10c2047c2900263a", "is_disabled": 0, "rental_uris": {"ios": "https://dc.lft.to/lastmile_qr_scan", "android": "https://dc.lft.to/lastmile_qr_scan"}, "is_reserved": 0}, {"lon": -77.03207566666667, "bike_id": "34e23ccbf06bcc5f48605ad4f6e08ab6", "lat": 38.9217375, "fusion_lon": 0.0, "fusion_lat": 0.0, "type": "electric_scooter", "name": "34e23ccbf06bcc5f48605ad4f6e08ab6", "is_disabled": 0, "rental_uris": {"ios": "https://dc.lft.to/lastmile_qr_scan", "android": "https://dc.lft.to/lastmile_qr_scan"}, "is_reserved": 0}, {"lon": -77.1157585, "bike_id": "e89145140d749e36a78da6a9a9f20568", "lat": 38.99342983333333, "fusion_lon": 0.0, "fusion_lat": 0.0, "type": "electric_bike", "name": "e89145140d749e36a78da6a9a9f20568", "is_disabled": 0, "rental_uris": {"ios": "https://dc.lft.to/lastmile_qr_scan", "android": "https://dc.lft.to/lastmile_qr_scan"}, "is_reserved": 0}, {"lon": -76.98526966666667, "bike_id": "29be0fe01966758a7426e5c17518dd56", "lat": 38.866864166666666, "fusion_lon": 0.0, "fusion_lat": 0.0, "type": "electric_scooter", "name": "29be0fe01966758a7426e5c17518dd56", "is_disabled": 0, "rental_uris": {"ios": "https://dc.lft.to/lastmile_qr_scan", "android": "https://dc.lft.to/lastmile_qr_scan"}, "is_reserved": 0}, {"lon": -77.03499183333334, "bike_id": "04049954e3cb484dcfbd7ddb7e22d9af", "lat": 38.934601666666666, "fusion_lon": 0.0, "fusion_lat": 0.0, "type": "electric_scooter", "name": "04049954e3cb484dcfbd7ddb7e22d9af", "is_disabled": 0, "rental_uris": {"ios": "https://dc.lft.to/lastmile_qr_scan", "android": "https://dc.lft.to/lastmile_qr_scan"}, "is_reserved": 0}, {"lon": -77.0308825, "bike_id": "bce0c1f002b8be907fcae87aba71d717", "lat": 38.904488, "fusion_lon": 0.0, "fusion_lat": 0.0, "type": "electric_scooter", "name": "bce0c1f002b8be907fcae87aba71d717", "is_disabled": 0, "rental_uris": {"ios": "https://dc.lft.to/lastmile_qr_scan", "android": "https://dc.lft.to/lastmile_qr_scan"}, "is_reserved": 0}, {"lon": -77.05359533333333, "bike_id": "c9f71410e0bb47243e1c65193ddd64a5", "lat": 38.90357933333333, "fusion_lon": 0.0, "fusion_lat": 0.0, "type": "electric_scooter", "name": "c9f71410e0bb47243e1c65193ddd64a5", "is_disabled": 0, "rental_uris": {"ios": "https://dc.lft.to/lastmile_qr_scan", "android": "https://dc.lft.to/lastmile_qr_scan"}, "is_reserved": 0}, {"lon": -77.02637083333333, "bike_id": "23d31508323674918469beb63c11e9a6", "lat": 38.917039333333335, "fusion_lon": 0.0, "fusion_lat": 0.0, "type": "electric_scooter", "name": "23d31508323674918469beb63c11e9a6", "is_disabled": 0, "rental_uris": {"ios": "https://dc.lft.to/lastmile_qr_scan", "android": "https://dc.lft.to/lastmile_qr_scan"}, "is_reserved": 0}, {"lon": -77.0236725, "bike_id": "22717bad556e19d1e0ef35351de12be7", "lat": 38.90414233333333, "fusion_lon": 0.0, "fusion_lat": 0.0, "type": "electric_scooter", "name": "22717bad556e19d1e0ef35351de12be7", "is_disabled": 0, "rental_uris": {"ios": "https://dc.lft.to/lastmile_qr_scan", "android": "https://dc.lft.to/lastmile_qr_scan"}, "is_reserved": 0}, {"lon": -77.020403, "bike_id": "f3c0e9270190db91b4eb4fe250293256", "lat": 38.89734716666667, "fusion_lon": 0.0, "fusion_lat": 0.0, "type": "electric_scooter", "name": "f3c0e9270190db91b4eb4fe250293256", "is_disabled": 0, "rental_uris": {"ios": "https://dc.lft.to/lastmile_qr_scan", "android": "https://dc.lft.to/lastmile_qr_scan"}, "is_reserved": 0}, {"lon": -77.0650025, "bike_id": "15c439c75a140bf79dd95be19088ca0a", "lat": 38.904087833333335, "fusion_lon": 0.0, "fusion_lat": 0.0, "type": "electric_scooter", "name": "15c439c75a140bf79dd95be19088ca0a", "is_disabled": 0, "rental_uris": {"ios": "https://dc.lft.to/lastmile_qr_scan", "android": "https://dc.lft.to/lastmile_qr_scan"}, "is_reserved": 0}, {"lon": -77.03667233333333, "bike_id": "6e24ea2df8222d6ba644a30b92b5f694", "lat": 38.936192166666665, "fusion_lon": 0.0, "fusion_lat": 0.0, "type": "electric_scooter", "name": "6e24ea2df8222d6ba644a30b92b5f694", "is_disabled": 0, "rental_uris": {"ios": "https://dc.lft.to/lastmile_qr_scan", "android": "https://dc.lft.to/lastmile_qr_scan"}, "is_reserved": 0}, {"lon": -77.02512283333333, "bike_id": "b83fcaaff5665466d5d8570cc2329bc5", "lat": 38.934098666666664, "fusion_lon": 0.0, "fusion_lat": 0.0, "type": "electric_bike", "name": "b83fcaaff5665466d5d8570cc2329bc5", "is_disabled": 0, "rental_uris": {"ios": "https://dc.lft.to/lastmile_qr_scan", "android": "https://dc.lft.to/lastmile_qr_scan"}, "is_reserved": 0}, {"lon": -76.9748425, "bike_id": "6337a0155b565933162e7683a87839b2", "lat": 38.90356416666667, "fusion_lon": 0.0, "fusion_lat": 0.0, "type": "electric_scooter", "name": "6337a0155b565933162e7683a87839b2", "is_disabled": 0, "rental_uris": {"ios": "https://dc.lft.to/lastmile_qr_scan", "android": "https://dc.lft.to/lastmile_qr_scan"}, "is_reserved": 0}, {"lon": -77.0367015, "bike_id": "6ac1aa15ed418ee5e1476586e894336e", "lat": 38.904126, "fusion_lon": 0.0, "fusion_lat": 0.0, "type": "electric_scooter", "name": "6ac1aa15ed418ee5e1476586e894336e", "is_disabled": 0, "rental_uris": {"ios": "https://dc.lft.to/lastmile_qr_scan", "android": "https://dc.lft.to/lastmile_qr_scan"}, "is_reserved": 0}, {"lon": -76.99018483333333, "bike_id": "05ea838936502f48112808c29d9376fb", "lat": 38.86645016666667, "fusion_lon": 0.0, "fusion_lat": 0.0, "type": "electric_scooter", "name": "05ea838936502f48112808c29d9376fb", "is_disabled": 0, "rental_uris": {"ios": "https://dc.lft.to/lastmile_qr_scan", "android": "https://dc.lft.to/lastmile_qr_scan"}, "is_reserved": 0}, {"lon": -76.99084016666667, "bike_id": "135373f8c8f789878e34dcf288634b23", "lat": 38.86241966666667, "fusion_lon": 0.0, "fusion_lat": 0.0, "type": "electric_bike", "name": "135373f8c8f789878e34dcf288634b23", "is_disabled": 0, "rental_uris": {"ios": "https://dc.lft.to/lastmile_qr_scan", "android": "https://dc.lft.to/lastmile_qr_scan"}, "is_reserved": 0}, {"lon": -77.03867016666666, "bike_id": "5596cdfb8932b50f38569571d2e7c3cf", "lat": 38.917043166666666, "fusion_lon": 0.0, "fusion_lat": 0.0, "type": "electric_scooter", "name": "5596cdfb8932b50f38569571d2e7c3cf", "is_disabled": 0, "rental_uris": {"ios": "https://dc.lft.to/lastmile_qr_scan", "android": "https://dc.lft.to/lastmile_qr_scan"}, "is_reserved": 0}, {"lon": -77.01100583333333, "bike_id": "2fede71c75d8909145930b7c4cb89f5b", "lat": 38.907912833333334, "fusion_lon": 0.0, "fusion_lat": 0.0, "type": "electric_scooter", "name": "2fede71c75d8909145930b7c4cb89f5b", "is_disabled": 0, "rental_uris": {"ios": "https://dc.lft.to/lastmile_qr_scan", "android": "https://dc.lft.to/lastmile_qr_scan"}, "is_reserved": 0}, {"lon": -77.08071583333333, "bike_id": "132f26149cab90364e0644819f0d6c5d", "lat": 39.05277266666667, "fusion_lon": 0.0, "fusion_lat": 0.0, "type": "electric_bike", "name": "132f26149cab90364e0644819f0d6c5d", "is_disabled": 0, "rental_uris": {"ios": "https://dc.lft.to/lastmile_qr_scan", "android": "https://dc.lft.to/lastmile_qr_scan"}, "is_reserved": 0}, {"lon": -76.99533433333333, "bike_id": "c530f46b2d323558071eb3d2bb515179", "lat": 38.8837835, "fusion_lon": 0.0, "fusion_lat": 0.0, "type": "electric_scooter", "name": "c530f46b2d323558071eb3d2bb515179", "is_disabled": 0, "rental_uris": {"ios": "https://dc.lft.to/lastmile_qr_scan", "android": "https://dc.lft.to/lastmile_qr_scan"}, "is_reserved": 0}, {"lon": -77.00687566666667, "bike_id": "750126d8d58b6f531ed36cd64fd3025e", "lat": 38.90038766666667, "fusion_lon": 0.0, "fusion_lat": 0.0, "type": "electric_scooter", "name": "750126d8d58b6f531ed36cd64fd3025e", "is_disabled": 0, "rental_uris": {"ios": "https://dc.lft.to/lastmile_qr_scan", "android": "https://dc.lft.to/lastmile_qr_scan"}, "is_reserved": 0}, {"lon": -77.0360805, "bike_id": "64898d5bc3acbef13070961ef6dbb9ba", "lat": 38.9173955, "fusion_lon": 0.0, "fusion_lat": 0.0, "type": "electric_scooter", "name": "64898d5bc3acbef13070961ef6dbb9ba", "is_disabled": 0, "rental_uris": {"ios": "https://dc.lft.to/lastmile_qr_scan", "android": "https://dc.lft.to/lastmile_qr_scan"}, "is_reserved": 0}, {"lon": -77.02962133333334, "bike_id": "15c3113618800bba1b560f28ade43bf2", "lat": 38.91674, "fusion_lon": 0.0, "fusion_lat": 0.0, "type": "electric_scooter", "name": "15c3113618800bba1b560f28ade43bf2", "is_disabled": 0, "rental_uris": {"ios": "https://dc.lft.to/lastmile_qr_scan", "android": "https://dc.lft.to/lastmile_qr_scan"}, "is_reserved": 0}, {"lon": -76.99016816666666, "bike_id": "f9e71cd202288118a946fba0122d2c77", "lat": 38.894172, "fusion_lon": 0.0, "fusion_lat": 0.0, "type": "electric_scooter", "name": "f9e71cd202288118a946fba0122d2c77", "is_disabled": 0, "rental_uris": {"ios": "https://dc.lft.to/lastmile_qr_scan", "android": "https://dc.lft.to/lastmile_qr_scan"}, "is_reserved": 0}, {"lon": -77.0260295, "bike_id": "68a98a5662625fa4bf633ae355c7f1a0", "lat": 38.905707166666666, "fusion_lon": 0.0, "fusion_lat": 0.0, "type": "electric_scooter", "name": "68a98a5662625fa4bf633ae355c7f1a0", "is_disabled": 0, "rental_uris": {"ios": "https://dc.lft.to/lastmile_qr_scan", "android": "https://dc.lft.to/lastmile_qr_scan"}, "is_reserved": 0}, {"lon": -77.015767, "bike_id": "c9a3b92d8a87c6ac591bcb8da6c8cafe", "lat": 38.965694666666664, "fusion_lon": 0.0, "fusion_lat": 0.0, "type": "electric_scooter", "name": "c9a3b92d8a87c6ac591bcb8da6c8cafe", "is_disabled": 0, "rental_uris": {"ios": "https://dc.lft.to/lastmile_qr_scan", "android": "https://dc.lft.to/lastmile_qr_scan"}, "is_reserved": 0}, {"lon": -77.03391666666667, "bike_id": "6c0cb601f6320fec995af7a51d7fdaef", "lat": 38.9080285, "fusion_lon": 0.0, "fusion_lat": 0.0, "type": "electric_scooter", "name": "6c0cb601f6320fec995af7a51d7fdaef", "is_disabled": 0, "rental_uris": {"ios": "https://dc.lft.to/lastmile_qr_scan", "android": "https://dc.lft.to/lastmile_qr_scan"}, "is_reserved": 0}, {"lon": -77.0124525, "bike_id": "034e20fdc6fe5735ca5ef02842e10969", "lat": 38.8929465, "fusion_lon": 0.0, "fusion_lat": 0.0, "type": "electric_scooter", "name": "034e20fdc6fe5735ca5ef02842e10969", "is_disabled": 0, "rental_uris": {"ios": "https://dc.lft.to/lastmile_qr_scan", "android": "https://dc.lft.to/lastmile_qr_scan"}, "is_reserved": 0}, {"lon": -77.02724583333334, "bike_id": "298658dc6aca0e027782db91e23c35a9", "lat": 38.910739, "fusion_lon": 0.0, "fusion_lat": 0.0, "type": "electric_scooter", "name": "298658dc6aca0e027782db91e23c35a9", "is_disabled": 0, "rental_uris": {"ios": "https://dc.lft.to/lastmile_qr_scan", "android": "https://dc.lft.to/lastmile_qr_scan"}, "is_reserved": 0}, {"lon": -77.04633716666666, "bike_id": "281e73d4b3b679fafc0ee5ec47a74ede", "lat": 38.91906183333333, "fusion_lon": 0.0, "fusion_lat": 0.0, "type": "electric_scooter", "name": "281e73d4b3b679fafc0ee5ec47a74ede", "is_disabled": 0, "rental_uris": {"ios": "https://dc.lft.to/lastmile_qr_scan", "android": "https://dc.lft.to/lastmile_qr_scan"}, "is_reserved": 0}, {"lon": -77.01433966666667, "bike_id": "18b8e17395e84a00bd0fa19721ef81f4", "lat": 38.91461966666667, "fusion_lon": 0.0, "fusion_lat": 0.0, "type": "electric_scooter", "name": "18b8e17395e84a00bd0fa19721ef81f4", "is_disabled": 0, "rental_uris": {"ios": "https://dc.lft.to/lastmile_qr_scan", "android": "https://dc.lft.to/lastmile_qr_scan"}, "is_reserved": 0}, {"lon": -77.03450033333333, "bike_id": "1d985f6845435b939e1b190e02be04e9", "lat": 38.907361333333334, "fusion_lon": 0.0, "fusion_lat": 0.0, "type": "electric_scooter", "name": "1d985f6845435b939e1b190e02be04e9", "is_disabled": 0, "rental_uris": {"ios": "https://dc.lft.to/lastmile_qr_scan", "android": "https://dc.lft.to/lastmile_qr_scan"}, "is_reserved": 0}, {"lon": -76.983554, "bike_id": "d3ce7e80bf2350b95bdf7c0281ce4abe", "lat": 38.904460666666665, "fusion_lon": 0.0, "fusion_lat": 0.0, "type": "electric_scooter", "name": "d3ce7e80bf2350b95bdf7c0281ce4abe", "is_disabled": 0, "rental_uris": {"ios": "https://dc.lft.to/lastmile_qr_scan", "android": "https://dc.lft.to/lastmile_qr_scan"}, "is_reserved": 0}, {"lon": -77.02033433333334, "bike_id": "ade601c4834eb0b60ab615658cfdfc76", "lat": 38.92441783333334, "fusion_lon": 0.0, "fusion_lat": 0.0, "type": "electric_scooter", "name": "ade601c4834eb0b60ab615658cfdfc76", "is_disabled": 0, "rental_uris": {"ios": "https://dc.lft.to/lastmile_qr_scan", "android": "https://dc.lft.to/lastmile_qr_scan"}, "is_reserved": 0}, {"lon": -76.949238, "bike_id": "212e33629a0819ba82514f9575ad4327", "lat": 38.893529, "fusion_lon": 0.0, "fusion_lat": 0.0, "type": "electric_scooter", "name": "212e33629a0819ba82514f9575ad4327", "is_disabled": 0, "rental_uris": {"ios": "https://dc.lft.to/lastmile_qr_scan", "android": "https://dc.lft.to/lastmile_qr_scan"}, "is_reserved": 0}, {"lon": -77.0235175, "bike_id": "6d2f83959adbd936b1c29a22851859f8", "lat": 38.896159, "fusion_lon": 0.0, "fusion_lat": 0.0, "type": "electric_scooter", "name": "6d2f83959adbd936b1c29a22851859f8", "is_disabled": 0, "rental_uris": {"ios": "https://dc.lft.to/lastmile_qr_scan", "android": "https://dc.lft.to/lastmile_qr_scan"}, "is_reserved": 0}, {"lon": -77.07433866666666, "bike_id": "a76c799ada18fde1ea78a75aadec06a3", "lat": 38.99948066666666, "fusion_lon": 0.0, "fusion_lat": 0.0, "type": "electric_bike", "name": "a76c799ada18fde1ea78a75aadec06a3", "is_disabled": 0, "rental_uris": {"ios": "https://dc.lft.to/lastmile_qr_scan", "android": "https://dc.lft.to/lastmile_qr_scan"}, "is_reserved": 0}, {"lon": -77.067324, "bike_id": "870125d9c241540b3249c2f5eced7ba0", "lat": 38.90386, "fusion_lon": 0.0, "fusion_lat": 0.0, "type": "electric_scooter", "name": "870125d9c241540b3249c2f5eced7ba0", "is_disabled": 0, "rental_uris": {"ios": "https://dc.lft.to/lastmile_qr_scan", "android": "https://dc.lft.to/lastmile_qr_scan"}, "is_reserved": 0}, {"lon": -77.00010516666667, "bike_id": "3760bc55640f239ace78a56206f71c01", "lat": 38.91985533333333, "fusion_lon": 0.0, "fusion_lat": 0.0, "type": "electric_scooter", "name": "3760bc55640f239ace78a56206f71c01", "is_disabled": 0, "rental_uris": {"ios": "https://dc.lft.to/lastmile_qr_scan", "android": "https://dc.lft.to/lastmile_qr_scan"}, "is_reserved": 0}, {"lon": -77.01387233333334, "bike_id": "f91812b1fb662b2850f2c5949ef22231", "lat": 38.886745166666664, "fusion_lon": 0.0, "fusion_lat": 0.0, "type": "electric_scooter", "name": "f91812b1fb662b2850f2c5949ef22231", "is_disabled": 0, "rental_uris": {"ios": "https://dc.lft.to/lastmile_qr_scan", "android": "https://dc.lft.to/lastmile_qr_scan"}, "is_reserved": 0}, {"lon": -76.987236, "bike_id": "a2362f8ccc2943899ffb259aeae2a46d", "lat": 38.866271, "fusion_lon": 0.0, "fusion_lat": 0.0, "type": "electric_scooter", "name": "a2362f8ccc2943899ffb259aeae2a46d", "is_disabled": 0, "rental_uris": {"ios": "https://dc.lft.to/lastmile_qr_scan", "android": "https://dc.lft.to/lastmile_qr_scan"}, "is_reserved": 0}, {"lon": -77.032624, "bike_id": "3a3977260c79dd51204942b1b4253afa", "lat": 38.93559883333333, "fusion_lon": 0.0, "fusion_lat": 0.0, "type": "electric_scooter", "name": "3a3977260c79dd51204942b1b4253afa", "is_disabled": 0, "rental_uris": {"ios": "https://dc.lft.to/lastmile_qr_scan", "android": "https://dc.lft.to/lastmile_qr_scan"}, "is_reserved": 0}, {"lon": -77.05861333333333, "bike_id": "a017cbd8fc373c08d1ee7890b4f76014", "lat": 38.936077, "fusion_lon": 0.0, "fusion_lat": 0.0, "type": "electric_scooter", "name": "a017cbd8fc373c08d1ee7890b4f76014", "is_disabled": 0, "rental_uris": {"ios": "https://dc.lft.to/lastmile_qr_scan", "android": "https://dc.lft.to/lastmile_qr_scan"}, "is_reserved": 0}, {"lon": -77.03661216666667, "bike_id": "fd2026c2ac8f8109f8731942bfe9f861", "lat": 38.91289966666667, "fusion_lon": 0.0, "fusion_lat": 0.0, "type": "electric_scooter", "name": "fd2026c2ac8f8109f8731942bfe9f861", "is_disabled": 0, "rental_uris": {"ios": "https://dc.lft.to/lastmile_qr_scan", "android": "https://dc.lft.to/lastmile_qr_scan"}, "is_reserved": 0}, {"lon": -76.9968425, "bike_id": "1232778c9592ee3dafbe524eac669047", "lat": 38.860289333333334, "fusion_lon": 0.0, "fusion_lat": 0.0, "type": "electric_scooter", "name": "1232778c9592ee3dafbe524eac669047", "is_disabled": 0, "rental_uris": {"ios": "https://dc.lft.to/lastmile_qr_scan", "android": "https://dc.lft.to/lastmile_qr_scan"}, "is_reserved": 0}, {"lon": -77.05050733333333, "bike_id": "d74fec7b40251b3c1ed7c75e4a89ce10", "lat": 38.907257666666666, "fusion_lon": 0.0, "fusion_lat": 0.0, "type": "electric_scooter", "name": "d74fec7b40251b3c1ed7c75e4a89ce10", "is_disabled": 0, "rental_uris": {"ios": "https://dc.lft.to/lastmile_qr_scan", "android": "https://dc.lft.to/lastmile_qr_scan"}, "is_reserved": 0}, {"lon": -77.0303275, "bike_id": "6955f9182947f2a1e6d146e4b0a6752d", "lat": 38.93117816666667, "fusion_lon": 0.0, "fusion_lat": 0.0, "type": "electric_scooter", "name": "6955f9182947f2a1e6d146e4b0a6752d", "is_disabled": 0, "rental_uris": {"ios": "https://dc.lft.to/lastmile_qr_scan", "android": "https://dc.lft.to/lastmile_qr_scan"}, "is_reserved": 0}, {"lon": -77.04357883333333, "bike_id": "5cf9d36c02fcb9f66a651cff6b25c9d9", "lat": 38.902450333333334, "fusion_lon": 0.0, "fusion_lat": 0.0, "type": "electric_scooter", "name": "5cf9d36c02fcb9f66a651cff6b25c9d9", "is_disabled": 0, "rental_uris": {"ios": "https://dc.lft.to/lastmile_qr_scan", "android": "https://dc.lft.to/lastmile_qr_scan"}, "is_reserved": 0}, {"lon": -76.97522533333333, "bike_id": "99f6f257d89c874168c0eff3b6d3bfa1", "lat": 38.966960666666665, "fusion_lon": 0.0, "fusion_lat": 0.0, "type": "electric_bike", "name": "99f6f257d89c874168c0eff3b6d3bfa1", "is_disabled": 0, "rental_uris": {"ios": "https://dc.lft.to/lastmile_qr_scan", "android": "https://dc.lft.to/lastmile_qr_scan"}, "is_reserved": 0}, {"lon": -77.05315883333333, "bike_id": "e789f0c6e721a5cc7316eb90ffb442c3", "lat": 38.9007335, "fusion_lon": 0.0, "fusion_lat": 0.0, "type": "electric_scooter", "name": "e789f0c6e721a5cc7316eb90ffb442c3", "is_disabled": 0, "rental_uris": {"ios": "https://dc.lft.to/lastmile_qr_scan", "android": "https://dc.lft.to/lastmile_qr_scan"}, "is_reserved": 0}, {"lon": -77.032223, "bike_id": "38522cdb2406b733e42eb44be9f07b0a", "lat": 38.90885683333333, "fusion_lon": 0.0, "fusion_lat": 0.0, "type": "electric_scooter", "name": "38522cdb2406b733e42eb44be9f07b0a", "is_disabled": 0, "rental_uris": {"ios": "https://dc.lft.to/lastmile_qr_scan", "android": "https://dc.lft.to/lastmile_qr_scan"}, "is_reserved": 0}, {"lon": -77.03655166666667, "bike_id": "0c8b36f24ac701e0fa1f3aa20aaccc1e", "lat": 38.940924833333334, "fusion_lon": 0.0, "fusion_lat": 0.0, "type": "electric_scooter", "name": "0c8b36f24ac701e0fa1f3aa20aaccc1e", "is_disabled": 0, "rental_uris": {"ios": "https://dc.lft.to/lastmile_qr_scan", "android": "https://dc.lft.to/lastmile_qr_scan"}, "is_reserved": 0}, {"lon": -77.04340633333334, "bike_id": "29deb00cde8ec2a056b75d8c7350b3c1", "lat": 38.9177815, "fusion_lon": 0.0, "fusion_lat": 0.0, "type": "electric_scooter", "name": "29deb00cde8ec2a056b75d8c7350b3c1", "is_disabled": 0, "rental_uris": {"ios": "https://dc.lft.to/lastmile_qr_scan", "android": "https://dc.lft.to/lastmile_qr_scan"}, "is_reserved": 0}, {"lon": -77.02384166666667, "bike_id": "8f2f72e0e3acd2e4e9d6194938d8b504", "lat": 38.892066666666665, "fusion_lon": 0.0, "fusion_lat": 0.0, "type": "electric_scooter", "name": "8f2f72e0e3acd2e4e9d6194938d8b504", "is_disabled": 0, "rental_uris": {"ios": "https://dc.lft.to/lastmile_qr_scan", "android": "https://dc.lft.to/lastmile_qr_scan"}, "is_reserved": 0}, {"lon": -76.9826475, "bike_id": "f8b62e3fc6f8ecc520aa2fb4f1d3a89b", "lat": 38.908612166666664, "fusion_lon": 0.0, "fusion_lat": 0.0, "type": "electric_scooter", "name": "f8b62e3fc6f8ecc520aa2fb4f1d3a89b", "is_disabled": 0, "rental_uris": {"ios": "https://dc.lft.to/lastmile_qr_scan", "android": "https://dc.lft.to/lastmile_qr_scan"}, "is_reserved": 0}, {"lon": -77.0218135, "bike_id": "2359734092744a9f59370e90d4dc12b7", "lat": 38.91941216666667, "fusion_lon": 0.0, "fusion_lat": 0.0, "type": "electric_scooter", "name": "2359734092744a9f59370e90d4dc12b7", "is_disabled": 0, "rental_uris": {"ios": "https://dc.lft.to/lastmile_qr_scan", "android": "https://dc.lft.to/lastmile_qr_scan"}, "is_reserved": 0}, {"lon": -77.0226865, "bike_id": "6b418e520ad558354b86e7ac6484c49e", "lat": 38.927339, "fusion_lon": 0.0, "fusion_lat": 0.0, "type": "electric_scooter", "name": "6b418e520ad558354b86e7ac6484c49e", "is_disabled": 0, "rental_uris": {"ios": "https://dc.lft.to/lastmile_qr_scan", "android": "https://dc.lft.to/lastmile_qr_scan"}, "is_reserved": 0}, {"lon": -76.98198216666667, "bike_id": "58bf3fcf67fe8372567b7964f6727a6c", "lat": 38.899458, "fusion_lon": 0.0, "fusion_lat": 0.0, "type": "electric_scooter", "name": "58bf3fcf67fe8372567b7964f6727a6c", "is_disabled": 0, "rental_uris": {"ios": "https://dc.lft.to/lastmile_qr_scan", "android": "https://dc.lft.to/lastmile_qr_scan"}, "is_reserved": 0}, {"lon": -76.95184566666667, "bike_id": "9b2f46e10d3b97f3a5e2110cef063734", "lat": 38.907412666666666, "fusion_lon": 0.0, "fusion_lat": 0.0, "type": "electric_scooter", "name": "9b2f46e10d3b97f3a5e2110cef063734", "is_disabled": 0, "rental_uris": {"ios": "https://dc.lft.to/lastmile_qr_scan", "android": "https://dc.lft.to/lastmile_qr_scan"}, "is_reserved": 0}, {"lon": -76.98713983333333, "bike_id": "d8357233d8f543c22a9530a89e67be78", "lat": 38.866259, "fusion_lon": 0.0, "fusion_lat": 0.0, "type": "electric_scooter", "name": "d8357233d8f543c22a9530a89e67be78", "is_disabled": 0, "rental_uris": {"ios": "https://dc.lft.to/lastmile_qr_scan", "android": "https://dc.lft.to/lastmile_qr_scan"}, "is_reserved": 0}, {"lon": -77.029765, "bike_id": "69cd5071fb72a3a53d3d912ed3766f82", "lat": 38.90573466666667, "fusion_lon": 0.0, "fusion_lat": 0.0, "type": "electric_scooter", "name": "69cd5071fb72a3a53d3d912ed3766f82", "is_disabled": 0, "rental_uris": {"ios": "https://dc.lft.to/lastmile_qr_scan", "android": "https://dc.lft.to/lastmile_qr_scan"}, "is_reserved": 0}, {"lon": -76.9800465, "bike_id": "803a9ff0761dd0ba18139641dba13b64", "lat": 38.906792833333334, "fusion_lon": 0.0, "fusion_lat": 0.0, "type": "electric_scooter", "name": "803a9ff0761dd0ba18139641dba13b64", "is_disabled": 0, "rental_uris": {"ios": "https://dc.lft.to/lastmile_qr_scan", "android": "https://dc.lft.to/lastmile_qr_scan"}, "is_reserved": 0}, {"lon": -77.00734266666667, "bike_id": "b0c1b7120bd95943f6e9442ab460f6a8", "lat": 38.9038465, "fusion_lon": 0.0, "fusion_lat": 0.0, "type": "electric_scooter", "name": "b0c1b7120bd95943f6e9442ab460f6a8", "is_disabled": 0, "rental_uris": {"ios": "https://dc.lft.to/lastmile_qr_scan", "android": "https://dc.lft.to/lastmile_qr_scan"}, "is_reserved": 0}, {"lon": -76.98962583333333, "bike_id": "f2c1daab574dcc460cae706e2301a3ec", "lat": 38.85687466666667, "fusion_lon": 0.0, "fusion_lat": 0.0, "type": "electric_scooter", "name": "f2c1daab574dcc460cae706e2301a3ec", "is_disabled": 0, "rental_uris": {"ios": "https://dc.lft.to/lastmile_qr_scan", "android": "https://dc.lft.to/lastmile_qr_scan"}, "is_reserved": 0}, {"lon": -77.0176765, "bike_id": "d8f6ca0710ad80acbda6e6d112afaa2a", "lat": 38.878168333333335, "fusion_lon": 0.0, "fusion_lat": 0.0, "type": "electric_scooter", "name": "d8f6ca0710ad80acbda6e6d112afaa2a", "is_disabled": 0, "rental_uris": {"ios": "https://dc.lft.to/lastmile_qr_scan", "android": "https://dc.lft.to/lastmile_qr_scan"}, "is_reserved": 0}, {"lon": -77.02799316666666, "bike_id": "657c01914843a7cdb60efd66db3b1f2e", "lat": 38.92958316666667, "fusion_lon": 0.0, "fusion_lat": 0.0, "type": "electric_scooter", "name": "657c01914843a7cdb60efd66db3b1f2e", "is_disabled": 0, "rental_uris": {"ios": "https://dc.lft.to/lastmile_qr_scan", "android": "https://dc.lft.to/lastmile_qr_scan"}, "is_reserved": 0}, {"lon": -77.03178966666667, "bike_id": "226280c48cfdc29fa579b2965610330a", "lat": 38.916877166666666, "fusion_lon": 0.0, "fusion_lat": 0.0, "type": "electric_scooter", "name": "226280c48cfdc29fa579b2965610330a", "is_disabled": 0, "rental_uris": {"ios": "https://dc.lft.to/lastmile_qr_scan", "android": "https://dc.lft.to/lastmile_qr_scan"}, "is_reserved": 0}, {"lon": -77.04345366666666, "bike_id": "6c548de071457bbf50b4608681798d5f", "lat": 38.929624833333335, "fusion_lon": 0.0, "fusion_lat": 0.0, "type": "electric_scooter", "name": "6c548de071457bbf50b4608681798d5f", "is_disabled": 0, "rental_uris": {"ios": "https://dc.lft.to/lastmile_qr_scan", "android": "https://dc.lft.to/lastmile_qr_scan"}, "is_reserved": 0}, {"lon": -77.00602166666667, "bike_id": "259316681eab3e348b7538fe49252860", "lat": 38.90380916666667, "fusion_lon": 0.0, "fusion_lat": 0.0, "type": "electric_scooter", "name": "259316681eab3e348b7538fe49252860", "is_disabled": 0, "rental_uris": {"ios": "https://dc.lft.to/lastmile_qr_scan", "android": "https://dc.lft.to/lastmile_qr_scan"}, "is_reserved": 0}, {"lon": -77.0238965, "bike_id": "7fe7a9de513d70457fa4185138ed4f3d", "lat": 38.91914283333333, "fusion_lon": 0.0, "fusion_lat": 0.0, "type": "electric_scooter", "name": "7fe7a9de513d70457fa4185138ed4f3d", "is_disabled": 0, "rental_uris": {"ios": "https://dc.lft.to/lastmile_qr_scan", "android": "https://dc.lft.to/lastmile_qr_scan"}, "is_reserved": 0}, {"lon": -76.981784, "bike_id": "ab6f7ead24c6b264cebe07bd1301f1b9", "lat": 38.8958645, "fusion_lon": 0.0, "fusion_lat": 0.0, "type": "electric_scooter", "name": "ab6f7ead24c6b264cebe07bd1301f1b9", "is_disabled": 0, "rental_uris": {"ios": "https://dc.lft.to/lastmile_qr_scan", "android": "https://dc.lft.to/lastmile_qr_scan"}, "is_reserved": 0}, {"lon": -77.03664816666667, "bike_id": "49ec4176be5053cf5246d2109235c526", "lat": 38.917099666666665, "fusion_lon": 0.0, "fusion_lat": 0.0, "type": "electric_scooter", "name": "49ec4176be5053cf5246d2109235c526", "is_disabled": 0, "rental_uris": {"ios": "https://dc.lft.to/lastmile_qr_scan", "android": "https://dc.lft.to/lastmile_qr_scan"}, "is_reserved": 0}, {"lon": -77.04228416666666, "bike_id": "dfca6ac8a1426854c7e15e5b49ddbede", "lat": 38.92185383333333, "fusion_lon": 0.0, "fusion_lat": 0.0, "type": "electric_scooter", "name": "dfca6ac8a1426854c7e15e5b49ddbede", "is_disabled": 0, "rental_uris": {"ios": "https://dc.lft.to/lastmile_qr_scan", "android": "https://dc.lft.to/lastmile_qr_scan"}, "is_reserved": 0}, {"lon": -77.03190016666667, "bike_id": "4370df862f8a68c28a585b1891bf93db", "lat": 38.91270683333333, "fusion_lon": 0.0, "fusion_lat": 0.0, "type": "electric_scooter", "name": "4370df862f8a68c28a585b1891bf93db", "is_disabled": 0, "rental_uris": {"ios": "https://dc.lft.to/lastmile_qr_scan", "android": "https://dc.lft.to/lastmile_qr_scan"}, "is_reserved": 0}, {"lon": -77.022967, "bike_id": "a9c143d0aabbf8aecfe856783edd93e2", "lat": 38.909742333333334, "fusion_lon": 0.0, "fusion_lat": 0.0, "type": "electric_scooter", "name": "a9c143d0aabbf8aecfe856783edd93e2", "is_disabled": 0, "rental_uris": {"ios": "https://dc.lft.to/lastmile_qr_scan", "android": "https://dc.lft.to/lastmile_qr_scan"}, "is_reserved": 0}, {"lon": -76.93366583333334, "bike_id": "8c3c6e8b7fcc16e4d73273c332c57a22", "lat": 38.89916366666667, "fusion_lon": 0.0, "fusion_lat": 0.0, "type": "electric_scooter", "name": "8c3c6e8b7fcc16e4d73273c332c57a22", "is_disabled": 0, "rental_uris": {"ios": "https://dc.lft.to/lastmile_qr_scan", "android": "https://dc.lft.to/lastmile_qr_scan"}, "is_reserved": 0}, {"lon": -77.02331183333334, "bike_id": "15152d993d1d5773a5fe77d818e46b86", "lat": 38.918346666666665, "fusion_lon": 0.0, "fusion_lat": 0.0, "type": "electric_scooter", "name": "15152d993d1d5773a5fe77d818e46b86", "is_disabled": 0, "rental_uris": {"ios": "https://dc.lft.to/lastmile_qr_scan", "android": "https://dc.lft.to/lastmile_qr_scan"}, "is_reserved": 0}, {"lon": -76.9868345, "bike_id": "43753098a7f8f19dc8ff21b2b110788e", "lat": 38.881341, "fusion_lon": 0.0, "fusion_lat": 0.0, "type": "electric_scooter", "name": "43753098a7f8f19dc8ff21b2b110788e", "is_disabled": 0, "rental_uris": {"ios": "https://dc.lft.to/lastmile_qr_scan", "android": "https://dc.lft.to/lastmile_qr_scan"}, "is_reserved": 0}, {"lon": -77.0244205, "bike_id": "9e7fae8fee3b3d00f508dfdc860bf5f1", "lat": 38.93751833333334, "fusion_lon": 0.0, "fusion_lat": 0.0, "type": "electric_scooter", "name": "9e7fae8fee3b3d00f508dfdc860bf5f1", "is_disabled": 0, "rental_uris": {"ios": "https://dc.lft.to/lastmile_qr_scan", "android": "https://dc.lft.to/lastmile_qr_scan"}, "is_reserved": 0}, {"lon": -77.03290233333334, "bike_id": "fa909571251df2bed854ee090b9183f0", "lat": 38.95651566666667, "fusion_lon": 0.0, "fusion_lat": 0.0, "type": "electric_scooter", "name": "fa909571251df2bed854ee090b9183f0", "is_disabled": 0, "rental_uris": {"ios": "https://dc.lft.to/lastmile_qr_scan", "android": "https://dc.lft.to/lastmile_qr_scan"}, "is_reserved": 0}, {"lon": -77.025059, "bike_id": "5c7a18abccd0113fc729c77c4c7ab84e", "lat": 38.90496566666667, "fusion_lon": 0.0, "fusion_lat": 0.0, "type": "electric_scooter", "name": "5c7a18abccd0113fc729c77c4c7ab84e", "is_disabled": 0, "rental_uris": {"ios": "https://dc.lft.to/lastmile_qr_scan", "android": "https://dc.lft.to/lastmile_qr_scan"}, "is_reserved": 0}, {"lon": -77.04354816666667, "bike_id": "6018bcebd1a53f6b8e80f03142c334a6", "lat": 38.902548333333336, "fusion_lon": 0.0, "fusion_lat": 0.0, "type": "electric_scooter", "name": "6018bcebd1a53f6b8e80f03142c334a6", "is_disabled": 0, "rental_uris": {"ios": "https://dc.lft.to/lastmile_qr_scan", "android": "https://dc.lft.to/lastmile_qr_scan"}, "is_reserved": 0}, {"lon": -76.95749366666666, "bike_id": "aea36d2da1b8e9fae72e7a8b7242aac2", "lat": 38.88428583333334, "fusion_lon": 0.0, "fusion_lat": 0.0, "type": "electric_scooter", "name": "aea36d2da1b8e9fae72e7a8b7242aac2", "is_disabled": 0, "rental_uris": {"ios": "https://dc.lft.to/lastmile_qr_scan", "android": "https://dc.lft.to/lastmile_qr_scan"}, "is_reserved": 0}, {"lon": -76.930103, "bike_id": "319536ea70cf73db8416199d130146a5", "lat": 38.896489333333335, "fusion_lon": 0.0, "fusion_lat": 0.0, "type": "electric_bike", "name": "319536ea70cf73db8416199d130146a5", "is_disabled": 0, "rental_uris": {"ios": "https://dc.lft.to/lastmile_qr_scan", "android": "https://dc.lft.to/lastmile_qr_scan"}, "is_reserved": 0}, {"lon": -77.0339555, "bike_id": "614a8c49f4daed0fb33291c1da0c0e21", "lat": 38.921594666666664, "fusion_lon": 0.0, "fusion_lat": 0.0, "type": "electric_scooter", "name": "614a8c49f4daed0fb33291c1da0c0e21", "is_disabled": 0, "rental_uris": {"ios": "https://dc.lft.to/lastmile_qr_scan", "android": "https://dc.lft.to/lastmile_qr_scan"}, "is_reserved": 0}, {"lon": -76.93641816666667, "bike_id": "153b02ae4fe14cbd071acc0bd1b29dae", "lat": 38.9006155, "fusion_lon": 0.0, "fusion_lat": 0.0, "type": "electric_scooter", "name": "153b02ae4fe14cbd071acc0bd1b29dae", "is_disabled": 0, "rental_uris": {"ios": "https://dc.lft.to/lastmile_qr_scan", "android": "https://dc.lft.to/lastmile_qr_scan"}, "is_reserved": 0}, {"lon": -76.93176666666666, "bike_id": "97c6a6a9f59f1e265bf5bd35109c4868", "lat": 38.89880733333333, "fusion_lon": 0.0, "fusion_lat": 0.0, "type": "electric_scooter", "name": "97c6a6a9f59f1e265bf5bd35109c4868", "is_disabled": 0, "rental_uris": {"ios": "https://dc.lft.to/lastmile_qr_scan", "android": "https://dc.lft.to/lastmile_qr_scan"}, "is_reserved": 0}, {"lon": -77.05450866666666, "bike_id": "5c0a61988efa3298e4edfba5abda0fde", "lat": 38.94355633333333, "fusion_lon": 0.0, "fusion_lat": 0.0, "type": "electric_bike", "name": "5c0a61988efa3298e4edfba5abda0fde", "is_disabled": 0, "rental_uris": {"ios": "https://dc.lft.to/lastmile_qr_scan", "android": "https://dc.lft.to/lastmile_qr_scan"}, "is_reserved": 0}, {"lon": -77.04602366666667, "bike_id": "8b33cd2771db44a06ae07b1a3e620e4f", "lat": 38.916087166666664, "fusion_lon": 0.0, "fusion_lat": 0.0, "type": "electric_scooter", "name": "8b33cd2771db44a06ae07b1a3e620e4f", "is_disabled": 0, "rental_uris": {"ios": "https://dc.lft.to/lastmile_qr_scan", "android": "https://dc.lft.to/lastmile_qr_scan"}, "is_reserved": 0}, {"lon": -77.04667766666667, "bike_id": "2e4d4092084490882531e410459b84ea", "lat": 38.899518, "fusion_lon": 0.0, "fusion_lat": 0.0, "type": "electric_scooter", "name": "2e4d4092084490882531e410459b84ea", "is_disabled": 0, "rental_uris": {"ios": "https://dc.lft.to/lastmile_qr_scan", "android": "https://dc.lft.to/lastmile_qr_scan"}, "is_reserved": 0}, {"lon": -77.03665233333334, "bike_id": "5b3d974d288b690e29c83c987a4a94ca", "lat": 38.91811533333333, "fusion_lon": 0.0, "fusion_lat": 0.0, "type": "electric_scooter", "name": "5b3d974d288b690e29c83c987a4a94ca", "is_disabled": 0, "rental_uris": {"ios": "https://dc.lft.to/lastmile_qr_scan", "android": "https://dc.lft.to/lastmile_qr_scan"}, "is_reserved": 0}, {"lon": -77.03941166666667, "bike_id": "f1899decb44aa4b707bc6d2625cf8bff", "lat": 38.9071065, "fusion_lon": 0.0, "fusion_lat": 0.0, "type": "electric_scooter", "name": "f1899decb44aa4b707bc6d2625cf8bff", "is_disabled": 0, "rental_uris": {"ios": "https://dc.lft.to/lastmile_qr_scan", "android": "https://dc.lft.to/lastmile_qr_scan"}, "is_reserved": 0}, {"lon": -77.0535995, "bike_id": "16d4c7f037dcaa3e1c95e8fbb9ff978a", "lat": 38.92728266666667, "fusion_lon": 0.0, "fusion_lat": 0.0, "type": "electric_scooter", "name": "16d4c7f037dcaa3e1c95e8fbb9ff978a", "is_disabled": 0, "rental_uris": {"ios": "https://dc.lft.to/lastmile_qr_scan", "android": "https://dc.lft.to/lastmile_qr_scan"}, "is_reserved": 0}, {"lon": -76.9981365, "bike_id": "87981d45b0d2a3a286f6b16ace148860", "lat": 38.900250666666665, "fusion_lon": 0.0, "fusion_lat": 0.0, "type": "electric_scooter", "name": "87981d45b0d2a3a286f6b16ace148860", "is_disabled": 0, "rental_uris": {"ios": "https://dc.lft.to/lastmile_qr_scan", "android": "https://dc.lft.to/lastmile_qr_scan"}, "is_reserved": 0}, {"lon": -76.9882635, "bike_id": "fdd860f144645af622a8e4687cb77bab", "lat": 38.8907335, "fusion_lon": 0.0, "fusion_lat": 0.0, "type": "electric_scooter", "name": "fdd860f144645af622a8e4687cb77bab", "is_disabled": 0, "rental_uris": {"ios": "https://dc.lft.to/lastmile_qr_scan", "android": "https://dc.lft.to/lastmile_qr_scan"}, "is_reserved": 0},