{"data": {"bikes": [{"is_reserved": 0, "type": "electric_scooter", "fusion_lat": 0.0, "is_disabled": 0, "rental_uris": {"ios": "https://dc.lft.to/lastmile_qr_scan", "android": "https://dc.lft.to/lastmile_qr_scan"}, "bike_id": "24febf6d48ed56abb9d9190db269a937", "lat": 38.923382, "name": "24febf6d48ed56abb9d9190db269a937", "lon": -77.04304983333333, "fusion_lon": 0.0}, {"is_reserved": 0, "type": "electric_scooter", "fusion_lat": 0.0, "is_disabled": 0, "rental_uris": {"ios": "https://dc.lft.to/lastmile_qr_scan", "android": "https://dc.lft.to/lastmile_qr_scan"}, "bike_id": "341d5e77566e7719aad23d1fcdf6a714", "lat": 38.87616766666667, "name": "341d5e77566e7719aad23d1fcdf6a714", "lon": -77.006145, "fusion_lon": 0.0}, {"is_reserved": 0, "type": "electric_scooter", "fusion_lat": 0.0, "is_disabled": 0, "rental_uris": {"ios": "https://dc.lft.to/lastmile_qr_scan", "android": "https://dc.lft.to/lastmile_qr_scan"}, "bike_id": "2e9c0254968ea0f2dad592eedb03b11d", "lat": 38.91709066666667, "name": "2e9c0254968ea0f2dad592eedb03b11d", "lon": -77.035785, "fusion_lon": 0.0}, {"is_reserved": 0, "type": "electric_scooter", "fusion_lat": 0.0, "is_disabled": 0, "rental_uris": {"ios": "https://dc.lft.to/lastmile_qr_scan", "android": "https://dc.lft.to/lastmile_qr_scan"}, "bike_id": "1348a936ce058a1ea09ca154de16c483", "lat": 38.929974666666666, "name": "1348a936ce058a1ea09ca154de16c483", "lon": -77.02347933333333, "fusion_lon": 0.0}, {"is_reserved": 0, "type": "electric_scooter", "fusion_lat": 0.0, "is_disabled": 0, "rental_uris": {"ios": "https://dc.lft.to/lastmile_qr_scan", "android": "https://dc.lft.to/lastmile_qr_scan"}, "bike_id": "a662f8f17c9766f393b9704772b42b7a", "lat": 38.921037, "name": "a662f8f17c9766f393b9704772b42b7a", "lon": -77.04119033333333, "fusion_lon": 0.0}, {"is_reserved": 0, "type": "electric_bike", "fusion_lat": 0.0, "is_disabled": 0, "rental_uris": {"ios": "https://dc.lft.to/lastmile_qr_scan", "android": "https://dc.lft.to/lastmile_qr_scan"}, "bike_id": "07e67524685e09b516e8c411df13ad53", "lat": 38.8467955, "name": "07e67524685e09b516e8c411df13ad53", "lon": -77.13935733333334, "fusion_lon": 0.0}, {"is_reserved": 0, "type": "electric_scooter", "fusion_lat": 0.0, "is_disabled": 0, "rental_uris": {"ios": "https://dc.lft.to/lastmile_qr_scan", "android": "https://dc.lft.to/lastmile_qr_scan"}, "bike_id": "b22dd3d978f7a80cd185b95b9c85bdb4", "lat": 38.915927833333335, "name": "b22dd3d978f7a80cd185b95b9c85bdb4", "lon": -76.98415383333334, "fusion_lon": 0.0}, {"is_reserved": 0, "type": "electric_scooter", "fusion_lat": 0.0, "is_disabled": 0, "rental_uris": {"ios": "https://dc.lft.to/lastmile_qr_scan", "android": "https://dc.lft.to/lastmile_qr_scan"}, "bike_id": "3559423a638b5ea572c7e45e63cf6aa7", "lat": 38.912602666666665, "name": "3559423a638b5ea572c7e45e63cf6aa7", "lon": -76.98353266666666, "fusion_lon": 0.0}, {"is_reserved": 0, "type": "electric_scooter", "fusion_lat": 0.0, "is_disabled": 0, "rental_uris": {"ios": "https://dc.lft.to/lastmile_qr_scan", "android": "https://dc.lft.to/lastmile_qr_scan"}, "bike_id": "9d79a0abdd66fdea4dd8b8a915380558", "lat": 38.928574833333336, "name": "9d79a0abdd66fdea4dd8b8a915380558", "lon": -77.032557, "fusion_lon": 0.0}, {"is_reserved": 0, "type": "electric_scooter", "fusion_lat": 0.0, "is_disabled": 0, "rental_uris": {"ios": "https://dc.lft.to/lastmile_qr_scan", "android": "https://dc.lft.to/lastmile_qr_scan"}, "bike_id": "f96943006357042e169ceaf8b7d04fe9", "lat": 38.900368, "name": "f96943006357042e169ceaf8b7d04fe9", "lon": -77.0118455, "fusion_lon": 0.0}, {"is_reserved": 0, "type": "electric_scooter", "fusion_lat": 0.0, "is_disabled": 0, "rental_uris": {"ios": "https://dc.lft.to/lastmile_qr_scan", "android": "https://dc.lft.to/lastmile_qr_scan"}, "bike_id": "7f7761b909c5f28fbc792ae8bdecca3c", "lat": 38.93541366666667, "name": "7f7761b909c5f28fbc792ae8bdecca3c", "lon": -77.0574675, "fusion_lon": 0.0}, {"is_reserved": 0, "type": "electric_bike", "fusion_lat": 0.0, "is_disabled": 0, "rental_uris": {"ios": "https://dc.lft.to/lastmile_qr_scan", "android": "https://dc.lft.to/lastmile_qr_scan"}, "bike_id": "e706632fc42bee4eb587edcd65dcf88c", "lat": 38.96777866666667, "name": "e706632fc42bee4eb587edcd65dcf88c", "lon": -76.99653116666667, "fusion_lon": 0.0}, {"is_reserved": 0, "type": "electric_scooter", "fusion_lat": 0.0, "is_disabled": 0, "rental_uris": {"ios": "https://dc.lft.to/lastmile_qr_scan", "android": "https://dc.lft.to/lastmile_qr_scan"}, "bike_id": "992ecb9bdbf82cebb46d4147edb1654f", "lat": 38.887123333333335, "name": "992ecb9bdbf82cebb46d4147edb1654f", "lon": -77.0005615, "fusion_lon": 0.0}, {"is_reserved": 0, "type": "electric_scooter", "fusion_lat": 0.0, "is_disabled": 0, "rental_uris": {"ios": "https://dc.lft.to/lastmile_qr_scan", "android": "https://dc.lft.to/lastmile_qr_scan"}, "bike_id": "404dbfd70cab430c053a1d74b02254ef", "lat": 38.879499, "name": "404dbfd70cab430c053a1d74b02254ef", "lon": -77.01275, "fusion_lon": 0.0}, {"is_reserved": 0, "type": "electric_scooter", "fusion_lat": 0.0, "is_disabled": 0, "rental_uris": {"ios": "https://dc.lft.to/lastmile_qr_scan", "android": "https://dc.lft.to/lastmile_qr_scan"}, "bike_id": "bed3638d1bfb0373b7fb7cf79015b39f", "lat": 38.89604166666667, "name": "bed3638d1bfb0373b7fb7cf79015b39f", "lon": -77.0229585, "fusion_lon": 0.0}, {"is_reserved": 0, "type": "electric_scooter", "fusion_lat": 0.0, "is_disabled": 0, "rental_uris": {"ios": "https://dc.lft.to/lastmile_qr_scan", "android": "https://dc.lft.to/lastmile_qr_scan"}, "bike_id": "9a30014b62f2c854b21410284ee6bf50", "lat": 38.877166333333335, "name": "9a30014b62f2c854b21410284ee6bf50", "lon": -77.01732016666666, "fusion_lon": 0.0}, {"is_reserved": 0, "type": "electric_bike", "fusion_lat": 0.0, "is_disabled": 0, "rental_uris": {"ios": "https://dc.lft.to/lastmile_qr_scan", "android": "https://dc.lft.to/lastmile_qr_scan"}, "bike_id": "01ed9a1500d989186c5b5a4e2a1ddf7d", "lat": 38.8134255, "name": "01ed9a1500d989186c5b5a4e2a1ddf7d", "lon": -77.0511505, "fusion_lon": 0.0}, {"is_reserved": 0, "type": "electric_scooter", "fusion_lat": 0.0, "is_disabled": 0, "rental_uris": {"ios": "https://dc.lft.to/lastmile_qr_scan", "android": "https://dc.lft.to/lastmile_qr_scan"}, "bike_id": "75e682f426fc196c1dbc003dc366bc19", "lat": 38.87661283333333, "name": "75e682f426fc196c1dbc003dc366bc19", "lon": -77.00083216666667, "fusion_lon": 0.0}, {"is_reserved": 0, "type": "electric_scooter", "fusion_lat": 0.0, "is_disabled": 0, "rental_uris": {"ios": "https://dc.lft.to/lastmile_qr_scan", "android": "https://dc.lft.to/lastmile_qr_scan"}, "bike_id": "482689c595233c459b0340a89a840151", "lat": 38.948288833333336, "name": "482689c595233c459b0340a89a840151", "lon": -77.02614016666666, "fusion_lon": 0.0}, {"is_reserved": 0, "type": "electric_scooter", "fusion_lat": 0.0, "is_disabled": 0, "rental_uris": {"ios": "https://dc.lft.to/lastmile_qr_scan", "android": "https://dc.lft.to/lastmile_qr_scan"}, "bike_id": "5a295c7bb9494efc0294ef4e7490cf93", "lat": 38.89925983333333, "name": "5a295c7bb9494efc0294ef4e7490cf93", "lon": -77.03226683333334, "fusion_lon": 0.0}, {"is_reserved": 0, "type": "electric_scooter", "fusion_lat": 0.0, "is_disabled": 0, "rental_uris": {"ios": "https://dc.lft.to/lastmile_qr_scan", "android": "https://dc.lft.to/lastmile_qr_scan"}, "bike_id": "3d038daa04441001698ac12fdf3c9598", "lat": 38.89199266666667, "name": "3d038daa04441001698ac12fdf3c9598", "lon": -77.015472, "fusion_lon": 0.0}, {"is_reserved": 0, "type": "electric_scooter", "fusion_lat": 0.0, "is_disabled": 0, "rental_uris": {"ios": "https://dc.lft.to/lastmile_qr_scan", "android": "https://dc.lft.to/lastmile_qr_scan"}, "bike_id": "fa8bc0cb96546e80007a91c996c842b7", "lat": 38.90237466666667, "name": "fa8bc0cb96546e80007a91c996c842b7", "lon": -77.000604, "fusion_lon": 0.0}, {"is_reserved": 0, "type": "electric_scooter", "fusion_lat": 0.0, "is_disabled": 0, "rental_uris": {"ios": "https://dc.lft.to/lastmile_qr_scan", "android": "https://dc.lft.to/lastmile_qr_scan"}, "bike_id": "462df0c631f86053d36422e3ff425174", "lat": 38.924177666666665, "name": "462df0c631f86053d36422e3ff425174", "lon": -77.02128533333334, "fusion_lon": 0.0}, {"is_reserved": 0, "type": "electric_scooter", "fusion_lat": 0.0, "is_disabled": 0, "rental_uris": {"ios": "https://dc.lft.to/lastmile_qr_scan", "android": "https://dc.lft.to/lastmile_qr_scan"}, "bike_id": "e01afa9cdb420e7fe04f23aee8a6b09c", "lat": 38.8999625, "name": "e01afa9cdb420e7fe04f23aee8a6b09c", "lon": -77.04494766666667, "fusion_lon": 0.0}, {"is_reserved": 0, "type": "electric_scooter", "fusion_lat": 0.0, "is_disabled": 0, "rental_uris": {"ios": "https://dc.lft.to/lastmile_qr_scan", "android": "https://dc.lft.to/lastmile_qr_scan"}, "bike_id": "1217ca113780270d8f5ee899c87c0d3c", "lat": 38.920244833333335, "name": "1217ca113780270d8f5ee899c87c0d3c", "lon": -77.07136533333333, "fusion_lon": 0.0}, {"is_reserved": 0, "type": "electric_scooter", "fusion_lat": 0.0, "is_disabled": 0, "rental_uris": {"ios": "https://dc.lft.to/lastmile_qr_scan", "android": "https://dc.lft.to/lastmile_qr_scan"}, "bike_id": "2bdaeafcb2ce240ee1e08425e9214796", "lat": 38.9207195, "name": "2bdaeafcb2ce240ee1e08425e9214796", "lon": -77.02515266666667, "fusion_lon": 0.0}, {"is_reserved": 0, "type": "electric_scooter", "fusion_lat": 0.0, "is_disabled": 0, "rental_uris": {"ios": "https://dc.lft.to/lastmile_qr_scan", "android": "https://dc.lft.to/lastmile_qr_scan"}, "bike_id": "4e59d712aad70e9d86b029b1c13e721d", "lat": 38.9211685, "name": "4e59d712aad70e9d86b029b1c13e721d", "lon": -77.04567633333333, "fusion_lon": 0.0}, {"is_reserved": 0, "type": "electric_scooter", "fusion_lat": 0.0, "is_disabled": 0, "rental_uris": {"ios": "https://dc.lft.to/lastmile_qr_scan", "android": "https://dc.lft.to/lastmile_qr_scan"}, "bike_id": "b2a25b2f15247eb20fc663588ad343a1", "lat": 38.89739983333333, "name": "b2a25b2f15247eb20fc663588ad343a1", "lon": -77.04148133333334, "fusion_lon": 0.0}, {"is_reserved": 0, "type": "electric_scooter", "fusion_lat": 0.0, "is_disabled": 0, "rental_uris": {"ios": "https://dc.lft.to/lastmile_qr_scan", "android": "https://dc.lft.to/lastmile_qr_scan"}, "bike_id": "9289bc4517e16a82c8f38705ac0e09bd", "lat": 38.87846866666667, "name": "9289bc4517e16a82c8f38705ac0e09bd", "lon": -77.00577333333334, "fusion_lon": 0.0}, {"is_reserved": 0, "type": "electric_scooter", "fusion_lat": 0.0, "is_disabled": 0, "rental_uris": {"ios": "https://dc.lft.to/lastmile_qr_scan", "android": "https://dc.lft.to/lastmile_qr_scan"}, "bike_id": "e490751da0127dfbd5d3e87e0946d4a6", "lat": 38.920602833333334, "name": "e490751da0127dfbd5d3e87e0946d4a6", "lon": -77.0439785, "fusion_lon": 0.0}, {"is_reserved": 0, "type": "electric_bike", "fusion_lat": 0.0, "is_disabled": 0, "rental_uris": {"ios": "https://dc.lft.to/lastmile_qr_scan", "android": "https://dc.lft.to/lastmile_qr_scan"}, "bike_id": "e17d1a48e863cac7fc36a14e3b86c7f5", "lat": 38.87768533333333, "name": "e17d1a48e863cac7fc36a14e3b86c7f5", "lon": -77.01050616666667, "fusion_lon": 0.0}, {"is_reserved": 0, "type": "electric_scooter", "fusion_lat": 0.0, "is_disabled": 0, "rental_uris": {"ios": "https://dc.lft.to/lastmile_qr_scan", "android": "https://dc.lft.to/lastmile_qr_scan"}, "bike_id": "d4aeff3d68791dff5db8c9f6c5af5ea8", "lat": 38.92323716666667, "name": "d4aeff3d68791dff5db8c9f6c5af5ea8", "lon": -77.02430716666667, "fusion_lon": 0.0}, {"is_reserved": 0, "type": "electric_scooter", "fusion_lat": 0.0, "is_disabled": 0, "rental_uris": {"ios": "https://dc.lft.to/lastmile_qr_scan", "android": "https://dc.lft.to/lastmile_qr_scan"}, "bike_id": "24e3ec246f02f8bea9a3ecf8fb5e267d", "lat": 38.89885683333333, "name": "24e3ec246f02f8bea9a3ecf8fb5e267d", "lon": -77.02183166666667, "fusion_lon": 0.0}, {"is_reserved": 0, "type": "electric_scooter", "fusion_lat": 0.0, "is_disabled": 0, "rental_uris": {"ios": "https://dc.lft.to/lastmile_qr_scan", "android": "https://dc.lft.to/lastmile_qr_scan"}, "bike_id": "5d3a2cc719d6d4231c5602f2cab6309b", "lat": 38.89226566666667, "name": "5d3a2cc719d6d4231c5602f2cab6309b", "lon": -77.0322555, "fusion_lon": 0.0}, {"is_reserved": 0, "type": "electric_scooter", "fusion_lat": 0.0, "is_disabled": 0, "rental_uris": {"ios": "https://dc.lft.to/lastmile_qr_scan", "android": "https://dc.lft.to/lastmile_qr_scan"}, "bike_id": "d43e199357f86ea5a38cdea3dfbb7477", "lat": 38.89223416666667, "name": "d43e199357f86ea5a38cdea3dfbb7477", "lon": -77.0221755, "fusion_lon": 0.0}, {"is_reserved": 0, "type": "electric_scooter", "fusion_lat": 0.0, "is_disabled": 0, "rental_uris": {"ios": "https://dc.lft.to/lastmile_qr_scan", "android": "https://dc.lft.to/lastmile_qr_scan"}, "bike_id": "0be733fa90a184c198e00585dcb46815", "lat": 38.91415933333333, "name": "0be733fa90a184c198e00585dcb46815", "lon": -77.03340266666666, "fusion_lon": 0.0}, {"is_reserved": 0, "type": "electric_scooter", "fusion_lat": 0.0, "is_disabled": 0, "rental_uris": {"ios": "https://dc.lft.to/lastmile_qr_scan", "android": "https://dc.lft.to/lastmile_qr_scan"}, "bike_id": "084182ee2923263cc5bbeab1b4f9b9fb", "lat": 38.90389866666666, "name": "084182ee2923263cc5bbeab1b4f9b9fb", "lon": -77.05147883333333, "fusion_lon": 0.0}, {"is_reserved": 0, "type": "electric_scooter", "fusion_lat": 0.0, "is_disabled": 0, "rental_uris": {"ios": "https://dc.lft.to/lastmile_qr_scan", "android": "https://dc.lft.to/lastmile_qr_scan"}, "bike_id": "05f2974f004927fdf1dcce25ccf25820", "lat": 38.901198666666666, "name": "05f2974f004927fdf1dcce25ccf25820", "lon": -77.02801683333334, "fusion_lon": 0.0}, {"is_reserved": 0, "type": "electric_scooter", "fusion_lat": 0.0, "is_disabled": 0, "rental_uris": {"ios": "https://dc.lft.to/lastmile_qr_scan", "android": "https://dc.lft.to/lastmile_qr_scan"}, "bike_id": "621ddb9475a275c6cd8b6d40f5587088", "lat": 38.89537116666666, "name": "621ddb9475a275c6cd8b6d40f5587088", "lon": -76.97728166666667, "fusion_lon": 0.0}, {"is_reserved": 0, "type": "electric_bike", "fusion_lat": 0.0, "is_disabled": 0, "rental_uris": {"ios": "https://dc.lft.to/lastmile_qr_scan", "android": "https://dc.lft.to/lastmile_qr_scan"}, "bike_id": "c4fe46267922c16a28594d78615944e6", "lat": 38.922793666666664, "name": "c4fe46267922c16a28594d78615944e6", "lon": -76.99768433333334, "fusion_lon": 0.0}, {"is_reserved": 0, "type": "electric_bike", "fusion_lat": 0.0, "is_disabled": 0, "rental_uris": {"ios": "https://dc.lft.to/lastmile_qr_scan", "android": "https://dc.lft.to/lastmile_qr_scan"}, "bike_id": "52344d47b56cbe204cafeb29c4084ad3", "lat": 38.900932833333336, "name": "52344d47b56cbe204cafeb29c4084ad3", "lon": -77.01875916666667, "fusion_lon": 0.0}, {"is_reserved": 0, "type": "electric_scooter", "fusion_lat": 0.0, "is_disabled": 0, "rental_uris": {"ios": "https://dc.lft.to/lastmile_qr_scan", "android": "https://dc.lft.to/lastmile_qr_scan"}, "bike_id": "ce758c16726ebee273f6d2114d50f2ce", "lat": 38.91831616666666, "name": "ce758c16726ebee273f6d2114d50f2ce", "lon": -77.02706616666667, "fusion_lon": 0.0}, {"is_reserved": 0, "type": "electric_scooter", "fusion_lat": 0.0, "is_disabled": 0, "rental_uris": {"ios": "https://dc.lft.to/lastmile_qr_scan", "android": "https://dc.lft.to/lastmile_qr_scan"}, "bike_id": "69ee06213695a11c8bc4c22240067cad", "lat": 38.897509666666664, "name": "69ee06213695a11c8bc4c22240067cad", "lon": -77.009285, "fusion_lon": 0.0}, {"is_reserved": 0, "type": "electric_scooter", "fusion_lat": 0.0, "is_disabled": 0, "rental_uris": {"ios": "https://dc.lft.to/lastmile_qr_scan", "android": "https://dc.lft.to/lastmile_qr_scan"}, "bike_id": "5cf58154ed26f2dc0fa4c74e32908e4d", "lat": 38.93078033333333, "name": "5cf58154ed26f2dc0fa4c74e32908e4d", "lon": -77.07759233333333, "fusion_lon": 0.0}, {"is_reserved": 0, "type": "electric_scooter", "fusion_lat": 0.0, "is_disabled": 0, "rental_uris": {"ios": "https://dc.lft.to/lastmile_qr_scan", "android": "https://dc.lft.to/lastmile_qr_scan"}, "bike_id": "ff33e66e4c4c451387092bb8e7b5f462", "lat": 38.89844516666667, "name": "ff33e66e4c4c451387092bb8e7b5f462", "lon": -77.05008533333333, "fusion_lon": 0.0}, {"is_reserved": 0, "type": "electric_bike", "fusion_lat": 0.0, "is_disabled": 0, "rental_uris": {"ios": "https://dc.lft.to/lastmile_qr_scan", "android": "https://dc.lft.to/lastmile_qr_scan"}, "bike_id": "b549ec269026415d5588d215959085b9", "lat": 38.947351, "name": "b549ec269026415d5588d215959085b9", "lon": -76.99583883333334, "fusion_lon": 0.0}, {"is_reserved": 0, "type": "electric_bike", "fusion_lat": 0.0, "is_disabled": 0, "rental_uris": {"ios": "https://dc.lft.to/lastmile_qr_scan", "android": "https://dc.lft.to/lastmile_qr_scan"}, "bike_id": "57ce21e708e5286eef3e137cf4e5d8e6", "lat": 38.973482833333335, "name": "57ce21e708e5286eef3e137cf4e5d8e6", "lon": -77.01791783333333, "fusion_lon": 0.0}, {"is_reserved": 0, "type": "electric_scooter", "fusion_lat": 0.0, "is_disabled": 0, "rental_uris": {"ios": "https://dc.lft.to/lastmile_qr_scan", "android": "https://dc.lft.to/lastmile_qr_scan"}, "bike_id": "bf07b93ec82c897e073537202ce7986d", "lat": 38.88364833333333, "name": "bf07b93ec82c897e073537202ce7986d", "lon": -76.92791133333333, "fusion_lon": 0.0}, {"is_reserved": 0, "type": "electric_scooter", "fusion_lat": 0.0, "is_disabled": 0, "rental_uris": {"ios": "https://dc.lft.to/lastmile_qr_scan", "android": "https://dc.lft.to/lastmile_qr_scan"}, "bike_id": "f6bda2cca881865dad8d3fa836857152", "lat": 38.919215666666666, "name": "f6bda2cca881865dad8d3fa836857152", "lon": -77.04808516666667, "fusion_lon": 0.0}, {"is_reserved": 0, "type": "electric_scooter", "fusion_lat": 0.0, "is_disabled": 0, "rental_uris": {"ios": "https://dc.lft.to/lastmile_qr_scan", "android": "https://dc.lft.to/lastmile_qr_scan"}, "bike_id": "ce6e929a26335219f078bbfd3d0b0c4f", "lat": 38.92926083333333, "name": "ce6e929a26335219f078bbfd3d0b0c4f", "lon": -77.02336516666666, "fusion_lon": 0.0}, {"is_reserved": 0, "type": "electric_scooter", "fusion_lat": 0.0, "is_disabled": 0, "rental_uris": {"ios": "https://dc.lft.to/lastmile_qr_scan", "android": "https://dc.lft.to/lastmile_qr_scan"}, "bike_id": "57a8fb45eb8c77f9d3ba3ff21349bb7e", "lat": 38.9249065, "name": "57a8fb45eb8c77f9d3ba3ff21349bb7e", "lon": -77.02532033333334, "fusion_lon": 0.0}, {"is_reserved": 0, "type": "electric_scooter", "fusion_lat": 0.0, "is_disabled": 0, "rental_uris": {"ios": "https://dc.lft.to/lastmile_qr_scan", "android": "https://dc.lft.to/lastmile_qr_scan"}, "bike_id": "0c5ff3fcc5aac21729d3ed0618afaaeb", "lat": 38.91651266666667, "name": "0c5ff3fcc5aac21729d3ed0618afaaeb", "lon": -77.021784, "fusion_lon": 0.0}, {"is_reserved": 0, "type": "electric_scooter", "fusion_lat": 0.0, "is_disabled": 0, "rental_uris": {"ios": "https://dc.lft.to/lastmile_qr_scan", "android": "https://dc.lft.to/lastmile_qr_scan"}, "bike_id": "87858abc7bb09e576df4cf9502c47701", "lat": 38.876605, "name": "87858abc7bb09e576df4cf9502c47701", "lon": -77.01576083333333, "fusion_lon": 0.0}, {"is_reserved": 0, "type": "electric_scooter", "fusion_lat": 0.0, "is_disabled": 0, "rental_uris": {"ios": "https://dc.lft.to/lastmile_qr_scan", "android": "https://dc.lft.to/lastmile_qr_scan"}, "bike_id": "e8c9b0487aa05edf8782762b8a2ffcf8", "lat": 38.90191566666667, "name": "e8c9b0487aa05edf8782762b8a2ffcf8", "lon": -76.934658, "fusion_lon": 0.0}, {"is_reserved": 0, "type": "electric_scooter", "fusion_lat": 0.0, "is_disabled": 0, "rental_uris": {"ios": "https://dc.lft.to/lastmile_qr_scan", "android": "https://dc.lft.to/lastmile_qr_scan"}, "bike_id": "5319e076f7dc78e1ccbe8997335b04b4", "lat": 38.905759333333336, "name": "5319e076f7dc78e1ccbe8997335b04b4", "lon": -77.027639, "fusion_lon": 0.0}, {"is_reserved": 0, "type": "electric_scooter", "fusion_lat": 0.0, "is_disabled": 0, "rental_uris": {"ios": "https://dc.lft.to/lastmile_qr_scan", "android": "https://dc.lft.to/lastmile_qr_scan"}, "bike_id": "c2f8f2e35aa2d761ef413836d95748cf", "lat": 38.921492666666666, "name": "c2f8f2e35aa2d761ef413836d95748cf", "lon": -77.04585366666667, "fusion_lon": 0.0}, {"is_reserved": 0, "type": "electric_scooter", "fusion_lat": 0.0, "is_disabled": 0, "rental_uris": {"ios": "https://dc.lft.to/lastmile_qr_scan", "android": "https://dc.lft.to/lastmile_qr_scan"}, "bike_id": "7e9b737eccad1994fa47641e9c9e4d1f", "lat": 38.89671933333333, "name": "7e9b737eccad1994fa47641e9c9e4d1f", "lon": -76.94907883333333, "fusion_lon": 0.0}, {"is_reserved": 0, "type": "electric_scooter", "fusion_lat": 0.0, "is_disabled": 0, "rental_uris": {"ios": "https://dc.lft.to/lastmile_qr_scan", "android": "https://dc.lft.to/lastmile_qr_scan"}, "bike_id": "78f101c0403c318db2a128fa00bb2229", "lat": 38.886184666666665, "name": "78f101c0403c318db2a128fa00bb2229", "lon": -77.021941, "fusion_lon": 0.0}, {"is_reserved": 0, "type": "electric_scooter", "fusion_lat": 0.0, "is_disabled": 0, "rental_uris": {"ios": "https://dc.lft.to/lastmile_qr_scan", "android": "https://dc.lft.to/lastmile_qr_scan"}, "bike_id": "3c832ffbe6f3809307d88068195970e0", "lat": 38.903019666666665, "name": "3c832ffbe6f3809307d88068195970e0", "lon": -76.99839866666667, "fusion_lon": 0.0}, {"is_reserved": 0, "type": "electric_scooter", "fusion_lat": 0.0, "is_disabled": 0, "rental_uris": {"ios": "https://dc.lft.to/lastmile_qr_scan", "android": "https://dc.lft.to/lastmile_qr_scan"}, "bike_id": "3e9966d2a255de36e85b65c765f233ac", "lat": 38.89481816666667, "name": "3e9966d2a255de36e85b65c765f233ac", "lon": -77.02184966666667, "fusion_lon": 0.0}, {"is_reserved": 0, "type": "electric_scooter", "fusion_lat": 0.0, "is_disabled": 0, "rental_uris": {"ios": "https://dc.lft.to/lastmile_qr_scan", "android": "https://dc.lft.to/lastmile_qr_scan"}, "bike_id": "bdaf9221ba98330ec7f5d3964c2e32b8", "lat": 38.87287533333333, "name": "bdaf9221ba98330ec7f5d3964c2e32b8", "lon": -77.009857, "fusion_lon": 0.0}, {"is_reserved": 0, "type": "electric_scooter", "fusion_lat": 0.0, "is_disabled": 0, "rental_uris": {"ios": "https://dc.lft.to/lastmile_qr_scan", "android": "https://dc.lft.to/lastmile_qr_scan"}, "bike_id": "a9f36529619acd31c6764192d15d3462", "lat": 38.90515716666667, "name": "a9f36529619acd31c6764192d15d3462", "lon": -77.06015116666667, "fusion_lon": 0.0}, {"is_reserved": 0, "type": "electric_scooter", "fusion_lat": 0.0, "is_disabled": 0, "rental_uris": {"ios": "https://dc.lft.to/lastmile_qr_scan", "android": "https://dc.lft.to/lastmile_qr_scan"}, "bike_id": "210f734f0912d5c3317c7ef4dd22b65e", "lat": 38.89852883333333, "name": "210f734f0912d5c3317c7ef4dd22b65e", "lon": -76.994923, "fusion_lon": 0.0}, {"is_reserved": 0, "type": "electric_scooter", "fusion_lat": 0.0, "is_disabled": 0, "rental_uris": {"ios": "https://dc.lft.to/lastmile_qr_scan", "android": "https://dc.lft.to/lastmile_qr_scan"}, "bike_id": "f801d61b4587f43f1f419825dcdd315b", "lat": 38.923795, "name": "f801d61b4587f43f1f419825dcdd315b", "lon": -77.02927866666667, "fusion_lon": 0.0}, {"is_reserved": 0, "type": "electric_scooter", "fusion_lat": 0.0, "is_disabled": 0, "rental_uris": {"ios": "https://dc.lft.to/lastmile_qr_scan", "android": "https://dc.lft.to/lastmile_qr_scan"}, "bike_id": "336a9b2fee8923d0151436834eda6eb0", "lat": 38.904583333333335, "name": "336a9b2fee8923d0151436834eda6eb0", "lon": -77.018813, "fusion_lon": 0.0}, {"is_reserved": 0, "type": "electric_scooter", "fusion_lat": 0.0, "is_disabled": 0, "rental_uris": {"ios": "https://dc.lft.to/lastmile_qr_scan", "android": "https://dc.lft.to/lastmile_qr_scan"}, "bike_id": "e6c48493a2b1951a9930e14e14ab6fa0", "lat": 38.94318616666666, "name": "e6c48493a2b1951a9930e14e14ab6fa0", "lon": -77.01725433333333, "fusion_lon": 0.0}, {"is_reserved": 0, "type": "electric_scooter", "fusion_lat": 0.0, "is_disabled": 0, "rental_uris": {"ios": "https://dc.lft.to/lastmile_qr_scan", "android": "https://dc.lft.to/lastmile_qr_scan"}, "bike_id": "5fe9052110aea05fb5f8880df0d26203", "lat": 38.92827283333333, "name": "5fe9052110aea05fb5f8880df0d26203", "lon": -77.02254083333334, "fusion_lon": 0.0}, {"is_reserved": 0, "type": "electric_scooter", "fusion_lat": 0.0, "is_disabled": 0, "rental_uris": {"ios": "https://dc.lft.to/lastmile_qr_scan", "android": "https://dc.lft.to/lastmile_qr_scan"}, "bike_id": "29def65d9f3324a81056f3ccca71da9c", "lat": 38.910198333333334, "name": "29def65d9f3324a81056f3ccca71da9c", "lon": -76.99387883333333, "fusion_lon": 0.0}, {"is_reserved": 0, "type": "electric_scooter", "fusion_lat": 0.0, "is_disabled": 0, "rental_uris": {"ios": "https://dc.lft.to/lastmile_qr_scan", "android": "https://dc.lft.to/lastmile_qr_scan"}, "bike_id": "bbef1bdfc3be1f45397845c726be7724", "lat": 38.90087583333333, "name": "bbef1bdfc3be1f45397845c726be7724", "lon": -77.01762433333333, "fusion_lon": 0.0}, {"is_reserved": 0, "type": "electric_scooter", "fusion_lat": 0.0, "is_disabled": 0, "rental_uris": {"ios": "https://dc.lft.to/lastmile_qr_scan", "android": "https://dc.lft.to/lastmile_qr_scan"}, "bike_id": "0f8fa1636801be71250da7a2312f46ae", "lat": 38.9143035, "name": "0f8fa1636801be71250da7a2312f46ae", "lon": -77.0449745, "fusion_lon": 0.0}, {"is_reserved": 0, "type": "electric_scooter", "fusion_lat": 0.0, "is_disabled": 0, "rental_uris": {"ios": "https://dc.lft.to/lastmile_qr_scan", "android": "https://dc.lft.to/lastmile_qr_scan"}, "bike_id": "1e94db494301061849c3489b3f7074db", "lat": 38.93650133333333, "name": "1e94db494301061849c3489b3f7074db", "lon": -77.03639016666666, "fusion_lon": 0.0}, {"is_reserved": 0, "type": "electric_scooter", "fusion_lat": 0.0, "is_disabled": 0, "rental_uris": {"ios": "https://dc.lft.to/lastmile_qr_scan", "android": "https://dc.lft.to/lastmile_qr_scan"}, "bike_id": "5403741ccba49fd248a8e542a62feb4e", "lat": 38.89862316666667, "name": "5403741ccba49fd248a8e542a62feb4e", "lon": -77.03378033333334, "fusion_lon": 0.0}, {"is_reserved": 0, "type": "electric_scooter", "fusion_lat": 0.0, "is_disabled": 0, "rental_uris": {"ios": "https://dc.lft.to/lastmile_qr_scan", "android": "https://dc.lft.to/lastmile_qr_scan"}, "bike_id": "eeb79ef6006449a42aed64812278cda8", "lat": 38.920819333333334, "name": "eeb79ef6006449a42aed64812278cda8", "lon": -77.02385816666667, "fusion_lon": 0.0}, {"is_reserved": 0, "type": "electric_scooter", "fusion_lat": 0.0, "is_disabled": 0, "rental_uris": {"ios": "https://dc.lft.to/lastmile_qr_scan", "android": "https://dc.lft.to/lastmile_qr_scan"}, "bike_id": "21a03287484f53b3dcfdd8396d8a407a", "lat": 38.91807983333333, "name": "21a03287484f53b3dcfdd8396d8a407a", "lon": -77.03438283333334, "fusion_lon": 0.0}, {"is_reserved": 0, "type": "electric_scooter", "fusion_lat": 0.0, "is_disabled": 0, "rental_uris": {"ios": "https://dc.lft.to/lastmile_qr_scan", "android": "https://dc.lft.to/lastmile_qr_scan"}, "bike_id": "641551cfb7365c2faa173998f19648be", "lat": 38.91926466666666, "name": "641551cfb7365c2faa173998f19648be", "lon": -77.009731, "fusion_lon": 0.0}, {"is_reserved": 0, "type": "electric_scooter", "fusion_lat": 0.0, "is_disabled": 0, "rental_uris": {"ios": "https://dc.lft.to/lastmile_qr_scan", "android": "https://dc.lft.to/lastmile_qr_scan"}, "bike_id": "97e12ededa19b336e3119b6ce3be8959", "lat": 38.89733583333334, "name": "97e12ededa19b336e3119b6ce3be8959", "lon": -77.01033583333333, "fusion_lon": 0.0}, {"is_reserved": 0, "type": "electric_scooter", "fusion_lat": 0.0, "is_disabled": 0, "rental_uris": {"ios": "https://dc.lft.to/lastmile_qr_scan", "android": "https://dc.lft.to/lastmile_qr_scan"}, "bike_id": "cacf0097bfe23b3b2019ef8441f35673", "lat": 38.917074, "name": "cacf0097bfe23b3b2019ef8441f35673", "lon": -77.02416233333334, "fusion_lon": 0.0}, {"is_reserved": 0, "type": "electric_scooter", "fusion_lat": 0.0, "is_disabled": 0, "rental_uris": {"ios": "https://dc.lft.to/lastmile_qr_scan", "android": "https://dc.lft.to/lastmile_qr_scan"}, "bike_id": "ddb180b0097130e87b39fb73b5497ba3", "lat": 38.907368166666664, "name": "ddb180b0097130e87b39fb73b5497ba3", "lon": -77.03861733333333, "fusion_lon": 0.0}, {"is_reserved": 0, "type": "electric_scooter", "fusion_lat": 0.0, "is_disabled": 0, "rental_uris": {"ios": "https://dc.lft.to/lastmile_qr_scan", "android": "https://dc.lft.to/lastmile_qr_scan"}, "bike_id": "8abd7dbfe7ffbadd8dcefa527d48d633", "lat": 38.94650716666666, "name": "8abd7dbfe7ffbadd8dcefa527d48d633", "lon": -77.0174115, "fusion_lon": 0.0}, {"is_reserved": 0, "type": "electric_scooter", "fusion_lat": 0.0, "is_disabled": 0, "rental_uris": {"ios": "https://dc.lft.to/lastmile_qr_scan", "android": "https://dc.lft.to/lastmile_qr_scan"}, "bike_id": "266a8bd51438e41151bc1926f798e103", "lat": 38.906038333333335, "name": "266a8bd51438e41151bc1926f798e103", "lon": -77.06656416666667, "fusion_lon": 0.0}, {"is_reserved": 0, "type": "electric_scooter", "fusion_lat": 0.0, "is_disabled": 0, "rental_uris": {"ios": "https://dc.lft.to/lastmile_qr_scan", "android": "https://dc.lft.to/lastmile_qr_scan"}, "bike_id": "7e87adc13b9d3b84c79e19707d05a450", "lat": 38.9271485, "name": "7e87adc13b9d3b84c79e19707d05a450", "lon": -77.02085183333334, "fusion_lon": 0.0}, {"is_reserved": 0, "type": "electric_scooter", "fusion_lat": 0.0, "is_disabled": 0, "rental_uris": {"ios": "https://dc.lft.to/lastmile_qr_scan", "android": "https://dc.lft.to/lastmile_qr_scan"}, "bike_id": "8d1286989afec0da6b4062dce667b402", "lat": 38.905434166666666, "name": "8d1286989afec0da6b4062dce667b402", "lon": -77.058021, "fusion_lon": 0.0}, {"is_reserved": 0, "type": "electric_scooter", "fusion_lat": 0.0, "is_disabled": 0, "rental_uris": {"ios": "https://dc.lft.to/lastmile_qr_scan", "android": "https://dc.lft.to/lastmile_qr_scan"}, "bike_id": "c1ed5f9101c0a4f79eb57d4c2d32f5be", "lat": 38.94274383333333, "name": "c1ed5f9101c0a4f79eb57d4c2d32f5be", "lon": -77.029296, "fusion_lon": 0.0}, {"is_reserved": 0, "type": "electric_scooter", "fusion_lat": 0.0, "is_disabled": 0, "rental_uris": {"ios": "https://dc.lft.to/lastmile_qr_scan", "android": "https://dc.lft.to/lastmile_qr_scan"}, "bike_id": "bde32feec7e7fc42fd47d5d4606eb1ee", "lat": 38.92871266666667, "name": "bde32feec7e7fc42fd47d5d4606eb1ee", "lon": -77.0330015, "fusion_lon": 0.0}, {"is_reserved": 0, "type": "electric_scooter", "fusion_lat": 0.0, "is_disabled": 0, "rental_uris": {"ios": "https://dc.lft.to/lastmile_qr_scan", "android": "https://dc.lft.to/lastmile_qr_scan"}, "bike_id": "99b5ff3d3f31eba1f83c79adf58ebb2a", "lat": 38.89862683333333, "name": "99b5ff3d3f31eba1f83c79adf58ebb2a", "lon": -77.03945866666666, "fusion_lon": 0.0}, {"is_reserved": 0, "type": "electric_bike", "fusion_lat": 0.0, "is_disabled": 0, "rental_uris": {"ios": "https://dc.lft.to/lastmile_qr_scan", "android": "https://dc.lft.to/lastmile_qr_scan"}, "bike_id": "456126e0759c35980e003e4d8c825154", "lat": 38.98239683333333, "name": "456126e0759c35980e003e4d8c825154", "lon": -77.09563666666666, "fusion_lon": 0.0}, {"is_reserved": 0, "type": "electric_bike", "fusion_lat": 0.0, "is_disabled": 0, "rental_uris": {"ios": "https://dc.lft.to/lastmile_qr_scan", "android": "https://dc.lft.to/lastmile_qr_scan"}, "bike_id": "a006d5802edaf12db6e4c91bfcf02e65", "lat": 39.02298233333333, "name": "a006d5802edaf12db6e4c91bfcf02e65", "lon": -77.02103783333334, "fusion_lon": 0.0}, {"is_reserved": 0, "type": "electric_bike", "fusion_lat": 0.0, "is_disabled": 0, "rental_uris": {"ios": "https://dc.lft.to/lastmile_qr_scan", "android": "https://dc.lft.to/lastmile_qr_scan"}, "bike_id": "f6cf13494425b0d5671e4b7587580c94", "lat": 38.974790166666665, "name": "f6cf13494425b0d5671e4b7587580c94", "lon": -76.98670466666667, "fusion_lon": 0.0}, {"is_reserved": 0, "type": "electric_scooter", "fusion_lat": 0.0, "is_disabled": 0, "rental_uris": {"ios": "https://dc.lft.to/lastmile_qr_scan", "android": "https://dc.lft.to/lastmile_qr_scan"}, "bike_id": "a5c00bf0142fff358b6f6bd105354a82", "lat": 38.914071, "name": "a5c00bf0142fff358b6f6bd105354a82", "lon": -77.0456845, "fusion_lon": 0.0}, {"is_reserved": 0, "type": "electric_scooter", "fusion_lat": 0.0, "is_disabled": 0, "rental_uris": {"ios": "https://dc.lft.to/lastmile_qr_scan", "android": "https://dc.lft.to/lastmile_qr_scan"}, "bike_id": "308c86646acaead5b26d8943f2135b36", "lat": 38.892113333333334, "name": "308c86646acaead5b26d8943f2135b36", "lon": -76.99938383333334, "fusion_lon": 0.0}, {"is_reserved": 0, "type": "electric_bike", "fusion_lat": 0.0, "is_disabled": 0, "rental_uris": {"ios": "https://dc.lft.to/lastmile_qr_scan", "android": "https://dc.lft.to/lastmile_qr_scan"}, "bike_id": "1d33f1ab8a234f7e9b540d4ca4c4de1d", "lat": 38.84097833333333, "name": "1d33f1ab8a234f7e9b540d4ca4c4de1d", "lon": -76.97023866666666, "fusion_lon": 0.0}, {"is_reserved": 0, "type": "electric_bike", "fusion_lat": 0.0, "is_disabled": 0, "rental_uris": {"ios": "https://dc.lft.to/lastmile_qr_scan", "android": "https://dc.lft.to/lastmile_qr_scan"}, "bike_id": "85c671371c8e582b535f3a4a9588b28d", "lat": 38.89425266666667, "name": "85c671371c8e582b535f3a4a9588b28d", "lon": -77.09448683333333, "fusion_lon": 0.0}, {"is_reserved": 0, "type": "electric_scooter", "fusion_lat": 0.0, "is_disabled": 0, "rental_uris": {"ios": "https://dc.lft.to/lastmile_qr_scan", "android": "https://dc.lft.to/lastmile_qr_scan"}, "bike_id": "d4db6c3638d64a4216ea45a67cd97ec7", "lat": 38.8996155, "name": "d4db6c3638d64a4216ea45a67cd97ec7", "lon": -77.04753033333333, "fusion_lon": 0.0}, {"is_reserved": 0, "type": "electric_scooter", "fusion_lat": 0.0, "is_disabled": 0, "rental_uris": {"ios": "https://dc.lft.to/lastmile_qr_scan", "android": "https://dc.lft.to/lastmile_qr_scan"}, "bike_id": "a8e562aa61cb145a17858e81cd81cfab", "lat": 38.907925, "name": "a8e562aa61cb145a17858e81cd81cfab", "lon": -77.00198033333334, "fusion_lon": 0.0}, {"is_reserved": 0, "type": "electric_bike", "fusion_lat": 0.0, "is_disabled": 0, "rental_uris": {"ios": "https://dc.lft.to/lastmile_qr_scan", "android": "https://dc.lft.to/lastmile_qr_scan"}, "bike_id": "837c40d91badd47f64c96ae2ffdaef2d", "lat": 38.83496, "name": "837c40d91badd47f64c96ae2ffdaef2d", "lon": -77.00432383333333, "fusion_lon": 0.0}, {"is_reserved": 0, "type": "electric_scooter", "fusion_lat": 0.0, "is_disabled": 0, "rental_uris": {"ios": "https://dc.lft.to/lastmile_qr_scan", "android": "https://dc.lft.to/lastmile_qr_scan"}, "bike_id": "6488ccdeb775cd82acc3f3d975be0575", "lat": 38.89847233333333, "name": "6488ccdeb775cd82acc3f3d975be0575", "lon": -77.01878133333334, "fusion_lon": 0.0}, {"is_reserved": 0, "type": "electric_scooter", "fusion_lat": 0.0, "is_disabled": 0, "rental_uris": {"ios": "https://dc.lft.to/lastmile_qr_scan", "android": "https://dc.lft.to/lastmile_qr_scan"}, "bike_id": "231b7a97d25a0177a60f2a50e12d8120", "lat": 38.906642, "name": "231b7a97d25a0177a60f2a50e12d8120", "lon": -77.0162355, "fusion_lon": 0.0}, {"is_reserved": 0, "type": "electric_scooter", "fusion_lat": 0.0, "is_disabled": 0, "rental_uris": {"ios": "https://dc.lft.to/lastmile_qr_scan", "android": "https://dc.lft.to/lastmile_qr_scan"}, "bike_id": "f704d0586c3cd748dbcb10f60a717c84", "lat": 38.91262283333333, "name": "f704d0586c3cd748dbcb10f60a717c84", "lon": -77.03874883333333, "fusion_lon": 0.0}, {"is_reserved": 0, "type": "electric_scooter", "fusion_lat": 0.0, "is_disabled": 0, "rental_uris": {"ios": "https://dc.lft.to/lastmile_qr_scan", "android": "https://dc.lft.to/lastmile_qr_scan"}, "bike_id": "6606b01add7aa0ae32d79cbc513bc329", "lat": 38.907311666666665, "name": "6606b01add7aa0ae32d79cbc513bc329", "lon": -77.02420816666667, "fusion_lon": 0.0}, {"is_reserved": 0, "type": "electric_scooter", "fusion_lat": 0.0, "is_disabled": 0, "rental_uris": {"ios": "https://dc.lft.to/lastmile_qr_scan", "android": "https://dc.lft.to/lastmile_qr_scan"}, "bike_id": "529c3c580dadffcd84300a9286536ffa", "lat": 38.93071783333333, "name": "529c3c580dadffcd84300a9286536ffa", "lon": -77.03175866666666, "fusion_lon": 0.0}, {"is_reserved": 0, "type": "electric_scooter", "fusion_lat": 0.0, "is_disabled": 0, "rental_uris": {"ios": "https://dc.lft.to/lastmile_qr_scan", "android": "https://dc.lft.to/lastmile_qr_scan"}, "bike_id": "aa591f2c78c03588e7f86e9b65a98f8c", "lat": 38.9398515, "name": "aa591f2c78c03588e7f86e9b65a98f8c", "lon": -77.02891916666667, "fusion_lon": 0.0}, {"is_reserved": 0, "type": "electric_scooter", "fusion_lat": 0.0, "is_disabled": 0, "rental_uris": {"ios": "https://dc.lft.to/lastmile_qr_scan", "android": "https://dc.lft.to/lastmile_qr_scan"}, "bike_id": "adfedfa505a271317be7bf9980e5b6e6", "lat": 38.9169875, "name": "adfedfa505a271317be7bf9980e5b6e6", "lon": -77.03240333333333, "fusion_lon": 0.0}, {"is_reserved": 0, "type": "electric_scooter", "fusion_lat": 0.0, "is_disabled": 0, "rental_uris": {"ios": "https://dc.lft.to/lastmile_qr_scan", "android": "https://dc.lft.to/lastmile_qr_scan"}, "bike_id": "2a60116c525ca94e971793ae82709369", "lat": 38.8922925, "name": "2a60116c525ca94e971793ae82709369", "lon": -77.05004516666666, "fusion_lon": 0.0}, {"is_reserved": 0, "type": "electric_scooter", "fusion_lat": 0.0, "is_disabled": 0, "rental_uris": {"ios": "https://dc.lft.to/lastmile_qr_scan", "android": "https://dc.lft.to/lastmile_qr_scan"}, "bike_id": "cfd97ce16489e6f91e6ca301c38b3700", "lat": 38.92828733333333, "name": "cfd97ce16489e6f91e6ca301c38b3700", "lon": -77.021611, "fusion_lon": 0.0}, {"is_reserved": 0, "type": "electric_scooter", "fusion_lat": 0.0, "is_disabled": 0, "rental_uris": {"ios": "https://dc.lft.to/lastmile_qr_scan", "android": "https://dc.lft.to/lastmile_qr_scan"}, "bike_id": "25f9f93f6d46b1b4194354181fcd9971", "lat": 38.9197365, "name": "25f9f93f6d46b1b4194354181fcd9971", "lon": -77.07118683333333, "fusion_lon": 0.0}, {"is_reserved": 0, "type": "electric_bike", "fusion_lat": 0.0, "is_disabled": 0, "rental_uris": {"ios": "https://dc.lft.to/lastmile_qr_scan", "android": "https://dc.lft.to/lastmile_qr_scan"}, "bike_id": "e915be0f52cfacde901b4fdd1a4f12ac", "lat": 38.882816, "name": "e915be0f52cfacde901b4fdd1a4f12ac", "lon": -76.932381, "fusion_lon": 0.0}, {"is_reserved": 0, "type": "electric_scooter", "fusion_lat": 0.0, "is_disabled": 0, "rental_uris": {"ios": "https://dc.lft.to/lastmile_qr_scan", "android": "https://dc.lft.to/lastmile_qr_scan"}, "bike_id": "93f7cbc7ad12d464e2cf9402e926db13", "lat": 38.880089, "name": "93f7cbc7ad12d464e2cf9402e926db13", "lon": -76.9983415, "fusion_lon": 0.0}, {"is_reserved": 0, "type": "electric_scooter", "fusion_lat": 0.0, "is_disabled": 0, "rental_uris": {"ios": "https://dc.lft.to/lastmile_qr_scan", "android": "https://dc.lft.to/lastmile_qr_scan"}, "bike_id": "26316107f47c17f44f416d64ae8c8888", "lat": 38.90305433333333, "name": "26316107f47c17f44f416d64ae8c8888", "lon": -76.9983895, "fusion_lon": 0.0}, {"is_reserved": 0, "type": "electric_scooter", "fusion_lat": 0.0, "is_disabled": 0, "rental_uris": {"ios": "https://dc.lft.to/lastmile_qr_scan", "android": "https://dc.lft.to/lastmile_qr_scan"}, "bike_id": "c91b0e21fc9e6946cb6cd0c15cb0ea2b", "lat": 38.94023933333333, "name": "c91b0e21fc9e6946cb6cd0c15cb0ea2b", "lon": -77.07735233333334, "fusion_lon": 0.0}, {"is_reserved": 0, "type": "electric_scooter", "fusion_lat": 0.0, "is_disabled": 0, "rental_uris": {"ios": "https://dc.lft.to/lastmile_qr_scan", "android": "https://dc.lft.to/lastmile_qr_scan"}, "bike_id": "7814385c5717a4d576e698aedf1636fe", "lat": 38.87889033333333, "name": "7814385c5717a4d576e698aedf1636fe", "lon": -76.96541733333333, "fusion_lon": 0.0}, {"is_reserved": 0, "type": "electric_scooter", "fusion_lat": 0.0, "is_disabled": 0, "rental_uris": {"ios": "https://dc.lft.to/lastmile_qr_scan", "android": "https://dc.lft.to/lastmile_qr_scan"}, "bike_id": "61c0baeb9fe536942a9c46b1a664683d", "lat": 38.930112, "name": "61c0baeb9fe536942a9c46b1a664683d", "lon": -77.02112983333333, "fusion_lon": 0.0}, {"is_reserved": 0, "type": "electric_scooter", "fusion_lat": 0.0, "is_disabled": 0, "rental_uris": {"ios": "https://dc.lft.to/lastmile_qr_scan", "android": "https://dc.lft.to/lastmile_qr_scan"}, "bike_id": "0fd9b82e5417e6ba9166768434374a45", "lat": 38.89939, "name": "0fd9b82e5417e6ba9166768434374a45", "lon": -76.93768416666667, "fusion_lon": 0.0}, {"is_reserved": 0, "type": "electric_scooter", "fusion_lat": 0.0, "is_disabled": 0, "rental_uris": {"ios": "https://dc.lft.to/lastmile_qr_scan", "android": "https://dc.lft.to/lastmile_qr_scan"}, "bike_id": "1198c27523be89bb11c089f431991a7b", "lat": 38.952226833333334, "name": "1198c27523be89bb11c089f431991a7b", "lon": -77.068872, "fusion_lon": 0.0}, {"is_reserved": 0, "type": "electric_scooter", "fusion_lat": 0.0, "is_disabled": 0, "rental_uris": {"ios": "https://dc.lft.to/lastmile_qr_scan", "android": "https://dc.lft.to/lastmile_qr_scan"}, "bike_id": "d90aec69daa00ecf7033b7ac00ab875a", "lat": 38.92856416666667, "name": "d90aec69daa00ecf7033b7ac00ab875a", "lon": -77.01403583333334, "fusion_lon": 0.0}, {"is_reserved": 0, "type": "electric_scooter", "fusion_lat": 0.0, "is_disabled": 0, "rental_uris": {"ios": "https://dc.lft.to/lastmile_qr_scan", "android": "https://dc.lft.to/lastmile_qr_scan"}, "bike_id": "c0812d4698a602bd3f8e69a50712ed29", "lat": 38.91009916666667, "name": "c0812d4698a602bd3f8e69a50712ed29", "lon": -77.04424, "fusion_lon": 0.0}, {"is_reserved": 0, "type": "electric_scooter", "fusion_lat": 0.0, "is_disabled": 0, "rental_uris": {"ios": "https://dc.lft.to/lastmile_qr_scan", "android": "https://dc.lft.to/lastmile_qr_scan"}, "bike_id": "d88e66a9ffd1faa98d5722d34d929dce", "lat": 38.901825333333335, "name": "d88e66a9ffd1faa98d5722d34d929dce", "lon": -76.97670983333333, "fusion_lon": 0.0}, {"is_reserved": 0, "type": "electric_scooter", "fusion_lat": 0.0, "is_disabled": 0, "rental_uris": {"ios": "https://dc.lft.to/lastmile_qr_scan", "android": "https://dc.lft.to/lastmile_qr_scan"}, "bike_id": "f36cfba2548dcd85ebf425c38c5fc1e1", "lat": 38.897162333333334, "name": "f36cfba2548dcd85ebf425c38c5fc1e1", "lon": -77.02672366666667, "fusion_lon": 0.0}, {"is_reserved": 0, "type": "electric_scooter", "fusion_lat": 0.0, "is_disabled": 0, "rental_uris": {"ios": "https://dc.lft.to/lastmile_qr_scan", "android": "https://dc.lft.to/lastmile_qr_scan"}, "bike_id": "ef7969b735fb1af788bd0dfda7273b74", "lat": 38.924448166666664, "name": "ef7969b735fb1af788bd0dfda7273b74", "lon": -77.03405933333333, "fusion_lon": 0.0}, {"is_reserved": 0, "type": "electric_scooter", "fusion_lat": 0.0, "is_disabled": 0, "rental_uris": {"ios": "https://dc.lft.to/lastmile_qr_scan", "android": "https://dc.lft.to/lastmile_qr_scan"}, "bike_id": "746d6f94754e3477d80a6e06777e388f", "lat": 38.90369716666667, "name": "746d6f94754e3477d80a6e06777e388f", "lon": -76.97815116666666, "fusion_lon": 0.0}, {"is_reserved": 0, "type": "electric_scooter", "fusion_lat": 0.0, "is_disabled": 0, "rental_uris": {"ios": "https://dc.lft.to/lastmile_qr_scan", "android": "https://dc.lft.to/lastmile_qr_scan"}, "bike_id": "9beb3bbfc9ecafdaca9f2ff6c5ec4730", "lat": 38.91040533333333, "name": "9beb3bbfc9ecafdaca9f2ff6c5ec4730", "lon": -76.93837216666667, "fusion_lon": 0.0}, {"is_reserved": 0, "type": "electric_bike", "fusion_lat": 0.0, "is_disabled": 0, "rental_uris": {"ios": "https://dc.lft.to/lastmile_qr_scan", "android": "https://dc.lft.to/lastmile_qr_scan"}, "bike_id": "d1287067b955ec98924a97d453b91f63", "lat": 39.03476916666666, "name": "d1287067b955ec98924a97d453b91f63", "lon": -77.04108183333334, "fusion_lon": 0.0}, {"is_reserved": 0, "type": "electric_scooter", "fusion_lat": 0.0, "is_disabled": 0, "rental_uris": {"ios": "https://dc.lft.to/lastmile_qr_scan", "android": "https://dc.lft.to/lastmile_qr_scan"}, "bike_id": "70b431a190860821e12990c3f4450588", "lat": 38.89706, "name": "70b431a190860821e12990c3f4450588", "lon": -76.9300025, "fusion_lon": 0.0}, {"is_reserved": 0, "type": "electric_scooter", "fusion_lat": 0.0, "is_disabled": 0, "rental_uris": {"ios": "https://dc.lft.to/lastmile_qr_scan", "android": "https://dc.lft.to/lastmile_qr_scan"}, "bike_id": "7e9291e67ba38ff04d1b9f16caf7f197", "lat": 38.924837833333335, "name": "7e9291e67ba38ff04d1b9f16caf7f197", "lon": -77.02541216666667, "fusion_lon": 0.0}, {"is_reserved": 0, "type": "electric_scooter", "fusion_lat": 0.0, "is_disabled": 0, "rental_uris": {"ios": "https://dc.lft.to/lastmile_qr_scan", "android": "https://dc.lft.to/lastmile_qr_scan"}, "bike_id": "4476e8a8736967c4fd089c8929f476c8", "lat": 38.90770466666667, "name": "4476e8a8736967c4fd089c8929f476c8", "lon": -77.02407066666666, "fusion_lon": 0.0}, {"is_reserved": 0, "type": "electric_bike", "fusion_lat": 0.0, "is_disabled": 0, "rental_uris": {"ios": "https://dc.lft.to/lastmile_qr_scan", "android": "https://dc.lft.to/lastmile_qr_scan"}, "bike_id": "59aacf4f1c2b0f22c133a6fdb0daae7e", "lat": 38.85085683333333, "name": "59aacf4f1c2b0f22c133a6fdb0daae7e", "lon": -76.981611, "fusion_lon": 0.0}, {"is_reserved": 0, "type": "electric_bike", "fusion_lat": 0.0, "is_disabled": 0, "rental_uris": {"ios": "https://dc.lft.to/lastmile_qr_scan", "android": "https://dc.lft.to/lastmile_qr_scan"}, "bike_id": "3bf9cdad5dbb3e29bc17da1c64dbfad8", "lat": 38.91456083333333, "name": "3bf9cdad5dbb3e29bc17da1c64dbfad8", "lon": -76.97276466666666, "fusion_lon": 0.0}, {"is_reserved": 0, "type": "electric_bike", "fusion_lat": 0.0, "is_disabled": 0, "rental_uris": {"ios": "https://dc.lft.to/lastmile_qr_scan", "android": "https://dc.lft.to/lastmile_qr_scan"}, "bike_id": "7c7def2162eaa4fbb8bae2b640f0e3e9", "lat": 38.90079516666667, "name": "7c7def2162eaa4fbb8bae2b640f0e3e9", "lon": -77.046806, "fusion_lon": 0.0}, {"is_reserved": 0, "type": "electric_scooter", "fusion_lat": 0.0, "is_disabled": 0, "rental_uris": {"ios": "https://dc.lft.to/lastmile_qr_scan", "android": "https://dc.lft.to/lastmile_qr_scan"}, "bike_id": "6918463cf6448acfe2c5cefb70c0546e", "lat": 38.917480166666664, "name": "6918463cf6448acfe2c5cefb70c0546e", "lon": -77.01083733333333, "fusion_lon": 0.0}, {"is_reserved": 0, "type": "electric_scooter", "fusion_lat": 0.0, "is_disabled": 0, "rental_uris": {"ios": "https://dc.lft.to/lastmile_qr_scan", "android": "https://dc.lft.to/lastmile_qr_scan"}, "bike_id": "2b0ed3e97b33a03f2a182ee5dd02a8fb", "lat": 38.88840966666667, "name": "2b0ed3e97b33a03f2a182ee5dd02a8fb", "lon": -76.97731183333333, "fusion_lon": 0.0}, {"is_reserved": 0, "type": "electric_bike", "fusion_lat": 0.0, "is_disabled": 0, "rental_uris": {"ios": "https://dc.lft.to/lastmile_qr_scan", "android": "https://dc.lft.to/lastmile_qr_scan"}, "bike_id": "493155586bac7afe739ab1fe6fcf0c39", "lat": 38.955074333333336, "name": "493155586bac7afe739ab1fe6fcf0c39", "lon": -77.027682, "fusion_lon": 0.0}, {"is_reserved": 0, "type": "electric_bike", "fusion_lat": 0.0, "is_disabled": 0, "rental_uris": {"ios": "https://dc.lft.to/lastmile_qr_scan", "android": "https://dc.lft.to/lastmile_qr_scan"}, "bike_id": "3f765cf11fea9af03c9db96ec30ad37f", "lat": 38.9673565, "name": "3f765cf11fea9af03c9db96ec30ad37f", "lon": -77.08911483333333, "fusion_lon": 0.0}, {"is_reserved": 0, "type": "electric_scooter", "fusion_lat": 0.0, "is_disabled": 0, "rental_uris": {"ios": "https://dc.lft.to/lastmile_qr_scan", "android": "https://dc.lft.to/lastmile_qr_scan"}, "bike_id": "b25b9cec60d618f9f5eed503de20434d", "lat": 38.8877815, "name": "b25b9cec60d618f9f5eed503de20434d", "lon": -77.000537, "fusion_lon": 0.0}, {"is_reserved": 0, "type": "electric_scooter", "fusion_lat": 0.0, "is_disabled": 0, "rental_uris": {"ios": "https://dc.lft.to/lastmile_qr_scan", "android": "https://dc.lft.to/lastmile_qr_scan"}, "bike_id": "b94a102972a9f58170e40f7cd4b3e0aa", "lat": 38.92956366666667, "name": "b94a102972a9f58170e40f7cd4b3e0aa", "lon": -77.044043, "fusion_lon": 0.0}, {"is_reserved": 0, "type": "electric_scooter", "fusion_lat": 0.0, "is_disabled": 0, "rental_uris": {"ios": "https://dc.lft.to/lastmile_qr_scan", "android": "https://dc.lft.to/lastmile_qr_scan"}, "bike_id": "27853cc0e3eec2e0875f3fd5cfb01a46", "lat": 38.895195666666666, "name": "27853cc0e3eec2e0875f3fd5cfb01a46", "lon": -77.02298366666666, "fusion_lon": 0.0}, {"is_reserved": 0, "type": "electric_scooter", "fusion_lat": 0.0, "is_disabled": 0, "rental_uris": {"ios": "https://dc.lft.to/lastmile_qr_scan", "android": "https://dc.lft.to/lastmile_qr_scan"}, "bike_id": "221afd0954663ab2bba7c76c2838881e", "lat": 38.92236416666667, "name": "221afd0954663ab2bba7c76c2838881e", "lon": -77.0282495, "fusion_lon": 0.0}, {"is_reserved": 0, "type": "electric_scooter", "fusion_lat": 0.0, "is_disabled": 0, "rental_uris": {"ios": "https://dc.lft.to/lastmile_qr_scan", "android": "https://dc.lft.to/lastmile_qr_scan"}, "bike_id": "6ba96f74ac74829df6a1f6c623bb158e", "lat": 38.910024, "name": "6ba96f74ac74829df6a1f6c623bb158e", "lon": -77.02688116666667, "fusion_lon": 0.0}, {"is_reserved": 0, "type": "electric_scooter", "fusion_lat": 0.0, "is_disabled": 0, "rental_uris": {"ios": "https://dc.lft.to/lastmile_qr_scan", "android": "https://dc.lft.to/lastmile_qr_scan"}, "bike_id": "6d98621782b4486aa8974e749d2ece8c", "lat": 38.922175333333335, "name": "6d98621782b4486aa8974e749d2ece8c", "lon": -77.0202715, "fusion_lon": 0.0}, {"is_reserved": 0, "type": "electric_bike", "fusion_lat": 0.0, "is_disabled": 0, "rental_uris": {"ios": "https://dc.lft.to/lastmile_qr_scan", "android": "https://dc.lft.to/lastmile_qr_scan"}, "bike_id": "6d2a3e3920803b2584cc1587ae61cdda", "lat": 38.8358785, "name": "6d2a3e3920803b2584cc1587ae61cdda", "lon": -76.990139, "fusion_lon": 0.0}, {"is_reserved": 0, "type": "electric_scooter", "fusion_lat": 0.0, "is_disabled": 0, "rental_uris": {"ios": "https://dc.lft.to/lastmile_qr_scan", "android": "https://dc.lft.to/lastmile_qr_scan"}, "bike_id": "fdeaa30e6248b471fb4c3a554a6f33fa", "lat": 38.933377666666665, "name": "fdeaa30e6248b471fb4c3a554a6f33fa", "lon": -77.02910133333333, "fusion_lon": 0.0}, {"is_reserved": 0, "type": "electric_scooter", "fusion_lat": 0.0, "is_disabled": 0, "rental_uris": {"ios": "https://dc.lft.to/lastmile_qr_scan", "android": "https://dc.lft.to/lastmile_qr_scan"}, "bike_id": "571ebd6a4638e3457142063b7f10a407", "lat": 38.9046415, "name": "571ebd6a4638e3457142063b7f10a407", "lon": -77.01721, "fusion_lon": 0.0}, {"is_reserved": 0, "type": "electric_scooter", "fusion_lat": 0.0, "is_disabled": 0, "rental_uris": {"ios": "https://dc.lft.to/lastmile_qr_scan", "android": "https://dc.lft.to/lastmile_qr_scan"}, "bike_id": "436c9afbf09ec09a5bb852aea4b3af50", "lat": 38.9300935, "name": "436c9afbf09ec09a5bb852aea4b3af50", "lon": -77.03777733333334, "fusion_lon": 0.0}, {"is_reserved": 0, "type": "electric_scooter", "fusion_lat": 0.0, "is_disabled": 0, "rental_uris": {"ios": "https://dc.lft.to/lastmile_qr_scan", "android": "https://dc.lft.to/lastmile_qr_scan"}, "bike_id": "0595e51209fb3aecbf8ffb3c26c25b91", "lat": 38.887146, "name": "0595e51209fb3aecbf8ffb3c26c25b91", "lon": -76.983785, "fusion_lon": 0.0}, {"is_reserved": 0, "type": "electric_scooter", "fusion_lat": 0.0, "is_disabled": 0, "rental_uris": {"ios": "https://dc.lft.to/lastmile_qr_scan", "android": "https://dc.lft.to/lastmile_qr_scan"}, "bike_id": "702cc0b8bc1ca87e51d0fef04db918b5", "lat": 38.920523333333335, "name": "702cc0b8bc1ca87e51d0fef04db918b5", "lon": -77.04041333333333, "fusion_lon": 0.0}, {"is_reserved": 0, "type": "electric_scooter", "fusion_lat": 0.0, "is_disabled": 0, "rental_uris": {"ios": "https://dc.lft.to/lastmile_qr_scan", "android": "https://dc.lft.to/lastmile_qr_scan"}, "bike_id": "ccb9685c96c5e0d4b595aa674e7cb6d4", "lat": 38.936647, "name": "ccb9685c96c5e0d4b595aa674e7cb6d4", "lon": -77.06609966666667, "fusion_lon": 0.0}, {"is_reserved": 0, "type": "electric_scooter", "fusion_lat": 0.0, "is_disabled": 0, "rental_uris": {"ios": "https://dc.lft.to/lastmile_qr_scan", "android": "https://dc.lft.to/lastmile_qr_scan"}, "bike_id": "c9cd7c2ec166082b48447eb4b16e55d6", "lat": 38.9006835, "name": "c9cd7c2ec166082b48447eb4b16e55d6", "lon": -77.02943633333334, "fusion_lon": 0.0}, {"is_reserved": 0, "type": "electric_scooter", "fusion_lat": 0.0, "is_disabled": 0, "rental_uris": {"ios": "https://dc.lft.to/lastmile_qr_scan", "android": "https://dc.lft.to/lastmile_qr_scan"}, "bike_id": "0e0255dbe213e6d0261e607d08008ace", "lat": 38.925534666666664, "name": "0e0255dbe213e6d0261e607d08008ace", "lon": -77.0032245, "fusion_lon": 0.0}, {"is_reserved": 0, "type": "electric_scooter", "fusion_lat": 0.0, "is_disabled": 0, "rental_uris": {"ios": "https://dc.lft.to/lastmile_qr_scan", "android": "https://dc.lft.to/lastmile_qr_scan"}, "bike_id": "448f08f404745c42d15f2d4e082a5892", "lat": 38.899779, "name": "448f08f404745c42d15f2d4e082a5892", "lon": -77.0192855, "fusion_lon": 0.0}, {"is_reserved": 0, "type": "electric_scooter", "fusion_lat": 0.0, "is_disabled": 0, "rental_uris": {"ios": "https://dc.lft.to/lastmile_qr_scan", "android": "https://dc.lft.to/lastmile_qr_scan"}, "bike_id": "b2d34372f3582ad4105638e10399ccd5", "lat": 38.89959966666667, "name": "b2d34372f3582ad4105638e10399ccd5", "lon": -77.04752783333333, "fusion_lon": 0.0}, {"is_reserved": 0, "type": "electric_scooter", "fusion_lat": 0.0, "is_disabled": 0, "rental_uris": {"ios": "https://dc.lft.to/lastmile_qr_scan", "android": "https://dc.lft.to/lastmile_qr_scan"}, "bike_id": "e7c3391beb53af37fa38a7fa53398645", "lat": 38.8810885, "name": "e7c3391beb53af37fa38a7fa53398645", "lon": -76.98774866666666, "fusion_lon": 0.0}, {"is_reserved": 0, "type": "electric_scooter", "fusion_lat": 0.0, "is_disabled": 0, "rental_uris": {"ios": "https://dc.lft.to/lastmile_qr_scan", "android": "https://dc.lft.to/lastmile_qr_scan"}, "bike_id": "3ad1ca5443cb5058fb70b563acce7f5a", "lat": 38.906468333333336, "name": "3ad1ca5443cb5058fb70b563acce7f5a", "lon": -77.018737, "fusion_lon": 0.0}, {"is_reserved": 0, "type": "electric_scooter", "fusion_lat": 0.0, "is_disabled": 0, "rental_uris": {"ios": "https://dc.lft.to/lastmile_qr_scan", "android": "https://dc.lft.to/lastmile_qr_scan"}, "bike_id": "d7c7f71ed9ad4a2b176826d2ec870fb9", "lat": 38.89519033333333, "name": "d7c7f71ed9ad4a2b176826d2ec870fb9", "lon": -77.02299716666667, "fusion_lon": 0.0}, {"is_reserved": 0, "type": "electric_scooter", "fusion_lat": 0.0, "is_disabled": 0, "rental_uris": {"ios": "https://dc.lft.to/lastmile_qr_scan", "android": "https://dc.lft.to/lastmile_qr_scan"}, "bike_id": "550fcd8e0a46dcf60a0e2937f3273ea8", "lat": 38.92064666666667, "name": "550fcd8e0a46dcf60a0e2937f3273ea8", "lon": -77.04400166666667, "fusion_lon": 0.0}, {"is_reserved": 0, "type": "electric_scooter", "fusion_lat": 0.0, "is_disabled": 0, "rental_uris": {"ios": "https://dc.lft.to/lastmile_qr_scan", "android": "https://dc.lft.to/lastmile_qr_scan"}, "bike_id": "526c587d7c60075d5a301e45f4676a63", "lat": 38.92050916666667, "name": "526c587d7c60075d5a301e45f4676a63", "lon": -77.0260425, "fusion_lon": 0.0}, {"is_reserved": 0, "type": "electric_scooter", "fusion_lat": 0.0, "is_disabled": 0, "rental_uris": {"ios": "https://dc.lft.to/lastmile_qr_scan", "android": "https://dc.lft.to/lastmile_qr_scan"}, "bike_id": "09343efce21ce1ac5d1dfb29626b489d", "lat": 38.88733166666667, "name": "09343efce21ce1ac5d1dfb29626b489d", "lon": -76.9837755, "fusion_lon": 0.0}, {"is_reserved": 0, "type": "electric_scooter", "fusion_lat": 0.0, "is_disabled": 0, "rental_uris": {"ios": "https://dc.lft.to/lastmile_qr_scan", "android": "https://dc.lft.to/lastmile_qr_scan"}, "bike_id": "00a1b8d9d1d31d2203dd6da714a5b987", "lat": 38.875744166666664, "name": "00a1b8d9d1d31d2203dd6da714a5b987", "lon": -77.00595183333333, "fusion_lon": 0.0}, {"is_reserved": 0, "type": "electric_scooter", "fusion_lat": 0.0, "is_disabled": 0, "rental_uris": {"ios": "https://dc.lft.to/lastmile_qr_scan", "android": "https://dc.lft.to/lastmile_qr_scan"}, "bike_id": "3abdea2ebc4eb4c53bc04b1f65df9010", "lat": 38.932395, "name": "3abdea2ebc4eb4c53bc04b1f65df9010", "lon": -77.04076566666667, "fusion_lon": 0.0}, {"is_reserved": 0, "type": "electric_scooter", "fusion_lat": 0.0, "is_disabled": 0, "rental_uris": {"ios": "https://dc.lft.to/lastmile_qr_scan", "android": "https://dc.lft.to/lastmile_qr_scan"}, "bike_id": "123beed1b1711717410c37831234cf50", "lat": 38.9001515, "name": "123beed1b1711717410c37831234cf50", "lon": -76.98235, "fusion_lon": 0.0}, {"is_reserved": 0, "type": "electric_scooter", "fusion_lat": 0.0, "is_disabled": 0, "rental_uris": {"ios": "https://dc.lft.to/lastmile_qr_scan", "android": "https://dc.lft.to/lastmile_qr_scan"}, "bike_id": "f54646ff84338df29a60f05062de1e12", "lat": 38.912607666666666, "name": "f54646ff84338df29a60f05062de1e12", "lon": -77.04792183333333, "fusion_lon": 0.0}, {"is_reserved": 0, "type": "electric_scooter", "fusion_lat": 0.0, "is_disabled": 0, "rental_uris": {"ios": "https://dc.lft.to/lastmile_qr_scan", "android": "https://dc.lft.to/lastmile_qr_scan"}, "bike_id": "3a7ef0a6fcb002435fb9fa82a84b3595", "lat": 38.87574083333333, "name": "3a7ef0a6fcb002435fb9fa82a84b3595", "lon": -77.00594933333333, "fusion_lon": 0.0}, {"is_reserved": 0, "type": "electric_bike", "fusion_lat": 0.0, "is_disabled": 0, "rental_uris": {"ios": "https://dc.lft.to/lastmile_qr_scan", "android": "https://dc.lft.to/lastmile_qr_scan"}, "bike_id": "71c54c17ed35617bbe9eba2c60e46241", "lat": 39.004528, "name": "71c54c17ed35617bbe9eba2c60e46241", "lon": -76.90118316666667, "fusion_lon": 0.0}, {"is_reserved": 0, "type": "electric_scooter", "fusion_lat": 0.0, "is_disabled": 0, "rental_uris": {"ios": "https://dc.lft.to/lastmile_qr_scan", "android": "https://dc.lft.to/lastmile_qr_scan"}, "bike_id": "2ecc316bdcbad3c944e718076ac59fee", "lat": 38.9364325, "name": "2ecc316bdcbad3c944e718076ac59fee", "lon": -77.02134566666666, "fusion_lon": 0.0}, {"is_reserved": 0, "type": "electric_scooter", "fusion_lat": 0.0, "is_disabled": 0, "rental_uris": {"ios": "https://dc.lft.to/lastmile_qr_scan", "android": "https://dc.lft.to/lastmile_qr_scan"}, "bike_id": "4ff27a36ed8c7bd813898c103b54ae90", "lat": 38.93985266666667, "name": "4ff27a36ed8c7bd813898c103b54ae90", "lon": -77.01909716666667, "fusion_lon": 0.0}, {"is_reserved": 0, "type": "electric_scooter", "fusion_lat": 0.0, "is_disabled": 0, "rental_uris": {"ios": "https://dc.lft.to/lastmile_qr_scan", "android": "https://dc.lft.to/lastmile_qr_scan"}, "bike_id": "bd17f5b9994f48a6af6b08b56fe41286", "lat": 38.9397355, "name": "bd17f5b9994f48a6af6b08b56fe41286", "lon": -77.0325325, "fusion_lon": 0.0}, {"is_reserved": 0, "type": "electric_bike", "fusion_lat": 0.0, "is_disabled": 0, "rental_uris": {"ios": "https://dc.lft.to/lastmile_qr_scan", "android": "https://dc.lft.to/lastmile_qr_scan"}, "bike_id": "c64e29c32e0a61853fe3defda3ff7032", "lat": 38.904126833333336, "name": "c64e29c32e0a61853fe3defda3ff7032", "lon": -77.05141066666667, "fusion_lon": 0.0}, {"is_reserved": 0, "type": "electric_scooter", "fusion_lat": 0.0, "is_disabled": 0, "rental_uris": {"ios": "https://dc.lft.to/lastmile_qr_scan", "android": "https://dc.lft.to/lastmile_qr_scan"}, "bike_id": "f7e44dcf6214c50013685c45e985465a", "lat": 38.926153166666666, "name": "f7e44dcf6214c50013685c45e985465a", "lon": -77.02159316666666, "fusion_lon": 0.0}, {"is_reserved": 0, "type": "electric_scooter", "fusion_lat": 0.0, "is_disabled": 0, "rental_uris": {"ios": "https://dc.lft.to/lastmile_qr_scan", "android": "https://dc.lft.to/lastmile_qr_scan"}, "bike_id": "ec9d3ffa0d3e1347dd29e94e31799052", "lat": 38.8984545, "name": "ec9d3ffa0d3e1347dd29e94e31799052", "lon": -77.021875, "fusion_lon": 0.0}, {"is_reserved": 0, "type": "electric_scooter", "fusion_lat": 0.0, "is_disabled": 0, "rental_uris": {"ios": "https://dc.lft.to/lastmile_qr_scan", "android": "https://dc.lft.to/lastmile_qr_scan"}, "bike_id": "245aa59447fe41398e6f6c6485ea0fbf", "lat": 38.95739533333333, "name": "245aa59447fe41398e6f6c6485ea0fbf", "lon": -77.02321466666666, "fusion_lon": 0.0}, {"is_reserved": 0, "type": "electric_bike", "fusion_lat": 0.0, "is_disabled": 0, "rental_uris": {"ios": "https://dc.lft.to/lastmile_qr_scan", "android": "https://dc.lft.to/lastmile_qr_scan"}, "bike_id": "9b9a45dd56a1bea0de65d6369782f6b5", "lat": 38.941683833333336, "name": "9b9a45dd56a1bea0de65d6369782f6b5", "lon": -76.99408883333334, "fusion_lon": 0.0}, {"is_reserved": 0, "type": "electric_scooter", "fusion_lat": 0.0, "is_disabled": 0, "rental_uris": {"ios": "https://dc.lft.to/lastmile_qr_scan", "android": "https://dc.lft.to/lastmile_qr_scan"}, "bike_id": "d24ee28fb879b371079770a7082fac15", "lat": 38.923433, "name": "d24ee28fb879b371079770a7082fac15", "lon": -77.03500716666667, "fusion_lon": 0.0}, {"is_reserved": 0, "type": "electric_scooter", "fusion_lat": 0.0, "is_disabled": 0, "rental_uris": {"ios": "https://dc.lft.to/lastmile_qr_scan", "android": "https://dc.lft.to/lastmile_qr_scan"}, "bike_id": "0ae095d8ac7e287af52398257b25172a", "lat": 38.915411, "name": "0ae095d8ac7e287af52398257b25172a", "lon": -77.07541633333334, "fusion_lon": 0.0}, {"is_reserved": 0, "type": "electric_scooter", "fusion_lat": 0.0, "is_disabled": 0, "rental_uris": {"ios": "https://dc.lft.to/lastmile_qr_scan", "android": "https://dc.lft.to/lastmile_qr_scan"}, "bike_id": "a84a86d2d3c8d2a014f62c8e810b6c21", "lat": 38.89365933333333, "name": "a84a86d2d3c8d2a014f62c8e810b6c21", "lon": -77.044744, "fusion_lon": 0.0}, {"is_reserved": 0, "type": "electric_scooter", "fusion_lat": 0.0, "is_disabled": 0, "rental_uris": {"ios": "https://dc.lft.to/lastmile_qr_scan", "android": "https://dc.lft.to/lastmile_qr_scan"}, "bike_id": "80c1957a401f4b9ebcfe390bd898e561", "lat": 38.93096766666667, "name": "80c1957a401f4b9ebcfe390bd898e561", "lon": -77.0361775, "fusion_lon": 0.0}, {"is_reserved": 0, "type": "electric_scooter", "fusion_lat": 0.0, "is_disabled": 0, "rental_uris": {"ios": "https://dc.lft.to/lastmile_qr_scan", "android": "https://dc.lft.to/lastmile_qr_scan"}, "bike_id": "f190db902bd87038ebef5b6d82de73c0", "lat": 38.9386105, "name": "f190db902bd87038ebef5b6d82de73c0", "lon": -77.07822133333333, "fusion_lon": 0.0}, {"is_reserved": 0, "type": "electric_scooter", "fusion_lat": 0.0, "is_disabled": 0, "rental_uris": {"ios": "https://dc.lft.to/lastmile_qr_scan", "android": "https://dc.lft.to/lastmile_qr_scan"}, "bike_id": "d31f2240d3cdf505006243588d4bfac2", "lat": 38.9269815, "name": "d31f2240d3cdf505006243588d4bfac2", "lon": -77.02281233333333, "fusion_lon": 0.0}, {"is_reserved": 0, "type": "electric_scooter", "fusion_lat": 0.0, "is_disabled": 0, "rental_uris": {"ios": "https://dc.lft.to/lastmile_qr_scan", "android": "https://dc.lft.to/lastmile_qr_scan"}, "bike_id": "f76b3788e1a56c7e0ef9fa957978e866", "lat": 38.917834666666664, "name": "f76b3788e1a56c7e0ef9fa957978e866", "lon": -77.02398033333333, "fusion_lon": 0.0}, {"is_reserved": 0, "type": "electric_scooter", "fusion_lat": 0.0, "is_disabled": 0, "rental_uris": {"ios": "https://dc.lft.to/lastmile_qr_scan", "android": "https://dc.lft.to/lastmile_qr_scan"}, "bike_id": "40afabfc979d52b5135fb277bd38abd8", "lat": 38.93667966666667, "name": "40afabfc979d52b5135fb277bd38abd8", "lon": -77.084337, "fusion_lon": 0.0}, {"is_reserved": 0, "type": "electric_scooter", "fusion_lat": 0.0, "is_disabled": 0, "rental_uris": {"ios": "https://dc.lft.to/lastmile_qr_scan", "android": "https://dc.lft.to/lastmile_qr_scan"}, "bike_id": "da1d41e4dc5ae59ee3ca7e59b3db09c1", "lat": 38.900974833333336, "name": "da1d41e4dc5ae59ee3ca7e59b3db09c1", "lon": -77.04338483333333, "fusion_lon": 0.0}, {"is_reserved": 0, "type": "electric_scooter", "fusion_lat": 0.0, "is_disabled": 0, "rental_uris": {"ios": "https://dc.lft.to/lastmile_qr_scan", "android": "https://dc.lft.to/lastmile_qr_scan"}, "bike_id": "c5f1ba0e14bd7efd09fb00732f99fcaa", "lat": 38.92231783333333, "name": "c5f1ba0e14bd7efd09fb00732f99fcaa", "lon": -76.975304, "fusion_lon": 0.0}, {"is_reserved": 0, "type": "electric_scooter", "fusion_lat": 0.0, "is_disabled": 0, "rental_uris": {"ios": "https://dc.lft.to/lastmile_qr_scan", "android": "https://dc.lft.to/lastmile_qr_scan"}, "bike_id": "1faeb5b73b785a8ca1cbb46e5f4bb7cd", "lat": 38.89228266666667, "name": "1faeb5b73b785a8ca1cbb46e5f4bb7cd", "lon": -77.0436355, "fusion_lon": 0.0}, {"is_reserved": 0, "type": "electric_scooter", "fusion_lat": 0.0, "is_disabled": 0, "rental_uris": {"ios": "https://dc.lft.to/lastmile_qr_scan", "android": "https://dc.lft.to/lastmile_qr_scan"}, "bike_id": "0c413203886ee8797ba4a5b061f72e78", "lat": 38.9267265, "name": "0c413203886ee8797ba4a5b061f72e78", "lon": -77.02713633333333, "fusion_lon": 0.0}, {"is_reserved": 0, "type": "electric_scooter", "fusion_lat": 0.0, "is_disabled": 0, "rental_uris": {"ios": "https://dc.lft.to/lastmile_qr_scan", "android": "https://dc.lft.to/lastmile_qr_scan"}, "bike_id": "4237e24f4c12a6f3830c0ecfe3d67274", "lat": 38.9221315, "name": "4237e24f4c12a6f3830c0ecfe3d67274", "lon": -77.01843766666667, "fusion_lon": 0.0}, {"is_reserved": 0, "type": "electric_scooter", "fusion_lat": 0.0, "is_disabled": 0, "rental_uris": {"ios": "https://dc.lft.to/lastmile_qr_scan", "android": "https://dc.lft.to/lastmile_qr_scan"}, "bike_id": "e4853dbe0ba4456345ce90f0a7662673", "lat": 38.9010685, "name": "e4853dbe0ba4456345ce90f0a7662673", "lon": -77.04884183333333, "fusion_lon": 0.0}, {"is_reserved": 0, "type": "electric_scooter", "fusion_lat": 0.0, "is_disabled": 0, "rental_uris": {"ios": "https://dc.lft.to/lastmile_qr_scan", "android": "https://dc.lft.to/lastmile_qr_scan"}, "bike_id": "d900bbf74d4ae5bd2c2d7c2459b4e802", "lat": 38.94493083333333, "name": "d900bbf74d4ae5bd2c2d7c2459b4e802", "lon": -77.00736333333333, "fusion_lon": 0.0}, {"is_reserved": 0, "type": "electric_scooter", "fusion_lat": 0.0, "is_disabled": 0, "rental_uris": {"ios": "https://dc.lft.to/lastmile_qr_scan", "android": "https://dc.lft.to/lastmile_qr_scan"}, "bike_id": "178e74237db68a1ed62da1b17489cd16", "lat": 38.90458916666667, "name": "178e74237db68a1ed62da1b17489cd16", "lon": -76.93275783333333, "fusion_lon": 0.0}, {"is_reserved": 0, "type": "electric_scooter", "fusion_lat": 0.0, "is_disabled": 0, "rental_uris": {"ios": "https://dc.lft.to/lastmile_qr_scan", "android": "https://dc.lft.to/lastmile_qr_scan"}, "bike_id": "716cfc4866b09f2c098a706a144576ee", "lat": 38.9013, "name": "716cfc4866b09f2c098a706a144576ee", "lon": -77.0345535, "fusion_lon": 0.0}, {"is_reserved": 0, "type": "electric_scooter", "fusion_lat": 0.0, "is_disabled": 0, "rental_uris": {"ios": "https://dc.lft.to/lastmile_qr_scan", "android": "https://dc.lft.to/lastmile_qr_scan"}, "bike_id": "0dcba8a2f323600dde3015227e39e63f", "lat": 38.933263, "name": "0dcba8a2f323600dde3015227e39e63f", "lon": -77.02397, "fusion_lon": 0.0}, {"is_reserved": 0, "type": "electric_scooter", "fusion_lat": 0.0, "is_disabled": 0, "rental_uris": {"ios": "https://dc.lft.to/lastmile_qr_scan", "android": "https://dc.lft.to/lastmile_qr_scan"}, "bike_id": "8ab925190d99ec9746d3bbf02509e52e", "lat": 38.87677633333333, "name": "8ab925190d99ec9746d3bbf02509e52e", "lon": -77.0179055, "fusion_lon": 0.0}, {"is_reserved": 0, "type": "electric_scooter", "fusion_lat": 0.0, "is_disabled": 0, "rental_uris": {"ios": "https://dc.lft.to/lastmile_qr_scan", "android": "https://dc.lft.to/lastmile_qr_scan"}, "bike_id": "bff6e4872e74d6790c02eea4635cfca2", "lat": 38.899880333333336, "name": "bff6e4872e74d6790c02eea4635cfca2", "lon": -77.0161695, "fusion_lon": 0.0}, {"is_reserved": 0, "type": "electric_scooter", "fusion_lat": 0.0, "is_disabled": 0, "rental_uris": {"ios": "https://dc.lft.to/lastmile_qr_scan", "android": "https://dc.lft.to/lastmile_qr_scan"}, "bike_id": "8aea3e3f0e2032e5e46d78d6c1079327", "lat": 38.89977283333333, "name": "8aea3e3f0e2032e5e46d78d6c1079327", "lon": -77.01614083333334, "fusion_lon": 0.0}, {"is_reserved": 0, "type": "electric_scooter", "fusion_lat": 0.0, "is_disabled": 0, "rental_uris": {"ios": "https://dc.lft.to/lastmile_qr_scan", "android": "https://dc.lft.to/lastmile_qr_scan"}, "bike_id": "c389df3efc00ecc0976813ba9703c3cb", "lat": 38.939358166666665, "name": "c389df3efc00ecc0976813ba9703c3cb", "lon": -77.02587566666666, "fusion_lon": 0.0}, {"is_reserved": 0, "type": "electric_scooter", "fusion_lat": 0.0, "is_disabled": 0, "rental_uris": {"ios": "https://dc.lft.to/lastmile_qr_scan", "android": "https://dc.lft.to/lastmile_qr_scan"}, "bike_id": "c5b630fb73543f7bb100394227055b63", "lat": 38.88650166666667, "name": "c5b630fb73543f7bb100394227055b63", "lon": -77.02220116666666, "fusion_lon": 0.0}, {"is_reserved": 0, "type": "electric_scooter", "fusion_lat": 0.0, "is_disabled": 0, "rental_uris": {"ios": "https://dc.lft.to/lastmile_qr_scan", "android": "https://dc.lft.to/lastmile_qr_scan"}, "bike_id": "77a287265d157d93b6a2e4ac2ee1462f", "lat": 38.916303166666665, "name": "77a287265d157d93b6a2e4ac2ee1462f", "lon": -77.00501366666667, "fusion_lon": 0.0}, {"is_reserved": 0, "type": "electric_bike", "fusion_lat": 0.0, "is_disabled": 0, "rental_uris": {"ios": "https://dc.lft.to/lastmile_qr_scan", "android": "https://dc.lft.to/lastmile_qr_scan"}, "bike_id": "971e5423a54768d2c6c0ba2437b4e1f1", "lat": 38.9715495, "name": "971e5423a54768d2c6c0ba2437b4e1f1", "lon": -76.98364983333333, "fusion_lon": 0.0}, {"is_reserved": 0, "type": "electric_scooter", "fusion_lat": 0.0, "is_disabled": 0, "rental_uris": {"ios": "https://dc.lft.to/lastmile_qr_scan", "android": "https://dc.lft.to/lastmile_qr_scan"}, "bike_id": "88f018f5e01262a4891d86140c2048fe", "lat": 38.921699, "name": "88f018f5e01262a4891d86140c2048fe", "lon": -77.0383795, "fusion_lon": 0.0}, {"is_reserved": 0, "type": "electric_scooter", "fusion_lat": 0.0, "is_disabled": 0, "rental_uris": {"ios": "https://dc.lft.to/lastmile_qr_scan", "android": "https://dc.lft.to/lastmile_qr_scan"}, "bike_id": "7494aa46d64c41e84935c7be921107b9", "lat": 38.92771283333333, "name": "7494aa46d64c41e84935c7be921107b9", "lon": -77.02788633333333, "fusion_lon": 0.0}, {"is_reserved": 0, "type": "electric_scooter", "fusion_lat": 0.0, "is_disabled": 0, "rental_uris": {"ios": "https://dc.lft.to/lastmile_qr_scan", "android": "https://dc.lft.to/lastmile_qr_scan"}, "bike_id": "5b1473b13a1ead48b45d79033bc4f1f1", "lat": 38.9205625, "name": "5b1473b13a1ead48b45d79033bc4f1f1", "lon": -76.9988415, "fusion_lon": 0.0}, {"is_reserved": 0, "type": "electric_scooter", "fusion_lat": 0.0, "is_disabled": 0, "rental_uris": {"ios": "https://dc.lft.to/lastmile_qr_scan", "android": "https://dc.lft.to/lastmile_qr_scan"}, "bike_id": "2e0ce1d8a349a3e4c6af2a6049f8e31f", "lat": 38.92337333333333, "name": "2e0ce1d8a349a3e4c6af2a6049f8e31f", "lon": -77.02813416666666, "fusion_lon": 0.0}, {"is_reserved": 0, "type": "electric_scooter", "fusion_lat": 0.0, "is_disabled": 0, "rental_uris": {"ios": "https://dc.lft.to/lastmile_qr_scan", "android": "https://dc.lft.to/lastmile_qr_scan"}, "bike_id": "bfadbbe9a4f8feb8d4953e64d0ec2bde", "lat": 38.9043985, "name": "bfadbbe9a4f8feb8d4953e64d0ec2bde", "lon": -77.032687, "fusion_lon": 0.0}, {"is_reserved": 0, "type": "electric_scooter", "fusion_lat": 0.0, "is_disabled": 0, "rental_uris": {"ios": "https://dc.lft.to/lastmile_qr_scan", "android": "https://dc.lft.to/lastmile_qr_scan"}, "bike_id": "4b3f7ceb984bf6652b22e3f91af5279e", "lat": 38.8993155, "name": "4b3f7ceb984bf6652b22e3f91af5279e", "lon": -77.003487, "fusion_lon": 0.0}, {"is_reserved": 0, "type": "electric_scooter", "fusion_lat": 0.0, "is_disabled": 0, "rental_uris": {"ios": "https://dc.lft.to/lastmile_qr_scan", "android": "https://dc.lft.to/lastmile_qr_scan"}, "bike_id": "4121c39ea68a256abcdb024292cdc174", "lat": 38.90348433333333, "name": "4121c39ea68a256abcdb024292cdc174", "lon": -76.97492966666667, "fusion_lon": 0.0}, {"is_reserved": 0, "type": "electric_scooter", "fusion_lat": 0.0, "is_disabled": 0, "rental_uris": {"ios": "https://dc.lft.to/lastmile_qr_scan", "android": "https://dc.lft.to/lastmile_qr_scan"}, "bike_id": "b841718facd53de4b7904e6f0939fcf3", "lat": 38.92374133333333, "name": "b841718facd53de4b7904e6f0939fcf3", "lon": -77.02913066666666, "fusion_lon": 0.0}, {"is_reserved": 0, "type": "electric_bike", "fusion_lat": 0.0, "is_disabled": 0, "rental_uris": {"ios": "https://dc.lft.to/lastmile_qr_scan", "android": "https://dc.lft.to/lastmile_qr_scan"}, "bike_id": "64cea8a00ca1c12fe693db127b3019c7", "lat": 38.92655966666667, "name": "64cea8a00ca1c12fe693db127b3019c7", "lon": -77.090188, "fusion_lon": 0.0}, {"is_reserved": 0, "type": "electric_scooter", "fusion_lat": 0.0, "is_disabled": 0, "rental_uris": {"ios": "https://dc.lft.to/lastmile_qr_scan", "android": "https://dc.lft.to/lastmile_qr_scan"}, "bike_id": "8660be7258154be9e36934f2dddf1d97", "lat": 38.91565816666667, "name": "8660be7258154be9e36934f2dddf1d97", "lon": -77.0409265, "fusion_lon": 0.0}, {"is_reserved": 0, "type": "electric_scooter", "fusion_lat": 0.0, "is_disabled": 0, "rental_uris": {"ios": "https://dc.lft.to/lastmile_qr_scan", "android": "https://dc.lft.to/lastmile_qr_scan"}, "bike_id": "2d541d56f0947c639abcf701a83221b4", "lat": 38.93609566666667, "name": "2d541d56f0947c639abcf701a83221b4", "lon": -77.0559375, "fusion_lon": 0.0}, {"is_reserved": 0, "type": "electric_scooter", "fusion_lat": 0.0, "is_disabled": 0, "rental_uris": {"ios": "https://dc.lft.to/lastmile_qr_scan", "android": "https://dc.lft.to/lastmile_qr_scan"}, "bike_id": "35a348149a6f0a23c6246987529c628a", "lat": 38.89733966666667, "name": "35a348149a6f0a23c6246987529c628a", "lon": -77.02692966666666, "fusion_lon": 0.0}, {"is_reserved": 0, "type": "electric_scooter", "fusion_lat": 0.0, "is_disabled": 0, "rental_uris": {"ios": "https://dc.lft.to/lastmile_qr_scan", "android": "https://dc.lft.to/lastmile_qr_scan"}, "bike_id": "672a9abb8c9573c8c607963f7de20f78", "lat": 38.9181375, "name": "672a9abb8c9573c8c607963f7de20f78", "lon": -77.04001583333333, "fusion_lon": 0.0}, {"is_reserved": 0, "type": "electric_bike", "fusion_lat": 0.0, "is_disabled": 0, "rental_uris": {"ios": "https://dc.lft.to/lastmile_qr_scan", "android": "https://dc.lft.to/lastmile_qr_scan"}, "bike_id": "6cd90827a691b11bbe2d9b8b66381d8f", "lat": 38.8386965, "name": "6cd90827a691b11bbe2d9b8b66381d8f", "lon": -76.99695933333334, "fusion_lon": 0.0}, {"is_reserved": 0, "type": "electric_bike", "fusion_lat": 0.0, "is_disabled": 0, "rental_uris": {"ios": "https://dc.lft.to/lastmile_qr_scan", "android": "https://dc.lft.to/lastmile_qr_scan"}, "bike_id": "e05867c25e7bbbe163928d1cdc1f84a2", "lat": 38.903811833333336, "name": "e05867c25e7bbbe163928d1cdc1f84a2", "lon": -76.937509, "fusion_lon": 0.0}, {"is_reserved": 0, "type": "electric_scooter", "fusion_lat": 0.0, "is_disabled": 0, "rental_uris": {"ios": "https://dc.lft.to/lastmile_qr_scan", "android": "https://dc.lft.to/lastmile_qr_scan"}, "bike_id": "a3f591be353c8db28e490719d25170d5", "lat": 38.9347985, "name": "a3f591be353c8db28e490719d25170d5", "lon": -77.035814, "fusion_lon": 0.0}, {"is_reserved": 0, "type": "electric_scooter", "fusion_lat": 0.0, "is_disabled": 0, "rental_uris": {"ios": "https://dc.lft.to/lastmile_qr_scan", "android": "https://dc.lft.to/lastmile_qr_scan"}, "bike_id": "85fa455ac7b06b1c9a4dba0fdce0ee86", "lat": 38.88533816666666, "name": "85fa455ac7b06b1c9a4dba0fdce0ee86", "lon": -76.98051933333333, "fusion_lon": 0.0}, {"is_reserved": 0, "type": "electric_scooter", "fusion_lat": 0.0, "is_disabled": 0, "rental_uris": {"ios": "https://dc.lft.to/lastmile_qr_scan", "android": "https://dc.lft.to/lastmile_qr_scan"}, "bike_id": "30e42122a953cdfa1ad210b1a0a2d4de", "lat": 38.89939316666667, "name": "30e42122a953cdfa1ad210b1a0a2d4de", "lon": -77.05398366666667, "fusion_lon": 0.0}, {"is_reserved": 0, "type": "electric_scooter", "fusion_lat": 0.0, "is_disabled": 0, "rental_uris": {"ios": "https://dc.lft.to/lastmile_qr_scan", "android": "https://dc.lft.to/lastmile_qr_scan"}, "bike_id": "c621f231f9cecab16cd624605ae8262f", "lat": 38.90369366666667, "name": "c621f231f9cecab16cd624605ae8262f", "lon": -77.06017916666667, "fusion_lon": 0.0}, {"is_reserved": 0, "type": "electric_scooter", "fusion_lat": 0.0, "is_disabled": 0, "rental_uris": {"ios": "https://dc.lft.to/lastmile_qr_scan", "android": "https://dc.lft.to/lastmile_qr_scan"}, "bike_id": "b2f6f682129ee2b5228741a9373027bf", "lat": 38.91805183333334, "name": "b2f6f682129ee2b5228741a9373027bf", "lon": -77.03172316666667, "fusion_lon": 0.0}, {"is_reserved": 0, "type": "electric_scooter", "fusion_lat": 0.0, "is_disabled": 0, "rental_uris": {"ios": "https://dc.lft.to/lastmile_qr_scan", "android": "https://dc.lft.to/lastmile_qr_scan"}, "bike_id": "9c19b6fea74775d1e83daad75c8ea2a6", "lat": 38.90370683333333, "name": "9c19b6fea74775d1e83daad75c8ea2a6", "lon": -77.00741416666666, "fusion_lon": 0.0}, {"is_reserved": 0, "type": "electric_scooter", "fusion_lat": 0.0, "is_disabled": 0, "rental_uris": {"ios": "https://dc.lft.to/lastmile_qr_scan", "android": "https://dc.lft.to/lastmile_qr_scan"}, "bike_id": "087905b6a946c0e3ebbc1d756d56b7d5", "lat": 38.9220415, "name": "087905b6a946c0e3ebbc1d756d56b7d5", "lon": -77.020435, "fusion_lon": 0.0}, {"is_reserved": 0, "type": "electric_scooter", "fusion_lat": 0.0, "is_disabled": 0, "rental_uris": {"ios": "https://dc.lft.to/lastmile_qr_scan", "android": "https://dc.lft.to/lastmile_qr_scan"}, "bike_id": "32ccfe09274554706cd1d3baa26bc725", "lat": 38.89747033333333, "name": "32ccfe09274554706cd1d3baa26bc725", "lon": -76.996093, "fusion_lon": 0.0}, {"is_reserved": 0, "type": "electric_scooter", "fusion_lat": 0.0, "is_disabled": 0, "rental_uris": {"ios": "https://dc.lft.to/lastmile_qr_scan", "android": "https://dc.lft.to/lastmile_qr_scan"}, "bike_id": "82163f95019cec7df5caf1c7ed88d1a1", "lat": 38.92764066666667, "name": "82163f95019cec7df5caf1c7ed88d1a1", "lon": -77.052644, "fusion_lon": 0.0}, {"is_reserved": 0, "type": "electric_scooter", "fusion_lat": 0.0, "is_disabled": 0, "rental_uris": {"ios": "https://dc.lft.to/lastmile_qr_scan", "android": "https://dc.lft.to/lastmile_qr_scan"}, "bike_id": "d5e3b031a7934b172b5bd43dbea2f451", "lat": 38.8845465, "name": "d5e3b031a7934b172b5bd43dbea2f451", "lon": -77.02311883333333, "fusion_lon": 0.0}, {"is_reserved": 0, "type": "electric_scooter", "fusion_lat": 0.0, "is_disabled": 0, "rental_uris": {"ios": "https://dc.lft.to/lastmile_qr_scan", "android": "https://dc.lft.to/lastmile_qr_scan"}, "bike_id": "be110b16ddb577901ad353bb1072608c", "lat": 38.880519, "name": "be110b16ddb577901ad353bb1072608c", "lon": -77.01742316666666, "fusion_lon": 0.0}, {"is_reserved": 0, "type": "electric_scooter", "fusion_lat": 0.0, "is_disabled": 0, "rental_uris": {"ios": "https://dc.lft.to/lastmile_qr_scan", "android": "https://dc.lft.to/lastmile_qr_scan"}, "bike_id": "e3cd49f4dd71fe60a8414e87107771b7", "lat": 38.886242833333334, "name": "e3cd49f4dd71fe60a8414e87107771b7", "lon": -76.92633016666667, "fusion_lon": 0.0}, {"is_reserved": 0, "type": "electric_scooter", "fusion_lat": 0.0, "is_disabled": 0, "rental_uris": {"ios": "https://dc.lft.to/lastmile_qr_scan", "android": "https://dc.lft.to/lastmile_qr_scan"}, "bike_id": "079534c6363818636c1b2603db2cc867", "lat": 38.92992383333333, "name": "079534c6363818636c1b2603db2cc867", "lon": -77.05510416666667, "fusion_lon": 0.0}, {"is_reserved": 0, "type": "electric_scooter", "fusion_lat": 0.0, "is_disabled": 0, "rental_uris": {"ios": "https://dc.lft.to/lastmile_qr_scan", "android": "https://dc.lft.to/lastmile_qr_scan"}, "bike_id": "a19598ae66e44310945c5a1c9542a3f5", "lat": 38.91944016666667, "name": "a19598ae66e44310945c5a1c9542a3f5", "lon": -76.9996065, "fusion_lon": 0.0}, {"is_reserved": 0, "type": "electric_scooter", "fusion_lat": 0.0, "is_disabled": 0, "rental_uris": {"ios": "https://dc.lft.to/lastmile_qr_scan", "android": "https://dc.lft.to/lastmile_qr_scan"}, "bike_id": "9b6ed034aa590731bb37f6962da5c340", "lat": 38.9169195, "name": "9b6ed034aa590731bb37f6962da5c340", "lon": -77.0337975, "fusion_lon": 0.0}, {"is_reserved": 0, "type": "electric_scooter", "fusion_lat": 0.0, "is_disabled": 0, "rental_uris": {"ios": "https://dc.lft.to/lastmile_qr_scan", "android": "https://dc.lft.to/lastmile_qr_scan"}, "bike_id": "f841c33f54c55a39f7b96814ca78c77b", "lat": 38.95592516666667, "name": "f841c33f54c55a39f7b96814ca78c77b", "lon": -77.017836, "fusion_lon": 0.0}, {"is_reserved": 0, "type": "electric_scooter", "fusion_lat": 0.0, "is_disabled": 0, "rental_uris": {"ios": "https://dc.lft.to/lastmile_qr_scan", "android": "https://dc.lft.to/lastmile_qr_scan"}, "bike_id": "7a05f9c3c72162cf8c4157bbed49f6ac", "lat": 38.93466383333333, "name": "7a05f9c3c72162cf8c4157bbed49f6ac", "lon": -77.0276635, "fusion_lon": 0.0}, {"is_reserved": 0, "type": "electric_bike", "fusion_lat": 0.0, "is_disabled": 0, "rental_uris": {"ios": "https://dc.lft.to/lastmile_qr_scan", "android": "https://dc.lft.to/lastmile_qr_scan"}, "bike_id": "a04992e1a47c1695bcac7b7e983049c8", "lat": 39.02645916666667, "name": "a04992e1a47c1695bcac7b7e983049c8", "lon": -77.03682416666666, "fusion_lon": 0.0}, {"is_reserved": 0, "type": "electric_scooter", "fusion_lat": 0.0, "is_disabled": 0, "rental_uris": {"ios": "https://dc.lft.to/lastmile_qr_scan", "android": "https://dc.lft.to/lastmile_qr_scan"}, "bike_id": "f86f287d47d464be8b8a685683df7a72", "lat": 38.905135333333334, "name": "f86f287d47d464be8b8a685683df7a72", "lon": -76.952009, "fusion_lon": 0.0}, {"is_reserved": 0, "type": "electric_scooter", "fusion_lat": 0.0, "is_disabled": 0, "rental_uris": {"ios": "https://dc.lft.to/lastmile_qr_scan", "android": "https://dc.lft.to/lastmile_qr_scan"}, "bike_id": "20c3a29a56367f60cd84c06bd9f97134", "lat": 38.873759166666666, "name": "20c3a29a56367f60cd84c06bd9f97134", "lon": -77.001289, "fusion_lon": 0.0}, {"is_reserved": 0, "type": "electric_scooter", "fusion_lat": 0.0, "is_disabled": 0, "rental_uris": {"ios": "https://dc.lft.to/lastmile_qr_scan", "android": "https://dc.lft.to/lastmile_qr_scan"}, "bike_id": "0d61853741c74e6842a2e7bf6061c2f2", "lat": 38.90426516666667, "name": "0d61853741c74e6842a2e7bf6061c2f2", "lon": -77.03287766666666, "fusion_lon": 0.0}, {"is_reserved": 0, "type": "electric_scooter", "fusion_lat": 0.0, "is_disabled": 0, "rental_uris": {"ios": "https://dc.lft.to/lastmile_qr_scan", "android": "https://dc.lft.to/lastmile_qr_scan"}, "bike_id": "abe0af4213510650e4ec68725e98a49e", "lat": 38.917104, "name": "abe0af4213510650e4ec68725e98a49e", "lon": -77.02946883333334, "fusion_lon": 0.0}, {"is_reserved": 0, "type": "electric_scooter", "fusion_lat": 0.0, "is_disabled": 0, "rental_uris": {"ios": "https://dc.lft.to/lastmile_qr_scan", "android": "https://dc.lft.to/lastmile_qr_scan"}, "bike_id": "7116391ddcded5f43447043a162d8fae", "lat": 38.908585333333335, "name": "7116391ddcded5f43447043a162d8fae", "lon": -77.0235545, "fusion_lon": 0.0}, {"is_reserved": 0, "type": "electric_scooter", "fusion_lat": 0.0, "is_disabled": 0, "rental_uris": {"ios": "https://dc.lft.to/lastmile_qr_scan", "android": "https://dc.lft.to/lastmile_qr_scan"}, "bike_id": "a729d8ae2bde7c8f1cec4a48dbac262e", "lat": 38.905832333333336, "name": "a729d8ae2bde7c8f1cec4a48dbac262e", "lon": -77.0443715, "fusion_lon": 0.0}, {"is_reserved": 0, "type": "electric_scooter", "fusion_lat": 0.0, "is_disabled": 0, "rental_uris": {"ios": "https://dc.lft.to/lastmile_qr_scan", "android": "https://dc.lft.to/lastmile_qr_scan"}, "bike_id": "91c646ca8dfb23a11138810029dd1ee6", "lat": 38.89222683333333, "name": "91c646ca8dfb23a11138810029dd1ee6", "lon": -77.0221675, "fusion_lon": 0.0}, {"is_reserved": 0, "type": "electric_scooter", "fusion_lat": 0.0, "is_disabled": 0, "rental_uris": {"ios": "https://dc.lft.to/lastmile_qr_scan", "android": "https://dc.lft.to/lastmile_qr_scan"}, "bike_id": "5b1a239a26742600ade7061100b4ae44", "lat": 38.89789716666667, "name": "5b1a239a26742600ade7061100b4ae44", "lon": -77.0500305, "fusion_lon": 0.0}, {"is_reserved": 0, "type": "electric_scooter", "fusion_lat": 0.0, "is_disabled": 0, "rental_uris": {"ios": "https://dc.lft.to/lastmile_qr_scan", "android": "https://dc.lft.to/lastmile_qr_scan"}, "bike_id": "c7d801c2d4692aabaa632e644ea3c2c9", "lat": 38.948620166666664, "name": "c7d801c2d4692aabaa632e644ea3c2c9", "lon": -77.07882, "fusion_lon": 0.0}, {"is_reserved": 0, "type": "electric_scooter", "fusion_lat": 0.0, "is_disabled": 0, "rental_uris": {"ios": "https://dc.lft.to/lastmile_qr_scan", "android": "https://dc.lft.to/lastmile_qr_scan"}, "bike_id": "1f439137ae6b7df6a01eef997fad6c4f", "lat": 38.91699533333333, "name": "1f439137ae6b7df6a01eef997fad6c4f", "lon": -77.03240533333333, "fusion_lon": 0.0}, {"is_reserved": 0, "type": "electric_scooter", "fusion_lat": 0.0, "is_disabled": 0, "rental_uris": {"ios": "https://dc.lft.to/lastmile_qr_scan", "android": "https://dc.lft.to/lastmile_qr_scan"}, "bike_id": "9a330541a7ef5a2fc778c832c3a51da3", "lat": 38.897074833333335, "name": "9a330541a7ef5a2fc778c832c3a51da3", "lon": -77.04339016666667, "fusion_lon": 0.0}, {"is_reserved": 0, "type": "electric_scooter", "fusion_lat": 0.0, "is_disabled": 0, "rental_uris": {"ios": "https://dc.lft.to/lastmile_qr_scan", "android": "https://dc.lft.to/lastmile_qr_scan"}, "bike_id": "c253aaf634aeb46ea1525f952386903b", "lat": 38.9226935, "name": "c253aaf634aeb46ea1525f952386903b", "lon": -76.99771716666666, "fusion_lon": 0.0}, {"is_reserved": 0, "type": "electric_scooter", "fusion_lat": 0.0, "is_disabled": 0, "rental_uris": {"ios": "https://dc.lft.to/lastmile_qr_scan", "android": "https://dc.lft.to/lastmile_qr_scan"}, "bike_id": "5880f13db237b8643d2e463096d3bbea", "lat": 38.927225666666665, "name": "5880f13db237b8643d2e463096d3bbea", "lon": -77.051389, "fusion_lon": 0.0}, {"is_reserved": 0, "type": "electric_scooter", "fusion_lat": 0.0, "is_disabled": 0, "rental_uris": {"ios": "https://dc.lft.to/lastmile_qr_scan", "android": "https://dc.lft.to/lastmile_qr_scan"}, "bike_id": "5aa64472ecf77b79dc123ecf4d139688", "lat": 38.89261466666667, "name": "5aa64472ecf77b79dc123ecf4d139688", "lon": -77.0320895, "fusion_lon": 0.0}, {"is_reserved": 0, "type": "electric_scooter", "fusion_lat": 0.0, "is_disabled": 0, "rental_uris": {"ios": "https://dc.lft.to/lastmile_qr_scan", "android": "https://dc.lft.to/lastmile_qr_scan"}, "bike_id": "2af44d64de1a799520f64b94c095bd47", "lat": 38.8988125, "name": "2af44d64de1a799520f64b94c095bd47", "lon": -76.931752, "fusion_lon": 0.0}, {"is_reserved": 0, "type": "electric_scooter", "fusion_lat": 0.0, "is_disabled": 0, "rental_uris": {"ios": "https://dc.lft.to/lastmile_qr_scan", "android": "https://dc.lft.to/lastmile_qr_scan"}, "bike_id": "01c6d5b828cddd791f5e7dd26f9b8cde", "lat": 38.88013266666667, "name": "01c6d5b828cddd791f5e7dd26f9b8cde", "lon": -76.99741633333333, "fusion_lon": 0.0}, {"is_reserved": 0, "type": "electric_scooter", "fusion_lat": 0.0, "is_disabled": 0, "rental_uris": {"ios": "https://dc.lft.to/lastmile_qr_scan", "android": "https://dc.lft.to/lastmile_qr_scan"}, "bike_id": "48d0a7f1d8dc57c3137e38432414f48d", "lat": 38.90834533333334, "name": "48d0a7f1d8dc57c3137e38432414f48d", "lon": -77.0320635, "fusion_lon": 0.0}, {"is_reserved": 0, "type": "electric_scooter", "fusion_lat": 0.0, "is_disabled": 0, "rental_uris": {"ios": "https://dc.lft.to/lastmile_qr_scan", "android": "https://dc.lft.to/lastmile_qr_scan"}, "bike_id": "91104fabb23c698d3eb10af928c36b0c", "lat": 38.91334166666667, "name": "91104fabb23c698d3eb10af928c36b0c", "lon": -77.03031666666666, "fusion_lon": 0.0}, {"is_reserved": 0, "type": "electric_scooter", "fusion_lat": 0.0, "is_disabled": 0, "rental_uris": {"ios": "https://dc.lft.to/lastmile_qr_scan", "android": "https://dc.lft.to/lastmile_qr_scan"}, "bike_id": "ef1ffbff59ff1f0952b8cf290c1a53d7", "lat": 38.905763, "name": "ef1ffbff59ff1f0952b8cf290c1a53d7", "lon": -77.02401366666666, "fusion_lon": 0.0}, {"is_reserved": 0, "type": "electric_bike", "fusion_lat": 0.0, "is_disabled": 0, "rental_uris": {"ios": "https://dc.lft.to/lastmile_qr_scan", "android": "https://dc.lft.to/lastmile_qr_scan"}, "bike_id": "5f573c03d3759e3d1e3533df81f81a12", "lat": 39.00536983333333, "name": "5f573c03d3759e3d1e3533df81f81a12", "lon": -77.10401416666667, "fusion_lon": 0.0}, {"is_reserved": 0, "type": "electric_scooter", "fusion_lat": 0.0, "is_disabled": 0, "rental_uris": {"ios": "https://dc.lft.to/lastmile_qr_scan", "android": "https://dc.lft.to/lastmile_qr_scan"}, "bike_id": "5d1b5a79dd6b19644d4965db747e1261", "lat": 38.881089833333334, "name": "5d1b5a79dd6b19644d4965db747e1261", "lon": -77.012319, "fusion_lon": 0.0}, {"is_reserved": 0, "type": "electric_bike", "fusion_lat": 0.0, "is_disabled": 0, "rental_uris": {"ios": "https://dc.lft.to/lastmile_qr_scan", "android": "https://dc.lft.to/lastmile_qr_scan"}, "bike_id": "efc39ea3bc8f91f3867c6865d3a31ee3", "lat": 38.8651345, "name": "efc39ea3bc8f91f3867c6865d3a31ee3", "lon": -76.97338066666667, "fusion_lon": 0.0}, {"is_reserved": 0, "type": "electric_scooter", "fusion_lat": 0.0, "is_disabled": 0, "rental_uris": {"ios": "https://dc.lft.to/lastmile_qr_scan", "android": "https://dc.lft.to/lastmile_qr_scan"}, "bike_id": "b4f9b6b7bb2dec0ddcc9facd9d00a7eb", "lat": 38.8874805, "name": "b4f9b6b7bb2dec0ddcc9facd9d00a7eb", "lon": -77.01404483333333, "fusion_lon": 0.0}, {"is_reserved": 0, "type": "electric_scooter", "fusion_lat": 0.0, "is_disabled": 0, "rental_uris": {"ios": "https://dc.lft.to/lastmile_qr_scan", "android": "https://dc.lft.to/lastmile_qr_scan"}, "bike_id": "d30c5a9d6409c4bacd752bf1e1193f39", "lat": 38.87832316666667, "name": "d30c5a9d6409c4bacd752bf1e1193f39", "lon": -77.00845683333333, "fusion_lon": 0.0}, {"is_reserved": 0, "type": "electric_scooter", "fusion_lat": 0.0, "is_disabled": 0, "rental_uris": {"ios": "https://dc.lft.to/lastmile_qr_scan", "android": "https://dc.lft.to/lastmile_qr_scan"}, "bike_id": "393dd4f8caac302d73042deda9dc4522", "lat": 38.915701166666665, "name": "393dd4f8caac302d73042deda9dc4522", "lon": -77.00938966666666, "fusion_lon": 0.0}, {"is_reserved": 0, "type": "electric_scooter", "fusion_lat": 0.0, "is_disabled": 0, "rental_uris": {"ios": "https://dc.lft.to/lastmile_qr_scan", "android": "https://dc.lft.to/lastmile_qr_scan"}, "bike_id": "82c35bfefd1d7bbb6e16f792e016325b", "lat": 38.885351166666666, "name": "82c35bfefd1d7bbb6e16f792e016325b", "lon": -76.996187, "fusion_lon": 0.0}, {"is_reserved": 0, "type": "electric_bike", "fusion_lat": 0.0, "is_disabled": 0, "rental_uris": {"ios": "https://dc.lft.to/lastmile_qr_scan", "android": "https://dc.lft.to/lastmile_qr_scan"}, "bike_id": "2ef6cf6e8175720f91cf1e742f3668ba", "lat": 38.87740766666667, "name": "2ef6cf6e8175720f91cf1e742f3668ba", "lon": -77.14872666666666, "fusion_lon": 0.0}, {"is_reserved": 0, "type": "electric_bike", "fusion_lat": 0.0, "is_disabled": 0, "rental_uris": {"ios": "https://dc.lft.to/lastmile_qr_scan", "android": "https://dc.lft.to/lastmile_qr_scan"}, "bike_id": "3a5ea2e71e6a461456b0bbc311b754a3", "lat": 38.9117295, "name": "3a5ea2e71e6a461456b0bbc311b754a3", "lon": -77.002657, "fusion_lon": 0.0}, {"is_reserved": 0, "type": "electric_scooter", "fusion_lat": 0.0, "is_disabled": 0, "rental_uris": {"ios": "https://dc.lft.to/lastmile_qr_scan", "android": "https://dc.lft.to/lastmile_qr_scan"}, "bike_id": "9e4345f435b78870b4896ecbba9078c4", "lat": 38.92976016666667, "name": "9e4345f435b78870b4896ecbba9078c4", "lon": -77.02342966666667, "fusion_lon": 0.0}, {"is_reserved": 0, "type": "electric_scooter", "fusion_lat": 0.0, "is_disabled": 0, "rental_uris": {"ios": "https://dc.lft.to/lastmile_qr_scan", "android": "https://dc.lft.to/lastmile_qr_scan"}, "bike_id": "be579992eb0ced27f4ee2a7579ad41f7", "lat": 38.911296, "name": "be579992eb0ced27f4ee2a7579ad41f7", "lon": -77.03184933333333, "fusion_lon": 0.0}, {"is_reserved": 0, "type": "electric_scooter", "fusion_lat": 0.0, "is_disabled": 0, "rental_uris": {"ios": "https://dc.lft.to/lastmile_qr_scan", "android": "https://dc.lft.to/lastmile_qr_scan"}, "bike_id": "468d58bbab783563222f379198f78462", "lat": 38.918216666666666, "name": "468d58bbab783563222f379198f78462", "lon": -77.04177133333333, "fusion_lon": 0.0}, {"is_reserved": 0, "type": "electric_scooter", "fusion_lat": 0.0, "is_disabled": 0, "rental_uris": {"ios": "https://dc.lft.to/lastmile_qr_scan", "android": "https://dc.lft.to/lastmile_qr_scan"}, "bike_id": "fed60a6b585ec77917ea905a9785f10a", "lat": 38.89632266666667, "name": "fed60a6b585ec77917ea905a9785f10a", "lon": -77.04012266666666, "fusion_lon": 0.0}, {"is_reserved": 0, "type": "electric_scooter", "fusion_lat": 0.0, "is_disabled": 0, "rental_uris": {"ios": "https://dc.lft.to/lastmile_qr_scan", "android": "https://dc.lft.to/lastmile_qr_scan"}, "bike_id": "8476fd670e0911a07910663e34e255e2", "lat": 38.89748983333333, "name": "8476fd670e0911a07910663e34e255e2", "lon": -77.04816833333334, "fusion_lon": 0.0}, {"is_reserved": 0, "type": "electric_scooter", "fusion_lat": 0.0, "is_disabled": 0, "rental_uris": {"ios": "https://dc.lft.to/lastmile_qr_scan", "android": "https://dc.lft.to/lastmile_qr_scan"}, "bike_id": "4cfc95efa3db005c80eade3eccec24fe", "lat": 38.89235166666667, "name": "4cfc95efa3db005c80eade3eccec24fe", "lon": -77.0500325, "fusion_lon": 0.0}, {"is_reserved": 0, "type": "electric_scooter", "fusion_lat": 0.0, "is_disabled": 0, "rental_uris": {"ios": "https://dc.lft.to/lastmile_qr_scan", "android": "https://dc.lft.to/lastmile_qr_scan"}, "bike_id": "74e203530b05448b5c61668d3f929cbd", "lat": 38.8986355, "name": "74e203530b05448b5c61668d3f929cbd", "lon": -76.94640316666667, "fusion_lon": 0.0}, {"is_reserved": 0, "type": "electric_scooter", "fusion_lat": 0.0, "is_disabled": 0, "rental_uris": {"ios": "https://dc.lft.to/lastmile_qr_scan", "android": "https://dc.lft.to/lastmile_qr_scan"}, "bike_id": "faf82c80dcc949fe5843cf8c5044516f", "lat": 38.957409166666665, "name": "faf82c80dcc949fe5843cf8c5044516f", "lon": -77.00230233333333, "fusion_lon": 0.0}, {"is_reserved": 0, "type": "electric_scooter", "fusion_lat": 0.0, "is_disabled": 0, "rental_uris": {"ios": "https://dc.lft.to/lastmile_qr_scan", "android": "https://dc.lft.to/lastmile_qr_scan"}, "bike_id": "b871f43a3df72fbe01fddb12c3db40b7", "lat": 38.9356935, "name": "b871f43a3df72fbe01fddb12c3db40b7", "lon": -77.0285375, "fusion_lon": 0.0}, {"is_reserved": 0, "type": "electric_scooter", "fusion_lat": 0.0, "is_disabled": 0, "rental_uris": {"ios": "https://dc.lft.to/lastmile_qr_scan", "android": "https://dc.lft.to/lastmile_qr_scan"}, "bike_id": "cc546318cbf61cc37c1e13549e982b5a", "lat": 38.8707145, "name": "cc546318cbf61cc37c1e13549e982b5a", "lon": -76.9793725, "fusion_lon": 0.0}, {"is_reserved": 0, "type": "electric_bike", "fusion_lat": 0.0, "is_disabled": 0, "rental_uris": {"ios": "https://dc.lft.to/lastmile_qr_scan", "android": "https://dc.lft.to/lastmile_qr_scan"}, "bike_id": "162e24d413352bcebc24811934d1b8e8", "lat": 38.830675166666666, "name": "162e24d413352bcebc24811934d1b8e8", "lon": -77.040776, "fusion_lon": 0.0}, {"is_reserved": 0, "type": "electric_scooter", "fusion_lat": 0.0, "is_disabled": 0, "rental_uris": {"ios": "https://dc.lft.to/lastmile_qr_scan", "android": "https://dc.lft.to/lastmile_qr_scan"}, "bike_id": "04f80347956975c8aedf44d71ea11e7a", "lat": 38.89750316666667, "name": "04f80347956975c8aedf44d71ea11e7a", "lon": -77.00866516666666, "fusion_lon": 0.0}, {"is_reserved": 0, "type": "electric_bike", "fusion_lat": 0.0, "is_disabled": 0, "rental_uris": {"ios": "https://dc.lft.to/lastmile_qr_scan", "android": "https://dc.lft.to/lastmile_qr_scan"}, "bike_id": "2d03b317905c65f703668d2e14af6211", "lat": 39.00392516666667, "name": "2d03b317905c65f703668d2e14af6211", "lon": -77.01289283333334, "fusion_lon": 0.0}, {"is_reserved": 0, "type": "electric_scooter", "fusion_lat": 0.0, "is_disabled": 0, "rental_uris": {"ios": "https://dc.lft.to/lastmile_qr_scan", "android": "https://dc.lft.to/lastmile_qr_scan"}, "bike_id": "b2d85a9624882af5158e14104525c0ae", "lat": 38.89837, "name": "b2d85a9624882af5158e14104525c0ae", "lon": -76.94633866666666, "fusion_lon": 0.0}, {"is_reserved": 0, "type": "electric_scooter", "fusion_lat": 0.0, "is_disabled": 0, "rental_uris": {"ios": "https://dc.lft.to/lastmile_qr_scan", "android": "https://dc.lft.to/lastmile_qr_scan"}, "bike_id": "605015ae23ae45f7df448143a13fedf2", "lat": 38.892259833333334, "name": "605015ae23ae45f7df448143a13fedf2", "lon": -77.044876, "fusion_lon": 0.0}, {"is_reserved": 0, "type": "electric_scooter", "fusion_lat": 0.0, "is_disabled": 0, "rental_uris": {"ios": "https://dc.lft.to/lastmile_qr_scan", "android": "https://dc.lft.to/lastmile_qr_scan"}, "bike_id": "99dc8e7a7332bb0fddfa8c4bfe47e4a5", "lat": 38.915537, "name": "99dc8e7a7332bb0fddfa8c4bfe47e4a5", "lon": -77.031734, "fusion_lon": 0.0}, {"is_reserved": 0, "type": "electric_bike", "fusion_lat": 0.0, "is_disabled": 0, "rental_uris": {"ios": "https://dc.lft.to/lastmile_qr_scan", "android": "https://dc.lft.to/lastmile_qr_scan"}, "bike_id": "4ad769a637bdc4a1b116a23607171b7a", "lat": 38.9043885, "name": "4ad769a637bdc4a1b116a23607171b7a", "lon": -76.97227116666667, "fusion_lon": 0.0}, {"is_reserved": 0, "type": "electric_bike", "fusion_lat": 0.0, "is_disabled": 0, "rental_uris": {"ios": "https://dc.lft.to/lastmile_qr_scan", "android": "https://dc.lft.to/lastmile_qr_scan"}, "bike_id": "2dce906a157b2f3bdea12b6522c17f6a", "lat": 38.832987333333335, "name": "2dce906a157b2f3bdea12b6522c17f6a", "lon": -77.08406733333334, "fusion_lon": 0.0}, {"is_reserved": 0, "type": "electric_scooter", "fusion_lat": 0.0, "is_disabled": 0, "rental_uris": {"ios": "https://dc.lft.to/lastmile_qr_scan", "android": "https://dc.lft.to/lastmile_qr_scan"}, "bike_id": "0b8b71eb54e3e7d03fbdfb2d70c57ba0", "lat": 38.914852833333335, "name": "0b8b71eb54e3e7d03fbdfb2d70c57ba0", "lon": -77.03434016666667, "fusion_lon": 0.0}, {"is_reserved": 0, "type": "electric_scooter", "fusion_lat": 0.0, "is_disabled": 0, "rental_uris": {"ios": "https://dc.lft.to/lastmile_qr_scan", "android": "https://dc.lft.to/lastmile_qr_scan"}, "bike_id": "d558bbcbaac743b97ec5641a0e6eb1b4", "lat": 38.8948375, "name": "d558bbcbaac743b97ec5641a0e6eb1b4", "lon": -77.02195516666667, "fusion_lon": 0.0}, {"is_reserved": 0, "type": "electric_scooter", "fusion_lat": 0.0, "is_disabled": 0, "rental_uris": {"ios": "https://dc.lft.to/lastmile_qr_scan", "android": "https://dc.lft.to/lastmile_qr_scan"}, "bike_id": "507960ae5e24d102b6bf0eb0de7d6e22", "lat": 38.928783333333335, "name": "507960ae5e24d102b6bf0eb0de7d6e22", "lon": -77.03269933333333, "fusion_lon": 0.0}, {"is_reserved": 0, "type": "electric_scooter", "fusion_lat": 0.0, "is_disabled": 0, "rental_uris": {"ios": "https://dc.lft.to/lastmile_qr_scan", "android": "https://dc.lft.to/lastmile_qr_scan"}, "bike_id": "0253f22bdd7460444fbd135f313415f8", "lat": 38.9115395, "name": "0253f22bdd7460444fbd135f313415f8", "lon": -77.01524566666667, "fusion_lon": 0.0}, {"is_reserved": 0, "type": "electric_scooter", "fusion_lat": 0.0, "is_disabled": 0, "rental_uris": {"ios": "https://dc.lft.to/lastmile_qr_scan", "android": "https://dc.lft.to/lastmile_qr_scan"}, "bike_id": "31debb91f213f43647ede047dcbf0e43", "lat": 38.891988, "name": "31debb91f213f43647ede047dcbf0e43", "lon": -77.01550516666667, "fusion_lon": 0.0}, {"is_reserved": 0, "type": "electric_scooter", "fusion_lat": 0.0, "is_disabled": 0, "rental_uris": {"ios": "https://dc.lft.to/lastmile_qr_scan", "android": "https://dc.lft.to/lastmile_qr_scan"}, "bike_id": "eed5e0c24e267203a626a166fb4ac073", "lat": 38.90769983333333, "name": "eed5e0c24e267203a626a166fb4ac073", "lon": -77.063315, "fusion_lon": 0.0}, {"is_reserved": 0, "type": "electric_scooter", "fusion_lat": 0.0, "is_disabled": 0, "rental_uris": {"ios": "https://dc.lft.to/lastmile_qr_scan", "android": "https://dc.lft.to/lastmile_qr_scan"}, "bike_id": "8a40f10a8d0bfbcf5ff2a1fdea266fd6", "lat": 38.892524, "name": "8a40f10a8d0bfbcf5ff2a1fdea266fd6", "lon": -77.01950783333334, "fusion_lon": 0.0}, {"is_reserved": 0, "type": "electric_scooter", "fusion_lat": 0.0, "is_disabled": 0, "rental_uris": {"ios": "https://dc.lft.to/lastmile_qr_scan", "android": "https://dc.lft.to/lastmile_qr_scan"}, "bike_id": "d0a4d3ca871ee8296dffab3cf8f78cb9", "lat": 38.94229933333333, "name": "d0a4d3ca871ee8296dffab3cf8f78cb9", "lon": -77.0144135, "fusion_lon": 0.0}, {"is_reserved": 0, "type": "electric_scooter", "fusion_lat": 0.0, "is_disabled": 0, "rental_uris": {"ios": "https://dc.lft.to/lastmile_qr_scan", "android": "https://dc.lft.to/lastmile_qr_scan"}, "bike_id": "158dc2c4d4e3a9a1b17285ffb20e0b1e", "lat": 38.89848833333333, "name": "158dc2c4d4e3a9a1b17285ffb20e0b1e", "lon": -76.92748866666666, "fusion_lon": 0.0}, {"is_reserved": 0, "type": "electric_scooter", "fusion_lat": 0.0, "is_disabled": 0, "rental_uris": {"ios": "https://dc.lft.to/lastmile_qr_scan", "android": "https://dc.lft.to/lastmile_qr_scan"}, "bike_id": "012bb55e0cfa2dc3f5bbe83f226ac27e", "lat": 38.909818666666666, "name": "012bb55e0cfa2dc3f5bbe83f226ac27e", "lon": -77.064948, "fusion_lon": 0.0}, {"is_reserved": 0, "type": "electric_scooter", "fusion_lat": 0.0, "is_disabled": 0, "rental_uris": {"ios": "https://dc.lft.to/lastmile_qr_scan", "android": "https://dc.lft.to/lastmile_qr_scan"},