{"data": {"bikes": [{"bike_id": "1013b71dc07b52599dec13e495ae284e", "type": "electric_scooter", "is_disabled": 0, "lat": 38.92091, "rental_uris": {"ios": "https://dc.lft.to/lastmile_qr_scan", "android": "https://dc.lft.to/lastmile_qr_scan"}, "is_reserved": 0, "fusion_lon": 0.0, "fusion_lat": 0.0, "lon": -77.0315105, "name": "1013b71dc07b52599dec13e495ae284e"}, {"bike_id": "2292b1e3cc8ec6ede8127fd26f8692a5", "type": "electric_scooter", "is_disabled": 0, "lat": 38.8804285, "rental_uris": {"ios": "https://dc.lft.to/lastmile_qr_scan", "android": "https://dc.lft.to/lastmile_qr_scan"}, "is_reserved": 0, "fusion_lon": 0.0, "fusion_lat": 0.0, "lon": -77.00540383333333, "name": "2292b1e3cc8ec6ede8127fd26f8692a5"}, {"bike_id": "7a0fc32825cbac96e6a063a0f17e0d64", "type": "electric_scooter", "is_disabled": 0, "lat": 38.892563, "rental_uris": {"ios": "https://dc.lft.to/lastmile_qr_scan", "android": "https://dc.lft.to/lastmile_qr_scan"}, "is_reserved": 0, "fusion_lon": 0.0, "fusion_lat": 0.0, "lon": -76.92571483333333, "name": "7a0fc32825cbac96e6a063a0f17e0d64"}, {"bike_id": "2f281558d7403e6118fa8e75ce5ee732", "type": "electric_scooter", "is_disabled": 0, "lat": 38.91733716666667, "rental_uris": {"ios": "https://dc.lft.to/lastmile_qr_scan", "android": "https://dc.lft.to/lastmile_qr_scan"}, "is_reserved": 0, "fusion_lon": 0.0, "fusion_lat": 0.0, "lon": -77.02605416666667, "name": "2f281558d7403e6118fa8e75ce5ee732"}, {"bike_id": "e6cb01793e13f12976a9cbfec81c111e", "type": "electric_scooter", "is_disabled": 0, "lat": 38.907124333333336, "rental_uris": {"ios": "https://dc.lft.to/lastmile_qr_scan", "android": "https://dc.lft.to/lastmile_qr_scan"}, "is_reserved": 0, "fusion_lon": 0.0, "fusion_lat": 0.0, "lon": -77.03442433333333, "name": "e6cb01793e13f12976a9cbfec81c111e"}, {"bike_id": "b6d1ce8fb15810d75016cff1f18fb269", "type": "electric_bike", "is_disabled": 0, "lat": 38.993042833333334, "rental_uris": {"ios": "https://dc.lft.to/lastmile_qr_scan", "android": "https://dc.lft.to/lastmile_qr_scan"}, "is_reserved": 0, "fusion_lon": 0.0, "fusion_lat": 0.0, "lon": -77.02513266666666, "name": "b6d1ce8fb15810d75016cff1f18fb269"}, {"bike_id": "d855e8c66e2ee382eb50f8a428363b9e", "type": "electric_scooter", "is_disabled": 0, "lat": 38.90230366666667, "rental_uris": {"ios": "https://dc.lft.to/lastmile_qr_scan", "android": "https://dc.lft.to/lastmile_qr_scan"}, "is_reserved": 0, "fusion_lon": 0.0, "fusion_lat": 0.0, "lon": -77.04132566666667, "name": "d855e8c66e2ee382eb50f8a428363b9e"}, {"bike_id": "9c05234e827ca6242c324d854a0c33d1", "type": "electric_scooter", "is_disabled": 0, "lat": 38.9216485, "rental_uris": {"ios": "https://dc.lft.to/lastmile_qr_scan", "android": "https://dc.lft.to/lastmile_qr_scan"}, "is_reserved": 0, "fusion_lon": 0.0, "fusion_lat": 0.0, "lon": -77.03380616666666, "name": "9c05234e827ca6242c324d854a0c33d1"}, {"bike_id": "106b122d062640d625bbfb2f22719efa", "type": "electric_scooter", "is_disabled": 0, "lat": 38.92321666666667, "rental_uris": {"ios": "https://dc.lft.to/lastmile_qr_scan", "android": "https://dc.lft.to/lastmile_qr_scan"}, "is_reserved": 0, "fusion_lon": 0.0, "fusion_lat": 0.0, "lon": -77.03894683333333, "name": "106b122d062640d625bbfb2f22719efa"}, {"bike_id": "dbf6c215d021be3ac5dcea6941d5db90", "type": "electric_scooter", "is_disabled": 0, "lat": 38.956601166666665, "rental_uris": {"ios": "https://dc.lft.to/lastmile_qr_scan", "android": "https://dc.lft.to/lastmile_qr_scan"}, "is_reserved": 0, "fusion_lon": 0.0, "fusion_lat": 0.0, "lon": -77.02400766666666, "name": "dbf6c215d021be3ac5dcea6941d5db90"}, {"bike_id": "a87d7d60a177b1e4deb5390dea38d1c3", "type": "electric_scooter", "is_disabled": 0, "lat": 38.864380833333335, "rental_uris": {"ios": "https://dc.lft.to/lastmile_qr_scan", "android": "https://dc.lft.to/lastmile_qr_scan"}, "is_reserved": 0, "fusion_lon": 0.0, "fusion_lat": 0.0, "lon": -76.97990666666666, "name": "a87d7d60a177b1e4deb5390dea38d1c3"}, {"bike_id": "d1a2586c65623b558347b4e1b628ad6f", "type": "electric_scooter", "is_disabled": 0, "lat": 38.924242666666665, "rental_uris": {"ios": "https://dc.lft.to/lastmile_qr_scan", "android": "https://dc.lft.to/lastmile_qr_scan"}, "is_reserved": 0, "fusion_lon": 0.0, "fusion_lat": 0.0, "lon": -77.02262966666666, "name": "d1a2586c65623b558347b4e1b628ad6f"}, {"bike_id": "b0c814124d3cd42f865c9eec00281d49", "type": "electric_scooter", "is_disabled": 0, "lat": 38.919247166666665, "rental_uris": {"ios": "https://dc.lft.to/lastmile_qr_scan", "android": "https://dc.lft.to/lastmile_qr_scan"}, "is_reserved": 0, "fusion_lon": 0.0, "fusion_lat": 0.0, "lon": -77.0257735, "name": "b0c814124d3cd42f865c9eec00281d49"}, {"bike_id": "f5a9fa65046f820292950572ffa34631", "type": "electric_bike", "is_disabled": 0, "lat": 38.908159, "rental_uris": {"ios": "https://dc.lft.to/lastmile_qr_scan", "android": "https://dc.lft.to/lastmile_qr_scan"}, "is_reserved": 0, "fusion_lon": 0.0, "fusion_lat": 0.0, "lon": -76.9404785, "name": "f5a9fa65046f820292950572ffa34631"}, {"bike_id": "495d5c93099562050a55bf54c6608ff3", "type": "electric_scooter", "is_disabled": 0, "lat": 38.905683, "rental_uris": {"ios": "https://dc.lft.to/lastmile_qr_scan", "android": "https://dc.lft.to/lastmile_qr_scan"}, "is_reserved": 0, "fusion_lon": 0.0, "fusion_lat": 0.0, "lon": -76.976258, "name": "495d5c93099562050a55bf54c6608ff3"}, {"bike_id": "4df56e73fe1494a107433ceaf6d87d99", "type": "electric_scooter", "is_disabled": 0, "lat": 38.87087116666667, "rental_uris": {"ios": "https://dc.lft.to/lastmile_qr_scan", "android": "https://dc.lft.to/lastmile_qr_scan"}, "is_reserved": 0, "fusion_lon": 0.0, "fusion_lat": 0.0, "lon": -77.012121, "name": "4df56e73fe1494a107433ceaf6d87d99"}, {"bike_id": "0f70bd1019086d2b74d01557f32cc154", "type": "electric_scooter", "is_disabled": 0, "lat": 38.900655, "rental_uris": {"ios": "https://dc.lft.to/lastmile_qr_scan", "android": "https://dc.lft.to/lastmile_qr_scan"}, "is_reserved": 0, "fusion_lon": 0.0, "fusion_lat": 0.0, "lon": -77.01829983333333, "name": "0f70bd1019086d2b74d01557f32cc154"}, {"bike_id": "855eca0f6922eba6b58f38fc3e2aed59", "type": "electric_scooter", "is_disabled": 0, "lat": 38.90864283333333, "rental_uris": {"ios": "https://dc.lft.to/lastmile_qr_scan", "android": "https://dc.lft.to/lastmile_qr_scan"}, "is_reserved": 0, "fusion_lon": 0.0, "fusion_lat": 0.0, "lon": -77.0858995, "name": "855eca0f6922eba6b58f38fc3e2aed59"}, {"bike_id": "fb479fceae7be3e5cd5cb0aa3d523b68", "type": "electric_scooter", "is_disabled": 0, "lat": 38.925717166666665, "rental_uris": {"ios": "https://dc.lft.to/lastmile_qr_scan", "android": "https://dc.lft.to/lastmile_qr_scan"}, "is_reserved": 0, "fusion_lon": 0.0, "fusion_lat": 0.0, "lon": -77.03778266666667, "name": "fb479fceae7be3e5cd5cb0aa3d523b68"}, {"bike_id": "1b202629f594ab16f19a4814971708a7", "type": "electric_scooter", "is_disabled": 0, "lat": 38.883979333333336, "rental_uris": {"ios": "https://dc.lft.to/lastmile_qr_scan", "android": "https://dc.lft.to/lastmile_qr_scan"}, "is_reserved": 0, "fusion_lon": 0.0, "fusion_lat": 0.0, "lon": -76.9539475, "name": "1b202629f594ab16f19a4814971708a7"}, {"bike_id": "212037b00ba049e5a10bc222f913c0f0", "type": "electric_scooter", "is_disabled": 0, "lat": 38.890963, "rental_uris": {"ios": "https://dc.lft.to/lastmile_qr_scan", "android": "https://dc.lft.to/lastmile_qr_scan"}, "is_reserved": 0, "fusion_lon": 0.0, "fusion_lat": 0.0, "lon": -76.9385345, "name": "212037b00ba049e5a10bc222f913c0f0"}, {"bike_id": "f25dfba9ffee93397d1fc4b37bc8e6d7", "type": "electric_scooter", "is_disabled": 0, "lat": 38.9324905, "rental_uris": {"ios": "https://dc.lft.to/lastmile_qr_scan", "android": "https://dc.lft.to/lastmile_qr_scan"}, "is_reserved": 0, "fusion_lon": 0.0, "fusion_lat": 0.0, "lon": -77.03282533333334, "name": "f25dfba9ffee93397d1fc4b37bc8e6d7"}, {"bike_id": "7d707d3a01a6485520bbe08a8267ef1e", "type": "electric_scooter", "is_disabled": 0, "lat": 38.91520466666667, "rental_uris": {"ios": "https://dc.lft.to/lastmile_qr_scan", "android": "https://dc.lft.to/lastmile_qr_scan"}, "is_reserved": 0, "fusion_lon": 0.0, "fusion_lat": 0.0, "lon": -77.04848983333333, "name": "7d707d3a01a6485520bbe08a8267ef1e"}, {"bike_id": "bd7bdf1072fc10ed36fc75aef54692af", "type": "electric_scooter", "is_disabled": 0, "lat": 38.91058983333333, "rental_uris": {"ios": "https://dc.lft.to/lastmile_qr_scan", "android": "https://dc.lft.to/lastmile_qr_scan"}, "is_reserved": 0, "fusion_lon": 0.0, "fusion_lat": 0.0, "lon": -77.03708866666666, "name": "bd7bdf1072fc10ed36fc75aef54692af"}, {"bike_id": "4b1bbddd9d2522e91261543642735c46", "type": "electric_scooter", "is_disabled": 0, "lat": 38.92257983333333, "rental_uris": {"ios": "https://dc.lft.to/lastmile_qr_scan", "android": "https://dc.lft.to/lastmile_qr_scan"}, "is_reserved": 0, "fusion_lon": 0.0, "fusion_lat": 0.0, "lon": -77.042998, "name": "4b1bbddd9d2522e91261543642735c46"}, {"bike_id": "33512932144db0540a3d625c6563d056", "type": "electric_bike", "is_disabled": 0, "lat": 38.93685583333333, "rental_uris": {"ios": "https://dc.lft.to/lastmile_qr_scan", "android": "https://dc.lft.to/lastmile_qr_scan"}, "is_reserved": 0, "fusion_lon": 0.0, "fusion_lat": 0.0, "lon": -77.05643616666667, "name": "33512932144db0540a3d625c6563d056"}, {"bike_id": "a97b5f2ad640889906a12bf72f042d0b", "type": "electric_scooter", "is_disabled": 0, "lat": 38.9169185, "rental_uris": {"ios": "https://dc.lft.to/lastmile_qr_scan", "android": "https://dc.lft.to/lastmile_qr_scan"}, "is_reserved": 0, "fusion_lon": 0.0, "fusion_lat": 0.0, "lon": -77.031532, "name": "a97b5f2ad640889906a12bf72f042d0b"}, {"bike_id": "b102fee6391cd955128d63e2df0ca285", "type": "electric_scooter", "is_disabled": 0, "lat": 38.8806015, "rental_uris": {"ios": "https://dc.lft.to/lastmile_qr_scan", "android": "https://dc.lft.to/lastmile_qr_scan"}, "is_reserved": 0, "fusion_lon": 0.0, "fusion_lat": 0.0, "lon": -77.025489, "name": "b102fee6391cd955128d63e2df0ca285"}, {"bike_id": "5b8ef1faf660b1c3f05ed23385a71ae4", "type": "electric_scooter", "is_disabled": 0, "lat": 38.934617833333334, "rental_uris": {"ios": "https://dc.lft.to/lastmile_qr_scan", "android": "https://dc.lft.to/lastmile_qr_scan"}, "is_reserved": 0, "fusion_lon": 0.0, "fusion_lat": 0.0, "lon": -77.04529616666666, "name": "5b8ef1faf660b1c3f05ed23385a71ae4"}, {"bike_id": "fcbbd1d3dab71067955261546dd09daf", "type": "electric_scooter", "is_disabled": 0, "lat": 38.91988033333333, "rental_uris": {"ios": "https://dc.lft.to/lastmile_qr_scan", "android": "https://dc.lft.to/lastmile_qr_scan"}, "is_reserved": 0, "fusion_lon": 0.0, "fusion_lat": 0.0, "lon": -77.01788766666667, "name": "fcbbd1d3dab71067955261546dd09daf"}, {"bike_id": "6daf2c191499a6092eaae2efba02d061", "type": "electric_scooter", "is_disabled": 0, "lat": 38.899142166666664, "rental_uris": {"ios": "https://dc.lft.to/lastmile_qr_scan", "android": "https://dc.lft.to/lastmile_qr_scan"}, "is_reserved": 0, "fusion_lon": 0.0, "fusion_lat": 0.0, "lon": -76.93378383333334, "name": "6daf2c191499a6092eaae2efba02d061"}, {"bike_id": "8b651e43ee42c6b6bcd9b2303bcbfd0f", "type": "electric_scooter", "is_disabled": 0, "lat": 38.90858383333333, "rental_uris": {"ios": "https://dc.lft.to/lastmile_qr_scan", "android": "https://dc.lft.to/lastmile_qr_scan"}, "is_reserved": 0, "fusion_lon": 0.0, "fusion_lat": 0.0, "lon": -77.02214266666667, "name": "8b651e43ee42c6b6bcd9b2303bcbfd0f"}, {"bike_id": "df1e5c452401bc796db4d4e2c37c1457", "type": "electric_scooter", "is_disabled": 0, "lat": 38.90242, "rental_uris": {"ios": "https://dc.lft.to/lastmile_qr_scan", "android": "https://dc.lft.to/lastmile_qr_scan"}, "is_reserved": 0, "fusion_lon": 0.0, "fusion_lat": 0.0, "lon": -77.00199133333334, "name": "df1e5c452401bc796db4d4e2c37c1457"}, {"bike_id": "3d0df9d8e6ef591ee0bbab8b64018588", "type": "electric_scooter", "is_disabled": 0, "lat": 38.90226233333333, "rental_uris": {"ios": "https://dc.lft.to/lastmile_qr_scan", "android": "https://dc.lft.to/lastmile_qr_scan"}, "is_reserved": 0, "fusion_lon": 0.0, "fusion_lat": 0.0, "lon": -77.04109083333333, "name": "3d0df9d8e6ef591ee0bbab8b64018588"}, {"bike_id": "4c0c91370d0c5b82901938ed580aca74", "type": "electric_scooter", "is_disabled": 0, "lat": 38.90627766666667, "rental_uris": {"ios": "https://dc.lft.to/lastmile_qr_scan", "android": "https://dc.lft.to/lastmile_qr_scan"}, "is_reserved": 0, "fusion_lon": 0.0, "fusion_lat": 0.0, "lon": -77.05556, "name": "4c0c91370d0c5b82901938ed580aca74"}, {"bike_id": "67eccd359bba811229546e92614fdc47", "type": "electric_scooter", "is_disabled": 0, "lat": 38.91425066666667, "rental_uris": {"ios": "https://dc.lft.to/lastmile_qr_scan", "android": "https://dc.lft.to/lastmile_qr_scan"}, "is_reserved": 0, "fusion_lon": 0.0, "fusion_lat": 0.0, "lon": -77.06926466666667, "name": "67eccd359bba811229546e92614fdc47"}, {"bike_id": "a5450f111602d1128a096ea2abea3f0a", "type": "electric_scooter", "is_disabled": 0, "lat": 38.877143833333335, "rental_uris": {"ios": "https://dc.lft.to/lastmile_qr_scan", "android": "https://dc.lft.to/lastmile_qr_scan"}, "is_reserved": 0, "fusion_lon": 0.0, "fusion_lat": 0.0, "lon": -77.01649266666666, "name": "a5450f111602d1128a096ea2abea3f0a"}, {"bike_id": "906a4fd2c0946d998c5f95259f2d62b7", "type": "electric_scooter", "is_disabled": 0, "lat": 38.9288455, "rental_uris": {"ios": "https://dc.lft.to/lastmile_qr_scan", "android": "https://dc.lft.to/lastmile_qr_scan"}, "is_reserved": 0, "fusion_lon": 0.0, "fusion_lat": 0.0, "lon": -77.0336645, "name": "906a4fd2c0946d998c5f95259f2d62b7"}, {"bike_id": "afe2da99b88fba78eef4980dfb162e33", "type": "electric_bike", "is_disabled": 0, "lat": 38.8572495, "rental_uris": {"ios": "https://dc.lft.to/lastmile_qr_scan", "android": "https://dc.lft.to/lastmile_qr_scan"}, "is_reserved": 0, "fusion_lon": 0.0, "fusion_lat": 0.0, "lon": -77.07965166666666, "name": "afe2da99b88fba78eef4980dfb162e33"}, {"bike_id": "50484a6a151dcca11a33a35903cd3c11", "type": "electric_scooter", "is_disabled": 0, "lat": 38.9048795, "rental_uris": {"ios": "https://dc.lft.to/lastmile_qr_scan", "android": "https://dc.lft.to/lastmile_qr_scan"}, "is_reserved": 0, "fusion_lon": 0.0, "fusion_lat": 0.0, "lon": -76.9495745, "name": "50484a6a151dcca11a33a35903cd3c11"}, {"bike_id": "1ee829cb8f55117368dfe0f085a0ae35", "type": "electric_scooter", "is_disabled": 0, "lat": 38.92478083333334, "rental_uris": {"ios": "https://dc.lft.to/lastmile_qr_scan", "android": "https://dc.lft.to/lastmile_qr_scan"}, "is_reserved": 0, "fusion_lon": 0.0, "fusion_lat": 0.0, "lon": -77.02832166666667, "name": "1ee829cb8f55117368dfe0f085a0ae35"}, {"bike_id": "9bd2138ef93b8405860d9c3a9b2ceedc", "type": "electric_scooter", "is_disabled": 0, "lat": 38.922106666666664, "rental_uris": {"ios": "https://dc.lft.to/lastmile_qr_scan", "android": "https://dc.lft.to/lastmile_qr_scan"}, "is_reserved": 0, "fusion_lon": 0.0, "fusion_lat": 0.0, "lon": -77.03659266666666, "name": "9bd2138ef93b8405860d9c3a9b2ceedc"}, {"bike_id": "efc5f022e2f8bc6d217401d075a99691", "type": "electric_scooter", "is_disabled": 0, "lat": 38.910688, "rental_uris": {"ios": "https://dc.lft.to/lastmile_qr_scan", "android": "https://dc.lft.to/lastmile_qr_scan"}, "is_reserved": 0, "fusion_lon": 0.0, "fusion_lat": 0.0, "lon": -77.0271605, "name": "efc5f022e2f8bc6d217401d075a99691"}, {"bike_id": "7a6c2016882041fbb1e943e5e8dcd00e", "type": "electric_scooter", "is_disabled": 0, "lat": 38.863733833333335, "rental_uris": {"ios": "https://dc.lft.to/lastmile_qr_scan", "android": "https://dc.lft.to/lastmile_qr_scan"}, "is_reserved": 0, "fusion_lon": 0.0, "fusion_lat": 0.0, "lon": -76.99065983333334, "name": "7a6c2016882041fbb1e943e5e8dcd00e"}, {"bike_id": "acc0d086222603cf00eacffe812a9fa1", "type": "electric_scooter", "is_disabled": 0, "lat": 38.86685383333333, "rental_uris": {"ios": "https://dc.lft.to/lastmile_qr_scan", "android": "https://dc.lft.to/lastmile_qr_scan"}, "is_reserved": 0, "fusion_lon": 0.0, "fusion_lat": 0.0, "lon": -76.98553566666666, "name": "acc0d086222603cf00eacffe812a9fa1"}, {"bike_id": "bb130275126e7087eb39e7001c02e59a", "type": "electric_scooter", "is_disabled": 0, "lat": 38.92192583333333, "rental_uris": {"ios": "https://dc.lft.to/lastmile_qr_scan", "android": "https://dc.lft.to/lastmile_qr_scan"}, "is_reserved": 0, "fusion_lon": 0.0, "fusion_lat": 0.0, "lon": -77.0469415, "name": "bb130275126e7087eb39e7001c02e59a"}, {"bike_id": "cd86110f772ed6802911ab084fa6aec5", "type": "electric_scooter", "is_disabled": 0, "lat": 38.92334916666667, "rental_uris": {"ios": "https://dc.lft.to/lastmile_qr_scan", "android": "https://dc.lft.to/lastmile_qr_scan"}, "is_reserved": 0, "fusion_lon": 0.0, "fusion_lat": 0.0, "lon": -77.03615283333333, "name": "cd86110f772ed6802911ab084fa6aec5"}, {"bike_id": "33d1fafc52b25baaabda897a0c958595", "type": "electric_scooter", "is_disabled": 0, "lat": 38.905994666666665, "rental_uris": {"ios": "https://dc.lft.to/lastmile_qr_scan", "android": "https://dc.lft.to/lastmile_qr_scan"}, "is_reserved": 0, "fusion_lon": 0.0, "fusion_lat": 0.0, "lon": -77.07358483333333, "name": "33d1fafc52b25baaabda897a0c958595"}, {"bike_id": "7043eff4235a1ef3e3dee8f61d6ec670", "type": "electric_scooter", "is_disabled": 0, "lat": 38.9318025, "rental_uris": {"ios": "https://dc.lft.to/lastmile_qr_scan", "android": "https://dc.lft.to/lastmile_qr_scan"}, "is_reserved": 0, "fusion_lon": 0.0, "fusion_lat": 0.0, "lon": -77.023641, "name": "7043eff4235a1ef3e3dee8f61d6ec670"}, {"bike_id": "78278e0f3878e48cb3d1c12766494ee7", "type": "electric_scooter", "is_disabled": 0, "lat": 38.918984333333334, "rental_uris": {"ios": "https://dc.lft.to/lastmile_qr_scan", "android": "https://dc.lft.to/lastmile_qr_scan"}, "is_reserved": 0, "fusion_lon": 0.0, "fusion_lat": 0.0, "lon": -77.03210783333333, "name": "78278e0f3878e48cb3d1c12766494ee7"}, {"bike_id": "7ce6e0ed5f7977bf691ce010c06e8c7d", "type": "electric_scooter", "is_disabled": 0, "lat": 38.933377166666666, "rental_uris": {"ios": "https://dc.lft.to/lastmile_qr_scan", "android": "https://dc.lft.to/lastmile_qr_scan"}, "is_reserved": 0, "fusion_lon": 0.0, "fusion_lat": 0.0, "lon": -77.03983416666667, "name": "7ce6e0ed5f7977bf691ce010c06e8c7d"}, {"bike_id": "a16f5c411490511ce3f702d1352d5d0a", "type": "electric_scooter", "is_disabled": 0, "lat": 38.92038683333333, "rental_uris": {"ios": "https://dc.lft.to/lastmile_qr_scan", "android": "https://dc.lft.to/lastmile_qr_scan"}, "is_reserved": 0, "fusion_lon": 0.0, "fusion_lat": 0.0, "lon": -77.03397, "name": "a16f5c411490511ce3f702d1352d5d0a"}, {"bike_id": "6e89253a4330cba757d33447a94835aa", "type": "electric_scooter", "is_disabled": 0, "lat": 38.914171333333336, "rental_uris": {"ios": "https://dc.lft.to/lastmile_qr_scan", "android": "https://dc.lft.to/lastmile_qr_scan"}, "is_reserved": 0, "fusion_lon": 0.0, "fusion_lat": 0.0, "lon": -77.03174933333334, "name": "6e89253a4330cba757d33447a94835aa"}, {"bike_id": "3646425469fc51c6e8e8849ef34fd9b4", "type": "electric_scooter", "is_disabled": 0, "lat": 38.900185, "rental_uris": {"ios": "https://dc.lft.to/lastmile_qr_scan", "android": "https://dc.lft.to/lastmile_qr_scan"}, "is_reserved": 0, "fusion_lon": 0.0, "fusion_lat": 0.0, "lon": -77.00183766666666, "name": "3646425469fc51c6e8e8849ef34fd9b4"}, {"bike_id": "ea61f641f71aef455606111af253df36", "type": "electric_scooter", "is_disabled": 0, "lat": 38.92229966666667, "rental_uris": {"ios": "https://dc.lft.to/lastmile_qr_scan", "android": "https://dc.lft.to/lastmile_qr_scan"}, "is_reserved": 0, "fusion_lon": 0.0, "fusion_lat": 0.0, "lon": -77.04268616666667, "name": "ea61f641f71aef455606111af253df36"}, {"bike_id": "16579355b43234656fe72ba530c0bb4a", "type": "electric_scooter", "is_disabled": 0, "lat": 38.94292566666667, "rental_uris": {"ios": "https://dc.lft.to/lastmile_qr_scan", "android": "https://dc.lft.to/lastmile_qr_scan"}, "is_reserved": 0, "fusion_lon": 0.0, "fusion_lat": 0.0, "lon": -77.02174166666667, "name": "16579355b43234656fe72ba530c0bb4a"}, {"bike_id": "832a05667d8255351b35d1fd7c4ec335", "type": "electric_scooter", "is_disabled": 0, "lat": 38.91415816666667, "rental_uris": {"ios": "https://dc.lft.to/lastmile_qr_scan", "android": "https://dc.lft.to/lastmile_qr_scan"}, "is_reserved": 0, "fusion_lon": 0.0, "fusion_lat": 0.0, "lon": -77.02248083333333, "name": "832a05667d8255351b35d1fd7c4ec335"}, {"bike_id": "1f7459de3fe3107f01cf3258610c71cd", "type": "electric_scooter", "is_disabled": 0, "lat": 38.907919, "rental_uris": {"ios": "https://dc.lft.to/lastmile_qr_scan", "android": "https://dc.lft.to/lastmile_qr_scan"}, "is_reserved": 0, "fusion_lon": 0.0, "fusion_lat": 0.0, "lon": -77.04358833333333, "name": "1f7459de3fe3107f01cf3258610c71cd"}, {"bike_id": "92c73d5057c2528497523a9469d5665b", "type": "electric_scooter", "is_disabled": 0, "lat": 38.92599166666667, "rental_uris": {"ios": "https://dc.lft.to/lastmile_qr_scan", "android": "https://dc.lft.to/lastmile_qr_scan"}, "is_reserved": 0, "fusion_lon": 0.0, "fusion_lat": 0.0, "lon": -77.10241783333333, "name": "92c73d5057c2528497523a9469d5665b"}, {"bike_id": "edee8fe7b60b92f93ebafaa75614a91d", "type": "electric_scooter", "is_disabled": 0, "lat": 38.901415666666665, "rental_uris": {"ios": "https://dc.lft.to/lastmile_qr_scan", "android": "https://dc.lft.to/lastmile_qr_scan"}, "is_reserved": 0, "fusion_lon": 0.0, "fusion_lat": 0.0, "lon": -76.9309295, "name": "edee8fe7b60b92f93ebafaa75614a91d"}, {"bike_id": "6e42b46134033d1ee32556b5e227830d", "type": "electric_scooter", "is_disabled": 0, "lat": 38.905898, "rental_uris": {"ios": "https://dc.lft.to/lastmile_qr_scan", "android": "https://dc.lft.to/lastmile_qr_scan"}, "is_reserved": 0, "fusion_lon": 0.0, "fusion_lat": 0.0, "lon": -77.041772, "name": "6e42b46134033d1ee32556b5e227830d"}, {"bike_id": "b4bed6f1022583223d53a02301a6fcef", "type": "electric_scooter", "is_disabled": 0, "lat": 38.899140333333335, "rental_uris": {"ios": "https://dc.lft.to/lastmile_qr_scan", "android": "https://dc.lft.to/lastmile_qr_scan"}, "is_reserved": 0, "fusion_lon": 0.0, "fusion_lat": 0.0, "lon": -76.933697, "name": "b4bed6f1022583223d53a02301a6fcef"}, {"bike_id": "4bd7e8daf66fdeb2aead42869db918f0", "type": "electric_scooter", "is_disabled": 0, "lat": 38.90407866666666, "rental_uris": {"ios": "https://dc.lft.to/lastmile_qr_scan", "android": "https://dc.lft.to/lastmile_qr_scan"}, "is_reserved": 0, "fusion_lon": 0.0, "fusion_lat": 0.0, "lon": -76.97332916666667, "name": "4bd7e8daf66fdeb2aead42869db918f0"}, {"bike_id": "8cf371f4354d91850bcb2fd8abc862b5", "type": "electric_scooter", "is_disabled": 0, "lat": 38.930289, "rental_uris": {"ios": "https://dc.lft.to/lastmile_qr_scan", "android": "https://dc.lft.to/lastmile_qr_scan"}, "is_reserved": 0, "fusion_lon": 0.0, "fusion_lat": 0.0, "lon": -77.03299366666667, "name": "8cf371f4354d91850bcb2fd8abc862b5"}, {"bike_id": "087269b028f5e9219e5e21ac095845b3", "type": "electric_scooter", "is_disabled": 0, "lat": 38.93460416666667, "rental_uris": {"ios": "https://dc.lft.to/lastmile_qr_scan", "android": "https://dc.lft.to/lastmile_qr_scan"}, "is_reserved": 0, "fusion_lon": 0.0, "fusion_lat": 0.0, "lon": -77.02242933333333, "name": "087269b028f5e9219e5e21ac095845b3"}, {"bike_id": "6cbd8b17de181342c074f193481cd292", "type": "electric_scooter", "is_disabled": 0, "lat": 38.92593133333333, "rental_uris": {"ios": "https://dc.lft.to/lastmile_qr_scan", "android": "https://dc.lft.to/lastmile_qr_scan"}, "is_reserved": 0, "fusion_lon": 0.0, "fusion_lat": 0.0, "lon": -77.03759466666666, "name": "6cbd8b17de181342c074f193481cd292"}, {"bike_id": "76c937ce1225da46848d01b73f8b88e2", "type": "electric_scooter", "is_disabled": 0, "lat": 38.9054265, "rental_uris": {"ios": "https://dc.lft.to/lastmile_qr_scan", "android": "https://dc.lft.to/lastmile_qr_scan"}, "is_reserved": 0, "fusion_lon": 0.0, "fusion_lat": 0.0, "lon": -77.04417583333333, "name": "76c937ce1225da46848d01b73f8b88e2"}, {"bike_id": "594ccbe31bb36153596bc5601706ad2f", "type": "electric_scooter", "is_disabled": 0, "lat": 38.971954833333335, "rental_uris": {"ios": "https://dc.lft.to/lastmile_qr_scan", "android": "https://dc.lft.to/lastmile_qr_scan"}, "is_reserved": 0, "fusion_lon": 0.0, "fusion_lat": 0.0, "lon": -77.02661816666667, "name": "594ccbe31bb36153596bc5601706ad2f"}, {"bike_id": "04eb423c7470fdf7e3e25f8da4b69551", "type": "electric_scooter", "is_disabled": 0, "lat": 38.909083833333334, "rental_uris": {"ios": "https://dc.lft.to/lastmile_qr_scan", "android": "https://dc.lft.to/lastmile_qr_scan"}, "is_reserved": 0, "fusion_lon": 0.0, "fusion_lat": 0.0, "lon": -77.01886466666667, "name": "04eb423c7470fdf7e3e25f8da4b69551"}, {"bike_id": "f5b1904b31cd2cb445d93b95fbdd3277", "type": "electric_scooter", "is_disabled": 0, "lat": 38.92006883333333, "rental_uris": {"ios": "https://dc.lft.to/lastmile_qr_scan", "android": "https://dc.lft.to/lastmile_qr_scan"}, "is_reserved": 0, "fusion_lon": 0.0, "fusion_lat": 0.0, "lon": -77.03173016666666, "name": "f5b1904b31cd2cb445d93b95fbdd3277"}, {"bike_id": "07278c34feb404101d9754ab6513f149", "type": "electric_scooter", "is_disabled": 0, "lat": 38.86626483333333, "rental_uris": {"ios": "https://dc.lft.to/lastmile_qr_scan", "android": "https://dc.lft.to/lastmile_qr_scan"}, "is_reserved": 0, "fusion_lon": 0.0, "fusion_lat": 0.0, "lon": -76.98714633333333, "name": "07278c34feb404101d9754ab6513f149"}, {"bike_id": "193da3bcb668594c1006b2973c46d894", "type": "electric_scooter", "is_disabled": 0, "lat": 38.8863595, "rental_uris": {"ios": "https://dc.lft.to/lastmile_qr_scan", "android": "https://dc.lft.to/lastmile_qr_scan"}, "is_reserved": 0, "fusion_lon": 0.0, "fusion_lat": 0.0, "lon": -77.02134966666667, "name": "193da3bcb668594c1006b2973c46d894"}, {"bike_id": "2261f6e70539eb5276fc196029305053", "type": "electric_scooter", "is_disabled": 0, "lat": 38.8717815, "rental_uris": {"ios": "https://dc.lft.to/lastmile_qr_scan", "android": "https://dc.lft.to/lastmile_qr_scan"}, "is_reserved": 0, "fusion_lon": 0.0, "fusion_lat": 0.0, "lon": -77.00614333333333, "name": "2261f6e70539eb5276fc196029305053"}, {"bike_id": "2b6e89e334c193931ab64d649e72683a", "type": "electric_scooter", "is_disabled": 0, "lat": 38.905624833333334, "rental_uris": {"ios": "https://dc.lft.to/lastmile_qr_scan", "android": "https://dc.lft.to/lastmile_qr_scan"}, "is_reserved": 0, "fusion_lon": 0.0, "fusion_lat": 0.0, "lon": -77.01633216666667, "name": "2b6e89e334c193931ab64d649e72683a"}, {"bike_id": "d7f925ae1e1c6e368771aa1b1b0a5a41", "type": "electric_scooter", "is_disabled": 0, "lat": 38.93359916666667, "rental_uris": {"ios": "https://dc.lft.to/lastmile_qr_scan", "android": "https://dc.lft.to/lastmile_qr_scan"}, "is_reserved": 0, "fusion_lon": 0.0, "fusion_lat": 0.0, "lon": -77.08855133333333, "name": "d7f925ae1e1c6e368771aa1b1b0a5a41"}, {"bike_id": "b8b7e0766cbe304f935902d95feb7413", "type": "electric_scooter", "is_disabled": 0, "lat": 38.89763033333333, "rental_uris": {"ios": "https://dc.lft.to/lastmile_qr_scan", "android": "https://dc.lft.to/lastmile_qr_scan"}, "is_reserved": 0, "fusion_lon": 0.0, "fusion_lat": 0.0, "lon": -77.02684833333333, "name": "b8b7e0766cbe304f935902d95feb7413"}, {"bike_id": "419d5bdefdf60c6ad198ec7cd99bf40a", "type": "electric_scooter", "is_disabled": 0, "lat": 38.91710916666667, "rental_uris": {"ios": "https://dc.lft.to/lastmile_qr_scan", "android": "https://dc.lft.to/lastmile_qr_scan"}, "is_reserved": 0, "fusion_lon": 0.0, "fusion_lat": 0.0, "lon": -77.02901, "name": "419d5bdefdf60c6ad198ec7cd99bf40a"}, {"bike_id": "b92269ad02fa9546029184227512ea10", "type": "electric_scooter", "is_disabled": 0, "lat": 38.90472183333333, "rental_uris": {"ios": "https://dc.lft.to/lastmile_qr_scan", "android": "https://dc.lft.to/lastmile_qr_scan"}, "is_reserved": 0, "fusion_lon": 0.0, "fusion_lat": 0.0, "lon": -77.00917116666666, "name": "b92269ad02fa9546029184227512ea10"}, {"bike_id": "913dd89daf72ecb9620f70c3ede6501b", "type": "electric_bike", "is_disabled": 0, "lat": 38.95788916666667, "rental_uris": {"ios": "https://dc.lft.to/lastmile_qr_scan", "android": "https://dc.lft.to/lastmile_qr_scan"}, "is_reserved": 0, "fusion_lon": 0.0, "fusion_lat": 0.0, "lon": -77.0200525, "name": "913dd89daf72ecb9620f70c3ede6501b"}, {"bike_id": "a8ed9f8975c17cc2a52a81ff40143d57", "type": "electric_scooter", "is_disabled": 0, "lat": 38.94557483333333, "rental_uris": {"ios": "https://dc.lft.to/lastmile_qr_scan", "android": "https://dc.lft.to/lastmile_qr_scan"}, "is_reserved": 0, "fusion_lon": 0.0, "fusion_lat": 0.0, "lon": -77.07126033333333, "name": "a8ed9f8975c17cc2a52a81ff40143d57"}, {"bike_id": "38ce83f16f155df26e9b9815f7adf25a", "type": "electric_scooter", "is_disabled": 0, "lat": 38.8845, "rental_uris": {"ios": "https://dc.lft.to/lastmile_qr_scan", "android": "https://dc.lft.to/lastmile_qr_scan"}, "is_reserved": 0, "fusion_lon": 0.0, "fusion_lat": 0.0, "lon": -76.95097033333333, "name": "38ce83f16f155df26e9b9815f7adf25a"}, {"bike_id": "2376ddf1b6f43f7f5ce93b31935d5f40", "type": "electric_bike", "is_disabled": 0, "lat": 38.85893516666667, "rental_uris": {"ios": "https://dc.lft.to/lastmile_qr_scan", "android": "https://dc.lft.to/lastmile_qr_scan"}, "is_reserved": 0, "fusion_lon": 0.0, "fusion_lat": 0.0, "lon": -77.11861683333333, "name": "2376ddf1b6f43f7f5ce93b31935d5f40"}, {"bike_id": "3844a5055abe1424ccd7ca1bc99ffca5", "type": "electric_scooter", "is_disabled": 0, "lat": 38.915899, "rental_uris": {"ios": "https://dc.lft.to/lastmile_qr_scan", "android": "https://dc.lft.to/lastmile_qr_scan"}, "is_reserved": 0, "fusion_lon": 0.0, "fusion_lat": 0.0, "lon": -77.001957, "name": "3844a5055abe1424ccd7ca1bc99ffca5"}, {"bike_id": "6079da73cbb82ffef7caa0814570ff64", "type": "electric_scooter", "is_disabled": 0, "lat": 38.905894833333335, "rental_uris": {"ios": "https://dc.lft.to/lastmile_qr_scan", "android": "https://dc.lft.to/lastmile_qr_scan"}, "is_reserved": 0, "fusion_lon": 0.0, "fusion_lat": 0.0, "lon": -77.00636866666666, "name": "6079da73cbb82ffef7caa0814570ff64"}, {"bike_id": "d5611510cf1a5e92a83198b90e17351d", "type": "electric_scooter", "is_disabled": 0, "lat": 38.904095833333336, "rental_uris": {"ios": "https://dc.lft.to/lastmile_qr_scan", "android": "https://dc.lft.to/lastmile_qr_scan"}, "is_reserved": 0, "fusion_lon": 0.0, "fusion_lat": 0.0, "lon": -76.97332316666666, "name": "d5611510cf1a5e92a83198b90e17351d"}, {"bike_id": "f95da111b1a971db3dcd153a49faf194", "type": "electric_scooter", "is_disabled": 0, "lat": 38.89971833333333, "rental_uris": {"ios": "https://dc.lft.to/lastmile_qr_scan", "android": "https://dc.lft.to/lastmile_qr_scan"}, "is_reserved": 0, "fusion_lon": 0.0, "fusion_lat": 0.0, "lon": -76.9830655, "name": "f95da111b1a971db3dcd153a49faf194"}, {"bike_id": "bed45df181663b05b03b6b3c6acd6817", "type": "electric_bike", "is_disabled": 0, "lat": 38.965037, "rental_uris": {"ios": "https://dc.lft.to/lastmile_qr_scan", "android": "https://dc.lft.to/lastmile_qr_scan"}, "is_reserved": 0, "fusion_lon": 0.0, "fusion_lat": 0.0, "lon": -77.02822166666667, "name": "bed45df181663b05b03b6b3c6acd6817"}, {"bike_id": "6323b20296b31e563b3512ffabaee32d", "type": "electric_scooter", "is_disabled": 0, "lat": 38.91160983333333, "rental_uris": {"ios": "https://dc.lft.to/lastmile_qr_scan", "android": "https://dc.lft.to/lastmile_qr_scan"}, "is_reserved": 0, "fusion_lon": 0.0, "fusion_lat": 0.0, "lon": -77.01628016666666, "name": "6323b20296b31e563b3512ffabaee32d"}, {"bike_id": "58e3897e4a002c2a9794ff39b3e31e49", "type": "electric_scooter", "is_disabled": 0, "lat": 38.911045666666666, "rental_uris": {"ios": "https://dc.lft.to/lastmile_qr_scan", "android": "https://dc.lft.to/lastmile_qr_scan"}, "is_reserved": 0, "fusion_lon": 0.0, "fusion_lat": 0.0, "lon": -77.04009316666667, "name": "58e3897e4a002c2a9794ff39b3e31e49"}, {"bike_id": "bcebed0d788cbbf368389f898c0fd2a8", "type": "electric_scooter", "is_disabled": 0, "lat": 38.912727333333336, "rental_uris": {"ios": "https://dc.lft.to/lastmile_qr_scan", "android": "https://dc.lft.to/lastmile_qr_scan"}, "is_reserved": 0, "fusion_lon": 0.0, "fusion_lat": 0.0, "lon": -77.04704233333334, "name": "bcebed0d788cbbf368389f898c0fd2a8"}, {"bike_id": "ebd8651fce33dccd502d839102768f43", "type": "electric_scooter", "is_disabled": 0, "lat": 38.92933716666667, "rental_uris": {"ios": "https://dc.lft.to/lastmile_qr_scan", "android": "https://dc.lft.to/lastmile_qr_scan"}, "is_reserved": 0, "fusion_lon": 0.0, "fusion_lat": 0.0, "lon": -77.02325466666667, "name": "ebd8651fce33dccd502d839102768f43"}, {"bike_id": "eb23b6843987ffa7ebedbad7a4bc3c00", "type": "electric_bike", "is_disabled": 0, "lat": 38.878862166666664, "rental_uris": {"ios": "https://dc.lft.to/lastmile_qr_scan", "android": "https://dc.lft.to/lastmile_qr_scan"}, "is_reserved": 0, "fusion_lon": 0.0, "fusion_lat": 0.0, "lon": -77.0960695, "name": "eb23b6843987ffa7ebedbad7a4bc3c00"}, {"bike_id": "34428d137d6cd37c52f7ab831e34d718", "type": "electric_scooter", "is_disabled": 0, "lat": 38.967379333333334, "rental_uris": {"ios": "https://dc.lft.to/lastmile_qr_scan", "android": "https://dc.lft.to/lastmile_qr_scan"}, "is_reserved": 0, "fusion_lon": 0.0, "fusion_lat": 0.0, "lon": -77.05516083333333, "name": "34428d137d6cd37c52f7ab831e34d718"}, {"bike_id": "4efcf057fe84286e0e76f2c3e65d7c50", "type": "electric_scooter", "is_disabled": 0, "lat": 38.928348, "rental_uris": {"ios": "https://dc.lft.to/lastmile_qr_scan", "android": "https://dc.lft.to/lastmile_qr_scan"}, "is_reserved": 0, "fusion_lon": 0.0, "fusion_lat": 0.0, "lon": -77.0298235, "name": "4efcf057fe84286e0e76f2c3e65d7c50"}, {"bike_id": "16699a107582fa414b9d7c53c0f5e79c", "type": "electric_scooter", "is_disabled": 0, "lat": 38.91941766666667, "rental_uris": {"ios": "https://dc.lft.to/lastmile_qr_scan", "android": "https://dc.lft.to/lastmile_qr_scan"}, "is_reserved": 0, "fusion_lon": 0.0, "fusion_lat": 0.0, "lon": -77.04500866666666, "name": "16699a107582fa414b9d7c53c0f5e79c"}, {"bike_id": "61d984f720779cf7fa1146630f903351", "type": "electric_scooter", "is_disabled": 0, "lat": 38.8779025, "rental_uris": {"ios": "https://dc.lft.to/lastmile_qr_scan", "android": "https://dc.lft.to/lastmile_qr_scan"}, "is_reserved": 0, "fusion_lon": 0.0, "fusion_lat": 0.0, "lon": -77.00118883333333, "name": "61d984f720779cf7fa1146630f903351"}, {"bike_id": "c6845cb4f7c67105cef90a676e66e623", "type": "electric_scooter", "is_disabled": 0, "lat": 38.905025, "rental_uris": {"ios": "https://dc.lft.to/lastmile_qr_scan", "android": "https://dc.lft.to/lastmile_qr_scan"}, "is_reserved": 0, "fusion_lon": 0.0, "fusion_lat": 0.0, "lon": -76.99957883333333, "name": "c6845cb4f7c67105cef90a676e66e623"}, {"bike_id": "a6bda732b88abcb769034348bd3e8dd7", "type": "electric_scooter", "is_disabled": 0, "lat": 38.923275, "rental_uris": {"ios": "https://dc.lft.to/lastmile_qr_scan", "android": "https://dc.lft.to/lastmile_qr_scan"}, "is_reserved": 0, "fusion_lon": 0.0, "fusion_lat": 0.0, "lon": -77.0089145, "name": "a6bda732b88abcb769034348bd3e8dd7"}, {"bike_id": "70586d8359db46b83c031291eca11145", "type": "electric_scooter", "is_disabled": 0, "lat": 38.904816833333335, "rental_uris": {"ios": "https://dc.lft.to/lastmile_qr_scan", "android": "https://dc.lft.to/lastmile_qr_scan"}, "is_reserved": 0, "fusion_lon": 0.0, "fusion_lat": 0.0, "lon": -77.0435225, "name": "70586d8359db46b83c031291eca11145"}, {"bike_id": "f95d0e98dad857e810ee4d354e3a0447", "type": "electric_scooter", "is_disabled": 0, "lat": 38.93603383333333, "rental_uris": {"ios": "https://dc.lft.to/lastmile_qr_scan", "android": "https://dc.lft.to/lastmile_qr_scan"}, "is_reserved": 0, "fusion_lon": 0.0, "fusion_lat": 0.0, "lon": -77.037973, "name": "f95d0e98dad857e810ee4d354e3a0447"}, {"bike_id": "8521af793bb4078e2e1ca010b8a78a8a", "type": "electric_bike", "is_disabled": 0, "lat": 38.910018666666666, "rental_uris": {"ios": "https://dc.lft.to/lastmile_qr_scan", "android": "https://dc.lft.to/lastmile_qr_scan"}, "is_reserved": 0, "fusion_lon": 0.0, "fusion_lat": 0.0, "lon": -77.05714183333333, "name": "8521af793bb4078e2e1ca010b8a78a8a"}, {"bike_id": "c4fb9eec9d955ff08563702ec9730aa9", "type": "electric_bike", "is_disabled": 0, "lat": 38.951721166666665, "rental_uris": {"ios": "https://dc.lft.to/lastmile_qr_scan", "android": "https://dc.lft.to/lastmile_qr_scan"}, "is_reserved": 0, "fusion_lon": 0.0, "fusion_lat": 0.0, "lon": -76.97732383333333, "name": "c4fb9eec9d955ff08563702ec9730aa9"}, {"bike_id": "49c2c3290252c09af19cc68d4d2ab784", "type": "electric_scooter", "is_disabled": 0, "lat": 38.91659633333333, "rental_uris": {"ios": "https://dc.lft.to/lastmile_qr_scan", "android": "https://dc.lft.to/lastmile_qr_scan"}, "is_reserved": 0, "fusion_lon": 0.0, "fusion_lat": 0.0, "lon": -76.97909433333334, "name": "49c2c3290252c09af19cc68d4d2ab784"}, {"bike_id": "f20a3dd878c40fb877ac0f3912255d58", "type": "electric_scooter", "is_disabled": 0, "lat": 38.9008325, "rental_uris": {"ios": "https://dc.lft.to/lastmile_qr_scan", "android": "https://dc.lft.to/lastmile_qr_scan"}, "is_reserved": 0, "fusion_lon": 0.0, "fusion_lat": 0.0, "lon": -77.01717216666667, "name": "f20a3dd878c40fb877ac0f3912255d58"}, {"bike_id": "cde3b0ffe98ea138238a6303125b1979", "type": "electric_scooter", "is_disabled": 0, "lat": 38.94901333333333, "rental_uris": {"ios": "https://dc.lft.to/lastmile_qr_scan", "android": "https://dc.lft.to/lastmile_qr_scan"}, "is_reserved": 0, "fusion_lon": 0.0, "fusion_lat": 0.0, "lon": -77.02076, "name": "cde3b0ffe98ea138238a6303125b1979"}, {"bike_id": "4807dd19b0abbdd4fa4956da7c0db1cc", "type": "electric_bike", "is_disabled": 0, "lat": 38.98766166666667, "rental_uris": {"ios": "https://dc.lft.to/lastmile_qr_scan", "android": "https://dc.lft.to/lastmile_qr_scan"}, "is_reserved": 0, "fusion_lon": 0.0, "fusion_lat": 0.0, "lon": -77.14057983333333, "name": "4807dd19b0abbdd4fa4956da7c0db1cc"}, {"bike_id": "ba56fd77f1c93ff3ae1d0ac94e21b5a6", "type": "electric_scooter", "is_disabled": 0, "lat": 38.924867, "rental_uris": {"ios": "https://dc.lft.to/lastmile_qr_scan", "android": "https://dc.lft.to/lastmile_qr_scan"}, "is_reserved": 0, "fusion_lon": 0.0, "fusion_lat": 0.0, "lon": -77.03179533333333, "name": "ba56fd77f1c93ff3ae1d0ac94e21b5a6"}, {"bike_id": "bfcad871eb230cef6d1e07a4f36635ad", "type": "electric_scooter", "is_disabled": 0, "lat": 38.9156105, "rental_uris": {"ios": "https://dc.lft.to/lastmile_qr_scan", "android": "https://dc.lft.to/lastmile_qr_scan"}, "is_reserved": 0, "fusion_lon": 0.0, "fusion_lat": 0.0, "lon": -77.0312785, "name": "bfcad871eb230cef6d1e07a4f36635ad"}, {"bike_id": "05b11db1b89474cafae7d15cf72a683b", "type": "electric_scooter", "is_disabled": 0, "lat": 38.9057455, "rental_uris": {"ios": "https://dc.lft.to/lastmile_qr_scan", "android": "https://dc.lft.to/lastmile_qr_scan"}, "is_reserved": 0, "fusion_lon": 0.0, "fusion_lat": 0.0, "lon": -77.00576416666667, "name": "05b11db1b89474cafae7d15cf72a683b"}, {"bike_id": "54214b33568dec16a5dcfd7de7150d4b", "type": "electric_scooter", "is_disabled": 0, "lat": 38.880614666666666, "rental_uris": {"ios": "https://dc.lft.to/lastmile_qr_scan", "android": "https://dc.lft.to/lastmile_qr_scan"}, "is_reserved": 0, "fusion_lon": 0.0, "fusion_lat": 0.0, "lon": -76.932158, "name": "54214b33568dec16a5dcfd7de7150d4b"}, {"bike_id": "83784e0ae34a570ae94f1591cfafb274", "type": "electric_scooter", "is_disabled": 0, "lat": 38.91507433333334, "rental_uris": {"ios": "https://dc.lft.to/lastmile_qr_scan", "android": "https://dc.lft.to/lastmile_qr_scan"}, "is_reserved": 0, "fusion_lon": 0.0, "fusion_lat": 0.0, "lon": -77.02187616666667, "name": "83784e0ae34a570ae94f1591cfafb274"}, {"bike_id": "b66c7e668f3798099fc3fe77427da8ec", "type": "electric_scooter", "is_disabled": 0, "lat": 38.928010666666665, "rental_uris": {"ios": "https://dc.lft.to/lastmile_qr_scan", "android": "https://dc.lft.to/lastmile_qr_scan"}, "is_reserved": 0, "fusion_lon": 0.0, "fusion_lat": 0.0, "lon": -77.02365033333334, "name": "b66c7e668f3798099fc3fe77427da8ec"}, {"bike_id": "4363a9c312ee0e3f7fdd3a67a1bc179c", "type": "electric_scooter", "is_disabled": 0, "lat": 38.924788, "rental_uris": {"ios": "https://dc.lft.to/lastmile_qr_scan", "android": "https://dc.lft.to/lastmile_qr_scan"}, "is_reserved": 0, "fusion_lon": 0.0, "fusion_lat": 0.0, "lon": -77.05218766666667, "name": "4363a9c312ee0e3f7fdd3a67a1bc179c"}, {"bike_id": "ff1ed7e9d8219fe47054826250f786b9", "type": "electric_scooter", "is_disabled": 0, "lat": 38.916614, "rental_uris": {"ios": "https://dc.lft.to/lastmile_qr_scan", "android": "https://dc.lft.to/lastmile_qr_scan"}, "is_reserved": 0, "fusion_lon": 0.0, "fusion_lat": 0.0, "lon": -77.02890033333334, "name": "ff1ed7e9d8219fe47054826250f786b9"}, {"bike_id": "591e79fe52bfabd33a6083355cdb7fe9", "type": "electric_scooter", "is_disabled": 0, "lat": 38.88742366666666, "rental_uris": {"ios": "https://dc.lft.to/lastmile_qr_scan", "android": "https://dc.lft.to/lastmile_qr_scan"}, "is_reserved": 0, "fusion_lon": 0.0, "fusion_lat": 0.0, "lon": -76.9962375, "name": "591e79fe52bfabd33a6083355cdb7fe9"}, {"bike_id": "c6bea038802b8d54c29808535d9a3a1f", "type": "electric_scooter", "is_disabled": 0, "lat": 38.90790333333333, "rental_uris": {"ios": "https://dc.lft.to/lastmile_qr_scan", "android": "https://dc.lft.to/lastmile_qr_scan"}, "is_reserved": 0, "fusion_lon": 0.0, "fusion_lat": 0.0, "lon": -77.0386425, "name": "c6bea038802b8d54c29808535d9a3a1f"}, {"bike_id": "abda46c7cb36a4222e9caa1985c26d1b", "type": "electric_bike", "is_disabled": 0, "lat": 38.87985283333333, "rental_uris": {"ios": "https://dc.lft.to/lastmile_qr_scan", "android": "https://dc.lft.to/lastmile_qr_scan"}, "is_reserved": 0, "fusion_lon": 0.0, "fusion_lat": 0.0, "lon": -76.915964, "name": "abda46c7cb36a4222e9caa1985c26d1b"}, {"bike_id": "e1d60e4280b5c6babce2ced756093fc3", "type": "electric_scooter", "is_disabled": 0, "lat": 38.888553, "rental_uris": {"ios": "https://dc.lft.to/lastmile_qr_scan", "android": "https://dc.lft.to/lastmile_qr_scan"}, "is_reserved": 0, "fusion_lon": 0.0, "fusion_lat": 0.0, "lon": -77.0005285, "name": "e1d60e4280b5c6babce2ced756093fc3"}, {"bike_id": "7481f02706b1795760811bbb88a6fcfc", "type": "electric_scooter", "is_disabled": 0, "lat": 38.91863416666666, "rental_uris": {"ios": "https://dc.lft.to/lastmile_qr_scan", "android": "https://dc.lft.to/lastmile_qr_scan"}, "is_reserved": 0, "fusion_lon": 0.0, "fusion_lat": 0.0, "lon": -77.0476505, "name": "7481f02706b1795760811bbb88a6fcfc"}, {"bike_id": "8f57f150953132e904d6b4b584ebf22e", "type": "electric_scooter", "is_disabled": 0, "lat": 38.93147733333333, "rental_uris": {"ios": "https://dc.lft.to/lastmile_qr_scan", "android": "https://dc.lft.to/lastmile_qr_scan"}, "is_reserved": 0, "fusion_lon": 0.0, "fusion_lat": 0.0, "lon": -77.033504, "name": "8f57f150953132e904d6b4b584ebf22e"}, {"bike_id": "b9d9905a2f62dc562f48a1c72fe5d28d", "type": "electric_scooter", "is_disabled": 0, "lat": 38.921643333333336, "rental_uris": {"ios": "https://dc.lft.to/lastmile_qr_scan", "android": "https://dc.lft.to/lastmile_qr_scan"}, "is_reserved": 0, "fusion_lon": 0.0, "fusion_lat": 0.0, "lon": -77.03326633333333, "name": "b9d9905a2f62dc562f48a1c72fe5d28d"}, {"bike_id": "d57325145060f7af8eddf377d14da29e", "type": "electric_scooter", "is_disabled": 0, "lat": 38.911361, "rental_uris": {"ios": "https://dc.lft.to/lastmile_qr_scan", "android": "https://dc.lft.to/lastmile_qr_scan"}, "is_reserved": 0, "fusion_lon": 0.0, "fusion_lat": 0.0, "lon": -77.06539816666667, "name": "d57325145060f7af8eddf377d14da29e"}, {"bike_id": "393a42f3496969610047c1a6eabd244e", "type": "electric_scooter", "is_disabled": 0, "lat": 38.909630666666665, "rental_uris": {"ios": "https://dc.lft.to/lastmile_qr_scan", "android": "https://dc.lft.to/lastmile_qr_scan"}, "is_reserved": 0, "fusion_lon": 0.0, "fusion_lat": 0.0, "lon": -77.03223566666666, "name": "393a42f3496969610047c1a6eabd244e"}, {"bike_id": "30bb4d0886bca63b03a6610a9985a825", "type": "electric_scooter", "is_disabled": 0, "lat": 38.90392166666667, "rental_uris": {"ios": "https://dc.lft.to/lastmile_qr_scan", "android": "https://dc.lft.to/lastmile_qr_scan"}, "is_reserved": 0, "fusion_lon": 0.0, "fusion_lat": 0.0, "lon": -77.06863616666666, "name": "30bb4d0886bca63b03a6610a9985a825"}, {"bike_id": "7c15c8bec64cd23fca2cdfd49a95929b", "type": "electric_scooter", "is_disabled": 0, "lat": 38.90420366666667, "rental_uris": {"ios": "https://dc.lft.to/lastmile_qr_scan", "android": "https://dc.lft.to/lastmile_qr_scan"}, "is_reserved": 0, "fusion_lon": 0.0, "fusion_lat": 0.0, "lon": -77.0546095, "name": "7c15c8bec64cd23fca2cdfd49a95929b"}, {"bike_id": "673a797b923aefcc0690247e5beb115c", "type": "electric_scooter", "is_disabled": 0, "lat": 38.9127535, "rental_uris": {"ios": "https://dc.lft.to/lastmile_qr_scan", "android": "https://dc.lft.to/lastmile_qr_scan"}, "is_reserved": 0, "fusion_lon": 0.0, "fusion_lat": 0.0, "lon": -77.0515865, "name": "673a797b923aefcc0690247e5beb115c"}, {"bike_id": "49e0c6c92aacb2a358cc1f86695e4419", "type": "electric_scooter", "is_disabled": 0, "lat": 38.9226785, "rental_uris": {"ios": "https://dc.lft.to/lastmile_qr_scan", "android": "https://dc.lft.to/lastmile_qr_scan"}, "is_reserved": 0, "fusion_lon": 0.0, "fusion_lat": 0.0, "lon": -76.99135333333334, "name": "49e0c6c92aacb2a358cc1f86695e4419"}, {"bike_id": "59cddf9a8268f8f5b4a9893db385408a", "type": "electric_scooter", "is_disabled": 0, "lat": 38.916932833333334, "rental_uris": {"ios": "https://dc.lft.to/lastmile_qr_scan", "android": "https://dc.lft.to/lastmile_qr_scan"}, "is_reserved": 0, "fusion_lon": 0.0, "fusion_lat": 0.0, "lon": -77.0321055, "name": "59cddf9a8268f8f5b4a9893db385408a"}, {"bike_id": "0232fd0581812b3f86e23da74d997dda", "type": "electric_scooter", "is_disabled": 0, "lat": 38.929005333333336, "rental_uris": {"ios": "https://dc.lft.to/lastmile_qr_scan", "android": "https://dc.lft.to/lastmile_qr_scan"}, "is_reserved": 0, "fusion_lon": 0.0, "fusion_lat": 0.0, "lon": -77.03268083333333, "name": "0232fd0581812b3f86e23da74d997dda"}, {"bike_id": "e9ef9fd078751a407782ae538f827ffd", "type": "electric_scooter", "is_disabled": 0, "lat": 38.91867716666667, "rental_uris": {"ios": "https://dc.lft.to/lastmile_qr_scan", "android": "https://dc.lft.to/lastmile_qr_scan"}, "is_reserved": 0, "fusion_lon": 0.0, "fusion_lat": 0.0, "lon": -77.01510633333334, "name": "e9ef9fd078751a407782ae538f827ffd"}, {"bike_id": "597071c83302150497fb9559f89b605c", "type": "electric_scooter", "is_disabled": 0, "lat": 38.882679333333336, "rental_uris": {"ios": "https://dc.lft.to/lastmile_qr_scan", "android": "https://dc.lft.to/lastmile_qr_scan"}, "is_reserved": 0, "fusion_lon": 0.0, "fusion_lat": 0.0, "lon": -76.992505, "name": "597071c83302150497fb9559f89b605c"}, {"bike_id": "68527e16296990eadbb19560e6ee6c7c", "type": "electric_scooter", "is_disabled": 0, "lat": 38.9432805, "rental_uris": {"ios": "https://dc.lft.to/lastmile_qr_scan", "android": "https://dc.lft.to/lastmile_qr_scan"}, "is_reserved": 0, "fusion_lon": 0.0, "fusion_lat": 0.0, "lon": -77.01478383333334, "name": "68527e16296990eadbb19560e6ee6c7c"}, {"bike_id": "4d69e865fcf6b06f6daed5f717f11919", "type": "electric_scooter", "is_disabled": 0, "lat": 38.900376666666666, "rental_uris": {"ios": "https://dc.lft.to/lastmile_qr_scan", "android": "https://dc.lft.to/lastmile_qr_scan"}, "is_reserved": 0, "fusion_lon": 0.0, "fusion_lat": 0.0, "lon": -77.03519133333333, "name": "4d69e865fcf6b06f6daed5f717f11919"}, {"bike_id": "62c8776eabf33efe43973334e42e657f", "type": "electric_scooter", "is_disabled": 0, "lat": 38.907214833333335, "rental_uris": {"ios": "https://dc.lft.to/lastmile_qr_scan", "android": "https://dc.lft.to/lastmile_qr_scan"}, "is_reserved": 0, "fusion_lon": 0.0, "fusion_lat": 0.0, "lon": -77.0344255, "name": "62c8776eabf33efe43973334e42e657f"}, {"bike_id": "e19f6b468139d7e64647efaf3a9c4e2b", "type": "electric_scooter", "is_disabled": 0, "lat": 38.89828133333334, "rental_uris": {"ios": "https://dc.lft.to/lastmile_qr_scan", "android": "https://dc.lft.to/lastmile_qr_scan"}, "is_reserved": 0, "fusion_lon": 0.0, "fusion_lat": 0.0, "lon": -77.0456395, "name": "e19f6b468139d7e64647efaf3a9c4e2b"}, {"bike_id": "2d1e2b45ec64e730b8d4d5b6ecdc9969", "type": "electric_scooter", "is_disabled": 0, "lat": 38.8922315, "rental_uris": {"ios": "https://dc.lft.to/lastmile_qr_scan", "android": "https://dc.lft.to/lastmile_qr_scan"}, "is_reserved": 0, "fusion_lon": 0.0, "fusion_lat": 0.0, "lon": -77.03975616666666, "name": "2d1e2b45ec64e730b8d4d5b6ecdc9969"}, {"bike_id": "0e40de40a1a3758009842416ddfd3e44", "type": "electric_scooter", "is_disabled": 0, "lat": 38.90250366666667, "rental_uris": {"ios": "https://dc.lft.to/lastmile_qr_scan", "android": "https://dc.lft.to/lastmile_qr_scan"}, "is_reserved": 0, "fusion_lon": 0.0, "fusion_lat": 0.0, "lon": -77.026737, "name": "0e40de40a1a3758009842416ddfd3e44"}, {"bike_id": "f672da63492e4e9146b1375ceed556d3", "type": "electric_scooter", "is_disabled": 0, "lat": 38.91027733333333, "rental_uris": {"ios": "https://dc.lft.to/lastmile_qr_scan", "android": "https://dc.lft.to/lastmile_qr_scan"}, "is_reserved": 0, "fusion_lon": 0.0, "fusion_lat": 0.0, "lon": -77.0281655, "name": "f672da63492e4e9146b1375ceed556d3"}, {"bike_id": "02d9cef0e2c97f5f683f83b42bf5720d", "type": "electric_scooter", "is_disabled": 0, "lat": 38.91077583333333, "rental_uris": {"ios": "https://dc.lft.to/lastmile_qr_scan", "android": "https://dc.lft.to/lastmile_qr_scan"}, "is_reserved": 0, "fusion_lon": 0.0, "fusion_lat": 0.0, "lon": -77.0219355, "name": "02d9cef0e2c97f5f683f83b42bf5720d"}, {"bike_id": "ae4616927bb5963663984b26fc11374a", "type": "electric_scooter", "is_disabled": 0, "lat": 38.925152, "rental_uris": {"ios": "https://dc.lft.to/lastmile_qr_scan", "android": "https://dc.lft.to/lastmile_qr_scan"}, "is_reserved": 0, "fusion_lon": 0.0, "fusion_lat": 0.0, "lon": -77.02252316666667, "name": "ae4616927bb5963663984b26fc11374a"}, {"bike_id": "f5f65b7f7f34726ff163025947f0bc55", "type": "electric_scooter", "is_disabled": 0, "lat": 38.921458, "rental_uris": {"ios": "https://dc.lft.to/lastmile_qr_scan", "android": "https://dc.lft.to/lastmile_qr_scan"}, "is_reserved": 0, "fusion_lon": 0.0, "fusion_lat": 0.0, "lon": -77.03880366666667, "name": "f5f65b7f7f34726ff163025947f0bc55"}, {"bike_id": "356317f456e41e98dba84bbaa8b21867", "type": "electric_scooter", "is_disabled": 0, "lat": 38.922632666666665, "rental_uris": {"ios": "https://dc.lft.to/lastmile_qr_scan", "android": "https://dc.lft.to/lastmile_qr_scan"}, "is_reserved": 0, "fusion_lon": 0.0, "fusion_lat": 0.0, "lon": -77.03395666666667, "name": "356317f456e41e98dba84bbaa8b21867"}, {"bike_id": "63456a43fb3c5e57627de8257216c3a5", "type": "electric_scooter", "is_disabled": 0, "lat": 38.91787883333333, "rental_uris": {"ios": "https://dc.lft.to/lastmile_qr_scan", "android": "https://dc.lft.to/lastmile_qr_scan"}, "is_reserved": 0, "fusion_lon": 0.0, "fusion_lat": 0.0, "lon": -77.02434816666667, "name": "63456a43fb3c5e57627de8257216c3a5"}, {"bike_id": "28fc6f33321a7b730c20c6987d9bc4fc", "type": "electric_bike", "is_disabled": 0, "lat": 38.94116833333333, "rental_uris": {"ios": "https://dc.lft.to/lastmile_qr_scan", "android": "https://dc.lft.to/lastmile_qr_scan"}, "is_reserved": 0, "fusion_lon": 0.0, "fusion_lat": 0.0, "lon": -77.06195733333334, "name": "28fc6f33321a7b730c20c6987d9bc4fc"}, {"bike_id": "bfb99c35700ef2a783d8396c95b26827", "type": "electric_scooter", "is_disabled": 0, "lat": 38.92913716666666, "rental_uris": {"ios": "https://dc.lft.to/lastmile_qr_scan", "android": "https://dc.lft.to/lastmile_qr_scan"}, "is_reserved": 0, "fusion_lon": 0.0, "fusion_lat": 0.0, "lon": -77.03275833333333, "name": "bfb99c35700ef2a783d8396c95b26827"}, {"bike_id": "5c879d61b486a4abf5b07a5bb7d2390b", "type": "electric_scooter", "is_disabled": 0, "lat": 38.91807133333333, "rental_uris": {"ios": "https://dc.lft.to/lastmile_qr_scan", "android": "https://dc.lft.to/lastmile_qr_scan"}, "is_reserved": 0, "fusion_lon": 0.0, "fusion_lat": 0.0, "lon": -77.03438616666666, "name": "5c879d61b486a4abf5b07a5bb7d2390b"}, {"bike_id": "deb242b02cf381d335f408705664c398", "type": "electric_scooter", "is_disabled": 0, "lat": 38.89743716666667, "rental_uris": {"ios": "https://dc.lft.to/lastmile_qr_scan", "android": "https://dc.lft.to/lastmile_qr_scan"}, "is_reserved": 0, "fusion_lon": 0.0, "fusion_lat": 0.0, "lon": -77.000065, "name": "deb242b02cf381d335f408705664c398"}, {"bike_id": "9361cf24d54ebac40a6748db31a6339e", "type": "electric_scooter", "is_disabled": 0, "lat": 38.895451666666666, "rental_uris": {"ios": "https://dc.lft.to/lastmile_qr_scan", "android": "https://dc.lft.to/lastmile_qr_scan"}, "is_reserved": 0, "fusion_lon": 0.0, "fusion_lat": 0.0, "lon": -76.9294725, "name": "9361cf24d54ebac40a6748db31a6339e"}, {"bike_id": "131c7cc4b3b0c318b8125c876fbf5135", "type": "electric_scooter", "is_disabled": 0, "lat": 38.93109666666667, "rental_uris": {"ios": "https://dc.lft.to/lastmile_qr_scan", "android": "https://dc.lft.to/lastmile_qr_scan"}, "is_reserved": 0, "fusion_lon": 0.0, "fusion_lat": 0.0, "lon": -77.03036983333334, "name": "131c7cc4b3b0c318b8125c876fbf5135"}, {"bike_id": "dfe2f88a395b5d41a8bfcfb485b24074", "type": "electric_scooter", "is_disabled": 0, "lat": 38.872876833333336, "rental_uris": {"ios": "https://dc.lft.to/lastmile_qr_scan", "android": "https://dc.lft.to/lastmile_qr_scan"}, "is_reserved": 0, "fusion_lon": 0.0, "fusion_lat": 0.0, "lon": -76.97724433333333, "name": "dfe2f88a395b5d41a8bfcfb485b24074"}, {"bike_id": "8818b47dbea34a4937abbb25a66e74dd", "type": "electric_scooter", "is_disabled": 0, "lat": 38.920451166666666, "rental_uris": {"ios": "https://dc.lft.to/lastmile_qr_scan", "android": "https://dc.lft.to/lastmile_qr_scan"}, "is_reserved": 0, "fusion_lon": 0.0, "fusion_lat": 0.0, "lon": -77.0339805, "name": "8818b47dbea34a4937abbb25a66e74dd"}, {"bike_id": "6cfb78068c7ecf6d4a0986750688d69e", "type": "electric_scooter", "is_disabled": 0, "lat": 38.91306516666667, "rental_uris": {"ios": "https://dc.lft.to/lastmile_qr_scan", "android": "https://dc.lft.to/lastmile_qr_scan"}, "is_reserved": 0, "fusion_lon": 0.0, "fusion_lat": 0.0, "lon": -77.04675666666667, "name": "6cfb78068c7ecf6d4a0986750688d69e"}, {"bike_id": "30989a515cbe0693d84eca80552a8a7e", "type": "electric_scooter", "is_disabled": 0, "lat": 38.90974833333333, "rental_uris": {"ios": "https://dc.lft.to/lastmile_qr_scan", "android": "https://dc.lft.to/lastmile_qr_scan"}, "is_reserved": 0, "fusion_lon": 0.0, "fusion_lat": 0.0, "lon": -77.0334945, "name": "30989a515cbe0693d84eca80552a8a7e"}, {"bike_id": "e01f62705f89d3c8e897395f8f4b20ec", "type": "electric_scooter", "is_disabled": 0, "lat": 38.894975333333335, "rental_uris": {"ios": "https://dc.lft.to/lastmile_qr_scan", "android": "https://dc.lft.to/lastmile_qr_scan"}, "is_reserved": 0, "fusion_lon": 0.0, "fusion_lat": 0.0, "lon": -77.000625, "name": "e01f62705f89d3c8e897395f8f4b20ec"}, {"bike_id": "2888224da6c17de3069f1b026c60891f", "type": "electric_scooter", "is_disabled": 0, "lat": 38.91555016666667, "rental_uris": {"ios": "https://dc.lft.to/lastmile_qr_scan", "android": "https://dc.lft.to/lastmile_qr_scan"}, "is_reserved": 0, "fusion_lon": 0.0, "fusion_lat": 0.0, "lon": -77.03180683333333, "name": "2888224da6c17de3069f1b026c60891f"}, {"bike_id": "35e0d8cc3cb80c241d750aef8fecf904", "type": "electric_scooter", "is_disabled": 0, "lat": 38.90948383333333, "rental_uris": {"ios": "https://dc.lft.to/lastmile_qr_scan", "android": "https://dc.lft.to/lastmile_qr_scan"}, "is_reserved": 0, "fusion_lon": 0.0, "fusion_lat": 0.0, "lon": -77.05566666666667, "name": "35e0d8cc3cb80c241d750aef8fecf904"}, {"bike_id": "4629dbeff1fdf8841ee03a3fccb74c0b", "type": "electric_scooter", "is_disabled": 0, "lat": 38.9110375, "rental_uris": {"ios": "https://dc.lft.to/lastmile_qr_scan", "android": "https://dc.lft.to/lastmile_qr_scan"}, "is_reserved": 0, "fusion_lon": 0.0, "fusion_lat": 0.0, "lon": -77.01149166666667, "name": "4629dbeff1fdf8841ee03a3fccb74c0b"}, {"bike_id": "5cc95dea439e47d11f247c8e060b7032", "type": "electric_scooter", "is_disabled": 0, "lat": 38.844326833333334, "rental_uris": {"ios": "https://dc.lft.to/lastmile_qr_scan", "android": "https://dc.lft.to/lastmile_qr_scan"}, "is_reserved": 0, "fusion_lon": 0.0, "fusion_lat": 0.0, "lon": -76.99869616666666, "name": "5cc95dea439e47d11f247c8e060b7032"}, {"bike_id": "9cb1e98475a055f931a3b3a9e2c3b146", "type": "electric_scooter", "is_disabled": 0, "lat": 38.93398716666667, "rental_uris": {"ios": "https://dc.lft.to/lastmile_qr_scan", "android": "https://dc.lft.to/lastmile_qr_scan"}, "is_reserved": 0, "fusion_lon": 0.0, "fusion_lat": 0.0, "lon": -77.03522466666666, "name": "9cb1e98475a055f931a3b3a9e2c3b146"}, {"bike_id": "139b79aa94e46f6dbe5ab83965ece0fe", "type": "electric_scooter", "is_disabled": 0, "lat": 38.90836133333333, "rental_uris": {"ios": "https://dc.lft.to/lastmile_qr_scan", "android": "https://dc.lft.to/lastmile_qr_scan"}, "is_reserved": 0, "fusion_lon": 0.0, "fusion_lat": 0.0, "lon": -77.0197595, "name": "139b79aa94e46f6dbe5ab83965ece0fe"}, {"bike_id": "5abc5839338cda6a3108b76cf404d754", "type": "electric_scooter", "is_disabled": 0, "lat": 38.90700483333333, "rental_uris": {"ios": "https://dc.lft.to/lastmile_qr_scan", "android": "https://dc.lft.to/lastmile_qr_scan"}, "is_reserved": 0, "fusion_lon": 0.0, "fusion_lat": 0.0, "lon": -77.04190983333334, "name": "5abc5839338cda6a3108b76cf404d754"}, {"bike_id": "6df893cf24acda4546cd541ba46d8841", "type": "electric_scooter", "is_disabled": 0, "lat": 38.91722166666667, "rental_uris": {"ios": "https://dc.lft.to/lastmile_qr_scan", "android": "https://dc.lft.to/lastmile_qr_scan"}, "is_reserved": 0, "fusion_lon": 0.0, "fusion_lat": 0.0, "lon": -77.0366435, "name": "6df893cf24acda4546cd541ba46d8841"}, {"bike_id": "40e2ce49946ae60434dd3061b76a54f8", "type": "electric_scooter", "is_disabled": 0, "lat": 38.9384585, "rental_uris": {"ios": "https://dc.lft.to/lastmile_qr_scan", "android": "https://dc.lft.to/lastmile_qr_scan"}, "is_reserved": 0, "fusion_lon": 0.0, "fusion_lat": 0.0, "lon": -77.07232833333333, "name": "40e2ce49946ae60434dd3061b76a54f8"}, {"bike_id": "7c989acd20ed1ebdf67e97d170639903", "type": "electric_scooter", "is_disabled": 0, "lat": 38.9097645, "rental_uris": {"ios": "https://dc.lft.to/lastmile_qr_scan", "android": "https://dc.lft.to/lastmile_qr_scan"}, "is_reserved": 0, "fusion_lon": 0.0, "fusion_lat": 0.0, "lon": -77.01512216666667, "name": "7c989acd20ed1ebdf67e97d170639903"}, {"bike_id": "58e9cb6fce48d8ba739e3a1c926f3aaf", "type": "electric_scooter", "is_disabled": 0, "lat": 38.92488933333333, "rental_uris": {"ios": "https://dc.lft.to/lastmile_qr_scan", "android": "https://dc.lft.to/lastmile_qr_scan"}, "is_reserved": 0, "fusion_lon": 0.0, "fusion_lat": 0.0, "lon": -77.05211133333333, "name": "58e9cb6fce48d8ba739e3a1c926f3aaf"}, {"bike_id": "f9b5526c4b021d008387ec5cb34bc115", "type": "electric_scooter", "is_disabled": 0, "lat": 38.94411183333333, "rental_uris": {"ios": "https://dc.lft.to/lastmile_qr_scan", "android": "https://dc.lft.to/lastmile_qr_scan"}, "is_reserved": 0, "fusion_lon": 0.0, "fusion_lat": 0.0, "lon": -77.00738083333333, "name": "f9b5526c4b021d008387ec5cb34bc115"}, {"bike_id": "a01518bca2e9223f689692e54f07cd47", "type": "electric_scooter", "is_disabled": 0, "lat": 38.911044833333335, "rental_uris": {"ios": "https://dc.lft.to/lastmile_qr_scan", "android": "https://dc.lft.to/lastmile_qr_scan"}, "is_reserved": 0, "fusion_lon": 0.0, "fusion_lat": 0.0, "lon": -77.03837483333334, "name": "a01518bca2e9223f689692e54f07cd47"}, {"bike_id": "9a037f3c64d234410d1a6d3e01b7c9da", "type": "electric_scooter", "is_disabled": 0, "lat": 38.92141383333333, "rental_uris": {"ios": "https://dc.lft.to/lastmile_qr_scan", "android": "https://dc.lft.to/lastmile_qr_scan"}, "is_reserved": 0, "fusion_lon": 0.0, "fusion_lat": 0.0, "lon": -77.01804866666667, "name": "9a037f3c64d234410d1a6d3e01b7c9da"}, {"bike_id": "bfa0a3e8dd9c0ac294e281ed61ca875e", "type": "electric_scooter", "is_disabled": 0, "lat": 38.93531316666667, "rental_uris": {"ios": "https://dc.lft.to/lastmile_qr_scan", "android": "https://dc.lft.to/lastmile_qr_scan"}, "is_reserved": 0, "fusion_lon": 0.0, "fusion_lat": 0.0, "lon": -77.0340945, "name": "bfa0a3e8dd9c0ac294e281ed61ca875e"}, {"bike_id": "53c88cf8c3e17889a7ffcbf86bf94476", "type": "electric_scooter", "is_disabled": 0, "lat": 38.86175433333333, "rental_uris": {"ios": "https://dc.lft.to/lastmile_qr_scan", "android": "https://dc.lft.to/lastmile_qr_scan"}, "is_reserved": 0, "fusion_lon": 0.0, "fusion_lat": 0.0, "lon": -77.08839033333334, "name": "53c88cf8c3e17889a7ffcbf86bf94476"}, {"bike_id": "c89de3e8ed302303ca7dced5d33dfb9b", "type": "electric_scooter", "is_disabled": 0, "lat": 38.8888795, "rental_uris": {"ios": "https://dc.lft.to/lastmile_qr_scan", "android": "https://dc.lft.to/lastmile_qr_scan"}, "is_reserved": 0, "fusion_lon": 0.0, "fusion_lat": 0.0, "lon": -77.033273, "name": "c89de3e8ed302303ca7dced5d33dfb9b"}, {"bike_id": "72385bfff668492618a2f645e38245fc", "type": "electric_scooter", "is_disabled": 0, "lat": 38.92595516666667, "rental_uris": {"ios": "https://dc.lft.to/lastmile_qr_scan", "android": "https://dc.lft.to/lastmile_qr_scan"}, "is_reserved": 0, "fusion_lon": 0.0, "fusion_lat": 0.0, "lon": -77.07327866666667, "name": "72385bfff668492618a2f645e38245fc"}, {"bike_id": "481caa68b17b5f7a4a468e3db25ef34c", "type": "electric_scooter", "is_disabled": 0, "lat": 38.937354666666664, "rental_uris": {"ios": "https://dc.lft.to/lastmile_qr_scan", "android": "https://dc.lft.to/lastmile_qr_scan"}, "is_reserved": 0, "fusion_lon": 0.0, "fusion_lat": 0.0, "lon": -77.02449916666667, "name": "481caa68b17b5f7a4a468e3db25ef34c"}, {"bike_id": "bb7e4f37c4aaddfe24bfa15ade8af1ce", "type": "electric_scooter", "is_disabled": 0, "lat": 38.9139555, "rental_uris": {"ios": "https://dc.lft.to/lastmile_qr_scan", "android": "https://dc.lft.to/lastmile_qr_scan"}, "is_reserved": 0, "fusion_lon": 0.0, "fusion_lat": 0.0, "lon": -77.01792933333333, "name": "bb7e4f37c4aaddfe24bfa15ade8af1ce"}, {"bike_id": "86530a1bd308d409857a8a98a7766e4a", "type": "electric_scooter", "is_disabled": 0, "lat": 38.928611, "rental_uris": {"ios": "https://dc.lft.to/lastmile_qr_scan", "android": "https://dc.lft.to/lastmile_qr_scan"}, "is_reserved": 0, "fusion_lon": 0.0, "fusion_lat": 0.0, "lon": -77.03715566666666, "name": "86530a1bd308d409857a8a98a7766e4a"}, {"bike_id": "1ba2104f4a865b84aff2199b808ed393", "type": "electric_scooter", "is_disabled": 0, "lat": 38.9127235, "rental_uris": {"ios": "https://dc.lft.to/lastmile_qr_scan", "android": "https://dc.lft.to/lastmile_qr_scan"}, "is_reserved": 0, "fusion_lon": 0.0, "fusion_lat": 0.0, "lon": -77.022098, "name": "1ba2104f4a865b84aff2199b808ed393"}, {"bike_id": "53a18fdf46acac2e4c984b5dff45539f", "type": "electric_scooter", "is_disabled": 0, "lat": 38.91267466666667, "rental_uris": {"ios": "https://dc.lft.to/lastmile_qr_scan", "android": "https://dc.lft.to/lastmile_qr_scan"}, "is_reserved": 0, "fusion_lon": 0.0, "fusion_lat": 0.0, "lon": -77.02209883333333, "name": "53a18fdf46acac2e4c984b5dff45539f"}, {"bike_id": "9ef677cdae3794e4e803152405fdac92", "type": "electric_scooter", "is_disabled": 0, "lat": 38.918173, "rental_uris": {"ios": "https://dc.lft.to/lastmile_qr_scan", "android": "https://dc.lft.to/lastmile_qr_scan"}, "is_reserved": 0, "fusion_lon": 0.0, "fusion_lat": 0.0, "lon": -77.00254433333333, "name": "9ef677cdae3794e4e803152405fdac92"}, {"bike_id": "f7996bcfa2154197c24eff92b4d8d857", "type": "electric_scooter", "is_disabled": 0, "lat": 38.92191183333333, "rental_uris": {"ios": "https://dc.lft.to/lastmile_qr_scan", "android": "https://dc.lft.to/lastmile_qr_scan"}, "is_reserved": 0, "fusion_lon": 0.0, "fusion_lat": 0.0, "lon": -77.03800633333333, "name": "f7996bcfa2154197c24eff92b4d8d857"}, {"bike_id": "85b76d0216e6feca991c7410ec80c9c2", "type": "electric_scooter", "is_disabled": 0, "lat": 38.91988416666667, "rental_uris": {"ios": "https://dc.lft.to/lastmile_qr_scan", "android": "https://dc.lft.to/lastmile_qr_scan"}, "is_reserved": 0, "fusion_lon": 0.0, "fusion_lat": 0.0, "lon": -77.0396515, "name": "85b76d0216e6feca991c7410ec80c9c2"}, {"bike_id": "baaf4c3543512aa402298a5d20effa01", "type": "electric_scooter", "is_disabled": 0, "lat": 38.914219833333334, "rental_uris": {"ios": "https://dc.lft.to/lastmile_qr_scan", "android": "https://dc.lft.to/lastmile_qr_scan"}, "is_reserved": 0, "fusion_lon": 0.0, "fusion_lat": 0.0, "lon": -77.0230685, "name": "baaf4c3543512aa402298a5d20effa01"}, {"bike_id": "5b188afeb3e91d1306101103dc43ff4a", "type": "electric_scooter", "is_disabled": 0, "lat": 38.917889333333335, "rental_uris": {"ios": "https://dc.lft.to/lastmile_qr_scan", "android": "https://dc.lft.to/lastmile_qr_scan"}, "is_reserved": 0, "fusion_lon": 0.0, "fusion_lat": 0.0, "lon": -77.02320383333333, "name": "5b188afeb3e91d1306101103dc43ff4a"}, {"bike_id": "3cacb6a3dcfb220bb7fb2258eaefe0d5", "type": "electric_scooter", "is_disabled": 0, "lat": 38.91768066666667, "rental_uris": {"ios": "https://dc.lft.to/lastmile_qr_scan", "android": "https://dc.lft.to/lastmile_qr_scan"}, "is_reserved": 0, "fusion_lon": 0.0, "fusion_lat": 0.0, "lon": -77.04768183333333, "name": "3cacb6a3dcfb220bb7fb2258eaefe0d5"}, {"bike_id": "ee8f65a6579bdf610b201cf19c4c8067", "type": "electric_scooter", "is_disabled": 0, "lat": 38.916841166666664, "rental_uris": {"ios": "https://dc.lft.to/lastmile_qr_scan", "android": "https://dc.lft.to/lastmile_qr_scan"}, "is_reserved": 0, "fusion_lon": 0.0, "fusion_lat": 0.0, "lon": -77.02362383333333, "name": "ee8f65a6579bdf610b201cf19c4c8067"}, {"bike_id": "3bf59965db22f9117a9a6058a66fd7c6", "type": "electric_bike", "is_disabled": 0, "lat": 38.86263366666667, "rental_uris": {"ios": "https://dc.lft.to/lastmile_qr_scan", "android": "https://dc.lft.to/lastmile_qr_scan"}, "is_reserved": 0, "fusion_lon": 0.0, "fusion_lat": 0.0, "lon": -76.983583, "name": "3bf59965db22f9117a9a6058a66fd7c6"}, {"bike_id": "972233cda1c5a1657cbdf924d7cd6e16", "type": "electric_scooter", "is_disabled": 0, "lat": 38.91344866666667, "rental_uris": {"ios": "https://dc.lft.to/lastmile_qr_scan", "android": "https://dc.lft.to/lastmile_qr_scan"}, "is_reserved": 0, "fusion_lon": 0.0, "fusion_lat": 0.0, "lon": -77.02569133333333, "name": "972233cda1c5a1657cbdf924d7cd6e16"}, {"bike_id": "9f959ebe2d5334f1a2cf4e518b74df6e", "type": "electric_scooter", "is_disabled": 0, "lat": 38.924802, "rental_uris": {"ios": "https://dc.lft.to/lastmile_qr_scan", "android": "https://dc.lft.to/lastmile_qr_scan"}, "is_reserved": 0, "fusion_lon": 0.0, "fusion_lat": 0.0, "lon": -77.026341, "name": "9f959ebe2d5334f1a2cf4e518b74df6e"}, {"bike_id": "f85657dd3d4945b63c9ae846d834927b", "type": "electric_scooter", "is_disabled": 0, "lat": 38.908814, "rental_uris": {"ios": "https://dc.lft.to/lastmile_qr_scan", "android": "https://dc.lft.to/lastmile_qr_scan"}, "is_reserved": 0, "fusion_lon": 0.0, "fusion_lat": 0.0, "lon": -77.0028215, "name": "f85657dd3d4945b63c9ae846d834927b"}, {"bike_id": "5ca032ffdd31511b5a7e016f7c6753b7", "type": "electric_scooter", "is_disabled": 0, "lat": 38.92109933333333, "rental_uris": {"ios": "https://dc.lft.to/lastmile_qr_scan", "android": "https://dc.lft.to/lastmile_qr_scan"}, "is_reserved": 0, "fusion_lon": 0.0, "fusion_lat": 0.0, "lon": -77.043882, "name": "5ca032ffdd31511b5a7e016f7c6753b7"}, {"bike_id": "82d7d1f6b39d1b1d9e593b7e723f8ca2", "type": "electric_scooter", "is_disabled": 0, "lat": 38.9072655, "rental_uris": {"ios": "https://dc.lft.to/lastmile_qr_scan", "android": "https://dc.lft.to/lastmile_qr_scan"}, "is_reserved": 0, "fusion_lon": 0.0, "fusion_lat": 0.0, "lon": -77.0319865, "name": "82d7d1f6b39d1b1d9e593b7e723f8ca2"}, {"bike_id": "a0f673098598db9893b3ee97a10058c7", "type": "electric_scooter", "is_disabled": 0, "lat": 38.8650435, "rental_uris": {"ios": "https://dc.lft.to/lastmile_qr_scan", "android": "https://dc.lft.to/lastmile_qr_scan"}, "is_reserved": 0, "fusion_lon": 0.0, "fusion_lat": 0.0, "lon": -76.99003583333334, "name": "a0f673098598db9893b3ee97a10058c7"}, {"bike_id": "52901603806572eb5790ef3ff495f5fd", "type": "electric_bike", "is_disabled": 0, "lat": 38.80758683333333, "rental_uris": {"ios": "https://dc.lft.to/lastmile_qr_scan", "android": "https://dc.lft.to/lastmile_qr_scan"}, "is_reserved": 0, "fusion_lon": 0.0, "fusion_lat": 0.0, "lon": -77.09467, "name": "52901603806572eb5790ef3ff495f5fd"}, {"bike_id": "18eba412843949672bc1b261c9cff86d", "type": "electric_scooter", "is_disabled": 0, "lat": 38.91604783333333, "rental_uris": {"ios": "https://dc.lft.to/lastmile_qr_scan", "android": "https://dc.lft.to/lastmile_qr_scan"}, "is_reserved": 0, "fusion_lon": 0.0, "fusion_lat": 0.0, "lon": -77.03394916666667, "name": "18eba412843949672bc1b261c9cff86d"}, {"bike_id": "170ee5721239938c65925337577ce6b6", "type": "electric_scooter", "is_disabled": 0, "lat": 38.919906166666664, "rental_uris": {"ios": "https://dc.lft.to/lastmile_qr_scan", "android": "https://dc.lft.to/lastmile_qr_scan"}, "is_reserved": 0, "fusion_lon": 0.0, "fusion_lat": 0.0, "lon": -77.01783316666666, "name": "170ee5721239938c65925337577ce6b6"}, {"bike_id": "0600187af10d3d87ad46882fea0b984e", "type": "electric_scooter", "is_disabled": 0, "lat": 38.922565666666664, "rental_uris": {"ios": "https://dc.lft.to/lastmile_qr_scan", "android": "https://dc.lft.to/lastmile_qr_scan"}, "is_reserved": 0, "fusion_lon": 0.0, "fusion_lat": 0.0, "lon": -77.035238, "name": "0600187af10d3d87ad46882fea0b984e"}, {"bike_id": "d6ba74b0a99cab3e2d65a5e9da573f9a", "type": "electric_scooter", "is_disabled": 0, "lat": 38.9133155, "rental_uris": {"ios": "https://dc.lft.to/lastmile_qr_scan", "android": "https://dc.lft.to/lastmile_qr_scan"}, "is_reserved": 0, "fusion_lon": 0.0, "fusion_lat": 0.0, "lon": -77.03986866666666, "name": "d6ba74b0a99cab3e2d65a5e9da573f9a"}, {"bike_id": "fc56f35ee003395e82a786dab264fc5e", "type": "electric_scooter", "is_disabled": 0, "lat": 38.923920833333334, "rental_uris": {"ios": "https://dc.lft.to/lastmile_qr_scan", "android": "https://dc.lft.to/lastmile_qr_scan"}, "is_reserved": 0, "fusion_lon": 0.0, "fusion_lat": 0.0, "lon": -77.04470016666667, "name": "fc56f35ee003395e82a786dab264fc5e"}, {"bike_id": "cb7b861dd3dc3bbdb1c5ecd38a642981", "type": "electric_scooter", "is_disabled": 0, "lat": 38.91692666666667, "rental_uris": {"ios": "https://dc.lft.to/lastmile_qr_scan", "android": "https://dc.lft.to/lastmile_qr_scan"}, "is_reserved": 0, "fusion_lon": 0.0, "fusion_lat": 0.0, "lon": -77.03215216666666, "name": "cb7b861dd3dc3bbdb1c5ecd38a642981"}, {"bike_id": "acc83272cc8c3fa8e77fcd6049720770", "type": "electric_bike", "is_disabled": 0, "lat": 38.848379, "rental_uris": {"ios": "https://dc.lft.to/lastmile_qr_scan", "android": "https://dc.lft.to/lastmile_qr_scan"}, "is_reserved": 0, "fusion_lon": 0.0, "fusion_lat": 0.0, "lon": -77.0791385, "name": "acc83272cc8c3fa8e77fcd6049720770"}, {"bike_id": "9f3a5e838ab80943feafb58e6380cd71", "type": "electric_scooter", "is_disabled": 0, "lat": 38.95110283333333, "rental_uris": {"ios": "https://dc.lft.to/lastmile_qr_scan", "android": "https://dc.lft.to/lastmile_qr_scan"}, "is_reserved": 0, "fusion_lon": 0.0, "fusion_lat": 0.0, "lon": -77.01430633333334, "name": "9f3a5e838ab80943feafb58e6380cd71"}, {"bike_id": "4b06db459d4c92a44e3fb1ffdc7b1fa1", "type": "electric_bike", "is_disabled": 0, "lat": 38.942629333333336, "rental_uris": {"ios": "https://dc.lft.to/lastmile_qr_scan", "android": "https://dc.lft.to/lastmile_qr_scan"}, "is_reserved": 0, "fusion_lon": 0.0, "fusion_lat": 0.0, "lon": -76.99076166666667, "name": "4b06db459d4c92a44e3fb1ffdc7b1fa1"}, {"bike_id": "34f960458e4862a1387c708468fe9325", "type": "electric_scooter", "is_disabled": 0, "lat": 38.92857766666667, "rental_uris": {"ios": "https://dc.lft.to/lastmile_qr_scan", "android": "https://dc.lft.to/lastmile_qr_scan"}, "is_reserved": 0, "fusion_lon": 0.0, "fusion_lat": 0.0, "lon": -77.03714483333333, "name": "34f960458e4862a1387c708468fe9325"}, {"bike_id": "a3e47860e9ee924394ae167ea2ec1130", "type": "electric_scooter", "is_disabled": 0, "lat": 38.9491875, "rental_uris": {"ios": "https://dc.lft.to/lastmile_qr_scan", "android": "https://dc.lft.to/lastmile_qr_scan"}, "is_reserved": 0, "fusion_lon": 0.0, "fusion_lat": 0.0, "lon": -77.06522883333334, "name": "a3e47860e9ee924394ae167ea2ec1130"}, {"bike_id": "5c69c9b5b682395680e73b4abc5c62ea", "type": "electric_scooter", "is_disabled": 0, "lat": 38.9254525, "rental_uris": {"ios": "https://dc.lft.to/lastmile_qr_scan", "android": "https://dc.lft.to/lastmile_qr_scan"}, "is_reserved": 0, "fusion_lon": 0.0, "fusion_lat": 0.0, "lon": -77.0336, "name": "5c69c9b5b682395680e73b4abc5c62ea"}, {"bike_id": "ce397baa23b29716f2596661b318e6b8", "type": "electric_scooter", "is_disabled": 0, "lat": 38.86691, "rental_uris": {"ios": "https://dc.lft.to/lastmile_qr_scan", "android": "https://dc.lft.to/lastmile_qr_scan"}, "is_reserved": 0, "fusion_lon": 0.0, "fusion_lat": 0.0, "lon": -76.98563366666667, "name": "ce397baa23b29716f2596661b318e6b8"}, {"bike_id": "f5f56c5cabb440ec749934895d8cfb64", "type": "electric_scooter", "is_disabled": 0, "lat": 38.91670933333333, "rental_uris": {"ios": "https://dc.lft.to/lastmile_qr_scan", "android": "https://dc.lft.to/lastmile_qr_scan"}, "is_reserved": 0, "fusion_lon": 0.0, "fusion_lat": 0.0, "lon": -77.0468615, "name": "f5f56c5cabb440ec749934895d8cfb64"}, {"bike_id": "be63f3bc6a6f5d1b3845281ac866206b", "type": "electric_scooter", "is_disabled": 0, "lat": 38.90840733333334, "rental_uris": {"ios": "https://dc.lft.to/lastmile_qr_scan", "android": "https://dc.lft.to/lastmile_qr_scan"}, "is_reserved": 0, "fusion_lon": 0.0, "fusion_lat": 0.0, "lon": -77.03337533333334, "name": "be63f3bc6a6f5d1b3845281ac866206b"}, {"bike_id": "fc9786c66c32127c47092e6a6891ee69", "type": "electric_scooter", "is_disabled": 0, "lat": 38.895019166666664, "rental_uris": {"ios": "https://dc.lft.to/lastmile_qr_scan", "android": "https://dc.lft.to/lastmile_qr_scan"}, "is_reserved": 0, "fusion_lon": 0.0, "fusion_lat": 0.0, "lon": -76.93480166666667, "name": "fc9786c66c32127c47092e6a6891ee69"}, {"bike_id": "b7d64da5854ca3b82848b8bc8bdb84ed", "type": "electric_scooter", "is_disabled": 0, "lat": 38.878398, "rental_uris": {"ios": "https://dc.lft.to/lastmile_qr_scan", "android": "https://dc.lft.to/lastmile_qr_scan"}, "is_reserved": 0, "fusion_lon": 0.0, "fusion_lat": 0.0, "lon": -76.98629083333333, "name": "b7d64da5854ca3b82848b8bc8bdb84ed"}, {"bike_id": "054bb5245933b3094cb88a66789e8721", "type": "electric_scooter", "is_disabled": 0, "lat": 38.93292533333333, "rental_uris": {"ios": "https://dc.lft.to/lastmile_qr_scan", "android": "https://dc.lft.to/lastmile_qr_scan"}, "is_reserved": 0, "fusion_lon": 0.0, "fusion_lat": 0.0, "lon": -77.03535283333333, "name": "054bb5245933b3094cb88a66789e8721"}, {"bike_id": "de4370cb0498e72eda38137d40d03433", "type": "electric_scooter", "is_disabled": 0, "lat": 38.88931566666667, "rental_uris": {"ios": "https://dc.lft.to/lastmile_qr_scan", "android": "https://dc.lft.to/lastmile_qr_scan"}, "is_reserved": 0, "fusion_lon": 0.0, "fusion_lat": 0.0, "lon": -76.9357965, "name": "de4370cb0498e72eda38137d40d03433"}, {"bike_id": "73aa71b32cb9d744699fbeb46a16411d", "type": "electric_scooter", "is_disabled": 0, "lat": 38.905687, "rental_uris": {"ios": "https://dc.lft.to/lastmile_qr_scan", "android": "https://dc.lft.to/lastmile_qr_scan"}, "is_reserved": 0, "fusion_lon": 0.0, "fusion_lat": 0.0, "lon": -77.04240016666667, "name": "73aa71b32cb9d744699fbeb46a16411d"}, {"bike_id": "960ba967a657682d168a7529686fe797", "type": "electric_scooter", "is_disabled": 0, "lat": 38.880365166666664, "rental_uris": {"ios": "https://dc.lft.to/lastmile_qr_scan", "android": "https://dc.lft.to/lastmile_qr_scan"}, "is_reserved": 0, "fusion_lon": 0.0, "fusion_lat": 0.0, "lon": -77.005252, "name": "960ba967a657682d168a7529686fe797"}, {"bike_id": "d85e973b44051d1e9196cad9fbaf807c", "type": "electric_scooter", "is_disabled": 0, "lat": 38.919339666666666, "rental_uris": {"ios": "https://dc.lft.to/lastmile_qr_scan", "android": "https://dc.lft.to/lastmile_qr_scan"}, "is_reserved": 0, "fusion_lon": 0.0, "fusion_lat": 0.0, "lon": -77.03224366666667, "name": "d85e973b44051d1e9196cad9fbaf807c"}, {"bike_id": "0d9efe5697314d877a895d50075782b3", "type": "electric_scooter", "is_disabled": 0, "lat": 38.84638866666667, "rental_uris": {"ios": "https://dc.lft.to/lastmile_qr_scan", "android": "https://dc.lft.to/lastmile_qr_scan"}, "is_reserved": 0, "fusion_lon": 0.0, "fusion_lat": 0.0, "lon": -76.99133916666666, "name": "0d9efe5697314d877a895d50075782b3"}, {"bike_id": "c2285b790b73025ccac5b368e6d9b301", "type": "electric_scooter", "is_disabled": 0, "lat": 38.888591, "rental_uris": {"ios": "https://dc.lft.to/lastmile_qr_scan", "android": "https://dc.lft.to/lastmile_qr_scan"}, "is_reserved": 0, "fusion_lon": 0.0, "fusion_lat": 0.0, "lon": -76.991415, "name": "c2285b790b73025ccac5b368e6d9b301"}, {"bike_id": "9ec8d2b879c984d2e55fcf5d166ebcc8", "type": "electric_scooter", "is_disabled": 0, "lat": 38.91922516666666, "rental_uris": {"ios": "https://dc.lft.to/lastmile_qr_scan", "android": "https://dc.lft.to/lastmile_qr_scan"}, "is_reserved": 0, "fusion_lon": 0.0, "fusion_lat": 0.0, "lon": -77.03423266666667, "name": "9ec8d2b879c984d2e55fcf5d166ebcc8"}, {"bike_id": "701023946b21143047057d2a92b570ba", "type": "electric_scooter", "is_disabled": 0, "lat": 38.91963533333333, "rental_uris": {"ios": "https://dc.lft.to/lastmile_qr_scan", "android": "https://dc.lft.to/lastmile_qr_scan"}, "is_reserved": 0, "fusion_lon": 0.0, "fusion_lat": 0.0, "lon": -77.04266783333334, "name": "701023946b21143047057d2a92b570ba"}, {"bike_id": "89401d955a1dba1e229515c96bf2bb0a", "type": "electric_scooter", "is_disabled": 0, "lat": 38.893574, "rental_uris": {"ios": "https://dc.lft.to/lastmile_qr_scan", "android": "https://dc.lft.to/lastmile_qr_scan"}, "is_reserved": 0, "fusion_lon": 0.0, "fusion_lat": 0.0, "lon": -76.9493525, "name": "89401d955a1dba1e229515c96bf2bb0a"}, {"bike_id": "05e1aacf795630f5ce0fccdb11f2d46b", "type": "electric_scooter", "is_disabled": 0, "lat": 38.92052833333333, "rental_uris": {"ios": "https://dc.lft.to/lastmile_qr_scan", "android": "https://dc.lft.to/lastmile_qr_scan"}, "is_reserved": 0, "fusion_lon": 0.0, "fusion_lat": 0.0, "lon": -77.0244195, "name": "05e1aacf795630f5ce0fccdb11f2d46b"}, {"bike_id": "e0dc53886538630d8b673c520959bb93", "type": "electric_scooter", "is_disabled": 0, "lat": 38.9266695, "rental_uris": {"ios": "https://dc.lft.to/lastmile_qr_scan", "android": "https://dc.lft.to/lastmile_qr_scan"}, "is_reserved": 0, "fusion_lon": 0.0, "fusion_lat": 0.0, "lon": -77.030242, "name": "e0dc53886538630d8b673c520959bb93"}, {"bike_id": "34500ffca684c445c66be90605d365ab", "type": "electric_scooter", "is_disabled": 0, "lat": 38.87155933333333, "rental_uris": {"ios": "https://dc.lft.to/lastmile_qr_scan", "android": "https://dc.lft.to/lastmile_qr_scan"}, "is_reserved": 0, "fusion_lon": 0.0, "fusion_lat": 0.0, "lon": -77.0135775, "name": "34500ffca684c445c66be90605d365ab"}, {"bike_id": "aef0b5e1e51e989cceb2da0c157d680f", "type": "electric_scooter", "is_disabled": 0, "lat": 38.90415483333334, "rental_uris": {"ios": "https://dc.lft.to/lastmile_qr_scan", "android": "https://dc.lft.to/lastmile_qr_scan"}, "is_reserved": 0, "fusion_lon": 0.0, "fusion_lat": 0.0, "lon": -77.04884716666666, "name": "aef0b5e1e51e989cceb2da0c157d680f"}, {"bike_id": "2a435c0f1914ad26e503dc437a486266", "type": "electric_bike", "is_disabled": 0, "lat": 38.821742666666665, "rental_uris": {"ios": "https://dc.lft.to/lastmile_qr_scan", "android": "https://dc.lft.to/lastmile_qr_scan"}, "is_reserved": 0, "fusion_lon": 0.0, "fusion_lat": 0.0, "lon": -76.99512816666666, "name": "2a435c0f1914ad26e503dc437a486266"}, {"bike_id": "f6dc31c461fd6f38f574999d98ab8527", "type": "electric_scooter", "is_disabled": 0, "lat": 38.930798333333335, "rental_uris": {"ios": "https://dc.lft.to/lastmile_qr_scan", "android": "https://dc.lft.to/lastmile_qr_scan"}, "is_reserved": 0, "fusion_lon": 0.0, "fusion_lat": 0.0, "lon": -77.0254475, "name": "f6dc31c461fd6f38f574999d98ab8527"}, {"bike_id": "4b0681064332a860d7cabe82b47fffdc", "type": "electric_bike", "is_disabled": 0, "lat": 39.043089, "rental_uris": {"ios": "https://dc.lft.to/lastmile_qr_scan", "android": "https://dc.lft.to/lastmile_qr_scan"}, "is_reserved": 0, "fusion_lon": 0.0, "fusion_lat": 0.0, "lon": -77.05157783333334, "name": "4b0681064332a860d7cabe82b47fffdc"}, {"bike_id": "b015def77c44c680d040a32ffa761ba4", "type": "electric_scooter", "is_disabled": 0, "lat": 38.928015333333335, "rental_uris": {"ios": "https://dc.lft.to/lastmile_qr_scan", "android": "https://dc.lft.to/lastmile_qr_scan"}, "is_reserved": 0, "fusion_lon": 0.0, "fusion_lat": 0.0, "lon": -77.0319355, "name": "b015def77c44c680d040a32ffa761ba4"}, {"bike_id": "f49c9dc92ecd65b0c04624035555b37c", "type": "electric_scooter", "is_disabled": 0, "lat": 38.90556383333333, "rental_uris": {"ios": "https://dc.lft.to/lastmile_qr_scan", "android": "https://dc.lft.to/lastmile_qr_scan"}, "is_reserved": 0, "fusion_lon": 0.0, "fusion_lat": 0.0, "lon": -77.06524166666667, "name": "f49c9dc92ecd65b0c04624035555b37c"}, {"bike_id": "147e803661a978630a3c04983a9ce619", "type": "electric_scooter", "is_disabled": 0, "lat": 38.90362616666667, "rental_uris": {"ios": "https://dc.lft.to/lastmile_qr_scan", "android": "https://dc.lft.to/lastmile_qr_scan"}, "is_reserved": 0, "fusion_lon": 0.0, "fusion_lat": 0.0, "lon": -76.99943833333333, "name": "147e803661a978630a3c04983a9ce619"}, {"bike_id": "433a6c515ca33148a7d62d7212b47481", "type": "electric_scooter", "is_disabled": 0, "lat": 38.876262833333335, "rental_uris": {"ios": "https://dc.lft.to/lastmile_qr_scan", "android": "https://dc.lft.to/lastmile_qr_scan"}, "is_reserved": 0, "fusion_lon": 0.0, "fusion_lat": 0.0, "lon": -76.96524566666666, "name": "433a6c515ca33148a7d62d7212b47481"}, {"bike_id": "e8758d85be4b8230945fe74be8db1965", "type": "electric_scooter", "is_disabled": 0, "lat": 38.906387333333335, "rental_uris": {"ios": "https://dc.lft.to/lastmile_qr_scan", "android": "https://dc.lft.to/lastmile_qr_scan"}, "is_reserved": 0, "fusion_lon": 0.0, "fusion_lat": 0.0, "lon": -77.0313785, "name": "e8758d85be4b8230945fe74be8db1965"}, {"bike_id": "61fb10f3c40cc272b6b612f71a870249", "type": "electric_scooter", "is_disabled": 0, "lat": 38.900455666666666, "rental_uris": {"ios": "https://dc.lft.to/lastmile_qr_scan", "android": "https://dc.lft.to/lastmile_qr_scan"}, "is_reserved": 0, "fusion_lon": 0.0, "fusion_lat": 0.0, "lon": -77.013315, "name": "61fb10f3c40cc272b6b612f71a870249"}, {"bike_id": "e355565d989610a501e988ca3857aa23", "type": "electric_scooter", "is_disabled": 0, "lat": 38.90619216666666, "rental_uris": {"ios": "https://dc.lft.to/lastmile_qr_scan", "android": "https://dc.lft.to/lastmile_qr_scan"}, "is_reserved": 0, "fusion_lon": 0.0, "fusion_lat": 0.0, "lon": -77.007208, "name": "e355565d989610a501e988ca3857aa23"}, {"bike_id": "d1884144dbc8a90a411d4e0eba717264", "type": "electric_scooter", "is_disabled": 0, "lat": 38.91697683333334, "rental_uris": {"ios": "https://dc.lft.to/lastmile_qr_scan", "android": "https://dc.lft.to/lastmile_qr_scan"}, "is_reserved": 0, "fusion_lon": 0.0, "fusion_lat": 0.0, "lon": -77.0287345, "name": "d1884144dbc8a90a411d4e0eba717264"}, {"bike_id": "6f9cf23e59e340d252f678d5be3a9248", "type": "electric_scooter", "is_disabled": 0, "lat": 38.939328, "rental_uris": {"ios": "https://dc.lft.to/lastmile_qr_scan", "android": "https://dc.lft.to/lastmile_qr_scan"}, "is_reserved": 0, "fusion_lon": 0.0, "fusion_lat": 0.0, "lon": -77.03684566666666, "name": "6f9cf23e59e340d252f678d5be3a9248"}, {"bike_id": "95008f1fcc7e28597737b254e9fa706a", "type": "electric_scooter", "is_disabled": 0, "lat": 38.90062066666667, "rental_uris": {"ios": "https://dc.lft.to/lastmile_qr_scan", "android": "https://dc.lft.to/lastmile_qr_scan"}, "is_reserved": 0, "fusion_lon": 0.0, "fusion_lat": 0.0, "lon": -76.92736916666667, "name": "95008f1fcc7e28597737b254e9fa706a"}, {"bike_id": "698dc5a53d0261168d69db895420738c", "type": "electric_scooter", "is_disabled": 0, "lat": 38.949962666666664, "rental_uris": {"ios": "https://dc.lft.to/lastmile_qr_scan", "android": "https://dc.lft.to/lastmile_qr_scan"}, "is_reserved": 0, "fusion_lon": 0.0, "fusion_lat": 0.0, "lon": -77.01831983333334, "name": "698dc5a53d0261168d69db895420738c"}, {"bike_id": "64bd02965dd8d2da035b700986381124", "type": "electric_scooter", "is_disabled": 0, "lat": 38.904991333333335, "rental_uris": {"ios": "https://dc.lft.to/lastmile_qr_scan", "android": "https://dc.lft.to/lastmile_qr_scan"}, "is_reserved": 0, "fusion_lon": 0.0, "fusion_lat": 0.0, "lon": -77.06883816666667, "name": "64bd02965dd8d2da035b700986381124"}, {"bike_id": "df0d0786d6e834bfc5e0c8896da91623", "type": "electric_scooter", "is_disabled": 0, "lat": 38.920735, "rental_uris": {"ios": "https://dc.lft.to/lastmile_qr_scan", "android": "https://dc.lft.to/lastmile_qr_scan"}, "is_reserved": 0, "fusion_lon": 0.0, "fusion_lat": 0.0, "lon": -77.02841283333333, "name": "df0d0786d6e834bfc5e0c8896da91623"}, {"bike_id": "dd1f6a37cbe89943ea517eb5776e3923", "type": "electric_scooter", "is_disabled": 0, "lat": 38.91633, "rental_uris": {"ios": "https://dc.lft.to/lastmile_qr_scan", "android": "https://dc.lft.to/lastmile_qr_scan"}, "is_reserved": 0, "fusion_lon": 0.0, "fusion_lat": 0.0, "lon": -77.02552166666666, "name": "dd1f6a37cbe89943ea517eb5776e3923"}, {"bike_id": "4079c899783eb5ccc974924cc657e12f", "type": "electric_scooter", "is_disabled": 0, "lat": 38.9203025, "rental_uris": {"ios": "https://dc.lft.to/lastmile_qr_scan", "android": "https://dc.lft.to/lastmile_qr_scan"}, "is_reserved": 0, "fusion_lon": 0.0, "fusion_lat": 0.0, "lon": -77.01317066666667, "name": "4079c899783eb5ccc974924cc657e12f"}, {"bike_id": "b2d5a927c7be7c1c5f3088b9c73fd05d", "type": "electric_scooter", "is_disabled": 0, "lat": 38.916300666666665, "rental_uris": {"ios": "https://dc.lft.to/lastmile_qr_scan", "android": "https://dc.lft.to/lastmile_qr_scan"}, "is_reserved": 0, "fusion_lon": 0.0, "fusion_lat": 0.0, "lon": -77.04009366666666, "name": "b2d5a927c7be7c1c5f3088b9c73fd05d"}, {"bike_id": "91efc2f68dd291b1cb3b4aff63e71b45", "type": "electric_scooter", "is_disabled": 0, "lat": 38.91569283333333, "rental_uris": {"ios": "https://dc.lft.to/lastmile_qr_scan", "android": "https://dc.lft.to/lastmile_qr_scan"}, "is_reserved": 0, "fusion_lon": 0.0, "fusion_lat": 0.0, "lon": -77.0241335, "name": "91efc2f68dd291b1cb3b4aff63e71b45"}, {"bike_id": "83448a5d862b5a33a1c592dde20697a1", "type": "electric_scooter", "is_disabled": 0, "lat": 38.931785, "rental_uris": {"ios": "https://dc.lft.to/lastmile_qr_scan", "android": "https://dc.lft.to/lastmile_qr_scan"}, "is_reserved": 0, "fusion_lon": 0.0, "fusion_lat": 0.0, "lon": -77.031642, "name": "83448a5d862b5a33a1c592dde20697a1"}, {"bike_id": "9fd00d20731bc74728e971533f7cae74", "type": "electric_scooter", "is_disabled": 0, "lat": 38.9010835, "rental_uris": {"ios": "https://dc.lft.to/lastmile_qr_scan", "android": "https://dc.lft.to/lastmile_qr_scan"}, "is_reserved": 0, "fusion_lon": 0.0, "fusion_lat": 0.0, "lon": -77.0501565, "name": "9fd00d20731bc74728e971533f7cae74"}, {"bike_id": "bbf330ac6a0d1c7c3da71aed6926d872", "type": "electric_scooter", "is_disabled": 0, "lat": 38.923639, "rental_uris": {"ios": "https://dc.lft.to/lastmile_qr_scan", "android": "https://dc.lft.to/lastmile_qr_scan"}, "is_reserved": 0, "fusion_lon": 0.0, "fusion_lat": 0.0, "lon": -77.05046083333333, "name": "bbf330ac6a0d1c7c3da71aed6926d872"}, {"bike_id": "4cb1aed98b44f921dbc5050c463ccf9d", "type": "electric_scooter", "is_disabled": 0, "lat": 38.905800166666666, "rental_uris": {"ios": "https://dc.lft.to/lastmile_qr_scan", "android": "https://dc.lft.to/lastmile_qr_scan"}, "is_reserved": 0, "fusion_lon": 0.0, "fusion_lat": 0.0, "lon": -76.9843125, "name": "4cb1aed98b44f921dbc5050c463ccf9d"}, {"bike_id": "cfe9810205dd95d5f616b218061f7b18", "type": "electric_scooter", "is_disabled": 0, "lat": 38.94209016666667, "rental_uris": {"ios": "https://dc.lft.to/lastmile_qr_scan", "android": "https://dc.lft.to/lastmile_qr_scan"}, "is_reserved": 0, "fusion_lon": 0.0, "fusion_lat": 0.0, "lon": -77.01744733333334, "name": "cfe9810205dd95d5f616b218061f7b18"}, {"bike_id": "8b91ef748fcecbf3af10fb6ddbdb5496", "type": "electric_bike", "is_disabled": 0, "lat": 38.87297516666667, "rental_uris": {"ios": "https://dc.lft.to/lastmile_qr_scan", "android": "https://dc.lft.to/lastmile_qr_scan"}, "is_reserved": 0, "fusion_lon": 0.0, "fusion_lat": 0.0, "lon": -77.139274, "name": "8b91ef748fcecbf3af10fb6ddbdb5496"}, {"bike_id": "e4826598195ae739a8f092a0bc4e8097", "type": "electric_scooter", "is_disabled": 0, "lat": 38.91547166666667, "rental_uris": {"ios": "https://dc.lft.to/lastmile_qr_scan", "android": "https://dc.lft.to/lastmile_qr_scan"}, "is_reserved": 0, "fusion_lon": 0.0, "fusion_lat": 0.0, "lon": -77.03171866666666, "name": "e4826598195ae739a8f092a0bc4e8097"}, {"bike_id": "5dc18f6a473d7d84b1bcaadade830371", "type": "electric_scooter", "is_disabled": 0, "lat": 38.939151333333335, "rental_uris": {"ios": "https://dc.lft.to/lastmile_qr_scan", "android": "https://dc.lft.to/lastmile_qr_scan"}, "is_reserved": 0, "fusion_lon": 0.0, "fusion_lat": 0.0, "lon": -77.06053483333334, "name": "5dc18f6a473d7d84b1bcaadade830371"}, {"bike_id": "467a7b39d285388ee4783937ee18b9e3", "type": "electric_scooter", "is_disabled": 0, "lat": 38.88104466666667, "rental_uris": {"ios": "https://dc.lft.to/lastmile_qr_scan", "android": "https://dc.lft.to/lastmile_qr_scan"}, "is_reserved": 0, "fusion_lon": 0.0, "fusion_lat": 0.0, "lon": -77.01654083333334, "name": "467a7b39d285388ee4783937ee18b9e3"}, {"bike_id": "3094c59d69c09ee44c2301cb7feb4e44", "type": "electric_scooter", "is_disabled": 0, "lat": 38.91700566666667, "rental_uris": {"ios": "https://dc.lft.to/lastmile_qr_scan", "android": "https://dc.lft.to/lastmile_qr_scan"}, "is_reserved": 0, "fusion_lon": 0.0, "fusion_lat": 0.0, "lon": -77.02885383333333, "name": "3094c59d69c09ee44c2301cb7feb4e44"}, {"bike_id": "1f7baa8020887e475271ac29b6a82f06", "type": "electric_scooter", "is_disabled": 0, "lat": 38.884744833333336, "rental_uris": {"ios": "https://dc.lft.to/lastmile_qr_scan", "android": "https://dc.lft.to/lastmile_qr_scan"}, "is_reserved": 0, "fusion_lon": 0.0, "fusion_lat": 0.0, "lon": -76.98215033333334, "name": "1f7baa8020887e475271ac29b6a82f06"}, {"bike_id": "86ec092df785d215d1584e525dbddd02", "type": "electric_scooter", "is_disabled": 0, "lat": 38.911802, "rental_uris": {"ios": "https://dc.lft.to/lastmile_qr_scan", "android": "https://dc.lft.to/lastmile_qr_scan"}, "is_reserved": 0, "fusion_lon": 0.0, "fusion_lat": 0.0, "lon": -77.01118016666666, "name": "86ec092df785d215d1584e525dbddd02"}, {"bike_id": "5bfaa82f3706097dc17d492733e11506", "type": "electric_scooter", "is_disabled": 0, "lat": 38.908053833333334, "rental_uris": {"ios": "https://dc.lft.to/lastmile_qr_scan", "android": "https://dc.lft.to/lastmile_qr_scan"}, "is_reserved": 0, "fusion_lon": 0.0, "fusion_lat": 0.0, "lon": -77.03450483333333, "name": "5bfaa82f3706097dc17d492733e11506"}, {"bike_id": "48fa7c2adda27113f2ed86e97b4164ec", "type": "electric_scooter", "is_disabled": 0, "lat": 38.91409183333333, "rental_uris": {"ios": "https://dc.lft.to/lastmile_qr_scan", "android": "https://dc.lft.to/lastmile_qr_scan"}, "is_reserved": 0, "fusion_lon": 0.0, "fusion_lat": 0.0, "lon": -77.03026833333334, "name": "48fa7c2adda27113f2ed86e97b4164ec"}, {"bike_id": "577a9b68ca6b65bd4898bed5acd69ef8", "type": "electric_bike", "is_disabled": 0, "lat": 38.853508833333336, "rental_uris": {"ios": "https://dc.lft.to/lastmile_qr_scan", "android": "https://dc.lft.to/lastmile_qr_scan"}, "is_reserved": 0, "fusion_lon": 0.0, "fusion_lat": 0.0, "lon": -77.13465516666666, "name": "577a9b68ca6b65bd4898bed5acd69ef8"}, {"bike_id": "2d6b0c969e7189ae2df0ad0bda3f07ba", "type": "electric_scooter", "is_disabled": 0, "lat": 38.942905833333334, "rental_uris": {"ios": "https://dc.lft.to/lastmile_qr_scan", "android": "https://dc.lft.to/lastmile_qr_scan"}, "is_reserved": 0, "fusion_lon": 0.0, "fusion_lat": 0.0, "lon": -77.0217135, "name": "2d6b0c969e7189ae2df0ad0bda3f07ba"}, {"bike_id": "bf95c146d0893f113eb758b3003f6da3", "type": "electric_scooter", "is_disabled": 0, "lat": 38.9247, "rental_uris": {"ios": "https://dc.lft.to/lastmile_qr_scan", "android": "https://dc.lft.to/lastmile_qr_scan"}, "is_reserved": 0, "fusion_lon": 0.0, "fusion_lat": 0.0, "lon": -77.02763166666666, "name": "bf95c146d0893f113eb758b3003f6da3"}, {"bike_id": "e7c76052ff04b3084867cda5f51f319d", "type": "electric_scooter", "is_disabled": 0, "lat": 38.895913666666665, "rental_uris": {"ios": "https://dc.lft.to/lastmile_qr_scan", "android": "https://dc.lft.to/lastmile_qr_scan"}, "is_reserved": 0, "fusion_lon": 0.0, "fusion_lat": 0.0, "lon": -77.00508166666667, "name": "e7c76052ff04b3084867cda5f51f319d"}, {"bike_id": "d842cd03862acf377ac7ad28eb8d2011", "type": "electric_scooter", "is_disabled": 0, "lat": 38.909137, "rental_uris": {"ios": "https://dc.lft.to/lastmile_qr_scan", "android": "https://dc.lft.to/lastmile_qr_scan"}, "is_reserved": 0, "fusion_lon": 0.0, "fusion_lat": 0.0, "lon": -77.07357783333333, "name": "d842cd03862acf377ac7ad28eb8d2011"}, {"bike_id": "3b0e03cf0273f3f97e8d550db0b3ad63", "type": "electric_scooter", "is_disabled": 0, "lat": 38.913491666666665, "rental_uris": {"ios": "https://dc.lft.to/lastmile_qr_scan", "android": "https://dc.lft.to/lastmile_qr_scan"}, "is_reserved": 0, "fusion_lon": 0.0, "fusion_lat": 0.0, "lon": -77.0320585, "name": "3b0e03cf0273f3f97e8d550db0b3ad63"}, {"bike_id": "fd8f6b3fe5f9bc2214e0b337eb1404d2", "type": "electric_scooter", "is_disabled": 0, "lat": 38.90972416666666, "rental_uris": {"ios": "https://dc.lft.to/lastmile_qr_scan", "android": "https://dc.lft.to/lastmile_qr_scan"}, "is_reserved": 0, "fusion_lon": 0.0, "fusion_lat": 0.0, "lon": -77.0386385, "name": "fd8f6b3fe5f9bc2214e0b337eb1404d2"}, {"bike_id": "f9eca832488af4ba017730c94bf8d700", "type": "electric_scooter", "is_disabled": 0, "lat": 38.900675666666665, "rental_uris": {"ios": "https://dc.lft.to/lastmile_qr_scan", "android": "https://dc.lft.to/lastmile_qr_scan"}, "is_reserved": 0, "fusion_lon": 0.0, "fusion_lat": 0.0, "lon": -77.01787466666667, "name": "f9eca832488af4ba017730c94bf8d700"}, {"bike_id": "8e4ca24828982d45d288128cfce33972", "type": "electric_bike", "is_disabled": 0, "lat": 38.870824999999996, "rental_uris": {"ios": "https://dc.lft.to/lastmile_qr_scan", "android": "https://dc.lft.to/lastmile_qr_scan"}, "is_reserved": 0, "fusion_lon": 0.0, "fusion_lat": 0.0, "lon": -76.96432983333334, "name": "8e4ca24828982d45d288128cfce33972"}, {"bike_id": "635d9e2a4a691853142d18259915ad91", "type": "electric_scooter", "is_disabled": 0, "lat": 38.93673883333334, "rental_uris": {"ios": "https://dc.lft.to/lastmile_qr_scan", "android": "https://dc.lft.to/lastmile_qr_scan"}, "is_reserved": 0, "fusion_lon": 0.0, "fusion_lat": 0.0, "lon": -77.03595116666666, "name": "635d9e2a4a691853142d18259915ad91"}, {"bike_id": "fafaf5560ca2d53c56a28c560d003d03", "type": "electric_scooter", "is_disabled": 0, "lat": 38.92184133333333, "rental_uris": {"ios": "https://dc.lft.to/lastmile_qr_scan", "android": "https://dc.lft.to/lastmile_qr_scan"}, "is_reserved": 0, "fusion_lon": 0.0, "fusion_lat": 0.0, "lon": -77.04231383333334, "name": "fafaf5560ca2d53c56a28c560d003d03"}, {"bike_id": "cf1c81d5430531f69af10bb642b50bae", "type": "electric_scooter", "is_disabled": 0, "lat": 38.90292516666667, "rental_uris": {"ios": "https://dc.lft.to/lastmile_qr_scan", "android": "https://dc.lft.to/lastmile_qr_scan"}, "is_reserved": 0, "fusion_lon": 0.0, "fusion_lat": 0.0, "lon": -76.99035216666667, "name": "cf1c81d5430531f69af10bb642b50bae"}, {"bike_id": "539bc6b243ecc052b7647ee2a3b76584", "type": "electric_scooter", "is_disabled": 0, "lat": 38.9318445, "rental_uris": {"ios": "https://dc.lft.to/lastmile_qr_scan", "android": "https://dc.lft.to/lastmile_qr_scan"}, "is_reserved": 0, "fusion_lon": 0.0, "fusion_lat": 0.0, "lon": -77.02362866666667, "name": "539bc6b243ecc052b7647ee2a3b76584"}, {"bike_id": "96c04238c7b7b6d6b105f3789d628756", "type": "electric_scooter", "is_disabled": 0, "lat": 38.927513, "rental_uris": {"ios": "https://dc.lft.to/lastmile_qr_scan", "android": "https://dc.lft.to/lastmile_qr_scan"}, "is_reserved": 0, "fusion_lon": 0.0, "fusion_lat": 0.0, "lon": -77.0253365, "name": "96c04238c7b7b6d6b105f3789d628756"}, {"bike_id": "8088b79f402142018b57614e9db8e203", "type": "electric_scooter", "is_disabled": 0, "lat": 38.838256, "rental_uris": {"ios": "https://dc.lft.to/lastmile_qr_scan", "android": "https://dc.lft.to/lastmile_qr_scan"}, "is_reserved": 0, "fusion_lon": 0.0, "fusion_lat": 0.0, "lon": -77.00267366666667, "name": "8088b79f402142018b57614e9db8e203"}, {"bike_id": "d10970a3f56428b92f2c62849022ba7b", "type": "electric_scooter", "is_disabled": 0, "lat": 38.90424616666667, "rental_uris": {"ios": "https://dc.lft.to/lastmile_qr_scan", "android": "https://dc.lft.to/lastmile_qr_scan"}, "is_reserved": 0, "fusion_lon": 0.0, "fusion_lat": 0.0, "lon": -77.02733933333333, "name": "d10970a3f56428b92f2c62849022ba7b"}, {"bike_id": "e2966cb35f673a3c2927d6f1d8a45a83", "type": "electric_scooter", "is_disabled": 0, "lat": 38.91478583333333, "rental_uris": {"ios": "https://dc.lft.to/lastmile_qr_scan", "android": "https://dc.lft.to/lastmile_qr_scan"}, "is_reserved": 0, "fusion_lon": 0.0, "fusion_lat": 0.0, "lon": -76.98566566666666, "name": "e2966cb35f673a3c2927d6f1d8a45a83"}, {"bike_id": "c6247eb17ce07327950b49eea02bcec1", "type": "electric_scooter", "is_disabled": 0, "lat": 38.90467866666667, "rental_uris": {"ios": "https://dc.lft.to/lastmile_qr_scan", "android": "https://dc.lft.to/lastmile_qr_scan"}, "is_reserved": 0, "fusion_lon": 0.0, "fusion_lat": 0.0, "lon": -77.00736616666667, "name": "c6247eb17ce07327950b49eea02bcec1"}, {"bike_id": "3b8e52f37699ffbc7df6a9289364c8bf", "type": "electric_scooter", "is_disabled": 0, "lat": 38.922491, "rental_uris": {"ios": "https://dc.lft.to/lastmile_qr_scan", "android": "https://dc.lft.to/lastmile_qr_scan"}, "is_reserved": 0, "fusion_lon": 0.0, "fusion_lat": 0.0, "lon": -77.02836233333333, "name": "3b8e52f37699ffbc7df6a9289364c8bf"}, {"bike_id": "e4283e4affb4b291d04f7fff2a77fc7e", "type": "electric_scooter", "is_disabled": 0, "lat": 38.92161733333333, "rental_uris": {"ios": "https://dc.lft.to/lastmile_qr_scan", "android": "https://dc.lft.to/lastmile_qr_scan"}, "is_reserved": 0, "fusion_lon": 0.0, "fusion_lat": 0.0, "lon": -77.033181, "name": "e4283e4affb4b291d04f7fff2a77fc7e"}, {"bike_id": "b2232e0122d002f8b5cd91c9dd163c3b", "type": "electric_scooter", "is_disabled": 0, "lat": 38.8998995, "rental_uris": {"ios": "https://dc.lft.to/lastmile_qr_scan", "android": "https://dc.lft.to/lastmile_qr_scan"}, "is_reserved": 0, "fusion_lon": 0.0, "fusion_lat": 0.0, "lon": -77.01021666666666, "name": "b2232e0122d002f8b5cd91c9dd163c3b"}, {"bike_id": "f41d5a34f4264dd0b99e70260a3f4f36", "type": "electric_scooter", "is_disabled": 0, "lat": 38.902545, "rental_uris": {"ios": "https://dc.lft.to/lastmile_qr_scan", "android": "https://dc.lft.to/lastmile_qr_scan"}, "is_reserved": 0, "fusion_lon": 0.0, "fusion_lat": 0.0, "lon": -76.98666233333333, "name": "f41d5a34f4264dd0b99e70260a3f4f36"}, {"bike_id": "a64dbf6f7d94ad8b229bc9ba5603b120", "type": "electric_scooter", "is_disabled": 0, "lat": 38.915672, "rental_uris": {"ios": "https://dc.lft.to/lastmile_qr_scan", "android": "https://dc.lft.to/lastmile_qr_scan"}, "is_reserved": 0, "fusion_lon": 0.0, "fusion_lat": 0.0, "lon": -77.0202125, "name": "a64dbf6f7d94ad8b229bc9ba5603b120"}, {"bike_id": "b20861147224be95aeb97c08c106d565", "type": "electric_scooter", "is_disabled": 0, "lat": 38.89666533333333, "rental_uris": {"ios": "https://dc.lft.to/lastmile_qr_scan", "android": "https://dc.lft.to/lastmile_qr_scan"}, "is_reserved": 0, "fusion_lon": 0.0, "fusion_lat": 0.0, "lon": -77.02374416666666, "name": "b20861147224be95aeb97c08c106d565"}, {"bike_id": "9ac760a00db3223dcbbba2535aa86712", "type": "electric_scooter", "is_disabled": 0, "lat": 38.886143833333335, "rental_uris": {"ios": "https://dc.lft.to/lastmile_qr_scan", "android": "https://dc.lft.to/lastmile_qr_scan"}, "is_reserved": 0, "fusion_lon": 0.0, "fusion_lat": 0.0, "lon": -77.02832166666667, "name": "9ac760a00db3223dcbbba2535aa86712"},