{"data": {"bikes": [{"type": "electric_scooter", "lon": -77.03586583333333, "is_disabled": 0, "name": "cc9d20154c8990b6f44664d1eeecb258", "lat": 38.90968516666667, "fusion_lat": 0.0, "is_reserved": 0, "rental_uris": {"ios": "https://dc.lft.to/lastmile_qr_scan", "android": "https://dc.lft.to/lastmile_qr_scan"}, "fusion_lon": 0.0, "bike_id": "cc9d20154c8990b6f44664d1eeecb258"}, {"type": "electric_scooter", "lon": -77.0644895, "is_disabled": 0, "name": "a436c5f4efe3b66d9b793b9ce29418f6", "lat": 38.94881433333333, "fusion_lat": 0.0, "is_reserved": 0, "rental_uris": {"ios": "https://dc.lft.to/lastmile_qr_scan", "android": "https://dc.lft.to/lastmile_qr_scan"}, "fusion_lon": 0.0, "bike_id": "a436c5f4efe3b66d9b793b9ce29418f6"}, {"type": "electric_scooter", "lon": -77.025485, "is_disabled": 0, "name": "cab0792153f0ff6fa9dd32387c38ec07", "lat": 38.910973166666665, "fusion_lat": 0.0, "is_reserved": 0, "rental_uris": {"ios": "https://dc.lft.to/lastmile_qr_scan", "android": "https://dc.lft.to/lastmile_qr_scan"}, "fusion_lon": 0.0, "bike_id": "cab0792153f0ff6fa9dd32387c38ec07"}, {"type": "electric_scooter", "lon": -77.04500266666666, "is_disabled": 0, "name": "bbbf081bc5bf52a5648d29ae08cd8eab", "lat": 38.8922515, "fusion_lat": 0.0, "is_reserved": 0, "rental_uris": {"ios": "https://dc.lft.to/lastmile_qr_scan", "android": "https://dc.lft.to/lastmile_qr_scan"}, "fusion_lon": 0.0, "bike_id": "bbbf081bc5bf52a5648d29ae08cd8eab"}, {"type": "electric_scooter", "lon": -77.016939, "is_disabled": 0, "name": "2ddf805be257557c627ef2ac50166d3b", "lat": 38.9064525, "fusion_lat": 0.0, "is_reserved": 0, "rental_uris": {"ios": "https://dc.lft.to/lastmile_qr_scan", "android": "https://dc.lft.to/lastmile_qr_scan"}, "fusion_lon": 0.0, "bike_id": "2ddf805be257557c627ef2ac50166d3b"}, {"type": "electric_scooter", "lon": -76.925038, "is_disabled": 0, "name": "8aa1a1a1281c1adf1c9c6cc0d19f8f6e", "lat": 38.8860205, "fusion_lat": 0.0, "is_reserved": 0, "rental_uris": {"ios": "https://dc.lft.to/lastmile_qr_scan", "android": "https://dc.lft.to/lastmile_qr_scan"}, "fusion_lon": 0.0, "bike_id": "8aa1a1a1281c1adf1c9c6cc0d19f8f6e"}, {"type": "electric_scooter", "lon": -77.03072633333333, "is_disabled": 0, "name": "281fc03351bd70abd11de1523e2d2554", "lat": 38.8981305, "fusion_lat": 0.0, "is_reserved": 0, "rental_uris": {"ios": "https://dc.lft.to/lastmile_qr_scan", "android": "https://dc.lft.to/lastmile_qr_scan"}, "fusion_lon": 0.0, "bike_id": "281fc03351bd70abd11de1523e2d2554"}, {"type": "electric_scooter", "lon": -77.02667633333333, "is_disabled": 0, "name": "e6094e6b8694104ea64c3905eb72e0e2", "lat": 38.88104116666667, "fusion_lat": 0.0, "is_reserved": 0, "rental_uris": {"ios": "https://dc.lft.to/lastmile_qr_scan", "android": "https://dc.lft.to/lastmile_qr_scan"}, "fusion_lon": 0.0, "bike_id": "e6094e6b8694104ea64c3905eb72e0e2"}, {"type": "electric_bike", "lon": -77.090244, "is_disabled": 0, "name": "aa01ca8708c9d86444f9bf75dadd7e74", "lat": 38.936845, "fusion_lat": 0.0, "is_reserved": 0, "rental_uris": {"ios": "https://dc.lft.to/lastmile_qr_scan", "android": "https://dc.lft.to/lastmile_qr_scan"}, "fusion_lon": 0.0, "bike_id": "aa01ca8708c9d86444f9bf75dadd7e74"}, {"type": "electric_scooter", "lon": -77.0290895, "is_disabled": 0, "name": "3fb430ffe171e2db8ce022743aac6d17", "lat": 38.95299833333333, "fusion_lat": 0.0, "is_reserved": 0, "rental_uris": {"ios": "https://dc.lft.to/lastmile_qr_scan", "android": "https://dc.lft.to/lastmile_qr_scan"}, "fusion_lon": 0.0, "bike_id": "3fb430ffe171e2db8ce022743aac6d17"}, {"type": "electric_scooter", "lon": -77.01232866666666, "is_disabled": 0, "name": "1605eca1647d945ae5d7a327407742b3", "lat": 38.915475666666666, "fusion_lat": 0.0, "is_reserved": 0, "rental_uris": {"ios": "https://dc.lft.to/lastmile_qr_scan", "android": "https://dc.lft.to/lastmile_qr_scan"}, "fusion_lon": 0.0, "bike_id": "1605eca1647d945ae5d7a327407742b3"}, {"type": "electric_scooter", "lon": -77.00065166666667, "is_disabled": 0, "name": "98c5961c88164e139282f4877789a908", "lat": 38.874213166666664, "fusion_lat": 0.0, "is_reserved": 0, "rental_uris": {"ios": "https://dc.lft.to/lastmile_qr_scan", "android": "https://dc.lft.to/lastmile_qr_scan"}, "fusion_lon": 0.0, "bike_id": "98c5961c88164e139282f4877789a908"}, {"type": "electric_scooter", "lon": -77.03147883333334, "is_disabled": 0, "name": "6fbec7e61cac80421e4053b06cb35d30", "lat": 38.887449333333336, "fusion_lat": 0.0, "is_reserved": 0, "rental_uris": {"ios": "https://dc.lft.to/lastmile_qr_scan", "android": "https://dc.lft.to/lastmile_qr_scan"}, "fusion_lon": 0.0, "bike_id": "6fbec7e61cac80421e4053b06cb35d30"}, {"type": "electric_scooter", "lon": -77.01916433333334, "is_disabled": 0, "name": "52dd35f5354822c5148184121adf5ff0", "lat": 38.92164916666667, "fusion_lat": 0.0, "is_reserved": 0, "rental_uris": {"ios": "https://dc.lft.to/lastmile_qr_scan", "android": "https://dc.lft.to/lastmile_qr_scan"}, "fusion_lon": 0.0, "bike_id": "52dd35f5354822c5148184121adf5ff0"}, {"type": "electric_scooter", "lon": -76.92958733333333, "is_disabled": 0, "name": "0d89e6dec6ac075f4c6b5fa24df84d96", "lat": 38.88455733333333, "fusion_lat": 0.0, "is_reserved": 0, "rental_uris": {"ios": "https://dc.lft.to/lastmile_qr_scan", "android": "https://dc.lft.to/lastmile_qr_scan"}, "fusion_lon": 0.0, "bike_id": "0d89e6dec6ac075f4c6b5fa24df84d96"}, {"type": "electric_scooter", "lon": -77.02726466666667, "is_disabled": 0, "name": "70bf0bafd4d0b0c7d63bb61ca4f45d56", "lat": 38.900695999999996, "fusion_lat": 0.0, "is_reserved": 0, "rental_uris": {"ios": "https://dc.lft.to/lastmile_qr_scan", "android": "https://dc.lft.to/lastmile_qr_scan"}, "fusion_lon": 0.0, "bike_id": "70bf0bafd4d0b0c7d63bb61ca4f45d56"}, {"type": "electric_scooter", "lon": -77.02758083333333, "is_disabled": 0, "name": "2499c23b92d80edb0e1bd5b0446ed5f7", "lat": 38.913408, "fusion_lat": 0.0, "is_reserved": 0, "rental_uris": {"ios": "https://dc.lft.to/lastmile_qr_scan", "android": "https://dc.lft.to/lastmile_qr_scan"}, "fusion_lon": 0.0, "bike_id": "2499c23b92d80edb0e1bd5b0446ed5f7"}, {"type": "electric_scooter", "lon": -77.03325433333333, "is_disabled": 0, "name": "29658fa0ac55bd670ab9eed0cf69aa17", "lat": 38.9215375, "fusion_lat": 0.0, "is_reserved": 0, "rental_uris": {"ios": "https://dc.lft.to/lastmile_qr_scan", "android": "https://dc.lft.to/lastmile_qr_scan"}, "fusion_lon": 0.0, "bike_id": "29658fa0ac55bd670ab9eed0cf69aa17"}, {"type": "electric_scooter", "lon": -77.04323583333333, "is_disabled": 0, "name": "5b03206799cb6ff5bbd8a06f15455180", "lat": 38.92617383333334, "fusion_lat": 0.0, "is_reserved": 0, "rental_uris": {"ios": "https://dc.lft.to/lastmile_qr_scan", "android": "https://dc.lft.to/lastmile_qr_scan"}, "fusion_lon": 0.0, "bike_id": "5b03206799cb6ff5bbd8a06f15455180"}, {"type": "electric_scooter", "lon": -77.03528, "is_disabled": 0, "name": "7b404c30ac5d6dc5a272d6d36564cf44", "lat": 38.90393266666667, "fusion_lat": 0.0, "is_reserved": 0, "rental_uris": {"ios": "https://dc.lft.to/lastmile_qr_scan", "android": "https://dc.lft.to/lastmile_qr_scan"}, "fusion_lon": 0.0, "bike_id": "7b404c30ac5d6dc5a272d6d36564cf44"}, {"type": "electric_scooter", "lon": -76.98368033333334, "is_disabled": 0, "name": "58219cf63a0bc05248904e02e4d53c1c", "lat": 38.8926435, "fusion_lat": 0.0, "is_reserved": 0, "rental_uris": {"ios": "https://dc.lft.to/lastmile_qr_scan", "android": "https://dc.lft.to/lastmile_qr_scan"}, "fusion_lon": 0.0, "bike_id": "58219cf63a0bc05248904e02e4d53c1c"}, {"type": "electric_scooter", "lon": -76.98568766666666, "is_disabled": 0, "name": "aed119dd2dec3215265347299ffcc902", "lat": 38.896196833333335, "fusion_lat": 0.0, "is_reserved": 0, "rental_uris": {"ios": "https://dc.lft.to/lastmile_qr_scan", "android": "https://dc.lft.to/lastmile_qr_scan"}, "fusion_lon": 0.0, "bike_id": "aed119dd2dec3215265347299ffcc902"}, {"type": "electric_scooter", "lon": -76.98796633333333, "is_disabled": 0, "name": "bd849c79f637b01b7368504a60118a90", "lat": 38.90031783333333, "fusion_lat": 0.0, "is_reserved": 0, "rental_uris": {"ios": "https://dc.lft.to/lastmile_qr_scan", "android": "https://dc.lft.to/lastmile_qr_scan"}, "fusion_lon": 0.0, "bike_id": "bd849c79f637b01b7368504a60118a90"}, {"type": "electric_scooter", "lon": -77.02827383333333, "is_disabled": 0, "name": "0de1c3ebc008f3624390f75a93d191b8", "lat": 38.901999, "fusion_lat": 0.0, "is_reserved": 0, "rental_uris": {"ios": "https://dc.lft.to/lastmile_qr_scan", "android": "https://dc.lft.to/lastmile_qr_scan"}, "fusion_lon": 0.0, "bike_id": "0de1c3ebc008f3624390f75a93d191b8"}, {"type": "electric_scooter", "lon": -77.01954133333334, "is_disabled": 0, "name": "2160a87ffb19213edb55755c4a14c09c", "lat": 38.89841633333333, "fusion_lat": 0.0, "is_reserved": 0, "rental_uris": {"ios": "https://dc.lft.to/lastmile_qr_scan", "android": "https://dc.lft.to/lastmile_qr_scan"}, "fusion_lon": 0.0, "bike_id": "2160a87ffb19213edb55755c4a14c09c"}, {"type": "electric_scooter", "lon": -77.02876116666667, "is_disabled": 0, "name": "4848ef783692acc7736a2c3c28d7d586", "lat": 38.9041865, "fusion_lat": 0.0, "is_reserved": 0, "rental_uris": {"ios": "https://dc.lft.to/lastmile_qr_scan", "android": "https://dc.lft.to/lastmile_qr_scan"}, "fusion_lon": 0.0, "bike_id": "4848ef783692acc7736a2c3c28d7d586"}, {"type": "electric_scooter", "lon": -77.03864383333334, "is_disabled": 0, "name": "ba4ffca579bf1cf43273b158ee56ef5d", "lat": 38.91686966666666, "fusion_lat": 0.0, "is_reserved": 0, "rental_uris": {"ios": "https://dc.lft.to/lastmile_qr_scan", "android": "https://dc.lft.to/lastmile_qr_scan"}, "fusion_lon": 0.0, "bike_id": "ba4ffca579bf1cf43273b158ee56ef5d"}, {"type": "electric_scooter", "lon": -77.04444016666666, "is_disabled": 0, "name": "987277b76fa1678ae1be630ba86712a0", "lat": 38.91015816666667, "fusion_lat": 0.0, "is_reserved": 0, "rental_uris": {"ios": "https://dc.lft.to/lastmile_qr_scan", "android": "https://dc.lft.to/lastmile_qr_scan"}, "fusion_lon": 0.0, "bike_id": "987277b76fa1678ae1be630ba86712a0"}, {"type": "electric_scooter", "lon": -77.01374366666667, "is_disabled": 0, "name": "b99bca52b2a9edea96f40f891a86e8b8", "lat": 38.89845583333334, "fusion_lat": 0.0, "is_reserved": 0, "rental_uris": {"ios": "https://dc.lft.to/lastmile_qr_scan", "android": "https://dc.lft.to/lastmile_qr_scan"}, "fusion_lon": 0.0, "bike_id": "b99bca52b2a9edea96f40f891a86e8b8"}, {"type": "electric_scooter", "lon": -76.98577983333334, "is_disabled": 0, "name": "eb8e38183110eef5f998df5f994626ad", "lat": 38.90022166666667, "fusion_lat": 0.0, "is_reserved": 0, "rental_uris": {"ios": "https://dc.lft.to/lastmile_qr_scan", "android": "https://dc.lft.to/lastmile_qr_scan"}, "fusion_lon": 0.0, "bike_id": "eb8e38183110eef5f998df5f994626ad"}, {"type": "electric_scooter", "lon": -77.02303716666667, "is_disabled": 0, "name": "42bb45693985d2db4855189839493afa", "lat": 38.9270065, "fusion_lat": 0.0, "is_reserved": 0, "rental_uris": {"ios": "https://dc.lft.to/lastmile_qr_scan", "android": "https://dc.lft.to/lastmile_qr_scan"}, "fusion_lon": 0.0, "bike_id": "42bb45693985d2db4855189839493afa"}, {"type": "electric_scooter", "lon": -76.99747166666667, "is_disabled": 0, "name": "2f1ea0b3610b58c0bee5d0b5d54dc7e2", "lat": 38.910372333333335, "fusion_lat": 0.0, "is_reserved": 0, "rental_uris": {"ios": "https://dc.lft.to/lastmile_qr_scan", "android": "https://dc.lft.to/lastmile_qr_scan"}, "fusion_lon": 0.0, "bike_id": "2f1ea0b3610b58c0bee5d0b5d54dc7e2"}, {"type": "electric_scooter", "lon": -76.99515666666667, "is_disabled": 0, "name": "1449330b89f5b337c55a75afbfc07fb1", "lat": 38.90256733333333, "fusion_lat": 0.0, "is_reserved": 0, "rental_uris": {"ios": "https://dc.lft.to/lastmile_qr_scan", "android": "https://dc.lft.to/lastmile_qr_scan"}, "fusion_lon": 0.0, "bike_id": "1449330b89f5b337c55a75afbfc07fb1"}, {"type": "electric_scooter", "lon": -77.055966, "is_disabled": 0, "name": "33e5c8d5b269433f2d81453eb599f994", "lat": 38.89424783333333, "fusion_lat": 0.0, "is_reserved": 0, "rental_uris": {"ios": "https://dc.lft.to/lastmile_qr_scan", "android": "https://dc.lft.to/lastmile_qr_scan"}, "fusion_lon": 0.0, "bike_id": "33e5c8d5b269433f2d81453eb599f994"}, {"type": "electric_scooter", "lon": -77.0133875, "is_disabled": 0, "name": "73620856b6f99fee66ec7ad23d5b54b4", "lat": 38.881218, "fusion_lat": 0.0, "is_reserved": 0, "rental_uris": {"ios": "https://dc.lft.to/lastmile_qr_scan", "android": "https://dc.lft.to/lastmile_qr_scan"}, "fusion_lon": 0.0, "bike_id": "73620856b6f99fee66ec7ad23d5b54b4"}, {"type": "electric_scooter", "lon": -77.0424055, "is_disabled": 0, "name": "145b6476c9ed8d6b75e107340c1d1a75", "lat": 38.89850883333333, "fusion_lat": 0.0, "is_reserved": 0, "rental_uris": {"ios": "https://dc.lft.to/lastmile_qr_scan", "android": "https://dc.lft.to/lastmile_qr_scan"}, "fusion_lon": 0.0, "bike_id": "145b6476c9ed8d6b75e107340c1d1a75"}, {"type": "electric_scooter", "lon": -77.03789883333333, "is_disabled": 0, "name": "674111039826de01e57672ada9e18cd2", "lat": 38.92548816666667, "fusion_lat": 0.0, "is_reserved": 0, "rental_uris": {"ios": "https://dc.lft.to/lastmile_qr_scan", "android": "https://dc.lft.to/lastmile_qr_scan"}, "fusion_lon": 0.0, "bike_id": "674111039826de01e57672ada9e18cd2"}, {"type": "electric_scooter", "lon": -77.00700183333333, "is_disabled": 0, "name": "1fc9656701d6eb47a3fe8e25139d70fb", "lat": 38.907255, "fusion_lat": 0.0, "is_reserved": 0, "rental_uris": {"ios": "https://dc.lft.to/lastmile_qr_scan", "android": "https://dc.lft.to/lastmile_qr_scan"}, "fusion_lon": 0.0, "bike_id": "1fc9656701d6eb47a3fe8e25139d70fb"}, {"type": "electric_scooter", "lon": -77.021433, "is_disabled": 0, "name": "3560de01e67e9bceb55d46ddee3584cd", "lat": 38.894195333333336, "fusion_lat": 0.0, "is_reserved": 0, "rental_uris": {"ios": "https://dc.lft.to/lastmile_qr_scan", "android": "https://dc.lft.to/lastmile_qr_scan"}, "fusion_lon": 0.0, "bike_id": "3560de01e67e9bceb55d46ddee3584cd"}, {"type": "electric_scooter", "lon": -77.04355566666666, "is_disabled": 0, "name": "122b6df97070a86890f1bf7ace8c6cf5", "lat": 38.89940933333333, "fusion_lat": 0.0, "is_reserved": 0, "rental_uris": {"ios": "https://dc.lft.to/lastmile_qr_scan", "android": "https://dc.lft.to/lastmile_qr_scan"}, "fusion_lon": 0.0, "bike_id": "122b6df97070a86890f1bf7ace8c6cf5"}, {"type": "electric_scooter", "lon": -77.03818033333333, "is_disabled": 0, "name": "a1afe360daf273e05c11ff1175acc484", "lat": 38.930639166666666, "fusion_lat": 0.0, "is_reserved": 0, "rental_uris": {"ios": "https://dc.lft.to/lastmile_qr_scan", "android": "https://dc.lft.to/lastmile_qr_scan"}, "fusion_lon": 0.0, "bike_id": "a1afe360daf273e05c11ff1175acc484"}, {"type": "electric_scooter", "lon": -77.061156, "is_disabled": 0, "name": "130eb555c84689eb4d22c1c4891ee584", "lat": 38.90534483333333, "fusion_lat": 0.0, "is_reserved": 0, "rental_uris": {"ios": "https://dc.lft.to/lastmile_qr_scan", "android": "https://dc.lft.to/lastmile_qr_scan"}, "fusion_lon": 0.0, "bike_id": "130eb555c84689eb4d22c1c4891ee584"}, {"type": "electric_scooter", "lon": -77.02106383333333, "is_disabled": 0, "name": "b26e7a98f0473f60cca17a0812265bb9", "lat": 38.905598499999996, "fusion_lat": 0.0, "is_reserved": 0, "rental_uris": {"ios": "https://dc.lft.to/lastmile_qr_scan", "android": "https://dc.lft.to/lastmile_qr_scan"}, "fusion_lon": 0.0, "bike_id": "b26e7a98f0473f60cca17a0812265bb9"}, {"type": "electric_scooter", "lon": -77.0310365, "is_disabled": 0, "name": "17ac32a4fc945599979d747ecc604365", "lat": 38.886194333333336, "fusion_lat": 0.0, "is_reserved": 0, "rental_uris": {"ios": "https://dc.lft.to/lastmile_qr_scan", "android": "https://dc.lft.to/lastmile_qr_scan"}, "fusion_lon": 0.0, "bike_id": "17ac32a4fc945599979d747ecc604365"}, {"type": "electric_scooter", "lon": -77.041986, "is_disabled": 0, "name": "21286f0c2ffd381b4267fbdf2d64bed7", "lat": 38.907326166666664, "fusion_lat": 0.0, "is_reserved": 0, "rental_uris": {"ios": "https://dc.lft.to/lastmile_qr_scan", "android": "https://dc.lft.to/lastmile_qr_scan"}, "fusion_lon": 0.0, "bike_id": "21286f0c2ffd381b4267fbdf2d64bed7"}, {"type": "electric_scooter", "lon": -77.04605983333333, "is_disabled": 0, "name": "bb1741e2c54eb2e2e5c0e30c0d43e866", "lat": 38.90957733333333, "fusion_lat": 0.0, "is_reserved": 0, "rental_uris": {"ios": "https://dc.lft.to/lastmile_qr_scan", "android": "https://dc.lft.to/lastmile_qr_scan"}, "fusion_lon": 0.0, "bike_id": "bb1741e2c54eb2e2e5c0e30c0d43e866"}, {"type": "electric_scooter", "lon": -77.0276625, "is_disabled": 0, "name": "b433ad0b51ae721dd5fdcd2748d067c0", "lat": 38.954205333333334, "fusion_lat": 0.0, "is_reserved": 0, "rental_uris": {"ios": "https://dc.lft.to/lastmile_qr_scan", "android": "https://dc.lft.to/lastmile_qr_scan"}, "fusion_lon": 0.0, "bike_id": "b433ad0b51ae721dd5fdcd2748d067c0"}, {"type": "electric_scooter", "lon": -76.98554433333334, "is_disabled": 0, "name": "4f81306cc4e73a11a882d6a0b06f2d02", "lat": 38.896182333333336, "fusion_lat": 0.0, "is_reserved": 0, "rental_uris": {"ios": "https://dc.lft.to/lastmile_qr_scan", "android": "https://dc.lft.to/lastmile_qr_scan"}, "fusion_lon": 0.0, "bike_id": "4f81306cc4e73a11a882d6a0b06f2d02"}, {"type": "electric_scooter", "lon": -77.01016483333333, "is_disabled": 0, "name": "2576dcd745783202068c458765962585", "lat": 38.914046, "fusion_lat": 0.0, "is_reserved": 0, "rental_uris": {"ios": "https://dc.lft.to/lastmile_qr_scan", "android": "https://dc.lft.to/lastmile_qr_scan"}, "fusion_lon": 0.0, "bike_id": "2576dcd745783202068c458765962585"}, {"type": "electric_scooter", "lon": -77.0304735, "is_disabled": 0, "name": "4c75e1357f4fed668fcfd6795728fd6d", "lat": 38.884283, "fusion_lat": 0.0, "is_reserved": 0, "rental_uris": {"ios": "https://dc.lft.to/lastmile_qr_scan", "android": "https://dc.lft.to/lastmile_qr_scan"}, "fusion_lon": 0.0, "bike_id": "4c75e1357f4fed668fcfd6795728fd6d"}, {"type": "electric_scooter", "lon": -77.04075516666667, "is_disabled": 0, "name": "7aeb05aa0075d8844974140e43ae82fa", "lat": 38.90727433333333, "fusion_lat": 0.0, "is_reserved": 0, "rental_uris": {"ios": "https://dc.lft.to/lastmile_qr_scan", "android": "https://dc.lft.to/lastmile_qr_scan"}, "fusion_lon": 0.0, "bike_id": "7aeb05aa0075d8844974140e43ae82fa"}, {"type": "electric_scooter", "lon": -77.056794, "is_disabled": 0, "name": "a82acf2186f18ed22a3bb3be3e0d659d", "lat": 38.9233335, "fusion_lat": 0.0, "is_reserved": 0, "rental_uris": {"ios": "https://dc.lft.to/lastmile_qr_scan", "android": "https://dc.lft.to/lastmile_qr_scan"}, "fusion_lon": 0.0, "bike_id": "a82acf2186f18ed22a3bb3be3e0d659d"}, {"type": "electric_scooter", "lon": -77.05337766666666, "is_disabled": 0, "name": "3715696d5f13fef5c8cede2df1f224a6", "lat": 38.90643683333333, "fusion_lat": 0.0, "is_reserved": 0, "rental_uris": {"ios": "https://dc.lft.to/lastmile_qr_scan", "android": "https://dc.lft.to/lastmile_qr_scan"}, "fusion_lon": 0.0, "bike_id": "3715696d5f13fef5c8cede2df1f224a6"}, {"type": "electric_scooter", "lon": -77.07254766666667, "is_disabled": 0, "name": "94574a12d4cbe054733886db6d83f314", "lat": 38.907840666666665, "fusion_lat": 0.0, "is_reserved": 0, "rental_uris": {"ios": "https://dc.lft.to/lastmile_qr_scan", "android": "https://dc.lft.to/lastmile_qr_scan"}, "fusion_lon": 0.0, "bike_id": "94574a12d4cbe054733886db6d83f314"}, {"type": "electric_bike", "lon": -76.97053433333333, "is_disabled": 0, "name": "c2b79f5cec0fb794ae4ebe9c7afeeab3", "lat": 38.958802, "fusion_lat": 0.0, "is_reserved": 0, "rental_uris": {"ios": "https://dc.lft.to/lastmile_qr_scan", "android": "https://dc.lft.to/lastmile_qr_scan"}, "fusion_lon": 0.0, "bike_id": "c2b79f5cec0fb794ae4ebe9c7afeeab3"}, {"type": "electric_scooter", "lon": -77.00288983333333, "is_disabled": 0, "name": "7c56ea8991c756fee78ac6921f94406c", "lat": 38.9036635, "fusion_lat": 0.0, "is_reserved": 0, "rental_uris": {"ios": "https://dc.lft.to/lastmile_qr_scan", "android": "https://dc.lft.to/lastmile_qr_scan"}, "fusion_lon": 0.0, "bike_id": "7c56ea8991c756fee78ac6921f94406c"}, {"type": "electric_scooter", "lon": -77.0642745, "is_disabled": 0, "name": "772f4490c8032be3f0b8dfda2ca29de6", "lat": 38.935629, "fusion_lat": 0.0, "is_reserved": 0, "rental_uris": {"ios": "https://dc.lft.to/lastmile_qr_scan", "android": "https://dc.lft.to/lastmile_qr_scan"}, "fusion_lon": 0.0, "bike_id": "772f4490c8032be3f0b8dfda2ca29de6"}, {"type": "electric_bike", "lon": -76.95157633333334, "is_disabled": 0, "name": "a91af9035a5f97301ef8461c8e80c5b5", "lat": 39.084363833333335, "fusion_lat": 0.0, "is_reserved": 0, "rental_uris": {"ios": "https://dc.lft.to/lastmile_qr_scan", "android": "https://dc.lft.to/lastmile_qr_scan"}, "fusion_lon": 0.0, "bike_id": "a91af9035a5f97301ef8461c8e80c5b5"}, {"type": "electric_scooter", "lon": -77.03528983333334, "is_disabled": 0, "name": "25e1ab14aa6e6326992c1992aa9d1169", "lat": 38.921805166666665, "fusion_lat": 0.0, "is_reserved": 0, "rental_uris": {"ios": "https://dc.lft.to/lastmile_qr_scan", "android": "https://dc.lft.to/lastmile_qr_scan"}, "fusion_lon": 0.0, "bike_id": "25e1ab14aa6e6326992c1992aa9d1169"}, {"type": "electric_scooter", "lon": -76.93596083333334, "is_disabled": 0, "name": "451a7f0782a34edb743b14a148de244d", "lat": 38.909489666666666, "fusion_lat": 0.0, "is_reserved": 0, "rental_uris": {"ios": "https://dc.lft.to/lastmile_qr_scan", "android": "https://dc.lft.to/lastmile_qr_scan"}, "fusion_lon": 0.0, "bike_id": "451a7f0782a34edb743b14a148de244d"}, {"type": "electric_scooter", "lon": -77.036651, "is_disabled": 0, "name": "2f475d6620c1a58a743ed6ae11970cdc", "lat": 38.9029105, "fusion_lat": 0.0, "is_reserved": 0, "rental_uris": {"ios": "https://dc.lft.to/lastmile_qr_scan", "android": "https://dc.lft.to/lastmile_qr_scan"}, "fusion_lon": 0.0, "bike_id": "2f475d6620c1a58a743ed6ae11970cdc"}, {"type": "electric_scooter", "lon": -77.02479083333333, "is_disabled": 0, "name": "886d9e6c18891ad4a0ef139998467c5c", "lat": 38.91927733333333, "fusion_lat": 0.0, "is_reserved": 0, "rental_uris": {"ios": "https://dc.lft.to/lastmile_qr_scan", "android": "https://dc.lft.to/lastmile_qr_scan"}, "fusion_lon": 0.0, "bike_id": "886d9e6c18891ad4a0ef139998467c5c"}, {"type": "electric_scooter", "lon": -77.02434916666667, "is_disabled": 0, "name": "2b009f17a018f92b5d9160e75fedb296", "lat": 38.898287333333336, "fusion_lat": 0.0, "is_reserved": 0, "rental_uris": {"ios": "https://dc.lft.to/lastmile_qr_scan", "android": "https://dc.lft.to/lastmile_qr_scan"}, "fusion_lon": 0.0, "bike_id": "2b009f17a018f92b5d9160e75fedb296"}, {"type": "electric_scooter", "lon": -77.05004466666666, "is_disabled": 0, "name": "658e7f85337b1d2838f0a0da3696fad6", "lat": 38.8922835, "fusion_lat": 0.0, "is_reserved": 0, "rental_uris": {"ios": "https://dc.lft.to/lastmile_qr_scan", "android": "https://dc.lft.to/lastmile_qr_scan"}, "fusion_lon": 0.0, "bike_id": "658e7f85337b1d2838f0a0da3696fad6"}, {"type": "electric_scooter", "lon": -77.02655483333334, "is_disabled": 0, "name": "dee43adc3cfe5d95a233904b4eeec2af", "lat": 38.93104366666667, "fusion_lat": 0.0, "is_reserved": 0, "rental_uris": {"ios": "https://dc.lft.to/lastmile_qr_scan", "android": "https://dc.lft.to/lastmile_qr_scan"}, "fusion_lon": 0.0, "bike_id": "dee43adc3cfe5d95a233904b4eeec2af"}, {"type": "electric_scooter", "lon": -77.02818916666666, "is_disabled": 0, "name": "869e6734958ff8271c8cce88124e2bdf", "lat": 38.89739816666667, "fusion_lat": 0.0, "is_reserved": 0, "rental_uris": {"ios": "https://dc.lft.to/lastmile_qr_scan", "android": "https://dc.lft.to/lastmile_qr_scan"}, "fusion_lon": 0.0, "bike_id": "869e6734958ff8271c8cce88124e2bdf"}, {"type": "electric_scooter", "lon": -77.031021, "is_disabled": 0, "name": "ed3a0ca3285c4b5e955a17eab32b9493", "lat": 38.94199416666667, "fusion_lat": 0.0, "is_reserved": 0, "rental_uris": {"ios": "https://dc.lft.to/lastmile_qr_scan", "android": "https://dc.lft.to/lastmile_qr_scan"}, "fusion_lon": 0.0, "bike_id": "ed3a0ca3285c4b5e955a17eab32b9493"}, {"type": "electric_scooter", "lon": -76.95692166666667, "is_disabled": 0, "name": "b58fb68b799148791f8f2f26da52a180", "lat": 38.892022, "fusion_lat": 0.0, "is_reserved": 0, "rental_uris": {"ios": "https://dc.lft.to/lastmile_qr_scan", "android": "https://dc.lft.to/lastmile_qr_scan"}, "fusion_lon": 0.0, "bike_id": "b58fb68b799148791f8f2f26da52a180"}, {"type": "electric_scooter", "lon": -76.98796316666666, "is_disabled": 0, "name": "5f6674a67a66b3e100570aca11d061ed", "lat": 38.90034966666666, "fusion_lat": 0.0, "is_reserved": 0, "rental_uris": {"ios": "https://dc.lft.to/lastmile_qr_scan", "android": "https://dc.lft.to/lastmile_qr_scan"}, "fusion_lon": 0.0, "bike_id": "5f6674a67a66b3e100570aca11d061ed"}, {"type": "electric_scooter", "lon": -77.05598866666666, "is_disabled": 0, "name": "2afca3833d375324ee0fe2b2fa008927", "lat": 38.93701033333333, "fusion_lat": 0.0, "is_reserved": 0, "rental_uris": {"ios": "https://dc.lft.to/lastmile_qr_scan", "android": "https://dc.lft.to/lastmile_qr_scan"}, "fusion_lon": 0.0, "bike_id": "2afca3833d375324ee0fe2b2fa008927"}, {"type": "electric_scooter", "lon": -77.0011485, "is_disabled": 0, "name": "f80e82888a26f8731a4b7b0d7f34f3b7", "lat": 38.8764, "fusion_lat": 0.0, "is_reserved": 0, "rental_uris": {"ios": "https://dc.lft.to/lastmile_qr_scan", "android": "https://dc.lft.to/lastmile_qr_scan"}, "fusion_lon": 0.0, "bike_id": "f80e82888a26f8731a4b7b0d7f34f3b7"}, {"type": "electric_scooter", "lon": -77.02539166666666, "is_disabled": 0, "name": "77d64e5e134e697285c9ce1e1fd774b2", "lat": 38.9216005, "fusion_lat": 0.0, "is_reserved": 0, "rental_uris": {"ios": "https://dc.lft.to/lastmile_qr_scan", "android": "https://dc.lft.to/lastmile_qr_scan"}, "fusion_lon": 0.0, "bike_id": "77d64e5e134e697285c9ce1e1fd774b2"}, {"type": "electric_bike", "lon": -77.001367, "is_disabled": 0, "name": "5bfe90420874bf0ebf9ff0810eb6495c", "lat": 38.995003, "fusion_lat": 0.0, "is_reserved": 0, "rental_uris": {"ios": "https://dc.lft.to/lastmile_qr_scan", "android": "https://dc.lft.to/lastmile_qr_scan"}, "fusion_lon": 0.0, "bike_id": "5bfe90420874bf0ebf9ff0810eb6495c"}, {"type": "electric_scooter", "lon": -77.03405983333333, "is_disabled": 0, "name": "298374f8a3fb9f68e32695ffc8f49cec", "lat": 38.92358483333334, "fusion_lat": 0.0, "is_reserved": 0, "rental_uris": {"ios": "https://dc.lft.to/lastmile_qr_scan", "android": "https://dc.lft.to/lastmile_qr_scan"}, "fusion_lon": 0.0, "bike_id": "298374f8a3fb9f68e32695ffc8f49cec"}, {"type": "electric_scooter", "lon": -77.04479183333333, "is_disabled": 0, "name": "12433a0248e9bc9d61a9fadbbe925630", "lat": 38.912365, "fusion_lat": 0.0, "is_reserved": 0, "rental_uris": {"ios": "https://dc.lft.to/lastmile_qr_scan", "android": "https://dc.lft.to/lastmile_qr_scan"}, "fusion_lon": 0.0, "bike_id": "12433a0248e9bc9d61a9fadbbe925630"}, {"type": "electric_scooter", "lon": -77.07338066666667, "is_disabled": 0, "name": "4e36aa38664cd81e8b9754e5bd451a0b", "lat": 38.960915166666666, "fusion_lat": 0.0, "is_reserved": 0, "rental_uris": {"ios": "https://dc.lft.to/lastmile_qr_scan", "android": "https://dc.lft.to/lastmile_qr_scan"}, "fusion_lon": 0.0, "bike_id": "4e36aa38664cd81e8b9754e5bd451a0b"}, {"type": "electric_scooter", "lon": -77.03770766666666, "is_disabled": 0, "name": "b579f972a56efaed2f34ea888eda01ef", "lat": 38.90236183333333, "fusion_lat": 0.0, "is_reserved": 0, "rental_uris": {"ios": "https://dc.lft.to/lastmile_qr_scan", "android": "https://dc.lft.to/lastmile_qr_scan"}, "fusion_lon": 0.0, "bike_id": "b579f972a56efaed2f34ea888eda01ef"}, {"type": "electric_scooter", "lon": -77.051807, "is_disabled": 0, "name": "9e2a34eac2100f7a2732d0472e2d575f", "lat": 38.92342033333333, "fusion_lat": 0.0, "is_reserved": 0, "rental_uris": {"ios": "https://dc.lft.to/lastmile_qr_scan", "android": "https://dc.lft.to/lastmile_qr_scan"}, "fusion_lon": 0.0, "bike_id": "9e2a34eac2100f7a2732d0472e2d575f"}, {"type": "electric_scooter", "lon": -77.05339, "is_disabled": 0, "name": "c4cf005dc0d00a5a0c41a283c39fae9d", "lat": 38.90644533333333, "fusion_lat": 0.0, "is_reserved": 0, "rental_uris": {"ios": "https://dc.lft.to/lastmile_qr_scan", "android": "https://dc.lft.to/lastmile_qr_scan"}, "fusion_lon": 0.0, "bike_id": "c4cf005dc0d00a5a0c41a283c39fae9d"}, {"type": "electric_scooter", "lon": -77.02786583333334, "is_disabled": 0, "name": "46eaa77ea78f77c311fd7a55088fd1cd", "lat": 38.961279166666664, "fusion_lat": 0.0, "is_reserved": 0, "rental_uris": {"ios": "https://dc.lft.to/lastmile_qr_scan", "android": "https://dc.lft.to/lastmile_qr_scan"}, "fusion_lon": 0.0, "bike_id": "46eaa77ea78f77c311fd7a55088fd1cd"}, {"type": "electric_scooter", "lon": -77.03907283333334, "is_disabled": 0, "name": "0ba6c5a93fd20ce996e2abfc8ee1691d", "lat": 38.9024905, "fusion_lat": 0.0, "is_reserved": 0, "rental_uris": {"ios": "https://dc.lft.to/lastmile_qr_scan", "android": "https://dc.lft.to/lastmile_qr_scan"}, "fusion_lon": 0.0, "bike_id": "0ba6c5a93fd20ce996e2abfc8ee1691d"}, {"type": "electric_scooter", "lon": -77.03382683333334, "is_disabled": 0, "name": "4b9633a8402c63819318a0ed57f43326", "lat": 38.921644, "fusion_lat": 0.0, "is_reserved": 0, "rental_uris": {"ios": "https://dc.lft.to/lastmile_qr_scan", "android": "https://dc.lft.to/lastmile_qr_scan"}, "fusion_lon": 0.0, "bike_id": "4b9633a8402c63819318a0ed57f43326"}, {"type": "electric_scooter", "lon": -77.02577266666667, "is_disabled": 0, "name": "ce6d73f1d794730dcecf1ce8f02c5f29", "lat": 38.88735483333333, "fusion_lat": 0.0, "is_reserved": 0, "rental_uris": {"ios": "https://dc.lft.to/lastmile_qr_scan", "android": "https://dc.lft.to/lastmile_qr_scan"}, "fusion_lon": 0.0, "bike_id": "ce6d73f1d794730dcecf1ce8f02c5f29"}, {"type": "electric_scooter", "lon": -77.09100183333334, "is_disabled": 0, "name": "4020cecb37f4d06745afaa45730c4105", "lat": 38.930974, "fusion_lat": 0.0, "is_reserved": 0, "rental_uris": {"ios": "https://dc.lft.to/lastmile_qr_scan", "android": "https://dc.lft.to/lastmile_qr_scan"}, "fusion_lon": 0.0, "bike_id": "4020cecb37f4d06745afaa45730c4105"}, {"type": "electric_scooter", "lon": -77.036592, "is_disabled": 0, "name": "bb9ba27664690b8e943df23808cb8dea", "lat": 38.9228505, "fusion_lat": 0.0, "is_reserved": 0, "rental_uris": {"ios": "https://dc.lft.to/lastmile_qr_scan", "android": "https://dc.lft.to/lastmile_qr_scan"}, "fusion_lon": 0.0, "bike_id": "bb9ba27664690b8e943df23808cb8dea"}, {"type": "electric_scooter", "lon": -76.94661916666666, "is_disabled": 0, "name": "ecbe241f737f84e40df7131b4abe3975", "lat": 38.898670833333334, "fusion_lat": 0.0, "is_reserved": 0, "rental_uris": {"ios": "https://dc.lft.to/lastmile_qr_scan", "android": "https://dc.lft.to/lastmile_qr_scan"}, "fusion_lon": 0.0, "bike_id": "ecbe241f737f84e40df7131b4abe3975"}, {"type": "electric_scooter", "lon": -77.027994, "is_disabled": 0, "name": "fba9ec6621fca680ea7baac659f1e14e", "lat": 38.892313333333334, "fusion_lat": 0.0, "is_reserved": 0, "rental_uris": {"ios": "https://dc.lft.to/lastmile_qr_scan", "android": "https://dc.lft.to/lastmile_qr_scan"}, "fusion_lon": 0.0, "bike_id": "fba9ec6621fca680ea7baac659f1e14e"}, {"type": "electric_scooter", "lon": -77.02790416666667, "is_disabled": 0, "name": "f1da265ee21972d7a620e6ef13598592", "lat": 38.892381, "fusion_lat": 0.0, "is_reserved": 0, "rental_uris": {"ios": "https://dc.lft.to/lastmile_qr_scan", "android": "https://dc.lft.to/lastmile_qr_scan"}, "fusion_lon": 0.0, "bike_id": "f1da265ee21972d7a620e6ef13598592"}, {"type": "electric_scooter", "lon": -77.00737933333333, "is_disabled": 0, "name": "f6cdbc748e05794ab7c76ec006802c3f", "lat": 38.87651966666667, "fusion_lat": 0.0, "is_reserved": 0, "rental_uris": {"ios": "https://dc.lft.to/lastmile_qr_scan", "android": "https://dc.lft.to/lastmile_qr_scan"}, "fusion_lon": 0.0, "bike_id": "f6cdbc748e05794ab7c76ec006802c3f"}, {"type": "electric_scooter", "lon": -77.03350633333334, "is_disabled": 0, "name": "78cbd6aeff9e15935e7980d04acc38ec", "lat": 38.89530083333333, "fusion_lat": 0.0, "is_reserved": 0, "rental_uris": {"ios": "https://dc.lft.to/lastmile_qr_scan", "android": "https://dc.lft.to/lastmile_qr_scan"}, "fusion_lon": 0.0, "bike_id": "78cbd6aeff9e15935e7980d04acc38ec"}, {"type": "electric_scooter", "lon": -77.02906766666666, "is_disabled": 0, "name": "466587694c3d8002f0331c0e54386cf3", "lat": 38.923148833333336, "fusion_lat": 0.0, "is_reserved": 0, "rental_uris": {"ios": "https://dc.lft.to/lastmile_qr_scan", "android": "https://dc.lft.to/lastmile_qr_scan"}, "fusion_lon": 0.0, "bike_id": "466587694c3d8002f0331c0e54386cf3"}, {"type": "electric_scooter", "lon": -77.0223285, "is_disabled": 0, "name": "adb1af724947fcf90582387be3604272", "lat": 38.8998165, "fusion_lat": 0.0, "is_reserved": 0, "rental_uris": {"ios": "https://dc.lft.to/lastmile_qr_scan", "android": "https://dc.lft.to/lastmile_qr_scan"}, "fusion_lon": 0.0, "bike_id": "adb1af724947fcf90582387be3604272"}, {"type": "electric_bike", "lon": -77.18309783333333, "is_disabled": 0, "name": "e523f05ccf912f1c7f672af44680fa99", "lat": 38.8908915, "fusion_lat": 0.0, "is_reserved": 0, "rental_uris": {"ios": "https://dc.lft.to/lastmile_qr_scan", "android": "https://dc.lft.to/lastmile_qr_scan"}, "fusion_lon": 0.0, "bike_id": "e523f05ccf912f1c7f672af44680fa99"}, {"type": "electric_bike", "lon": -76.97349266666667, "is_disabled": 0, "name": "96d5c91638e3e2f2d3005df7bad7d985", "lat": 38.86545816666667, "fusion_lat": 0.0, "is_reserved": 0, "rental_uris": {"ios": "https://dc.lft.to/lastmile_qr_scan", "android": "https://dc.lft.to/lastmile_qr_scan"}, "fusion_lon": 0.0, "bike_id": "96d5c91638e3e2f2d3005df7bad7d985"}, {"type": "electric_scooter", "lon": -77.0468905, "is_disabled": 0, "name": "84548fbf2282c494aa54acb31ca0842c", "lat": 38.92165, "fusion_lat": 0.0, "is_reserved": 0, "rental_uris": {"ios": "https://dc.lft.to/lastmile_qr_scan", "android": "https://dc.lft.to/lastmile_qr_scan"}, "fusion_lon": 0.0, "bike_id": "84548fbf2282c494aa54acb31ca0842c"}, {"type": "electric_scooter", "lon": -77.0153095, "is_disabled": 0, "name": "7d7c42ccdb35c010789d459acbd2e9e3", "lat": 38.88736333333333, "fusion_lat": 0.0, "is_reserved": 0, "rental_uris": {"ios": "https://dc.lft.to/lastmile_qr_scan", "android": "https://dc.lft.to/lastmile_qr_scan"}, "fusion_lon": 0.0, "bike_id": "7d7c42ccdb35c010789d459acbd2e9e3"}, {"type": "electric_bike", "lon": -77.09553783333334, "is_disabled": 0, "name": "8ca0410a28b285f50b3888cbfd044e41", "lat": 38.85901783333333, "fusion_lat": 0.0, "is_reserved": 0, "rental_uris": {"ios": "https://dc.lft.to/lastmile_qr_scan", "android": "https://dc.lft.to/lastmile_qr_scan"}, "fusion_lon": 0.0, "bike_id": "8ca0410a28b285f50b3888cbfd044e41"}, {"type": "electric_scooter", "lon": -77.03867166666667, "is_disabled": 0, "name": "ce38308b0ef34e46d54ea2cd50ac5128", "lat": 38.92150316666667, "fusion_lat": 0.0, "is_reserved": 0, "rental_uris": {"ios": "https://dc.lft.to/lastmile_qr_scan", "android": "https://dc.lft.to/lastmile_qr_scan"}, "fusion_lon": 0.0, "bike_id": "ce38308b0ef34e46d54ea2cd50ac5128"}, {"type": "electric_bike", "lon": -77.233201, "is_disabled": 0, "name": "924bf702dd6d62d2325189b522b50eda", "lat": 38.87281216666667, "fusion_lat": 0.0, "is_reserved": 0, "rental_uris": {"ios": "https://dc.lft.to/lastmile_qr_scan", "android": "https://dc.lft.to/lastmile_qr_scan"}, "fusion_lon": 0.0, "bike_id": "924bf702dd6d62d2325189b522b50eda"}, {"type": "electric_scooter", "lon": -77.0244405, "is_disabled": 0, "name": "632b4087ed266c1cebb60be2405d0805", "lat": 38.935825333333334, "fusion_lat": 0.0, "is_reserved": 0, "rental_uris": {"ios": "https://dc.lft.to/lastmile_qr_scan", "android": "https://dc.lft.to/lastmile_qr_scan"}, "fusion_lon": 0.0, "bike_id": "632b4087ed266c1cebb60be2405d0805"}, {"type": "electric_scooter", "lon": -77.032091, "is_disabled": 0, "name": "15d26131c9e29b1f82958a8da1158cee", "lat": 38.903796166666666, "fusion_lat": 0.0, "is_reserved": 0, "rental_uris": {"ios": "https://dc.lft.to/lastmile_qr_scan", "android": "https://dc.lft.to/lastmile_qr_scan"}, "fusion_lon": 0.0, "bike_id": "15d26131c9e29b1f82958a8da1158cee"}, {"type": "electric_scooter", "lon": -77.00595, "is_disabled": 0, "name": "5e0568f0f418a5e4e8ce89fb94eb1de8", "lat": 38.875582333333334, "fusion_lat": 0.0, "is_reserved": 0, "rental_uris": {"ios": "https://dc.lft.to/lastmile_qr_scan", "android": "https://dc.lft.to/lastmile_qr_scan"}, "fusion_lon": 0.0, "bike_id": "5e0568f0f418a5e4e8ce89fb94eb1de8"}, {"type": "electric_scooter", "lon": -77.04357433333334, "is_disabled": 0, "name": "84718d153c148ff4e99824c0e7116e11", "lat": 38.901143166666664, "fusion_lat": 0.0, "is_reserved": 0, "rental_uris": {"ios": "https://dc.lft.to/lastmile_qr_scan", "android": "https://dc.lft.to/lastmile_qr_scan"}, "fusion_lon": 0.0, "bike_id": "84718d153c148ff4e99824c0e7116e11"}, {"type": "electric_scooter", "lon": -76.9437875, "is_disabled": 0, "name": "329fdd8190faa3cea93229c1d940dccb", "lat": 38.89113566666666, "fusion_lat": 0.0, "is_reserved": 0, "rental_uris": {"ios": "https://dc.lft.to/lastmile_qr_scan", "android": "https://dc.lft.to/lastmile_qr_scan"}, "fusion_lon": 0.0, "bike_id": "329fdd8190faa3cea93229c1d940dccb"}, {"type": "electric_bike", "lon": -77.09521633333334, "is_disabled": 0, "name": "7d9dbde35cafd6614e4dc463e2993f1b", "lat": 38.83809816666667, "fusion_lat": 0.0, "is_reserved": 0, "rental_uris": {"ios": "https://dc.lft.to/lastmile_qr_scan", "android": "https://dc.lft.to/lastmile_qr_scan"}, "fusion_lon": 0.0, "bike_id": "7d9dbde35cafd6614e4dc463e2993f1b"}, {"type": "electric_scooter", "lon": -76.93005616666667, "is_disabled": 0, "name": "bfae97f3ce5ff483e18e16dfd5ea9dc1", "lat": 38.9071655, "fusion_lat": 0.0, "is_reserved": 0, "rental_uris": {"ios": "https://dc.lft.to/lastmile_qr_scan", "android": "https://dc.lft.to/lastmile_qr_scan"}, "fusion_lon": 0.0, "bike_id": "bfae97f3ce5ff483e18e16dfd5ea9dc1"}, {"type": "electric_scooter", "lon": -77.02661766666667, "is_disabled": 0, "name": "043a3faeb8b3c5a06e506e966e38531a", "lat": 38.896301666666666, "fusion_lat": 0.0, "is_reserved": 0, "rental_uris": {"ios": "https://dc.lft.to/lastmile_qr_scan", "android": "https://dc.lft.to/lastmile_qr_scan"}, "fusion_lon": 0.0, "bike_id": "043a3faeb8b3c5a06e506e966e38531a"}, {"type": "electric_bike", "lon": -77.03272083333333, "is_disabled": 0, "name": "9dbd36e38d6838b7190e8af1ef79fd09", "lat": 38.9612675, "fusion_lat": 0.0, "is_reserved": 0, "rental_uris": {"ios": "https://dc.lft.to/lastmile_qr_scan", "android": "https://dc.lft.to/lastmile_qr_scan"}, "fusion_lon": 0.0, "bike_id": "9dbd36e38d6838b7190e8af1ef79fd09"}, {"type": "electric_scooter", "lon": -77.02890816666667, "is_disabled": 0, "name": "8d84e86a678064555e25dd0684b31d61", "lat": 38.9140525, "fusion_lat": 0.0, "is_reserved": 0, "rental_uris": {"ios": "https://dc.lft.to/lastmile_qr_scan", "android": "https://dc.lft.to/lastmile_qr_scan"}, "fusion_lon": 0.0, "bike_id": "8d84e86a678064555e25dd0684b31d61"}, {"type": "electric_bike", "lon": -77.00756383333334, "is_disabled": 0, "name": "aa00fb1bf2552ad949ccdf6ab87b7971", "lat": 38.997839, "fusion_lat": 0.0, "is_reserved": 0, "rental_uris": {"ios": "https://dc.lft.to/lastmile_qr_scan", "android": "https://dc.lft.to/lastmile_qr_scan"}, "fusion_lon": 0.0, "bike_id": "aa00fb1bf2552ad949ccdf6ab87b7971"}, {"type": "electric_scooter", "lon": -77.01655883333333, "is_disabled": 0, "name": "39e7f26397fc5d7b27d95d3022a2f5d9", "lat": 38.87713516666667, "fusion_lat": 0.0, "is_reserved": 0, "rental_uris": {"ios": "https://dc.lft.to/lastmile_qr_scan", "android": "https://dc.lft.to/lastmile_qr_scan"}, "fusion_lon": 0.0, "bike_id": "39e7f26397fc5d7b27d95d3022a2f5d9"}, {"type": "electric_scooter", "lon": -77.03401116666667, "is_disabled": 0, "name": "08e92eac9ce9cbe7fe5b05d54dcaa120", "lat": 38.9070715, "fusion_lat": 0.0, "is_reserved": 0, "rental_uris": {"ios": "https://dc.lft.to/lastmile_qr_scan", "android": "https://dc.lft.to/lastmile_qr_scan"}, "fusion_lon": 0.0, "bike_id": "08e92eac9ce9cbe7fe5b05d54dcaa120"}, {"type": "electric_scooter", "lon": -77.0310255, "is_disabled": 0, "name": "997bf2e3b3822e68d0e198e44db3a8ef", "lat": 38.93313966666667, "fusion_lat": 0.0, "is_reserved": 0, "rental_uris": {"ios": "https://dc.lft.to/lastmile_qr_scan", "android": "https://dc.lft.to/lastmile_qr_scan"}, "fusion_lon": 0.0, "bike_id": "997bf2e3b3822e68d0e198e44db3a8ef"}, {"type": "electric_scooter", "lon": -77.04288766666667, "is_disabled": 0, "name": "2b0c99cec1eeb4b27e249664c50bd791", "lat": 38.9229135, "fusion_lat": 0.0, "is_reserved": 0, "rental_uris": {"ios": "https://dc.lft.to/lastmile_qr_scan", "android": "https://dc.lft.to/lastmile_qr_scan"}, "fusion_lon": 0.0, "bike_id": "2b0c99cec1eeb4b27e249664c50bd791"}, {"type": "electric_scooter", "lon": -77.02508716666667, "is_disabled": 0, "name": "3769efbbe7f66d884ea8874d1fef2f6c", "lat": 38.9176085, "fusion_lat": 0.0, "is_reserved": 0, "rental_uris": {"ios": "https://dc.lft.to/lastmile_qr_scan", "android": "https://dc.lft.to/lastmile_qr_scan"}, "fusion_lon": 0.0, "bike_id": "3769efbbe7f66d884ea8874d1fef2f6c"}, {"type": "electric_scooter", "lon": -77.04447, "is_disabled": 0, "name": "0601c6bcb655ceb8672551fb14280c48", "lat": 38.90369316666666, "fusion_lat": 0.0, "is_reserved": 0, "rental_uris": {"ios": "https://dc.lft.to/lastmile_qr_scan", "android": "https://dc.lft.to/lastmile_qr_scan"}, "fusion_lon": 0.0, "bike_id": "0601c6bcb655ceb8672551fb14280c48"}, {"type": "electric_scooter", "lon": -77.019061, "is_disabled": 0, "name": "ee2be25a9ad1c5230abee9b453ef5ea7", "lat": 38.937254333333335, "fusion_lat": 0.0, "is_reserved": 0, "rental_uris": {"ios": "https://dc.lft.to/lastmile_qr_scan", "android": "https://dc.lft.to/lastmile_qr_scan"}, "fusion_lon": 0.0, "bike_id": "ee2be25a9ad1c5230abee9b453ef5ea7"}, {"type": "electric_scooter", "lon": -77.04766683333334, "is_disabled": 0, "name": "fa91e62dea47917132dc3eaf88a54b23", "lat": 38.917661, "fusion_lat": 0.0, "is_reserved": 0, "rental_uris": {"ios": "https://dc.lft.to/lastmile_qr_scan", "android": "https://dc.lft.to/lastmile_qr_scan"}, "fusion_lon": 0.0, "bike_id": "fa91e62dea47917132dc3eaf88a54b23"}, {"type": "electric_scooter", "lon": -77.03063566666667, "is_disabled": 0, "name": "821d563f16d953672e644b8043e7ba5b", "lat": 38.903004833333334, "fusion_lat": 0.0, "is_reserved": 0, "rental_uris": {"ios": "https://dc.lft.to/lastmile_qr_scan", "android": "https://dc.lft.to/lastmile_qr_scan"}, "fusion_lon": 0.0, "bike_id": "821d563f16d953672e644b8043e7ba5b"}, {"type": "electric_scooter", "lon": -77.02232483333333, "is_disabled": 0, "name": "325ecee2e3c2a760c7fc75ca35eadc2e", "lat": 38.916338333333336, "fusion_lat": 0.0, "is_reserved": 0, "rental_uris": {"ios": "https://dc.lft.to/lastmile_qr_scan", "android": "https://dc.lft.to/lastmile_qr_scan"}, "fusion_lon": 0.0, "bike_id": "325ecee2e3c2a760c7fc75ca35eadc2e"}, {"type": "electric_scooter", "lon": -77.03349466666667, "is_disabled": 0, "name": "d6d810135dfeec59c274b6ee5173a67a", "lat": 38.89525883333334, "fusion_lat": 0.0, "is_reserved": 0, "rental_uris": {"ios": "https://dc.lft.to/lastmile_qr_scan", "android": "https://dc.lft.to/lastmile_qr_scan"}, "fusion_lon": 0.0, "bike_id": "d6d810135dfeec59c274b6ee5173a67a"}, {"type": "electric_scooter", "lon": -77.01096983333333, "is_disabled": 0, "name": "b4b2aef5cc4a4f56f3466c73948deeca", "lat": 38.8952155, "fusion_lat": 0.0, "is_reserved": 0, "rental_uris": {"ios": "https://dc.lft.to/lastmile_qr_scan", "android": "https://dc.lft.to/lastmile_qr_scan"}, "fusion_lon": 0.0, "bike_id": "b4b2aef5cc4a4f56f3466c73948deeca"}, {"type": "electric_scooter", "lon": -77.043609, "is_disabled": 0, "name": "78f43e7a8d9a31e1b943f39a4aa7ac7b", "lat": 38.892344666666666, "fusion_lat": 0.0, "is_reserved": 0, "rental_uris": {"ios": "https://dc.lft.to/lastmile_qr_scan", "android": "https://dc.lft.to/lastmile_qr_scan"}, "fusion_lon": 0.0, "bike_id": "78f43e7a8d9a31e1b943f39a4aa7ac7b"}, {"type": "electric_scooter", "lon": -77.01949133333333, "is_disabled": 0, "name": "4034e5c259e7d1f2d1161e756843a584", "lat": 38.922564, "fusion_lat": 0.0, "is_reserved": 0, "rental_uris": {"ios": "https://dc.lft.to/lastmile_qr_scan", "android": "https://dc.lft.to/lastmile_qr_scan"}, "fusion_lon": 0.0, "bike_id": "4034e5c259e7d1f2d1161e756843a584"}, {"type": "electric_scooter", "lon": -77.0108155, "is_disabled": 0, "name": "53026b0c2bf7230eadf6e0bb6b8e4cf6", "lat": 38.90786, "fusion_lat": 0.0, "is_reserved": 0, "rental_uris": {"ios": "https://dc.lft.to/lastmile_qr_scan", "android": "https://dc.lft.to/lastmile_qr_scan"}, "fusion_lon": 0.0, "bike_id": "53026b0c2bf7230eadf6e0bb6b8e4cf6"}, {"type": "electric_scooter", "lon": -77.00951483333333, "is_disabled": 0, "name": "2a64a8441495b605bfb97b37132970c9", "lat": 38.897551166666666, "fusion_lat": 0.0, "is_reserved": 0, "rental_uris": {"ios": "https://dc.lft.to/lastmile_qr_scan", "android": "https://dc.lft.to/lastmile_qr_scan"}, "fusion_lon": 0.0, "bike_id": "2a64a8441495b605bfb97b37132970c9"}, {"type": "electric_scooter", "lon": -77.03281166666666, "is_disabled": 0, "name": "061b001d31b8b67e81038cb62c91efdc", "lat": 38.928723, "fusion_lat": 0.0, "is_reserved": 0, "rental_uris": {"ios": "https://dc.lft.to/lastmile_qr_scan", "android": "https://dc.lft.to/lastmile_qr_scan"}, "fusion_lon": 0.0, "bike_id": "061b001d31b8b67e81038cb62c91efdc"}, {"type": "electric_scooter", "lon": -77.013693, "is_disabled": 0, "name": "489fb21361c782a7d5d24f560a05bade", "lat": 38.88678183333333, "fusion_lat": 0.0, "is_reserved": 0, "rental_uris": {"ios": "https://dc.lft.to/lastmile_qr_scan", "android": "https://dc.lft.to/lastmile_qr_scan"}, "fusion_lon": 0.0, "bike_id": "489fb21361c782a7d5d24f560a05bade"}, {"type": "electric_scooter", "lon": -77.02113466666667, "is_disabled": 0, "name": "77462ef4d49a417bc2add0cccc526383", "lat": 38.923731833333335, "fusion_lat": 0.0, "is_reserved": 0, "rental_uris": {"ios": "https://dc.lft.to/lastmile_qr_scan", "android": "https://dc.lft.to/lastmile_qr_scan"}, "fusion_lon": 0.0, "bike_id": "77462ef4d49a417bc2add0cccc526383"}, {"type": "electric_scooter", "lon": -77.04650133333334, "is_disabled": 0, "name": "f26a85bfc4c4e6a2777046551811b67c", "lat": 38.90971316666667, "fusion_lat": 0.0, "is_reserved": 0, "rental_uris": {"ios": "https://dc.lft.to/lastmile_qr_scan", "android": "https://dc.lft.to/lastmile_qr_scan"}, "fusion_lon": 0.0, "bike_id": "f26a85bfc4c4e6a2777046551811b67c"}, {"type": "electric_scooter", "lon": -77.0342995, "is_disabled": 0, "name": "e5637b2205ff9ebd672147a3fab37068", "lat": 38.90477966666667, "fusion_lat": 0.0, "is_reserved": 0, "rental_uris": {"ios": "https://dc.lft.to/lastmile_qr_scan", "android": "https://dc.lft.to/lastmile_qr_scan"}, "fusion_lon": 0.0, "bike_id": "e5637b2205ff9ebd672147a3fab37068"}, {"type": "electric_bike", "lon": -77.12920533333333, "is_disabled": 0, "name": "fe4cef42d5c98e76fb4fce3ed13211ab", "lat": 39.062223333333336, "fusion_lat": 0.0, "is_reserved": 0, "rental_uris": {"ios": "https://dc.lft.to/lastmile_qr_scan", "android": "https://dc.lft.to/lastmile_qr_scan"}, "fusion_lon": 0.0, "bike_id": "fe4cef42d5c98e76fb4fce3ed13211ab"}, {"type": "electric_scooter", "lon": -77.02531016666667, "is_disabled": 0, "name": "b2260debc1ef64f9ecaa6d9117d57ef2", "lat": 38.90650433333333, "fusion_lat": 0.0, "is_reserved": 0, "rental_uris": {"ios": "https://dc.lft.to/lastmile_qr_scan", "android": "https://dc.lft.to/lastmile_qr_scan"}, "fusion_lon": 0.0, "bike_id": "b2260debc1ef64f9ecaa6d9117d57ef2"}, {"type": "electric_bike", "lon": -76.97429683333333, "is_disabled": 0, "name": "6548788e5e35bb997b123ff4a0f73454", "lat": 38.855837666666666, "fusion_lat": 0.0, "is_reserved": 0, "rental_uris": {"ios": "https://dc.lft.to/lastmile_qr_scan", "android": "https://dc.lft.to/lastmile_qr_scan"}, "fusion_lon": 0.0, "bike_id": "6548788e5e35bb997b123ff4a0f73454"}, {"type": "electric_scooter", "lon": -77.018279, "is_disabled": 0, "name": "e0d452ec12280379c4649bf50d040e9f", "lat": 38.92130133333333, "fusion_lat": 0.0, "is_reserved": 0, "rental_uris": {"ios": "https://dc.lft.to/lastmile_qr_scan", "android": "https://dc.lft.to/lastmile_qr_scan"}, "fusion_lon": 0.0, "bike_id": "e0d452ec12280379c4649bf50d040e9f"}, {"type": "electric_scooter", "lon": -77.02975333333333, "is_disabled": 0, "name": "e9866ec6bcb2d6a6a5cc2fb4ee3a644f", "lat": 38.9123145, "fusion_lat": 0.0, "is_reserved": 0, "rental_uris": {"ios": "https://dc.lft.to/lastmile_qr_scan", "android": "https://dc.lft.to/lastmile_qr_scan"}, "fusion_lon": 0.0, "bike_id": "e9866ec6bcb2d6a6a5cc2fb4ee3a644f"}, {"type": "electric_scooter", "lon": -77.0423995, "is_disabled": 0, "name": "f79ddaca11080b2a5be5072865d139b7", "lat": 38.92437133333333, "fusion_lat": 0.0, "is_reserved": 0, "rental_uris": {"ios": "https://dc.lft.to/lastmile_qr_scan", "android": "https://dc.lft.to/lastmile_qr_scan"}, "fusion_lon": 0.0, "bike_id": "f79ddaca11080b2a5be5072865d139b7"}, {"type": "electric_scooter", "lon": -77.04678916666667, "is_disabled": 0, "name": "d47451c3c19dde37fbec0479396f7b77", "lat": 38.899649333333336, "fusion_lat": 0.0, "is_reserved": 0, "rental_uris": {"ios": "https://dc.lft.to/lastmile_qr_scan", "android": "https://dc.lft.to/lastmile_qr_scan"}, "fusion_lon": 0.0, "bike_id": "d47451c3c19dde37fbec0479396f7b77"}, {"type": "electric_scooter", "lon": -77.0056625, "is_disabled": 0, "name": "e70e661d609ece8e39d00c1f3f47e8ee", "lat": 38.8763775, "fusion_lat": 0.0, "is_reserved": 0, "rental_uris": {"ios": "https://dc.lft.to/lastmile_qr_scan", "android": "https://dc.lft.to/lastmile_qr_scan"}, "fusion_lon": 0.0, "bike_id": "e70e661d609ece8e39d00c1f3f47e8ee"}, {"type": "electric_scooter", "lon": -77.03587083333333, "is_disabled": 0, "name": "fd277993719f4f1b1bdded018af15e97", "lat": 38.90815383333333, "fusion_lat": 0.0, "is_reserved": 0, "rental_uris": {"ios": "https://dc.lft.to/lastmile_qr_scan", "android": "https://dc.lft.to/lastmile_qr_scan"}, "fusion_lon": 0.0, "bike_id": "fd277993719f4f1b1bdded018af15e97"}, {"type": "electric_scooter", "lon": -76.99143083333334, "is_disabled": 0, "name": "1b9a3c210f32653eefb05679f1a093f6", "lat": 38.899769666666664, "fusion_lat": 0.0, "is_reserved": 0, "rental_uris": {"ios": "https://dc.lft.to/lastmile_qr_scan", "android": "https://dc.lft.to/lastmile_qr_scan"}, "fusion_lon": 0.0, "bike_id": "1b9a3c210f32653eefb05679f1a093f6"}, {"type": "electric_scooter", "lon": -77.02944816666667, "is_disabled": 0, "name": "924b25cfe0fa6f313fc3033c72c4d128", "lat": 38.91692283333333, "fusion_lat": 0.0, "is_reserved": 0, "rental_uris": {"ios": "https://dc.lft.to/lastmile_qr_scan", "android": "https://dc.lft.to/lastmile_qr_scan"}, "fusion_lon": 0.0, "bike_id": "924b25cfe0fa6f313fc3033c72c4d128"}, {"type": "electric_scooter", "lon": -77.02785766666666, "is_disabled": 0, "name": "763d9fe9ab0baa711d2e3faf491e0cb1", "lat": 38.961287166666665, "fusion_lat": 0.0, "is_reserved": 0, "rental_uris": {"ios": "https://dc.lft.to/lastmile_qr_scan", "android": "https://dc.lft.to/lastmile_qr_scan"}, "fusion_lon": 0.0, "bike_id": "763d9fe9ab0baa711d2e3faf491e0cb1"}, {"type": "electric_scooter", "lon": -77.03826466666666, "is_disabled": 0, "name": "f1e02b5ebd13c91115faf1392e966cf0", "lat": 38.9126825, "fusion_lat": 0.0, "is_reserved": 0, "rental_uris": {"ios": "https://dc.lft.to/lastmile_qr_scan", "android": "https://dc.lft.to/lastmile_qr_scan"}, "fusion_lon": 0.0, "bike_id": "f1e02b5ebd13c91115faf1392e966cf0"}, {"type": "electric_scooter", "lon": -77.04359333333333, "is_disabled": 0, "name": "89116a3adeab456965c6b61745bf36c5", "lat": 38.9210585, "fusion_lat": 0.0, "is_reserved": 0, "rental_uris": {"ios": "https://dc.lft.to/lastmile_qr_scan", "android": "https://dc.lft.to/lastmile_qr_scan"}, "fusion_lon": 0.0, "bike_id": "89116a3adeab456965c6b61745bf36c5"}, {"type": "electric_bike", "lon": -76.97703616666666, "is_disabled": 0, "name": "6cb1d5a228b27b02f396b772349773dd", "lat": 38.82211483333333, "fusion_lat": 0.0, "is_reserved": 0, "rental_uris": {"ios": "https://dc.lft.to/lastmile_qr_scan", "android": "https://dc.lft.to/lastmile_qr_scan"}, "fusion_lon": 0.0, "bike_id": "6cb1d5a228b27b02f396b772349773dd"}, {"type": "electric_scooter", "lon": -77.07231083333333, "is_disabled": 0, "name": "50856a056426cdf65177569ff2b3a165", "lat": 38.92365183333333, "fusion_lat": 0.0, "is_reserved": 0, "rental_uris": {"ios": "https://dc.lft.to/lastmile_qr_scan", "android": "https://dc.lft.to/lastmile_qr_scan"}, "fusion_lon": 0.0, "bike_id": "50856a056426cdf65177569ff2b3a165"}, {"type": "electric_scooter", "lon": -77.04499533333333, "is_disabled": 0, "name": "6dbbdacd9e14a639f54fc331f079b1f4", "lat": 38.892230833333336, "fusion_lat": 0.0, "is_reserved": 0, "rental_uris": {"ios": "https://dc.lft.to/lastmile_qr_scan", "android": "https://dc.lft.to/lastmile_qr_scan"}, "fusion_lon": 0.0, "bike_id": "6dbbdacd9e14a639f54fc331f079b1f4"}, {"type": "electric_scooter", "lon": -77.03463166666667, "is_disabled": 0, "name": "beba69d2235ff841a5fc2fa8f6ff10fb", "lat": 38.929159166666665, "fusion_lat": 0.0, "is_reserved": 0, "rental_uris": {"ios": "https://dc.lft.to/lastmile_qr_scan", "android": "https://dc.lft.to/lastmile_qr_scan"}, "fusion_lon": 0.0, "bike_id": "beba69d2235ff841a5fc2fa8f6ff10fb"}, {"type": "electric_scooter", "lon": -76.9352415, "is_disabled": 0, "name": "8c10a615fda33c5dbadffcc08006ffe3", "lat": 38.87895016666667, "fusion_lat": 0.0, "is_reserved": 0, "rental_uris": {"ios": "https://dc.lft.to/lastmile_qr_scan", "android": "https://dc.lft.to/lastmile_qr_scan"}, "fusion_lon": 0.0, "bike_id": "8c10a615fda33c5dbadffcc08006ffe3"}, {"type": "electric_scooter", "lon": -76.98541916666667, "is_disabled": 0, "name": "9fe1020c174d970026454d7369305a17", "lat": 38.90589833333333, "fusion_lat": 0.0, "is_reserved": 0, "rental_uris": {"ios": "https://dc.lft.to/lastmile_qr_scan", "android": "https://dc.lft.to/lastmile_qr_scan"}, "fusion_lon": 0.0, "bike_id": "9fe1020c174d970026454d7369305a17"}, {"type": "electric_scooter", "lon": -77.04380716666667, "is_disabled": 0, "name": "b6f9d3831407cfaf25d7ebe714f24239", "lat": 38.89869766666666, "fusion_lat": 0.0, "is_reserved": 0, "rental_uris": {"ios": "https://dc.lft.to/lastmile_qr_scan", "android": "https://dc.lft.to/lastmile_qr_scan"}, "fusion_lon": 0.0, "bike_id": "b6f9d3831407cfaf25d7ebe714f24239"}, {"type": "electric_scooter", "lon": -76.998553, "is_disabled": 0, "name": "ef091363bc8da3a5cc83af1f19ac9fd3", "lat": 38.896235833333336, "fusion_lat": 0.0, "is_reserved": 0, "rental_uris": {"ios": "https://dc.lft.to/lastmile_qr_scan", "android": "https://dc.lft.to/lastmile_qr_scan"}, "fusion_lon": 0.0, "bike_id": "ef091363bc8da3a5cc83af1f19ac9fd3"}, {"type": "electric_scooter", "lon": -77.05204866666666, "is_disabled": 0, "name": "654aa0996e7a332afc3d947107c8db5a", "lat": 38.90261433333333, "fusion_lat": 0.0, "is_reserved": 0, "rental_uris": {"ios": "https://dc.lft.to/lastmile_qr_scan", "android": "https://dc.lft.to/lastmile_qr_scan"}, "fusion_lon": 0.0, "bike_id": "654aa0996e7a332afc3d947107c8db5a"}, {"type": "electric_scooter", "lon": -77.06461966666667, "is_disabled": 0, "name": "133910fe723d46e76253b93222529f2b", "lat": 38.910486166666665, "fusion_lat": 0.0, "is_reserved": 0, "rental_uris": {"ios": "https://dc.lft.to/lastmile_qr_scan", "android": "https://dc.lft.to/lastmile_qr_scan"}, "fusion_lon": 0.0, "bike_id": "133910fe723d46e76253b93222529f2b"}, {"type": "electric_scooter", "lon": -76.99518083333334, "is_disabled": 0, "name": "e2653fb073299a207f4002f0c35436b9", "lat": 38.88370316666666, "fusion_lat": 0.0, "is_reserved": 0, "rental_uris": {"ios": "https://dc.lft.to/lastmile_qr_scan", "android": "https://dc.lft.to/lastmile_qr_scan"}, "fusion_lon": 0.0, "bike_id": "e2653fb073299a207f4002f0c35436b9"}, {"type": "electric_bike", "lon": -77.0656435, "is_disabled": 0, "name": "8e8189a8b4ed7c4696366890f6c58e31", "lat": 38.93264883333333, "fusion_lat": 0.0, "is_reserved": 0, "rental_uris": {"ios": "https://dc.lft.to/lastmile_qr_scan", "android": "https://dc.lft.to/lastmile_qr_scan"}, "fusion_lon": 0.0, "bike_id": "8e8189a8b4ed7c4696366890f6c58e31"}, {"type": "electric_scooter", "lon": -77.0282755, "is_disabled": 0, "name": "16f110d6aa0c088b9ff8601cade32d12", "lat": 38.902680833333335, "fusion_lat": 0.0, "is_reserved": 0, "rental_uris": {"ios": "https://dc.lft.to/lastmile_qr_scan", "android": "https://dc.lft.to/lastmile_qr_scan"}, "fusion_lon": 0.0, "bike_id": "16f110d6aa0c088b9ff8601cade32d12"}, {"type": "electric_scooter", "lon": -77.0365575, "is_disabled": 0, "name": "584cdafcab0367f56c11aa916c142f7c", "lat": 38.927616, "fusion_lat": 0.0, "is_reserved": 0, "rental_uris": {"ios": "https://dc.lft.to/lastmile_qr_scan", "android": "https://dc.lft.to/lastmile_qr_scan"}, "fusion_lon": 0.0, "bike_id": "584cdafcab0367f56c11aa916c142f7c"}, {"type": "electric_scooter", "lon": -77.02636283333334, "is_disabled": 0, "name": "8676e58df7788ac2a77acb4238d9a1fc", "lat": 38.9302785, "fusion_lat": 0.0, "is_reserved": 0, "rental_uris": {"ios": "https://dc.lft.to/lastmile_qr_scan", "android": "https://dc.lft.to/lastmile_qr_scan"}, "fusion_lon": 0.0, "bike_id": "8676e58df7788ac2a77acb4238d9a1fc"}, {"type": "electric_scooter", "lon": -77.03890916666667, "is_disabled": 0, "name": "162af0e7a76f325b4d9d32d22809dbf1", "lat": 38.92243716666667, "fusion_lat": 0.0, "is_reserved": 0, "rental_uris": {"ios": "https://dc.lft.to/lastmile_qr_scan", "android": "https://dc.lft.to/lastmile_qr_scan"}, "fusion_lon": 0.0, "bike_id": "162af0e7a76f325b4d9d32d22809dbf1"}, {"type": "electric_scooter", "lon": -77.03119133333334, "is_disabled": 0, "name": "9067afe694ed87a89e0e1ab86e0a1876", "lat": 38.903564333333335, "fusion_lat": 0.0, "is_reserved": 0, "rental_uris": {"ios": "https://dc.lft.to/lastmile_qr_scan", "android": "https://dc.lft.to/lastmile_qr_scan"}, "fusion_lon": 0.0, "bike_id": "9067afe694ed87a89e0e1ab86e0a1876"}, {"type": "electric_scooter", "lon": -77.0283235, "is_disabled": 0, "name": "db8277817ca1839b74b72746e047a427", "lat": 38.9247165, "fusion_lat": 0.0, "is_reserved": 0, "rental_uris": {"ios": "https://dc.lft.to/lastmile_qr_scan", "android": "https://dc.lft.to/lastmile_qr_scan"}, "fusion_lon": 0.0, "bike_id": "db8277817ca1839b74b72746e047a427"}, {"type": "electric_scooter", "lon": -77.00321233333334, "is_disabled": 0, "name": "74818221f56e6b5417be5bb105f5424c", "lat": 38.90122816666667, "fusion_lat": 0.0, "is_reserved": 0, "rental_uris": {"ios": "https://dc.lft.to/lastmile_qr_scan", "android": "https://dc.lft.to/lastmile_qr_scan"}, "fusion_lon": 0.0, "bike_id": "74818221f56e6b5417be5bb105f5424c"}, {"type": "electric_scooter", "lon": -77.01514483333334, "is_disabled": 0, "name": "e0ee2aab558b01260ae40a220bc9dde1", "lat": 38.895627833333336, "fusion_lat": 0.0, "is_reserved": 0, "rental_uris": {"ios": "https://dc.lft.to/lastmile_qr_scan", "android": "https://dc.lft.to/lastmile_qr_scan"}, "fusion_lon": 0.0, "bike_id": "e0ee2aab558b01260ae40a220bc9dde1"}, {"type": "electric_scooter", "lon": -77.01609383333333, "is_disabled": 0, "name": "7748d8f9fe037433898b2108ee46a35e", "lat": 38.9130585, "fusion_lat": 0.0, "is_reserved": 0, "rental_uris": {"ios": "https://dc.lft.to/lastmile_qr_scan", "android": "https://dc.lft.to/lastmile_qr_scan"}, "fusion_lon": 0.0, "bike_id": "7748d8f9fe037433898b2108ee46a35e"}, {"type": "electric_scooter", "lon": -77.02377866666667, "is_disabled": 0, "name": "8400447ce69d838e5c18b35eabf4d718", "lat": 38.95267916666667, "fusion_lat": 0.0, "is_reserved": 0, "rental_uris": {"ios": "https://dc.lft.to/lastmile_qr_scan", "android": "https://dc.lft.to/lastmile_qr_scan"}, "fusion_lon": 0.0, "bike_id": "8400447ce69d838e5c18b35eabf4d718"}, {"type": "electric_scooter", "lon": -77.026083, "is_disabled": 0, "name": "e850d11ae09bb1728ae4220b1172aca1", "lat": 38.900537, "fusion_lat": 0.0, "is_reserved": 0, "rental_uris": {"ios": "https://dc.lft.to/lastmile_qr_scan", "android": "https://dc.lft.to/lastmile_qr_scan"}, "fusion_lon": 0.0, "bike_id": "e850d11ae09bb1728ae4220b1172aca1"}, {"type": "electric_scooter", "lon": -77.0333385, "is_disabled": 0, "name": "cfc22f193bd5e8477a37792ebe694f07", "lat": 38.908313166666666, "fusion_lat": 0.0, "is_reserved": 0, "rental_uris": {"ios": "https://dc.lft.to/lastmile_qr_scan", "android": "https://dc.lft.to/lastmile_qr_scan"}, "fusion_lon": 0.0, "bike_id": "cfc22f193bd5e8477a37792ebe694f07"}, {"type": "electric_scooter", "lon": -77.04509516666667, "is_disabled": 0, "name": "6779a3b7717fd7889af37719289e5339", "lat": 38.9183225, "fusion_lat": 0.0, "is_reserved": 0, "rental_uris": {"ios": "https://dc.lft.to/lastmile_qr_scan", "android": "https://dc.lft.to/lastmile_qr_scan"}, "fusion_lon": 0.0, "bike_id": "6779a3b7717fd7889af37719289e5339"}, {"type": "electric_scooter", "lon": -77.02957633333334, "is_disabled": 0, "name": "36ccd376f11ad2bb1ab15de8f812f690", "lat": 38.9238205, "fusion_lat": 0.0, "is_reserved": 0, "rental_uris": {"ios": "https://dc.lft.to/lastmile_qr_scan", "android": "https://dc.lft.to/lastmile_qr_scan"}, "fusion_lon": 0.0, "bike_id": "36ccd376f11ad2bb1ab15de8f812f690"}, {"type": "electric_scooter", "lon": -76.94083916666666, "is_disabled": 0, "name": "71054d723833e53a7bcb94f1505934d4", "lat": 38.89122233333333, "fusion_lat": 0.0, "is_reserved": 0, "rental_uris": {"ios": "https://dc.lft.to/lastmile_qr_scan", "android": "https://dc.lft.to/lastmile_qr_scan"}, "fusion_lon": 0.0, "bike_id": "71054d723833e53a7bcb94f1505934d4"}, {"type": "electric_scooter", "lon": -77.00899566666666, "is_disabled": 0, "name": "0028a0973a5bbafae1fb2ca9f5f65c13", "lat": 38.89897416666667, "fusion_lat": 0.0, "is_reserved": 0, "rental_uris": {"ios": "https://dc.lft.to/lastmile_qr_scan", "android": "https://dc.lft.to/lastmile_qr_scan"}, "fusion_lon": 0.0, "bike_id": "0028a0973a5bbafae1fb2ca9f5f65c13"}, {"type": "electric_scooter", "lon": -77.04062266666666, "is_disabled": 0, "name": "7e92848963e4dee4d8e0975ae8eefe50", "lat": 38.903652666666666, "fusion_lat": 0.0, "is_reserved": 0, "rental_uris": {"ios": "https://dc.lft.to/lastmile_qr_scan", "android": "https://dc.lft.to/lastmile_qr_scan"}, "fusion_lon": 0.0, "bike_id": "7e92848963e4dee4d8e0975ae8eefe50"}, {"type": "electric_scooter", "lon": -77.04541566666667, "is_disabled": 0, "name": "52265e4c7fb82c2f5d7e710aa67ef96a", "lat": 38.90276083333333, "fusion_lat": 0.0, "is_reserved": 0, "rental_uris": {"ios": "https://dc.lft.to/lastmile_qr_scan", "android": "https://dc.lft.to/lastmile_qr_scan"}, "fusion_lon": 0.0, "bike_id": "52265e4c7fb82c2f5d7e710aa67ef96a"}, {"type": "electric_scooter", "lon": -77.03865816666666, "is_disabled": 0, "name": "9e77ea2d13d2abfe45b51cec1efa5ea9", "lat": 38.91686, "fusion_lat": 0.0, "is_reserved": 0, "rental_uris": {"ios": "https://dc.lft.to/lastmile_qr_scan", "android": "https://dc.lft.to/lastmile_qr_scan"}, "fusion_lon": 0.0, "bike_id": "9e77ea2d13d2abfe45b51cec1efa5ea9"}, {"type": "electric_scooter", "lon": -77.02002866666666, "is_disabled": 0, "name": "a05eb760816b333caf0673bd7e45113c", "lat": 38.894868833333334, "fusion_lat": 0.0, "is_reserved": 0, "rental_uris": {"ios": "https://dc.lft.to/lastmile_qr_scan", "android": "https://dc.lft.to/lastmile_qr_scan"}, "fusion_lon": 0.0, "bike_id": "a05eb760816b333caf0673bd7e45113c"}, {"type": "electric_scooter", "lon": -77.04028716666667, "is_disabled": 0, "name": "c1c30def2a4b4740cc77b31f38890349", "lat": 38.918453166666666, "fusion_lat": 0.0, "is_reserved": 0, "rental_uris": {"ios": "https://dc.lft.to/lastmile_qr_scan", "android": "https://dc.lft.to/lastmile_qr_scan"}, "fusion_lon": 0.0, "bike_id": "c1c30def2a4b4740cc77b31f38890349"}, {"type": "electric_scooter", "lon": -77.025286, "is_disabled": 0, "name": "0e7c97e1014f73bd3c20fc6ff82bc20f", "lat": 38.8996535, "fusion_lat": 0.0, "is_reserved": 0, "rental_uris": {"ios": "https://dc.lft.to/lastmile_qr_scan", "android": "https://dc.lft.to/lastmile_qr_scan"}, "fusion_lon": 0.0, "bike_id": "0e7c97e1014f73bd3c20fc6ff82bc20f"}, {"type": "electric_scooter", "lon": -77.0207845, "is_disabled": 0, "name": "363acc409537d843b63c04b326b15908", "lat": 38.92716816666667, "fusion_lat": 0.0, "is_reserved": 0, "rental_uris": {"ios": "https://dc.lft.to/lastmile_qr_scan", "android": "https://dc.lft.to/lastmile_qr_scan"}, "fusion_lon": 0.0, "bike_id": "363acc409537d843b63c04b326b15908"}, {"type": "electric_scooter", "lon": -77.03439266666666, "is_disabled": 0, "name": "23e03e64990fc940e0ccf1e2215ae555", "lat": 38.93434, "fusion_lat": 0.0, "is_reserved": 0, "rental_uris": {"ios": "https://dc.lft.to/lastmile_qr_scan", "android": "https://dc.lft.to/lastmile_qr_scan"}, "fusion_lon": 0.0, "bike_id": "23e03e64990fc940e0ccf1e2215ae555"}, {"type": "electric_scooter", "lon": -77.03350116666667, "is_disabled": 0, "name": "cccb52c83a82c2e211bdb3a02e9b410e", "lat": 38.93575583333333, "fusion_lat": 0.0, "is_reserved": 0, "rental_uris": {"ios": "https://dc.lft.to/lastmile_qr_scan", "android": "https://dc.lft.to/lastmile_qr_scan"}, "fusion_lon": 0.0, "bike_id": "cccb52c83a82c2e211bdb3a02e9b410e"}, {"type": "electric_bike", "lon": -77.08529183333333, "is_disabled": 0, "name": "74c453cbed1042896b572e88117569bf", "lat": 38.856476666666666, "fusion_lat": 0.0, "is_reserved": 0, "rental_uris": {"ios": "https://dc.lft.to/lastmile_qr_scan", "android": "https://dc.lft.to/lastmile_qr_scan"}, "fusion_lon": 0.0, "bike_id": "74c453cbed1042896b572e88117569bf"}, {"type": "electric_scooter", "lon": -77.06084166666666, "is_disabled": 0, "name": "33e2aa23403b7b293674b35852b6d367", "lat": 38.91188966666667, "fusion_lat": 0.0, "is_reserved": 0, "rental_uris": {"ios": "https://dc.lft.to/lastmile_qr_scan", "android": "https://dc.lft.to/lastmile_qr_scan"}, "fusion_lon": 0.0, "bike_id": "33e2aa23403b7b293674b35852b6d367"}, {"type": "electric_scooter", "lon": -77.00600433333334, "is_disabled": 0, "name": "e434a7525f29048d0485f6fbdec3b49e", "lat": 38.90592916666667, "fusion_lat": 0.0, "is_reserved": 0, "rental_uris": {"ios": "https://dc.lft.to/lastmile_qr_scan", "android": "https://dc.lft.to/lastmile_qr_scan"}, "fusion_lon": 0.0, "bike_id": "e434a7525f29048d0485f6fbdec3b49e"}, {"type": "electric_scooter", "lon": -77.0680075, "is_disabled": 0, "name": "a0c21ef43133327243e2af322a0776f9", "lat": 38.91563566666667, "fusion_lat": 0.0, "is_reserved": 0, "rental_uris": {"ios": "https://dc.lft.to/lastmile_qr_scan", "android": "https://dc.lft.to/lastmile_qr_scan"}, "fusion_lon": 0.0, "bike_id": "a0c21ef43133327243e2af322a0776f9"}, {"type": "electric_scooter", "lon": -77.019051, "is_disabled": 0, "name": "31205a9b9ead487925cce45d61358550", "lat": 38.94417283333333, "fusion_lat": 0.0, "is_reserved": 0, "rental_uris": {"ios": "https://dc.lft.to/lastmile_qr_scan", "android": "https://dc.lft.to/lastmile_qr_scan"}, "fusion_lon": 0.0, "bike_id": "31205a9b9ead487925cce45d61358550"}, {"type": "electric_scooter", "lon": -77.04613933333333, "is_disabled": 0, "name": "a1e6cb520a31e5cdfae009b327757e50", "lat": 38.8980425, "fusion_lat": 0.0, "is_reserved": 0, "rental_uris": {"ios": "https://dc.lft.to/lastmile_qr_scan", "android": "https://dc.lft.to/lastmile_qr_scan"}, "fusion_lon": 0.0, "bike_id": "a1e6cb520a31e5cdfae009b327757e50"}, {"type": "electric_scooter", "lon": -77.0194765, "is_disabled": 0, "name": "9d398940fbba91a5f6ec1050832e5603", "lat": 38.9243935, "fusion_lat": 0.0, "is_reserved": 0, "rental_uris": {"ios": "https://dc.lft.to/lastmile_qr_scan", "android": "https://dc.lft.to/lastmile_qr_scan"}, "fusion_lon": 0.0, "bike_id": "9d398940fbba91a5f6ec1050832e5603"}, {"type": "electric_scooter", "lon": -76.9487305, "is_disabled": 0, "name": "8eb7389a7b27d5d92a0e060eeb7674d0", "lat": 38.89499933333333, "fusion_lat": 0.0, "is_reserved": 0, "rental_uris": {"ios": "https://dc.lft.to/lastmile_qr_scan", "android": "https://dc.lft.to/lastmile_qr_scan"}, "fusion_lon": 0.0, "bike_id": "8eb7389a7b27d5d92a0e060eeb7674d0"}, {"type": "electric_bike", "lon": -77.23388466666667, "is_disabled": 0, "name": "9d616306801b0e1d3b209ac6126c5660", "lat": 38.871734000000004, "fusion_lat": 0.0, "is_reserved": 0, "rental_uris": {"ios": "https://dc.lft.to/lastmile_qr_scan", "android": "https://dc.lft.to/lastmile_qr_scan"}, "fusion_lon": 0.0, "bike_id": "9d616306801b0e1d3b209ac6126c5660"}, {"type": "electric_scooter", "lon": -77.0424325, "is_disabled": 0, "name": "8212d810ca3a287573f8a0a434f68569", "lat": 38.92063066666667, "fusion_lat": 0.0, "is_reserved": 0, "rental_uris": {"ios": "https://dc.lft.to/lastmile_qr_scan", "android": "https://dc.lft.to/lastmile_qr_scan"}, "fusion_lon": 0.0, "bike_id": "8212d810ca3a287573f8a0a434f68569"}, {"type": "electric_scooter", "lon": -77.03528516666667, "is_disabled": 0, "name": "c1c46dd8c058d8585660e162bc5c895e", "lat": 38.921797833333336, "fusion_lat": 0.0, "is_reserved": 0, "rental_uris": {"ios": "https://dc.lft.to/lastmile_qr_scan", "android": "https://dc.lft.to/lastmile_qr_scan"}, "fusion_lon": 0.0, "bike_id": "c1c46dd8c058d8585660e162bc5c895e"}, {"type": "electric_scooter", "lon": -77.05010233333333, "is_disabled": 0, "name": "2667538786fc58789a43b162187f6bbd", "lat": 38.8982215, "fusion_lat": 0.0, "is_reserved": 0, "rental_uris": {"ios": "https://dc.lft.to/lastmile_qr_scan", "android": "https://dc.lft.to/lastmile_qr_scan"}, "fusion_lon": 0.0, "bike_id": "2667538786fc58789a43b162187f6bbd"}, {"type": "electric_scooter", "lon": -76.992575, "is_disabled": 0, "name": "3ed802ea3e689caa0ba79c78e5b8bf7d", "lat": 38.903119, "fusion_lat": 0.0, "is_reserved": 0, "rental_uris": {"ios": "https://dc.lft.to/lastmile_qr_scan", "android": "https://dc.lft.to/lastmile_qr_scan"}, "fusion_lon": 0.0, "bike_id": "3ed802ea3e689caa0ba79c78e5b8bf7d"}, {"type": "electric_scooter", "lon": -77.0059805, "is_disabled": 0, "name": "c92b2fc2e80ce9144a68ec3ec30de44d", "lat": 38.8754585, "fusion_lat": 0.0, "is_reserved": 0, "rental_uris": {"ios": "https://dc.lft.to/lastmile_qr_scan", "android": "https://dc.lft.to/lastmile_qr_scan"}, "fusion_lon": 0.0, "bike_id": "c92b2fc2e80ce9144a68ec3ec30de44d"}, {"type": "electric_bike", "lon": -77.0968265, "is_disabled": 0, "name": "af6b0ec7893e7d7d789f59c1b7152534", "lat": 38.807384666666664, "fusion_lat": 0.0, "is_reserved": 0, "rental_uris": {"ios": "https://dc.lft.to/lastmile_qr_scan", "android": "https://dc.lft.to/lastmile_qr_scan"}, "fusion_lon": 0.0, "bike_id": "af6b0ec7893e7d7d789f59c1b7152534"}, {"type": "electric_scooter", "lon": -77.03219233333333, "is_disabled": 0, "name": "13edf3085c7c3f36fb49c6f804cb4e99", "lat": 38.904704, "fusion_lat": 0.0, "is_reserved": 0, "rental_uris": {"ios": "https://dc.lft.to/lastmile_qr_scan", "android": "https://dc.lft.to/lastmile_qr_scan"}, "fusion_lon": 0.0, "bike_id": "13edf3085c7c3f36fb49c6f804cb4e99"}, {"type": "electric_scooter", "lon": -77.03398833333334, "is_disabled": 0, "name": "7f14aa20e99afa1794e35ecc2949e1a3", "lat": 38.92535566666667, "fusion_lat": 0.0, "is_reserved": 0, "rental_uris": {"ios": "https://dc.lft.to/lastmile_qr_scan", "android": "https://dc.lft.to/lastmile_qr_scan"}, "fusion_lon": 0.0, "bike_id": "7f14aa20e99afa1794e35ecc2949e1a3"}, {"type": "electric_scooter", "lon": -77.03461716666666, "is_disabled": 0, "name": "8b01e99d9a29fff4dc400232c58c7405", "lat": 38.915777, "fusion_lat": 0.0, "is_reserved": 0, "rental_uris": {"ios": "https://dc.lft.to/lastmile_qr_scan", "android": "https://dc.lft.to/lastmile_qr_scan"}, "fusion_lon": 0.0, "bike_id": "8b01e99d9a29fff4dc400232c58c7405"}, {"type": "electric_scooter", "lon": -77.02137466666667, "is_disabled": 0, "name": "23445b141338ad83df32ce2fd0e7360b", "lat": 38.9212055, "fusion_lat": 0.0, "is_reserved": 0, "rental_uris": {"ios": "https://dc.lft.to/lastmile_qr_scan", "android": "https://dc.lft.to/lastmile_qr_scan"}, "fusion_lon": 0.0, "bike_id": "23445b141338ad83df32ce2fd0e7360b"}, {"type": "electric_scooter", "lon": -77.0340495, "is_disabled": 0, "name": "75e58b49d86b59c26e3f65398a66a8d8", "lat": 38.923602, "fusion_lat": 0.0, "is_reserved": 0, "rental_uris": {"ios": "https://dc.lft.to/lastmile_qr_scan", "android": "https://dc.lft.to/lastmile_qr_scan"}, "fusion_lon": 0.0, "bike_id": "75e58b49d86b59c26e3f65398a66a8d8"}, {"type": "electric_scooter", "lon": -76.985122, "is_disabled": 0, "name": "a03254b597a1f7a6333bc03183ab862f", "lat": 38.90048566666667, "fusion_lat": 0.0, "is_reserved": 0, "rental_uris": {"ios": "https://dc.lft.to/lastmile_qr_scan", "android": "https://dc.lft.to/lastmile_qr_scan"}, "fusion_lon": 0.0, "bike_id": "a03254b597a1f7a6333bc03183ab862f"}, {"type": "electric_scooter", "lon": -77.0384865, "is_disabled": 0, "name": "53cdeb34eef32fa4c8671b4adf6f52dd", "lat": 38.9027955, "fusion_lat": 0.0, "is_reserved": 0, "rental_uris": {"ios": "https://dc.lft.to/lastmile_qr_scan", "android": "https://dc.lft.to/lastmile_qr_scan"}, "fusion_lon": 0.0, "bike_id": "53cdeb34eef32fa4c8671b4adf6f52dd"}, {"type": "electric_scooter", "lon": -77.0152085, "is_disabled": 0, "name": "ca6b8b726584df65e66dcf447a5ebba9", "lat": 38.872806833333335, "fusion_lat": 0.0, "is_reserved": 0, "rental_uris": {"ios": "https://dc.lft.to/lastmile_qr_scan", "android": "https://dc.lft.to/lastmile_qr_scan"}, "fusion_lon": 0.0, "bike_id": "ca6b8b726584df65e66dcf447a5ebba9"}, {"type": "electric_bike", "lon": -77.02638483333334, "is_disabled": 0, "name": "affebf9141a7fc2558fa00a6dd3c46a8", "lat": 38.936000166666666, "fusion_lat": 0.0, "is_reserved": 0, "rental_uris": {"ios": "https://dc.lft.to/lastmile_qr_scan", "android": "https://dc.lft.to/lastmile_qr_scan"}, "fusion_lon": 0.0, "bike_id": "affebf9141a7fc2558fa00a6dd3c46a8"}, {"type": "electric_scooter", "lon": -77.039931, "is_disabled": 0, "name": "f641f3517a20201e9ba393e28dbe956c", "lat": 38.93391666666667, "fusion_lat": 0.0, "is_reserved": 0, "rental_uris": {"ios": "https://dc.lft.to/lastmile_qr_scan", "android": "https://dc.lft.to/lastmile_qr_scan"}, "fusion_lon": 0.0, "bike_id": "f641f3517a20201e9ba393e28dbe956c"}, {"type": "electric_scooter", "lon": -77.03868733333333, "is_disabled": 0, "name": "e7af04744bc57825153047aecc8c9b45", "lat": 38.90638766666667, "fusion_lat": 0.0, "is_reserved": 0, "rental_uris": {"ios": "https://dc.lft.to/lastmile_qr_scan", "android": "https://dc.lft.to/lastmile_qr_scan"}, "fusion_lon": 0.0, "bike_id": "e7af04744bc57825153047aecc8c9b45"}, {"type": "electric_scooter", "lon": -77.02338816666666, "is_disabled": 0, "name": "7de6ac329d8aa856a2368a7fcb3c2457", "lat": 38.9573655, "fusion_lat": 0.0, "is_reserved": 0, "rental_uris": {"ios": "https://dc.lft.to/lastmile_qr_scan", "android": "https://dc.lft.to/lastmile_qr_scan"}, "fusion_lon": 0.0, "bike_id": "7de6ac329d8aa856a2368a7fcb3c2457"}, {"type": "electric_scooter", "lon": -77.04306816666667, "is_disabled": 0, "name": "f64cc36fe0a57aa0467e0a74c40f4d78", "lat": 38.918777666666664, "fusion_lat": 0.0, "is_reserved": 0, "rental_uris": {"ios": "https://dc.lft.to/lastmile_qr_scan", "android": "https://dc.lft.to/lastmile_qr_scan"}, "fusion_lon": 0.0, "bike_id": "f64cc36fe0a57aa0467e0a74c40f4d78"}, {"type": "electric_scooter", "lon": -77.04357533333334, "is_disabled": 0, "name": "1444fe2256b752742316bdffe032d2e0", "lat": 38.90155816666667, "fusion_lat": 0.0, "is_reserved": 0, "rental_uris": {"ios": "https://dc.lft.to/lastmile_qr_scan", "android": "https://dc.lft.to/lastmile_qr_scan"}, "fusion_lon": 0.0, "bike_id": "1444fe2256b752742316bdffe032d2e0"}, {"type": "electric_scooter", "lon": -77.028157, "is_disabled": 0, "name": "030e36d31d51fe9dfcdcb977c59e45d7", "lat": 38.91430533333333, "fusion_lat": 0.0, "is_reserved": 0, "rental_uris": {"ios": "https://dc.lft.to/lastmile_qr_scan", "android": "https://dc.lft.to/lastmile_qr_scan"}, "fusion_lon": 0.0, "bike_id": "030e36d31d51fe9dfcdcb977c59e45d7"}, {"type": "electric_scooter", "lon": -76.99381816666667, "is_disabled": 0, "name": "cd35e882ab5dc78fa82b044d2ce1a967", "lat": 38.882123666666665, "fusion_lat": 0.0, "is_reserved": 0, "rental_uris": {"ios": "https://dc.lft.to/lastmile_qr_scan", "android": "https://dc.lft.to/lastmile_qr_scan"}, "fusion_lon": 0.0, "bike_id": "cd35e882ab5dc78fa82b044d2ce1a967"}, {"type": "electric_scooter", "lon": -77.0033655, "is_disabled": 0, "name": "4c678576284ad36d7e1b928c2877ef7d", "lat": 38.89357483333333, "fusion_lat": 0.0, "is_reserved": 0, "rental_uris": {"ios": "https://dc.lft.to/lastmile_qr_scan", "android": "https://dc.lft.to/lastmile_qr_scan"}, "fusion_lon": 0.0, "bike_id": "4c678576284ad36d7e1b928c2877ef7d"}, {"type": "electric_scooter", "lon": -77.0484495, "is_disabled": 0, "name": "5612dc7a21b3031cbd3d46b783503d9c", "lat": 38.900531666666666, "fusion_lat": 0.0, "is_reserved": 0, "rental_uris": {"ios": "https://dc.lft.to/lastmile_qr_scan", "android": "https://dc.lft.to/lastmile_qr_scan"}, "fusion_lon": 0.0, "bike_id": "5612dc7a21b3031cbd3d46b783503d9c"}, {"type": "electric_scooter", "lon": -77.045934, "is_disabled": 0, "name": "81e08b499552cc0a3e07d14d7681fbc0", "lat": 38.91689783333333, "fusion_lat": 0.0, "is_reserved": 0, "rental_uris": {"ios": "https://dc.lft.to/lastmile_qr_scan", "android": "https://dc.lft.to/lastmile_qr_scan"}, "fusion_lon": 0.0, "bike_id": "81e08b499552cc0a3e07d14d7681fbc0"}, {"type": "electric_scooter", "lon": -77.00606633333334, "is_disabled": 0, "name": "f0960db22979ae9b27f2af8eb175b1f9", "lat": 38.90168, "fusion_lat": 0.0, "is_reserved": 0, "rental_uris": {"ios": "https://dc.lft.to/lastmile_qr_scan", "android": "https://dc.lft.to/lastmile_qr_scan"}, "fusion_lon": 0.0, "bike_id": "f0960db22979ae9b27f2af8eb175b1f9"}, {"type": "electric_bike", "lon": -76.9569765, "is_disabled": 0, "name": "b0b1f0e7e98e35c8f00b2215ea940acd", "lat": 38.888792, "fusion_lat": 0.0, "is_reserved": 0, "rental_uris": {"ios": "https://dc.lft.to/lastmile_qr_scan", "android": "https://dc.lft.to/lastmile_qr_scan"}, "fusion_lon": 0.0, "bike_id": "b0b1f0e7e98e35c8f00b2215ea940acd"}, {"type": "electric_scooter", "lon": -77.0195295, "is_disabled": 0, "name": "00fd25f8e5eadf354bcc1e0643643cdd", "lat": 38.929317833333336, "fusion_lat": 0.0, "is_reserved": 0, "rental_uris": {"ios": "https://dc.lft.to/lastmile_qr_scan", "android": "https://dc.lft.to/lastmile_qr_scan"}, "fusion_lon": 0.0, "bike_id": "00fd25f8e5eadf354bcc1e0643643cdd"}, {"type": "electric_scooter", "lon": -77.02122916666667, "is_disabled": 0, "name": "4a249d32beea7fab59b06bae5da3ed7b", "lat": 38.9237495, "fusion_lat": 0.0, "is_reserved": 0, "rental_uris": {"ios": "https://dc.lft.to/lastmile_qr_scan", "android": "https://dc.lft.to/lastmile_qr_scan"}, "fusion_lon": 0.0, "bike_id": "4a249d32beea7fab59b06bae5da3ed7b"}, {"type": "electric_scooter", "lon": -76.98355116666667, "is_disabled": 0, "name": "3827f0ac6a4d319d12eb8420c67ef20e", "lat": 38.88733583333333, "fusion_lat": 0.0, "is_reserved": 0, "rental_uris": {"ios": "https://dc.lft.to/lastmile_qr_scan", "android": "https://dc.lft.to/lastmile_qr_scan"}, "fusion_lon": 0.0, "bike_id": "3827f0ac6a4d319d12eb8420c67ef20e"}, {"type": "electric_scooter", "lon": -77.0486825, "is_disabled": 0, "name": "0fe1df0c33e375b702103d6be73cd7ce", "lat": 38.90483066666667, "fusion_lat": 0.0, "is_reserved": 0, "rental_uris": {"ios": "https://dc.lft.to/lastmile_qr_scan", "android": "https://dc.lft.to/lastmile_qr_scan"}, "fusion_lon": 0.0, "bike_id": "0fe1df0c33e375b702103d6be73cd7ce"}, {"type": "electric_scooter", "lon": -77.04611983333334, "is_disabled": 0, "name": "2e830ce684ea30b082fd3c4cad80e3e3", "lat": 38.922285333333335, "fusion_lat": 0.0, "is_reserved": 0, "rental_uris": {"ios": "https://dc.lft.to/lastmile_qr_scan", "android": "https://dc.lft.to/lastmile_qr_scan"}, "fusion_lon": 0.0, "bike_id": "2e830ce684ea30b082fd3c4cad80e3e3"}, {"type": "electric_bike", "lon": -77.06649533333334, "is_disabled": 0, "name": "661cbb6f0b2c6a0a33931622e74216d8", "lat": 38.90502733333334, "fusion_lat": 0.0, "is_reserved": 0, "rental_uris": {"ios": "https://dc.lft.to/lastmile_qr_scan", "android": "https://dc.lft.to/lastmile_qr_scan"}, "fusion_lon": 0.0, "bike_id": "661cbb6f0b2c6a0a33931622e74216d8"}, {"type": "electric_bike", "lon": -76.98765633333333, "is_disabled": 0, "name": "cbf12c2295d1fb3445008f4d1d050193", "lat": 38.857689666666666, "fusion_lat": 0.0, "is_reserved": 0, "rental_uris": {"ios": "https://dc.lft.to/lastmile_qr_scan", "android": "https://dc.lft.to/lastmile_qr_scan"}, "fusion_lon": 0.0, "bike_id": "cbf12c2295d1fb3445008f4d1d050193"}, {"type": "electric_scooter", "lon": -77.078796, "is_disabled": 0, "name": "e6883286b9dcb4b49afb4bb4e5ce9cc7", "lat": 38.94840416666667, "fusion_lat": 0.0, "is_reserved": 0, "rental_uris": {"ios": "https://dc.lft.to/lastmile_qr_scan", "android": "https://dc.lft.to/lastmile_qr_scan"}, "fusion_lon": 0.0, "bike_id": "e6883286b9dcb4b49afb4bb4e5ce9cc7"}, {"type": "electric_scooter", "lon": -77.021612, "is_disabled": 0, "name": "44482039e6cc4d8a89b3b0c3e6fe5e35", "lat": 38.92611483333334, "fusion_lat": 0.0, "is_reserved": 0, "rental_uris": {"ios": "https://dc.lft.to/lastmile_qr_scan", "android": "https://dc.lft.to/lastmile_qr_scan"}, "fusion_lon": 0.0, "bike_id": "44482039e6cc4d8a89b3b0c3e6fe5e35"}, {"type": "electric_scooter", "lon": -77.04986983333333, "is_disabled": 0, "name": "66e8321f48e785ec07dd1a7d1dbef124", "lat": 38.90111616666667, "fusion_lat": 0.0, "is_reserved": 0, "rental_uris": {"ios": "https://dc.lft.to/lastmile_qr_scan", "android": "https://dc.lft.to/lastmile_qr_scan"}, "fusion_lon": 0.0, "bike_id": "66e8321f48e785ec07dd1a7d1dbef124"}, {"type": "electric_scooter", "lon": -77.0281665, "is_disabled": 0, "name": "d4e4b4aa6a73f235f3640a15a136fa5e", "lat": 38.92972183333333, "fusion_lat": 0.0, "is_reserved": 0, "rental_uris": {"ios": "https://dc.lft.to/lastmile_qr_scan", "android": "https://dc.lft.to/lastmile_qr_scan"}, "fusion_lon": 0.0, "bike_id": "d4e4b4aa6a73f235f3640a15a136fa5e"}, {"type": "electric_scooter", "lon": -77.01116816666666, "is_disabled": 0, "name": "532eae670fa1fea8c9950b7a887763d2", "lat": 38.885078666666665, "fusion_lat": 0.0, "is_reserved": 0, "rental_uris": {"ios": "https://dc.lft.to/lastmile_qr_scan", "android": "https://dc.lft.to/lastmile_qr_scan"}, "fusion_lon": 0.0, "bike_id": "532eae670fa1fea8c9950b7a887763d2"}, {"type": "electric_scooter", "lon": -77.04246366666666, "is_disabled": 0, "name": "975f527084245576eb00d5e80145ad9d", "lat": 38.921993, "fusion_lat": 0.0, "is_reserved": 0, "rental_uris": {"ios": "https://dc.lft.to/lastmile_qr_scan", "android": "https://dc.lft.to/lastmile_qr_scan"}, "fusion_lon": 0.0, "bike_id": "975f527084245576eb00d5e80145ad9d"}, {"type": "electric_scooter", "lon": -77.02095816666667, "is_disabled": 0, "name": "86efb1af1fa38529ac2ade62b02c605d", "lat": 38.92163733333334, "fusion_lat": 0.0, "is_reserved": 0, "rental_uris": {"ios": "https://dc.lft.to/lastmile_qr_scan", "android": "https://dc.lft.to/lastmile_qr_scan"}, "fusion_lon": 0.0, "bike_id": "86efb1af1fa38529ac2ade62b02c605d"}, {"type": "electric_bike", "lon": -77.12976666666667, "is_disabled": 0, "name": "5642d89070467ab3c511acf8b912c5e3", "lat": 38.79987066666666, "fusion_lat": 0.0, "is_reserved": 0, "rental_uris": {"ios": "https://dc.lft.to/lastmile_qr_scan", "android": "https://dc.lft.to/lastmile_qr_scan"}, "fusion_lon": 0.0, "bike_id": "5642d89070467ab3c511acf8b912c5e3"}, {"type": "electric_scooter", "lon": -77.01675716666666, "is_disabled": 0, "name": "c881f3665f9e03075672061d699d0835", "lat": 38.920410333333336, "fusion_lat": 0.0, "is_reserved": 0, "rental_uris": {"ios": "https://dc.lft.to/lastmile_qr_scan", "android": "https://dc.lft.to/lastmile_qr_scan"}, "fusion_lon": 0.0, "bike_id": "c881f3665f9e03075672061d699d0835"}, {"type": "electric_scooter", "lon": -77.039046, "is_disabled": 0, "name": "5e33b30845d0593019a5a4e502bcbfe6", "lat": 38.91690916666667, "fusion_lat": 0.0, "is_reserved": 0, "rental_uris": {"ios": "https://dc.lft.to/lastmile_qr_scan", "android": "https://dc.lft.to/lastmile_qr_scan"}, "fusion_lon": 0.0, "bike_id": "5e33b30845d0593019a5a4e502bcbfe6"}, {"type": "electric_scooter", "lon": -77.02030616666667, "is_disabled": 0, "name": "d7f910a62da9944a283fd446ff17776e", "lat": 38.924404833333334, "fusion_lat": 0.0, "is_reserved": 0, "rental_uris": {"ios": "https://dc.lft.to/lastmile_qr_scan", "android": "https://dc.lft.to/lastmile_qr_scan"}, "fusion_lon": 0.0, "bike_id": "d7f910a62da9944a283fd446ff17776e"}, {"type": "electric_scooter", "lon": -77.027935, "is_disabled": 0, "name": "400e946656d470ec14c66a6fcef533ef", "lat": 38.88424533333333, "fusion_lat": 0.0, "is_reserved": 0, "rental_uris": {"ios": "https://dc.lft.to/lastmile_qr_scan", "android": "https://dc.lft.to/lastmile_qr_scan"}, "fusion_lon": 0.0, "bike_id": "400e946656d470ec14c66a6fcef533ef"}, {"type": "electric_scooter", "lon": -77.02204966666666, "is_disabled": 0, "name": "a23966526a9c5f67a097f42a402fc734", "lat": 38.92466966666667, "fusion_lat": 0.0, "is_reserved": 0, "rental_uris": {"ios": "https://dc.lft.to/lastmile_qr_scan", "android": "https://dc.lft.to/lastmile_qr_scan"}, "fusion_lon": 0.0, "bike_id": "a23966526a9c5f67a097f42a402fc734"}, {"type": "electric_scooter", "lon": -77.05927416666667, "is_disabled": 0, "name": "5e3c22a18844c7a0c35f44d258a6b179", "lat": 38.94304566666667, "fusion_lat": 0.0, "is_reserved": 0, "rental_uris": {"ios": "https://dc.lft.to/lastmile_qr_scan", "android": "https://dc.lft.to/lastmile_qr_scan"}, "fusion_lon": 0.0, "bike_id": "5e3c22a18844c7a0c35f44d258a6b179"}, {"type": "electric_scooter", "lon": -76.97805416666667, "is_disabled": 0, "name": "3fd56d97afc88994a012bb4b357f3868", "lat": 38.920341666666666, "fusion_lat": 0.0, "is_reserved": 0, "rental_uris": {"ios": "https://dc.lft.to/lastmile_qr_scan", "android": "https://dc.lft.to/lastmile_qr_scan"}, "fusion_lon": 0.0, "bike_id": "3fd56d97afc88994a012bb4b357f3868"}, {"type": "electric_scooter", "lon": -76.97334333333333, "is_disabled": 0, "name": "aae64e497af778f94d044664149255d5", "lat": 38.9040985, "fusion_lat": 0.0, "is_reserved": 0, "rental_uris": {"ios": "https://dc.lft.to/lastmile_qr_scan", "android": "https://dc.lft.to/lastmile_qr_scan"}, "fusion_lon": 0.0, "bike_id": "aae64e497af778f94d044664149255d5"}, {"type": "electric_scooter", "lon": -77.0320515, "is_disabled": 0, "name": "f01c7221d95f2ca27b07add20c30c54c", "lat": 38.90826933333334, "fusion_lat": 0.0, "is_reserved": 0, "rental_uris": {"ios": "https://dc.lft.to/lastmile_qr_scan", "android": "https://dc.lft.to/lastmile_qr_scan"}, "fusion_lon": 0.0, "bike_id": "f01c7221d95f2ca27b07add20c30c54c"}, {"type": "electric_scooter", "lon": -77.02375416666666, "is_disabled": 0, "name": "00d85fa8e67c4d7510514861a33ed859", "lat": 38.89217583333333, "fusion_lat": 0.0, "is_reserved": 0, "rental_uris": {"ios": "https://dc.lft.to/lastmile_qr_scan", "android": "https://dc.lft.to/lastmile_qr_scan"}, "fusion_lon": 0.0, "bike_id": "00d85fa8e67c4d7510514861a33ed859"}, {"type": "electric_scooter", "lon": -77.03795733333334, "is_disabled": 0, "name": "0c605dd36449f6eb4745e45af3a99146", "lat": 38.9045165, "fusion_lat": 0.0, "is_reserved": 0, "rental_uris": {"ios": "https://dc.lft.to/lastmile_qr_scan", "android": "https://dc.lft.to/lastmile_qr_scan"}, "fusion_lon": 0.0, "bike_id": "0c605dd36449f6eb4745e45af3a99146"}, {"type": "electric_scooter", "lon": -76.98685433333333, "is_disabled": 0, "name": "a08b35844e819b455524239faaf0f94f", "lat": 38.90701033333333, "fusion_lat": 0.0, "is_reserved": 0, "rental_uris": {"ios": "https://dc.lft.to/lastmile_qr_scan", "android": "https://dc.lft.to/lastmile_qr_scan"}, "fusion_lon": 0.0, "bike_id": "a08b35844e819b455524239faaf0f94f"}, {"type": "electric_scooter", "lon": -77.03143083333333, "is_disabled": 0, "name": "d14c5e5cd02691caf5cf0f0c3acd86bd", "lat": 38.912678, "fusion_lat": 0.0, "is_reserved": 0, "rental_uris": {"ios": "https://dc.lft.to/lastmile_qr_scan", "android": "https://dc.lft.to/lastmile_qr_scan"}, "fusion_lon": 0.0, "bike_id": "d14c5e5cd02691caf5cf0f0c3acd86bd"}, {"type": "electric_bike", "lon": -76.98958466666667, "is_disabled": 0, "name": "2162d0fd812532566bfe44fca99fb38b", "lat": 38.8989795, "fusion_lat": 0.0, "is_reserved": 0, "rental_uris": {"ios": "https://dc.lft.to/lastmile_qr_scan", "android": "https://dc.lft.to/lastmile_qr_scan"}, "fusion_lon": 0.0, "bike_id": "2162d0fd812532566bfe44fca99fb38b"}, {"type": "electric_scooter", "lon": -77.0029295, "is_disabled": 0, "name": "6872123efca7fc3631b0c01848c48fa2", "lat": 38.87699533333333, "fusion_lat": 0.0, "is_reserved": 0, "rental_uris": {"ios": "https://dc.lft.to/lastmile_qr_scan", "android": "https://dc.lft.to/lastmile_qr_scan"}, "fusion_lon": 0.0, "bike_id": "6872123efca7fc3631b0c01848c48fa2"}, {"type": "electric_scooter", "lon": -77.024105, "is_disabled": 0, "name": "2b3792d1eb7611e4643a32da1b7138f8", "lat": 38.919126, "fusion_lat": 0.0, "is_reserved": 0, "rental_uris": {"ios": "https://dc.lft.to/lastmile_qr_scan", "android": "https://dc.lft.to/lastmile_qr_scan"}, "fusion_lon": 0.0, "bike_id": "2b3792d1eb7611e4643a32da1b7138f8"}, {"type": "electric_scooter", "lon": -76.98376733333333, "is_disabled": 0, "name": "6499a7597e7f44dada5f84ba11601b07", "lat": 38.8603235, "fusion_lat": 0.0, "is_reserved": 0, "rental_uris": {"ios": "https://dc.lft.to/lastmile_qr_scan", "android": "https://dc.lft.to/lastmile_qr_scan"}, "fusion_lon": 0.0, "bike_id": "6499a7597e7f44dada5f84ba11601b07"}, {"type": "electric_scooter", "lon": -77.00602133333334, "is_disabled": 0, "name": "e25461e03a6d209a56b888b7513c3939", "lat": 38.90551516666667, "fusion_lat": 0.0, "is_reserved": 0, "rental_uris": {"ios": "https://dc.lft.to/lastmile_qr_scan", "android": "https://dc.lft.to/lastmile_qr_scan"}, "fusion_lon": 0.0, "bike_id": "e25461e03a6d209a56b888b7513c3939"}, {"type": "electric_scooter", "lon": -77.0281535, "is_disabled": 0, "name": "53d8363ffd1c53941f98a3d52fa5ef1f", "lat": 38.90463416666667, "fusion_lat": 0.0, "is_reserved": 0, "rental_uris": {"ios": "https://dc.lft.to/lastmile_qr_scan", "android": "https://dc.lft.to/lastmile_qr_scan"}, "fusion_lon": 0.0, "bike_id": "53d8363ffd1c53941f98a3d52fa5ef1f"}, {"type": "electric_scooter", "lon": -77.04534316666667, "is_disabled": 0, "name": "1bfea2d48106e9ea75f54c49d1cef88a", "lat": 38.9132535, "fusion_lat": 0.0, "is_reserved": 0, "rental_uris": {"ios": "https://dc.lft.to/lastmile_qr_scan", "android": "https://dc.lft.to/lastmile_qr_scan"}, "fusion_lon": 0.0, "bike_id": "1bfea2d48106e9ea75f54c49d1cef88a"}, {"type": "electric_scooter", "lon": -77.01176366666667, "is_disabled": 0, "name": "d333afe4793f4c01e2567020b3370fa3", "lat": 38.900263, "fusion_lat": 0.0, "is_reserved": 0, "rental_uris": {"ios": "https://dc.lft.to/lastmile_qr_scan", "android": "https://dc.lft.to/lastmile_qr_scan"}, "fusion_lon": 0.0, "bike_id": "d333afe4793f4c01e2567020b3370fa3"}, {"type": "electric_scooter", "lon": -77.02089733333334, "is_disabled": 0, "name": "443aa5a80540875fe58a7a89affc7875", "lat": 38.92154333333333, "fusion_lat": 0.0, "is_reserved": 0, "rental_uris": {"ios": "https://dc.lft.to/lastmile_qr_scan", "android": "https://dc.lft.to/lastmile_qr_scan"}, "fusion_lon": 0.0, "bike_id": "443aa5a80540875fe58a7a89affc7875"}, {"type": "electric_scooter", "lon": -77.03890766666666, "is_disabled": 0, "name": "4b8c2c18db52bf95029504737c88bbfc", "lat": 38.918445, "fusion_lat": 0.0, "is_reserved": 0, "rental_uris": {"ios": "https://dc.lft.to/lastmile_qr_scan", "android": "https://dc.lft.to/lastmile_qr_scan"}, "fusion_lon": 0.0, "bike_id": "4b8c2c18db52bf95029504737c88bbfc"}, {"type": "electric_scooter", "lon": -76.99620350000001, "is_disabled": 0, "name": "6f55677ab6cd2626f3087912e383f890", "lat": 38.87775383333334, "fusion_lat": 0.0, "is_reserved": 0, "rental_uris": {"ios": "https://dc.lft.to/lastmile_qr_scan", "android": "https://dc.lft.to/lastmile_qr_scan"}, "fusion_lon": 0.0, "bike_id": "6f55677ab6cd2626f3087912e383f890"}, {"type": "electric_scooter", "lon": -77.03778666666666, "is_disabled": 0, "name": "4135e718918a28d80ff3108b4ed2fc63", "lat": 38.916948833333336, "fusion_lat": 0.0, "is_reserved": 0, "rental_uris": {"ios": "https://dc.lft.to/lastmile_qr_scan", "android": "https://dc.lft.to/lastmile_qr_scan"}, "fusion_lon": 0.0, "bike_id": "4135e718918a28d80ff3108b4ed2fc63"}, {"type": "electric_scooter", "lon": -77.039565, "is_disabled": 0, "name": "23e174cfb97bab69124d7e934e9886dc", "lat": 38.8924195, "fusion_lat": 0.0, "is_reserved": 0, "rental_uris": {"ios": "https://dc.lft.to/lastmile_qr_scan", "android": "https://dc.lft.to/lastmile_qr_scan"}, "fusion_lon": 0.0, "bike_id": "23e174cfb97bab69124d7e934e9886dc"}, {"type": "electric_scooter", "lon": -77.01622666666667, "is_disabled": 0, "name": "a2f60b11376e7b41e99ff416999fd804", "lat": 38.903444, "fusion_lat": 0.0, "is_reserved": 0, "rental_uris": {"ios": "https://dc.lft.to/lastmile_qr_scan", "android": "https://dc.lft.to/lastmile_qr_scan"}, "fusion_lon": 0.0, "bike_id": "a2f60b11376e7b41e99ff416999fd804"}, {"type": "electric_scooter", "lon": -77.01512966666667, "is_disabled": 0, "name": "40df3d6acc0ba1ae05c3052916e26d74", "lat": 38.887348833333334, "fusion_lat": 0.0, "is_reserved": 0, "rental_uris": {"ios": "https://dc.lft.to/lastmile_qr_scan", "android": "https://dc.lft.to/lastmile_qr_scan"}, "fusion_lon": 0.0, "bike_id": "40df3d6acc0ba1ae05c3052916e26d74"}, {"type": "electric_bike", "lon": -76.961544, "is_disabled": 0, "name": "5ff20dae1ce01af842d403fa2f4514e2", "lat": 38.950271, "fusion_lat": 0.0, "is_reserved": 0, "rental_uris": {"ios": "https://dc.lft.to/lastmile_qr_scan", "android": "https://dc.lft.to/lastmile_qr_scan"}, "fusion_lon": 0.0, "bike_id": "5ff20dae1ce01af842d403fa2f4514e2"}, {"type": "electric_scooter", "lon": -77.01470416666666, "is_disabled": 0, "name": "66b6d862ecccaf2a138507b168c6fe55", "lat": 38.926752666666665, "fusion_lat": 0.0, "is_reserved": 0, "rental_uris": {"ios": "https://dc.lft.to/lastmile_qr_scan", "android": "https://dc.lft.to/lastmile_qr_scan"}, "fusion_lon": 0.0, "bike_id": "66b6d862ecccaf2a138507b168c6fe55"}, {"type": "electric_scooter", "lon": -77.03229466666667, "is_disabled": 0, "name": "c518f7f7e018cbb47efe7a5e9799f8fc", "lat": 38.914831, "fusion_lat": 0.0, "is_reserved": 0, "rental_uris": {"ios": "https://dc.lft.to/lastmile_qr_scan", "android": "https://dc.lft.to/lastmile_qr_scan"}, "fusion_lon": 0.0, "bike_id": "c518f7f7e018cbb47efe7a5e9799f8fc"}, {"type": "electric_scooter", "lon": -77.0437955, "is_disabled": 0, "name": "ae11a4c9d31590cd5a56afc70d8c0e1a", "lat": 38.90017683333333, "fusion_lat": 0.0, "is_reserved": 0, "rental_uris": {"ios": "https://dc.lft.to/lastmile_qr_scan", "android": "https://dc.lft.to/lastmile_qr_scan"}, "fusion_lon": 0.0, "bike_id": "ae11a4c9d31590cd5a56afc70d8c0e1a"}, {"type": "electric_scooter", "lon": -77.02360066666667, "is_disabled": 0, "name": "a2ae1c208628d0af289a50829c4bc89a", "lat": 38.89953716666667, "fusion_lat": 0.0, "is_reserved": 0, "rental_uris": {"ios": "https://dc.lft.to/lastmile_qr_scan", "android": "https://dc.lft.to/lastmile_qr_scan"}, "fusion_lon": 0.0, "bike_id": "a2ae1c208628d0af289a50829c4bc89a"}, {"type": "electric_scooter", "lon": -77.02498233333333, "is_disabled": 0, "name": "cd112f1dac02789b2eb5697f54b97375", "lat": 38.925940833333335, "fusion_lat": 0.0, "is_reserved": 0, "rental_uris": {"ios": "https://dc.lft.to/lastmile_qr_scan", "android": "https://dc.lft.to/lastmile_qr_scan"}, "fusion_lon": 0.0, "bike_id": "cd112f1dac02789b2eb5697f54b97375"}, {"type": "electric_bike", "lon": -77.06528633333333, "is_disabled": 0, "name": "652ea1e2efece54c07d5e8239cda0b39", "lat": 38.992304833333336, "fusion_lat": 0.0, "is_reserved": 0, "rental_uris": {"ios": "https://dc.lft.to/lastmile_qr_scan", "android": "https://dc.lft.to/lastmile_qr_scan"}, "fusion_lon": 0.0, "bike_id": "652ea1e2efece54c07d5e8239cda0b39"}, {"type": "electric_scooter", "lon": -76.988323, "is_disabled": 0, "name": "cc7b57d8625b4eee0fdbc087528dc3bc", "lat": 38.90038, "fusion_lat": 0.0, "is_reserved": 0, "rental_uris": {"ios": "https://dc.lft.to/lastmile_qr_scan", "android": "https://dc.lft.to/lastmile_qr_scan"}, "fusion_lon": 0.0, "bike_id": "cc7b57d8625b4eee0fdbc087528dc3bc"}, {"type": "electric_scooter", "lon": -76.99218583333334, "is_disabled": 0, "name": "7f79d5ca18de79fb8fac616eb7634f07", "lat": 38.904679, "fusion_lat": 0.0, "is_reserved": 0, "rental_uris": {"ios": "https://dc.lft.to/lastmile_qr_scan", "android": "https://dc.lft.to/lastmile_qr_scan"}, "fusion_lon": 0.0, "bike_id": "7f79d5ca18de79fb8fac616eb7634f07"}, {"type": "electric_scooter", "lon": -77.02401766666667, "is_disabled": 0, "name": "7ddb54f7c59ba3b5a21c9b5d7fa5de32", "lat": 38.89650266666666, "fusion_lat": 0.0, "is_reserved": 0, "rental_uris": {"ios": "https://dc.lft.to/lastmile_qr_scan", "android": "https://dc.lft.to/lastmile_qr_scan"}, "fusion_lon": 0.0, "bike_id": "7ddb54f7c59ba3b5a21c9b5d7fa5de32"}, {"type": "electric_scooter", "lon": -77.04243683333333, "is_disabled": 0, "name": "25b73874b4683b8f134c94e36bc2be19", "lat": 38.92222683333333, "fusion_lat": 0.0, "is_reserved": 0, "rental_uris": {"ios": "https://dc.lft.to/lastmile_qr_scan", "android": "https://dc.lft.to/lastmile_qr_scan"}, "fusion_lon": 0.0, "bike_id": "25b73874b4683b8f134c94e36bc2be19"}, {"type": "electric_scooter", "lon": -77.0513065, "is_disabled": 0, "name": "6cf609fd9efb0467fc769605dd537cb8", "lat": 38.92364033333333, "fusion_lat": 0.0, "is_reserved": 0, "rental_uris": {"ios": "https://dc.lft.to/lastmile_qr_scan", "android": "https://dc.lft.to/lastmile_qr_scan"}, "fusion_lon": 0.0, "bike_id": "6cf609fd9efb0467fc769605dd537cb8"}, {"type": "electric_scooter", "lon": -77.01407866666666, "is_disabled": 0, "name": "3f326fa4659cc2174e33cd35922c2d80", "lat": 38.92840283333334, "fusion_lat": 0.0, "is_reserved": 0, "rental_uris": {"ios": "https://dc.lft.to/lastmile_qr_scan", "android": "https://dc.lft.to/lastmile_qr_scan"}, "fusion_lon": 0.0, "bike_id": "3f326fa4659cc2174e33cd35922c2d80"}, {"type": "electric_scooter", "lon": -77.00916183333334, "is_disabled": 0, "name": "7df786f527b609d786c3186a09c7c576", "lat": 38.9234055, "fusion_lat": 0.0, "is_reserved": 0, "rental_uris": {"ios": "https://dc.lft.to/lastmile_qr_scan", "android": "https://dc.lft.to/lastmile_qr_scan"}, "fusion_lon": 0.0, "bike_id": "7df786f527b609d786c3186a09c7c576"}, {"type": "electric_scooter", "lon": -77.04872, "is_disabled": 0, "name": "912ad40502fee3d1a9add3258e80985a", "lat": 38.90032983333333, "fusion_lat": 0.0, "is_reserved": 0, "rental_uris": {"ios": "https://dc.lft.to/lastmile_qr_scan", "android": "https://dc.lft.to/lastmile_qr_scan"}, "fusion_lon": 0.0, "bike_id": "912ad40502fee3d1a9add3258e80985a"}, {"type": "electric_scooter", "lon": -77.01337316666667, "is_disabled": 0, "name": "c406070e3f603690ad0661f3bdb775b1", "lat": 38.914184666666664, "fusion_lat": 0.0, "is_reserved": 0, "rental_uris": {"ios": "https://dc.lft.to/lastmile_qr_scan", "android": "https://dc.lft.to/lastmile_qr_scan"}, "fusion_lon": 0.0, "bike_id": "c406070e3f603690ad0661f3bdb775b1"}, {"type": "electric_scooter", "lon": -77.00624933333333, "is_disabled": 0, "name": "c126f9baab9d619add409283b4125fdc", "lat": 38.87172233333333, "fusion_lat": 0.0, "is_reserved": 0, "rental_uris": {"ios": "https://dc.lft.to/lastmile_qr_scan", "android": "https://dc.lft.to/lastmile_qr_scan"}, "fusion_lon": 0.0, "bike_id": "c126f9baab9d619add409283b4125fdc"}, {"type": "electric_scooter", "lon": -76.94871666666667, "is_disabled": 0, "name": "7871831439864023439ed3913cdf62af", "lat": 38.894974, "fusion_lat": 0.0, "is_reserved": 0, "rental_uris": {"ios": "https://dc.lft.to/lastmile_qr_scan", "android": "https://dc.lft.to/lastmile_qr_scan"}, "fusion_lon": 0.0, "bike_id": "7871831439864023439ed3913cdf62af"}, {"type": "electric_bike", "lon": -77.03635783333333, "is_disabled": 0, "name": "edbf3a7273c05b6957462a70e37d80ca", "lat": 38.927450666666665, "fusion_lat": 0.0, "is_reserved": 0, "rental_uris": {"ios": "https://dc.lft.to/lastmile_qr_scan", "android": "https://dc.lft.to/lastmile_qr_scan"}, "fusion_lon": 0.0, "bike_id": "edbf3a7273c05b6957462a70e37d80ca"}, {"type": "electric_scooter", "lon": -77.03252683333334, "is_disabled": 0, "name": "49c075682de55e8988b08c44147208e6", "lat": 38.911167, "fusion_lat": 0.0, "is_reserved": 0, "rental_uris": {"ios": "https://dc.lft.to/lastmile_qr_scan", "android": "https://dc.lft.to/lastmile_qr_scan"}, "fusion_lon": 0.0, "bike_id": "49c075682de55e8988b08c44147208e6"}, {"type": "electric_scooter", "lon": -77.036369, "is_disabled": 0, "name": "a54eea03d81d3808f78be92899216fe5", "lat": 38.9030125, "fusion_lat": 0.0, "is_reserved": 0, "rental_uris": {"ios": "https://dc.lft.to/lastmile_qr_scan", "android": "https://dc.lft.to/lastmile_qr_scan"}, "fusion_lon": 0.0, "bike_id": "a54eea03d81d3808f78be92899216fe5"},