{"data": {"bikes": [{"lon": -77.04408216666667, "lat": 38.920352333333334, "name": "55631be6b9909ecd0027702e7d335169", "fusion_lat": 0.0, "fusion_lon": 0.0, "rental_uris": {"android": "https://dc.lft.to/lastmile_qr_scan", "ios": "https://dc.lft.to/lastmile_qr_scan"}, "is_reserved": 0, "is_disabled": 0, "type": "electric_scooter", "bike_id": "55631be6b9909ecd0027702e7d335169"}, {"lon": -77.00207016666667, "lat": 38.904777333333335, "name": "dfac6ebdd7c91f0d2a8fcf4e04b61bc4", "fusion_lat": 0.0, "fusion_lon": 0.0, "rental_uris": {"android": "https://dc.lft.to/lastmile_qr_scan", "ios": "https://dc.lft.to/lastmile_qr_scan"}, "is_reserved": 0, "is_disabled": 0, "type": "electric_scooter", "bike_id": "dfac6ebdd7c91f0d2a8fcf4e04b61bc4"}, {"lon": -77.02178966666666, "lat": 38.909763166666664, "name": "99490aa07e047921a13d3a5f4dcdda3d", "fusion_lat": 0.0, "fusion_lon": 0.0, "rental_uris": {"android": "https://dc.lft.to/lastmile_qr_scan", "ios": "https://dc.lft.to/lastmile_qr_scan"}, "is_reserved": 0, "is_disabled": 0, "type": "electric_scooter", "bike_id": "99490aa07e047921a13d3a5f4dcdda3d"}, {"lon": -76.96551266666667, "lat": 38.9510595, "name": "a56065fbae6d3b3f033fbc0d54a73665", "fusion_lat": 0.0, "fusion_lon": 0.0, "rental_uris": {"android": "https://dc.lft.to/lastmile_qr_scan", "ios": "https://dc.lft.to/lastmile_qr_scan"}, "is_reserved": 0, "is_disabled": 0, "type": "electric_bike", "bike_id": "a56065fbae6d3b3f033fbc0d54a73665"}, {"lon": -77.04037, "lat": 38.917006666666666, "name": "e9313fffce23c3cada45a7025ec8c95f", "fusion_lat": 0.0, "fusion_lon": 0.0, "rental_uris": {"android": "https://dc.lft.to/lastmile_qr_scan", "ios": "https://dc.lft.to/lastmile_qr_scan"}, "is_reserved": 0, "is_disabled": 0, "type": "electric_scooter", "bike_id": "e9313fffce23c3cada45a7025ec8c95f"}, {"lon": -77.01390133333334, "lat": 38.92884216666667, "name": "4bf720f264f99f42cd8037ce4412b933", "fusion_lat": 0.0, "fusion_lon": 0.0, "rental_uris": {"android": "https://dc.lft.to/lastmile_qr_scan", "ios": "https://dc.lft.to/lastmile_qr_scan"}, "is_reserved": 0, "is_disabled": 0, "type": "electric_scooter", "bike_id": "4bf720f264f99f42cd8037ce4412b933"}, {"lon": -77.07837033333334, "lat": 38.931474, "name": "2f3ec4a6594dd8c9c6a6df6eafb71cfa", "fusion_lat": 0.0, "fusion_lon": 0.0, "rental_uris": {"android": "https://dc.lft.to/lastmile_qr_scan", "ios": "https://dc.lft.to/lastmile_qr_scan"}, "is_reserved": 0, "is_disabled": 0, "type": "electric_scooter", "bike_id": "2f3ec4a6594dd8c9c6a6df6eafb71cfa"}, {"lon": -77.00575383333333, "lat": 38.872142333333336, "name": "5e769a654088390ba6d01ddfcc98364e", "fusion_lat": 0.0, "fusion_lon": 0.0, "rental_uris": {"android": "https://dc.lft.to/lastmile_qr_scan", "ios": "https://dc.lft.to/lastmile_qr_scan"}, "is_reserved": 0, "is_disabled": 0, "type": "electric_scooter", "bike_id": "5e769a654088390ba6d01ddfcc98364e"}, {"lon": -77.04839, "lat": 38.916496, "name": "895051041c96a15445b6455cdc9c445d", "fusion_lat": 0.0, "fusion_lon": 0.0, "rental_uris": {"android": "https://dc.lft.to/lastmile_qr_scan", "ios": "https://dc.lft.to/lastmile_qr_scan"}, "is_reserved": 0, "is_disabled": 0, "type": "electric_bike", "bike_id": "895051041c96a15445b6455cdc9c445d"}, {"lon": -76.979458, "lat": 38.86612933333333, "name": "6d925b38e0cac0fe9b8eb1c9ccbe36a1", "fusion_lat": 0.0, "fusion_lon": 0.0, "rental_uris": {"android": "https://dc.lft.to/lastmile_qr_scan", "ios": "https://dc.lft.to/lastmile_qr_scan"}, "is_reserved": 0, "is_disabled": 0, "type": "electric_scooter", "bike_id": "6d925b38e0cac0fe9b8eb1c9ccbe36a1"}, {"lon": -76.9983875, "lat": 38.88810866666667, "name": "3b7cafe1aff1947ff4f83e8129168437", "fusion_lat": 0.0, "fusion_lon": 0.0, "rental_uris": {"android": "https://dc.lft.to/lastmile_qr_scan", "ios": "https://dc.lft.to/lastmile_qr_scan"}, "is_reserved": 0, "is_disabled": 0, "type": "electric_scooter", "bike_id": "3b7cafe1aff1947ff4f83e8129168437"}, {"lon": -77.01925633333333, "lat": 38.899721, "name": "f8827a6ba39e458ff5d8f71b2b8140ce", "fusion_lat": 0.0, "fusion_lon": 0.0, "rental_uris": {"android": "https://dc.lft.to/lastmile_qr_scan", "ios": "https://dc.lft.to/lastmile_qr_scan"}, "is_reserved": 0, "is_disabled": 0, "type": "electric_scooter", "bike_id": "f8827a6ba39e458ff5d8f71b2b8140ce"}, {"lon": -76.98567483333333, "lat": 38.89955, "name": "5d9cace531d0349fadbb90bbd204ad73", "fusion_lat": 0.0, "fusion_lon": 0.0, "rental_uris": {"android": "https://dc.lft.to/lastmile_qr_scan", "ios": "https://dc.lft.to/lastmile_qr_scan"}, "is_reserved": 0, "is_disabled": 0, "type": "electric_scooter", "bike_id": "5d9cace531d0349fadbb90bbd204ad73"}, {"lon": -77.02438716666667, "lat": 38.90217166666667, "name": "b3fd93711e0ea40049e922a84be7be9a", "fusion_lat": 0.0, "fusion_lon": 0.0, "rental_uris": {"android": "https://dc.lft.to/lastmile_qr_scan", "ios": "https://dc.lft.to/lastmile_qr_scan"}, "is_reserved": 0, "is_disabled": 0, "type": "electric_scooter", "bike_id": "b3fd93711e0ea40049e922a84be7be9a"}, {"lon": -77.041472, "lat": 38.923001, "name": "08c110a13d4939d9d609909efe12e818", "fusion_lat": 0.0, "fusion_lon": 0.0, "rental_uris": {"android": "https://dc.lft.to/lastmile_qr_scan", "ios": "https://dc.lft.to/lastmile_qr_scan"}, "is_reserved": 0, "is_disabled": 0, "type": "electric_scooter", "bike_id": "08c110a13d4939d9d609909efe12e818"}, {"lon": -77.03974633333333, "lat": 38.899131, "name": "f76498262a97dc998216779bbc911a58", "fusion_lat": 0.0, "fusion_lon": 0.0, "rental_uris": {"android": "https://dc.lft.to/lastmile_qr_scan", "ios": "https://dc.lft.to/lastmile_qr_scan"}, "is_reserved": 0, "is_disabled": 0, "type": "electric_scooter", "bike_id": "f76498262a97dc998216779bbc911a58"}, {"lon": -76.9918795, "lat": 38.889760333333335, "name": "40e7ddcd16cbb88e7be304b23a365502", "fusion_lat": 0.0, "fusion_lon": 0.0, "rental_uris": {"android": "https://dc.lft.to/lastmile_qr_scan", "ios": "https://dc.lft.to/lastmile_qr_scan"}, "is_reserved": 0, "is_disabled": 0, "type": "electric_scooter", "bike_id": "40e7ddcd16cbb88e7be304b23a365502"}, {"lon": -77.02304816666667, "lat": 38.91785483333334, "name": "6043ccde8a8a057adec05a5718808b80", "fusion_lat": 0.0, "fusion_lon": 0.0, "rental_uris": {"android": "https://dc.lft.to/lastmile_qr_scan", "ios": "https://dc.lft.to/lastmile_qr_scan"}, "is_reserved": 0, "is_disabled": 0, "type": "electric_scooter", "bike_id": "6043ccde8a8a057adec05a5718808b80"}, {"lon": -77.01588266666667, "lat": 38.91864133333333, "name": "5ea6f29be568a31410d4107364b2f5bf", "fusion_lat": 0.0, "fusion_lon": 0.0, "rental_uris": {"android": "https://dc.lft.to/lastmile_qr_scan", "ios": "https://dc.lft.to/lastmile_qr_scan"}, "is_reserved": 0, "is_disabled": 0, "type": "electric_scooter", "bike_id": "5ea6f29be568a31410d4107364b2f5bf"}, {"lon": -77.0329855, "lat": 38.90975783333333, "name": "fdd5ea2d3d33f9cf5a4cb7e68274fa14", "fusion_lat": 0.0, "fusion_lon": 0.0, "rental_uris": {"android": "https://dc.lft.to/lastmile_qr_scan", "ios": "https://dc.lft.to/lastmile_qr_scan"}, "is_reserved": 0, "is_disabled": 0, "type": "electric_scooter", "bike_id": "fdd5ea2d3d33f9cf5a4cb7e68274fa14"}, {"lon": -77.03294016666666, "lat": 38.90838083333333, "name": "cc37addd9305ddffa8b09caf40a374be", "fusion_lat": 0.0, "fusion_lon": 0.0, "rental_uris": {"android": "https://dc.lft.to/lastmile_qr_scan", "ios": "https://dc.lft.to/lastmile_qr_scan"}, "is_reserved": 0, "is_disabled": 0, "type": "electric_scooter", "bike_id": "cc37addd9305ddffa8b09caf40a374be"}, {"lon": -77.000991, "lat": 38.873856333333336, "name": "538919ebc545deca1ec33ced9d18e8f2", "fusion_lat": 0.0, "fusion_lon": 0.0, "rental_uris": {"android": "https://dc.lft.to/lastmile_qr_scan", "ios": "https://dc.lft.to/lastmile_qr_scan"}, "is_reserved": 0, "is_disabled": 0, "type": "electric_scooter", "bike_id": "538919ebc545deca1ec33ced9d18e8f2"}, {"lon": -77.03816533333334, "lat": 38.90975016666667, "name": "f772b51f98495cb9071e41ed985166bc", "fusion_lat": 0.0, "fusion_lon": 0.0, "rental_uris": {"android": "https://dc.lft.to/lastmile_qr_scan", "ios": "https://dc.lft.to/lastmile_qr_scan"}, "is_reserved": 0, "is_disabled": 0, "type": "electric_bike", "bike_id": "f772b51f98495cb9071e41ed985166bc"}, {"lon": -77.027814, "lat": 38.91817433333333, "name": "c4553876e8217f41d2a1ccea1f385127", "fusion_lat": 0.0, "fusion_lon": 0.0, "rental_uris": {"android": "https://dc.lft.to/lastmile_qr_scan", "ios": "https://dc.lft.to/lastmile_qr_scan"}, "is_reserved": 0, "is_disabled": 0, "type": "electric_scooter", "bike_id": "c4553876e8217f41d2a1ccea1f385127"}, {"lon": -77.11422033333334, "lat": 38.84306, "name": "1438911ab585c2df5b2fcdb2463091ba", "fusion_lat": 0.0, "fusion_lon": 0.0, "rental_uris": {"android": "https://dc.lft.to/lastmile_qr_scan", "ios": "https://dc.lft.to/lastmile_qr_scan"}, "is_reserved": 0, "is_disabled": 0, "type": "electric_bike", "bike_id": "1438911ab585c2df5b2fcdb2463091ba"}, {"lon": -77.0142685, "lat": 38.9140485, "name": "69d13dab96ead44cef264117abda9193", "fusion_lat": 0.0, "fusion_lon": 0.0, "rental_uris": {"android": "https://dc.lft.to/lastmile_qr_scan", "ios": "https://dc.lft.to/lastmile_qr_scan"}, "is_reserved": 0, "is_disabled": 0, "type": "electric_scooter", "bike_id": "69d13dab96ead44cef264117abda9193"}, {"lon": -77.02176216666666, "lat": 38.90921, "name": "54d3aa94f4025e76a393224d15c37d46", "fusion_lat": 0.0, "fusion_lon": 0.0, "rental_uris": {"android": "https://dc.lft.to/lastmile_qr_scan", "ios": "https://dc.lft.to/lastmile_qr_scan"}, "is_reserved": 0, "is_disabled": 0, "type": "electric_scooter", "bike_id": "54d3aa94f4025e76a393224d15c37d46"}, {"lon": -77.021931, "lat": 38.9188345, "name": "84f99631fb1dd57ded2b23687ffa6a2f", "fusion_lat": 0.0, "fusion_lon": 0.0, "rental_uris": {"android": "https://dc.lft.to/lastmile_qr_scan", "ios": "https://dc.lft.to/lastmile_qr_scan"}, "is_reserved": 0, "is_disabled": 0, "type": "electric_scooter", "bike_id": "84f99631fb1dd57ded2b23687ffa6a2f"}, {"lon": -77.0507695, "lat": 38.813244, "name": "efe1b2aa47c3e815ee6c6a89e6853fd0", "fusion_lat": 0.0, "fusion_lon": 0.0, "rental_uris": {"android": "https://dc.lft.to/lastmile_qr_scan", "ios": "https://dc.lft.to/lastmile_qr_scan"}, "is_reserved": 0, "is_disabled": 0, "type": "electric_bike", "bike_id": "efe1b2aa47c3e815ee6c6a89e6853fd0"}, {"lon": -77.00860516666667, "lat": 38.869479166666665, "name": "6e35cc6c5e9075d6efd022be20da994c", "fusion_lat": 0.0, "fusion_lon": 0.0, "rental_uris": {"android": "https://dc.lft.to/lastmile_qr_scan", "ios": "https://dc.lft.to/lastmile_qr_scan"}, "is_reserved": 0, "is_disabled": 0, "type": "electric_scooter", "bike_id": "6e35cc6c5e9075d6efd022be20da994c"}, {"lon": -77.07901483333333, "lat": 38.83948183333333, "name": "792ec48940df2c24e4b1c436ac41a1b9", "fusion_lat": 0.0, "fusion_lon": 0.0, "rental_uris": {"android": "https://dc.lft.to/lastmile_qr_scan", "ios": "https://dc.lft.to/lastmile_qr_scan"}, "is_reserved": 0, "is_disabled": 0, "type": "electric_bike", "bike_id": "792ec48940df2c24e4b1c436ac41a1b9"}, {"lon": -77.0369835, "lat": 38.91665783333333, "name": "f5b4d067913d7cf3762d0999689b4ce2", "fusion_lat": 0.0, "fusion_lon": 0.0, "rental_uris": {"android": "https://dc.lft.to/lastmile_qr_scan", "ios": "https://dc.lft.to/lastmile_qr_scan"}, "is_reserved": 0, "is_disabled": 0, "type": "electric_scooter", "bike_id": "f5b4d067913d7cf3762d0999689b4ce2"}, {"lon": -77.04776366666667, "lat": 38.90508066666666, "name": "9e38d47119152c9686ca5b3be87ef5dd", "fusion_lat": 0.0, "fusion_lon": 0.0, "rental_uris": {"android": "https://dc.lft.to/lastmile_qr_scan", "ios": "https://dc.lft.to/lastmile_qr_scan"}, "is_reserved": 0, "is_disabled": 0, "type": "electric_scooter", "bike_id": "9e38d47119152c9686ca5b3be87ef5dd"}, {"lon": -77.02891816666667, "lat": 38.8843445, "name": "7e500ae461af05e5106f21151808a588", "fusion_lat": 0.0, "fusion_lon": 0.0, "rental_uris": {"android": "https://dc.lft.to/lastmile_qr_scan", "ios": "https://dc.lft.to/lastmile_qr_scan"}, "is_reserved": 0, "is_disabled": 0, "type": "electric_scooter", "bike_id": "7e500ae461af05e5106f21151808a588"}, {"lon": -77.0153715, "lat": 38.88738166666667, "name": "44b5f54c4ac0874c56849796bcd3e594", "fusion_lat": 0.0, "fusion_lon": 0.0, "rental_uris": {"android": "https://dc.lft.to/lastmile_qr_scan", "ios": "https://dc.lft.to/lastmile_qr_scan"}, "is_reserved": 0, "is_disabled": 0, "type": "electric_scooter", "bike_id": "44b5f54c4ac0874c56849796bcd3e594"}, {"lon": -77.026947, "lat": 38.90949233333333, "name": "705fa112fbdc6e729f0707f85ed3c4bd", "fusion_lat": 0.0, "fusion_lon": 0.0, "rental_uris": {"android": "https://dc.lft.to/lastmile_qr_scan", "ios": "https://dc.lft.to/lastmile_qr_scan"}, "is_reserved": 0, "is_disabled": 0, "type": "electric_scooter", "bike_id": "705fa112fbdc6e729f0707f85ed3c4bd"}, {"lon": -77.02803583333333, "lat": 38.930617, "name": "0fee32b9238099fc6b4280be1309ee97", "fusion_lat": 0.0, "fusion_lon": 0.0, "rental_uris": {"android": "https://dc.lft.to/lastmile_qr_scan", "ios": "https://dc.lft.to/lastmile_qr_scan"}, "is_reserved": 0, "is_disabled": 0, "type": "electric_scooter", "bike_id": "0fee32b9238099fc6b4280be1309ee97"}, {"lon": -77.04149616666666, "lat": 38.915702833333334, "name": "5a9c6a17ed83e5096ff59401802e0205", "fusion_lat": 0.0, "fusion_lon": 0.0, "rental_uris": {"android": "https://dc.lft.to/lastmile_qr_scan", "ios": "https://dc.lft.to/lastmile_qr_scan"}, "is_reserved": 0, "is_disabled": 0, "type": "electric_scooter", "bike_id": "5a9c6a17ed83e5096ff59401802e0205"}, {"lon": -77.0500015, "lat": 38.89235933333333, "name": "817e87fb63a6e0538803c7ee665ef9b3", "fusion_lat": 0.0, "fusion_lon": 0.0, "rental_uris": {"android": "https://dc.lft.to/lastmile_qr_scan", "ios": "https://dc.lft.to/lastmile_qr_scan"}, "is_reserved": 0, "is_disabled": 0, "type": "electric_scooter", "bike_id": "817e87fb63a6e0538803c7ee665ef9b3"}, {"lon": -76.92710316666667, "lat": 38.887690166666665, "name": "4c4cdb54160c03a049c3728834602596", "fusion_lat": 0.0, "fusion_lon": 0.0, "rental_uris": {"android": "https://dc.lft.to/lastmile_qr_scan", "ios": "https://dc.lft.to/lastmile_qr_scan"}, "is_reserved": 0, "is_disabled": 0, "type": "electric_scooter", "bike_id": "4c4cdb54160c03a049c3728834602596"}, {"lon": -77.05264666666666, "lat": 38.92573083333333, "name": "6a3a50a28778c1bed649eb673cd1cb83", "fusion_lat": 0.0, "fusion_lon": 0.0, "rental_uris": {"android": "https://dc.lft.to/lastmile_qr_scan", "ios": "https://dc.lft.to/lastmile_qr_scan"}, "is_reserved": 0, "is_disabled": 0, "type": "electric_scooter", "bike_id": "6a3a50a28778c1bed649eb673cd1cb83"}, {"lon": -77.04631866666666, "lat": 38.91918583333333, "name": "c94621c70cddaacfb4fe291833a0c1bc", "fusion_lat": 0.0, "fusion_lon": 0.0, "rental_uris": {"android": "https://dc.lft.to/lastmile_qr_scan", "ios": "https://dc.lft.to/lastmile_qr_scan"}, "is_reserved": 0, "is_disabled": 0, "type": "electric_scooter", "bike_id": "c94621c70cddaacfb4fe291833a0c1bc"}, {"lon": -77.06988966666667, "lat": 38.946926500000004, "name": "9c8e5935c607eaeea5d282223713c46f", "fusion_lat": 0.0, "fusion_lon": 0.0, "rental_uris": {"android": "https://dc.lft.to/lastmile_qr_scan", "ios": "https://dc.lft.to/lastmile_qr_scan"}, "is_reserved": 0, "is_disabled": 0, "type": "electric_scooter", "bike_id": "9c8e5935c607eaeea5d282223713c46f"}, {"lon": -76.9889995, "lat": 38.866933833333334, "name": "a41ef031eb8ea92853f46acac501e0fd", "fusion_lat": 0.0, "fusion_lon": 0.0, "rental_uris": {"android": "https://dc.lft.to/lastmile_qr_scan", "ios": "https://dc.lft.to/lastmile_qr_scan"}, "is_reserved": 0, "is_disabled": 0, "type": "electric_scooter", "bike_id": "a41ef031eb8ea92853f46acac501e0fd"}, {"lon": -76.99410983333334, "lat": 38.910033166666665, "name": "7e0ff277daf4d63bb16965168f523d47", "fusion_lat": 0.0, "fusion_lon": 0.0, "rental_uris": {"android": "https://dc.lft.to/lastmile_qr_scan", "ios": "https://dc.lft.to/lastmile_qr_scan"}, "is_reserved": 0, "is_disabled": 0, "type": "electric_scooter", "bike_id": "7e0ff277daf4d63bb16965168f523d47"}, {"lon": -76.98067666666667, "lat": 38.880227, "name": "a42b53a2dbb8d16d926697d39eb7e069", "fusion_lat": 0.0, "fusion_lon": 0.0, "rental_uris": {"android": "https://dc.lft.to/lastmile_qr_scan", "ios": "https://dc.lft.to/lastmile_qr_scan"}, "is_reserved": 0, "is_disabled": 0, "type": "electric_scooter", "bike_id": "a42b53a2dbb8d16d926697d39eb7e069"}, {"lon": -77.12738766666666, "lat": 38.895699, "name": "36ed0cfefc2ea47f815656d42929f09b", "fusion_lat": 0.0, "fusion_lon": 0.0, "rental_uris": {"android": "https://dc.lft.to/lastmile_qr_scan", "ios": "https://dc.lft.to/lastmile_qr_scan"}, "is_reserved": 0, "is_disabled": 0, "type": "electric_bike", "bike_id": "36ed0cfefc2ea47f815656d42929f09b"}, {"lon": -76.9773215, "lat": 38.89516733333333, "name": "f83ade3986b9265fd357ee9cc7da6fc5", "fusion_lat": 0.0, "fusion_lon": 0.0, "rental_uris": {"android": "https://dc.lft.to/lastmile_qr_scan", "ios": "https://dc.lft.to/lastmile_qr_scan"}, "is_reserved": 0, "is_disabled": 0, "type": "electric_scooter", "bike_id": "f83ade3986b9265fd357ee9cc7da6fc5"}, {"lon": -77.01226933333334, "lat": 38.93047516666667, "name": "aef4da6bb3ea2c1662221a2cc8dad301", "fusion_lat": 0.0, "fusion_lon": 0.0, "rental_uris": {"android": "https://dc.lft.to/lastmile_qr_scan", "ios": "https://dc.lft.to/lastmile_qr_scan"}, "is_reserved": 0, "is_disabled": 0, "type": "electric_scooter", "bike_id": "aef4da6bb3ea2c1662221a2cc8dad301"}, {"lon": -76.99631233333334, "lat": 38.846211333333336, "name": "f761a1715217ca4207527b575f569a06", "fusion_lat": 0.0, "fusion_lon": 0.0, "rental_uris": {"android": "https://dc.lft.to/lastmile_qr_scan", "ios": "https://dc.lft.to/lastmile_qr_scan"}, "is_reserved": 0, "is_disabled": 0, "type": "electric_scooter", "bike_id": "f761a1715217ca4207527b575f569a06"}, {"lon": -77.07933283333334, "lat": 38.9487745, "name": "c571cafc1376975389018227698e2341", "fusion_lat": 0.0, "fusion_lon": 0.0, "rental_uris": {"android": "https://dc.lft.to/lastmile_qr_scan", "ios": "https://dc.lft.to/lastmile_qr_scan"}, "is_reserved": 0, "is_disabled": 0, "type": "electric_scooter", "bike_id": "c571cafc1376975389018227698e2341"}, {"lon": -76.9299925, "lat": 38.888039666666664, "name": "037556f583f5e575a0aef1551ac2c501", "fusion_lat": 0.0, "fusion_lon": 0.0, "rental_uris": {"android": "https://dc.lft.to/lastmile_qr_scan", "ios": "https://dc.lft.to/lastmile_qr_scan"}, "is_reserved": 0, "is_disabled": 0, "type": "electric_bike", "bike_id": "037556f583f5e575a0aef1551ac2c501"}, {"lon": -77.02789583333333, "lat": 38.95685783333333, "name": "7a6a116f45f2beb8892d0e420012ccde", "fusion_lat": 0.0, "fusion_lon": 0.0, "rental_uris": {"android": "https://dc.lft.to/lastmile_qr_scan", "ios": "https://dc.lft.to/lastmile_qr_scan"}, "is_reserved": 0, "is_disabled": 0, "type": "electric_scooter", "bike_id": "7a6a116f45f2beb8892d0e420012ccde"}, {"lon": -77.03663766666666, "lat": 38.91272683333333, "name": "d4f5f98924d0aebf94844d612a07dd4e", "fusion_lat": 0.0, "fusion_lon": 0.0, "rental_uris": {"android": "https://dc.lft.to/lastmile_qr_scan", "ios": "https://dc.lft.to/lastmile_qr_scan"}, "is_reserved": 0, "is_disabled": 0, "type": "electric_scooter", "bike_id": "d4f5f98924d0aebf94844d612a07dd4e"}, {"lon": -77.0395785, "lat": 38.91994833333333, "name": "af1748dbe7c817a00c780eaa54d6ea76", "fusion_lat": 0.0, "fusion_lon": 0.0, "rental_uris": {"android": "https://dc.lft.to/lastmile_qr_scan", "ios": "https://dc.lft.to/lastmile_qr_scan"}, "is_reserved": 0, "is_disabled": 0, "type": "electric_scooter", "bike_id": "af1748dbe7c817a00c780eaa54d6ea76"}, {"lon": -76.98775766666667, "lat": 38.90030733333333, "name": "af84922734db05b5a23275350e6e5b1f", "fusion_lat": 0.0, "fusion_lon": 0.0, "rental_uris": {"android": "https://dc.lft.to/lastmile_qr_scan", "ios": "https://dc.lft.to/lastmile_qr_scan"}, "is_reserved": 0, "is_disabled": 0, "type": "electric_scooter", "bike_id": "af84922734db05b5a23275350e6e5b1f"}, {"lon": -77.01597716666667, "lat": 38.896307, "name": "6572e85de633a32f85db3bbc3abfc0ff", "fusion_lat": 0.0, "fusion_lon": 0.0, "rental_uris": {"android": "https://dc.lft.to/lastmile_qr_scan", "ios": "https://dc.lft.to/lastmile_qr_scan"}, "is_reserved": 0, "is_disabled": 0, "type": "electric_scooter", "bike_id": "6572e85de633a32f85db3bbc3abfc0ff"}, {"lon": -76.9902625, "lat": 38.86408216666667, "name": "935ade187487692638adda04198a253b", "fusion_lat": 0.0, "fusion_lon": 0.0, "rental_uris": {"android": "https://dc.lft.to/lastmile_qr_scan", "ios": "https://dc.lft.to/lastmile_qr_scan"}, "is_reserved": 0, "is_disabled": 0, "type": "electric_scooter", "bike_id": "935ade187487692638adda04198a253b"}, {"lon": -77.0136705, "lat": 38.8759805, "name": "e345c9cad922eb20650938074580763f", "fusion_lat": 0.0, "fusion_lon": 0.0, "rental_uris": {"android": "https://dc.lft.to/lastmile_qr_scan", "ios": "https://dc.lft.to/lastmile_qr_scan"}, "is_reserved": 0, "is_disabled": 0, "type": "electric_scooter", "bike_id": "e345c9cad922eb20650938074580763f"}, {"lon": -77.026713, "lat": 38.93208833333333, "name": "d22a24d6a24bc06fee0c76f194a1ac07", "fusion_lat": 0.0, "fusion_lon": 0.0, "rental_uris": {"android": "https://dc.lft.to/lastmile_qr_scan", "ios": "https://dc.lft.to/lastmile_qr_scan"}, "is_reserved": 0, "is_disabled": 0, "type": "electric_scooter", "bike_id": "d22a24d6a24bc06fee0c76f194a1ac07"}, {"lon": -77.06829266666666, "lat": 38.911790333333336, "name": "bab1edf697218319db9f57e94b9535b6", "fusion_lat": 0.0, "fusion_lon": 0.0, "rental_uris": {"android": "https://dc.lft.to/lastmile_qr_scan", "ios": "https://dc.lft.to/lastmile_qr_scan"}, "is_reserved": 0, "is_disabled": 0, "type": "electric_scooter", "bike_id": "bab1edf697218319db9f57e94b9535b6"}, {"lon": -77.03628283333333, "lat": 38.94921733333334, "name": "a4e2e8cff264bebe78c440b439a8d5fb", "fusion_lat": 0.0, "fusion_lon": 0.0, "rental_uris": {"android": "https://dc.lft.to/lastmile_qr_scan", "ios": "https://dc.lft.to/lastmile_qr_scan"}, "is_reserved": 0, "is_disabled": 0, "type": "electric_scooter", "bike_id": "a4e2e8cff264bebe78c440b439a8d5fb"}, {"lon": -77.14986516666667, "lat": 39.094591333333334, "name": "2351131bfaa60847952c58809e8d26c8", "fusion_lat": 0.0, "fusion_lon": 0.0, "rental_uris": {"android": "https://dc.lft.to/lastmile_qr_scan", "ios": "https://dc.lft.to/lastmile_qr_scan"}, "is_reserved": 0, "is_disabled": 0, "type": "electric_bike", "bike_id": "2351131bfaa60847952c58809e8d26c8"}, {"lon": -77.05372783333334, "lat": 38.92330583333333, "name": "1b276a1ad924ba478b293d77dbab1558", "fusion_lat": 0.0, "fusion_lon": 0.0, "rental_uris": {"android": "https://dc.lft.to/lastmile_qr_scan", "ios": "https://dc.lft.to/lastmile_qr_scan"}, "is_reserved": 0, "is_disabled": 0, "type": "electric_scooter", "bike_id": "1b276a1ad924ba478b293d77dbab1558"}, {"lon": -77.090241, "lat": 38.841243166666665, "name": "ade63f9a90175766d226a34aedb379e5", "fusion_lat": 0.0, "fusion_lon": 0.0, "rental_uris": {"android": "https://dc.lft.to/lastmile_qr_scan", "ios": "https://dc.lft.to/lastmile_qr_scan"}, "is_reserved": 0, "is_disabled": 0, "type": "electric_bike", "bike_id": "ade63f9a90175766d226a34aedb379e5"}, {"lon": -77.03849616666666, "lat": 38.932159666666664, "name": "847998ed255039d47eb73a3404d38112", "fusion_lat": 0.0, "fusion_lon": 0.0, "rental_uris": {"android": "https://dc.lft.to/lastmile_qr_scan", "ios": "https://dc.lft.to/lastmile_qr_scan"}, "is_reserved": 0, "is_disabled": 0, "type": "electric_scooter", "bike_id": "847998ed255039d47eb73a3404d38112"}, {"lon": -77.003436, "lat": 38.89163333333333, "name": "d7215f673239e4eaf60a8f1f87d8ac9b", "fusion_lat": 0.0, "fusion_lon": 0.0, "rental_uris": {"android": "https://dc.lft.to/lastmile_qr_scan", "ios": "https://dc.lft.to/lastmile_qr_scan"}, "is_reserved": 0, "is_disabled": 0, "type": "electric_scooter", "bike_id": "d7215f673239e4eaf60a8f1f87d8ac9b"}, {"lon": -77.1990865, "lat": 38.87534483333334, "name": "40d84d6a98641f76cf64552c8a18c90d", "fusion_lat": 0.0, "fusion_lon": 0.0, "rental_uris": {"android": "https://dc.lft.to/lastmile_qr_scan", "ios": "https://dc.lft.to/lastmile_qr_scan"}, "is_reserved": 0, "is_disabled": 0, "type": "electric_bike", "bike_id": "40d84d6a98641f76cf64552c8a18c90d"}, {"lon": -77.07653283333333, "lat": 38.9108255, "name": "16b4546f9b0631f4cc02f825ffa8706f", "fusion_lat": 0.0, "fusion_lon": 0.0, "rental_uris": {"android": "https://dc.lft.to/lastmile_qr_scan", "ios": "https://dc.lft.to/lastmile_qr_scan"}, "is_reserved": 0, "is_disabled": 0, "type": "electric_scooter", "bike_id": "16b4546f9b0631f4cc02f825ffa8706f"}, {"lon": -77.006511, "lat": 38.908625, "name": "155e1e0f2db62a59e4d32bbc4ce13492", "fusion_lat": 0.0, "fusion_lon": 0.0, "rental_uris": {"android": "https://dc.lft.to/lastmile_qr_scan", "ios": "https://dc.lft.to/lastmile_qr_scan"}, "is_reserved": 0, "is_disabled": 0, "type": "electric_scooter", "bike_id": "155e1e0f2db62a59e4d32bbc4ce13492"}, {"lon": -77.03874366666666, "lat": 38.9171305, "name": "de7d52f79ba7dbea71cf6b4e5281b0d9", "fusion_lat": 0.0, "fusion_lon": 0.0, "rental_uris": {"android": "https://dc.lft.to/lastmile_qr_scan", "ios": "https://dc.lft.to/lastmile_qr_scan"}, "is_reserved": 0, "is_disabled": 0, "type": "electric_scooter", "bike_id": "de7d52f79ba7dbea71cf6b4e5281b0d9"}, {"lon": -77.04133883333333, "lat": 38.92364233333333, "name": "72cb84b5dad97fcfb55f5ccc0091eecb", "fusion_lat": 0.0, "fusion_lon": 0.0, "rental_uris": {"android": "https://dc.lft.to/lastmile_qr_scan", "ios": "https://dc.lft.to/lastmile_qr_scan"}, "is_reserved": 0, "is_disabled": 0, "type": "electric_scooter", "bike_id": "72cb84b5dad97fcfb55f5ccc0091eecb"}, {"lon": -77.00523716666666, "lat": 38.91698916666667, "name": "7ced09aef2765a4239d983040cbfab51", "fusion_lat": 0.0, "fusion_lon": 0.0, "rental_uris": {"android": "https://dc.lft.to/lastmile_qr_scan", "ios": "https://dc.lft.to/lastmile_qr_scan"}, "is_reserved": 0, "is_disabled": 0, "type": "electric_scooter", "bike_id": "7ced09aef2765a4239d983040cbfab51"}, {"lon": -77.03442233333334, "lat": 38.918082, "name": "e32d09ed9e603d48a12e562be98295fd", "fusion_lat": 0.0, "fusion_lon": 0.0, "rental_uris": {"android": "https://dc.lft.to/lastmile_qr_scan", "ios": "https://dc.lft.to/lastmile_qr_scan"}, "is_reserved": 0, "is_disabled": 0, "type": "electric_scooter", "bike_id": "e32d09ed9e603d48a12e562be98295fd"}, {"lon": -77.03826266666667, "lat": 38.92547866666666, "name": "51cdeef128f04d4df201149958d116c1", "fusion_lat": 0.0, "fusion_lon": 0.0, "rental_uris": {"android": "https://dc.lft.to/lastmile_qr_scan", "ios": "https://dc.lft.to/lastmile_qr_scan"}, "is_reserved": 0, "is_disabled": 0, "type": "electric_scooter", "bike_id": "51cdeef128f04d4df201149958d116c1"}, {"lon": -77.017621, "lat": 38.90267166666667, "name": "59e950a36eef3e38d69e988eace72665", "fusion_lat": 0.0, "fusion_lon": 0.0, "rental_uris": {"android": "https://dc.lft.to/lastmile_qr_scan", "ios": "https://dc.lft.to/lastmile_qr_scan"}, "is_reserved": 0, "is_disabled": 0, "type": "electric_scooter", "bike_id": "59e950a36eef3e38d69e988eace72665"}, {"lon": -77.04190716666666, "lat": 38.9070485, "name": "c67e6d129ba1ddddf7136a729af90acd", "fusion_lat": 0.0, "fusion_lon": 0.0, "rental_uris": {"android": "https://dc.lft.to/lastmile_qr_scan", "ios": "https://dc.lft.to/lastmile_qr_scan"}, "is_reserved": 0, "is_disabled": 0, "type": "electric_scooter", "bike_id": "c67e6d129ba1ddddf7136a729af90acd"}, {"lon": -77.04338183333333, "lat": 38.90093066666667, "name": "221d2fb6e59bd78583fce8313b1f2720", "fusion_lat": 0.0, "fusion_lon": 0.0, "rental_uris": {"android": "https://dc.lft.to/lastmile_qr_scan", "ios": "https://dc.lft.to/lastmile_qr_scan"}, "is_reserved": 0, "is_disabled": 0, "type": "electric_scooter", "bike_id": "221d2fb6e59bd78583fce8313b1f2720"}, {"lon": -77.00804516666666, "lat": 38.91703, "name": "033402b32eae695b961cca3df349d82a", "fusion_lat": 0.0, "fusion_lon": 0.0, "rental_uris": {"android": "https://dc.lft.to/lastmile_qr_scan", "ios": "https://dc.lft.to/lastmile_qr_scan"}, "is_reserved": 0, "is_disabled": 0, "type": "electric_scooter", "bike_id": "033402b32eae695b961cca3df349d82a"}, {"lon": -77.0400845, "lat": 38.900379666666666, "name": "f7e5021fae82d98003e12630433989a2", "fusion_lat": 0.0, "fusion_lon": 0.0, "rental_uris": {"android": "https://dc.lft.to/lastmile_qr_scan", "ios": "https://dc.lft.to/lastmile_qr_scan"}, "is_reserved": 0, "is_disabled": 0, "type": "electric_scooter", "bike_id": "f7e5021fae82d98003e12630433989a2"}, {"lon": -76.97619983333334, "lat": 38.89583566666667, "name": "1057bb5bd6744834e1c5b9c105351c16", "fusion_lat": 0.0, "fusion_lon": 0.0, "rental_uris": {"android": "https://dc.lft.to/lastmile_qr_scan", "ios": "https://dc.lft.to/lastmile_qr_scan"}, "is_reserved": 0, "is_disabled": 0, "type": "electric_bike", "bike_id": "1057bb5bd6744834e1c5b9c105351c16"}, {"lon": -76.93750566666667, "lat": 38.8904715, "name": "8e16624294ee1cc3c742830023098118", "fusion_lat": 0.0, "fusion_lon": 0.0, "rental_uris": {"android": "https://dc.lft.to/lastmile_qr_scan", "ios": "https://dc.lft.to/lastmile_qr_scan"}, "is_reserved": 0, "is_disabled": 0, "type": "electric_scooter", "bike_id": "8e16624294ee1cc3c742830023098118"}, {"lon": -77.02743016666666, "lat": 38.967174166666666, "name": "4cb162302b19bf5079fde4758fa5c9df", "fusion_lat": 0.0, "fusion_lon": 0.0, "rental_uris": {"android": "https://dc.lft.to/lastmile_qr_scan", "ios": "https://dc.lft.to/lastmile_qr_scan"}, "is_reserved": 0, "is_disabled": 0, "type": "electric_scooter", "bike_id": "4cb162302b19bf5079fde4758fa5c9df"}, {"lon": -77.010594, "lat": 38.872477, "name": "54054428d4b78535e9602cf0fbf8a18b", "fusion_lat": 0.0, "fusion_lon": 0.0, "rental_uris": {"android": "https://dc.lft.to/lastmile_qr_scan", "ios": "https://dc.lft.to/lastmile_qr_scan"}, "is_reserved": 0, "is_disabled": 0, "type": "electric_scooter", "bike_id": "54054428d4b78535e9602cf0fbf8a18b"}, {"lon": -77.0789285, "lat": 38.91925283333333, "name": "97c45078a9d0dfc4ded167ae6df0ec63", "fusion_lat": 0.0, "fusion_lon": 0.0, "rental_uris": {"android": "https://dc.lft.to/lastmile_qr_scan", "ios": "https://dc.lft.to/lastmile_qr_scan"}, "is_reserved": 0, "is_disabled": 0, "type": "electric_scooter", "bike_id": "97c45078a9d0dfc4ded167ae6df0ec63"}, {"lon": -77.02830216666666, "lat": 38.924799666666665, "name": "987bf111db9c5e35f9cbc4d77f0076fd", "fusion_lat": 0.0, "fusion_lon": 0.0, "rental_uris": {"android": "https://dc.lft.to/lastmile_qr_scan", "ios": "https://dc.lft.to/lastmile_qr_scan"}, "is_reserved": 0, "is_disabled": 0, "type": "electric_scooter", "bike_id": "987bf111db9c5e35f9cbc4d77f0076fd"}, {"lon": -77.0272665, "lat": 38.90050983333333, "name": "78f784597fccb92d3148ea7718ed7118", "fusion_lat": 0.0, "fusion_lon": 0.0, "rental_uris": {"android": "https://dc.lft.to/lastmile_qr_scan", "ios": "https://dc.lft.to/lastmile_qr_scan"}, "is_reserved": 0, "is_disabled": 0, "type": "electric_scooter", "bike_id": "78f784597fccb92d3148ea7718ed7118"}, {"lon": -77.03364516666667, "lat": 38.93690816666667, "name": "6c9a21d1a7f1a290e2d09be9899166a5", "fusion_lat": 0.0, "fusion_lon": 0.0, "rental_uris": {"android": "https://dc.lft.to/lastmile_qr_scan", "ios": "https://dc.lft.to/lastmile_qr_scan"}, "is_reserved": 0, "is_disabled": 0, "type": "electric_bike", "bike_id": "6c9a21d1a7f1a290e2d09be9899166a5"}, {"lon": -77.01110283333334, "lat": 38.870897, "name": "e55836ab174ef9e8c236db8fcc07f4e8", "fusion_lat": 0.0, "fusion_lon": 0.0, "rental_uris": {"android": "https://dc.lft.to/lastmile_qr_scan", "ios": "https://dc.lft.to/lastmile_qr_scan"}, "is_reserved": 0, "is_disabled": 0, "type": "electric_scooter", "bike_id": "e55836ab174ef9e8c236db8fcc07f4e8"}, {"lon": -77.05512616666667, "lat": 38.930024, "name": "8469d4c8e9bbf51e90a05fb64a0aa04d", "fusion_lat": 0.0, "fusion_lon": 0.0, "rental_uris": {"android": "https://dc.lft.to/lastmile_qr_scan", "ios": "https://dc.lft.to/lastmile_qr_scan"}, "is_reserved": 0, "is_disabled": 0, "type": "electric_scooter", "bike_id": "8469d4c8e9bbf51e90a05fb64a0aa04d"}, {"lon": -76.99624766666666, "lat": 38.88553483333333, "name": "4a493d86845a784ce0cc0bd7e2ba2e26", "fusion_lat": 0.0, "fusion_lon": 0.0, "rental_uris": {"android": "https://dc.lft.to/lastmile_qr_scan", "ios": "https://dc.lft.to/lastmile_qr_scan"}, "is_reserved": 0, "is_disabled": 0, "type": "electric_scooter", "bike_id": "4a493d86845a784ce0cc0bd7e2ba2e26"}, {"lon": -76.98727816666667, "lat": 38.8670855, "name": "c3b4b7099b87c2b987c0671d0245ada9", "fusion_lat": 0.0, "fusion_lon": 0.0, "rental_uris": {"android": "https://dc.lft.to/lastmile_qr_scan", "ios": "https://dc.lft.to/lastmile_qr_scan"}, "is_reserved": 0, "is_disabled": 0, "type": "electric_scooter", "bike_id": "c3b4b7099b87c2b987c0671d0245ada9"}, {"lon": -77.01639666666667, "lat": 38.89993, "name": "60b3ab6cfe815dec6a50dda140f7f60e", "fusion_lat": 0.0, "fusion_lon": 0.0, "rental_uris": {"android": "https://dc.lft.to/lastmile_qr_scan", "ios": "https://dc.lft.to/lastmile_qr_scan"}, "is_reserved": 0, "is_disabled": 0, "type": "electric_scooter", "bike_id": "60b3ab6cfe815dec6a50dda140f7f60e"}, {"lon": -76.98903816666666, "lat": 38.90035116666667, "name": "5dea7fd4cd65b83ec14099f168f329e7", "fusion_lat": 0.0, "fusion_lon": 0.0, "rental_uris": {"android": "https://dc.lft.to/lastmile_qr_scan", "ios": "https://dc.lft.to/lastmile_qr_scan"}, "is_reserved": 0, "is_disabled": 0, "type": "electric_scooter", "bike_id": "5dea7fd4cd65b83ec14099f168f329e7"}, {"lon": -76.948915, "lat": 38.895229, "name": "56e81466cd7f43bc4c8a40add4a8e0e0", "fusion_lat": 0.0, "fusion_lon": 0.0, "rental_uris": {"android": "https://dc.lft.to/lastmile_qr_scan", "ios": "https://dc.lft.to/lastmile_qr_scan"}, "is_reserved": 0, "is_disabled": 0, "type": "electric_scooter", "bike_id": "56e81466cd7f43bc4c8a40add4a8e0e0"}, {"lon": -77.04822216666666, "lat": 38.911065, "name": "bff583ca692fd7b7b45ea9aac27abf49", "fusion_lat": 0.0, "fusion_lon": 0.0, "rental_uris": {"android": "https://dc.lft.to/lastmile_qr_scan", "ios": "https://dc.lft.to/lastmile_qr_scan"}, "is_reserved": 0, "is_disabled": 0, "type": "electric_scooter", "bike_id": "bff583ca692fd7b7b45ea9aac27abf49"}, {"lon": -77.02203383333334, "lat": 38.887721, "name": "a47b25c3570c7b3f06ebd998f980bc72", "fusion_lat": 0.0, "fusion_lon": 0.0, "rental_uris": {"android": "https://dc.lft.to/lastmile_qr_scan", "ios": "https://dc.lft.to/lastmile_qr_scan"}, "is_reserved": 0, "is_disabled": 0, "type": "electric_scooter", "bike_id": "a47b25c3570c7b3f06ebd998f980bc72"}, {"lon": -76.93845033333334, "lat": 38.900848833333335, "name": "ea276f9c059893b18031a30b52cd6e49", "fusion_lat": 0.0, "fusion_lon": 0.0, "rental_uris": {"android": "https://dc.lft.to/lastmile_qr_scan", "ios": "https://dc.lft.to/lastmile_qr_scan"}, "is_reserved": 0, "is_disabled": 0, "type": "electric_scooter", "bike_id": "ea276f9c059893b18031a30b52cd6e49"}, {"lon": -77.01765833333333, "lat": 38.90258866666667, "name": "549d9a1d60bb85a38d1a32db82a2b59c", "fusion_lat": 0.0, "fusion_lon": 0.0, "rental_uris": {"android": "https://dc.lft.to/lastmile_qr_scan", "ios": "https://dc.lft.to/lastmile_qr_scan"}, "is_reserved": 0, "is_disabled": 0, "type": "electric_scooter", "bike_id": "549d9a1d60bb85a38d1a32db82a2b59c"}, {"lon": -77.04307766666666, "lat": 38.90031283333333, "name": "c6338d056301c18e78b5912ab0c5403d", "fusion_lat": 0.0, "fusion_lon": 0.0, "rental_uris": {"android": "https://dc.lft.to/lastmile_qr_scan", "ios": "https://dc.lft.to/lastmile_qr_scan"}, "is_reserved": 0, "is_disabled": 0, "type": "electric_scooter", "bike_id": "c6338d056301c18e78b5912ab0c5403d"}, {"lon": -77.02202666666666, "lat": 38.918879833333335, "name": "b9d1f7a6f98cdde825be10e6069168b4", "fusion_lat": 0.0, "fusion_lon": 0.0, "rental_uris": {"android": "https://dc.lft.to/lastmile_qr_scan", "ios": "https://dc.lft.to/lastmile_qr_scan"}, "is_reserved": 0, "is_disabled": 0, "type": "electric_scooter", "bike_id": "b9d1f7a6f98cdde825be10e6069168b4"}, {"lon": -77.05225466666667, "lat": 38.92517216666667, "name": "1eede52e6256d5f9ee8885d753ee9fb6", "fusion_lat": 0.0, "fusion_lon": 0.0, "rental_uris": {"android": "https://dc.lft.to/lastmile_qr_scan", "ios": "https://dc.lft.to/lastmile_qr_scan"}, "is_reserved": 0, "is_disabled": 0, "type": "electric_scooter", "bike_id": "1eede52e6256d5f9ee8885d753ee9fb6"}, {"lon": -77.00312466666666, "lat": 38.90564166666667, "name": "12b11305b0f53df63458e2aad4d15538", "fusion_lat": 0.0, "fusion_lon": 0.0, "rental_uris": {"android": "https://dc.lft.to/lastmile_qr_scan", "ios": "https://dc.lft.to/lastmile_qr_scan"}, "is_reserved": 0, "is_disabled": 0, "type": "electric_scooter", "bike_id": "12b11305b0f53df63458e2aad4d15538"}, {"lon": -77.02681483333333, "lat": 38.89225733333333, "name": "121a1291a9027d437605645a94884c64", "fusion_lat": 0.0, "fusion_lon": 0.0, "rental_uris": {"android": "https://dc.lft.to/lastmile_qr_scan", "ios": "https://dc.lft.to/lastmile_qr_scan"}, "is_reserved": 0, "is_disabled": 0, "type": "electric_scooter", "bike_id": "121a1291a9027d437605645a94884c64"}, {"lon": -77.02311283333333, "lat": 38.91774016666667, "name": "756c5773ebaa8be54d67c85920578009", "fusion_lat": 0.0, "fusion_lon": 0.0, "rental_uris": {"android": "https://dc.lft.to/lastmile_qr_scan", "ios": "https://dc.lft.to/lastmile_qr_scan"}, "is_reserved": 0, "is_disabled": 0, "type": "electric_scooter", "bike_id": "756c5773ebaa8be54d67c85920578009"}, {"lon": -77.043716, "lat": 38.8922165, "name": "3eae057c2565911ae1f930317663e2dc", "fusion_lat": 0.0, "fusion_lon": 0.0, "rental_uris": {"android": "https://dc.lft.to/lastmile_qr_scan", "ios": "https://dc.lft.to/lastmile_qr_scan"}, "is_reserved": 0, "is_disabled": 0, "type": "electric_scooter", "bike_id": "3eae057c2565911ae1f930317663e2dc"}, {"lon": -76.9095975, "lat": 38.85421816666667, "name": "144a5ce7c290ba2a0d75ae6c66a5fe4f", "fusion_lat": 0.0, "fusion_lon": 0.0, "rental_uris": {"android": "https://dc.lft.to/lastmile_qr_scan", "ios": "https://dc.lft.to/lastmile_qr_scan"}, "is_reserved": 0, "is_disabled": 0, "type": "electric_bike", "bike_id": "144a5ce7c290ba2a0d75ae6c66a5fe4f"}, {"lon": -77.01871216666666, "lat": 38.887460833333336, "name": "7ee4e132e150ed7157b2c16a2c3dd776", "fusion_lat": 0.0, "fusion_lon": 0.0, "rental_uris": {"android": "https://dc.lft.to/lastmile_qr_scan", "ios": "https://dc.lft.to/lastmile_qr_scan"}, "is_reserved": 0, "is_disabled": 0, "type": "electric_scooter", "bike_id": "7ee4e132e150ed7157b2c16a2c3dd776"}, {"lon": -77.02616466666667, "lat": 38.90496433333333, "name": "0ad1ee25e3d88797d84707a4c1af896b", "fusion_lat": 0.0, "fusion_lon": 0.0, "rental_uris": {"android": "https://dc.lft.to/lastmile_qr_scan", "ios": "https://dc.lft.to/lastmile_qr_scan"}, "is_reserved": 0, "is_disabled": 0, "type": "electric_scooter", "bike_id": "0ad1ee25e3d88797d84707a4c1af896b"}, {"lon": -76.9934455, "lat": 38.8812945, "name": "8aefda283e68f47cacf55453e7f8535c", "fusion_lat": 0.0, "fusion_lon": 0.0, "rental_uris": {"android": "https://dc.lft.to/lastmile_qr_scan", "ios": "https://dc.lft.to/lastmile_qr_scan"}, "is_reserved": 0, "is_disabled": 0, "type": "electric_scooter", "bike_id": "8aefda283e68f47cacf55453e7f8535c"}, {"lon": -77.03287933333333, "lat": 38.93748033333333, "name": "10229b7b762c26204c03caba7c520ed8", "fusion_lat": 0.0, "fusion_lon": 0.0, "rental_uris": {"android": "https://dc.lft.to/lastmile_qr_scan", "ios": "https://dc.lft.to/lastmile_qr_scan"}, "is_reserved": 0, "is_disabled": 0, "type": "electric_scooter", "bike_id": "10229b7b762c26204c03caba7c520ed8"}, {"lon": -77.04574583333333, "lat": 38.91671266666667, "name": "582e580efdc237687b51d1038070888b", "fusion_lat": 0.0, "fusion_lon": 0.0, "rental_uris": {"android": "https://dc.lft.to/lastmile_qr_scan", "ios": "https://dc.lft.to/lastmile_qr_scan"}, "is_reserved": 0, "is_disabled": 0, "type": "electric_bike", "bike_id": "582e580efdc237687b51d1038070888b"}, {"lon": -77.02202816666667, "lat": 38.9109605, "name": "590c438217e85029bd6ee6a016f1a73b", "fusion_lat": 0.0, "fusion_lon": 0.0, "rental_uris": {"android": "https://dc.lft.to/lastmile_qr_scan", "ios": "https://dc.lft.to/lastmile_qr_scan"}, "is_reserved": 0, "is_disabled": 0, "type": "electric_scooter", "bike_id": "590c438217e85029bd6ee6a016f1a73b"}, {"lon": -77.01252783333334, "lat": 38.876334, "name": "703f25910a35b931c7cdd28d151789e3", "fusion_lat": 0.0, "fusion_lon": 0.0, "rental_uris": {"android": "https://dc.lft.to/lastmile_qr_scan", "ios": "https://dc.lft.to/lastmile_qr_scan"}, "is_reserved": 0, "is_disabled": 0, "type": "electric_scooter", "bike_id": "703f25910a35b931c7cdd28d151789e3"}, {"lon": -77.024147, "lat": 38.892186833333334, "name": "b3d12a595b7f00978fd95ab1aa5f32b2", "fusion_lat": 0.0, "fusion_lon": 0.0, "rental_uris": {"android": "https://dc.lft.to/lastmile_qr_scan", "ios": "https://dc.lft.to/lastmile_qr_scan"}, "is_reserved": 0, "is_disabled": 0, "type": "electric_scooter", "bike_id": "b3d12a595b7f00978fd95ab1aa5f32b2"}, {"lon": -76.94901783333333, "lat": 38.8955855, "name": "602934da9c7d2e86d05e621acdb2ee1b", "fusion_lat": 0.0, "fusion_lon": 0.0, "rental_uris": {"android": "https://dc.lft.to/lastmile_qr_scan", "ios": "https://dc.lft.to/lastmile_qr_scan"}, "is_reserved": 0, "is_disabled": 0, "type": "electric_scooter", "bike_id": "602934da9c7d2e86d05e621acdb2ee1b"}, {"lon": -77.02416633333333, "lat": 38.926096666666666, "name": "d33ec46548211954b98558ee1258ea97", "fusion_lat": 0.0, "fusion_lon": 0.0, "rental_uris": {"android": "https://dc.lft.to/lastmile_qr_scan", "ios": "https://dc.lft.to/lastmile_qr_scan"}, "is_reserved": 0, "is_disabled": 0, "type": "electric_scooter", "bike_id": "d33ec46548211954b98558ee1258ea97"}, {"lon": -77.10331083333334, "lat": 38.9650685, "name": "91dda09631e0e5056dd8fe32adec49ac", "fusion_lat": 0.0, "fusion_lon": 0.0, "rental_uris": {"android": "https://dc.lft.to/lastmile_qr_scan", "ios": "https://dc.lft.to/lastmile_qr_scan"}, "is_reserved": 0, "is_disabled": 0, "type": "electric_bike", "bike_id": "91dda09631e0e5056dd8fe32adec49ac"}, {"lon": -77.01590433333334, "lat": 38.9576525, "name": "4db8b4c7e992a346a2a0f2e3e7f24572", "fusion_lat": 0.0, "fusion_lon": 0.0, "rental_uris": {"android": "https://dc.lft.to/lastmile_qr_scan", "ios": "https://dc.lft.to/lastmile_qr_scan"}, "is_reserved": 0, "is_disabled": 0, "type": "electric_scooter", "bike_id": "4db8b4c7e992a346a2a0f2e3e7f24572"}, {"lon": -77.020508, "lat": 38.91557233333333, "name": "c6538711257a3d4326dc5263b1be4d0f", "fusion_lat": 0.0, "fusion_lon": 0.0, "rental_uris": {"android": "https://dc.lft.to/lastmile_qr_scan", "ios": "https://dc.lft.to/lastmile_qr_scan"}, "is_reserved": 0, "is_disabled": 0, "type": "electric_scooter", "bike_id": "c6538711257a3d4326dc5263b1be4d0f"}, {"lon": -77.001501, "lat": 38.9076725, "name": "2620f85a4b7fa73b91819081ee6e19c3", "fusion_lat": 0.0, "fusion_lon": 0.0, "rental_uris": {"android": "https://dc.lft.to/lastmile_qr_scan", "ios": "https://dc.lft.to/lastmile_qr_scan"}, "is_reserved": 0, "is_disabled": 0, "type": "electric_scooter", "bike_id": "2620f85a4b7fa73b91819081ee6e19c3"}, {"lon": -77.01641116666667, "lat": 38.9294215, "name": "7f11bafe5e59262a1cfece27b8155bc1", "fusion_lat": 0.0, "fusion_lon": 0.0, "rental_uris": {"android": "https://dc.lft.to/lastmile_qr_scan", "ios": "https://dc.lft.to/lastmile_qr_scan"}, "is_reserved": 0, "is_disabled": 0, "type": "electric_scooter", "bike_id": "7f11bafe5e59262a1cfece27b8155bc1"}, {"lon": -77.0215925, "lat": 38.92615816666667, "name": "3af94cb472694ae0902ded991c5c857b", "fusion_lat": 0.0, "fusion_lon": 0.0, "rental_uris": {"android": "https://dc.lft.to/lastmile_qr_scan", "ios": "https://dc.lft.to/lastmile_qr_scan"}, "is_reserved": 0, "is_disabled": 0, "type": "electric_scooter", "bike_id": "3af94cb472694ae0902ded991c5c857b"}, {"lon": -76.95185433333333, "lat": 38.891344333333336, "name": "ecd5bb3772efbfe48c6165ca977c6161", "fusion_lat": 0.0, "fusion_lon": 0.0, "rental_uris": {"android": "https://dc.lft.to/lastmile_qr_scan", "ios": "https://dc.lft.to/lastmile_qr_scan"}, "is_reserved": 0, "is_disabled": 0, "type": "electric_scooter", "bike_id": "ecd5bb3772efbfe48c6165ca977c6161"}, {"lon": -77.00580416666666, "lat": 38.9055765, "name": "8875885c870b2736cc478633b62bb979", "fusion_lat": 0.0, "fusion_lon": 0.0, "rental_uris": {"android": "https://dc.lft.to/lastmile_qr_scan", "ios": "https://dc.lft.to/lastmile_qr_scan"}, "is_reserved": 0, "is_disabled": 0, "type": "electric_scooter", "bike_id": "8875885c870b2736cc478633b62bb979"}, {"lon": -77.00576983333333, "lat": 38.8721415, "name": "12215414b89d02e0f88b628c0ab89177", "fusion_lat": 0.0, "fusion_lon": 0.0, "rental_uris": {"android": "https://dc.lft.to/lastmile_qr_scan", "ios": "https://dc.lft.to/lastmile_qr_scan"}, "is_reserved": 0, "is_disabled": 0, "type": "electric_scooter", "bike_id": "12215414b89d02e0f88b628c0ab89177"}, {"lon": -76.98264, "lat": 38.863588, "name": "095501beb59566c0deac564a215bf8ba", "fusion_lat": 0.0, "fusion_lon": 0.0, "rental_uris": {"android": "https://dc.lft.to/lastmile_qr_scan", "ios": "https://dc.lft.to/lastmile_qr_scan"}, "is_reserved": 0, "is_disabled": 0, "type": "electric_scooter", "bike_id": "095501beb59566c0deac564a215bf8ba"}, {"lon": -77.04785183333334, "lat": 38.893666333333336, "name": "e79804ab2aef2e256fde07a453a4cce3", "fusion_lat": 0.0, "fusion_lon": 0.0, "rental_uris": {"android": "https://dc.lft.to/lastmile_qr_scan", "ios": "https://dc.lft.to/lastmile_qr_scan"}, "is_reserved": 0, "is_disabled": 0, "type": "electric_scooter", "bike_id": "e79804ab2aef2e256fde07a453a4cce3"}, {"lon": -77.03264966666667, "lat": 38.938229, "name": "6269e8942fffc3f7d3861fddd0218015", "fusion_lat": 0.0, "fusion_lon": 0.0, "rental_uris": {"android": "https://dc.lft.to/lastmile_qr_scan", "ios": "https://dc.lft.to/lastmile_qr_scan"}, "is_reserved": 0, "is_disabled": 0, "type": "electric_scooter", "bike_id": "6269e8942fffc3f7d3861fddd0218015"}, {"lon": -77.018372, "lat": 38.908805, "name": "71912f3145ad9da97e608091b9c72afc", "fusion_lat": 0.0, "fusion_lon": 0.0, "rental_uris": {"android": "https://dc.lft.to/lastmile_qr_scan", "ios": "https://dc.lft.to/lastmile_qr_scan"}, "is_reserved": 0, "is_disabled": 0, "type": "electric_scooter", "bike_id": "71912f3145ad9da97e608091b9c72afc"}, {"lon": -77.04411866666666, "lat": 38.905779, "name": "bc0040fd76aa9a45959115ce5a08cd53", "fusion_lat": 0.0, "fusion_lon": 0.0, "rental_uris": {"android": "https://dc.lft.to/lastmile_qr_scan", "ios": "https://dc.lft.to/lastmile_qr_scan"}, "is_reserved": 0, "is_disabled": 0, "type": "electric_scooter", "bike_id": "bc0040fd76aa9a45959115ce5a08cd53"}, {"lon": -77.0423955, "lat": 38.938607, "name": "0660a829de6484e43a9c3cf4bd091ec7", "fusion_lat": 0.0, "fusion_lon": 0.0, "rental_uris": {"android": "https://dc.lft.to/lastmile_qr_scan", "ios": "https://dc.lft.to/lastmile_qr_scan"}, "is_reserved": 0, "is_disabled": 0, "type": "electric_bike", "bike_id": "0660a829de6484e43a9c3cf4bd091ec7"}, {"lon": -77.0165365, "lat": 38.95332483333333, "name": "da5e7e0ab1bf467e3fb3bd7844d65397", "fusion_lat": 0.0, "fusion_lon": 0.0, "rental_uris": {"android": "https://dc.lft.to/lastmile_qr_scan", "ios": "https://dc.lft.to/lastmile_qr_scan"}, "is_reserved": 0, "is_disabled": 0, "type": "electric_scooter", "bike_id": "da5e7e0ab1bf467e3fb3bd7844d65397"}, {"lon": -77.02887116666666, "lat": 38.90736716666667, "name": "3e6e8b36a2e01bf6db9bdb53070ce7a6", "fusion_lat": 0.0, "fusion_lon": 0.0, "rental_uris": {"android": "https://dc.lft.to/lastmile_qr_scan", "ios": "https://dc.lft.to/lastmile_qr_scan"}, "is_reserved": 0, "is_disabled": 0, "type": "electric_bike", "bike_id": "3e6e8b36a2e01bf6db9bdb53070ce7a6"}, {"lon": -77.0119295, "lat": 38.900307, "name": "1e1652c04a14dba4ee5093322b659958", "fusion_lat": 0.0, "fusion_lon": 0.0, "rental_uris": {"android": "https://dc.lft.to/lastmile_qr_scan", "ios": "https://dc.lft.to/lastmile_qr_scan"}, "is_reserved": 0, "is_disabled": 0, "type": "electric_scooter", "bike_id": "1e1652c04a14dba4ee5093322b659958"}, {"lon": -77.021957, "lat": 38.9313005, "name": "f0627fa02770f2ca7fedd14e3f1606ef", "fusion_lat": 0.0, "fusion_lon": 0.0, "rental_uris": {"android": "https://dc.lft.to/lastmile_qr_scan", "ios": "https://dc.lft.to/lastmile_qr_scan"}, "is_reserved": 0, "is_disabled": 0, "type": "electric_scooter", "bike_id": "f0627fa02770f2ca7fedd14e3f1606ef"}, {"lon": -77.00601033333334, "lat": 38.8849395, "name": "4ada923deffc14f96f17646f3b95eeba", "fusion_lat": 0.0, "fusion_lon": 0.0, "rental_uris": {"android": "https://dc.lft.to/lastmile_qr_scan", "ios": "https://dc.lft.to/lastmile_qr_scan"}, "is_reserved": 0, "is_disabled": 0, "type": "electric_scooter", "bike_id": "4ada923deffc14f96f17646f3b95eeba"}, {"lon": -76.98841333333333, "lat": 38.8427455, "name": "68af57f56d17bb9ca6a5a6773ca1060b", "fusion_lat": 0.0, "fusion_lon": 0.0, "rental_uris": {"android": "https://dc.lft.to/lastmile_qr_scan", "ios": "https://dc.lft.to/lastmile_qr_scan"}, "is_reserved": 0, "is_disabled": 0, "type": "electric_bike", "bike_id": "68af57f56d17bb9ca6a5a6773ca1060b"}, {"lon": -77.0259245, "lat": 38.920383333333334, "name": "8737fb1ad5ae6ed23068caeac6c21e6f", "fusion_lat": 0.0, "fusion_lon": 0.0, "rental_uris": {"android": "https://dc.lft.to/lastmile_qr_scan", "ios": "https://dc.lft.to/lastmile_qr_scan"}, "is_reserved": 0, "is_disabled": 0, "type": "electric_scooter", "bike_id": "8737fb1ad5ae6ed23068caeac6c21e6f"}, {"lon": -76.97035033333333, "lat": 38.90317133333333, "name": "344bd955bb99f824c75e4e039c79ed12", "fusion_lat": 0.0, "fusion_lon": 0.0, "rental_uris": {"android": "https://dc.lft.to/lastmile_qr_scan", "ios": "https://dc.lft.to/lastmile_qr_scan"}, "is_reserved": 0, "is_disabled": 0, "type": "electric_scooter", "bike_id": "344bd955bb99f824c75e4e039c79ed12"}, {"lon": -77.02743, "lat": 38.966325499999996, "name": "e54b02c650d6e9d681c16981fe72ab4e", "fusion_lat": 0.0, "fusion_lon": 0.0, "rental_uris": {"android": "https://dc.lft.to/lastmile_qr_scan", "ios": "https://dc.lft.to/lastmile_qr_scan"}, "is_reserved": 0, "is_disabled": 0, "type": "electric_scooter", "bike_id": "e54b02c650d6e9d681c16981fe72ab4e"}, {"lon": -77.02564233333334, "lat": 38.90163583333333, "name": "1fe2fb8d8375a210c71a414eb2055cc7", "fusion_lat": 0.0, "fusion_lon": 0.0, "rental_uris": {"android": "https://dc.lft.to/lastmile_qr_scan", "ios": "https://dc.lft.to/lastmile_qr_scan"}, "is_reserved": 0, "is_disabled": 0, "type": "electric_scooter", "bike_id": "1fe2fb8d8375a210c71a414eb2055cc7"}, {"lon": -77.03985133333333, "lat": 38.8030105, "name": "4cb0c4246f3f7d8573f074454c61d1e5", "fusion_lat": 0.0, "fusion_lon": 0.0, "rental_uris": {"android": "https://dc.lft.to/lastmile_qr_scan", "ios": "https://dc.lft.to/lastmile_qr_scan"}, "is_reserved": 0, "is_disabled": 0, "type": "electric_bike", "bike_id": "4cb0c4246f3f7d8573f074454c61d1e5"}, {"lon": -77.0377295, "lat": 38.91688333333333, "name": "c893c20d77c6e454d655c733e10da272", "fusion_lat": 0.0, "fusion_lon": 0.0, "rental_uris": {"android": "https://dc.lft.to/lastmile_qr_scan", "ios": "https://dc.lft.to/lastmile_qr_scan"}, "is_reserved": 0, "is_disabled": 0, "type": "electric_scooter", "bike_id": "c893c20d77c6e454d655c733e10da272"}, {"lon": -77.03243983333333, "lat": 38.934548666666664, "name": "0f576031f82208864d14544da74e77bf", "fusion_lat": 0.0, "fusion_lon": 0.0, "rental_uris": {"android": "https://dc.lft.to/lastmile_qr_scan", "ios": "https://dc.lft.to/lastmile_qr_scan"}, "is_reserved": 0, "is_disabled": 0, "type": "electric_scooter", "bike_id": "0f576031f82208864d14544da74e77bf"}, {"lon": -77.02562883333333, "lat": 38.887416, "name": "b679118f0b6e69eaae19a25d64ef8d74", "fusion_lat": 0.0, "fusion_lon": 0.0, "rental_uris": {"android": "https://dc.lft.to/lastmile_qr_scan", "ios": "https://dc.lft.to/lastmile_qr_scan"}, "is_reserved": 0, "is_disabled": 0, "type": "electric_scooter", "bike_id": "b679118f0b6e69eaae19a25d64ef8d74"}, {"lon": -76.99900866666667, "lat": 38.9096115, "name": "96c96569f57b9fed23cfdaa5d5a74840", "fusion_lat": 0.0, "fusion_lon": 0.0, "rental_uris": {"android": "https://dc.lft.to/lastmile_qr_scan", "ios": "https://dc.lft.to/lastmile_qr_scan"}, "is_reserved": 0, "is_disabled": 0, "type": "electric_scooter", "bike_id": "96c96569f57b9fed23cfdaa5d5a74840"}, {"lon": -76.995116, "lat": 38.8446995, "name": "a31f918af00019f1b857af9464b82fd7", "fusion_lat": 0.0, "fusion_lon": 0.0, "rental_uris": {"android": "https://dc.lft.to/lastmile_qr_scan", "ios": "https://dc.lft.to/lastmile_qr_scan"}, "is_reserved": 0, "is_disabled": 0, "type": "electric_scooter", "bike_id": "a31f918af00019f1b857af9464b82fd7"}, {"lon": -77.03171183333333, "lat": 38.893614166666666, "name": "2069ed4bfc2721587a3d3b9b9ccf2c09", "fusion_lat": 0.0, "fusion_lon": 0.0, "rental_uris": {"android": "https://dc.lft.to/lastmile_qr_scan", "ios": "https://dc.lft.to/lastmile_qr_scan"}, "is_reserved": 0, "is_disabled": 0, "type": "electric_scooter", "bike_id": "2069ed4bfc2721587a3d3b9b9ccf2c09"}, {"lon": -77.02812733333333, "lat": 38.9093915, "name": "7695ddc867607a3b501dc7cb137affaf", "fusion_lat": 0.0, "fusion_lon": 0.0, "rental_uris": {"android": "https://dc.lft.to/lastmile_qr_scan", "ios": "https://dc.lft.to/lastmile_qr_scan"}, "is_reserved": 0, "is_disabled": 0, "type": "electric_scooter", "bike_id": "7695ddc867607a3b501dc7cb137affaf"}, {"lon": -77.02407716666667, "lat": 38.90875166666667, "name": "26307aa89728426095b4488068453fb9", "fusion_lat": 0.0, "fusion_lon": 0.0, "rental_uris": {"android": "https://dc.lft.to/lastmile_qr_scan", "ios": "https://dc.lft.to/lastmile_qr_scan"}, "is_reserved": 0, "is_disabled": 0, "type": "electric_scooter", "bike_id": "26307aa89728426095b4488068453fb9"}, {"lon": -77.0117925, "lat": 38.9003285, "name": "b8de948d59709a504e3ca51b59404d4e", "fusion_lat": 0.0, "fusion_lon": 0.0, "rental_uris": {"android": "https://dc.lft.to/lastmile_qr_scan", "ios": "https://dc.lft.to/lastmile_qr_scan"}, "is_reserved": 0, "is_disabled": 0, "type": "electric_scooter", "bike_id": "b8de948d59709a504e3ca51b59404d4e"}, {"lon": -76.9906045, "lat": 38.863634166666664, "name": "da4ea35ceb3417051aea7bb4740d4deb", "fusion_lat": 0.0, "fusion_lon": 0.0, "rental_uris": {"android": "https://dc.lft.to/lastmile_qr_scan", "ios": "https://dc.lft.to/lastmile_qr_scan"}, "is_reserved": 0, "is_disabled": 0, "type": "electric_scooter", "bike_id": "da4ea35ceb3417051aea7bb4740d4deb"}, {"lon": -77.0443605, "lat": 38.93275533333333, "name": "e27a10cb1097b4591786c75402894060", "fusion_lat": 0.0, "fusion_lon": 0.0, "rental_uris": {"android": "https://dc.lft.to/lastmile_qr_scan", "ios": "https://dc.lft.to/lastmile_qr_scan"}, "is_reserved": 0, "is_disabled": 0, "type": "electric_scooter", "bike_id": "e27a10cb1097b4591786c75402894060"}, {"lon": -77.04182083333333, "lat": 38.92052833333333, "name": "4f1544e67887d9fd3801875e966a7b1f", "fusion_lat": 0.0, "fusion_lon": 0.0, "rental_uris": {"android": "https://dc.lft.to/lastmile_qr_scan", "ios": "https://dc.lft.to/lastmile_qr_scan"}, "is_reserved": 0, "is_disabled": 0, "type": "electric_scooter", "bike_id": "4f1544e67887d9fd3801875e966a7b1f"}, {"lon": -76.969973, "lat": 38.897642166666664, "name": "c35c2f9f35904c875452518c2f6c39de", "fusion_lat": 0.0, "fusion_lon": 0.0, "rental_uris": {"android": "https://dc.lft.to/lastmile_qr_scan", "ios": "https://dc.lft.to/lastmile_qr_scan"}, "is_reserved": 0, "is_disabled": 0, "type": "electric_scooter", "bike_id": "c35c2f9f35904c875452518c2f6c39de"}, {"lon": -77.00472016666667, "lat": 38.8774435, "name": "f4507a40125faf4e3f360d9c399a0657", "fusion_lat": 0.0, "fusion_lon": 0.0, "rental_uris": {"android": "https://dc.lft.to/lastmile_qr_scan", "ios": "https://dc.lft.to/lastmile_qr_scan"}, "is_reserved": 0, "is_disabled": 0, "type": "electric_scooter", "bike_id": "f4507a40125faf4e3f360d9c399a0657"}, {"lon": -77.034237, "lat": 38.919322, "name": "428ffb9e39b116520a1675c0eb2a034a", "fusion_lat": 0.0, "fusion_lon": 0.0, "rental_uris": {"android": "https://dc.lft.to/lastmile_qr_scan", "ios": "https://dc.lft.to/lastmile_qr_scan"}, "is_reserved": 0, "is_disabled": 0, "type": "electric_scooter", "bike_id": "428ffb9e39b116520a1675c0eb2a034a"}, {"lon": -77.03902533333333, "lat": 38.917067, "name": "5a0fe195c924277bd4cc7c59ff302b94", "fusion_lat": 0.0, "fusion_lon": 0.0, "rental_uris": {"android": "https://dc.lft.to/lastmile_qr_scan", "ios": "https://dc.lft.to/lastmile_qr_scan"}, "is_reserved": 0, "is_disabled": 0, "type": "electric_scooter", "bike_id": "5a0fe195c924277bd4cc7c59ff302b94"}, {"lon": -77.03432366666667, "lat": 38.93975, "name": "ca5f296e19f4b50cdf257612ae76b298", "fusion_lat": 0.0, "fusion_lon": 0.0, "rental_uris": {"android": "https://dc.lft.to/lastmile_qr_scan", "ios": "https://dc.lft.to/lastmile_qr_scan"}, "is_reserved": 0, "is_disabled": 0, "type": "electric_scooter", "bike_id": "ca5f296e19f4b50cdf257612ae76b298"}, {"lon": -77.006112, "lat": 38.90700666666667, "name": "23db73cc35bcd2177f94d734182692a4", "fusion_lat": 0.0, "fusion_lon": 0.0, "rental_uris": {"android": "https://dc.lft.to/lastmile_qr_scan", "ios": "https://dc.lft.to/lastmile_qr_scan"}, "is_reserved": 0, "is_disabled": 0, "type": "electric_scooter", "bike_id": "23db73cc35bcd2177f94d734182692a4"}, {"lon": -77.10025433333334, "lat": 38.99065366666667, "name": "e8b91e7820e2362d234b6a3632bd7e40", "fusion_lat": 0.0, "fusion_lon": 0.0, "rental_uris": {"android": "https://dc.lft.to/lastmile_qr_scan", "ios": "https://dc.lft.to/lastmile_qr_scan"}, "is_reserved": 0, "is_disabled": 0, "type": "electric_bike", "bike_id": "e8b91e7820e2362d234b6a3632bd7e40"}, {"lon": -77.0501035, "lat": 38.901315333333336, "name": "5d3c484e0914b0679ef236c12001ffc0", "fusion_lat": 0.0, "fusion_lon": 0.0, "rental_uris": {"android": "https://dc.lft.to/lastmile_qr_scan", "ios": "https://dc.lft.to/lastmile_qr_scan"}, "is_reserved": 0, "is_disabled": 0, "type": "electric_scooter", "bike_id": "5d3c484e0914b0679ef236c12001ffc0"}, {"lon": -77.061275, "lat": 38.90523016666667, "name": "3d96f210b14fe131589d8d98be9540da", "fusion_lat": 0.0, "fusion_lon": 0.0, "rental_uris": {"android": "https://dc.lft.to/lastmile_qr_scan", "ios": "https://dc.lft.to/lastmile_qr_scan"}, "is_reserved": 0, "is_disabled": 0, "type": "electric_scooter", "bike_id": "3d96f210b14fe131589d8d98be9540da"}, {"lon": -77.040924, "lat": 38.91255266666667, "name": "b653c899dbc09492266ba1376cd18dcf", "fusion_lat": 0.0, "fusion_lon": 0.0, "rental_uris": {"android": "https://dc.lft.to/lastmile_qr_scan", "ios": "https://dc.lft.to/lastmile_qr_scan"}, "is_reserved": 0, "is_disabled": 0, "type": "electric_scooter", "bike_id": "b653c899dbc09492266ba1376cd18dcf"}, {"lon": -77.0490065, "lat": 38.874979833333335, "name": "24275c8da7ba8ebab0bc5a8a4c65437d", "fusion_lat": 0.0, "fusion_lon": 0.0, "rental_uris": {"android": "https://dc.lft.to/lastmile_qr_scan", "ios": "https://dc.lft.to/lastmile_qr_scan"}, "is_reserved": 0, "is_disabled": 0, "type": "electric_bike", "bike_id": "24275c8da7ba8ebab0bc5a8a4c65437d"}, {"lon": -77.00021733333334, "lat": 38.873934166666665, "name": "e4493d321764acba27cff0f7ea2b2cb9", "fusion_lat": 0.0, "fusion_lon": 0.0, "rental_uris": {"android": "https://dc.lft.to/lastmile_qr_scan", "ios": "https://dc.lft.to/lastmile_qr_scan"}, "is_reserved": 0, "is_disabled": 0, "type": "electric_scooter", "bike_id": "e4493d321764acba27cff0f7ea2b2cb9"}, {"lon": -77.02149116666666, "lat": 38.90332516666667, "name": "7c382b1a0f52f5b9e3a61482f4b066bf", "fusion_lat": 0.0, "fusion_lon": 0.0, "rental_uris": {"android": "https://dc.lft.to/lastmile_qr_scan", "ios": "https://dc.lft.to/lastmile_qr_scan"}, "is_reserved": 0, "is_disabled": 0, "type": "electric_scooter", "bike_id": "7c382b1a0f52f5b9e3a61482f4b066bf"}, {"lon": -77.03206266666666, "lat": 38.91249633333334, "name": "72a4861e5c702a2ef65330c4801faef1", "fusion_lat": 0.0, "fusion_lon": 0.0, "rental_uris": {"android": "https://dc.lft.to/lastmile_qr_scan", "ios": "https://dc.lft.to/lastmile_qr_scan"}, "is_reserved": 0, "is_disabled": 0, "type": "electric_scooter", "bike_id": "72a4861e5c702a2ef65330c4801faef1"}, {"lon": -76.98572016666667, "lat": 38.898842333333334, "name": "3ccc683822a4f90fb9e62d7ca85ea9d7", "fusion_lat": 0.0, "fusion_lon": 0.0, "rental_uris": {"android": "https://dc.lft.to/lastmile_qr_scan", "ios": "https://dc.lft.to/lastmile_qr_scan"}, "is_reserved": 0, "is_disabled": 0, "type": "electric_scooter", "bike_id": "3ccc683822a4f90fb9e62d7ca85ea9d7"}, {"lon": -76.946507, "lat": 38.89830083333333, "name": "d0b1e7ce1a4fad1f4ba95ce4b0d05a8a", "fusion_lat": 0.0, "fusion_lon": 0.0, "rental_uris": {"android": "https://dc.lft.to/lastmile_qr_scan", "ios": "https://dc.lft.to/lastmile_qr_scan"}, "is_reserved": 0, "is_disabled": 0, "type": "electric_scooter", "bike_id": "d0b1e7ce1a4fad1f4ba95ce4b0d05a8a"}, {"lon": -77.01811116666667, "lat": 38.911945, "name": "c718293e1824727139a89456a8d587af", "fusion_lat": 0.0, "fusion_lon": 0.0, "rental_uris": {"android": "https://dc.lft.to/lastmile_qr_scan", "ios": "https://dc.lft.to/lastmile_qr_scan"}, "is_reserved": 0, "is_disabled": 0, "type": "electric_scooter", "bike_id": "c718293e1824727139a89456a8d587af"}, {"lon": -77.04853316666667, "lat": 38.91971816666667, "name": "7818443b7fb8272aa8781668d6abed11", "fusion_lat": 0.0, "fusion_lon": 0.0, "rental_uris": {"android": "https://dc.lft.to/lastmile_qr_scan", "ios": "https://dc.lft.to/lastmile_qr_scan"}, "is_reserved": 0, "is_disabled": 0, "type": "electric_scooter", "bike_id": "7818443b7fb8272aa8781668d6abed11"}, {"lon": -77.025579, "lat": 38.892294666666665, "name": "4c9bdf38b94358e04625320283489cda", "fusion_lat": 0.0, "fusion_lon": 0.0, "rental_uris": {"android": "https://dc.lft.to/lastmile_qr_scan", "ios": "https://dc.lft.to/lastmile_qr_scan"}, "is_reserved": 0, "is_disabled": 0, "type": "electric_scooter", "bike_id": "4c9bdf38b94358e04625320283489cda"}, {"lon": -77.03209066666666, "lat": 38.9089685, "name": "8c4be44512062bd050ed774ad7de4ace", "fusion_lat": 0.0, "fusion_lon": 0.0, "rental_uris": {"android": "https://dc.lft.to/lastmile_qr_scan", "ios": "https://dc.lft.to/lastmile_qr_scan"}, "is_reserved": 0, "is_disabled": 0, "type": "electric_scooter", "bike_id": "8c4be44512062bd050ed774ad7de4ace"}, {"lon": -77.02539316666666, "lat": 38.92073883333333, "name": "b9761fbcf2550097cf7c49e9bcfec2fd", "fusion_lat": 0.0, "fusion_lon": 0.0, "rental_uris": {"android": "https://dc.lft.to/lastmile_qr_scan", "ios": "https://dc.lft.to/lastmile_qr_scan"}, "is_reserved": 0, "is_disabled": 0, "type": "electric_scooter", "bike_id": "b9761fbcf2550097cf7c49e9bcfec2fd"}, {"lon": -77.0432375, "lat": 38.903521833333336, "name": "26f554acb53673f98f23964154a03893", "fusion_lat": 0.0, "fusion_lon": 0.0, "rental_uris": {"android": "https://dc.lft.to/lastmile_qr_scan", "ios": "https://dc.lft.to/lastmile_qr_scan"}, "is_reserved": 0, "is_disabled": 0, "type": "electric_scooter", "bike_id": "26f554acb53673f98f23964154a03893"}, {"lon": -77.00494133333333, "lat": 38.89695916666667, "name": "13e30ff4e44177c873b92852e2df0a15", "fusion_lat": 0.0, "fusion_lon": 0.0, "rental_uris": {"android": "https://dc.lft.to/lastmile_qr_scan", "ios": "https://dc.lft.to/lastmile_qr_scan"}, "is_reserved": 0, "is_disabled": 0, "type": "electric_scooter", "bike_id": "13e30ff4e44177c873b92852e2df0a15"}, {"lon": -77.0332505, "lat": 38.8965515, "name": "e5ba8441999b3766a009192bd79f355a", "fusion_lat": 0.0, "fusion_lon": 0.0, "rental_uris": {"android": "https://dc.lft.to/lastmile_qr_scan", "ios": "https://dc.lft.to/lastmile_qr_scan"}, "is_reserved": 0, "is_disabled": 0, "type": "electric_scooter", "bike_id": "e5ba8441999b3766a009192bd79f355a"}, {"lon": -76.9918735, "lat": 38.905081, "name": "a7621f03cf8010e89ea54359dbfe60ff", "fusion_lat": 0.0, "fusion_lon": 0.0, "rental_uris": {"android": "https://dc.lft.to/lastmile_qr_scan", "ios": "https://dc.lft.to/lastmile_qr_scan"}, "is_reserved": 0, "is_disabled": 0, "type": "electric_scooter", "bike_id": "a7621f03cf8010e89ea54359dbfe60ff"}, {"lon": -77.03759333333333, "lat": 38.90368016666667, "name": "964b54e9ee37265dc794d91905bb2a74", "fusion_lat": 0.0, "fusion_lon": 0.0, "rental_uris": {"android": "https://dc.lft.to/lastmile_qr_scan", "ios": "https://dc.lft.to/lastmile_qr_scan"}, "is_reserved": 0, "is_disabled": 0, "type": "electric_scooter", "bike_id": "964b54e9ee37265dc794d91905bb2a74"}, {"lon": -76.99023633333333, "lat": 38.85870283333333, "name": "d7632bccc1a9ddf39fd09893d53da9d4", "fusion_lat": 0.0, "fusion_lon": 0.0, "rental_uris": {"android": "https://dc.lft.to/lastmile_qr_scan", "ios": "https://dc.lft.to/lastmile_qr_scan"}, "is_reserved": 0, "is_disabled": 0, "type": "electric_scooter", "bike_id": "d7632bccc1a9ddf39fd09893d53da9d4"}, {"lon": -77.03724733333334, "lat": 38.91714433333333, "name": "abffc987bc5405fe4322f2cfabfe7306", "fusion_lat": 0.0, "fusion_lon": 0.0, "rental_uris": {"android": "https://dc.lft.to/lastmile_qr_scan", "ios": "https://dc.lft.to/lastmile_qr_scan"}, "is_reserved": 0, "is_disabled": 0, "type": "electric_scooter", "bike_id": "abffc987bc5405fe4322f2cfabfe7306"}, {"lon": -77.03344433333334, "lat": 38.89255466666667, "name": "8520a10de2d44b6870c0098f6f49113d", "fusion_lat": 0.0, "fusion_lon": 0.0, "rental_uris": {"android": "https://dc.lft.to/lastmile_qr_scan", "ios": "https://dc.lft.to/lastmile_qr_scan"}, "is_reserved": 0, "is_disabled": 0, "type": "electric_scooter", "bike_id": "8520a10de2d44b6870c0098f6f49113d"}, {"lon": -77.033054, "lat": 38.90039616666667, "name": "01918907c98393f3a45a661fd288c007", "fusion_lat": 0.0, "fusion_lon": 0.0, "rental_uris": {"android": "https://dc.lft.to/lastmile_qr_scan", "ios": "https://dc.lft.to/lastmile_qr_scan"}, "is_reserved": 0, "is_disabled": 0, "type": "electric_scooter", "bike_id": "01918907c98393f3a45a661fd288c007"}, {"lon": -77.04165533333334, "lat": 38.906274, "name": "669140ccdb639186a0b2d39eb0f1e346", "fusion_lat": 0.0, "fusion_lon": 0.0, "rental_uris": {"android": "https://dc.lft.to/lastmile_qr_scan", "ios": "https://dc.lft.to/lastmile_qr_scan"}, "is_reserved": 0, "is_disabled": 0, "type": "electric_scooter", "bike_id": "669140ccdb639186a0b2d39eb0f1e346"}, {"lon": -76.99129766666667, "lat": 38.90034266666667, "name": "853768f8a5d5d7dbbf35322f6b45334f", "fusion_lat": 0.0, "fusion_lon": 0.0, "rental_uris": {"android": "https://dc.lft.to/lastmile_qr_scan", "ios": "https://dc.lft.to/lastmile_qr_scan"}, "is_reserved": 0, "is_disabled": 0, "type": "electric_scooter", "bike_id": "853768f8a5d5d7dbbf35322f6b45334f"}, {"lon": -77.03804916666667, "lat": 38.9055025, "name": "05b1eb85a03604e89fef52871ea2178a", "fusion_lat": 0.0, "fusion_lon": 0.0, "rental_uris": {"android": "https://dc.lft.to/lastmile_qr_scan", "ios": "https://dc.lft.to/lastmile_qr_scan"}, "is_reserved": 0, "is_disabled": 0, "type": "electric_scooter", "bike_id": "05b1eb85a03604e89fef52871ea2178a"}, {"lon": -77.010231, "lat": 38.92126583333334, "name": "5a23345a2a7998f2ad3b8b1bd379cec6", "fusion_lat": 0.0, "fusion_lon": 0.0, "rental_uris": {"android": "https://dc.lft.to/lastmile_qr_scan", "ios": "https://dc.lft.to/lastmile_qr_scan"}, "is_reserved": 0, "is_disabled": 0, "type": "electric_scooter", "bike_id": "5a23345a2a7998f2ad3b8b1bd379cec6"}, {"lon": -77.1068715, "lat": 38.935831666666665, "name": "350dc3d6826ca5be2d6005cd91eb45fd", "fusion_lat": 0.0, "fusion_lon": 0.0, "rental_uris": {"android": "https://dc.lft.to/lastmile_qr_scan", "ios": "https://dc.lft.to/lastmile_qr_scan"}, "is_reserved": 0, "is_disabled": 0, "type": "electric_bike", "bike_id": "350dc3d6826ca5be2d6005cd91eb45fd"}, {"lon": -77.02357066666667, "lat": 38.89226433333333, "name": "680873c1e6900bbccc4acbcea66c1903", "fusion_lat": 0.0, "fusion_lon": 0.0, "rental_uris": {"android": "https://dc.lft.to/lastmile_qr_scan", "ios": "https://dc.lft.to/lastmile_qr_scan"}, "is_reserved": 0, "is_disabled": 0, "type": "electric_scooter", "bike_id": "680873c1e6900bbccc4acbcea66c1903"}, {"lon": -77.02392983333333, "lat": 38.9043095, "name": "9e0d83896e3b99f27030ba01339b0f63", "fusion_lat": 0.0, "fusion_lon": 0.0, "rental_uris": {"android": "https://dc.lft.to/lastmile_qr_scan", "ios": "https://dc.lft.to/lastmile_qr_scan"}, "is_reserved": 0, "is_disabled": 0, "type": "electric_scooter", "bike_id": "9e0d83896e3b99f27030ba01339b0f63"}, {"lon": -77.0434205, "lat": 38.898304333333336, "name": "d50cc6b359bbca323025671d0596762d", "fusion_lat": 0.0, "fusion_lon": 0.0, "rental_uris": {"android": "https://dc.lft.to/lastmile_qr_scan", "ios": "https://dc.lft.to/lastmile_qr_scan"}, "is_reserved": 0, "is_disabled": 0, "type": "electric_scooter", "bike_id": "d50cc6b359bbca323025671d0596762d"}, {"lon": -77.04891616666667, "lat": 38.9053865, "name": "eb2f95307cefad542f8144a0d03531c1", "fusion_lat": 0.0, "fusion_lon": 0.0, "rental_uris": {"android": "https://dc.lft.to/lastmile_qr_scan", "ios": "https://dc.lft.to/lastmile_qr_scan"}, "is_reserved": 0, "is_disabled": 0, "type": "electric_scooter", "bike_id": "eb2f95307cefad542f8144a0d03531c1"}, {"lon": -77.04660833333334, "lat": 38.893400166666666, "name": "e077c73e1adbf87bdd13bfc4b20195ff", "fusion_lat": 0.0, "fusion_lon": 0.0, "rental_uris": {"android": "https://dc.lft.to/lastmile_qr_scan", "ios": "https://dc.lft.to/lastmile_qr_scan"}, "is_reserved": 0, "is_disabled": 0, "type": "electric_scooter", "bike_id": "e077c73e1adbf87bdd13bfc4b20195ff"}, {"lon": -76.9855795, "lat": 38.86893233333333, "name": "d92e5fd50aa355b00a25adf18876a674", "fusion_lat": 0.0, "fusion_lon": 0.0, "rental_uris": {"android": "https://dc.lft.to/lastmile_qr_scan", "ios": "https://dc.lft.to/lastmile_qr_scan"}, "is_reserved": 0, "is_disabled": 0, "type": "electric_bike", "bike_id": "d92e5fd50aa355b00a25adf18876a674"}, {"lon": -77.02183216666667, "lat": 38.91138883333333, "name": "323342c4e52d28e9f77ea876488ffa6f", "fusion_lat": 0.0, "fusion_lon": 0.0, "rental_uris": {"android": "https://dc.lft.to/lastmile_qr_scan", "ios": "https://dc.lft.to/lastmile_qr_scan"}, "is_reserved": 0, "is_disabled": 0, "type": "electric_scooter", "bike_id": "323342c4e52d28e9f77ea876488ffa6f"}, {"lon": -77.076628, "lat": 38.906263, "name": "3acab14f6f625d54d39a2fb639769c99", "fusion_lat": 0.0, "fusion_lon": 0.0, "rental_uris": {"android": "https://dc.lft.to/lastmile_qr_scan", "ios": "https://dc.lft.to/lastmile_qr_scan"}, "is_reserved": 0, "is_disabled": 0, "type": "electric_scooter", "bike_id": "3acab14f6f625d54d39a2fb639769c99"}, {"lon": -77.026899, "lat": 38.909401833333334, "name": "c11d6d34ca8fe47bd92e29aaf02d4457", "fusion_lat": 0.0, "fusion_lon": 0.0, "rental_uris": {"android": "https://dc.lft.to/lastmile_qr_scan", "ios": "https://dc.lft.to/lastmile_qr_scan"}, "is_reserved": 0, "is_disabled": 0, "type": "electric_scooter", "bike_id": "c11d6d34ca8fe47bd92e29aaf02d4457"}, {"lon": -76.99062583333334, "lat": 38.90397333333333, "name": "e1e9b2e67be57d535c0493c0ab0bf529", "fusion_lat": 0.0, "fusion_lon": 0.0, "rental_uris": {"android": "https://dc.lft.to/lastmile_qr_scan", "ios": "https://dc.lft.to/lastmile_qr_scan"}, "is_reserved": 0, "is_disabled": 0, "type": "electric_scooter", "bike_id": "e1e9b2e67be57d535c0493c0ab0bf529"}, {"lon": -77.036351, "lat": 38.912668, "name": "4c338b2c892a904da82f3522e68dfd23", "fusion_lat": 0.0, "fusion_lon": 0.0, "rental_uris": {"android": "https://dc.lft.to/lastmile_qr_scan", "ios": "https://dc.lft.to/lastmile_qr_scan"}, "is_reserved": 0, "is_disabled": 0, "type": "electric_scooter", "bike_id": "4c338b2c892a904da82f3522e68dfd23"}, {"lon": -76.94629566666667, "lat": 38.946290833333336, "name": "c5f4550c0d9c25fedcffbce8bb626227", "fusion_lat": 0.0, "fusion_lon": 0.0, "rental_uris": {"android": "https://dc.lft.to/lastmile_qr_scan", "ios": "https://dc.lft.to/lastmile_qr_scan"}, "is_reserved": 0, "is_disabled": 0, "type": "electric_bike", "bike_id": "c5f4550c0d9c25fedcffbce8bb626227"}, {"lon": -77.03182566666666, "lat": 38.893923, "name": "96b5ddf907ece84846c6e4b3bcd02b36", "fusion_lat": 0.0, "fusion_lon": 0.0, "rental_uris": {"android": "https://dc.lft.to/lastmile_qr_scan", "ios": "https://dc.lft.to/lastmile_qr_scan"}, "is_reserved": 0, "is_disabled": 0, "type": "electric_scooter", "bike_id": "96b5ddf907ece84846c6e4b3bcd02b36"}, {"lon": -77.00208483333333, "lat": 38.900721, "name": "f0ac226b301421143575a76891863cf4", "fusion_lat": 0.0, "fusion_lon": 0.0, "rental_uris": {"android": "https://dc.lft.to/lastmile_qr_scan", "ios": "https://dc.lft.to/lastmile_qr_scan"}, "is_reserved": 0, "is_disabled": 0, "type": "electric_scooter", "bike_id": "f0ac226b301421143575a76891863cf4"}, {"lon": -77.03261283333333, "lat": 38.93527233333333, "name": "730bdf50dd576db598812f5620db1a36", "fusion_lat": 0.0, "fusion_lon": 0.0, "rental_uris": {"android": "https://dc.lft.to/lastmile_qr_scan", "ios": "https://dc.lft.to/lastmile_qr_scan"}, "is_reserved": 0, "is_disabled": 0, "type": "electric_scooter", "bike_id": "730bdf50dd576db598812f5620db1a36"}, {"lon": -77.01837333333333, "lat": 38.913462, "name": "a0b9b844ae16ef5b85256290138395be", "fusion_lat": 0.0, "fusion_lon": 0.0, "rental_uris": {"android": "https://dc.lft.to/lastmile_qr_scan", "ios": "https://dc.lft.to/lastmile_qr_scan"}, "is_reserved": 0, "is_disabled": 0, "type": "electric_scooter", "bike_id": "a0b9b844ae16ef5b85256290138395be"}, {"lon": -77.0422955, "lat": 38.91108633333333, "name": "2d593f8b32df49c04d63e3ad53a152a4", "fusion_lat": 0.0, "fusion_lon": 0.0, "rental_uris": {"android": "https://dc.lft.to/lastmile_qr_scan", "ios": "https://dc.lft.to/lastmile_qr_scan"}, "is_reserved": 0, "is_disabled": 0, "type": "electric_scooter", "bike_id": "2d593f8b32df49c04d63e3ad53a152a4"}, {"lon": -77.02199333333333, "lat": 38.91693716666666, "name": "15f4fd0b8c1c371d74be794d58caf2ef", "fusion_lat": 0.0, "fusion_lon": 0.0, "rental_uris": {"android": "https://dc.lft.to/lastmile_qr_scan", "ios": "https://dc.lft.to/lastmile_qr_scan"}, "is_reserved": 0, "is_disabled": 0, "type": "electric_scooter", "bike_id": "15f4fd0b8c1c371d74be794d58caf2ef"}, {"lon": -76.98124583333333, "lat": 38.89201416666667, "name": "1d6ffdd2219d4fd8f0f4c60924b93e56", "fusion_lat": 0.0, "fusion_lon": 0.0, "rental_uris": {"android": "https://dc.lft.to/lastmile_qr_scan", "ios": "https://dc.lft.to/lastmile_qr_scan"}, "is_reserved": 0, "is_disabled": 0, "type": "electric_scooter", "bike_id": "1d6ffdd2219d4fd8f0f4c60924b93e56"}, {"lon": -77.04638216666666, "lat": 38.89222383333333, "name": "353037dab8e518b81dcd500a50a5ac5b", "fusion_lat": 0.0, "fusion_lon": 0.0, "rental_uris": {"android": "https://dc.lft.to/lastmile_qr_scan", "ios": "https://dc.lft.to/lastmile_qr_scan"}, "is_reserved": 0, "is_disabled": 0, "type": "electric_scooter", "bike_id": "353037dab8e518b81dcd500a50a5ac5b"}, {"lon": -76.99499333333333, "lat": 38.86247083333333, "name": "9189828f39aa1babfb13e4606bc2ab70", "fusion_lat": 0.0, "fusion_lon": 0.0, "rental_uris": {"android": "https://dc.lft.to/lastmile_qr_scan", "ios": "https://dc.lft.to/lastmile_qr_scan"}, "is_reserved": 0, "is_disabled": 0, "type": "electric_scooter", "bike_id": "9189828f39aa1babfb13e4606bc2ab70"}, {"lon": -77.06287483333334, "lat": 38.90457766666667, "name": "e3959374bf922c8c094c3fab2dc69ddd", "fusion_lat": 0.0, "fusion_lon": 0.0, "rental_uris": {"android": "https://dc.lft.to/lastmile_qr_scan", "ios": "https://dc.lft.to/lastmile_qr_scan"}, "is_reserved": 0, "is_disabled": 0, "type": "electric_scooter", "bike_id": "e3959374bf922c8c094c3fab2dc69ddd"}, {"lon": -76.95513316666667, "lat": 38.890572166666665, "name": "380cf3deee7a2fc84802793da38c7636", "fusion_lat": 0.0, "fusion_lon": 0.0, "rental_uris": {"android": "https://dc.lft.to/lastmile_qr_scan", "ios": "https://dc.lft.to/lastmile_qr_scan"}, "is_reserved": 0, "is_disabled": 0, "type": "electric_scooter", "bike_id": "380cf3deee7a2fc84802793da38c7636"}, {"lon": -77.00376866666667, "lat": 38.89933083333333, "name": "439754b6c812df468ffbf51e2ab16c84", "fusion_lat": 0.0, "fusion_lon": 0.0, "rental_uris": {"android": "https://dc.lft.to/lastmile_qr_scan", "ios": "https://dc.lft.to/lastmile_qr_scan"}, "is_reserved": 0, "is_disabled": 0, "type": "electric_scooter", "bike_id": "439754b6c812df468ffbf51e2ab16c84"}, {"lon": -77.008628, "lat": 38.82728933333333, "name": "7bfe9e735c099cacefc3652f15eebb1a", "fusion_lat": 0.0, "fusion_lon": 0.0, "rental_uris": {"android": "https://dc.lft.to/lastmile_qr_scan", "ios": "https://dc.lft.to/lastmile_qr_scan"}, "is_reserved": 0, "is_disabled": 0, "type": "electric_bike", "bike_id": "7bfe9e735c099cacefc3652f15eebb1a"}, {"lon": -77.02425333333333, "lat": 38.92056266666667, "name": "e8fc63ca8c4e2c182970f1e0bc9ffb9d", "fusion_lat": 0.0, "fusion_lon": 0.0, "rental_uris": {"android": "https://dc.lft.to/lastmile_qr_scan", "ios": "https://dc.lft.to/lastmile_qr_scan"}, "is_reserved": 0, "is_disabled": 0, "type": "electric_scooter", "bike_id": "e8fc63ca8c4e2c182970f1e0bc9ffb9d"}, {"lon": -77.02478716666667, "lat": 38.9387755, "name": "46f9542924e44c7935a9a544ed7f59a7", "fusion_lat": 0.0, "fusion_lon": 0.0, "rental_uris": {"android": "https://dc.lft.to/lastmile_qr_scan", "ios": "https://dc.lft.to/lastmile_qr_scan"}, "is_reserved": 0, "is_disabled": 0, "type": "electric_scooter", "bike_id": "46f9542924e44c7935a9a544ed7f59a7"}, {"lon": -77.0444675, "lat": 38.90045533333333, "name": "7843363f0c34594e6d5b17fc67edd421", "fusion_lat": 0.0, "fusion_lon": 0.0, "rental_uris": {"android": "https://dc.lft.to/lastmile_qr_scan", "ios": "https://dc.lft.to/lastmile_qr_scan"}, "is_reserved": 0, "is_disabled": 0, "type": "electric_scooter", "bike_id": "7843363f0c34594e6d5b17fc67edd421"}, {"lon": -77.04870483333333, "lat": 38.900139, "name": "414f863c601a27d8f2820ec712e5c050", "fusion_lat": 0.0, "fusion_lon": 0.0, "rental_uris": {"android": "https://dc.lft.to/lastmile_qr_scan", "ios": "https://dc.lft.to/lastmile_qr_scan"}, "is_reserved": 0, "is_disabled": 0, "type": "electric_scooter", "bike_id": "414f863c601a27d8f2820ec712e5c050"}, {"lon": -77.07265233333334, "lat": 38.934842833333335, "name": "f1e9d074e47b50d6d4ff48fc70083e0b", "fusion_lat": 0.0, "fusion_lon": 0.0, "rental_uris": {"android": "https://dc.lft.to/lastmile_qr_scan", "ios": "https://dc.lft.to/lastmile_qr_scan"}, "is_reserved": 0, "is_disabled": 0, "type": "electric_scooter", "bike_id": "f1e9d074e47b50d6d4ff48fc70083e0b"}, {"lon": -77.05316766666667, "lat": 38.902696166666665, "name": "492aadea55aaa5b1cfef84a663ae4759", "fusion_lat": 0.0, "fusion_lon": 0.0, "rental_uris": {"android": "https://dc.lft.to/lastmile_qr_scan", "ios": "https://dc.lft.to/lastmile_qr_scan"}, "is_reserved": 0, "is_disabled": 0, "type": "electric_scooter", "bike_id": "492aadea55aaa5b1cfef84a663ae4759"}, {"lon": -77.061714, "lat": 38.94308616666667, "name": "6272dc9d0c9b7a58ee8b1d0816066000", "fusion_lat": 0.0, "fusion_lon": 0.0, "rental_uris": {"android": "https://dc.lft.to/lastmile_qr_scan", "ios": "https://dc.lft.to/lastmile_qr_scan"}, "is_reserved": 0, "is_disabled": 0, "type": "electric_scooter", "bike_id": "6272dc9d0c9b7a58ee8b1d0816066000"}, {"lon": -76.98565316666667, "lat": 38.855859333333335, "name": "11b360430714548b879c0c58abb09c88", "fusion_lat": 0.0, "fusion_lon": 0.0, "rental_uris": {"android": "https://dc.lft.to/lastmile_qr_scan", "ios": "https://dc.lft.to/lastmile_qr_scan"}, "is_reserved": 0, "is_disabled": 0, "type": "electric_scooter", "bike_id": "11b360430714548b879c0c58abb09c88"}, {"lon": -77.0320535, "lat": 38.91715666666666, "name": "731ad22ce4d78acdd4f3800dfa79d510", "fusion_lat": 0.0, "fusion_lon": 0.0, "rental_uris": {"android": "https://dc.lft.to/lastmile_qr_scan", "ios": "https://dc.lft.to/lastmile_qr_scan"}, "is_reserved": 0, "is_disabled": 0, "type": "electric_scooter", "bike_id": "731ad22ce4d78acdd4f3800dfa79d510"}, {"lon": -77.0261385, "lat": 38.90042233333333, "name": "d43d3c6356bb4d06299ef13c56ee1a66", "fusion_lat": 0.0, "fusion_lon": 0.0, "rental_uris": {"android": "https://dc.lft.to/lastmile_qr_scan", "ios": "https://dc.lft.to/lastmile_qr_scan"}, "is_reserved": 0, "is_disabled": 0, "type": "electric_scooter", "bike_id": "d43d3c6356bb4d06299ef13c56ee1a66"}, {"lon": -77.034543, "lat": 38.90873716666667, "name": "35c3ece235fa48699a74a457b5ba54f2", "fusion_lat": 0.0, "fusion_lon": 0.0, "rental_uris": {"android": "https://dc.lft.to/lastmile_qr_scan", "ios": "https://dc.lft.to/lastmile_qr_scan"}, "is_reserved": 0, "is_disabled": 0, "type": "electric_scooter", "bike_id": "35c3ece235fa48699a74a457b5ba54f2"}, {"lon": -77.04416783333333, "lat": 38.91133116666666, "name": "f0ffe79f28d01eb5ee6c362befdf9fb8", "fusion_lat": 0.0, "fusion_lon": 0.0, "rental_uris": {"android": "https://dc.lft.to/lastmile_qr_scan", "ios": "https://dc.lft.to/lastmile_qr_scan"}, "is_reserved": 0, "is_disabled": 0, "type": "electric_scooter", "bike_id": "f0ffe79f28d01eb5ee6c362befdf9fb8"}, {"lon": -77.02837983333333, "lat": 38.892495333333336, "name": "9a649a489b4c569c0bcc7abc393f7100", "fusion_lat": 0.0, "fusion_lon": 0.0, "rental_uris": {"android": "https://dc.lft.to/lastmile_qr_scan", "ios": "https://dc.lft.to/lastmile_qr_scan"}, "is_reserved": 0, "is_disabled": 0, "type": "electric_scooter", "bike_id": "9a649a489b4c569c0bcc7abc393f7100"}, {"lon": -77.02818366666666, "lat": 38.89525533333333, "name": "3d73e174b445545c7ec9ac380058aefc", "fusion_lat": 0.0, "fusion_lon": 0.0, "rental_uris": {"android": "https://dc.lft.to/lastmile_qr_scan", "ios": "https://dc.lft.to/lastmile_qr_scan"}, "is_reserved": 0, "is_disabled": 0, "type": "electric_scooter", "bike_id": "3d73e174b445545c7ec9ac380058aefc"}, {"lon": -77.02057316666667, "lat": 38.920236833333334, "name": "a9e529fdfcf64ceb207766353f96f655", "fusion_lat": 0.0, "fusion_lon": 0.0, "rental_uris": {"android": "https://dc.lft.to/lastmile_qr_scan", "ios": "https://dc.lft.to/lastmile_qr_scan"}, "is_reserved": 0, "is_disabled": 0, "type": "electric_scooter", "bike_id": "a9e529fdfcf64ceb207766353f96f655"}, {"lon": -77.03381566666667, "lat": 38.921715, "name": "64608d11de1469c34012d83275e884bb", "fusion_lat": 0.0, "fusion_lon": 0.0, "rental_uris": {"android": "https://dc.lft.to/lastmile_qr_scan", "ios": "https://dc.lft.to/lastmile_qr_scan"}, "is_reserved": 0, "is_disabled": 0, "type": "electric_scooter", "bike_id": "64608d11de1469c34012d83275e884bb"}, {"lon": -77.00208666666667, "lat": 38.90516866666667, "name": "37c1990c19b4b67b316104adfdbdbd53", "fusion_lat": 0.0, "fusion_lon": 0.0, "rental_uris": {"android": "https://dc.lft.to/lastmile_qr_scan", "ios": "https://dc.lft.to/lastmile_qr_scan"}, "is_reserved": 0, "is_disabled": 0, "type": "electric_scooter", "bike_id": "37c1990c19b4b67b316104adfdbdbd53"}, {"lon": -77.06473916666667, "lat": 38.973872, "name": "eeaf4e863a48c117ca8b883d666fbde8", "fusion_lat": 0.0, "fusion_lon": 0.0, "rental_uris": {"android": "https://dc.lft.to/lastmile_qr_scan", "ios": "https://dc.lft.to/lastmile_qr_scan"}, "is_reserved": 0, "is_disabled": 0, "type": "electric_bike", "bike_id": "eeaf4e863a48c117ca8b883d666fbde8"}, {"lon": -77.0150775, "lat": 38.913427666666664, "name": "21e0579b4a6bce3edab4dbe2194dd8fe", "fusion_lat": 0.0, "fusion_lon": 0.0, "rental_uris": {"android": "https://dc.lft.to/lastmile_qr_scan", "ios": "https://dc.lft.to/lastmile_qr_scan"}, "is_reserved": 0, "is_disabled": 0, "type": "electric_scooter", "bike_id": "21e0579b4a6bce3edab4dbe2194dd8fe"}, {"lon": -77.04196783333333, "lat": 38.9341845, "name": "fe8138780448bc336538fc7e3f02a80d", "fusion_lat": 0.0, "fusion_lon": 0.0, "rental_uris": {"android": "https://dc.lft.to/lastmile_qr_scan", "ios": "https://dc.lft.to/lastmile_qr_scan"}, "is_reserved": 0, "is_disabled": 0, "type": "electric_bike", "bike_id": "fe8138780448bc336538fc7e3f02a80d"}, {"lon": -76.99169733333333, "lat": 38.87923883333333, "name": "1497b5c4aff2d7e6edd44f29d593785e", "fusion_lat": 0.0, "fusion_lon": 0.0, "rental_uris": {"android": "https://dc.lft.to/lastmile_qr_scan", "ios": "https://dc.lft.to/lastmile_qr_scan"}, "is_reserved": 0, "is_disabled": 0, "type": "electric_scooter", "bike_id": "1497b5c4aff2d7e6edd44f29d593785e"}, {"lon": -76.9987105, "lat": 38.907566333333335, "name": "59bb720a4cfeafdd03d74eb070b823aa", "fusion_lat": 0.0, "fusion_lon": 0.0, "rental_uris": {"android": "https://dc.lft.to/lastmile_qr_scan", "ios": "https://dc.lft.to/lastmile_qr_scan"}, "is_reserved": 0, "is_disabled": 0, "type": "electric_scooter", "bike_id": "59bb720a4cfeafdd03d74eb070b823aa"}, {"lon": -77.03856616666667, "lat": 38.912552, "name": "bf191ff72b5af38ae9064bb407f5b477", "fusion_lat": 0.0, "fusion_lon": 0.0, "rental_uris": {"android": "https://dc.lft.to/lastmile_qr_scan", "ios": "https://dc.lft.to/lastmile_qr_scan"}, "is_reserved": 0, "is_disabled": 0, "type": "electric_scooter", "bike_id": "bf191ff72b5af38ae9064bb407f5b477"}, {"lon": -77.005029, "lat": 38.875355666666664, "name": "312a5a67b7d98117085883d9ddff80da", "fusion_lat": 0.0, "fusion_lon": 0.0, "rental_uris": {"android": "https://dc.lft.to/lastmile_qr_scan", "ios": "https://dc.lft.to/lastmile_qr_scan"}, "is_reserved": 0, "is_disabled": 0, "type": "electric_scooter", "bike_id": "312a5a67b7d98117085883d9ddff80da"}, {"lon": -77.04186566666667, "lat": 38.920212166666666, "name": "cc0593d2d3a730bc9b02810f5fd7b6b8", "fusion_lat": 0.0, "fusion_lon": 0.0, "rental_uris": {"android": "https://dc.lft.to/lastmile_qr_scan", "ios": "https://dc.lft.to/lastmile_qr_scan"}, "is_reserved": 0, "is_disabled": 0, "type": "electric_scooter", "bike_id": "cc0593d2d3a730bc9b02810f5fd7b6b8"}, {"lon": -77.01820883333333, "lat": 38.90254983333333, "name": "8515796a363578145b4c6a771e722f43", "fusion_lat": 0.0, "fusion_lon": 0.0, "rental_uris": {"android": "https://dc.lft.to/lastmile_qr_scan", "ios": "https://dc.lft.to/lastmile_qr_scan"}, "is_reserved": 0, "is_disabled": 0, "type": "electric_scooter", "bike_id": "8515796a363578145b4c6a771e722f43"}, {"lon": -77.03164066666666, "lat": 38.91416816666667, "name": "dfc4301a47228146ee8ec5fac372984c", "fusion_lat": 0.0, "fusion_lon": 0.0, "rental_uris": {"android": "https://dc.lft.to/lastmile_qr_scan", "ios": "https://dc.lft.to/lastmile_qr_scan"}, "is_reserved": 0, "is_disabled": 0, "type": "electric_scooter", "bike_id": "dfc4301a47228146ee8ec5fac372984c"}, {"lon": -77.04280683333333, "lat": 38.907361333333334, "name": "04238c2b6d005513a792dab6befef7e8", "fusion_lat": 0.0, "fusion_lon": 0.0, "rental_uris": {"android": "https://dc.lft.to/lastmile_qr_scan", "ios": "https://dc.lft.to/lastmile_qr_scan"}, "is_reserved": 0, "is_disabled": 0, "type": "electric_scooter", "bike_id": "04238c2b6d005513a792dab6befef7e8"}, {"lon": -77.00368533333334, "lat": 38.83607216666667, "name": "48c07f0952d2cb9d035aa735d0f97308", "fusion_lat": 0.0, "fusion_lon": 0.0, "rental_uris": {"android": "https://dc.lft.to/lastmile_qr_scan", "ios": "https://dc.lft.to/lastmile_qr_scan"}, "is_reserved": 0, "is_disabled": 0, "type": "electric_bike", "bike_id": "48c07f0952d2cb9d035aa735d0f97308"}, {"lon": -77.03634883333334, "lat": 38.912697, "name": "0871da432b5ed294a64a83e0218758a4", "fusion_lat": 0.0, "fusion_lon": 0.0, "rental_uris": {"android": "https://dc.lft.to/lastmile_qr_scan", "ios": "https://dc.lft.to/lastmile_qr_scan"}, "is_reserved": 0, "is_disabled": 0, "type": "electric_scooter", "bike_id": "0871da432b5ed294a64a83e0218758a4"}, {"lon": -77.0350905, "lat": 38.97588283333333, "name": "6ac1d8c72e2de395331d805c6298ecee", "fusion_lat": 0.0, "fusion_lon": 0.0, "rental_uris": {"android": "https://dc.lft.to/lastmile_qr_scan", "ios": "https://dc.lft.to/lastmile_qr_scan"}, "is_reserved": 0, "is_disabled": 0, "type": "electric_bike", "bike_id": "6ac1d8c72e2de395331d805c6298ecee"}, {"lon": -77.03286583333333, "lat": 38.95654483333333, "name": "3593fd69bdabdf04246d83c22b1bb607", "fusion_lat": 0.0, "fusion_lon": 0.0, "rental_uris": {"android": "https://dc.lft.to/lastmile_qr_scan", "ios": "https://dc.lft.to/lastmile_qr_scan"}, "is_reserved": 0, "is_disabled": 0, "type": "electric_scooter", "bike_id": "3593fd69bdabdf04246d83c22b1bb607"}, {"lon": -76.9494015, "lat": 38.8832565, "name": "a7b76b654e7c7b24bf6da56549286a35", "fusion_lat": 0.0, "fusion_lon": 0.0, "rental_uris": {"android": "https://dc.lft.to/lastmile_qr_scan", "ios": "https://dc.lft.to/lastmile_qr_scan"}, "is_reserved": 0, "is_disabled": 0, "type": "electric_scooter", "bike_id": "a7b76b654e7c7b24bf6da56549286a35"}, {"lon": -77.0954905, "lat": 38.83733133333333, "name": "0506272fbfd99c0f9e74fa4b5316c00a", "fusion_lat": 0.0, "fusion_lon": 0.0, "rental_uris": {"android": "https://dc.lft.to/lastmile_qr_scan", "ios": "https://dc.lft.to/lastmile_qr_scan"}, "is_reserved": 0, "is_disabled": 0, "type": "electric_bike", "bike_id": "0506272fbfd99c0f9e74fa4b5316c00a"}, {"lon": -77.011627, "lat": 38.8934415, "name": "240de2268255deb695b1a452c25ebae1", "fusion_lat": 0.0, "fusion_lon": 0.0, "rental_uris": {"android": "https://dc.lft.to/lastmile_qr_scan", "ios": "https://dc.lft.to/lastmile_qr_scan"}, "is_reserved": 0, "is_disabled": 0, "type": "electric_scooter", "bike_id": "240de2268255deb695b1a452c25ebae1"}, {"lon": -77.01269883333333, "lat": 38.974016, "name": "ee337cc21ac46497a74923eb4f7bd631", "fusion_lat": 0.0, "fusion_lon": 0.0, "rental_uris": {"android": "https://dc.lft.to/lastmile_qr_scan", "ios": "https://dc.lft.to/lastmile_qr_scan"}, "is_reserved": 0, "is_disabled": 0, "type": "electric_bike", "bike_id": "ee337cc21ac46497a74923eb4f7bd631"}, {"lon": -76.99781983333334, "lat": 38.84424833333333, "name": "c4754926d38f596c8f0f589e9e560429", "fusion_lat": 0.0, "fusion_lon": 0.0, "rental_uris": {"android": "https://dc.lft.to/lastmile_qr_scan", "ios": "https://dc.lft.to/lastmile_qr_scan"}, "is_reserved": 0, "is_disabled": 0, "type": "electric_scooter", "bike_id": "c4754926d38f596c8f0f589e9e560429"}, {"lon": -77.055754, "lat": 38.89969683333333, "name": "b9aa2ff494a6a4fd6e8e41c642589445", "fusion_lat": 0.0, "fusion_lon": 0.0, "rental_uris": {"android": "https://dc.lft.to/lastmile_qr_scan", "ios": "https://dc.lft.to/lastmile_qr_scan"}, "is_reserved": 0, "is_disabled": 0, "type": "electric_scooter", "bike_id": "b9aa2ff494a6a4fd6e8e41c642589445"}, {"lon": -76.98727483333333, "lat": 38.867183833333335, "name": "9850b455387b5096ef06683271080001", "fusion_lat": 0.0, "fusion_lon": 0.0, "rental_uris": {"android": "https://dc.lft.to/lastmile_qr_scan", "ios": "https://dc.lft.to/lastmile_qr_scan"}, "is_reserved": 0, "is_disabled": 0, "type": "electric_scooter", "bike_id": "9850b455387b5096ef06683271080001"}, {"lon": -77.02435233333334, "lat": 38.91933266666667, "name": "e8f816ae9b575ac2f97f0b3804c46bd5", "fusion_lat": 0.0, "fusion_lon": 0.0, "rental_uris": {"android": "https://dc.lft.to/lastmile_qr_scan", "ios": "https://dc.lft.to/lastmile_qr_scan"}, "is_reserved": 0, "is_disabled": 0, "type": "electric_scooter", "bike_id": "e8f816ae9b575ac2f97f0b3804c46bd5"}, {"lon": -77.03968683333333, "lat": 38.90115433333333, "name": "202d3cef97d89ef71fb9cf5cd66041a5", "fusion_lat": 0.0, "fusion_lon": 0.0, "rental_uris": {"android": "https://dc.lft.to/lastmile_qr_scan", "ios": "https://dc.lft.to/lastmile_qr_scan"}, "is_reserved": 0, "is_disabled": 0, "type": "electric_scooter", "bike_id": "202d3cef97d89ef71fb9cf5cd66041a5"}, {"lon": -77.032527, "lat": 38.90859666666667, "name": "5a959fa92df6389df4fb4b3b00138583", "fusion_lat": 0.0, "fusion_lon": 0.0, "rental_uris": {"android": "https://dc.lft.to/lastmile_qr_scan", "ios": "https://dc.lft.to/lastmile_qr_scan"}, "is_reserved": 0, "is_disabled": 0, "type": "electric_scooter", "bike_id": "5a959fa92df6389df4fb4b3b00138583"}, {"lon": -77.03921866666667, "lat": 38.90129666666667, "name": "1dff50c06f141ca41b1414b411bfb39b", "fusion_lat": 0.0, "fusion_lon": 0.0, "rental_uris": {"android": "https://dc.lft.to/lastmile_qr_scan", "ios": "https://dc.lft.to/lastmile_qr_scan"}, "is_reserved": 0, "is_disabled": 0, "type": "electric_scooter", "bike_id": "1dff50c06f141ca41b1414b411bfb39b"}, {"lon": -77.01134566666667, "lat": 38.907295500000004, "name": "6164de4795823d780c0c24105c412d39", "fusion_lat": 0.0, "fusion_lon": 0.0, "rental_uris": {"android": "https://dc.lft.to/lastmile_qr_scan", "ios": "https://dc.lft.to/lastmile_qr_scan"}, "is_reserved": 0, "is_disabled": 0, "type": "electric_scooter", "bike_id": "6164de4795823d780c0c24105c412d39"}, {"lon": -77.04863216666666, "lat": 38.8922765, "name": "e3e4264c4a63cdbc3b5e55120ef11c7c", "fusion_lat": 0.0, "fusion_lon": 0.0, "rental_uris": {"android": "https://dc.lft.to/lastmile_qr_scan", "ios": "https://dc.lft.to/lastmile_qr_scan"}, "is_reserved": 0, "is_disabled": 0, "type": "electric_scooter", "bike_id": "e3e4264c4a63cdbc3b5e55120ef11c7c"}, {"lon": -76.99931, "lat": 38.89623733333333, "name": "95e847748dadc6a4099fa4a2d0642f71", "fusion_lat": 0.0, "fusion_lon": 0.0, "rental_uris": {"android": "https://dc.lft.to/lastmile_qr_scan", "ios": "https://dc.lft.to/lastmile_qr_scan"}, "is_reserved": 0, "is_disabled": 0, "type": "electric_scooter", "bike_id": "95e847748dadc6a4099fa4a2d0642f71"}, {"lon": -77.02893233333333, "lat": 38.95839083333333, "name": "6524afd22cf073ac95862321a2a05d84", "fusion_lat": 0.0, "fusion_lon": 0.0, "rental_uris": {"android": "https://dc.lft.to/lastmile_qr_scan", "ios": "https://dc.lft.to/lastmile_qr_scan"}, "is_reserved": 0, "is_disabled": 0, "type": "electric_scooter", "bike_id": "6524afd22cf073ac95862321a2a05d84"}, {"lon": -77.03604333333334, "lat": 38.95618616666667, "name": "83dd5170a935c64e6bc8ab458ea78f5a", "fusion_lat": 0.0, "fusion_lon": 0.0, "rental_uris": {"android": "https://dc.lft.to/lastmile_qr_scan", "ios": "https://dc.lft.to/lastmile_qr_scan"}, "is_reserved": 0, "is_disabled": 0, "type": "electric_scooter", "bike_id": "83dd5170a935c64e6bc8ab458ea78f5a"}, {"lon": -77.02794, "lat": 38.93086016666667, "name": "1ecc33689562504adaa37c3cb05dfb81", "fusion_lat": 0.0, "fusion_lon": 0.0, "rental_uris": {"android": "https://dc.lft.to/lastmile_qr_scan", "ios": "https://dc.lft.to/lastmile_qr_scan"}, "is_reserved": 0, "is_disabled": 0, "type": "electric_scooter", "bike_id": "1ecc33689562504adaa37c3cb05dfb81"}, {"lon": -77.00589916666667, "lat": 38.91567383333334, "name": "4d0ed86688252b8e58ebc80e5f2ef8c9", "fusion_lat": 0.0, "fusion_lon": 0.0, "rental_uris": {"android": "https://dc.lft.to/lastmile_qr_scan", "ios": "https://dc.lft.to/lastmile_qr_scan"}, "is_reserved": 0, "is_disabled": 0, "type": "electric_scooter", "bike_id": "4d0ed86688252b8e58ebc80e5f2ef8c9"}, {"lon": -77.04329566666667, "lat": 38.92222266666667, "name": "3fc1538db7ca9526e608371221c0f880", "fusion_lat": 0.0, "fusion_lon": 0.0, "rental_uris": {"android": "https://dc.lft.to/lastmile_qr_scan", "ios": "https://dc.lft.to/lastmile_qr_scan"}, "is_reserved": 0, "is_disabled": 0, "type": "electric_scooter", "bike_id": "3fc1538db7ca9526e608371221c0f880"}, {"lon": -77.023414, "lat": 38.96214466666667, "name": "300e3ee914fb5a76491a486983253cf4", "fusion_lat": 0.0, "fusion_lon": 0.0, "rental_uris": {"android": "https://dc.lft.to/lastmile_qr_scan", "ios": "https://dc.lft.to/lastmile_qr_scan"}, "is_reserved": 0, "is_disabled": 0, "type": "electric_scooter", "bike_id": "300e3ee914fb5a76491a486983253cf4"}, {"lon": -77.04225816666667, "lat": 38.907504, "name": "9d731169a995692f07e7b0dfb75c7b4d", "fusion_lat": 0.0, "fusion_lon": 0.0, "rental_uris": {"android": "https://dc.lft.to/lastmile_qr_scan", "ios": "https://dc.lft.to/lastmile_qr_scan"}, "is_reserved": 0, "is_disabled": 0, "type": "electric_scooter", "bike_id": "9d731169a995692f07e7b0dfb75c7b4d"}, {"lon": -77.04326766666667, "lat": 38.903749833333336, "name": "92540e6865e2e63145a629548b9180f5", "fusion_lat": 0.0, "fusion_lon": 0.0, "rental_uris": {"android": "https://dc.lft.to/lastmile_qr_scan", "ios": "https://dc.lft.to/lastmile_qr_scan"}, "is_reserved": 0, "is_disabled": 0, "type": "electric_scooter", "bike_id": "92540e6865e2e63145a629548b9180f5"}, {"lon": -77.1250515, "lat": 39.024202333333335, "name": "a618dbbe0b350d5c7154bf1a6b157182", "fusion_lat": 0.0, "fusion_lon": 0.0, "rental_uris": {"android": "https://dc.lft.to/lastmile_qr_scan", "ios": "https://dc.lft.to/lastmile_qr_scan"}, "is_reserved": 0, "is_disabled": 0, "type": "electric_bike", "bike_id": "a618dbbe0b350d5c7154bf1a6b157182"}, {"lon": -77.00916066666667, "lat": 38.8793975, "name": "50077b2645d566fe25a236fa527c7e68", "fusion_lat": 0.0, "fusion_lon": 0.0, "rental_uris": {"android": "https://dc.lft.to/lastmile_qr_scan", "ios": "https://dc.lft.to/lastmile_qr_scan"}, "is_reserved": 0, "is_disabled": 0, "type": "electric_scooter", "bike_id": "50077b2645d566fe25a236fa527c7e68"}, {"lon": -77.04389816666666, "lat": 38.92938683333333, "name": "fdb19b0a57348356856a20ab6afa066c", "fusion_lat": 0.0, "fusion_lon": 0.0, "rental_uris": {"android": "https://dc.lft.to/lastmile_qr_scan", "ios": "https://dc.lft.to/lastmile_qr_scan"}, "is_reserved": 0, "is_disabled": 0, "type": "electric_scooter", "bike_id": "fdb19b0a57348356856a20ab6afa066c"}, {"lon": -77.04294966666667, "lat": 38.9162565, "name": "f3ab2adc2ddcc30cbf365926c3ffb642", "fusion_lat": 0.0, "fusion_lon": 0.0, "rental_uris": {"android": "https://dc.lft.to/lastmile_qr_scan", "ios": "https://dc.lft.to/lastmile_qr_scan"}, "is_reserved": 0, "is_disabled": 0, "type": "electric_scooter", "bike_id": "f3ab2adc2ddcc30cbf365926c3ffb642"}, {"lon": -77.01304816666666, "lat": 38.9073905, "name": "adab3860edfd3ae31fffd3b7bde9057b", "fusion_lat": 0.0, "fusion_lon": 0.0, "rental_uris": {"android": "https://dc.lft.to/lastmile_qr_scan", "ios": "https://dc.lft.to/lastmile_qr_scan"}, "is_reserved": 0, "is_disabled": 0, "type": "electric_scooter", "bike_id": "adab3860edfd3ae31fffd3b7bde9057b"}, {"lon": -77.22570916666666, "lat": 38.92987633333333, "name": "a3f0913a902fd701c2ddd833c722c472", "fusion_lat": 0.0, "fusion_lon": 0.0, "rental_uris": {"android": "https://dc.lft.to/lastmile_qr_scan", "ios": "https://dc.lft.to/lastmile_qr_scan"}, "is_reserved": 0, "is_disabled": 0, "type": "electric_bike", "bike_id": "a3f0913a902fd701c2ddd833c722c472"}, {"lon": -77.0364855, "lat": 38.936274, "name": "0939392d9523d98ad29daa9590247e35", "fusion_lat": 0.0, "fusion_lon": 0.0, "rental_uris": {"android": "https://dc.lft.to/lastmile_qr_scan", "ios": "https://dc.lft.to/lastmile_qr_scan"}, "is_reserved": 0, "is_disabled": 0, "type": "electric_scooter", "bike_id": "0939392d9523d98ad29daa9590247e35"}, {"lon": -77.02482883333333, "lat": 38.905638333333336, "name": "db69eec68ec26a76bec76873f1dfc1da", "fusion_lat": 0.0, "fusion_lon": 0.0, "rental_uris": {"android": "https://dc.lft.to/lastmile_qr_scan", "ios": "https://dc.lft.to/lastmile_qr_scan"}, "is_reserved": 0, "is_disabled": 0, "type": "electric_scooter", "bike_id": "db69eec68ec26a76bec76873f1dfc1da"}, {"lon": -77.08210633333333, "lat": 38.93557966666667, "name": "22deca628b66a624631a52fbfa96c704", "fusion_lat": 0.0, "fusion_lon": 0.0, "rental_uris": {"android": "https://dc.lft.to/lastmile_qr_scan", "ios": "https://dc.lft.to/lastmile_qr_scan"}, "is_reserved": 0, "is_disabled": 0, "type": "electric_scooter", "bike_id": "22deca628b66a624631a52fbfa96c704"}, {"lon": -77.04400883333334, "lat": 38.92240416666667, "name": "922871713bbdf7f9db3581bd94a430df", "fusion_lat": 0.0, "fusion_lon": 0.0, "rental_uris": {"android": "https://dc.lft.to/lastmile_qr_scan", "ios": "https://dc.lft.to/lastmile_qr_scan"}, "is_reserved": 0, "is_disabled": 0, "type": "electric_scooter", "bike_id": "922871713bbdf7f9db3581bd94a430df"}, {"lon": -77.04305216666667, "lat": 39.05450533333333, "name": "49922e9ab07b7b48547464fce0a78dbc", "fusion_lat": 0.0, "fusion_lon": 0.0, "rental_uris": {"android": "https://dc.lft.to/lastmile_qr_scan", "ios": "https://dc.lft.to/lastmile_qr_scan"}, "is_reserved": 0, "is_disabled": 0, "type": "electric_bike", "bike_id": "49922e9ab07b7b48547464fce0a78dbc"}, {"lon": -77.17841116666666, "lat": 39.08858133333333, "name": "12991cad1b58cd6c549629fe7e5110ea", "fusion_lat": 0.0, "fusion_lon": 0.0, "rental_uris": {"android": "https://dc.lft.to/lastmile_qr_scan", "ios": "https://dc.lft.to/lastmile_qr_scan"}, "is_reserved": 0, "is_disabled": 0, "type": "electric_bike", "bike_id": "12991cad1b58cd6c549629fe7e5110ea"}, {"lon": -76.9889675, "lat": 38.866978833333334, "name": "3bf89952dc187eb5af49cec811eb7260", "fusion_lat": 0.0, "fusion_lon": 0.0, "rental_uris": {"android": "https://dc.lft.to/lastmile_qr_scan", "ios": "https://dc.lft.to/lastmile_qr_scan"}, "is_reserved": 0, "is_disabled": 0, "type": "electric_scooter", "bike_id": "3bf89952dc187eb5af49cec811eb7260"},