{"data": {"bikes": [{"is_reserved": 0, "type": "electric_scooter", "bike_id": "5d45b187e408372bc39f9191a0b240cf", "lat": 38.930944333333336, "lon": -77.0343985, "rental_uris": {"android": "https://dc.lft.to/lastmile_qr_scan", "ios": "https://dc.lft.to/lastmile_qr_scan"}, "is_disabled": 0, "fusion_lat": 0.0, "name": "5d45b187e408372bc39f9191a0b240cf", "fusion_lon": 0.0}, {"is_reserved": 0, "type": "electric_bike", "bike_id": "af0dfcc0a88dcabc2c2fe23b3726ff23", "lat": 38.951291166666664, "lon": -76.96595316666667, "rental_uris": {"android": "https://dc.lft.to/lastmile_qr_scan", "ios": "https://dc.lft.to/lastmile_qr_scan"}, "is_disabled": 0, "fusion_lat": 0.0, "name": "af0dfcc0a88dcabc2c2fe23b3726ff23", "fusion_lon": 0.0}, {"is_reserved": 0, "type": "electric_scooter", "bike_id": "ce8ad6f4ffe0c47bdcb580ed30149e82", "lat": 38.89359733333333, "lon": -76.941074, "rental_uris": {"android": "https://dc.lft.to/lastmile_qr_scan", "ios": "https://dc.lft.to/lastmile_qr_scan"}, "is_disabled": 0, "fusion_lat": 0.0, "name": "ce8ad6f4ffe0c47bdcb580ed30149e82", "fusion_lon": 0.0}, {"is_reserved": 0, "type": "electric_scooter", "bike_id": "63e3c74f872230f568ed9f3301735c29", "lat": 38.8993865, "lon": -77.0317795, "rental_uris": {"android": "https://dc.lft.to/lastmile_qr_scan", "ios": "https://dc.lft.to/lastmile_qr_scan"}, "is_disabled": 0, "fusion_lat": 0.0, "name": "63e3c74f872230f568ed9f3301735c29", "fusion_lon": 0.0}, {"is_reserved": 0, "type": "electric_scooter", "bike_id": "7984042cc917d25377efb31836ccf3b8", "lat": 38.92264316666667, "lon": -76.9976385, "rental_uris": {"android": "https://dc.lft.to/lastmile_qr_scan", "ios": "https://dc.lft.to/lastmile_qr_scan"}, "is_disabled": 0, "fusion_lat": 0.0, "name": "7984042cc917d25377efb31836ccf3b8", "fusion_lon": 0.0}, {"is_reserved": 0, "type": "electric_scooter", "bike_id": "36a40cac09b5708e506a8b6ce5560beb", "lat": 38.92968283333333, "lon": -77.02344083333334, "rental_uris": {"android": "https://dc.lft.to/lastmile_qr_scan", "ios": "https://dc.lft.to/lastmile_qr_scan"}, "is_disabled": 0, "fusion_lat": 0.0, "name": "36a40cac09b5708e506a8b6ce5560beb", "fusion_lon": 0.0}, {"is_reserved": 0, "type": "electric_scooter", "bike_id": "3a7c89b1451519e5d1ed2ca9cd663179", "lat": 38.947293, "lon": -77.02460583333334, "rental_uris": {"android": "https://dc.lft.to/lastmile_qr_scan", "ios": "https://dc.lft.to/lastmile_qr_scan"}, "is_disabled": 0, "fusion_lat": 0.0, "name": "3a7c89b1451519e5d1ed2ca9cd663179", "fusion_lon": 0.0}, {"is_reserved": 0, "type": "electric_scooter", "bike_id": "dd91d414605256eefd000c704d6acc21", "lat": 38.93374033333333, "lon": -77.05727483333334, "rental_uris": {"android": "https://dc.lft.to/lastmile_qr_scan", "ios": "https://dc.lft.to/lastmile_qr_scan"}, "is_disabled": 0, "fusion_lat": 0.0, "name": "dd91d414605256eefd000c704d6acc21", "fusion_lon": 0.0}, {"is_reserved": 0, "type": "electric_scooter", "bike_id": "d69ec86ec674d66cd4b368334d4210c7", "lat": 38.922357833333336, "lon": -77.0212625, "rental_uris": {"android": "https://dc.lft.to/lastmile_qr_scan", "ios": "https://dc.lft.to/lastmile_qr_scan"}, "is_disabled": 0, "fusion_lat": 0.0, "name": "d69ec86ec674d66cd4b368334d4210c7", "fusion_lon": 0.0}, {"is_reserved": 0, "type": "electric_scooter", "bike_id": "a9525d7f582944a37a563ceb5c141b40", "lat": 38.89995783333333, "lon": -77.022929, "rental_uris": {"android": "https://dc.lft.to/lastmile_qr_scan", "ios": "https://dc.lft.to/lastmile_qr_scan"}, "is_disabled": 0, "fusion_lat": 0.0, "name": "a9525d7f582944a37a563ceb5c141b40", "fusion_lon": 0.0}, {"is_reserved": 0, "type": "electric_scooter", "bike_id": "153576c10d00327ecfe52df0e68234dd", "lat": 38.91177833333333, "lon": -77.00494966666666, "rental_uris": {"android": "https://dc.lft.to/lastmile_qr_scan", "ios": "https://dc.lft.to/lastmile_qr_scan"}, "is_disabled": 0, "fusion_lat": 0.0, "name": "153576c10d00327ecfe52df0e68234dd", "fusion_lon": 0.0}, {"is_reserved": 0, "type": "electric_scooter", "bike_id": "4efb53a2e7cc8a0c31c260317d35e84c", "lat": 38.92564683333333, "lon": -76.970068, "rental_uris": {"android": "https://dc.lft.to/lastmile_qr_scan", "ios": "https://dc.lft.to/lastmile_qr_scan"}, "is_disabled": 0, "fusion_lat": 0.0, "name": "4efb53a2e7cc8a0c31c260317d35e84c", "fusion_lon": 0.0}, {"is_reserved": 0, "type": "electric_scooter", "bike_id": "732c1a5764451cd7120d622bf205990b", "lat": 38.90035966666667, "lon": -76.9915645, "rental_uris": {"android": "https://dc.lft.to/lastmile_qr_scan", "ios": "https://dc.lft.to/lastmile_qr_scan"}, "is_disabled": 0, "fusion_lat": 0.0, "name": "732c1a5764451cd7120d622bf205990b", "fusion_lon": 0.0}, {"is_reserved": 0, "type": "electric_scooter", "bike_id": "fce01154711b6975560fb7b4dfac1144", "lat": 38.89219833333333, "lon": -77.02314066666666, "rental_uris": {"android": "https://dc.lft.to/lastmile_qr_scan", "ios": "https://dc.lft.to/lastmile_qr_scan"}, "is_disabled": 0, "fusion_lat": 0.0, "name": "fce01154711b6975560fb7b4dfac1144", "fusion_lon": 0.0}, {"is_reserved": 0, "type": "electric_bike", "bike_id": "ce17e2ee8bad3ecc417d5a1929978766", "lat": 38.94314116666666, "lon": -76.99013183333334, "rental_uris": {"android": "https://dc.lft.to/lastmile_qr_scan", "ios": "https://dc.lft.to/lastmile_qr_scan"}, "is_disabled": 0, "fusion_lat": 0.0, "name": "ce17e2ee8bad3ecc417d5a1929978766", "fusion_lon": 0.0}, {"is_reserved": 0, "type": "electric_scooter", "bike_id": "a0d85ca2f97ace3013c9097c6d88bb1f", "lat": 38.9180355, "lon": -77.0403175, "rental_uris": {"android": "https://dc.lft.to/lastmile_qr_scan", "ios": "https://dc.lft.to/lastmile_qr_scan"}, "is_disabled": 0, "fusion_lat": 0.0, "name": "a0d85ca2f97ace3013c9097c6d88bb1f", "fusion_lon": 0.0}, {"is_reserved": 0, "type": "electric_bike", "bike_id": "63e52d9a8a15321d3a89b23748b1fb7f", "lat": 38.87209266666667, "lon": -77.11737933333333, "rental_uris": {"android": "https://dc.lft.to/lastmile_qr_scan", "ios": "https://dc.lft.to/lastmile_qr_scan"}, "is_disabled": 0, "fusion_lat": 0.0, "name": "63e52d9a8a15321d3a89b23748b1fb7f", "fusion_lon": 0.0}, {"is_reserved": 0, "type": "electric_scooter", "bike_id": "15daafe4e5d63746364f9a3bb3e7b759", "lat": 38.8850235, "lon": -77.01769783333333, "rental_uris": {"android": "https://dc.lft.to/lastmile_qr_scan", "ios": "https://dc.lft.to/lastmile_qr_scan"}, "is_disabled": 0, "fusion_lat": 0.0, "name": "15daafe4e5d63746364f9a3bb3e7b759", "fusion_lon": 0.0}, {"is_reserved": 0, "type": "electric_bike", "bike_id": "23613c9626f2814d783c77eb901f8004", "lat": 38.857805666666664, "lon": -76.98762416666666, "rental_uris": {"android": "https://dc.lft.to/lastmile_qr_scan", "ios": "https://dc.lft.to/lastmile_qr_scan"}, "is_disabled": 0, "fusion_lat": 0.0, "name": "23613c9626f2814d783c77eb901f8004", "fusion_lon": 0.0}, {"is_reserved": 0, "type": "electric_bike", "bike_id": "ae103a92586b3f628a6cc3dccc42e1b4", "lat": 38.864583833333334, "lon": -76.97750266666667, "rental_uris": {"android": "https://dc.lft.to/lastmile_qr_scan", "ios": "https://dc.lft.to/lastmile_qr_scan"}, "is_disabled": 0, "fusion_lat": 0.0, "name": "ae103a92586b3f628a6cc3dccc42e1b4", "fusion_lon": 0.0}, {"is_reserved": 0, "type": "electric_scooter", "bike_id": "4c3e6d768b74fd1751a477dd5acb8728", "lat": 38.898553166666666, "lon": -76.97762516666667, "rental_uris": {"android": "https://dc.lft.to/lastmile_qr_scan", "ios": "https://dc.lft.to/lastmile_qr_scan"}, "is_disabled": 0, "fusion_lat": 0.0, "name": "4c3e6d768b74fd1751a477dd5acb8728", "fusion_lon": 0.0}, {"is_reserved": 0, "type": "electric_scooter", "bike_id": "f916fa4ce7dbeba6caf77accffecefd4", "lat": 38.905455333333336, "lon": -77.03513683333334, "rental_uris": {"android": "https://dc.lft.to/lastmile_qr_scan", "ios": "https://dc.lft.to/lastmile_qr_scan"}, "is_disabled": 0, "fusion_lat": 0.0, "name": "f916fa4ce7dbeba6caf77accffecefd4", "fusion_lon": 0.0}, {"is_reserved": 0, "type": "electric_scooter", "bike_id": "469aa42ff03215783c4048f90b60e9ad", "lat": 38.933967, "lon": -77.04124416666667, "rental_uris": {"android": "https://dc.lft.to/lastmile_qr_scan", "ios": "https://dc.lft.to/lastmile_qr_scan"}, "is_disabled": 0, "fusion_lat": 0.0, "name": "469aa42ff03215783c4048f90b60e9ad", "fusion_lon": 0.0}, {"is_reserved": 0, "type": "electric_scooter", "bike_id": "734c2500f819366b36762ec8eb3f6bb1", "lat": 38.946919333333334, "lon": -77.02249116666667, "rental_uris": {"android": "https://dc.lft.to/lastmile_qr_scan", "ios": "https://dc.lft.to/lastmile_qr_scan"}, "is_disabled": 0, "fusion_lat": 0.0, "name": "734c2500f819366b36762ec8eb3f6bb1", "fusion_lon": 0.0}, {"is_reserved": 0, "type": "electric_scooter", "bike_id": "31728d29387e6f703327ed00ff676517", "lat": 38.9039235, "lon": -76.98942066666666, "rental_uris": {"android": "https://dc.lft.to/lastmile_qr_scan", "ios": "https://dc.lft.to/lastmile_qr_scan"}, "is_disabled": 0, "fusion_lat": 0.0, "name": "31728d29387e6f703327ed00ff676517", "fusion_lon": 0.0}, {"is_reserved": 0, "type": "electric_scooter", "bike_id": "6fa5fda89cc91c9e4eccd5863caf39c5", "lat": 38.90003766666667, "lon": -77.01886333333333, "rental_uris": {"android": "https://dc.lft.to/lastmile_qr_scan", "ios": "https://dc.lft.to/lastmile_qr_scan"}, "is_disabled": 0, "fusion_lat": 0.0, "name": "6fa5fda89cc91c9e4eccd5863caf39c5", "fusion_lon": 0.0}, {"is_reserved": 0, "type": "electric_scooter", "bike_id": "e249225a796df744c0fb101ca8c6b72e", "lat": 38.88527533333333, "lon": -76.99831783333333, "rental_uris": {"android": "https://dc.lft.to/lastmile_qr_scan", "ios": "https://dc.lft.to/lastmile_qr_scan"}, "is_disabled": 0, "fusion_lat": 0.0, "name": "e249225a796df744c0fb101ca8c6b72e", "fusion_lon": 0.0}, {"is_reserved": 0, "type": "electric_scooter", "bike_id": "53202cd240469212399d010fd234e1fd", "lat": 38.919206333333335, "lon": -77.009865, "rental_uris": {"android": "https://dc.lft.to/lastmile_qr_scan", "ios": "https://dc.lft.to/lastmile_qr_scan"}, "is_disabled": 0, "fusion_lat": 0.0, "name": "53202cd240469212399d010fd234e1fd", "fusion_lon": 0.0}, {"is_reserved": 0, "type": "electric_scooter", "bike_id": "ed76ca22e451ee1fd6c1c69e70bc70ee", "lat": 38.903209333333336, "lon": -77.0108485, "rental_uris": {"android": "https://dc.lft.to/lastmile_qr_scan", "ios": "https://dc.lft.to/lastmile_qr_scan"}, "is_disabled": 0, "fusion_lat": 0.0, "name": "ed76ca22e451ee1fd6c1c69e70bc70ee", "fusion_lon": 0.0}, {"is_reserved": 0, "type": "electric_scooter", "bike_id": "90faf3a88ed5a427d91fe2ad195bfda7", "lat": 38.8922325, "lon": -77.043665, "rental_uris": {"android": "https://dc.lft.to/lastmile_qr_scan", "ios": "https://dc.lft.to/lastmile_qr_scan"}, "is_disabled": 0, "fusion_lat": 0.0, "name": "90faf3a88ed5a427d91fe2ad195bfda7", "fusion_lon": 0.0}, {"is_reserved": 0, "type": "electric_scooter", "bike_id": "92b551847fc84be53091224b84189e8c", "lat": 38.89193733333333, "lon": -77.02230883333333, "rental_uris": {"android": "https://dc.lft.to/lastmile_qr_scan", "ios": "https://dc.lft.to/lastmile_qr_scan"}, "is_disabled": 0, "fusion_lat": 0.0, "name": "92b551847fc84be53091224b84189e8c", "fusion_lon": 0.0}, {"is_reserved": 0, "type": "electric_scooter", "bike_id": "f00fa93d53eda0c1147454b9d5f76465", "lat": 38.917648666666665, "lon": -77.00456916666667, "rental_uris": {"android": "https://dc.lft.to/lastmile_qr_scan", "ios": "https://dc.lft.to/lastmile_qr_scan"}, "is_disabled": 0, "fusion_lat": 0.0, "name": "f00fa93d53eda0c1147454b9d5f76465", "fusion_lon": 0.0}, {"is_reserved": 0, "type": "electric_scooter", "bike_id": "baf8b8c6cb18ca2916a2681d53f0e402", "lat": 38.882882, "lon": -77.023719, "rental_uris": {"android": "https://dc.lft.to/lastmile_qr_scan", "ios": "https://dc.lft.to/lastmile_qr_scan"}, "is_disabled": 0, "fusion_lat": 0.0, "name": "baf8b8c6cb18ca2916a2681d53f0e402", "fusion_lon": 0.0}, {"is_reserved": 0, "type": "electric_bike", "bike_id": "49db7c3dd0f3587501e3ec4e30ebe7a9", "lat": 38.917025, "lon": -77.0572205, "rental_uris": {"android": "https://dc.lft.to/lastmile_qr_scan", "ios": "https://dc.lft.to/lastmile_qr_scan"}, "is_disabled": 0, "fusion_lat": 0.0, "name": "49db7c3dd0f3587501e3ec4e30ebe7a9", "fusion_lon": 0.0}, {"is_reserved": 0, "type": "electric_bike", "bike_id": "770a390dfe16f64c94dadb9c4a6de28f", "lat": 38.9206775, "lon": -76.9958325, "rental_uris": {"android": "https://dc.lft.to/lastmile_qr_scan", "ios": "https://dc.lft.to/lastmile_qr_scan"}, "is_disabled": 0, "fusion_lat": 0.0, "name": "770a390dfe16f64c94dadb9c4a6de28f", "fusion_lon": 0.0}, {"is_reserved": 0, "type": "electric_bike", "bike_id": "4161da18644d2aa2f77e510ffc306693", "lat": 38.920332, "lon": -76.97959483333334, "rental_uris": {"android": "https://dc.lft.to/lastmile_qr_scan", "ios": "https://dc.lft.to/lastmile_qr_scan"}, "is_disabled": 0, "fusion_lat": 0.0, "name": "4161da18644d2aa2f77e510ffc306693", "fusion_lon": 0.0}, {"is_reserved": 0, "type": "electric_scooter", "bike_id": "95523e02e40b8d645c7e7d1153eaa3d9", "lat": 38.92677066666667, "lon": -77.03235383333333, "rental_uris": {"android": "https://dc.lft.to/lastmile_qr_scan", "ios": "https://dc.lft.to/lastmile_qr_scan"}, "is_disabled": 0, "fusion_lat": 0.0, "name": "95523e02e40b8d645c7e7d1153eaa3d9", "fusion_lon": 0.0}, {"is_reserved": 0, "type": "electric_scooter", "bike_id": "4f272cfbb5c77971d2682a9c1e9a44a5", "lat": 38.8968955, "lon": -77.04352583333333, "rental_uris": {"android": "https://dc.lft.to/lastmile_qr_scan", "ios": "https://dc.lft.to/lastmile_qr_scan"}, "is_disabled": 0, "fusion_lat": 0.0, "name": "4f272cfbb5c77971d2682a9c1e9a44a5", "fusion_lon": 0.0}, {"is_reserved": 0, "type": "electric_scooter", "bike_id": "f6a26423715c2bb4c14cfa7423d2024d", "lat": 38.91826916666667, "lon": -77.03207866666666, "rental_uris": {"android": "https://dc.lft.to/lastmile_qr_scan", "ios": "https://dc.lft.to/lastmile_qr_scan"}, "is_disabled": 0, "fusion_lat": 0.0, "name": "f6a26423715c2bb4c14cfa7423d2024d", "fusion_lon": 0.0}, {"is_reserved": 0, "type": "electric_scooter", "bike_id": "847ab9afcbc18096dc6341dc1b92bac9", "lat": 38.9111565, "lon": -77.033083, "rental_uris": {"android": "https://dc.lft.to/lastmile_qr_scan", "ios": "https://dc.lft.to/lastmile_qr_scan"}, "is_disabled": 0, "fusion_lat": 0.0, "name": "847ab9afcbc18096dc6341dc1b92bac9", "fusion_lon": 0.0}, {"is_reserved": 0, "type": "electric_scooter", "bike_id": "3ba1d5f8d0139c6ebf43c74e276a64bf", "lat": 38.972932666666665, "lon": -77.03622516666667, "rental_uris": {"android": "https://dc.lft.to/lastmile_qr_scan", "ios": "https://dc.lft.to/lastmile_qr_scan"}, "is_disabled": 0, "fusion_lat": 0.0, "name": "3ba1d5f8d0139c6ebf43c74e276a64bf", "fusion_lon": 0.0}, {"is_reserved": 0, "type": "electric_scooter", "bike_id": "7ae9260d3ac9187c6e38917ad53dbe84", "lat": 38.909803833333335, "lon": -77.03464416666667, "rental_uris": {"android": "https://dc.lft.to/lastmile_qr_scan", "ios": "https://dc.lft.to/lastmile_qr_scan"}, "is_disabled": 0, "fusion_lat": 0.0, "name": "7ae9260d3ac9187c6e38917ad53dbe84", "fusion_lon": 0.0}, {"is_reserved": 0, "type": "electric_scooter", "bike_id": "b42afd4814b095b87fddf1031d4568fa", "lat": 38.884563666666665, "lon": -76.926239, "rental_uris": {"android": "https://dc.lft.to/lastmile_qr_scan", "ios": "https://dc.lft.to/lastmile_qr_scan"}, "is_disabled": 0, "fusion_lat": 0.0, "name": "b42afd4814b095b87fddf1031d4568fa", "fusion_lon": 0.0}, {"is_reserved": 0, "type": "electric_scooter", "bike_id": "a6f0f2658edfe06fbc5756574aec086d", "lat": 38.930215, "lon": -77.03787, "rental_uris": {"android": "https://dc.lft.to/lastmile_qr_scan", "ios": "https://dc.lft.to/lastmile_qr_scan"}, "is_disabled": 0, "fusion_lat": 0.0, "name": "a6f0f2658edfe06fbc5756574aec086d", "fusion_lon": 0.0}, {"is_reserved": 0, "type": "electric_scooter", "bike_id": "5f8c10d3be72182e0c5b40b1cfd0ba32", "lat": 38.9210005, "lon": -77.01784583333334, "rental_uris": {"android": "https://dc.lft.to/lastmile_qr_scan", "ios": "https://dc.lft.to/lastmile_qr_scan"}, "is_disabled": 0, "fusion_lat": 0.0, "name": "5f8c10d3be72182e0c5b40b1cfd0ba32", "fusion_lon": 0.0}, {"is_reserved": 0, "type": "electric_scooter", "bike_id": "821bd3c5d170dd7af5c695514b545060", "lat": 38.91928166666667, "lon": -77.0197665, "rental_uris": {"android": "https://dc.lft.to/lastmile_qr_scan", "ios": "https://dc.lft.to/lastmile_qr_scan"}, "is_disabled": 0, "fusion_lat": 0.0, "name": "821bd3c5d170dd7af5c695514b545060", "fusion_lon": 0.0}, {"is_reserved": 0, "type": "electric_scooter", "bike_id": "2e3f995f1e747115e53406b6b402a737", "lat": 38.905216833333334, "lon": -77.05026583333333, "rental_uris": {"android": "https://dc.lft.to/lastmile_qr_scan", "ios": "https://dc.lft.to/lastmile_qr_scan"}, "is_disabled": 0, "fusion_lat": 0.0, "name": "2e3f995f1e747115e53406b6b402a737", "fusion_lon": 0.0}, {"is_reserved": 0, "type": "electric_scooter", "bike_id": "83fb15e094afb944cba592f4ed371b17", "lat": 38.9306225, "lon": -77.04219633333334, "rental_uris": {"android": "https://dc.lft.to/lastmile_qr_scan", "ios": "https://dc.lft.to/lastmile_qr_scan"}, "is_disabled": 0, "fusion_lat": 0.0, "name": "83fb15e094afb944cba592f4ed371b17", "fusion_lon": 0.0}, {"is_reserved": 0, "type": "electric_bike", "bike_id": "589458f2faf50c40c8eb9fbb3dbd1bca", "lat": 38.89851066666667, "lon": -76.93191983333334, "rental_uris": {"android": "https://dc.lft.to/lastmile_qr_scan", "ios": "https://dc.lft.to/lastmile_qr_scan"}, "is_disabled": 0, "fusion_lat": 0.0, "name": "589458f2faf50c40c8eb9fbb3dbd1bca", "fusion_lon": 0.0}, {"is_reserved": 0, "type": "electric_bike", "bike_id": "dfc846fe3f9d9954da04f96857ad8cab", "lat": 39.094429, "lon": -77.1346625, "rental_uris": {"android": "https://dc.lft.to/lastmile_qr_scan", "ios": "https://dc.lft.to/lastmile_qr_scan"}, "is_disabled": 0, "fusion_lat": 0.0, "name": "dfc846fe3f9d9954da04f96857ad8cab", "fusion_lon": 0.0}, {"is_reserved": 0, "type": "electric_scooter", "bike_id": "b22887c933202d2fe26ac4267f0718cb", "lat": 38.921958833333335, "lon": -77.01830833333334, "rental_uris": {"android": "https://dc.lft.to/lastmile_qr_scan", "ios": "https://dc.lft.to/lastmile_qr_scan"}, "is_disabled": 0, "fusion_lat": 0.0, "name": "b22887c933202d2fe26ac4267f0718cb", "fusion_lon": 0.0}, {"is_reserved": 0, "type": "electric_scooter", "bike_id": "7d9063f38eed0d685b415f7f28c8093d", "lat": 38.87606483333333, "lon": -77.00263816666667, "rental_uris": {"android": "https://dc.lft.to/lastmile_qr_scan", "ios": "https://dc.lft.to/lastmile_qr_scan"}, "is_disabled": 0, "fusion_lat": 0.0, "name": "7d9063f38eed0d685b415f7f28c8093d", "fusion_lon": 0.0}, {"is_reserved": 0, "type": "electric_scooter", "bike_id": "eccfd47d9831611641a111f48f2b8a49", "lat": 38.9279565, "lon": -77.03594683333333, "rental_uris": {"android": "https://dc.lft.to/lastmile_qr_scan", "ios": "https://dc.lft.to/lastmile_qr_scan"}, "is_disabled": 0, "fusion_lat": 0.0, "name": "eccfd47d9831611641a111f48f2b8a49", "fusion_lon": 0.0}, {"is_reserved": 0, "type": "electric_scooter", "bike_id": "0e8a7cd4c375b82eace3aa860e4aceb9", "lat": 38.86449916666667, "lon": -76.99110416666667, "rental_uris": {"android": "https://dc.lft.to/lastmile_qr_scan", "ios": "https://dc.lft.to/lastmile_qr_scan"}, "is_disabled": 0, "fusion_lat": 0.0, "name": "0e8a7cd4c375b82eace3aa860e4aceb9", "fusion_lon": 0.0}, {"is_reserved": 0, "type": "electric_scooter", "bike_id": "3c6b94aa11ad39b360a11c6ae8b8efc3", "lat": 38.927432333333336, "lon": -77.069596, "rental_uris": {"android": "https://dc.lft.to/lastmile_qr_scan", "ios": "https://dc.lft.to/lastmile_qr_scan"}, "is_disabled": 0, "fusion_lat": 0.0, "name": "3c6b94aa11ad39b360a11c6ae8b8efc3", "fusion_lon": 0.0}, {"is_reserved": 0, "type": "electric_scooter", "bike_id": "63a57f023d78a349d75bfbabf1833bb5", "lat": 38.905627333333335, "lon": -77.0512905, "rental_uris": {"android": "https://dc.lft.to/lastmile_qr_scan", "ios": "https://dc.lft.to/lastmile_qr_scan"}, "is_disabled": 0, "fusion_lat": 0.0, "name": "63a57f023d78a349d75bfbabf1833bb5", "fusion_lon": 0.0}, {"is_reserved": 0, "type": "electric_scooter", "bike_id": "7e0a5ab6beef8b3272b92b5aeb28ee2f", "lat": 38.89605933333333, "lon": -77.04681833333333, "rental_uris": {"android": "https://dc.lft.to/lastmile_qr_scan", "ios": "https://dc.lft.to/lastmile_qr_scan"}, "is_disabled": 0, "fusion_lat": 0.0, "name": "7e0a5ab6beef8b3272b92b5aeb28ee2f", "fusion_lon": 0.0}, {"is_reserved": 0, "type": "electric_scooter", "bike_id": "6dc8b3447575f52687ba7feaaa16fb59", "lat": 38.925675, "lon": -76.99492716666667, "rental_uris": {"android": "https://dc.lft.to/lastmile_qr_scan", "ios": "https://dc.lft.to/lastmile_qr_scan"}, "is_disabled": 0, "fusion_lat": 0.0, "name": "6dc8b3447575f52687ba7feaaa16fb59", "fusion_lon": 0.0}, {"is_reserved": 0, "type": "electric_scooter", "bike_id": "5dd334fd3b825abe74493585c25fcce3", "lat": 38.897504833333336, "lon": -77.00206883333334, "rental_uris": {"android": "https://dc.lft.to/lastmile_qr_scan", "ios": "https://dc.lft.to/lastmile_qr_scan"}, "is_disabled": 0, "fusion_lat": 0.0, "name": "5dd334fd3b825abe74493585c25fcce3", "fusion_lon": 0.0}, {"is_reserved": 0, "type": "electric_scooter", "bike_id": "f14a92e1fe40b54334eb97d52fc9ba52", "lat": 38.92442533333333, "lon": -77.04034283333333, "rental_uris": {"android": "https://dc.lft.to/lastmile_qr_scan", "ios": "https://dc.lft.to/lastmile_qr_scan"}, "is_disabled": 0, "fusion_lat": 0.0, "name": "f14a92e1fe40b54334eb97d52fc9ba52", "fusion_lon": 0.0}, {"is_reserved": 0, "type": "electric_scooter", "bike_id": "67a3f5bf59c6e7d67f7fc2fc68635a42", "lat": 38.89921483333333, "lon": -76.97838666666667, "rental_uris": {"android": "https://dc.lft.to/lastmile_qr_scan", "ios": "https://dc.lft.to/lastmile_qr_scan"}, "is_disabled": 0, "fusion_lat": 0.0, "name": "67a3f5bf59c6e7d67f7fc2fc68635a42", "fusion_lon": 0.0}, {"is_reserved": 0, "type": "electric_scooter", "bike_id": "a6a1c853530f21a29c55c96552514ff4", "lat": 38.892191333333336, "lon": -77.02220083333333, "rental_uris": {"android": "https://dc.lft.to/lastmile_qr_scan", "ios": "https://dc.lft.to/lastmile_qr_scan"}, "is_disabled": 0, "fusion_lat": 0.0, "name": "a6a1c853530f21a29c55c96552514ff4", "fusion_lon": 0.0}, {"is_reserved": 0, "type": "electric_scooter", "bike_id": "f0788c105ad42acc77f06e2e29175c27", "lat": 38.911153, "lon": -77.04503816666667, "rental_uris": {"android": "https://dc.lft.to/lastmile_qr_scan", "ios": "https://dc.lft.to/lastmile_qr_scan"}, "is_disabled": 0, "fusion_lat": 0.0, "name": "f0788c105ad42acc77f06e2e29175c27", "fusion_lon": 0.0}, {"is_reserved": 0, "type": "electric_scooter", "bike_id": "7399798a5320a5b31e15b505053f148e", "lat": 38.93280516666667, "lon": -77.03942566666667, "rental_uris": {"android": "https://dc.lft.to/lastmile_qr_scan", "ios": "https://dc.lft.to/lastmile_qr_scan"}, "is_disabled": 0, "fusion_lat": 0.0, "name": "7399798a5320a5b31e15b505053f148e", "fusion_lon": 0.0}, {"is_reserved": 0, "type": "electric_scooter", "bike_id": "d81079fb42906131ff876c869fcb6e91", "lat": 38.9309265, "lon": -77.02554983333333, "rental_uris": {"android": "https://dc.lft.to/lastmile_qr_scan", "ios": "https://dc.lft.to/lastmile_qr_scan"}, "is_disabled": 0, "fusion_lat": 0.0, "name": "d81079fb42906131ff876c869fcb6e91", "fusion_lon": 0.0}, {"is_reserved": 0, "type": "electric_scooter", "bike_id": "079e5d06ff4ff80ed4715072936c6b37", "lat": 38.87957683333333, "lon": -77.00384333333334, "rental_uris": {"android": "https://dc.lft.to/lastmile_qr_scan", "ios": "https://dc.lft.to/lastmile_qr_scan"}, "is_disabled": 0, "fusion_lat": 0.0, "name": "079e5d06ff4ff80ed4715072936c6b37", "fusion_lon": 0.0}, {"is_reserved": 0, "type": "electric_scooter", "bike_id": "d9caa8d5864d59a29c919a8275997e45", "lat": 38.895009, "lon": -77.02200216666667, "rental_uris": {"android": "https://dc.lft.to/lastmile_qr_scan", "ios": "https://dc.lft.to/lastmile_qr_scan"}, "is_disabled": 0, "fusion_lat": 0.0, "name": "d9caa8d5864d59a29c919a8275997e45", "fusion_lon": 0.0}, {"is_reserved": 0, "type": "electric_bike", "bike_id": "68f22e8e4eaac5b8d749c562f3684adc", "lat": 38.949198, "lon": -77.00798133333333, "rental_uris": {"android": "https://dc.lft.to/lastmile_qr_scan", "ios": "https://dc.lft.to/lastmile_qr_scan"}, "is_disabled": 0, "fusion_lat": 0.0, "name": "68f22e8e4eaac5b8d749c562f3684adc", "fusion_lon": 0.0}, {"is_reserved": 0, "type": "electric_scooter", "bike_id": "907e0a2339cb15b60af1d416e55a8523", "lat": 38.9078385, "lon": -77.01084616666667, "rental_uris": {"android": "https://dc.lft.to/lastmile_qr_scan", "ios": "https://dc.lft.to/lastmile_qr_scan"}, "is_disabled": 0, "fusion_lat": 0.0, "name": "907e0a2339cb15b60af1d416e55a8523", "fusion_lon": 0.0}, {"is_reserved": 0, "type": "electric_scooter", "bike_id": "0d0985e87392247da977d04b3d0d8704", "lat": 38.94310766666667, "lon": -77.06170816666666, "rental_uris": {"android": "https://dc.lft.to/lastmile_qr_scan", "ios": "https://dc.lft.to/lastmile_qr_scan"}, "is_disabled": 0, "fusion_lat": 0.0, "name": "0d0985e87392247da977d04b3d0d8704", "fusion_lon": 0.0}, {"is_reserved": 0, "type": "electric_scooter", "bike_id": "72b9f4eb9571a30034ce9ee796a820ab", "lat": 38.934081166666665, "lon": -77.04546383333333, "rental_uris": {"android": "https://dc.lft.to/lastmile_qr_scan", "ios": "https://dc.lft.to/lastmile_qr_scan"}, "is_disabled": 0, "fusion_lat": 0.0, "name": "72b9f4eb9571a30034ce9ee796a820ab", "fusion_lon": 0.0}, {"is_reserved": 0, "type": "electric_scooter", "bike_id": "50376652c296d1a55ffa0a79ef29315f", "lat": 38.92059283333333, "lon": -77.02945316666667, "rental_uris": {"android": "https://dc.lft.to/lastmile_qr_scan", "ios": "https://dc.lft.to/lastmile_qr_scan"}, "is_disabled": 0, "fusion_lat": 0.0, "name": "50376652c296d1a55ffa0a79ef29315f", "fusion_lon": 0.0}, {"is_reserved": 0, "type": "electric_scooter", "bike_id": "6012dce231db3bb2ee39e8bf61ed4a61", "lat": 38.94506033333333, "lon": -77.0336235, "rental_uris": {"android": "https://dc.lft.to/lastmile_qr_scan", "ios": "https://dc.lft.to/lastmile_qr_scan"}, "is_disabled": 0, "fusion_lat": 0.0, "name": "6012dce231db3bb2ee39e8bf61ed4a61", "fusion_lon": 0.0}, {"is_reserved": 0, "type": "electric_scooter", "bike_id": "d3c964c5e84346ff38e8d545d691c890", "lat": 38.8990125, "lon": -77.03961683333333, "rental_uris": {"android": "https://dc.lft.to/lastmile_qr_scan", "ios": "https://dc.lft.to/lastmile_qr_scan"}, "is_disabled": 0, "fusion_lat": 0.0, "name": "d3c964c5e84346ff38e8d545d691c890", "fusion_lon": 0.0}, {"is_reserved": 0, "type": "electric_scooter", "bike_id": "708bec73de049ad8c2af5343cfd55760", "lat": 38.895372333333334, "lon": -77.01104983333333, "rental_uris": {"android": "https://dc.lft.to/lastmile_qr_scan", "ios": "https://dc.lft.to/lastmile_qr_scan"}, "is_disabled": 0, "fusion_lat": 0.0, "name": "708bec73de049ad8c2af5343cfd55760", "fusion_lon": 0.0}, {"is_reserved": 0, "type": "electric_scooter", "bike_id": "0bdf8480d931604ecc4ccc7763c1db58", "lat": 38.92231183333333, "lon": -77.04016133333333, "rental_uris": {"android": "https://dc.lft.to/lastmile_qr_scan", "ios": "https://dc.lft.to/lastmile_qr_scan"}, "is_disabled": 0, "fusion_lat": 0.0, "name": "0bdf8480d931604ecc4ccc7763c1db58", "fusion_lon": 0.0}, {"is_reserved": 0, "type": "electric_bike", "bike_id": "7dbc8a9685ec6b899a895685dd625873", "lat": 38.962413, "lon": -76.99679116666667, "rental_uris": {"android": "https://dc.lft.to/lastmile_qr_scan", "ios": "https://dc.lft.to/lastmile_qr_scan"}, "is_disabled": 0, "fusion_lat": 0.0, "name": "7dbc8a9685ec6b899a895685dd625873", "fusion_lon": 0.0}, {"is_reserved": 0, "type": "electric_scooter", "bike_id": "a7ce487f10fee810d1eaa809e7e89080", "lat": 38.92905116666667, "lon": -77.02097183333333, "rental_uris": {"android": "https://dc.lft.to/lastmile_qr_scan", "ios": "https://dc.lft.to/lastmile_qr_scan"}, "is_disabled": 0, "fusion_lat": 0.0, "name": "a7ce487f10fee810d1eaa809e7e89080", "fusion_lon": 0.0}, {"is_reserved": 0, "type": "electric_bike", "bike_id": "4b7f4a54a8eeb6341c65a370631ad89b", "lat": 38.8024525, "lon": -77.1143835, "rental_uris": {"android": "https://dc.lft.to/lastmile_qr_scan", "ios": "https://dc.lft.to/lastmile_qr_scan"}, "is_disabled": 0, "fusion_lat": 0.0, "name": "4b7f4a54a8eeb6341c65a370631ad89b", "fusion_lon": 0.0}, {"is_reserved": 0, "type": "electric_scooter", "bike_id": "cd02905e76b1241eb8575abaa87a76e9", "lat": 38.943759666666665, "lon": -77.023559, "rental_uris": {"android": "https://dc.lft.to/lastmile_qr_scan", "ios": "https://dc.lft.to/lastmile_qr_scan"}, "is_disabled": 0, "fusion_lat": 0.0, "name": "cd02905e76b1241eb8575abaa87a76e9", "fusion_lon": 0.0}, {"is_reserved": 0, "type": "electric_scooter", "bike_id": "12c0f50fe066abcbd24287a7cbb38ab6", "lat": 38.912005, "lon": -77.019913, "rental_uris": {"android": "https://dc.lft.to/lastmile_qr_scan", "ios": "https://dc.lft.to/lastmile_qr_scan"}, "is_disabled": 0, "fusion_lat": 0.0, "name": "12c0f50fe066abcbd24287a7cbb38ab6", "fusion_lon": 0.0}, {"is_reserved": 0, "type": "electric_scooter", "bike_id": "5690be5404b98bd1246293362a032787", "lat": 38.900356, "lon": -77.00203116666667, "rental_uris": {"android": "https://dc.lft.to/lastmile_qr_scan", "ios": "https://dc.lft.to/lastmile_qr_scan"}, "is_disabled": 0, "fusion_lat": 0.0, "name": "5690be5404b98bd1246293362a032787", "fusion_lon": 0.0}, {"is_reserved": 0, "type": "electric_scooter", "bike_id": "a508e49adf4f33840a6886f653026559", "lat": 38.9272235, "lon": -77.0355175, "rental_uris": {"android": "https://dc.lft.to/lastmile_qr_scan", "ios": "https://dc.lft.to/lastmile_qr_scan"}, "is_disabled": 0, "fusion_lat": 0.0, "name": "a508e49adf4f33840a6886f653026559", "fusion_lon": 0.0}, {"is_reserved": 0, "type": "electric_scooter", "bike_id": "383dd1d486b5ca624ab04166a565535e", "lat": 38.90865766666667, "lon": -77.019433, "rental_uris": {"android": "https://dc.lft.to/lastmile_qr_scan", "ios": "https://dc.lft.to/lastmile_qr_scan"}, "is_disabled": 0, "fusion_lat": 0.0, "name": "383dd1d486b5ca624ab04166a565535e", "fusion_lon": 0.0}, {"is_reserved": 0, "type": "electric_scooter", "bike_id": "f4c35588660559a1d63f807012f51af3", "lat": 38.90276716666666, "lon": -77.01743433333333, "rental_uris": {"android": "https://dc.lft.to/lastmile_qr_scan", "ios": "https://dc.lft.to/lastmile_qr_scan"}, "is_disabled": 0, "fusion_lat": 0.0, "name": "f4c35588660559a1d63f807012f51af3", "fusion_lon": 0.0}, {"is_reserved": 0, "type": "electric_scooter", "bike_id": "940ac1b14b6af3d174eb91ed86dbf66d", "lat": 38.9285375, "lon": -77.02739266666667, "rental_uris": {"android": "https://dc.lft.to/lastmile_qr_scan", "ios": "https://dc.lft.to/lastmile_qr_scan"}, "is_disabled": 0, "fusion_lat": 0.0, "name": "940ac1b14b6af3d174eb91ed86dbf66d", "fusion_lon": 0.0}, {"is_reserved": 0, "type": "electric_scooter", "bike_id": "b18811112bf2976cc94abdeb827024c1", "lat": 38.8960635, "lon": -77.04412783333333, "rental_uris": {"android": "https://dc.lft.to/lastmile_qr_scan", "ios": "https://dc.lft.to/lastmile_qr_scan"}, "is_disabled": 0, "fusion_lat": 0.0, "name": "b18811112bf2976cc94abdeb827024c1", "fusion_lon": 0.0}, {"is_reserved": 0, "type": "electric_scooter", "bike_id": "7aa7cf6184e5c5207a7edf080f3d5a36", "lat": 38.9095775, "lon": -77.04578466666666, "rental_uris": {"android": "https://dc.lft.to/lastmile_qr_scan", "ios": "https://dc.lft.to/lastmile_qr_scan"}, "is_disabled": 0, "fusion_lat": 0.0, "name": "7aa7cf6184e5c5207a7edf080f3d5a36", "fusion_lon": 0.0}, {"is_reserved": 0, "type": "electric_scooter", "bike_id": "2779c685347c6254b2c775018c6472c3", "lat": 38.921595333333336, "lon": -77.03486533333333, "rental_uris": {"android": "https://dc.lft.to/lastmile_qr_scan", "ios": "https://dc.lft.to/lastmile_qr_scan"}, "is_disabled": 0, "fusion_lat": 0.0, "name": "2779c685347c6254b2c775018c6472c3", "fusion_lon": 0.0}, {"is_reserved": 0, "type": "electric_scooter", "bike_id": "2c4366958403a18d44868af5fc2069d4", "lat": 38.94657933333333, "lon": -77.0328435, "rental_uris": {"android": "https://dc.lft.to/lastmile_qr_scan", "ios": "https://dc.lft.to/lastmile_qr_scan"}, "is_disabled": 0, "fusion_lat": 0.0, "name": "2c4366958403a18d44868af5fc2069d4", "fusion_lon": 0.0}, {"is_reserved": 0, "type": "electric_scooter", "bike_id": "1aa358b3cc3fdc6f122c13b159027aa5", "lat": 38.89907783333334, "lon": -76.9336675, "rental_uris": {"android": "https://dc.lft.to/lastmile_qr_scan", "ios": "https://dc.lft.to/lastmile_qr_scan"}, "is_disabled": 0, "fusion_lat": 0.0, "name": "1aa358b3cc3fdc6f122c13b159027aa5", "fusion_lon": 0.0}, {"is_reserved": 0, "type": "electric_scooter", "bike_id": "8b2b27804ed4a1dad62c48012065ab11", "lat": 38.91223166666666, "lon": -77.04553533333333, "rental_uris": {"android": "https://dc.lft.to/lastmile_qr_scan", "ios": "https://dc.lft.to/lastmile_qr_scan"}, "is_disabled": 0, "fusion_lat": 0.0, "name": "8b2b27804ed4a1dad62c48012065ab11", "fusion_lon": 0.0}, {"is_reserved": 0, "type": "electric_scooter", "bike_id": "e4252bac9f17bbc5f9a16f3c2df56fa0", "lat": 38.936384, "lon": -77.03686233333333, "rental_uris": {"android": "https://dc.lft.to/lastmile_qr_scan", "ios": "https://dc.lft.to/lastmile_qr_scan"}, "is_disabled": 0, "fusion_lat": 0.0, "name": "e4252bac9f17bbc5f9a16f3c2df56fa0", "fusion_lon": 0.0}, {"is_reserved": 0, "type": "electric_scooter", "bike_id": "d3cee097261b211b29ad041397fb46b4", "lat": 38.900341833333336, "lon": -76.9915295, "rental_uris": {"android": "https://dc.lft.to/lastmile_qr_scan", "ios": "https://dc.lft.to/lastmile_qr_scan"}, "is_disabled": 0, "fusion_lat": 0.0, "name": "d3cee097261b211b29ad041397fb46b4", "fusion_lon": 0.0}, {"is_reserved": 0, "type": "electric_scooter", "bike_id": "208ad32a844b0bf3e60fb92fe8622604", "lat": 38.9213555, "lon": -77.0458515, "rental_uris": {"android": "https://dc.lft.to/lastmile_qr_scan", "ios": "https://dc.lft.to/lastmile_qr_scan"}, "is_disabled": 0, "fusion_lat": 0.0, "name": "208ad32a844b0bf3e60fb92fe8622604", "fusion_lon": 0.0}, {"is_reserved": 0, "type": "electric_scooter", "bike_id": "80a960668cb3596607051c4c52f29b1d", "lat": 38.9389465, "lon": -77.033298, "rental_uris": {"android": "https://dc.lft.to/lastmile_qr_scan", "ios": "https://dc.lft.to/lastmile_qr_scan"}, "is_disabled": 0, "fusion_lat": 0.0, "name": "80a960668cb3596607051c4c52f29b1d", "fusion_lon": 0.0}, {"is_reserved": 0, "type": "electric_scooter", "bike_id": "e5a359c5f5c1ca550a54f5b0f08ecf7a", "lat": 38.902988, "lon": -77.00224733333333, "rental_uris": {"android": "https://dc.lft.to/lastmile_qr_scan", "ios": "https://dc.lft.to/lastmile_qr_scan"}, "is_disabled": 0, "fusion_lat": 0.0, "name": "e5a359c5f5c1ca550a54f5b0f08ecf7a", "fusion_lon": 0.0}, {"is_reserved": 0, "type": "electric_scooter", "bike_id": "e1c66c3f51d1f2266b31b8e0bc3964f3", "lat": 38.9041535, "lon": -77.02658266666667, "rental_uris": {"android": "https://dc.lft.to/lastmile_qr_scan", "ios": "https://dc.lft.to/lastmile_qr_scan"}, "is_disabled": 0, "fusion_lat": 0.0, "name": "e1c66c3f51d1f2266b31b8e0bc3964f3", "fusion_lon": 0.0}, {"is_reserved": 0, "type": "electric_bike", "bike_id": "3c1c7c553bea2dd9c2437665fa972df7", "lat": 38.93761933333333, "lon": -77.036311, "rental_uris": {"android": "https://dc.lft.to/lastmile_qr_scan", "ios": "https://dc.lft.to/lastmile_qr_scan"}, "is_disabled": 0, "fusion_lat": 0.0, "name": "3c1c7c553bea2dd9c2437665fa972df7", "fusion_lon": 0.0}, {"is_reserved": 0, "type": "electric_scooter", "bike_id": "90f0a9606cfb4947b921a15d79542133", "lat": 38.9058845, "lon": -77.07277983333333, "rental_uris": {"android": "https://dc.lft.to/lastmile_qr_scan", "ios": "https://dc.lft.to/lastmile_qr_scan"}, "is_disabled": 0, "fusion_lat": 0.0, "name": "90f0a9606cfb4947b921a15d79542133", "fusion_lon": 0.0}, {"is_reserved": 0, "type": "electric_scooter", "bike_id": "845d637b66c1e856bbf5d7f8c4e9508a", "lat": 38.89819633333333, "lon": -77.02828433333333, "rental_uris": {"android": "https://dc.lft.to/lastmile_qr_scan", "ios": "https://dc.lft.to/lastmile_qr_scan"}, "is_disabled": 0, "fusion_lat": 0.0, "name": "845d637b66c1e856bbf5d7f8c4e9508a", "fusion_lon": 0.0}, {"is_reserved": 0, "type": "electric_scooter", "bike_id": "086240faf28316b9098fc6b62eb04f09", "lat": 38.909995333333335, "lon": -77.04012083333333, "rental_uris": {"android": "https://dc.lft.to/lastmile_qr_scan", "ios": "https://dc.lft.to/lastmile_qr_scan"}, "is_disabled": 0, "fusion_lat": 0.0, "name": "086240faf28316b9098fc6b62eb04f09", "fusion_lon": 0.0}, {"is_reserved": 0, "type": "electric_scooter", "bike_id": "d6c767f0fa5db98fcccfd05f90d8f010", "lat": 38.90427116666667, "lon": -77.027137, "rental_uris": {"android": "https://dc.lft.to/lastmile_qr_scan", "ios": "https://dc.lft.to/lastmile_qr_scan"}, "is_disabled": 0, "fusion_lat": 0.0, "name": "d6c767f0fa5db98fcccfd05f90d8f010", "fusion_lon": 0.0}, {"is_reserved": 0, "type": "electric_scooter", "bike_id": "6016e9c5c7726d6550ecc4ed19cf15aa", "lat": 38.87842716666667, "lon": -77.01962566666667, "rental_uris": {"android": "https://dc.lft.to/lastmile_qr_scan", "ios": "https://dc.lft.to/lastmile_qr_scan"}, "is_disabled": 0, "fusion_lat": 0.0, "name": "6016e9c5c7726d6550ecc4ed19cf15aa", "fusion_lon": 0.0}, {"is_reserved": 0, "type": "electric_scooter", "bike_id": "c0542dbe06bbba6bb2b57520f2afb2c2", "lat": 38.897516333333336, "lon": -77.001895, "rental_uris": {"android": "https://dc.lft.to/lastmile_qr_scan", "ios": "https://dc.lft.to/lastmile_qr_scan"}, "is_disabled": 0, "fusion_lat": 0.0, "name": "c0542dbe06bbba6bb2b57520f2afb2c2", "fusion_lon": 0.0}, {"is_reserved": 0, "type": "electric_bike", "bike_id": "ba0f1ca449be60b6ae613bc2cc67a164", "lat": 38.899059666666666, "lon": -76.93353533333334, "rental_uris": {"android": "https://dc.lft.to/lastmile_qr_scan", "ios": "https://dc.lft.to/lastmile_qr_scan"}, "is_disabled": 0, "fusion_lat": 0.0, "name": "ba0f1ca449be60b6ae613bc2cc67a164", "fusion_lon": 0.0}, {"is_reserved": 0, "type": "electric_scooter", "bike_id": "34013ad6f880231e7928bd6c198c8170", "lat": 38.8948005, "lon": -76.995596, "rental_uris": {"android": "https://dc.lft.to/lastmile_qr_scan", "ios": "https://dc.lft.to/lastmile_qr_scan"}, "is_disabled": 0, "fusion_lat": 0.0, "name": "34013ad6f880231e7928bd6c198c8170", "fusion_lon": 0.0}, {"is_reserved": 0, "type": "electric_scooter", "bike_id": "ed53552fde1e2b4775db16545326ea73", "lat": 38.921535, "lon": -77.03383733333334, "rental_uris": {"android": "https://dc.lft.to/lastmile_qr_scan", "ios": "https://dc.lft.to/lastmile_qr_scan"}, "is_disabled": 0, "fusion_lat": 0.0, "name": "ed53552fde1e2b4775db16545326ea73", "fusion_lon": 0.0}, {"is_reserved": 0, "type": "electric_scooter", "bike_id": "bebfb8242fcd51a76d0e55e63c83e3ad", "lat": 38.880101, "lon": -76.997503, "rental_uris": {"android": "https://dc.lft.to/lastmile_qr_scan", "ios": "https://dc.lft.to/lastmile_qr_scan"}, "is_disabled": 0, "fusion_lat": 0.0, "name": "bebfb8242fcd51a76d0e55e63c83e3ad", "fusion_lon": 0.0}, {"is_reserved": 0, "type": "electric_scooter", "bike_id": "30f276e0287015e02283eab50fa1bf15", "lat": 38.89478066666667, "lon": -76.99585533333334, "rental_uris": {"android": "https://dc.lft.to/lastmile_qr_scan", "ios": "https://dc.lft.to/lastmile_qr_scan"}, "is_disabled": 0, "fusion_lat": 0.0, "name": "30f276e0287015e02283eab50fa1bf15", "fusion_lon": 0.0}, {"is_reserved": 0, "type": "electric_scooter", "bike_id": "554633b03690120e2e67e9448a0e896e", "lat": 38.92939483333333, "lon": -77.03758016666667, "rental_uris": {"android": "https://dc.lft.to/lastmile_qr_scan", "ios": "https://dc.lft.to/lastmile_qr_scan"}, "is_disabled": 0, "fusion_lat": 0.0, "name": "554633b03690120e2e67e9448a0e896e", "fusion_lon": 0.0}, {"is_reserved": 0, "type": "electric_scooter", "bike_id": "f28293f9faaf3eaae031f10701a07195", "lat": 38.934817333333335, "lon": -77.03606783333333, "rental_uris": {"android": "https://dc.lft.to/lastmile_qr_scan", "ios": "https://dc.lft.to/lastmile_qr_scan"}, "is_disabled": 0, "fusion_lat": 0.0, "name": "f28293f9faaf3eaae031f10701a07195", "fusion_lon": 0.0}, {"is_reserved": 0, "type": "electric_scooter", "bike_id": "0638e6f87eff2991f3d4958332cbd1cb", "lat": 38.8935225, "lon": -77.017301, "rental_uris": {"android": "https://dc.lft.to/lastmile_qr_scan", "ios": "https://dc.lft.to/lastmile_qr_scan"}, "is_disabled": 0, "fusion_lat": 0.0, "name": "0638e6f87eff2991f3d4958332cbd1cb", "fusion_lon": 0.0}, {"is_reserved": 0, "type": "electric_scooter", "bike_id": "ea3cb90b2d5488171ea8fb05df7f6506", "lat": 38.88781, "lon": -77.00340716666666, "rental_uris": {"android": "https://dc.lft.to/lastmile_qr_scan", "ios": "https://dc.lft.to/lastmile_qr_scan"}, "is_disabled": 0, "fusion_lat": 0.0, "name": "ea3cb90b2d5488171ea8fb05df7f6506", "fusion_lon": 0.0}, {"is_reserved": 0, "type": "electric_scooter", "bike_id": "1baa6587ca7b3a98fc87b64e52f416e4", "lat": 38.89693916666667, "lon": -77.05025266666667, "rental_uris": {"android": "https://dc.lft.to/lastmile_qr_scan", "ios": "https://dc.lft.to/lastmile_qr_scan"}, "is_disabled": 0, "fusion_lat": 0.0, "name": "1baa6587ca7b3a98fc87b64e52f416e4", "fusion_lon": 0.0}, {"is_reserved": 0, "type": "electric_scooter", "bike_id": "a693a3634544b4b47d15199dc542c053", "lat": 38.92117983333333, "lon": -77.03190883333333, "rental_uris": {"android": "https://dc.lft.to/lastmile_qr_scan", "ios": "https://dc.lft.to/lastmile_qr_scan"}, "is_disabled": 0, "fusion_lat": 0.0, "name": "a693a3634544b4b47d15199dc542c053", "fusion_lon": 0.0}, {"is_reserved": 0, "type": "electric_scooter", "bike_id": "161ed649269a30a139b59315a61e6cdf", "lat": 38.898874666666664, "lon": -77.0332415, "rental_uris": {"android": "https://dc.lft.to/lastmile_qr_scan", "ios": "https://dc.lft.to/lastmile_qr_scan"}, "is_disabled": 0, "fusion_lat": 0.0, "name": "161ed649269a30a139b59315a61e6cdf", "fusion_lon": 0.0}, {"is_reserved": 0, "type": "electric_scooter", "bike_id": "921a547b5baf620ebcde4d95af6693da", "lat": 38.90567216666667, "lon": -77.00594366666667, "rental_uris": {"android": "https://dc.lft.to/lastmile_qr_scan", "ios": "https://dc.lft.to/lastmile_qr_scan"}, "is_disabled": 0, "fusion_lat": 0.0, "name": "921a547b5baf620ebcde4d95af6693da", "fusion_lon": 0.0}, {"is_reserved": 0, "type": "electric_bike", "bike_id": "65fcef7fbcdb69c1793a8948aece490c", "lat": 38.883882, "lon": -76.95445966666666, "rental_uris": {"android": "https://dc.lft.to/lastmile_qr_scan", "ios": "https://dc.lft.to/lastmile_qr_scan"}, "is_disabled": 0, "fusion_lat": 0.0, "name": "65fcef7fbcdb69c1793a8948aece490c", "fusion_lon": 0.0}, {"is_reserved": 0, "type": "electric_scooter", "bike_id": "aeacba32df792cca9bd17cd00bbacf40", "lat": 38.905265666666665, "lon": -77.05848183333333, "rental_uris": {"android": "https://dc.lft.to/lastmile_qr_scan", "ios": "https://dc.lft.to/lastmile_qr_scan"}, "is_disabled": 0, "fusion_lat": 0.0, "name": "aeacba32df792cca9bd17cd00bbacf40", "fusion_lon": 0.0}, {"is_reserved": 0, "type": "electric_scooter", "bike_id": "eea66670ba79b06390a9591a473c61be", "lat": 38.908120833333335, "lon": -77.034561, "rental_uris": {"android": "https://dc.lft.to/lastmile_qr_scan", "ios": "https://dc.lft.to/lastmile_qr_scan"}, "is_disabled": 0, "fusion_lat": 0.0, "name": "eea66670ba79b06390a9591a473c61be", "fusion_lon": 0.0}, {"is_reserved": 0, "type": "electric_scooter", "bike_id": "dbdae67ad727e01da09a8ae1804b28a0", "lat": 38.90240516666667, "lon": -77.01636833333333, "rental_uris": {"android": "https://dc.lft.to/lastmile_qr_scan", "ios": "https://dc.lft.to/lastmile_qr_scan"}, "is_disabled": 0, "fusion_lat": 0.0, "name": "dbdae67ad727e01da09a8ae1804b28a0", "fusion_lon": 0.0}, {"is_reserved": 0, "type": "electric_bike", "bike_id": "2b24f74ffa84fa82bfb3d715dd33efc5", "lat": 38.832307166666666, "lon": -76.9462655, "rental_uris": {"android": "https://dc.lft.to/lastmile_qr_scan", "ios": "https://dc.lft.to/lastmile_qr_scan"}, "is_disabled": 0, "fusion_lat": 0.0, "name": "2b24f74ffa84fa82bfb3d715dd33efc5", "fusion_lon": 0.0}, {"is_reserved": 0, "type": "electric_bike", "bike_id": "c2d797b45c3fcf9b79d0b07bf77e04d3", "lat": 38.82336516666667, "lon": -77.0582305, "rental_uris": {"android": "https://dc.lft.to/lastmile_qr_scan", "ios": "https://dc.lft.to/lastmile_qr_scan"}, "is_disabled": 0, "fusion_lat": 0.0, "name": "c2d797b45c3fcf9b79d0b07bf77e04d3", "fusion_lon": 0.0}, {"is_reserved": 0, "type": "electric_scooter", "bike_id": "6b8de6b17af0f26e6de2f8e7e0e321d5", "lat": 38.9073075, "lon": -77.00410033333333, "rental_uris": {"android": "https://dc.lft.to/lastmile_qr_scan", "ios": "https://dc.lft.to/lastmile_qr_scan"}, "is_disabled": 0, "fusion_lat": 0.0, "name": "6b8de6b17af0f26e6de2f8e7e0e321d5", "fusion_lon": 0.0}, {"is_reserved": 0, "type": "electric_scooter", "bike_id": "4895165c4dabb5f2e9617e63544da337", "lat": 38.907521333333335, "lon": -76.99882616666666, "rental_uris": {"android": "https://dc.lft.to/lastmile_qr_scan", "ios": "https://dc.lft.to/lastmile_qr_scan"}, "is_disabled": 0, "fusion_lat": 0.0, "name": "4895165c4dabb5f2e9617e63544da337", "fusion_lon": 0.0}, {"is_reserved": 0, "type": "electric_scooter", "bike_id": "3fc924b01aeefeabf7f848b486b731ae", "lat": 38.900112166666666, "lon": -77.01193816666667, "rental_uris": {"android": "https://dc.lft.to/lastmile_qr_scan", "ios": "https://dc.lft.to/lastmile_qr_scan"}, "is_disabled": 0, "fusion_lat": 0.0, "name": "3fc924b01aeefeabf7f848b486b731ae", "fusion_lon": 0.0}, {"is_reserved": 0, "type": "electric_scooter", "bike_id": "82e569dbad60f291b59d08eebebbe2a7", "lat": 38.94180433333333, "lon": -77.02567383333333, "rental_uris": {"android": "https://dc.lft.to/lastmile_qr_scan", "ios": "https://dc.lft.to/lastmile_qr_scan"}, "is_disabled": 0, "fusion_lat": 0.0, "name": "82e569dbad60f291b59d08eebebbe2a7", "fusion_lon": 0.0}, {"is_reserved": 0, "type": "electric_scooter", "bike_id": "124a50face0b98202b5ed7492f81deea", "lat": 38.91812916666667, "lon": -77.04515283333333, "rental_uris": {"android": "https://dc.lft.to/lastmile_qr_scan", "ios": "https://dc.lft.to/lastmile_qr_scan"}, "is_disabled": 0, "fusion_lat": 0.0, "name": "124a50face0b98202b5ed7492f81deea", "fusion_lon": 0.0}, {"is_reserved": 0, "type": "electric_bike", "bike_id": "942e9c97424f7023b2b069a0f1e13f86", "lat": 38.92114, "lon": -76.98880783333334, "rental_uris": {"android": "https://dc.lft.to/lastmile_qr_scan", "ios": "https://dc.lft.to/lastmile_qr_scan"}, "is_disabled": 0, "fusion_lat": 0.0, "name": "942e9c97424f7023b2b069a0f1e13f86", "fusion_lon": 0.0}, {"is_reserved": 0, "type": "electric_scooter", "bike_id": "b71902d3cae05fc4aabef24c045922bd", "lat": 38.9202655, "lon": -77.01856216666667, "rental_uris": {"android": "https://dc.lft.to/lastmile_qr_scan", "ios": "https://dc.lft.to/lastmile_qr_scan"}, "is_disabled": 0, "fusion_lat": 0.0, "name": "b71902d3cae05fc4aabef24c045922bd", "fusion_lon": 0.0}, {"is_reserved": 0, "type": "electric_scooter", "bike_id": "2543154b9cc551aaceafc3a8da267a81", "lat": 38.90718, "lon": -77.02259, "rental_uris": {"android": "https://dc.lft.to/lastmile_qr_scan", "ios": "https://dc.lft.to/lastmile_qr_scan"}, "is_disabled": 0, "fusion_lat": 0.0, "name": "2543154b9cc551aaceafc3a8da267a81", "fusion_lon": 0.0}, {"is_reserved": 0, "type": "electric_scooter", "bike_id": "a1957dbbebd80cae3f46865096360e80", "lat": 38.898035, "lon": -76.99506133333334, "rental_uris": {"android": "https://dc.lft.to/lastmile_qr_scan", "ios": "https://dc.lft.to/lastmile_qr_scan"}, "is_disabled": 0, "fusion_lat": 0.0, "name": "a1957dbbebd80cae3f46865096360e80", "fusion_lon": 0.0}, {"is_reserved": 0, "type": "electric_scooter", "bike_id": "32b687d35692e6ffb453fc787152c409", "lat": 38.90736666666667, "lon": -77.007528, "rental_uris": {"android": "https://dc.lft.to/lastmile_qr_scan", "ios": "https://dc.lft.to/lastmile_qr_scan"}, "is_disabled": 0, "fusion_lat": 0.0, "name": "32b687d35692e6ffb453fc787152c409", "fusion_lon": 0.0}, {"is_reserved": 0, "type": "electric_bike", "bike_id": "6a124a9bd928722b31d6b650e6528fee", "lat": 38.958431, "lon": -76.98587516666667, "rental_uris": {"android": "https://dc.lft.to/lastmile_qr_scan", "ios": "https://dc.lft.to/lastmile_qr_scan"}, "is_disabled": 0, "fusion_lat": 0.0, "name": "6a124a9bd928722b31d6b650e6528fee", "fusion_lon": 0.0}, {"is_reserved": 0, "type": "electric_scooter", "bike_id": "f3958fdef12a7e3dd42424494c8b72b5", "lat": 38.9243515, "lon": -77.02035916666667, "rental_uris": {"android": "https://dc.lft.to/lastmile_qr_scan", "ios": "https://dc.lft.to/lastmile_qr_scan"}, "is_disabled": 0, "fusion_lat": 0.0, "name": "f3958fdef12a7e3dd42424494c8b72b5", "fusion_lon": 0.0}, {"is_reserved": 0, "type": "electric_scooter", "bike_id": "7bf2f1592f81cc608a2cf3f5599454d6", "lat": 38.9261665, "lon": -77.0733015, "rental_uris": {"android": "https://dc.lft.to/lastmile_qr_scan", "ios": "https://dc.lft.to/lastmile_qr_scan"}, "is_disabled": 0, "fusion_lat": 0.0, "name": "7bf2f1592f81cc608a2cf3f5599454d6", "fusion_lon": 0.0}, {"is_reserved": 0, "type": "electric_scooter", "bike_id": "52c732600d3038aebc7f317339474db7", "lat": 38.9422495, "lon": -77.07153433333333, "rental_uris": {"android": "https://dc.lft.to/lastmile_qr_scan", "ios": "https://dc.lft.to/lastmile_qr_scan"}, "is_disabled": 0, "fusion_lat": 0.0, "name": "52c732600d3038aebc7f317339474db7", "fusion_lon": 0.0}, {"is_reserved": 0, "type": "electric_bike", "bike_id": "c7c964c3013533698b361d833cf2b242", "lat": 38.965505666666665, "lon": -77.01628083333334, "rental_uris": {"android": "https://dc.lft.to/lastmile_qr_scan", "ios": "https://dc.lft.to/lastmile_qr_scan"}, "is_disabled": 0, "fusion_lat": 0.0, "name": "c7c964c3013533698b361d833cf2b242", "fusion_lon": 0.0}, {"is_reserved": 0, "type": "electric_scooter", "bike_id": "04a2105872085123bb27a96d3326f0ef", "lat": 38.90620283333333, "lon": -77.02834533333333, "rental_uris": {"android": "https://dc.lft.to/lastmile_qr_scan", "ios": "https://dc.lft.to/lastmile_qr_scan"}, "is_disabled": 0, "fusion_lat": 0.0, "name": "04a2105872085123bb27a96d3326f0ef", "fusion_lon": 0.0}, {"is_reserved": 0, "type": "electric_scooter", "bike_id": "95dd92d82db6d7835c3606b9ead29360", "lat": 38.89846566666667, "lon": -76.99032566666666, "rental_uris": {"android": "https://dc.lft.to/lastmile_qr_scan", "ios": "https://dc.lft.to/lastmile_qr_scan"}, "is_disabled": 0, "fusion_lat": 0.0, "name": "95dd92d82db6d7835c3606b9ead29360", "fusion_lon": 0.0}, {"is_reserved": 0, "type": "electric_scooter", "bike_id": "563c3b27bf86debad832fdfd0a17ae56", "lat": 38.921546666666664, "lon": -77.0721765, "rental_uris": {"android": "https://dc.lft.to/lastmile_qr_scan", "ios": "https://dc.lft.to/lastmile_qr_scan"}, "is_disabled": 0, "fusion_lat": 0.0, "name": "563c3b27bf86debad832fdfd0a17ae56", "fusion_lon": 0.0}, {"is_reserved": 0, "type": "electric_scooter", "bike_id": "e039e7a37b3f90449bc20a5410338ead", "lat": 38.90182683333333, "lon": -76.93003416666667, "rental_uris": {"android": "https://dc.lft.to/lastmile_qr_scan", "ios": "https://dc.lft.to/lastmile_qr_scan"}, "is_disabled": 0, "fusion_lat": 0.0, "name": "e039e7a37b3f90449bc20a5410338ead", "fusion_lon": 0.0}, {"is_reserved": 0, "type": "electric_bike", "bike_id": "b09382ba273b67d46ff0e6ca7ea691d7", "lat": 38.8578585, "lon": -77.09963, "rental_uris": {"android": "https://dc.lft.to/lastmile_qr_scan", "ios": "https://dc.lft.to/lastmile_qr_scan"}, "is_disabled": 0, "fusion_lat": 0.0, "name": "b09382ba273b67d46ff0e6ca7ea691d7", "fusion_lon": 0.0}, {"is_reserved": 0, "type": "electric_scooter", "bike_id": "ee272d1904203d8c90cb0c9c14f58304", "lat": 38.90393916666667, "lon": -77.04894016666667, "rental_uris": {"android": "https://dc.lft.to/lastmile_qr_scan", "ios": "https://dc.lft.to/lastmile_qr_scan"}, "is_disabled": 0, "fusion_lat": 0.0, "name": "ee272d1904203d8c90cb0c9c14f58304", "fusion_lon": 0.0}, {"is_reserved": 0, "type": "electric_scooter", "bike_id": "25ccd242956ce7e013008a65d41b81eb", "lat": 38.90557783333333, "lon": -77.02821083333333, "rental_uris": {"android": "https://dc.lft.to/lastmile_qr_scan", "ios": "https://dc.lft.to/lastmile_qr_scan"}, "is_disabled": 0, "fusion_lat": 0.0, "name": "25ccd242956ce7e013008a65d41b81eb", "fusion_lon": 0.0}, {"is_reserved": 0, "type": "electric_scooter", "bike_id": "c22d6c6c3267cc1540189f038c461b1f", "lat": 38.91989183333333, "lon": -77.02885716666667, "rental_uris": {"android": "https://dc.lft.to/lastmile_qr_scan", "ios": "https://dc.lft.to/lastmile_qr_scan"}, "is_disabled": 0, "fusion_lat": 0.0, "name": "c22d6c6c3267cc1540189f038c461b1f", "fusion_lon": 0.0}, {"is_reserved": 0, "type": "electric_scooter", "bike_id": "dac55c00cbc1ff2764619b4ac403f90e", "lat": 38.91421533333333, "lon": -77.03815466666667, "rental_uris": {"android": "https://dc.lft.to/lastmile_qr_scan", "ios": "https://dc.lft.to/lastmile_qr_scan"}, "is_disabled": 0, "fusion_lat": 0.0, "name": "dac55c00cbc1ff2764619b4ac403f90e", "fusion_lon": 0.0}, {"is_reserved": 0, "type": "electric_scooter", "bike_id": "30d8e64290e06e50c0e671da569b5c72", "lat": 38.9407845, "lon": -77.03329816666667, "rental_uris": {"android": "https://dc.lft.to/lastmile_qr_scan", "ios": "https://dc.lft.to/lastmile_qr_scan"}, "is_disabled": 0, "fusion_lat": 0.0, "name": "30d8e64290e06e50c0e671da569b5c72", "fusion_lon": 0.0}, {"is_reserved": 0, "type": "electric_scooter", "bike_id": "a786f31758cd275897ce64d83c1bcf5a", "lat": 38.883912, "lon": -76.98985916666666, "rental_uris": {"android": "https://dc.lft.to/lastmile_qr_scan", "ios": "https://dc.lft.to/lastmile_qr_scan"}, "is_disabled": 0, "fusion_lat": 0.0, "name": "a786f31758cd275897ce64d83c1bcf5a", "fusion_lon": 0.0}, {"is_reserved": 0, "type": "electric_scooter", "bike_id": "3d71a4d5aab4d560803dc7c85973a5c3", "lat": 38.9180455, "lon": -77.04029233333333, "rental_uris": {"android": "https://dc.lft.to/lastmile_qr_scan", "ios": "https://dc.lft.to/lastmile_qr_scan"}, "is_disabled": 0, "fusion_lat": 0.0, "name": "3d71a4d5aab4d560803dc7c85973a5c3", "fusion_lon": 0.0}, {"is_reserved": 0, "type": "electric_bike", "bike_id": "5f91f93e9eb40e32d04aaf0384460c84", "lat": 38.881248166666666, "lon": -77.01668633333334, "rental_uris": {"android": "https://dc.lft.to/lastmile_qr_scan", "ios": "https://dc.lft.to/lastmile_qr_scan"}, "is_disabled": 0, "fusion_lat": 0.0, "name": "5f91f93e9eb40e32d04aaf0384460c84", "fusion_lon": 0.0}, {"is_reserved": 0, "type": "electric_scooter", "bike_id": "6dc717c35934924bbdbfd7e31208d501", "lat": 38.92130233333334, "lon": -77.01766516666666, "rental_uris": {"android": "https://dc.lft.to/lastmile_qr_scan", "ios": "https://dc.lft.to/lastmile_qr_scan"}, "is_disabled": 0, "fusion_lat": 0.0, "name": "6dc717c35934924bbdbfd7e31208d501", "fusion_lon": 0.0}, {"is_reserved": 0, "type": "electric_scooter", "bike_id": "fad4045d3c35e824098ca571c34ef232", "lat": 38.94239483333333, "lon": -77.03583816666666, "rental_uris": {"android": "https://dc.lft.to/lastmile_qr_scan", "ios": "https://dc.lft.to/lastmile_qr_scan"}, "is_disabled": 0, "fusion_lat": 0.0, "name": "fad4045d3c35e824098ca571c34ef232", "fusion_lon": 0.0}, {"is_reserved": 0, "type": "electric_scooter", "bike_id": "260930706ef4d7f5af21612eca5ed39b", "lat": 38.877567, "lon": -76.99426116666666, "rental_uris": {"android": "https://dc.lft.to/lastmile_qr_scan", "ios": "https://dc.lft.to/lastmile_qr_scan"}, "is_disabled": 0, "fusion_lat": 0.0, "name": "260930706ef4d7f5af21612eca5ed39b", "fusion_lon": 0.0}, {"is_reserved": 0, "type": "electric_scooter", "bike_id": "4b6b8ed50d97a88ce0feb5258b9dab16", "lat": 38.89882983333333, "lon": -76.931781, "rental_uris": {"android": "https://dc.lft.to/lastmile_qr_scan", "ios": "https://dc.lft.to/lastmile_qr_scan"}, "is_disabled": 0, "fusion_lat": 0.0, "name": "4b6b8ed50d97a88ce0feb5258b9dab16", "fusion_lon": 0.0}, {"is_reserved": 0, "type": "electric_scooter", "bike_id": "109ec68c6f307d977677cc58fae03e57", "lat": 38.915793, "lon": -77.0123, "rental_uris": {"android": "https://dc.lft.to/lastmile_qr_scan", "ios": "https://dc.lft.to/lastmile_qr_scan"}, "is_disabled": 0, "fusion_lat": 0.0, "name": "109ec68c6f307d977677cc58fae03e57", "fusion_lon": 0.0}, {"is_reserved": 0, "type": "electric_scooter", "bike_id": "1b38ce3f0eef05c345875feaf7ca251d", "lat": 38.9006245, "lon": -76.92741916666667, "rental_uris": {"android": "https://dc.lft.to/lastmile_qr_scan", "ios": "https://dc.lft.to/lastmile_qr_scan"}, "is_disabled": 0, "fusion_lat": 0.0, "name": "1b38ce3f0eef05c345875feaf7ca251d", "fusion_lon": 0.0}, {"is_reserved": 0, "type": "electric_scooter", "bike_id": "5a171d100b167a86fa3f9ae36171b8f7", "lat": 38.94007966666667, "lon": -77.01903033333333, "rental_uris": {"android": "https://dc.lft.to/lastmile_qr_scan", "ios": "https://dc.lft.to/lastmile_qr_scan"}, "is_disabled": 0, "fusion_lat": 0.0, "name": "5a171d100b167a86fa3f9ae36171b8f7", "fusion_lon": 0.0}, {"is_reserved": 0, "type": "electric_scooter", "bike_id": "1ac7c3087d55626ccc18e7e93546cd3f", "lat": 38.91782033333333, "lon": -77.02314233333334, "rental_uris": {"android": "https://dc.lft.to/lastmile_qr_scan", "ios": "https://dc.lft.to/lastmile_qr_scan"}, "is_disabled": 0, "fusion_lat": 0.0, "name": "1ac7c3087d55626ccc18e7e93546cd3f", "fusion_lon": 0.0}, {"is_reserved": 0, "type": "electric_scooter", "bike_id": "7cef37806531f820d13cb94fea991f48", "lat": 38.92158466666667, "lon": -77.0336405, "rental_uris": {"android": "https://dc.lft.to/lastmile_qr_scan", "ios": "https://dc.lft.to/lastmile_qr_scan"}, "is_disabled": 0, "fusion_lat": 0.0, "name": "7cef37806531f820d13cb94fea991f48", "fusion_lon": 0.0}, {"is_reserved": 0, "type": "electric_scooter", "bike_id": "84c6ad82fcc7e7f3c94ca4f50cb4e8c9", "lat": 38.9223935, "lon": -77.03516916666666, "rental_uris": {"android": "https://dc.lft.to/lastmile_qr_scan", "ios": "https://dc.lft.to/lastmile_qr_scan"}, "is_disabled": 0, "fusion_lat": 0.0, "name": "84c6ad82fcc7e7f3c94ca4f50cb4e8c9", "fusion_lon": 0.0}, {"is_reserved": 0, "type": "electric_scooter", "bike_id": "731b77251a97ede817350bdd3c50dada", "lat": 38.92319483333333, "lon": -77.0370805, "rental_uris": {"android": "https://dc.lft.to/lastmile_qr_scan", "ios": "https://dc.lft.to/lastmile_qr_scan"}, "is_disabled": 0, "fusion_lat": 0.0, "name": "731b77251a97ede817350bdd3c50dada", "fusion_lon": 0.0}, {"is_reserved": 0, "type": "electric_scooter", "bike_id": "1a31e80ad0042855ac29cc0863a11111", "lat": 38.9267525, "lon": -77.00734066666666, "rental_uris": {"android": "https://dc.lft.to/lastmile_qr_scan", "ios": "https://dc.lft.to/lastmile_qr_scan"}, "is_disabled": 0, "fusion_lat": 0.0, "name": "1a31e80ad0042855ac29cc0863a11111", "fusion_lon": 0.0}, {"is_reserved": 0, "type": "electric_scooter", "bike_id": "51ac281f6f23d03c76f29f537fecc187", "lat": 38.9270005, "lon": -77.02070916666666, "rental_uris": {"android": "https://dc.lft.to/lastmile_qr_scan", "ios": "https://dc.lft.to/lastmile_qr_scan"}, "is_disabled": 0, "fusion_lat": 0.0, "name": "51ac281f6f23d03c76f29f537fecc187", "fusion_lon": 0.0}, {"is_reserved": 0, "type": "electric_scooter", "bike_id": "e990d8d90f5fe0d63b55e3703aee9684", "lat": 38.89544033333333, "lon": -76.98337233333334, "rental_uris": {"android": "https://dc.lft.to/lastmile_qr_scan", "ios": "https://dc.lft.to/lastmile_qr_scan"}, "is_disabled": 0, "fusion_lat": 0.0, "name": "e990d8d90f5fe0d63b55e3703aee9684", "fusion_lon": 0.0}, {"is_reserved": 0, "type": "electric_scooter", "bike_id": "d9311bf2c13c98dd438cc2ef141a7bbc", "lat": 38.91561166666666, "lon": -77.03676233333333, "rental_uris": {"android": "https://dc.lft.to/lastmile_qr_scan", "ios": "https://dc.lft.to/lastmile_qr_scan"}, "is_disabled": 0, "fusion_lat": 0.0, "name": "d9311bf2c13c98dd438cc2ef141a7bbc", "fusion_lon": 0.0}, {"is_reserved": 0, "type": "electric_scooter", "bike_id": "1ed981d019eb3eaccacc4e7fa03a6d16", "lat": 38.9051585, "lon": -77.00680616666666, "rental_uris": {"android": "https://dc.lft.to/lastmile_qr_scan", "ios": "https://dc.lft.to/lastmile_qr_scan"}, "is_disabled": 0, "fusion_lat": 0.0, "name": "1ed981d019eb3eaccacc4e7fa03a6d16", "fusion_lon": 0.0}, {"is_reserved": 0, "type": "electric_scooter", "bike_id": "7471defc259ecd6077536ede706bdb70", "lat": 38.908628, "lon": -77.046568, "rental_uris": {"android": "https://dc.lft.to/lastmile_qr_scan", "ios": "https://dc.lft.to/lastmile_qr_scan"}, "is_disabled": 0, "fusion_lat": 0.0, "name": "7471defc259ecd6077536ede706bdb70", "fusion_lon": 0.0}, {"is_reserved": 0, "type": "electric_scooter", "bike_id": "5c81ac8c3cfda6c164db8f05d847782d", "lat": 38.877584166666665, "lon": -76.99538733333333, "rental_uris": {"android": "https://dc.lft.to/lastmile_qr_scan", "ios": "https://dc.lft.to/lastmile_qr_scan"}, "is_disabled": 0, "fusion_lat": 0.0, "name": "5c81ac8c3cfda6c164db8f05d847782d", "fusion_lon": 0.0}, {"is_reserved": 0, "type": "electric_scooter", "bike_id": "fe938e56482b7d7ab862ac1c2f3fa339", "lat": 38.9160445, "lon": -77.002715, "rental_uris": {"android": "https://dc.lft.to/lastmile_qr_scan", "ios": "https://dc.lft.to/lastmile_qr_scan"}, "is_disabled": 0, "fusion_lat": 0.0, "name": "fe938e56482b7d7ab862ac1c2f3fa339", "fusion_lon": 0.0}, {"is_reserved": 0, "type": "electric_scooter", "bike_id": "4d523fb4cdf66faebe58d37fec0e1233", "lat": 38.95283833333333, "lon": -77.06855983333334, "rental_uris": {"android": "https://dc.lft.to/lastmile_qr_scan", "ios": "https://dc.lft.to/lastmile_qr_scan"}, "is_disabled": 0, "fusion_lat": 0.0, "name": "4d523fb4cdf66faebe58d37fec0e1233", "fusion_lon": 0.0}, {"is_reserved": 0, "type": "electric_scooter", "bike_id": "2b7704f322fc38b34b97c424c4adc53d", "lat": 38.91417716666667, "lon": -77.02119316666666, "rental_uris": {"android": "https://dc.lft.to/lastmile_qr_scan", "ios": "https://dc.lft.to/lastmile_qr_scan"}, "is_disabled": 0, "fusion_lat": 0.0, "name": "2b7704f322fc38b34b97c424c4adc53d", "fusion_lon": 0.0}, {"is_reserved": 0, "type": "electric_scooter", "bike_id": "52072a099a26c8fb00553d13c94ccc9e", "lat": 38.91973516666667, "lon": -77.027181, "rental_uris": {"android": "https://dc.lft.to/lastmile_qr_scan", "ios": "https://dc.lft.to/lastmile_qr_scan"}, "is_disabled": 0, "fusion_lat": 0.0, "name": "52072a099a26c8fb00553d13c94ccc9e", "fusion_lon": 0.0}, {"is_reserved": 0, "type": "electric_scooter", "bike_id": "aa2e60a3c6f686e64fdbe1b167c541db", "lat": 38.92458216666667, "lon": -77.008516, "rental_uris": {"android": "https://dc.lft.to/lastmile_qr_scan", "ios": "https://dc.lft.to/lastmile_qr_scan"}, "is_disabled": 0, "fusion_lat": 0.0, "name": "aa2e60a3c6f686e64fdbe1b167c541db", "fusion_lon": 0.0}, {"is_reserved": 0, "type": "electric_scooter", "bike_id": "607b3a4ec6aeded8d9694130e556a6af", "lat": 38.905942, "lon": -77.064198, "rental_uris": {"android": "https://dc.lft.to/lastmile_qr_scan", "ios": "https://dc.lft.to/lastmile_qr_scan"}, "is_disabled": 0, "fusion_lat": 0.0, "name": "607b3a4ec6aeded8d9694130e556a6af", "fusion_lon": 0.0}, {"is_reserved": 0, "type": "electric_scooter", "bike_id": "4dc1afe6410a2980e01870222428dc27", "lat": 38.893767, "lon": -77.0296875, "rental_uris": {"android": "https://dc.lft.to/lastmile_qr_scan", "ios": "https://dc.lft.to/lastmile_qr_scan"}, "is_disabled": 0, "fusion_lat": 0.0, "name": "4dc1afe6410a2980e01870222428dc27", "fusion_lon": 0.0}, {"is_reserved": 0, "type": "electric_scooter", "bike_id": "7bb65b6ca56132fede0cce02ceacd62d", "lat": 38.90839916666667, "lon": -77.002736, "rental_uris": {"android": "https://dc.lft.to/lastmile_qr_scan", "ios": "https://dc.lft.to/lastmile_qr_scan"}, "is_disabled": 0, "fusion_lat": 0.0, "name": "7bb65b6ca56132fede0cce02ceacd62d", "fusion_lon": 0.0}, {"is_reserved": 0, "type": "electric_scooter", "bike_id": "187771d110c4d2feadaf55565e1bacc0", "lat": 38.92088583333334, "lon": -77.0718405, "rental_uris": {"android": "https://dc.lft.to/lastmile_qr_scan", "ios": "https://dc.lft.to/lastmile_qr_scan"}, "is_disabled": 0, "fusion_lat": 0.0, "name": "187771d110c4d2feadaf55565e1bacc0", "fusion_lon": 0.0}, {"is_reserved": 0, "type": "electric_scooter", "bike_id": "73e3105dcdffc38b3b7db30cc2118205", "lat": 38.926993333333336, "lon": -77.029605, "rental_uris": {"android": "https://dc.lft.to/lastmile_qr_scan", "ios": "https://dc.lft.to/lastmile_qr_scan"}, "is_disabled": 0, "fusion_lat": 0.0, "name": "73e3105dcdffc38b3b7db30cc2118205", "fusion_lon": 0.0}, {"is_reserved": 0, "type": "electric_scooter", "bike_id": "c91a49d0a772760fb6328c9b6dfcb08d", "lat": 38.865760333333334, "lon": -76.9903255, "rental_uris": {"android": "https://dc.lft.to/lastmile_qr_scan", "ios": "https://dc.lft.to/lastmile_qr_scan"}, "is_disabled": 0, "fusion_lat": 0.0, "name": "c91a49d0a772760fb6328c9b6dfcb08d", "fusion_lon": 0.0}, {"is_reserved": 0, "type": "electric_scooter", "bike_id": "82f4d97240faaa3a4121c32cfcba407c", "lat": 38.897257333333336, "lon": -77.021682, "rental_uris": {"android": "https://dc.lft.to/lastmile_qr_scan", "ios": "https://dc.lft.to/lastmile_qr_scan"}, "is_disabled": 0, "fusion_lat": 0.0, "name": "82f4d97240faaa3a4121c32cfcba407c", "fusion_lon": 0.0}, {"is_reserved": 0, "type": "electric_scooter", "bike_id": "77253a114b101cfa234a354c95fe88b7", "lat": 38.897281166666666, "lon": -77.02366716666667, "rental_uris": {"android": "https://dc.lft.to/lastmile_qr_scan", "ios": "https://dc.lft.to/lastmile_qr_scan"}, "is_disabled": 0, "fusion_lat": 0.0, "name": "77253a114b101cfa234a354c95fe88b7", "fusion_lon": 0.0}, {"is_reserved": 0, "type": "electric_scooter", "bike_id": "53d13b0775087700db7e502d6cd41c18", "lat": 38.920811, "lon": -77.07699816666667, "rental_uris": {"android": "https://dc.lft.to/lastmile_qr_scan", "ios": "https://dc.lft.to/lastmile_qr_scan"}, "is_disabled": 0, "fusion_lat": 0.0, "name": "53d13b0775087700db7e502d6cd41c18", "fusion_lon": 0.0}, {"is_reserved": 0, "type": "electric_scooter", "bike_id": "7e27395b0a016db032a3d9260ff4240b", "lat": 38.92650916666667, "lon": -77.040615, "rental_uris": {"android": "https://dc.lft.to/lastmile_qr_scan", "ios": "https://dc.lft.to/lastmile_qr_scan"}, "is_disabled": 0, "fusion_lat": 0.0, "name": "7e27395b0a016db032a3d9260ff4240b", "fusion_lon": 0.0}, {"is_reserved": 0, "type": "electric_scooter", "bike_id": "22370217a804cd933c92408dac0549fd", "lat": 38.92151966666667, "lon": -77.03870766666667, "rental_uris": {"android": "https://dc.lft.to/lastmile_qr_scan", "ios": "https://dc.lft.to/lastmile_qr_scan"}, "is_disabled": 0, "fusion_lat": 0.0, "name": "22370217a804cd933c92408dac0549fd", "fusion_lon": 0.0}, {"is_reserved": 0, "type": "electric_scooter", "bike_id": "37ca5afb606b9423a96d34986323de2c", "lat": 38.89379783333333, "lon": -76.9781995, "rental_uris": {"android": "https://dc.lft.to/lastmile_qr_scan", "ios": "https://dc.lft.to/lastmile_qr_scan"}, "is_disabled": 0, "fusion_lat": 0.0, "name": "37ca5afb606b9423a96d34986323de2c", "fusion_lon": 0.0}, {"is_reserved": 0, "type": "electric_scooter", "bike_id": "cd796283a4b72341b3fc926bc5447c3d", "lat": 38.918775, "lon": -77.04309983333333, "rental_uris": {"android": "https://dc.lft.to/lastmile_qr_scan", "ios": "https://dc.lft.to/lastmile_qr_scan"}, "is_disabled": 0, "fusion_lat": 0.0, "name": "cd796283a4b72341b3fc926bc5447c3d", "fusion_lon": 0.0}, {"is_reserved": 0, "type": "electric_scooter", "bike_id": "675457eebd2968f2ebb5dc3fd7fd1c14", "lat": 38.90425333333334, "lon": -77.0483435, "rental_uris": {"android": "https://dc.lft.to/lastmile_qr_scan", "ios": "https://dc.lft.to/lastmile_qr_scan"}, "is_disabled": 0, "fusion_lat": 0.0, "name": "675457eebd2968f2ebb5dc3fd7fd1c14", "fusion_lon": 0.0}, {"is_reserved": 0, "type": "electric_scooter", "bike_id": "8e2852285ee7574c7cc5c664537dea37", "lat": 38.874711, "lon": -77.003332, "rental_uris": {"android": "https://dc.lft.to/lastmile_qr_scan", "ios": "https://dc.lft.to/lastmile_qr_scan"}, "is_disabled": 0, "fusion_lat": 0.0, "name": "8e2852285ee7574c7cc5c664537dea37", "fusion_lon": 0.0}, {"is_reserved": 0, "type": "electric_scooter", "bike_id": "da684348ba928f7a2ff1fee5e4d01106", "lat": 38.891938333333336, "lon": -77.02230316666666, "rental_uris": {"android": "https://dc.lft.to/lastmile_qr_scan", "ios": "https://dc.lft.to/lastmile_qr_scan"}, "is_disabled": 0, "fusion_lat": 0.0, "name": "da684348ba928f7a2ff1fee5e4d01106", "fusion_lon": 0.0}, {"is_reserved": 0, "type": "electric_scooter", "bike_id": "d17f4ed36ade29e56c24ae0e0dde5618", "lat": 38.892198666666665, "lon": -77.043652, "rental_uris": {"android": "https://dc.lft.to/lastmile_qr_scan", "ios": "https://dc.lft.to/lastmile_qr_scan"}, "is_disabled": 0, "fusion_lat": 0.0, "name": "d17f4ed36ade29e56c24ae0e0dde5618", "fusion_lon": 0.0}, {"is_reserved": 0, "type": "electric_scooter", "bike_id": "b6088adf0b50ce454455bc2844ec15d0", "lat": 38.922075166666666, "lon": -77.02035083333334, "rental_uris": {"android": "https://dc.lft.to/lastmile_qr_scan", "ios": "https://dc.lft.to/lastmile_qr_scan"}, "is_disabled": 0, "fusion_lat": 0.0, "name": "b6088adf0b50ce454455bc2844ec15d0", "fusion_lon": 0.0}, {"is_reserved": 0, "type": "electric_scooter", "bike_id": "4498492ca72bca7154e18f1e72796259", "lat": 38.89775733333333, "lon": -77.0477775, "rental_uris": {"android": "https://dc.lft.to/lastmile_qr_scan", "ios": "https://dc.lft.to/lastmile_qr_scan"}, "is_disabled": 0, "fusion_lat": 0.0, "name": "4498492ca72bca7154e18f1e72796259", "fusion_lon": 0.0}, {"is_reserved": 0, "type": "electric_scooter", "bike_id": "27d126d5f48f99b5b681de4fd417173c", "lat": 38.911765333333335, "lon": -77.00254216666667, "rental_uris": {"android": "https://dc.lft.to/lastmile_qr_scan", "ios": "https://dc.lft.to/lastmile_qr_scan"}, "is_disabled": 0, "fusion_lat": 0.0, "name": "27d126d5f48f99b5b681de4fd417173c", "fusion_lon": 0.0}, {"is_reserved": 0, "type": "electric_scooter", "bike_id": "43b7ccf0aa0774244a27db6b9658fe08", "lat": 38.918781, "lon": -77.04312966666667, "rental_uris": {"android": "https://dc.lft.to/lastmile_qr_scan", "ios": "https://dc.lft.to/lastmile_qr_scan"}, "is_disabled": 0, "fusion_lat": 0.0, "name": "43b7ccf0aa0774244a27db6b9658fe08", "fusion_lon": 0.0}, {"is_reserved": 0, "type": "electric_scooter", "bike_id": "b6a28ead6ff6748ef0777f29031511c9", "lat": 38.91014416666667, "lon": -76.993739, "rental_uris": {"android": "https://dc.lft.to/lastmile_qr_scan", "ios": "https://dc.lft.to/lastmile_qr_scan"}, "is_disabled": 0, "fusion_lat": 0.0, "name": "b6a28ead6ff6748ef0777f29031511c9", "fusion_lon": 0.0}, {"is_reserved": 0, "type": "electric_scooter", "bike_id": "dbcfc3ae7be1d0d61614678a51732cd1", "lat": 38.905407333333336, "lon": -77.05698216666667, "rental_uris": {"android": "https://dc.lft.to/lastmile_qr_scan", "ios": "https://dc.lft.to/lastmile_qr_scan"}, "is_disabled": 0, "fusion_lat": 0.0, "name": "dbcfc3ae7be1d0d61614678a51732cd1", "fusion_lon": 0.0}, {"is_reserved": 0, "type": "electric_scooter", "bike_id": "e6dd68c44136b1461127c201141e01a8", "lat": 38.9074845, "lon": -77.03442766666667, "rental_uris": {"android": "https://dc.lft.to/lastmile_qr_scan", "ios": "https://dc.lft.to/lastmile_qr_scan"}, "is_disabled": 0, "fusion_lat": 0.0, "name": "e6dd68c44136b1461127c201141e01a8", "fusion_lon": 0.0}, {"is_reserved": 0, "type": "electric_scooter", "bike_id": "3d36fe341805e41095520184dcf757e1", "lat": 38.90038783333333, "lon": -76.9915595, "rental_uris": {"android": "https://dc.lft.to/lastmile_qr_scan", "ios": "https://dc.lft.to/lastmile_qr_scan"}, "is_disabled": 0, "fusion_lat": 0.0, "name": "3d36fe341805e41095520184dcf757e1", "fusion_lon": 0.0}, {"is_reserved": 0, "type": "electric_bike", "bike_id": "fcda80801a64f9a3bf78706d40bc191b", "lat": 38.999344, "lon": -77.051364, "rental_uris": {"android": "https://dc.lft.to/lastmile_qr_scan", "ios": "https://dc.lft.to/lastmile_qr_scan"}, "is_disabled": 0, "fusion_lat": 0.0, "name": "fcda80801a64f9a3bf78706d40bc191b", "fusion_lon": 0.0}, {"is_reserved": 0, "type": "electric_scooter", "bike_id": "97dafdbec4289b029b85a3292d2e9878", "lat": 38.923483166666664, "lon": -77.01896483333333, "rental_uris": {"android": "https://dc.lft.to/lastmile_qr_scan", "ios": "https://dc.lft.to/lastmile_qr_scan"}, "is_disabled": 0, "fusion_lat": 0.0, "name": "97dafdbec4289b029b85a3292d2e9878", "fusion_lon": 0.0}, {"is_reserved": 0, "type": "electric_scooter", "bike_id": "99e3afea3e8f4f4a433b58338289eddd", "lat": 38.89834116666667, "lon": -77.013028, "rental_uris": {"android": "https://dc.lft.to/lastmile_qr_scan", "ios": "https://dc.lft.to/lastmile_qr_scan"}, "is_disabled": 0, "fusion_lat": 0.0, "name": "99e3afea3e8f4f4a433b58338289eddd", "fusion_lon": 0.0}, {"is_reserved": 0, "type": "electric_scooter", "bike_id": "307e7d4f942add03c9e6cc8d5e441fc7", "lat": 38.906287666666664, "lon": -77.03148083333333, "rental_uris": {"android": "https://dc.lft.to/lastmile_qr_scan", "ios": "https://dc.lft.to/lastmile_qr_scan"}, "is_disabled": 0, "fusion_lat": 0.0, "name": "307e7d4f942add03c9e6cc8d5e441fc7", "fusion_lon": 0.0}, {"is_reserved": 0, "type": "electric_scooter", "bike_id": "a04d81db9d9baffcce98792737451f9a", "lat": 38.918890833333336, "lon": -77.03458366666666, "rental_uris": {"android": "https://dc.lft.to/lastmile_qr_scan", "ios": "https://dc.lft.to/lastmile_qr_scan"}, "is_disabled": 0, "fusion_lat": 0.0, "name": "a04d81db9d9baffcce98792737451f9a", "fusion_lon": 0.0}, {"is_reserved": 0, "type": "electric_scooter", "bike_id": "872896631fca3d433bbc2974609459ca", "lat": 38.874721666666666, "lon": -77.0032955, "rental_uris": {"android": "https://dc.lft.to/lastmile_qr_scan", "ios": "https://dc.lft.to/lastmile_qr_scan"}, "is_disabled": 0, "fusion_lat": 0.0, "name": "872896631fca3d433bbc2974609459ca", "fusion_lon": 0.0}, {"is_reserved": 0, "type": "electric_scooter", "bike_id": "7d456a69a1b4601857b67ef7cddf3b9a", "lat": 38.91106966666667, "lon": -77.04972183333334, "rental_uris": {"android": "https://dc.lft.to/lastmile_qr_scan", "ios": "https://dc.lft.to/lastmile_qr_scan"}, "is_disabled": 0, "fusion_lat": 0.0, "name": "7d456a69a1b4601857b67ef7cddf3b9a", "fusion_lon": 0.0}, {"is_reserved": 0, "type": "electric_scooter", "bike_id": "68694f87dd68feaf2e4872b435b9a449", "lat": 38.892184, "lon": -77.0436565, "rental_uris": {"android": "https://dc.lft.to/lastmile_qr_scan", "ios": "https://dc.lft.to/lastmile_qr_scan"}, "is_disabled": 0, "fusion_lat": 0.0, "name": "68694f87dd68feaf2e4872b435b9a449", "fusion_lon": 0.0}, {"is_reserved": 0, "type": "electric_bike", "bike_id": "b7e7561c4f246a48db273cdb2f698f28", "lat": 38.97260983333334, "lon": -77.14972166666666, "rental_uris": {"android": "https://dc.lft.to/lastmile_qr_scan", "ios": "https://dc.lft.to/lastmile_qr_scan"}, "is_disabled": 0, "fusion_lat": 0.0, "name": "b7e7561c4f246a48db273cdb2f698f28", "fusion_lon": 0.0}, {"is_reserved": 0, "type": "electric_scooter", "bike_id": "a08ece22148024a9b2b0f988df65f786", "lat": 38.89736966666667, "lon": -77.04423333333334, "rental_uris": {"android": "https://dc.lft.to/lastmile_qr_scan", "ios": "https://dc.lft.to/lastmile_qr_scan"}, "is_disabled": 0, "fusion_lat": 0.0, "name": "a08ece22148024a9b2b0f988df65f786", "fusion_lon": 0.0}, {"is_reserved": 0, "type": "electric_scooter", "bike_id": "952b2228a8d6e288fa0dac9de0966c7e", "lat": 38.915782, "lon": -77.0122915, "rental_uris": {"android": "https://dc.lft.to/lastmile_qr_scan", "ios": "https://dc.lft.to/lastmile_qr_scan"}, "is_disabled": 0, "fusion_lat": 0.0, "name": "952b2228a8d6e288fa0dac9de0966c7e", "fusion_lon": 0.0}, {"is_reserved": 0, "type": "electric_scooter", "bike_id": "bd843b9a02a390b43c5ba2e5e535c186", "lat": 38.924410333333334, "lon": -77.02020883333333, "rental_uris": {"android": "https://dc.lft.to/lastmile_qr_scan", "ios": "https://dc.lft.to/lastmile_qr_scan"}, "is_disabled": 0, "fusion_lat": 0.0, "name": "bd843b9a02a390b43c5ba2e5e535c186", "fusion_lon": 0.0}, {"is_reserved": 0, "type": "electric_scooter", "bike_id": "3df86e5b201e449d7e6b48b057503e49", "lat": 38.84323, "lon": -76.997371, "rental_uris": {"android": "https://dc.lft.to/lastmile_qr_scan", "ios": "https://dc.lft.to/lastmile_qr_scan"}, "is_disabled": 0, "fusion_lat": 0.0, "name": "3df86e5b201e449d7e6b48b057503e49", "fusion_lon": 0.0}, {"is_reserved": 0, "type": "electric_scooter", "bike_id": "7ef1944d4cd0ed9681ecde2e4724a14c", "lat": 38.92543466666667, "lon": -77.03368783333333, "rental_uris": {"android": "https://dc.lft.to/lastmile_qr_scan", "ios": "https://dc.lft.to/lastmile_qr_scan"}, "is_disabled": 0, "fusion_lat": 0.0, "name": "7ef1944d4cd0ed9681ecde2e4724a14c", "fusion_lon": 0.0}, {"is_reserved": 0, "type": "electric_scooter", "bike_id": "62f1579800abfbb3dabc2cc45c53008a", "lat": 38.91916066666667, "lon": -77.034297, "rental_uris": {"android": "https://dc.lft.to/lastmile_qr_scan", "ios": "https://dc.lft.to/lastmile_qr_scan"}, "is_disabled": 0, "fusion_lat": 0.0, "name": "62f1579800abfbb3dabc2cc45c53008a", "fusion_lon": 0.0}, {"is_reserved": 0, "type": "electric_scooter", "bike_id": "da5cb8743cc8986c3c6b6dcd9e9ab9a5", "lat": 38.90524883333333, "lon": -77.06787633333333, "rental_uris": {"android": "https://dc.lft.to/lastmile_qr_scan", "ios": "https://dc.lft.to/lastmile_qr_scan"}, "is_disabled": 0, "fusion_lat": 0.0, "name": "da5cb8743cc8986c3c6b6dcd9e9ab9a5", "fusion_lon": 0.0}, {"is_reserved": 0, "type": "electric_scooter", "bike_id": "dc1e6e81a84ff7d6b686249b1d233f3a", "lat": 38.936586166666665, "lon": -77.03652133333334, "rental_uris": {"android": "https://dc.lft.to/lastmile_qr_scan", "ios": "https://dc.lft.to/lastmile_qr_scan"}, "is_disabled": 0, "fusion_lat": 0.0, "name": "dc1e6e81a84ff7d6b686249b1d233f3a", "fusion_lon": 0.0}, {"is_reserved": 0, "type": "electric_scooter", "bike_id": "1c10865080b1769a2a03f839fad946d5", "lat": 38.92757616666667, "lon": -77.0279, "rental_uris": {"android": "https://dc.lft.to/lastmile_qr_scan", "ios": "https://dc.lft.to/lastmile_qr_scan"}, "is_disabled": 0, "fusion_lat": 0.0, "name": "1c10865080b1769a2a03f839fad946d5", "fusion_lon": 0.0}, {"is_reserved": 0, "type": "electric_scooter", "bike_id": "7255abd6981920aa874661de4405b622", "lat": 38.918468833333336, "lon": -77.04519816666667, "rental_uris": {"android": "https://dc.lft.to/lastmile_qr_scan", "ios": "https://dc.lft.to/lastmile_qr_scan"}, "is_disabled": 0, "fusion_lat": 0.0, "name": "7255abd6981920aa874661de4405b622", "fusion_lon": 0.0}, {"is_reserved": 0, "type": "electric_scooter", "bike_id": "2be3e6e0b015c13cf4acc6bee4988205", "lat": 38.92187883333333, "lon": -76.99625633333333, "rental_uris": {"android": "https://dc.lft.to/lastmile_qr_scan", "ios": "https://dc.lft.to/lastmile_qr_scan"}, "is_disabled": 0, "fusion_lat": 0.0, "name": "2be3e6e0b015c13cf4acc6bee4988205", "fusion_lon": 0.0}, {"is_reserved": 0, "type": "electric_scooter", "bike_id": "9b1061695727f630fc9e7dd5d2633085", "lat": 38.905636666666666, "lon": -77.02653833333333, "rental_uris": {"android": "https://dc.lft.to/lastmile_qr_scan", "ios": "https://dc.lft.to/lastmile_qr_scan"}, "is_disabled": 0, "fusion_lat": 0.0, "name": "9b1061695727f630fc9e7dd5d2633085", "fusion_lon": 0.0}, {"is_reserved": 0, "type": "electric_scooter", "bike_id": "5b772cc39804803b91f37f6f8481dd06", "lat": 38.91281516666667, "lon": -77.047399, "rental_uris": {"android": "https://dc.lft.to/lastmile_qr_scan", "ios": "https://dc.lft.to/lastmile_qr_scan"}, "is_disabled": 0, "fusion_lat": 0.0, "name": "5b772cc39804803b91f37f6f8481dd06", "fusion_lon": 0.0}, {"is_reserved": 0, "type": "electric_scooter", "bike_id": "c3446009b26b88d8f9e9b3a60a23b725", "lat": 38.905479166666666, "lon": -77.04155666666666, "rental_uris": {"android": "https://dc.lft.to/lastmile_qr_scan", "ios": "https://dc.lft.to/lastmile_qr_scan"}, "is_disabled": 0, "fusion_lat": 0.0, "name": "c3446009b26b88d8f9e9b3a60a23b725", "fusion_lon": 0.0}, {"is_reserved": 0, "type": "electric_scooter", "bike_id": "109c663b332342dee8f514ea24071513", "lat": 38.916897, "lon": -77.025735, "rental_uris": {"android": "https://dc.lft.to/lastmile_qr_scan", "ios": "https://dc.lft.to/lastmile_qr_scan"}, "is_disabled": 0, "fusion_lat": 0.0, "name": "109c663b332342dee8f514ea24071513", "fusion_lon": 0.0}, {"is_reserved": 0, "type": "electric_scooter", "bike_id": "079b5abbec29b38cb8ecfa5f12148b6b", "lat": 38.892276, "lon": -77.04901016666666, "rental_uris": {"android": "https://dc.lft.to/lastmile_qr_scan", "ios": "https://dc.lft.to/lastmile_qr_scan"}, "is_disabled": 0, "fusion_lat": 0.0, "name": "079b5abbec29b38cb8ecfa5f12148b6b", "fusion_lon": 0.0}, {"is_reserved": 0, "type": "electric_bike", "bike_id": "eb605c74385a00122134382a8d537cf4", "lat": 38.84939166666667, "lon": -77.117538, "rental_uris": {"android": "https://dc.lft.to/lastmile_qr_scan", "ios": "https://dc.lft.to/lastmile_qr_scan"}, "is_disabled": 0, "fusion_lat": 0.0, "name": "eb605c74385a00122134382a8d537cf4", "fusion_lon": 0.0}, {"is_reserved": 0, "type": "electric_scooter", "bike_id": "907ff85287c1d3bb76a556ae523b49a4", "lat": 38.933078333333334, "lon": -77.038738, "rental_uris": {"android": "https://dc.lft.to/lastmile_qr_scan", "ios": "https://dc.lft.to/lastmile_qr_scan"}, "is_disabled": 0, "fusion_lat": 0.0, "name": "907ff85287c1d3bb76a556ae523b49a4", "fusion_lon": 0.0}, {"is_reserved": 0, "type": "electric_scooter", "bike_id": "37e87f3fc130e115dd57a90d8eeb6e84", "lat": 38.899512, "lon": -77.02640733333334, "rental_uris": {"android": "https://dc.lft.to/lastmile_qr_scan", "ios": "https://dc.lft.to/lastmile_qr_scan"}, "is_disabled": 0, "fusion_lat": 0.0, "name": "37e87f3fc130e115dd57a90d8eeb6e84", "fusion_lon": 0.0}, {"is_reserved": 0, "type": "electric_scooter", "bike_id": "52a9bd630994fa0c582919c796062f63", "lat": 38.920240166666666, "lon": -77.01738983333334, "rental_uris": {"android": "https://dc.lft.to/lastmile_qr_scan", "ios": "https://dc.lft.to/lastmile_qr_scan"}, "is_disabled": 0, "fusion_lat": 0.0, "name": "52a9bd630994fa0c582919c796062f63", "fusion_lon": 0.0}, {"is_reserved": 0, "type": "electric_scooter", "bike_id": "957ffe13df9a40196c6806205430c1b4", "lat": 38.905606, "lon": -76.98145733333334, "rental_uris": {"android": "https://dc.lft.to/lastmile_qr_scan", "ios": "https://dc.lft.to/lastmile_qr_scan"}, "is_disabled": 0, "fusion_lat": 0.0, "name": "957ffe13df9a40196c6806205430c1b4", "fusion_lon": 0.0}, {"is_reserved": 0, "type": "electric_scooter", "bike_id": "ecab85d67018d121abe6f7c97dcd5312", "lat": 38.93128333333333, "lon": -77.023064, "rental_uris": {"android": "https://dc.lft.to/lastmile_qr_scan", "ios": "https://dc.lft.to/lastmile_qr_scan"}, "is_disabled": 0, "fusion_lat": 0.0, "name": "ecab85d67018d121abe6f7c97dcd5312", "fusion_lon": 0.0}, {"is_reserved": 0, "type": "electric_scooter", "bike_id": "1394b7bc5db5835484ee0ad9f1d70077", "lat": 38.960262166666666, "lon": -77.07158266666667, "rental_uris": {"android": "https://dc.lft.to/lastmile_qr_scan", "ios": "https://dc.lft.to/lastmile_qr_scan"}, "is_disabled": 0, "fusion_lat": 0.0, "name": "1394b7bc5db5835484ee0ad9f1d70077", "fusion_lon": 0.0}, {"is_reserved": 0, "type": "electric_scooter", "bike_id": "8e89b9b72776d643217de5008a295d0d", "lat": 38.903924833333335, "lon": -77.01623883333333, "rental_uris": {"android": "https://dc.lft.to/lastmile_qr_scan", "ios": "https://dc.lft.to/lastmile_qr_scan"}, "is_disabled": 0, "fusion_lat": 0.0, "name": "8e89b9b72776d643217de5008a295d0d", "fusion_lon": 0.0}, {"is_reserved": 0, "type": "electric_scooter", "bike_id": "10dad1c9416ca5a4a0368eef8d6cb352", "lat": 38.92332183333333, "lon": -77.05671333333333, "rental_uris": {"android": "https://dc.lft.to/lastmile_qr_scan", "ios": "https://dc.lft.to/lastmile_qr_scan"}, "is_disabled": 0, "fusion_lat": 0.0, "name": "10dad1c9416ca5a4a0368eef8d6cb352", "fusion_lon": 0.0}, {"is_reserved": 0, "type": "electric_bike", "bike_id": "a302ffa4653180b00e67b29f0258ea05", "lat": 38.8362825, "lon": -77.00284116666667, "rental_uris": {"android": "https://dc.lft.to/lastmile_qr_scan", "ios": "https://dc.lft.to/lastmile_qr_scan"}, "is_disabled": 0, "fusion_lat": 0.0, "name": "a302ffa4653180b00e67b29f0258ea05", "fusion_lon": 0.0}, {"is_reserved": 0, "type": "electric_scooter", "bike_id": "3dd88efac2d20cd69fe81b1d619f0a29", "lat": 38.93354266666667, "lon": -77.03426683333333, "rental_uris": {"android": "https://dc.lft.to/lastmile_qr_scan", "ios": "https://dc.lft.to/lastmile_qr_scan"}, "is_disabled": 0, "fusion_lat": 0.0, "name": "3dd88efac2d20cd69fe81b1d619f0a29", "fusion_lon": 0.0}, {"is_reserved": 0, "type": "electric_scooter", "bike_id": "73918d8ee58c63925de7f5208af1f1e9", "lat": 38.89805333333334, "lon": -77.02382783333333, "rental_uris": {"android": "https://dc.lft.to/lastmile_qr_scan", "ios": "https://dc.lft.to/lastmile_qr_scan"}, "is_disabled": 0, "fusion_lat": 0.0, "name": "73918d8ee58c63925de7f5208af1f1e9", "fusion_lon": 0.0}, {"is_reserved": 0, "type": "electric_scooter", "bike_id": "5c9d1a052c3a36a9eee0b0bb97d7c201", "lat": 38.90537066666667, "lon": -77.00600933333334, "rental_uris": {"android": "https://dc.lft.to/lastmile_qr_scan", "ios": "https://dc.lft.to/lastmile_qr_scan"}, "is_disabled": 0, "fusion_lat": 0.0, "name": "5c9d1a052c3a36a9eee0b0bb97d7c201", "fusion_lon": 0.0}, {"is_reserved": 0, "type": "electric_scooter", "bike_id": "0966d4ef8aa4c7dbb39ac3b32003e9ea", "lat": 38.919186333333336, "lon": -77.0480575, "rental_uris": {"android": "https://dc.lft.to/lastmile_qr_scan", "ios": "https://dc.lft.to/lastmile_qr_scan"}, "is_disabled": 0, "fusion_lat": 0.0, "name": "0966d4ef8aa4c7dbb39ac3b32003e9ea", "fusion_lon": 0.0}, {"is_reserved": 0, "type": "electric_bike", "bike_id": "9aefcebc6bf24fd404625861f2b388bf", "lat": 38.944699, "lon": -76.98689433333334, "rental_uris": {"android": "https://dc.lft.to/lastmile_qr_scan", "ios": "https://dc.lft.to/lastmile_qr_scan"}, "is_disabled": 0, "fusion_lat": 0.0, "name": "9aefcebc6bf24fd404625861f2b388bf", "fusion_lon": 0.0}, {"is_reserved": 0, "type": "electric_scooter", "bike_id": "8a76b5d8c975aac9c7cd31bbac67e06f", "lat": 38.8927115, "lon": -76.95256916666666, "rental_uris": {"android": "https://dc.lft.to/lastmile_qr_scan", "ios": "https://dc.lft.to/lastmile_qr_scan"}, "is_disabled": 0, "fusion_lat": 0.0, "name": "8a76b5d8c975aac9c7cd31bbac67e06f", "fusion_lon": 0.0}, {"is_reserved": 0, "type": "electric_scooter", "bike_id": "21c76422b9a948740cc10da0128635ef", "lat": 38.92015083333333, "lon": -77.0295465, "rental_uris": {"android": "https://dc.lft.to/lastmile_qr_scan", "ios": "https://dc.lft.to/lastmile_qr_scan"}, "is_disabled": 0, "fusion_lat": 0.0, "name": "21c76422b9a948740cc10da0128635ef", "fusion_lon": 0.0}, {"is_reserved": 0, "type": "electric_scooter", "bike_id": "fe4dc02db9f1b166eec5fa9678d2d49c", "lat": 38.89607783333334, "lon": -77.04704016666666, "rental_uris": {"android": "https://dc.lft.to/lastmile_qr_scan", "ios": "https://dc.lft.to/lastmile_qr_scan"}, "is_disabled": 0, "fusion_lat": 0.0, "name": "fe4dc02db9f1b166eec5fa9678d2d49c", "fusion_lon": 0.0}, {"is_reserved": 0, "type": "electric_scooter", "bike_id": "821066a07b3dd3f9351f9c02d28ed712", "lat": 38.91987783333333, "lon": -77.03320066666667, "rental_uris": {"android": "https://dc.lft.to/lastmile_qr_scan", "ios": "https://dc.lft.to/lastmile_qr_scan"}, "is_disabled": 0, "fusion_lat": 0.0, "name": "821066a07b3dd3f9351f9c02d28ed712", "fusion_lon": 0.0}, {"is_reserved": 0, "type": "electric_scooter", "bike_id": "1006e51c0bcb91dc90807585cbb05e36", "lat": 38.895972666666665, "lon": -77.02590133333334, "rental_uris": {"android": "https://dc.lft.to/lastmile_qr_scan", "ios": "https://dc.lft.to/lastmile_qr_scan"}, "is_disabled": 0, "fusion_lat": 0.0, "name": "1006e51c0bcb91dc90807585cbb05e36", "fusion_lon": 0.0}, {"is_reserved": 0, "type": "electric_scooter", "bike_id": "2dd9cffeb65330348ad05a4168529463", "lat": 38.8862825, "lon": -77.0153895, "rental_uris": {"android": "https://dc.lft.to/lastmile_qr_scan", "ios": "https://dc.lft.to/lastmile_qr_scan"}, "is_disabled": 0, "fusion_lat": 0.0, "name": "2dd9cffeb65330348ad05a4168529463", "fusion_lon": 0.0}, {"is_reserved": 0, "type": "electric_scooter", "bike_id": "7ba8552fa399ce927258756c173adabe", "lat": 38.91813416666667, "lon": -77.03171283333333, "rental_uris": {"android": "https://dc.lft.to/lastmile_qr_scan", "ios": "https://dc.lft.to/lastmile_qr_scan"}, "is_disabled": 0, "fusion_lat": 0.0, "name": "7ba8552fa399ce927258756c173adabe", "fusion_lon": 0.0}, {"is_reserved": 0, "type": "electric_scooter", "bike_id": "1dc271c06707efec724a416147dbd503", "lat": 38.9082855, "lon": -76.98718016666666, "rental_uris": {"android": "https://dc.lft.to/lastmile_qr_scan", "ios": "https://dc.lft.to/lastmile_qr_scan"}, "is_disabled": 0, "fusion_lat": 0.0, "name": "1dc271c06707efec724a416147dbd503", "fusion_lon": 0.0}, {"is_reserved": 0, "type": "electric_scooter", "bike_id": "13e7879d45fb7058de1933700666cf90", "lat": 38.926068666666666, "lon": -77.0518055, "rental_uris": {"android": "https://dc.lft.to/lastmile_qr_scan", "ios": "https://dc.lft.to/lastmile_qr_scan"}, "is_disabled": 0, "fusion_lat": 0.0, "name": "13e7879d45fb7058de1933700666cf90", "fusion_lon": 0.0}, {"is_reserved": 0, "type": "electric_scooter", "bike_id": "6287d5b381ff87b35782a4564b57bf45", "lat": 38.88505766666667, "lon": -77.01116633333334, "rental_uris": {"android": "https://dc.lft.to/lastmile_qr_scan", "ios": "https://dc.lft.to/lastmile_qr_scan"}, "is_disabled": 0, "fusion_lat": 0.0, "name": "6287d5b381ff87b35782a4564b57bf45", "fusion_lon": 0.0}, {"is_reserved": 0, "type": "electric_scooter", "bike_id": "f71b51e718a579c9f906fa96ecb6e3dc", "lat": 38.90581016666667, "lon": -77.0060515, "rental_uris": {"android": "https://dc.lft.to/lastmile_qr_scan", "ios": "https://dc.lft.to/lastmile_qr_scan"}, "is_disabled": 0, "fusion_lat": 0.0, "name": "f71b51e718a579c9f906fa96ecb6e3dc", "fusion_lon": 0.0}, {"is_reserved": 0, "type": "electric_bike", "bike_id": "59494a8c00422a96fe5067281ff66be6", "lat": 38.9910195, "lon": -76.88153466666667, "rental_uris": {"android": "https://dc.lft.to/lastmile_qr_scan", "ios": "https://dc.lft.to/lastmile_qr_scan"}, "is_disabled": 0, "fusion_lat": 0.0, "name": "59494a8c00422a96fe5067281ff66be6", "fusion_lon": 0.0}, {"is_reserved": 0, "type": "electric_bike", "bike_id": "f196d856d32bdc01a07a709726d994de", "lat": 38.84327116666667, "lon": -76.99745483333334, "rental_uris": {"android": "https://dc.lft.to/lastmile_qr_scan", "ios": "https://dc.lft.to/lastmile_qr_scan"}, "is_disabled": 0, "fusion_lat": 0.0, "name": "f196d856d32bdc01a07a709726d994de", "fusion_lon": 0.0}, {"is_reserved": 0, "type": "electric_scooter", "bike_id": "042feca0b10506da753a5559354af0f2", "lat": 38.8860115, "lon": -77.004047, "rental_uris": {"android": "https://dc.lft.to/lastmile_qr_scan", "ios": "https://dc.lft.to/lastmile_qr_scan"}, "is_disabled": 0, "fusion_lat": 0.0, "name": "042feca0b10506da753a5559354af0f2", "fusion_lon": 0.0}, {"is_reserved": 0, "type": "electric_scooter", "bike_id": "14dfa19640b3a331b0f9d9736ec218f0", "lat": 38.941980666666666, "lon": -77.025176, "rental_uris": {"android": "https://dc.lft.to/lastmile_qr_scan", "ios": "https://dc.lft.to/lastmile_qr_scan"}, "is_disabled": 0, "fusion_lat": 0.0, "name": "14dfa19640b3a331b0f9d9736ec218f0", "fusion_lon": 0.0}, {"is_reserved": 0, "type": "electric_scooter", "bike_id": "8d3a067bf080e624d492dc1724c83073", "lat": 38.924041, "lon": -77.0355125, "rental_uris": {"android": "https://dc.lft.to/lastmile_qr_scan", "ios": "https://dc.lft.to/lastmile_qr_scan"}, "is_disabled": 0, "fusion_lat": 0.0, "name": "8d3a067bf080e624d492dc1724c83073", "fusion_lon": 0.0}, {"is_reserved": 0, "type": "electric_scooter", "bike_id": "c179a008dcefdcd01a6fcc867909cfa5", "lat": 38.920034, "lon": -76.98504666666666, "rental_uris": {"android": "https://dc.lft.to/lastmile_qr_scan", "ios": "https://dc.lft.to/lastmile_qr_scan"}, "is_disabled": 0, "fusion_lat": 0.0, "name": "c179a008dcefdcd01a6fcc867909cfa5", "fusion_lon": 0.0}, {"is_reserved": 0, "type": "electric_scooter", "bike_id": "716e4ef6ba67585f740b08585edcf3ca", "lat": 38.91571283333333, "lon": -77.0199605, "rental_uris": {"android": "https://dc.lft.to/lastmile_qr_scan", "ios": "https://dc.lft.to/lastmile_qr_scan"}, "is_disabled": 0, "fusion_lat": 0.0, "name": "716e4ef6ba67585f740b08585edcf3ca", "fusion_lon": 0.0}, {"is_reserved": 0, "type": "electric_scooter", "bike_id": "bcceec32aa0adbd3747cc84a96281425", "lat": 38.930992, "lon": -77.02481583333334, "rental_uris": {"android": "https://dc.lft.to/lastmile_qr_scan", "ios": "https://dc.lft.to/lastmile_qr_scan"}, "is_disabled": 0, "fusion_lat": 0.0, "name": "bcceec32aa0adbd3747cc84a96281425", "fusion_lon": 0.0}, {"is_reserved": 0, "type": "electric_scooter", "bike_id": "ba7f75971d7b81bfeccbceb34cda882a", "lat": 38.91094533333333, "lon": -77.05067683333333, "rental_uris": {"android": "https://dc.lft.to/lastmile_qr_scan", "ios": "https://dc.lft.to/lastmile_qr_scan"}, "is_disabled": 0, "fusion_lat": 0.0, "name": "ba7f75971d7b81bfeccbceb34cda882a", "fusion_lon": 0.0}, {"is_reserved": 0, "type": "electric_scooter", "bike_id": "259195e0ff036e1bd0c1cd9f8cd60f5f", "lat": 38.90542816666667, "lon": -77.04160966666667, "rental_uris": {"android": "https://dc.lft.to/lastmile_qr_scan", "ios": "https://dc.lft.to/lastmile_qr_scan"}, "is_disabled": 0, "fusion_lat": 0.0, "name": "259195e0ff036e1bd0c1cd9f8cd60f5f", "fusion_lon": 0.0}, {"is_reserved": 0, "type": "electric_scooter", "bike_id": "767a5940e06e51d72f04dfb6189bd409", "lat": 38.967922, "lon": -77.02430533333333, "rental_uris": {"android": "https://dc.lft.to/lastmile_qr_scan", "ios": "https://dc.lft.to/lastmile_qr_scan"}, "is_disabled": 0, "fusion_lat": 0.0, "name": "767a5940e06e51d72f04dfb6189bd409", "fusion_lon": 0.0}, {"is_reserved": 0, "type": "electric_scooter", "bike_id": "4ffd5923384a08135a9c2c78b63888a9", "lat": 38.92764833333333, "lon": -77.02785716666666, "rental_uris": {"android": "https://dc.lft.to/lastmile_qr_scan", "ios": "https://dc.lft.to/lastmile_qr_scan"}, "is_disabled": 0, "fusion_lat": 0.0, "name": "4ffd5923384a08135a9c2c78b63888a9", "fusion_lon": 0.0}, {"is_reserved": 0, "type": "electric_scooter", "bike_id": "8a55a37decf7d7590cc5c89877da445d", "lat": 38.9230935, "lon": -77.029002, "rental_uris": {"android": "https://dc.lft.to/lastmile_qr_scan", "ios": "https://dc.lft.to/lastmile_qr_scan"}, "is_disabled": 0, "fusion_lat": 0.0, "name": "8a55a37decf7d7590cc5c89877da445d", "fusion_lon": 0.0}, {"is_reserved": 0, "type": "electric_scooter", "bike_id": "96d8953f4d9fec7e26944b4ac0c77d82", "lat": 38.93406516666667, "lon": -77.0325935, "rental_uris": {"android": "https://dc.lft.to/lastmile_qr_scan", "ios": "https://dc.lft.to/lastmile_qr_scan"}, "is_disabled": 0, "fusion_lat": 0.0, "name": "96d8953f4d9fec7e26944b4ac0c77d82", "fusion_lon": 0.0}, {"is_reserved": 0, "type": "electric_scooter", "bike_id": "e1baa3d9d1d47e8f31b4ff9f15acd40b", "lat": 38.897243833333334, "lon": -77.021689, "rental_uris": {"android": "https://dc.lft.to/lastmile_qr_scan", "ios": "https://dc.lft.to/lastmile_qr_scan"}, "is_disabled": 0, "fusion_lat": 0.0, "name": "e1baa3d9d1d47e8f31b4ff9f15acd40b", "fusion_lon": 0.0}, {"is_reserved": 0, "type": "electric_scooter", "bike_id": "a0f8cc472e6cca900913bca39a9fd343", "lat": 38.9258055, "lon": -77.02939866666667, "rental_uris": {"android": "https://dc.lft.to/lastmile_qr_scan", "ios": "https://dc.lft.to/lastmile_qr_scan"}, "is_disabled": 0, "fusion_lat": 0.0, "name": "a0f8cc472e6cca900913bca39a9fd343", "fusion_lon": 0.0}, {"is_reserved": 0, "type": "electric_scooter", "bike_id": "4124d869610c98d0fba8c9863fca34d1", "lat": 38.91407266666667, "lon": -77.02729466666666, "rental_uris": {"android": "https://dc.lft.to/lastmile_qr_scan", "ios": "https://dc.lft.to/lastmile_qr_scan"}, "is_disabled": 0, "fusion_lat": 0.0, "name": "4124d869610c98d0fba8c9863fca34d1", "fusion_lon": 0.0}, {"is_reserved": 0, "type": "electric_scooter", "bike_id": "ab6d347ddd325578a9e136c41a55584f", "lat": 38.950894, "lon": -77.02537666666667, "rental_uris": {"android": "https://dc.lft.to/lastmile_qr_scan", "ios": "https://dc.lft.to/lastmile_qr_scan"}, "is_disabled": 0, "fusion_lat": 0.0, "name": "ab6d347ddd325578a9e136c41a55584f", "fusion_lon": 0.0}, {"is_reserved": 0, "type": "electric_scooter", "bike_id": "e4f982ae99a8024702e5c08fecb13cd1", "lat": 38.930242666666665, "lon": -77.03790133333334, "rental_uris": {"android": "https://dc.lft.to/lastmile_qr_scan", "ios": "https://dc.lft.to/lastmile_qr_scan"}, "is_disabled": 0, "fusion_lat": 0.0, "name": "e4f982ae99a8024702e5c08fecb13cd1", "fusion_lon": 0.0}, {"is_reserved": 0, "type": "electric_scooter", "bike_id": "4abf2c9b2333ffb0c4bd239d4a3e56ee", "lat": 38.93458116666667, "lon": -77.027735, "rental_uris": {"android": "https://dc.lft.to/lastmile_qr_scan", "ios": "https://dc.lft.to/lastmile_qr_scan"}, "is_disabled": 0, "fusion_lat": 0.0, "name": "4abf2c9b2333ffb0c4bd239d4a3e56ee", "fusion_lon": 0.0}, {"is_reserved": 0, "type": "electric_scooter", "bike_id": "f9b4ee2784029dc3e4bdc670bac1980b", "lat": 38.89981183333333, "lon": -77.02221333333334, "rental_uris": {"android": "https://dc.lft.to/lastmile_qr_scan", "ios": "https://dc.lft.to/lastmile_qr_scan"}, "is_disabled": 0, "fusion_lat": 0.0, "name": "f9b4ee2784029dc3e4bdc670bac1980b", "fusion_lon": 0.0}, {"is_reserved": 0, "type": "electric_scooter", "bike_id": "42f6d69bb5a60a12f45b4437a2ce5a1f", "lat": 38.9156615, "lon": -77.02966, "rental_uris": {"android": "https://dc.lft.to/lastmile_qr_scan", "ios": "https://dc.lft.to/lastmile_qr_scan"}, "is_disabled": 0, "fusion_lat": 0.0, "name": "42f6d69bb5a60a12f45b4437a2ce5a1f", "fusion_lon": 0.0}, {"is_reserved": 0, "type": "electric_scooter", "bike_id": "6680d134860a7da6c11352ed621bb98f", "lat": 38.8976275, "lon": -77.02695383333334, "rental_uris": {"android": "https://dc.lft.to/lastmile_qr_scan", "ios": "https://dc.lft.to/lastmile_qr_scan"}, "is_disabled": 0, "fusion_lat": 0.0, "name": "6680d134860a7da6c11352ed621bb98f", "fusion_lon": 0.0}, {"is_reserved": 0, "type": "electric_scooter", "bike_id": "1dd50921b866e89aefe4d82c4cc4414a", "lat": 38.90193283333333, "lon": -77.02171766666666, "rental_uris": {"android": "https://dc.lft.to/lastmile_qr_scan", "ios": "https://dc.lft.to/lastmile_qr_scan"}, "is_disabled": 0, "fusion_lat": 0.0, "name": "1dd50921b866e89aefe4d82c4cc4414a", "fusion_lon": 0.0}, {"is_reserved": 0, "type": "electric_scooter", "bike_id": "c3503c22679f76013e50ab0ad79a5864", "lat": 38.906672, "lon": -77.07624333333334, "rental_uris": {"android": "https://dc.lft.to/lastmile_qr_scan", "ios": "https://dc.lft.to/lastmile_qr_scan"}, "is_disabled": 0, "fusion_lat": 0.0, "name": "c3503c22679f76013e50ab0ad79a5864", "fusion_lon": 0.0}, {"is_reserved": 0, "type": "electric_scooter", "bike_id": "ad83ffc00384621d19fd3ebdf43c7f04", "lat": 38.94004666666667, "lon": -77.02736533333334, "rental_uris": {"android": "https://dc.lft.to/lastmile_qr_scan", "ios": "https://dc.lft.to/lastmile_qr_scan"}, "is_disabled": 0, "fusion_lat": 0.0, "name": "ad83ffc00384621d19fd3ebdf43c7f04", "fusion_lon": 0.0}, {"is_reserved": 0, "type": "electric_scooter", "bike_id": "3aed59783dd20e8bacff472d3b70b43f", "lat": 38.918220833333336, "lon": -77.025956, "rental_uris": {"android": "https://dc.lft.to/lastmile_qr_scan", "ios": "https://dc.lft.to/lastmile_qr_scan"}, "is_disabled": 0, "fusion_lat": 0.0, "name": "3aed59783dd20e8bacff472d3b70b43f", "fusion_lon": 0.0}, {"is_reserved": 0, "type": "electric_scooter", "bike_id": "76546ad6e8a2dd98296581734162c735", "lat": 38.93532316666667, "lon": -77.02428233333333, "rental_uris": {"android": "https://dc.lft.to/lastmile_qr_scan", "ios": "https://dc.lft.to/lastmile_qr_scan"}, "is_disabled": 0, "fusion_lat": 0.0, "name": "76546ad6e8a2dd98296581734162c735", "fusion_lon": 0.0}, {"is_reserved": 0, "type": "electric_scooter", "bike_id": "992ab8d0bd39b263af3799ac91c27c1e", "lat": 38.8932135, "lon": -77.039568, "rental_uris": {"android": "https://dc.lft.to/lastmile_qr_scan", "ios": "https://dc.lft.to/lastmile_qr_scan"}, "is_disabled": 0, "fusion_lat": 0.0, "name": "992ab8d0bd39b263af3799ac91c27c1e", "fusion_lon": 0.0}, {"is_reserved": 0, "type": "electric_bike", "bike_id": "c2748f1698670ca9ea500e76fd4d662c", "lat": 38.894563833333336, "lon": -77.191364, "rental_uris": {"android": "https://dc.lft.to/lastmile_qr_scan", "ios": "https://dc.lft.to/lastmile_qr_scan"}, "is_disabled": 0, "fusion_lat": 0.0, "name": "c2748f1698670ca9ea500e76fd4d662c", "fusion_lon": 0.0}, {"is_reserved": 0, "type": "electric_scooter", "bike_id": "af320f983dee3c41ca99c1716a3e432a", "lat": 38.917911333333336, "lon": -77.03433233333334, "rental_uris": {"android": "https://dc.lft.to/lastmile_qr_scan", "ios": "https://dc.lft.to/lastmile_qr_scan"}, "is_disabled": 0, "fusion_lat": 0.0, "name": "af320f983dee3c41ca99c1716a3e432a", "fusion_lon": 0.0}, {"is_reserved": 0, "type": "electric_scooter", "bike_id": "b91f47cbe6b36f9cfa0767605d08b517", "lat": 38.88122466666667, "lon": -77.0197295, "rental_uris": {"android": "https://dc.lft.to/lastmile_qr_scan", "ios": "https://dc.lft.to/lastmile_qr_scan"},