{"data": {"bikes": [{"is_disabled": 0, "rental_uris": {"android": "https://dc.lft.to/lastmile_qr_scan", "ios": "https://dc.lft.to/lastmile_qr_scan"}, "is_reserved": 0, "name": "fb0a9d13ce7d438e4b70aed3cf22c6ff", "lon": -77.05519133333334, "type": "electric_scooter", "bike_id": "fb0a9d13ce7d438e4b70aed3cf22c6ff", "fusion_lon": 0.0, "lat": 38.944109833333336, "fusion_lat": 0.0}, {"is_disabled": 0, "rental_uris": {"android": "https://dc.lft.to/lastmile_qr_scan", "ios": "https://dc.lft.to/lastmile_qr_scan"}, "is_reserved": 0, "name": "696cef4f877a3c31ba3cfe852e75a52c", "lon": -77.04404816666667, "type": "electric_scooter", "bike_id": "696cef4f877a3c31ba3cfe852e75a52c", "fusion_lon": 0.0, "lat": 38.90069316666667, "fusion_lat": 0.0}, {"is_disabled": 0, "rental_uris": {"android": "https://dc.lft.to/lastmile_qr_scan", "ios": "https://dc.lft.to/lastmile_qr_scan"}, "is_reserved": 0, "name": "4522492b59485ac7c3f5f8e62f023d4a", "lon": -77.037021, "type": "electric_scooter", "bike_id": "4522492b59485ac7c3f5f8e62f023d4a", "fusion_lon": 0.0, "lat": 38.92644383333333, "fusion_lat": 0.0}, {"is_disabled": 0, "rental_uris": {"android": "https://dc.lft.to/lastmile_qr_scan", "ios": "https://dc.lft.to/lastmile_qr_scan"}, "is_reserved": 0, "name": "f714401d1f93e440de82aba8ea7fbd0f", "lon": -77.03627183333333, "type": "electric_scooter", "bike_id": "f714401d1f93e440de82aba8ea7fbd0f", "fusion_lon": 0.0, "lat": 38.936826333333336, "fusion_lat": 0.0}, {"is_disabled": 0, "rental_uris": {"android": "https://dc.lft.to/lastmile_qr_scan", "ios": "https://dc.lft.to/lastmile_qr_scan"}, "is_reserved": 0, "name": "18579fc4421f731965eca0cb11c8e9c1", "lon": -77.04167, "type": "electric_scooter", "bike_id": "18579fc4421f731965eca0cb11c8e9c1", "fusion_lon": 0.0, "lat": 38.908452, "fusion_lat": 0.0}, {"is_disabled": 0, "rental_uris": {"android": "https://dc.lft.to/lastmile_qr_scan", "ios": "https://dc.lft.to/lastmile_qr_scan"}, "is_reserved": 0, "name": "ffab21710759b2ccbd99644575d76bb3", "lon": -77.03152066666667, "type": "electric_scooter", "bike_id": "ffab21710759b2ccbd99644575d76bb3", "fusion_lon": 0.0, "lat": 38.887433, "fusion_lat": 0.0}, {"is_disabled": 0, "rental_uris": {"android": "https://dc.lft.to/lastmile_qr_scan", "ios": "https://dc.lft.to/lastmile_qr_scan"}, "is_reserved": 0, "name": "b0f2f26a803aceb68bf6f8e8127b9396", "lon": -77.03829433333334, "type": "electric_scooter", "bike_id": "b0f2f26a803aceb68bf6f8e8127b9396", "fusion_lon": 0.0, "lat": 38.911189666666665, "fusion_lat": 0.0}, {"is_disabled": 0, "rental_uris": {"android": "https://dc.lft.to/lastmile_qr_scan", "ios": "https://dc.lft.to/lastmile_qr_scan"}, "is_reserved": 0, "name": "f6555a45ac0fdfbdc0fc94e03736b3d6", "lon": -77.02586733333334, "type": "electric_scooter", "bike_id": "f6555a45ac0fdfbdc0fc94e03736b3d6", "fusion_lon": 0.0, "lat": 38.903468333333336, "fusion_lat": 0.0}, {"is_disabled": 0, "rental_uris": {"android": "https://dc.lft.to/lastmile_qr_scan", "ios": "https://dc.lft.to/lastmile_qr_scan"}, "is_reserved": 0, "name": "beed39c671c312d9ebfe71d8bf26fac5", "lon": -76.93188266666667, "type": "electric_scooter", "bike_id": "beed39c671c312d9ebfe71d8bf26fac5", "fusion_lon": 0.0, "lat": 38.89875816666667, "fusion_lat": 0.0}, {"is_disabled": 0, "rental_uris": {"android": "https://dc.lft.to/lastmile_qr_scan", "ios": "https://dc.lft.to/lastmile_qr_scan"}, "is_reserved": 0, "name": "4994944fafb19c6d2f2127ae5068080d", "lon": -77.04188416666666, "type": "electric_scooter", "bike_id": "4994944fafb19c6d2f2127ae5068080d", "fusion_lon": 0.0, "lat": 38.905210333333336, "fusion_lat": 0.0}, {"is_disabled": 0, "rental_uris": {"android": "https://dc.lft.to/lastmile_qr_scan", "ios": "https://dc.lft.to/lastmile_qr_scan"}, "is_reserved": 0, "name": "23de94cb922357596b76b1da1e7c48b5", "lon": -77.04375316666666, "type": "electric_scooter", "bike_id": "23de94cb922357596b76b1da1e7c48b5", "fusion_lon": 0.0, "lat": 38.910514166666665, "fusion_lat": 0.0}, {"is_disabled": 0, "rental_uris": {"android": "https://dc.lft.to/lastmile_qr_scan", "ios": "https://dc.lft.to/lastmile_qr_scan"}, "is_reserved": 0, "name": "ec5ed6bebe967e22670a3562e482917c", "lon": -77.0320675, "type": "electric_scooter", "bike_id": "ec5ed6bebe967e22670a3562e482917c", "fusion_lon": 0.0, "lat": 38.92062166666667, "fusion_lat": 0.0}, {"is_disabled": 0, "rental_uris": {"android": "https://dc.lft.to/lastmile_qr_scan", "ios": "https://dc.lft.to/lastmile_qr_scan"}, "is_reserved": 0, "name": "fc83aa68e7e5163d1bdeedc1763027a4", "lon": -77.057286, "type": "electric_scooter", "bike_id": "fc83aa68e7e5163d1bdeedc1763027a4", "fusion_lon": 0.0, "lat": 38.9336385, "fusion_lat": 0.0}, {"is_disabled": 0, "rental_uris": {"android": "https://dc.lft.to/lastmile_qr_scan", "ios": "https://dc.lft.to/lastmile_qr_scan"}, "is_reserved": 0, "name": "3a541c763857b7038216727919e0e4cc", "lon": -77.04612933333334, "type": "electric_scooter", "bike_id": "3a541c763857b7038216727919e0e4cc", "fusion_lon": 0.0, "lat": 38.89967716666666, "fusion_lat": 0.0}, {"is_disabled": 0, "rental_uris": {"android": "https://dc.lft.to/lastmile_qr_scan", "ios": "https://dc.lft.to/lastmile_qr_scan"}, "is_reserved": 0, "name": "632ab2b1e4331054d52cec443128c5ef", "lon": -77.02893166666667, "type": "electric_scooter", "bike_id": "632ab2b1e4331054d52cec443128c5ef", "fusion_lon": 0.0, "lat": 38.92759783333333, "fusion_lat": 0.0}, {"is_disabled": 0, "rental_uris": {"android": "https://dc.lft.to/lastmile_qr_scan", "ios": "https://dc.lft.to/lastmile_qr_scan"}, "is_reserved": 0, "name": "2b282bfd54041e0135f215d78c654038", "lon": -76.989037, "type": "electric_scooter", "bike_id": "2b282bfd54041e0135f215d78c654038", "fusion_lon": 0.0, "lat": 38.902225, "fusion_lat": 0.0}, {"is_disabled": 0, "rental_uris": {"android": "https://dc.lft.to/lastmile_qr_scan", "ios": "https://dc.lft.to/lastmile_qr_scan"}, "is_reserved": 0, "name": "d4982afcf376ad0e514b30cc5a4722d1", "lon": -77.04450466666667, "type": "electric_scooter", "bike_id": "d4982afcf376ad0e514b30cc5a4722d1", "fusion_lon": 0.0, "lat": 38.902809166666664, "fusion_lat": 0.0}, {"is_disabled": 0, "rental_uris": {"android": "https://dc.lft.to/lastmile_qr_scan", "ios": "https://dc.lft.to/lastmile_qr_scan"}, "is_reserved": 0, "name": "112a94bdf20c6cc7d381b0aa8dc4720d", "lon": -77.03642116666667, "type": "electric_bike", "bike_id": "112a94bdf20c6cc7d381b0aa8dc4720d", "fusion_lon": 0.0, "lat": 38.90803616666667, "fusion_lat": 0.0}, {"is_disabled": 0, "rental_uris": {"android": "https://dc.lft.to/lastmile_qr_scan", "ios": "https://dc.lft.to/lastmile_qr_scan"}, "is_reserved": 0, "name": "964308d8b14a4557e72f98d6a3ea606c", "lon": -76.97912066666666, "type": "electric_scooter", "bike_id": "964308d8b14a4557e72f98d6a3ea606c", "fusion_lon": 0.0, "lat": 38.89432933333333, "fusion_lat": 0.0}, {"is_disabled": 0, "rental_uris": {"android": "https://dc.lft.to/lastmile_qr_scan", "ios": "https://dc.lft.to/lastmile_qr_scan"}, "is_reserved": 0, "name": "6818d4abe3ff415528d1bfc06d91b1a2", "lon": -77.032713, "type": "electric_scooter", "bike_id": "6818d4abe3ff415528d1bfc06d91b1a2", "fusion_lon": 0.0, "lat": 38.89837883333333, "fusion_lat": 0.0}, {"is_disabled": 0, "rental_uris": {"android": "https://dc.lft.to/lastmile_qr_scan", "ios": "https://dc.lft.to/lastmile_qr_scan"}, "is_reserved": 0, "name": "c1184fef833a9d80b17206cdc6348e33", "lon": -77.0310255, "type": "electric_scooter", "bike_id": "c1184fef833a9d80b17206cdc6348e33", "fusion_lon": 0.0, "lat": 38.92571016666667, "fusion_lat": 0.0}, {"is_disabled": 0, "rental_uris": {"android": "https://dc.lft.to/lastmile_qr_scan", "ios": "https://dc.lft.to/lastmile_qr_scan"}, "is_reserved": 0, "name": "b4113bad025dfc43e93ddb68f883ef74", "lon": -77.106828, "type": "electric_bike", "bike_id": "b4113bad025dfc43e93ddb68f883ef74", "fusion_lon": 0.0, "lat": 38.93577633333334, "fusion_lat": 0.0}, {"is_disabled": 0, "rental_uris": {"android": "https://dc.lft.to/lastmile_qr_scan", "ios": "https://dc.lft.to/lastmile_qr_scan"}, "is_reserved": 0, "name": "14ef09a6dcce011b31c32da6deff341d", "lon": -77.02210383333333, "type": "electric_scooter", "bike_id": "14ef09a6dcce011b31c32da6deff341d", "fusion_lon": 0.0, "lat": 38.895831, "fusion_lat": 0.0}, {"is_disabled": 0, "rental_uris": {"android": "https://dc.lft.to/lastmile_qr_scan", "ios": "https://dc.lft.to/lastmile_qr_scan"}, "is_reserved": 0, "name": "ce77ae913adbb7063df62a4429854e72", "lon": -77.05057583333334, "type": "electric_scooter", "bike_id": "ce77ae913adbb7063df62a4429854e72", "fusion_lon": 0.0, "lat": 38.900875666666664, "fusion_lat": 0.0}, {"is_disabled": 0, "rental_uris": {"android": "https://dc.lft.to/lastmile_qr_scan", "ios": "https://dc.lft.to/lastmile_qr_scan"}, "is_reserved": 0, "name": "2aeb8a3acc09090005153c7e68ff2eac", "lon": -77.03204883333333, "type": "electric_scooter", "bike_id": "2aeb8a3acc09090005153c7e68ff2eac", "fusion_lon": 0.0, "lat": 38.9396525, "fusion_lat": 0.0}, {"is_disabled": 0, "rental_uris": {"android": "https://dc.lft.to/lastmile_qr_scan", "ios": "https://dc.lft.to/lastmile_qr_scan"}, "is_reserved": 0, "name": "b307d7b485952e89f7dcc3e985207a8a", "lon": -76.98757733333333, "type": "electric_bike", "bike_id": "b307d7b485952e89f7dcc3e985207a8a", "fusion_lon": 0.0, "lat": 38.857799666666665, "fusion_lat": 0.0}, {"is_disabled": 0, "rental_uris": {"android": "https://dc.lft.to/lastmile_qr_scan", "ios": "https://dc.lft.to/lastmile_qr_scan"}, "is_reserved": 0, "name": "f6715e8eb68a968e3736c6191f50fa26", "lon": -77.01498633333334, "type": "electric_scooter", "bike_id": "f6715e8eb68a968e3736c6191f50fa26", "fusion_lon": 0.0, "lat": 38.956486, "fusion_lat": 0.0}, {"is_disabled": 0, "rental_uris": {"android": "https://dc.lft.to/lastmile_qr_scan", "ios": "https://dc.lft.to/lastmile_qr_scan"}, "is_reserved": 0, "name": "b2d28e319be68f3c2f3001a51b00ae72", "lon": -77.01950366666667, "type": "electric_scooter", "bike_id": "b2d28e319be68f3c2f3001a51b00ae72", "fusion_lon": 0.0, "lat": 38.9225935, "fusion_lat": 0.0}, {"is_disabled": 0, "rental_uris": {"android": "https://dc.lft.to/lastmile_qr_scan", "ios": "https://dc.lft.to/lastmile_qr_scan"}, "is_reserved": 0, "name": "af03fadf6a18d1be9c49e31264f01ded", "lon": -77.00338533333333, "type": "electric_scooter", "bike_id": "af03fadf6a18d1be9c49e31264f01ded", "fusion_lon": 0.0, "lat": 38.8935585, "fusion_lat": 0.0}, {"is_disabled": 0, "rental_uris": {"android": "https://dc.lft.to/lastmile_qr_scan", "ios": "https://dc.lft.to/lastmile_qr_scan"}, "is_reserved": 0, "name": "690633772e7b4139f811cee3d33af6ba", "lon": -76.9866655, "type": "electric_scooter", "bike_id": "690633772e7b4139f811cee3d33af6ba", "fusion_lon": 0.0, "lat": 38.901427, "fusion_lat": 0.0}, {"is_disabled": 0, "rental_uris": {"android": "https://dc.lft.to/lastmile_qr_scan", "ios": "https://dc.lft.to/lastmile_qr_scan"}, "is_reserved": 0, "name": "64640badb82e4e09aaa428bc45498834", "lon": -77.033146, "type": "electric_scooter", "bike_id": "64640badb82e4e09aaa428bc45498834", "fusion_lon": 0.0, "lat": 38.9141175, "fusion_lat": 0.0}, {"is_disabled": 0, "rental_uris": {"android": "https://dc.lft.to/lastmile_qr_scan", "ios": "https://dc.lft.to/lastmile_qr_scan"}, "is_reserved": 0, "name": "4917d627717d1b8471aa71338385660e", "lon": -77.0139435, "type": "electric_scooter", "bike_id": "4917d627717d1b8471aa71338385660e", "fusion_lon": 0.0, "lat": 38.880281, "fusion_lat": 0.0}, {"is_disabled": 0, "rental_uris": {"android": "https://dc.lft.to/lastmile_qr_scan", "ios": "https://dc.lft.to/lastmile_qr_scan"}, "is_reserved": 0, "name": "ff046fcb4792f840a313784a535db234", "lon": -77.00592833333333, "type": "electric_scooter", "bike_id": "ff046fcb4792f840a313784a535db234", "fusion_lon": 0.0, "lat": 38.911800166666666, "fusion_lat": 0.0}, {"is_disabled": 0, "rental_uris": {"android": "https://dc.lft.to/lastmile_qr_scan", "ios": "https://dc.lft.to/lastmile_qr_scan"}, "is_reserved": 0, "name": "885a165cb79d61c0b171d19a06b47715", "lon": -77.044165, "type": "electric_scooter", "bike_id": "885a165cb79d61c0b171d19a06b47715", "fusion_lon": 0.0, "lat": 38.917696166666666, "fusion_lat": 0.0}, {"is_disabled": 0, "rental_uris": {"android": "https://dc.lft.to/lastmile_qr_scan", "ios": "https://dc.lft.to/lastmile_qr_scan"}, "is_reserved": 0, "name": "736dfc9c24760c1e16ac2114242fb2ad", "lon": -77.02965716666667, "type": "electric_scooter", "bike_id": "736dfc9c24760c1e16ac2114242fb2ad", "fusion_lon": 0.0, "lat": 38.89627316666667, "fusion_lat": 0.0}, {"is_disabled": 0, "rental_uris": {"android": "https://dc.lft.to/lastmile_qr_scan", "ios": "https://dc.lft.to/lastmile_qr_scan"}, "is_reserved": 0, "name": "c1c7f5b469ac795126ab77b3eac9edf1", "lon": -76.97132133333334, "type": "electric_bike", "bike_id": "c1c7f5b469ac795126ab77b3eac9edf1", "fusion_lon": 0.0, "lat": 38.9196765, "fusion_lat": 0.0}, {"is_disabled": 0, "rental_uris": {"android": "https://dc.lft.to/lastmile_qr_scan", "ios": "https://dc.lft.to/lastmile_qr_scan"}, "is_reserved": 0, "name": "9e128bbed6e2c4cba9484a01e7783e0b", "lon": -77.04515666666667, "type": "electric_scooter", "bike_id": "9e128bbed6e2c4cba9484a01e7783e0b", "fusion_lon": 0.0, "lat": 38.907808833333334, "fusion_lat": 0.0}, {"is_disabled": 0, "rental_uris": {"android": "https://dc.lft.to/lastmile_qr_scan", "ios": "https://dc.lft.to/lastmile_qr_scan"}, "is_reserved": 0, "name": "7a9f6258bc63df896402723075a6b46b", "lon": -76.9901635, "type": "electric_scooter", "bike_id": "7a9f6258bc63df896402723075a6b46b", "fusion_lon": 0.0, "lat": 38.861077, "fusion_lat": 0.0}, {"is_disabled": 0, "rental_uris": {"android": "https://dc.lft.to/lastmile_qr_scan", "ios": "https://dc.lft.to/lastmile_qr_scan"}, "is_reserved": 0, "name": "6b4964149a00b7008a03ded1d16e944d", "lon": -76.99630433333333, "type": "electric_scooter", "bike_id": "6b4964149a00b7008a03ded1d16e944d", "fusion_lon": 0.0, "lat": 38.84618783333333, "fusion_lat": 0.0}, {"is_disabled": 0, "rental_uris": {"android": "https://dc.lft.to/lastmile_qr_scan", "ios": "https://dc.lft.to/lastmile_qr_scan"}, "is_reserved": 0, "name": "094ec57509b52c66021ca6200c2276d8", "lon": -77.024927, "type": "electric_scooter", "bike_id": "094ec57509b52c66021ca6200c2276d8", "fusion_lon": 0.0, "lat": 38.9418335, "fusion_lat": 0.0}, {"is_disabled": 0, "rental_uris": {"android": "https://dc.lft.to/lastmile_qr_scan", "ios": "https://dc.lft.to/lastmile_qr_scan"}, "is_reserved": 0, "name": "ecb3cb4637ff30ae9496fb614b2c4080", "lon": -76.9575525, "type": "electric_scooter", "bike_id": "ecb3cb4637ff30ae9496fb614b2c4080", "fusion_lon": 0.0, "lat": 38.884241, "fusion_lat": 0.0}, {"is_disabled": 0, "rental_uris": {"android": "https://dc.lft.to/lastmile_qr_scan", "ios": "https://dc.lft.to/lastmile_qr_scan"}, "is_reserved": 0, "name": "8e2e31828f83994c71436e4f78f88827", "lon": -77.0504165, "type": "electric_scooter", "bike_id": "8e2e31828f83994c71436e4f78f88827", "fusion_lon": 0.0, "lat": 38.923583, "fusion_lat": 0.0}, {"is_disabled": 0, "rental_uris": {"android": "https://dc.lft.to/lastmile_qr_scan", "ios": "https://dc.lft.to/lastmile_qr_scan"}, "is_reserved": 0, "name": "cc007d288706a2a1039799574856c0fc", "lon": -77.02593266666666, "type": "electric_scooter", "bike_id": "cc007d288706a2a1039799574856c0fc", "fusion_lon": 0.0, "lat": 38.9043405, "fusion_lat": 0.0}, {"is_disabled": 0, "rental_uris": {"android": "https://dc.lft.to/lastmile_qr_scan", "ios": "https://dc.lft.to/lastmile_qr_scan"}, "is_reserved": 0, "name": "6d6f8d54db541b8e36539154ed272885", "lon": -77.04674366666667, "type": "electric_scooter", "bike_id": "6d6f8d54db541b8e36539154ed272885", "fusion_lon": 0.0, "lat": 38.90014716666667, "fusion_lat": 0.0}, {"is_disabled": 0, "rental_uris": {"android": "https://dc.lft.to/lastmile_qr_scan", "ios": "https://dc.lft.to/lastmile_qr_scan"}, "is_reserved": 0, "name": "0a927de068d010200ba136e3afacc81b", "lon": -76.99393316666666, "type": "electric_scooter", "bike_id": "0a927de068d010200ba136e3afacc81b", "fusion_lon": 0.0, "lat": 38.884560666666665, "fusion_lat": 0.0}, {"is_disabled": 0, "rental_uris": {"android": "https://dc.lft.to/lastmile_qr_scan", "ios": "https://dc.lft.to/lastmile_qr_scan"}, "is_reserved": 0, "name": "bf41d8f5ddce6fad5c12ae4fee64ac53", "lon": -77.02490783333333, "type": "electric_bike", "bike_id": "bf41d8f5ddce6fad5c12ae4fee64ac53", "fusion_lon": 0.0, "lat": 38.97368566666667, "fusion_lat": 0.0}, {"is_disabled": 0, "rental_uris": {"android": "https://dc.lft.to/lastmile_qr_scan", "ios": "https://dc.lft.to/lastmile_qr_scan"}, "is_reserved": 0, "name": "df68694c1b8a93f4e0b4d9cdd9bf1b02", "lon": -77.00770866666667, "type": "electric_scooter", "bike_id": "df68694c1b8a93f4e0b4d9cdd9bf1b02", "fusion_lon": 0.0, "lat": 38.914925333333336, "fusion_lat": 0.0}, {"is_disabled": 0, "rental_uris": {"android": "https://dc.lft.to/lastmile_qr_scan", "ios": "https://dc.lft.to/lastmile_qr_scan"}, "is_reserved": 0, "name": "86e540e288bce648d8c678adc643552d", "lon": -77.02300733333334, "type": "electric_scooter", "bike_id": "86e540e288bce648d8c678adc643552d", "fusion_lon": 0.0, "lat": 38.916896333333334, "fusion_lat": 0.0}, {"is_disabled": 0, "rental_uris": {"android": "https://dc.lft.to/lastmile_qr_scan", "ios": "https://dc.lft.to/lastmile_qr_scan"}, "is_reserved": 0, "name": "c1b81d58fc6f6fe64d3542ab54c97386", "lon": -77.01666166666666, "type": "electric_scooter", "bike_id": "c1b81d58fc6f6fe64d3542ab54c97386", "fusion_lon": 0.0, "lat": 38.902689, "fusion_lat": 0.0}, {"is_disabled": 0, "rental_uris": {"android": "https://dc.lft.to/lastmile_qr_scan", "ios": "https://dc.lft.to/lastmile_qr_scan"}, "is_reserved": 0, "name": "28d0a465e3660645b87f949e906fd380", "lon": -77.019837, "type": "electric_scooter", "bike_id": "28d0a465e3660645b87f949e906fd380", "fusion_lon": 0.0, "lat": 38.87786083333334, "fusion_lat": 0.0}, {"is_disabled": 0, "rental_uris": {"android": "https://dc.lft.to/lastmile_qr_scan", "ios": "https://dc.lft.to/lastmile_qr_scan"}, "is_reserved": 0, "name": "f917a4a391b7ca78a0dd955261a03a03", "lon": -77.04367716666667, "type": "electric_scooter", "bike_id": "f917a4a391b7ca78a0dd955261a03a03", "fusion_lon": 0.0, "lat": 38.915693166666664, "fusion_lat": 0.0}, {"is_disabled": 0, "rental_uris": {"android": "https://dc.lft.to/lastmile_qr_scan", "ios": "https://dc.lft.to/lastmile_qr_scan"}, "is_reserved": 0, "name": "07c5dcd3905fe8e8810d572156af3d61", "lon": -77.038453, "type": "electric_scooter", "bike_id": "07c5dcd3905fe8e8810d572156af3d61", "fusion_lon": 0.0, "lat": 38.9265245, "fusion_lat": 0.0}, {"is_disabled": 0, "rental_uris": {"android": "https://dc.lft.to/lastmile_qr_scan", "ios": "https://dc.lft.to/lastmile_qr_scan"}, "is_reserved": 0, "name": "96fa1cc3d6aeae6385557b30bb1e442e", "lon": -77.01018683333334, "type": "electric_scooter", "bike_id": "96fa1cc3d6aeae6385557b30bb1e442e", "fusion_lon": 0.0, "lat": 38.906257833333335, "fusion_lat": 0.0}, {"is_disabled": 0, "rental_uris": {"android": "https://dc.lft.to/lastmile_qr_scan", "ios": "https://dc.lft.to/lastmile_qr_scan"}, "is_reserved": 0, "name": "65177b4002743ff37285ffb63a60b21b", "lon": -77.03240166666667, "type": "electric_scooter", "bike_id": "65177b4002743ff37285ffb63a60b21b", "fusion_lon": 0.0, "lat": 38.92876616666667, "fusion_lat": 0.0}, {"is_disabled": 0, "rental_uris": {"android": "https://dc.lft.to/lastmile_qr_scan", "ios": "https://dc.lft.to/lastmile_qr_scan"}, "is_reserved": 0, "name": "2a2ab3595b841351322ae77f60f17876", "lon": -77.0294255, "type": "electric_scooter", "bike_id": "2a2ab3595b841351322ae77f60f17876", "fusion_lon": 0.0, "lat": 38.9049395, "fusion_lat": 0.0}, {"is_disabled": 0, "rental_uris": {"android": "https://dc.lft.to/lastmile_qr_scan", "ios": "https://dc.lft.to/lastmile_qr_scan"}, "is_reserved": 0, "name": "52f5ecd0a347317bc42bfc452d24ced0", "lon": -77.02348683333334, "type": "electric_scooter", "bike_id": "52f5ecd0a347317bc42bfc452d24ced0", "fusion_lon": 0.0, "lat": 38.922641666666664, "fusion_lat": 0.0}, {"is_disabled": 0, "rental_uris": {"android": "https://dc.lft.to/lastmile_qr_scan", "ios": "https://dc.lft.to/lastmile_qr_scan"}, "is_reserved": 0, "name": "ffb498015354586ee9fb18b3b2ec5d5d", "lon": -77.04339266666666, "type": "electric_scooter", "bike_id": "ffb498015354586ee9fb18b3b2ec5d5d", "fusion_lon": 0.0, "lat": 38.898092166666665, "fusion_lat": 0.0}, {"is_disabled": 0, "rental_uris": {"android": "https://dc.lft.to/lastmile_qr_scan", "ios": "https://dc.lft.to/lastmile_qr_scan"}, "is_reserved": 0, "name": "3f6d18ed709beea64168b7739a275f5d", "lon": -76.95207283333333, "type": "electric_bike", "bike_id": "3f6d18ed709beea64168b7739a275f5d", "fusion_lon": 0.0, "lat": 38.936645, "fusion_lat": 0.0}, {"is_disabled": 0, "rental_uris": {"android": "https://dc.lft.to/lastmile_qr_scan", "ios": "https://dc.lft.to/lastmile_qr_scan"}, "is_reserved": 0, "name": "3e277d6ceb5a6bc83d4a585619d07c77", "lon": -77.00330333333333, "type": "electric_scooter", "bike_id": "3e277d6ceb5a6bc83d4a585619d07c77", "fusion_lon": 0.0, "lat": 38.89353216666667, "fusion_lat": 0.0}, {"is_disabled": 0, "rental_uris": {"android": "https://dc.lft.to/lastmile_qr_scan", "ios": "https://dc.lft.to/lastmile_qr_scan"}, "is_reserved": 0, "name": "df3f74b50a99529b62cb820ec2d47f78", "lon": -77.01158566666666, "type": "electric_scooter", "bike_id": "df3f74b50a99529b62cb820ec2d47f78", "fusion_lon": 0.0, "lat": 38.89739516666667, "fusion_lat": 0.0}, {"is_disabled": 0, "rental_uris": {"android": "https://dc.lft.to/lastmile_qr_scan", "ios": "https://dc.lft.to/lastmile_qr_scan"}, "is_reserved": 0, "name": "32a8f0e0d50ee23c78593413e7d37a67", "lon": -77.04756683333333, "type": "electric_scooter", "bike_id": "32a8f0e0d50ee23c78593413e7d37a67", "fusion_lon": 0.0, "lat": 38.90709566666666, "fusion_lat": 0.0}, {"is_disabled": 0, "rental_uris": {"android": "https://dc.lft.to/lastmile_qr_scan", "ios": "https://dc.lft.to/lastmile_qr_scan"}, "is_reserved": 0, "name": "4b12812def16f70c674ab0641032934c", "lon": -77.03448516666667, "type": "electric_scooter", "bike_id": "4b12812def16f70c674ab0641032934c", "fusion_lon": 0.0, "lat": 38.90265083333333, "fusion_lat": 0.0}, {"is_disabled": 0, "rental_uris": {"android": "https://dc.lft.to/lastmile_qr_scan", "ios": "https://dc.lft.to/lastmile_qr_scan"}, "is_reserved": 0, "name": "e14610662c7eafa9028b1c1f40bba162", "lon": -76.98727416666667, "type": "electric_scooter", "bike_id": "e14610662c7eafa9028b1c1f40bba162", "fusion_lon": 0.0, "lat": 38.86703216666667, "fusion_lat": 0.0}, {"is_disabled": 0, "rental_uris": {"android": "https://dc.lft.to/lastmile_qr_scan", "ios": "https://dc.lft.to/lastmile_qr_scan"}, "is_reserved": 0, "name": "1f3cb1c1a3a433e99eb0c6afbcbaa5d3", "lon": -77.03219566666667, "type": "electric_scooter", "bike_id": "1f3cb1c1a3a433e99eb0c6afbcbaa5d3", "fusion_lon": 0.0, "lat": 38.907435166666666, "fusion_lat": 0.0}, {"is_disabled": 0, "rental_uris": {"android": "https://dc.lft.to/lastmile_qr_scan", "ios": "https://dc.lft.to/lastmile_qr_scan"}, "is_reserved": 0, "name": "8b278f305c3252d04768986cf1ea3c50", "lon": -76.94247466666667, "type": "electric_scooter", "bike_id": "8b278f305c3252d04768986cf1ea3c50", "fusion_lon": 0.0, "lat": 38.896829333333336, "fusion_lat": 0.0}, {"is_disabled": 0, "rental_uris": {"android": "https://dc.lft.to/lastmile_qr_scan", "ios": "https://dc.lft.to/lastmile_qr_scan"}, "is_reserved": 0, "name": "77706d40746332016c8663b2a3298229", "lon": -77.02571316666666, "type": "electric_scooter", "bike_id": "77706d40746332016c8663b2a3298229", "fusion_lon": 0.0, "lat": 38.895166833333334, "fusion_lat": 0.0}, {"is_disabled": 0, "rental_uris": {"android": "https://dc.lft.to/lastmile_qr_scan", "ios": "https://dc.lft.to/lastmile_qr_scan"}, "is_reserved": 0, "name": "8adc6b6c0d5b125cfeea374a28afb6f1", "lon": -77.02913383333333, "type": "electric_bike", "bike_id": "8adc6b6c0d5b125cfeea374a28afb6f1", "fusion_lon": 0.0, "lat": 38.998271333333335, "fusion_lat": 0.0}, {"is_disabled": 0, "rental_uris": {"android": "https://dc.lft.to/lastmile_qr_scan", "ios": "https://dc.lft.to/lastmile_qr_scan"}, "is_reserved": 0, "name": "bd52e59535b711b5e1d2aff9c593b425", "lon": -77.12269083333334, "type": "electric_bike", "bike_id": "bd52e59535b711b5e1d2aff9c593b425", "fusion_lon": 0.0, "lat": 38.897322833333334, "fusion_lat": 0.0}, {"is_disabled": 0, "rental_uris": {"android": "https://dc.lft.to/lastmile_qr_scan", "ios": "https://dc.lft.to/lastmile_qr_scan"}, "is_reserved": 0, "name": "948a1c58967c797d23572fe2e0544a97", "lon": -77.0235795, "type": "electric_scooter", "bike_id": "948a1c58967c797d23572fe2e0544a97", "fusion_lon": 0.0, "lat": 38.92512516666667, "fusion_lat": 0.0}, {"is_disabled": 0, "rental_uris": {"android": "https://dc.lft.to/lastmile_qr_scan", "ios": "https://dc.lft.to/lastmile_qr_scan"}, "is_reserved": 0, "name": "45a0eb17f92af9c71d85e6197f5383ce", "lon": -76.9165595, "type": "electric_bike", "bike_id": "45a0eb17f92af9c71d85e6197f5383ce", "fusion_lon": 0.0, "lat": 38.8685675, "fusion_lat": 0.0}, {"is_disabled": 0, "rental_uris": {"android": "https://dc.lft.to/lastmile_qr_scan", "ios": "https://dc.lft.to/lastmile_qr_scan"}, "is_reserved": 0, "name": "c7d7b8cc58d1ab2682cba85076d37aea", "lon": -77.03604983333334, "type": "electric_scooter", "bike_id": "c7d7b8cc58d1ab2682cba85076d37aea", "fusion_lon": 0.0, "lat": 38.934810666666664, "fusion_lat": 0.0}, {"is_disabled": 0, "rental_uris": {"android": "https://dc.lft.to/lastmile_qr_scan", "ios": "https://dc.lft.to/lastmile_qr_scan"}, "is_reserved": 0, "name": "847efe443e701c8561e30ed1e036c44e", "lon": -77.22935266666667, "type": "electric_bike", "bike_id": "847efe443e701c8561e30ed1e036c44e", "fusion_lon": 0.0, "lat": 38.931881833333335, "fusion_lat": 0.0}, {"is_disabled": 0, "rental_uris": {"android": "https://dc.lft.to/lastmile_qr_scan", "ios": "https://dc.lft.to/lastmile_qr_scan"}, "is_reserved": 0, "name": "862649116dbe685313d65a5bedad8338", "lon": -77.029137, "type": "electric_bike", "bike_id": "862649116dbe685313d65a5bedad8338", "fusion_lon": 0.0, "lat": 38.895197333333336, "fusion_lat": 0.0}, {"is_disabled": 0, "rental_uris": {"android": "https://dc.lft.to/lastmile_qr_scan", "ios": "https://dc.lft.to/lastmile_qr_scan"}, "is_reserved": 0, "name": "81e6b75ab669854ea1c684ec9c306c1a", "lon": -77.02228233333334, "type": "electric_scooter", "bike_id": "81e6b75ab669854ea1c684ec9c306c1a", "fusion_lon": 0.0, "lat": 38.8921835, "fusion_lat": 0.0}, {"is_disabled": 0, "rental_uris": {"android": "https://dc.lft.to/lastmile_qr_scan", "ios": "https://dc.lft.to/lastmile_qr_scan"}, "is_reserved": 0, "name": "37a8a42f4dbbca727ed8e550bd4ae244", "lon": -77.0073755, "type": "electric_scooter", "bike_id": "37a8a42f4dbbca727ed8e550bd4ae244", "fusion_lon": 0.0, "lat": 38.900341833333336, "fusion_lat": 0.0}, {"is_disabled": 0, "rental_uris": {"android": "https://dc.lft.to/lastmile_qr_scan", "ios": "https://dc.lft.to/lastmile_qr_scan"}, "is_reserved": 0, "name": "209dabae6371c34c3fb880c2a01aa5b2", "lon": -77.03690816666666, "type": "electric_scooter", "bike_id": "209dabae6371c34c3fb880c2a01aa5b2", "fusion_lon": 0.0, "lat": 38.9272345, "fusion_lat": 0.0}, {"is_disabled": 0, "rental_uris": {"android": "https://dc.lft.to/lastmile_qr_scan", "ios": "https://dc.lft.to/lastmile_qr_scan"}, "is_reserved": 0, "name": "e32d86aa21c845fdfd46badc576cac44", "lon": -77.00568133333333, "type": "electric_scooter", "bike_id": "e32d86aa21c845fdfd46badc576cac44", "fusion_lon": 0.0, "lat": 38.885021333333334, "fusion_lat": 0.0}, {"is_disabled": 0, "rental_uris": {"android": "https://dc.lft.to/lastmile_qr_scan", "ios": "https://dc.lft.to/lastmile_qr_scan"}, "is_reserved": 0, "name": "185df289c418de67bfada1ce68910d8e", "lon": -77.04290066666667, "type": "electric_scooter", "bike_id": "185df289c418de67bfada1ce68910d8e", "fusion_lon": 0.0, "lat": 38.90395566666667, "fusion_lat": 0.0}, {"is_disabled": 0, "rental_uris": {"android": "https://dc.lft.to/lastmile_qr_scan", "ios": "https://dc.lft.to/lastmile_qr_scan"}, "is_reserved": 0, "name": "ae138f7b3a95db5cdfcfac6ae65e54cc", "lon": -77.03949916666667, "type": "electric_scooter", "bike_id": "ae138f7b3a95db5cdfcfac6ae65e54cc", "fusion_lon": 0.0, "lat": 38.913957333333336, "fusion_lat": 0.0}, {"is_disabled": 0, "rental_uris": {"android": "https://dc.lft.to/lastmile_qr_scan", "ios": "https://dc.lft.to/lastmile_qr_scan"}, "is_reserved": 0, "name": "5592cacfb268925ef29363e397a4e3a4", "lon": -77.1780145, "type": "electric_bike", "bike_id": "5592cacfb268925ef29363e397a4e3a4", "fusion_lon": 0.0, "lat": 39.08841066666667, "fusion_lat": 0.0}, {"is_disabled": 0, "rental_uris": {"android": "https://dc.lft.to/lastmile_qr_scan", "ios": "https://dc.lft.to/lastmile_qr_scan"}, "is_reserved": 0, "name": "ad211f82c1d20975a3c30086be854ef4", "lon": -76.9950845, "type": "electric_scooter", "bike_id": "ad211f82c1d20975a3c30086be854ef4", "fusion_lon": 0.0, "lat": 38.885824666666664, "fusion_lat": 0.0}, {"is_disabled": 0, "rental_uris": {"android": "https://dc.lft.to/lastmile_qr_scan", "ios": "https://dc.lft.to/lastmile_qr_scan"}, "is_reserved": 0, "name": "22f523f579d844e6578e815b4a709065", "lon": -77.03272466666667, "type": "electric_scooter", "bike_id": "22f523f579d844e6578e815b4a709065", "fusion_lon": 0.0, "lat": 38.913349, "fusion_lat": 0.0}, {"is_disabled": 0, "rental_uris": {"android": "https://dc.lft.to/lastmile_qr_scan", "ios": "https://dc.lft.to/lastmile_qr_scan"}, "is_reserved": 0, "name": "50f93a1fe4822283cd020fc6ce41a648", "lon": -77.05587266666667, "type": "electric_scooter", "bike_id": "50f93a1fe4822283cd020fc6ce41a648", "fusion_lon": 0.0, "lat": 38.9000485, "fusion_lat": 0.0}, {"is_disabled": 0, "rental_uris": {"android": "https://dc.lft.to/lastmile_qr_scan", "ios": "https://dc.lft.to/lastmile_qr_scan"}, "is_reserved": 0, "name": "bd77128e69d8b0a8a25d90fd04ae65f5", "lon": -77.032857, "type": "electric_scooter", "bike_id": "bd77128e69d8b0a8a25d90fd04ae65f5", "fusion_lon": 0.0, "lat": 38.9206205, "fusion_lat": 0.0}, {"is_disabled": 0, "rental_uris": {"android": "https://dc.lft.to/lastmile_qr_scan", "ios": "https://dc.lft.to/lastmile_qr_scan"}, "is_reserved": 0, "name": "1612c3cadc6a17d16a12d5c6001f9b4a", "lon": -77.0461305, "type": "electric_scooter", "bike_id": "1612c3cadc6a17d16a12d5c6001f9b4a", "fusion_lon": 0.0, "lat": 38.91546433333333, "fusion_lat": 0.0}, {"is_disabled": 0, "rental_uris": {"android": "https://dc.lft.to/lastmile_qr_scan", "ios": "https://dc.lft.to/lastmile_qr_scan"}, "is_reserved": 0, "name": "a0a3995aa432f5f1dae2bc6634dbbada", "lon": -77.033123, "type": "electric_scooter", "bike_id": "a0a3995aa432f5f1dae2bc6634dbbada", "fusion_lon": 0.0, "lat": 38.90124216666667, "fusion_lat": 0.0}, {"is_disabled": 0, "rental_uris": {"android": "https://dc.lft.to/lastmile_qr_scan", "ios": "https://dc.lft.to/lastmile_qr_scan"}, "is_reserved": 0, "name": "d06d0071382280dd6763718d8a510ce0", "lon": -77.0416565, "type": "electric_scooter", "bike_id": "d06d0071382280dd6763718d8a510ce0", "fusion_lon": 0.0, "lat": 38.901386, "fusion_lat": 0.0}, {"is_disabled": 0, "rental_uris": {"android": "https://dc.lft.to/lastmile_qr_scan", "ios": "https://dc.lft.to/lastmile_qr_scan"}, "is_reserved": 0, "name": "e4569a6b23b43c30659426ad4a622f9f", "lon": -77.05034916666666, "type": "electric_scooter", "bike_id": "e4569a6b23b43c30659426ad4a622f9f", "fusion_lon": 0.0, "lat": 38.8978365, "fusion_lat": 0.0}, {"is_disabled": 0, "rental_uris": {"android": "https://dc.lft.to/lastmile_qr_scan", "ios": "https://dc.lft.to/lastmile_qr_scan"}, "is_reserved": 0, "name": "6e47723449f0053eee6879ee5044cea9", "lon": -77.03316883333333, "type": "electric_scooter", "bike_id": "6e47723449f0053eee6879ee5044cea9", "fusion_lon": 0.0, "lat": 38.8985165, "fusion_lat": 0.0}, {"is_disabled": 0, "rental_uris": {"android": "https://dc.lft.to/lastmile_qr_scan", "ios": "https://dc.lft.to/lastmile_qr_scan"}, "is_reserved": 0, "name": "5fb0e52a2dc99b0f167d93371dcc5a27", "lon": -76.995243, "type": "electric_scooter", "bike_id": "5fb0e52a2dc99b0f167d93371dcc5a27", "fusion_lon": 0.0, "lat": 38.883785833333334, "fusion_lat": 0.0}, {"is_disabled": 0, "rental_uris": {"android": "https://dc.lft.to/lastmile_qr_scan", "ios": "https://dc.lft.to/lastmile_qr_scan"}, "is_reserved": 0, "name": "8fc8cec0be7725b40d5009f125e49ea9", "lon": -77.03581816666667, "type": "electric_scooter", "bike_id": "8fc8cec0be7725b40d5009f125e49ea9", "fusion_lon": 0.0, "lat": 38.9075705, "fusion_lat": 0.0}, {"is_disabled": 0, "rental_uris": {"android": "https://dc.lft.to/lastmile_qr_scan", "ios": "https://dc.lft.to/lastmile_qr_scan"}, "is_reserved": 0, "name": "02640e5beafbab57f0f5786004861d91", "lon": -76.99624566666667, "type": "electric_scooter", "bike_id": "02640e5beafbab57f0f5786004861d91", "fusion_lon": 0.0, "lat": 38.900313833333335, "fusion_lat": 0.0}, {"is_disabled": 0, "rental_uris": {"android": "https://dc.lft.to/lastmile_qr_scan", "ios": "https://dc.lft.to/lastmile_qr_scan"}, "is_reserved": 0, "name": "3571418baa1ac39c371a0215d494ed6e", "lon": -76.9900655, "type": "electric_scooter", "bike_id": "3571418baa1ac39c371a0215d494ed6e", "fusion_lon": 0.0, "lat": 38.865076333333334, "fusion_lat": 0.0}, {"is_disabled": 0, "rental_uris": {"android": "https://dc.lft.to/lastmile_qr_scan", "ios": "https://dc.lft.to/lastmile_qr_scan"}, "is_reserved": 0, "name": "7275322f634b9aea34f7bfe65c1d78e4", "lon": -76.98881366666667, "type": "electric_scooter", "bike_id": "7275322f634b9aea34f7bfe65c1d78e4", "fusion_lon": 0.0, "lat": 38.8667435, "fusion_lat": 0.0}, {"is_disabled": 0, "rental_uris": {"android": "https://dc.lft.to/lastmile_qr_scan", "ios": "https://dc.lft.to/lastmile_qr_scan"}, "is_reserved": 0, "name": "1e607594d21b6739ff528dc571029d4e", "lon": -77.034331, "type": "electric_scooter", "bike_id": "1e607594d21b6739ff528dc571029d4e", "fusion_lon": 0.0, "lat": 38.904351166666665, "fusion_lat": 0.0}, {"is_disabled": 0, "rental_uris": {"android": "https://dc.lft.to/lastmile_qr_scan", "ios": "https://dc.lft.to/lastmile_qr_scan"}, "is_reserved": 0, "name": "911792f44233d11e276817eea3ea8b46", "lon": -77.01140366666667, "type": "electric_scooter", "bike_id": "911792f44233d11e276817eea3ea8b46", "fusion_lon": 0.0, "lat": 38.906449, "fusion_lat": 0.0}, {"is_disabled": 0, "rental_uris": {"android": "https://dc.lft.to/lastmile_qr_scan", "ios": "https://dc.lft.to/lastmile_qr_scan"}, "is_reserved": 0, "name": "c780304eb256412279f7f03c231ae000", "lon": -77.038586, "type": "electric_scooter", "bike_id": "c780304eb256412279f7f03c231ae000", "fusion_lon": 0.0, "lat": 38.918370333333336, "fusion_lat": 0.0}, {"is_disabled": 0, "rental_uris": {"android": "https://dc.lft.to/lastmile_qr_scan", "ios": "https://dc.lft.to/lastmile_qr_scan"}, "is_reserved": 0, "name": "72765e037e0e5558ba9456945e1ec27b", "lon": -77.03497116666666, "type": "electric_scooter", "bike_id": "72765e037e0e5558ba9456945e1ec27b", "fusion_lon": 0.0, "lat": 38.92347066666667, "fusion_lat": 0.0}, {"is_disabled": 0, "rental_uris": {"android": "https://dc.lft.to/lastmile_qr_scan", "ios": "https://dc.lft.to/lastmile_qr_scan"}, "is_reserved": 0, "name": "736c4e0e53828a9a76b5b2d4c4532d87", "lon": -77.033497, "type": "electric_scooter", "bike_id": "736c4e0e53828a9a76b5b2d4c4532d87", "fusion_lon": 0.0, "lat": 38.895726, "fusion_lat": 0.0}, {"is_disabled": 0, "rental_uris": {"android": "https://dc.lft.to/lastmile_qr_scan", "ios": "https://dc.lft.to/lastmile_qr_scan"}, "is_reserved": 0, "name": "d55a378076310fec47cf3184b4dc59fc", "lon": -76.99521716666666, "type": "electric_scooter", "bike_id": "d55a378076310fec47cf3184b4dc59fc", "fusion_lon": 0.0, "lat": 38.89480416666667, "fusion_lat": 0.0}, {"is_disabled": 0, "rental_uris": {"android": "https://dc.lft.to/lastmile_qr_scan", "ios": "https://dc.lft.to/lastmile_qr_scan"}, "is_reserved": 0, "name": "7cb638841782bb04a905a6261f36f2ae", "lon": -77.00048483333333, "type": "electric_scooter", "bike_id": "7cb638841782bb04a905a6261f36f2ae", "fusion_lon": 0.0, "lat": 38.9190135, "fusion_lat": 0.0}, {"is_disabled": 0, "rental_uris": {"android": "https://dc.lft.to/lastmile_qr_scan", "ios": "https://dc.lft.to/lastmile_qr_scan"}, "is_reserved": 0, "name": "fb98ed8fe60fb1460a8a7821c4013e6f", "lon": -77.04606883333334, "type": "electric_scooter", "bike_id": "fb98ed8fe60fb1460a8a7821c4013e6f", "fusion_lon": 0.0, "lat": 38.90270833333334, "fusion_lat": 0.0}, {"is_disabled": 0, "rental_uris": {"android": "https://dc.lft.to/lastmile_qr_scan", "ios": "https://dc.lft.to/lastmile_qr_scan"}, "is_reserved": 0, "name": "ee4dbaec2366a34145f61944d42facf1", "lon": -77.05057, "type": "electric_scooter", "bike_id": "ee4dbaec2366a34145f61944d42facf1", "fusion_lon": 0.0, "lat": 38.916394, "fusion_lat": 0.0}, {"is_disabled": 0, "rental_uris": {"android": "https://dc.lft.to/lastmile_qr_scan", "ios": "https://dc.lft.to/lastmile_qr_scan"}, "is_reserved": 0, "name": "6c4c45ed1e4d67bbe8cc569b6e45b0b7", "lon": -77.04205933333333, "type": "electric_scooter", "bike_id": "6c4c45ed1e4d67bbe8cc569b6e45b0b7", "fusion_lon": 0.0, "lat": 38.92314533333333, "fusion_lat": 0.0}, {"is_disabled": 0, "rental_uris": {"android": "https://dc.lft.to/lastmile_qr_scan", "ios": "https://dc.lft.to/lastmile_qr_scan"}, "is_reserved": 0, "name": "11b1eebaf482cfaf2509ec70bb2bf899", "lon": -77.0072415, "type": "electric_scooter", "bike_id": "11b1eebaf482cfaf2509ec70bb2bf899", "fusion_lon": 0.0, "lat": 38.884916833333335, "fusion_lat": 0.0}, {"is_disabled": 0, "rental_uris": {"android": "https://dc.lft.to/lastmile_qr_scan", "ios": "https://dc.lft.to/lastmile_qr_scan"}, "is_reserved": 0, "name": "e44794114b35c9509a84bc734d653767", "lon": -77.02518966666666, "type": "electric_scooter", "bike_id": "e44794114b35c9509a84bc734d653767", "fusion_lon": 0.0, "lat": 38.91945166666667, "fusion_lat": 0.0}, {"is_disabled": 0, "rental_uris": {"android": "https://dc.lft.to/lastmile_qr_scan", "ios": "https://dc.lft.to/lastmile_qr_scan"}, "is_reserved": 0, "name": "b3292fe2c7dc0d1a7cbeabf2a1d9aba0", "lon": -76.965295, "type": "electric_bike", "bike_id": "b3292fe2c7dc0d1a7cbeabf2a1d9aba0", "fusion_lon": 0.0, "lat": 38.91875733333333, "fusion_lat": 0.0}, {"is_disabled": 0, "rental_uris": {"android": "https://dc.lft.to/lastmile_qr_scan", "ios": "https://dc.lft.to/lastmile_qr_scan"}, "is_reserved": 0, "name": "cf885020abcc1cf16af9b1eda11669bc", "lon": -76.985958, "type": "electric_scooter", "bike_id": "cf885020abcc1cf16af9b1eda11669bc", "fusion_lon": 0.0, "lat": 38.86055, "fusion_lat": 0.0}, {"is_disabled": 0, "rental_uris": {"android": "https://dc.lft.to/lastmile_qr_scan", "ios": "https://dc.lft.to/lastmile_qr_scan"}, "is_reserved": 0, "name": "f65c36854c5c5c4b92f0a4f02a8bfbf2", "lon": -77.02495433333333, "type": "electric_scooter", "bike_id": "f65c36854c5c5c4b92f0a4f02a8bfbf2", "fusion_lon": 0.0, "lat": 38.91806283333333, "fusion_lat": 0.0}, {"is_disabled": 0, "rental_uris": {"android": "https://dc.lft.to/lastmile_qr_scan", "ios": "https://dc.lft.to/lastmile_qr_scan"}, "is_reserved": 0, "name": "975203f6b0f4c8e1efe23c685dbe83ca", "lon": -77.043599, "type": "electric_scooter", "bike_id": "975203f6b0f4c8e1efe23c685dbe83ca", "fusion_lon": 0.0, "lat": 38.90091916666667, "fusion_lat": 0.0}, {"is_disabled": 0, "rental_uris": {"android": "https://dc.lft.to/lastmile_qr_scan", "ios": "https://dc.lft.to/lastmile_qr_scan"}, "is_reserved": 0, "name": "979905e9dcf396c7c1d95ce4166706df", "lon": -77.03804766666667, "type": "electric_scooter", "bike_id": "979905e9dcf396c7c1d95ce4166706df", "fusion_lon": 0.0, "lat": 38.932215, "fusion_lat": 0.0}, {"is_disabled": 0, "rental_uris": {"android": "https://dc.lft.to/lastmile_qr_scan", "ios": "https://dc.lft.to/lastmile_qr_scan"}, "is_reserved": 0, "name": "efc6c73b5166bea402bf66ab3c194419", "lon": -77.0386915, "type": "electric_scooter", "bike_id": "efc6c73b5166bea402bf66ab3c194419", "fusion_lon": 0.0, "lat": 38.9037355, "fusion_lat": 0.0}, {"is_disabled": 0, "rental_uris": {"android": "https://dc.lft.to/lastmile_qr_scan", "ios": "https://dc.lft.to/lastmile_qr_scan"}, "is_reserved": 0, "name": "34b637dcb6f752e7c068cd82c5683e30", "lon": -77.0321625, "type": "electric_scooter", "bike_id": "34b637dcb6f752e7c068cd82c5683e30", "fusion_lon": 0.0, "lat": 38.908257166666665, "fusion_lat": 0.0}, {"is_disabled": 0, "rental_uris": {"android": "https://dc.lft.to/lastmile_qr_scan", "ios": "https://dc.lft.to/lastmile_qr_scan"}, "is_reserved": 0, "name": "8d8043939b366ee9c1659069c7a6031c", "lon": -77.03535616666667, "type": "electric_scooter", "bike_id": "8d8043939b366ee9c1659069c7a6031c", "fusion_lon": 0.0, "lat": 38.92506983333333, "fusion_lat": 0.0}, {"is_disabled": 0, "rental_uris": {"android": "https://dc.lft.to/lastmile_qr_scan", "ios": "https://dc.lft.to/lastmile_qr_scan"}, "is_reserved": 0, "name": "ac92a3cc9f2c5ed9efcd892801f311f5", "lon": -77.04620833333334, "type": "electric_scooter", "bike_id": "ac92a3cc9f2c5ed9efcd892801f311f5", "fusion_lon": 0.0, "lat": 38.92312716666667, "fusion_lat": 0.0}, {"is_disabled": 0, "rental_uris": {"android": "https://dc.lft.to/lastmile_qr_scan", "ios": "https://dc.lft.to/lastmile_qr_scan"}, "is_reserved": 0, "name": "d1805295bc71712e081b37534af5e37c", "lon": -77.029473, "type": "electric_scooter", "bike_id": "d1805295bc71712e081b37534af5e37c", "fusion_lon": 0.0, "lat": 38.916812166666666, "fusion_lat": 0.0}, {"is_disabled": 0, "rental_uris": {"android": "https://dc.lft.to/lastmile_qr_scan", "ios": "https://dc.lft.to/lastmile_qr_scan"}, "is_reserved": 0, "name": "868db42d45baaf86cc3225d21caa30ad", "lon": -77.02959983333334, "type": "electric_scooter", "bike_id": "868db42d45baaf86cc3225d21caa30ad", "fusion_lon": 0.0, "lat": 38.9214695, "fusion_lat": 0.0}, {"is_disabled": 0, "rental_uris": {"android": "https://dc.lft.to/lastmile_qr_scan", "ios": "https://dc.lft.to/lastmile_qr_scan"}, "is_reserved": 0, "name": "8b1d5bdb70e33cc1c027c4c508733952", "lon": -77.04752, "type": "electric_scooter", "bike_id": "8b1d5bdb70e33cc1c027c4c508733952", "fusion_lon": 0.0, "lat": 38.905330166666666, "fusion_lat": 0.0}, {"is_disabled": 0, "rental_uris": {"android": "https://dc.lft.to/lastmile_qr_scan", "ios": "https://dc.lft.to/lastmile_qr_scan"}, "is_reserved": 0, "name": "9b88ec34df2cb34dd5872a1ae0dae05d", "lon": -77.039267, "type": "electric_scooter", "bike_id": "9b88ec34df2cb34dd5872a1ae0dae05d", "fusion_lon": 0.0, "lat": 38.919097, "fusion_lat": 0.0}, {"is_disabled": 0, "rental_uris": {"android": "https://dc.lft.to/lastmile_qr_scan", "ios": "https://dc.lft.to/lastmile_qr_scan"}, "is_reserved": 0, "name": "84b7550cb4a8b5a713933995494ad4b4", "lon": -77.0415495, "type": "electric_scooter", "bike_id": "84b7550cb4a8b5a713933995494ad4b4", "fusion_lon": 0.0, "lat": 38.9142045, "fusion_lat": 0.0}, {"is_disabled": 0, "rental_uris": {"android": "https://dc.lft.to/lastmile_qr_scan", "ios": "https://dc.lft.to/lastmile_qr_scan"}, "is_reserved": 0, "name": "6903c67cef1e0788bc33b5b310c554d1", "lon": -77.02961866666666, "type": "electric_scooter", "bike_id": "6903c67cef1e0788bc33b5b310c554d1", "fusion_lon": 0.0, "lat": 38.8962235, "fusion_lat": 0.0}, {"is_disabled": 0, "rental_uris": {"android": "https://dc.lft.to/lastmile_qr_scan", "ios": "https://dc.lft.to/lastmile_qr_scan"}, "is_reserved": 0, "name": "88cb12d8dc2cc65dd9fad3b676593449", "lon": -77.0317835, "type": "electric_scooter", "bike_id": "88cb12d8dc2cc65dd9fad3b676593449", "fusion_lon": 0.0, "lat": 38.91415933333333, "fusion_lat": 0.0}, {"is_disabled": 0, "rental_uris": {"android": "https://dc.lft.to/lastmile_qr_scan", "ios": "https://dc.lft.to/lastmile_qr_scan"}, "is_reserved": 0, "name": "7791c3bfab6841967b9941608cba8d65", "lon": -77.03335533333333, "type": "electric_scooter", "bike_id": "7791c3bfab6841967b9941608cba8d65", "fusion_lon": 0.0, "lat": 38.91807566666667, "fusion_lat": 0.0}, {"is_disabled": 0, "rental_uris": {"android": "https://dc.lft.to/lastmile_qr_scan", "ios": "https://dc.lft.to/lastmile_qr_scan"}, "is_reserved": 0, "name": "695432ce34ff2ab31bc878e1af7439ba", "lon": -77.02218916666666, "type": "electric_scooter", "bike_id": "695432ce34ff2ab31bc878e1af7439ba", "fusion_lon": 0.0, "lat": 38.935494, "fusion_lat": 0.0}, {"is_disabled": 0, "rental_uris": {"android": "https://dc.lft.to/lastmile_qr_scan", "ios": "https://dc.lft.to/lastmile_qr_scan"}, "is_reserved": 0, "name": "b456f222cc84e1633ebe3f9d21ad01ed", "lon": -77.12406233333333, "type": "electric_bike", "bike_id": "b456f222cc84e1633ebe3f9d21ad01ed", "fusion_lon": 0.0, "lat": 38.89331416666667, "fusion_lat": 0.0}, {"is_disabled": 0, "rental_uris": {"android": "https://dc.lft.to/lastmile_qr_scan", "ios": "https://dc.lft.to/lastmile_qr_scan"}, "is_reserved": 0, "name": "f3fa8237582f857c8124af68ada77cf9", "lon": -76.93048866666666, "type": "electric_scooter", "bike_id": "f3fa8237582f857c8124af68ada77cf9", "fusion_lon": 0.0, "lat": 38.8979315, "fusion_lat": 0.0}, {"is_disabled": 0, "rental_uris": {"android": "https://dc.lft.to/lastmile_qr_scan", "ios": "https://dc.lft.to/lastmile_qr_scan"}, "is_reserved": 0, "name": "6f9fd00a95b84f0991c90e65bd4b9ccd", "lon": -77.02159883333333, "type": "electric_scooter", "bike_id": "6f9fd00a95b84f0991c90e65bd4b9ccd", "fusion_lon": 0.0, "lat": 38.92607483333333, "fusion_lat": 0.0}, {"is_disabled": 0, "rental_uris": {"android": "https://dc.lft.to/lastmile_qr_scan", "ios": "https://dc.lft.to/lastmile_qr_scan"}, "is_reserved": 0, "name": "60ae662e61abf024d61cf311b933356c", "lon": -77.00580316666667, "type": "electric_scooter", "bike_id": "60ae662e61abf024d61cf311b933356c", "fusion_lon": 0.0, "lat": 38.875273166666666, "fusion_lat": 0.0}, {"is_disabled": 0, "rental_uris": {"android": "https://dc.lft.to/lastmile_qr_scan", "ios": "https://dc.lft.to/lastmile_qr_scan"}, "is_reserved": 0, "name": "9babff14a2a129258c1142dbc486613b", "lon": -77.03225566666667, "type": "electric_scooter", "bike_id": "9babff14a2a129258c1142dbc486613b", "fusion_lon": 0.0, "lat": 38.918385666666666, "fusion_lat": 0.0}, {"is_disabled": 0, "rental_uris": {"android": "https://dc.lft.to/lastmile_qr_scan", "ios": "https://dc.lft.to/lastmile_qr_scan"}, "is_reserved": 0, "name": "9709cb15e6c5bbae620b2e32c6d243de", "lon": -77.04321883333333, "type": "electric_scooter", "bike_id": "9709cb15e6c5bbae620b2e32c6d243de", "fusion_lon": 0.0, "lat": 38.91106633333333, "fusion_lat": 0.0}, {"is_disabled": 0, "rental_uris": {"android": "https://dc.lft.to/lastmile_qr_scan", "ios": "https://dc.lft.to/lastmile_qr_scan"}, "is_reserved": 0, "name": "ff4bce29e9eebf88062eb26b127e9a17", "lon": -76.99632416666667, "type": "electric_scooter", "bike_id": "ff4bce29e9eebf88062eb26b127e9a17", "fusion_lon": 0.0, "lat": 38.846190666666665, "fusion_lat": 0.0}, {"is_disabled": 0, "rental_uris": {"android": "https://dc.lft.to/lastmile_qr_scan", "ios": "https://dc.lft.to/lastmile_qr_scan"}, "is_reserved": 0, "name": "94d53d71714da0e69b2c6b01f4ebfd21", "lon": -77.03349883333334, "type": "electric_scooter", "bike_id": "94d53d71714da0e69b2c6b01f4ebfd21", "fusion_lon": 0.0, "lat": 38.898424, "fusion_lat": 0.0}, {"is_disabled": 0, "rental_uris": {"android": "https://dc.lft.to/lastmile_qr_scan", "ios": "https://dc.lft.to/lastmile_qr_scan"}, "is_reserved": 0, "name": "d8c56b10ea9b66bd1484ca45e0a4c3bd", "lon": -77.03665166666667, "type": "electric_scooter", "bike_id": "d8c56b10ea9b66bd1484ca45e0a4c3bd", "fusion_lon": 0.0, "lat": 38.90314733333334, "fusion_lat": 0.0}, {"is_disabled": 0, "rental_uris": {"android": "https://dc.lft.to/lastmile_qr_scan", "ios": "https://dc.lft.to/lastmile_qr_scan"}, "is_reserved": 0, "name": "be02f070d488efc4fa7b69867627d397", "lon": -77.03698666666666, "type": "electric_scooter", "bike_id": "be02f070d488efc4fa7b69867627d397", "fusion_lon": 0.0, "lat": 38.9264245, "fusion_lat": 0.0}, {"is_disabled": 0, "rental_uris": {"android": "https://dc.lft.to/lastmile_qr_scan", "ios": "https://dc.lft.to/lastmile_qr_scan"}, "is_reserved": 0, "name": "5ab1076e423b2ee61f40f894c006b57e", "lon": -77.070847, "type": "electric_bike", "bike_id": "5ab1076e423b2ee61f40f894c006b57e", "fusion_lon": 0.0, "lat": 38.90623983333333, "fusion_lat": 0.0}, {"is_disabled": 0, "rental_uris": {"android": "https://dc.lft.to/lastmile_qr_scan", "ios": "https://dc.lft.to/lastmile_qr_scan"}, "is_reserved": 0, "name": "5f9a20d1aacc853b850dbdddf60ed852", "lon": -77.04580716666666, "type": "electric_scooter", "bike_id": "5f9a20d1aacc853b850dbdddf60ed852", "fusion_lon": 0.0, "lat": 38.92420083333333, "fusion_lat": 0.0}, {"is_disabled": 0, "rental_uris": {"android": "https://dc.lft.to/lastmile_qr_scan", "ios": "https://dc.lft.to/lastmile_qr_scan"}, "is_reserved": 0, "name": "0928944b27fa0a67e8e16c275852b85f", "lon": -77.01996566666666, "type": "electric_scooter", "bike_id": "0928944b27fa0a67e8e16c275852b85f", "fusion_lon": 0.0, "lat": 38.96626766666667, "fusion_lat": 0.0}, {"is_disabled": 0, "rental_uris": {"android": "https://dc.lft.to/lastmile_qr_scan", "ios": "https://dc.lft.to/lastmile_qr_scan"}, "is_reserved": 0, "name": "cbec1d6cbe61488302c7dae8afed6dbf", "lon": -77.04164366666667, "type": "electric_scooter", "bike_id": "cbec1d6cbe61488302c7dae8afed6dbf", "fusion_lon": 0.0, "lat": 38.905761166666665, "fusion_lat": 0.0}, {"is_disabled": 0, "rental_uris": {"android": "https://dc.lft.to/lastmile_qr_scan", "ios": "https://dc.lft.to/lastmile_qr_scan"}, "is_reserved": 0, "name": "570347bda9b92ac40598e6c5d5d3b394", "lon": -77.032073, "type": "electric_scooter", "bike_id": "570347bda9b92ac40598e6c5d5d3b394", "fusion_lon": 0.0, "lat": 38.915378833333335, "fusion_lat": 0.0}, {"is_disabled": 0, "rental_uris": {"android": "https://dc.lft.to/lastmile_qr_scan", "ios": "https://dc.lft.to/lastmile_qr_scan"}, "is_reserved": 0, "name": "de68dd6a4cf4f51225816fb99940bd48", "lon": -77.02707366666667, "type": "electric_scooter", "bike_id": "de68dd6a4cf4f51225816fb99940bd48", "fusion_lon": 0.0, "lat": 38.89724183333333, "fusion_lat": 0.0}, {"is_disabled": 0, "rental_uris": {"android": "https://dc.lft.to/lastmile_qr_scan", "ios": "https://dc.lft.to/lastmile_qr_scan"}, "is_reserved": 0, "name": "86287061d58fcb3fcecfd41578f3831d", "lon": -77.04131016666666, "type": "electric_bike", "bike_id": "86287061d58fcb3fcecfd41578f3831d", "fusion_lon": 0.0, "lat": 38.94396533333333, "fusion_lat": 0.0}, {"is_disabled": 0, "rental_uris": {"android": "https://dc.lft.to/lastmile_qr_scan", "ios": "https://dc.lft.to/lastmile_qr_scan"}, "is_reserved": 0, "name": "0bcb7d18f50e9ea1cc19f901cbcd40e6", "lon": -77.00922133333333, "type": "electric_scooter", "bike_id": "0bcb7d18f50e9ea1cc19f901cbcd40e6", "fusion_lon": 0.0, "lat": 38.896452, "fusion_lat": 0.0}, {"is_disabled": 0, "rental_uris": {"android": "https://dc.lft.to/lastmile_qr_scan", "ios": "https://dc.lft.to/lastmile_qr_scan"}, "is_reserved": 0, "name": "1211fa0dec9ba5d8fca91c08b9a3484e", "lon": -77.01514616666667, "type": "electric_scooter", "bike_id": "1211fa0dec9ba5d8fca91c08b9a3484e", "fusion_lon": 0.0, "lat": 38.91016116666667, "fusion_lat": 0.0}, {"is_disabled": 0, "rental_uris": {"android": "https://dc.lft.to/lastmile_qr_scan", "ios": "https://dc.lft.to/lastmile_qr_scan"}, "is_reserved": 0, "name": "511f85af805bb5e451a357fb6d1e3710", "lon": -77.041689, "type": "electric_scooter", "bike_id": "511f85af805bb5e451a357fb6d1e3710", "fusion_lon": 0.0, "lat": 38.9200455, "fusion_lat": 0.0}, {"is_disabled": 0, "rental_uris": {"android": "https://dc.lft.to/lastmile_qr_scan", "ios": "https://dc.lft.to/lastmile_qr_scan"}, "is_reserved": 0, "name": "6498beb8c9089d6ebc3a1ee233658de7", "lon": -77.03107366666667, "type": "electric_scooter", "bike_id": "6498beb8c9089d6ebc3a1ee233658de7", "fusion_lon": 0.0, "lat": 38.920191333333335, "fusion_lat": 0.0}, {"is_disabled": 0, "rental_uris": {"android": "https://dc.lft.to/lastmile_qr_scan", "ios": "https://dc.lft.to/lastmile_qr_scan"}, "is_reserved": 0, "name": "1121bdb926719782b0ff0db795cd80d8", "lon": -77.036138, "type": "electric_scooter", "bike_id": "1121bdb926719782b0ff0db795cd80d8", "fusion_lon": 0.0, "lat": 38.923335, "fusion_lat": 0.0}, {"is_disabled": 0, "rental_uris": {"android": "https://dc.lft.to/lastmile_qr_scan", "ios": "https://dc.lft.to/lastmile_qr_scan"}, "is_reserved": 0, "name": "57813579fba31bd93d3182c76e5d7074", "lon": -77.02387033333333, "type": "electric_scooter", "bike_id": "57813579fba31bd93d3182c76e5d7074", "fusion_lon": 0.0, "lat": 38.927991166666665, "fusion_lat": 0.0}, {"is_disabled": 0, "rental_uris": {"android": "https://dc.lft.to/lastmile_qr_scan", "ios": "https://dc.lft.to/lastmile_qr_scan"}, "is_reserved": 0, "name": "035199a6fc8f7f863ee11f54879bb688", "lon": -77.041583, "type": "electric_scooter", "bike_id": "035199a6fc8f7f863ee11f54879bb688", "fusion_lon": 0.0, "lat": 38.91572166666667, "fusion_lat": 0.0}, {"is_disabled": 0, "rental_uris": {"android": "https://dc.lft.to/lastmile_qr_scan", "ios": "https://dc.lft.to/lastmile_qr_scan"}, "is_reserved": 0, "name": "35481c79f8ab8a27a84cac1b564c7636", "lon": -77.0176325, "type": "electric_scooter", "bike_id": "35481c79f8ab8a27a84cac1b564c7636", "fusion_lon": 0.0, "lat": 38.88328883333333, "fusion_lat": 0.0}, {"is_disabled": 0, "rental_uris": {"android": "https://dc.lft.to/lastmile_qr_scan", "ios": "https://dc.lft.to/lastmile_qr_scan"}, "is_reserved": 0, "name": "5f18e7a1a976b0d0d6938ef3ea5503bd", "lon": -77.00137833333334, "type": "electric_scooter", "bike_id": "5f18e7a1a976b0d0d6938ef3ea5503bd", "fusion_lon": 0.0, "lat": 38.90027166666667, "fusion_lat": 0.0}, {"is_disabled": 0, "rental_uris": {"android": "https://dc.lft.to/lastmile_qr_scan", "ios": "https://dc.lft.to/lastmile_qr_scan"}, "is_reserved": 0, "name": "f1579ddf76c0dab324ad3c6ef1fdf65f", "lon": -77.04674483333334, "type": "electric_scooter", "bike_id": "f1579ddf76c0dab324ad3c6ef1fdf65f", "fusion_lon": 0.0, "lat": 38.89554716666667, "fusion_lat": 0.0}, {"is_disabled": 0, "rental_uris": {"android": "https://dc.lft.to/lastmile_qr_scan", "ios": "https://dc.lft.to/lastmile_qr_scan"}, "is_reserved": 0, "name": "2ef11a3d6dafde0fdb9a0951c755e382", "lon": -77.04462583333333, "type": "electric_scooter", "bike_id": "2ef11a3d6dafde0fdb9a0951c755e382", "fusion_lon": 0.0, "lat": 38.90416, "fusion_lat": 0.0}, {"is_disabled": 0, "rental_uris": {"android": "https://dc.lft.to/lastmile_qr_scan", "ios": "https://dc.lft.to/lastmile_qr_scan"}, "is_reserved": 0, "name": "8dc4ad8b653344dd7e80eaed4017305d", "lon": -77.03848583333334, "type": "electric_scooter", "bike_id": "8dc4ad8b653344dd7e80eaed4017305d", "fusion_lon": 0.0, "lat": 38.92642133333333, "fusion_lat": 0.0}, {"is_disabled": 0, "rental_uris": {"android": "https://dc.lft.to/lastmile_qr_scan", "ios": "https://dc.lft.to/lastmile_qr_scan"}, "is_reserved": 0, "name": "029b6c50fdcc26210b601e4ffb837892", "lon": -77.12814483333334, "type": "electric_bike", "bike_id": "029b6c50fdcc26210b601e4ffb837892", "fusion_lon": 0.0, "lat": 38.865331833333336, "fusion_lat": 0.0}, {"is_disabled": 0, "rental_uris": {"android": "https://dc.lft.to/lastmile_qr_scan", "ios": "https://dc.lft.to/lastmile_qr_scan"}, "is_reserved": 0, "name": "fc12ea15d34ca7ec5d1fb2476c39515c", "lon": -76.98708466666666, "type": "electric_scooter", "bike_id": "fc12ea15d34ca7ec5d1fb2476c39515c", "fusion_lon": 0.0, "lat": 38.86534533333333, "fusion_lat": 0.0}, {"is_disabled": 0, "rental_uris": {"android": "https://dc.lft.to/lastmile_qr_scan", "ios": "https://dc.lft.to/lastmile_qr_scan"}, "is_reserved": 0, "name": "d053670a839e0b061668b4350f5028ed", "lon": -77.0704515, "type": "electric_bike", "bike_id": "d053670a839e0b061668b4350f5028ed", "fusion_lon": 0.0, "lat": 38.82442316666667, "fusion_lat": 0.0}, {"is_disabled": 0, "rental_uris": {"android": "https://dc.lft.to/lastmile_qr_scan", "ios": "https://dc.lft.to/lastmile_qr_scan"}, "is_reserved": 0, "name": "40b088fc0c64d5fb991af9aa6f434777", "lon": -77.02978716666667, "type": "electric_scooter", "bike_id": "40b088fc0c64d5fb991af9aa6f434777", "fusion_lon": 0.0, "lat": 38.907196166666665, "fusion_lat": 0.0}, {"is_disabled": 0, "rental_uris": {"android": "https://dc.lft.to/lastmile_qr_scan", "ios": "https://dc.lft.to/lastmile_qr_scan"}, "is_reserved": 0, "name": "2a70bef14c7c644f51245a6509cad279", "lon": -77.03352583333333, "type": "electric_scooter", "bike_id": "2a70bef14c7c644f51245a6509cad279", "fusion_lon": 0.0, "lat": 38.8984075, "fusion_lat": 0.0}, {"is_disabled": 0, "rental_uris": {"android": "https://dc.lft.to/lastmile_qr_scan", "ios": "https://dc.lft.to/lastmile_qr_scan"}, "is_reserved": 0, "name": "d8ece9b687e9e3fe714d7ac91b1d9b95", "lon": -76.97944733333334, "type": "electric_scooter", "bike_id": "d8ece9b687e9e3fe714d7ac91b1d9b95", "fusion_lon": 0.0, "lat": 38.90503966666667, "fusion_lat": 0.0}, {"is_disabled": 0, "rental_uris": {"android": "https://dc.lft.to/lastmile_qr_scan", "ios": "https://dc.lft.to/lastmile_qr_scan"}, "is_reserved": 0, "name": "f12a06f7f680d91c49e897fecbd58ec6", "lon": -77.02010816666666, "type": "electric_scooter", "bike_id": "f12a06f7f680d91c49e897fecbd58ec6", "fusion_lon": 0.0, "lat": 38.9241925, "fusion_lat": 0.0}, {"is_disabled": 0, "rental_uris": {"android": "https://dc.lft.to/lastmile_qr_scan", "ios": "https://dc.lft.to/lastmile_qr_scan"}, "is_reserved": 0, "name": "2a7c89876a10975a2a5ee2a2d5e242da", "lon": -77.02158066666667, "type": "electric_scooter", "bike_id": "2a7c89876a10975a2a5ee2a2d5e242da", "fusion_lon": 0.0, "lat": 38.89410783333334, "fusion_lat": 0.0}, {"is_disabled": 0, "rental_uris": {"android": "https://dc.lft.to/lastmile_qr_scan", "ios": "https://dc.lft.to/lastmile_qr_scan"}, "is_reserved": 0, "name": "94bbf22cdaeb92a7c559123a9b4c8533", "lon": -77.03439533333334, "type": "electric_scooter", "bike_id": "94bbf22cdaeb92a7c559123a9b4c8533", "fusion_lon": 0.0, "lat": 38.90268916666667, "fusion_lat": 0.0}, {"is_disabled": 0, "rental_uris": {"android": "https://dc.lft.to/lastmile_qr_scan", "ios": "https://dc.lft.to/lastmile_qr_scan"}, "is_reserved": 0, "name": "442aa4516e5caf5c3b1d634d640b4bb1", "lon": -77.00570583333334, "type": "electric_scooter", "bike_id": "442aa4516e5caf5c3b1d634d640b4bb1", "fusion_lon": 0.0, "lat": 38.885040833333335, "fusion_lat": 0.0}, {"is_disabled": 0, "rental_uris": {"android": "https://dc.lft.to/lastmile_qr_scan", "ios": "https://dc.lft.to/lastmile_qr_scan"}, "is_reserved": 0, "name": "75dadb7b14e62e0683e3e4cbf54f1336", "lon": -77.04514383333333, "type": "electric_scooter", "bike_id": "75dadb7b14e62e0683e3e4cbf54f1336", "fusion_lon": 0.0, "lat": 38.9038, "fusion_lat": 0.0}, {"is_disabled": 0, "rental_uris": {"android": "https://dc.lft.to/lastmile_qr_scan", "ios": "https://dc.lft.to/lastmile_qr_scan"}, "is_reserved": 0, "name": "c310a6cd96e14c55bf55375774d100d0", "lon": -77.046918, "type": "electric_scooter", "bike_id": "c310a6cd96e14c55bf55375774d100d0", "fusion_lon": 0.0, "lat": 38.8974165, "fusion_lat": 0.0}, {"is_disabled": 0, "rental_uris": {"android": "https://dc.lft.to/lastmile_qr_scan", "ios": "https://dc.lft.to/lastmile_qr_scan"}, "is_reserved": 0, "name": "192aac578a3129ac7204e20312b9740b", "lon": -77.05076683333333, "type": "electric_scooter", "bike_id": "192aac578a3129ac7204e20312b9740b", "fusion_lon": 0.0, "lat": 38.905418833333336, "fusion_lat": 0.0}, {"is_disabled": 0, "rental_uris": {"android": "https://dc.lft.to/lastmile_qr_scan", "ios": "https://dc.lft.to/lastmile_qr_scan"}, "is_reserved": 0, "name": "9601a132c2e2720e3a0afdcf1c298da2", "lon": -77.0263135, "type": "electric_scooter", "bike_id": "9601a132c2e2720e3a0afdcf1c298da2", "fusion_lon": 0.0, "lat": 38.979420833333336, "fusion_lat": 0.0}, {"is_disabled": 0, "rental_uris": {"android": "https://dc.lft.to/lastmile_qr_scan", "ios": "https://dc.lft.to/lastmile_qr_scan"}, "is_reserved": 0, "name": "4ffd97a055adab615fe4dba4fa74a66d", "lon": -77.02744816666667, "type": "electric_scooter", "bike_id": "4ffd97a055adab615fe4dba4fa74a66d", "fusion_lon": 0.0, "lat": 38.9430905, "fusion_lat": 0.0}, {"is_disabled": 0, "rental_uris": {"android": "https://dc.lft.to/lastmile_qr_scan", "ios": "https://dc.lft.to/lastmile_qr_scan"}, "is_reserved": 0, "name": "4666c4ede5f6d8bf44f04b53be27fe86", "lon": -77.04761283333333, "type": "electric_scooter", "bike_id": "4666c4ede5f6d8bf44f04b53be27fe86", "fusion_lon": 0.0, "lat": 38.90229333333333, "fusion_lat": 0.0}, {"is_disabled": 0, "rental_uris": {"android": "https://dc.lft.to/lastmile_qr_scan", "ios": "https://dc.lft.to/lastmile_qr_scan"}, "is_reserved": 0, "name": "d5f2b21364017e86763981b5a2ac7b25", "lon": -77.02839566666667, "type": "electric_scooter", "bike_id": "d5f2b21364017e86763981b5a2ac7b25", "fusion_lon": 0.0, "lat": 38.93301483333333, "fusion_lat": 0.0}, {"is_disabled": 0, "rental_uris": {"android": "https://dc.lft.to/lastmile_qr_scan", "ios": "https://dc.lft.to/lastmile_qr_scan"}, "is_reserved": 0, "name": "b11e61831f44e3c5029f8d30b5db6853", "lon": -77.04025733333333, "type": "electric_scooter", "bike_id": "b11e61831f44e3c5029f8d30b5db6853", "fusion_lon": 0.0, "lat": 38.917939, "fusion_lat": 0.0}, {"is_disabled": 0, "rental_uris": {"android": "https://dc.lft.to/lastmile_qr_scan", "ios": "https://dc.lft.to/lastmile_qr_scan"}, "is_reserved": 0, "name": "dfc2d43aedf44dde3a83c10dd64aa44f", "lon": -76.94120816666667, "type": "electric_scooter", "bike_id": "dfc2d43aedf44dde3a83c10dd64aa44f", "fusion_lon": 0.0, "lat": 38.88447566666667, "fusion_lat": 0.0}, {"is_disabled": 0, "rental_uris": {"android": "https://dc.lft.to/lastmile_qr_scan", "ios": "https://dc.lft.to/lastmile_qr_scan"}, "is_reserved": 0, "name": "3786d289540eb722c842cc9aec843ef0", "lon": -77.04263633333333, "type": "electric_scooter", "bike_id": "3786d289540eb722c842cc9aec843ef0", "fusion_lon": 0.0, "lat": 38.910377833333335, "fusion_lat": 0.0}, {"is_disabled": 0, "rental_uris": {"android": "https://dc.lft.to/lastmile_qr_scan", "ios": "https://dc.lft.to/lastmile_qr_scan"}, "is_reserved": 0, "name": "23c048840dddfa19bb82a32e8844bdc1", "lon": -77.0462085, "type": "electric_scooter", "bike_id": "23c048840dddfa19bb82a32e8844bdc1", "fusion_lon": 0.0, "lat": 38.92315416666667, "fusion_lat": 0.0}, {"is_disabled": 0, "rental_uris": {"android": "https://dc.lft.to/lastmile_qr_scan", "ios": "https://dc.lft.to/lastmile_qr_scan"}, "is_reserved": 0, "name": "479f92b5a3d428079d3aaea5bf41fa54", "lon": -77.0385705, "type": "electric_scooter", "bike_id": "479f92b5a3d428079d3aaea5bf41fa54", "fusion_lon": 0.0, "lat": 38.9037575, "fusion_lat": 0.0}, {"is_disabled": 0, "rental_uris": {"android": "https://dc.lft.to/lastmile_qr_scan", "ios": "https://dc.lft.to/lastmile_qr_scan"}, "is_reserved": 0, "name": "29788eaec006f689ff6b8804c60aeed2", "lon": -77.0265565, "type": "electric_scooter", "bike_id": "29788eaec006f689ff6b8804c60aeed2", "fusion_lon": 0.0, "lat": 38.932771, "fusion_lat": 0.0}, {"is_disabled": 0, "rental_uris": {"android": "https://dc.lft.to/lastmile_qr_scan", "ios": "https://dc.lft.to/lastmile_qr_scan"}, "is_reserved": 0, "name": "6f4dac3b3abbcdaaa1542aa7815b192c", "lon": -77.03479366666667, "type": "electric_scooter", "bike_id": "6f4dac3b3abbcdaaa1542aa7815b192c", "fusion_lon": 0.0, "lat": 38.90411816666666, "fusion_lat": 0.0}, {"is_disabled": 0, "rental_uris": {"android": "https://dc.lft.to/lastmile_qr_scan", "ios": "https://dc.lft.to/lastmile_qr_scan"}, "is_reserved": 0, "name": "66a2a591082e2667d2311d43b47cbdb0", "lon": -76.98778833333333, "type": "electric_scooter", "bike_id": "66a2a591082e2667d2311d43b47cbdb0", "fusion_lon": 0.0, "lat": 38.844658, "fusion_lat": 0.0}, {"is_disabled": 0, "rental_uris": {"android": "https://dc.lft.to/lastmile_qr_scan", "ios": "https://dc.lft.to/lastmile_qr_scan"}, "is_reserved": 0, "name": "2127b41b7b72abf24baadd57c3383a4c", "lon": -77.038959, "type": "electric_scooter", "bike_id": "2127b41b7b72abf24baadd57c3383a4c", "fusion_lon": 0.0, "lat": 38.924957, "fusion_lat": 0.0}, {"is_disabled": 0, "rental_uris": {"android": "https://dc.lft.to/lastmile_qr_scan", "ios": "https://dc.lft.to/lastmile_qr_scan"}, "is_reserved": 0, "name": "d6c0b7051d39ef74244452491bd95340", "lon": -77.029885, "type": "electric_scooter", "bike_id": "d6c0b7051d39ef74244452491bd95340", "fusion_lon": 0.0, "lat": 38.93239033333333, "fusion_lat": 0.0}, {"is_disabled": 0, "rental_uris": {"android": "https://dc.lft.to/lastmile_qr_scan", "ios": "https://dc.lft.to/lastmile_qr_scan"}, "is_reserved": 0, "name": "e6ca5c3935ffcca129c3197bd4298e31", "lon": -76.98829733333334, "type": "electric_bike", "bike_id": "e6ca5c3935ffcca129c3197bd4298e31", "fusion_lon": 0.0, "lat": 38.985595833333335, "fusion_lat": 0.0}, {"is_disabled": 0, "rental_uris": {"android": "https://dc.lft.to/lastmile_qr_scan", "ios": "https://dc.lft.to/lastmile_qr_scan"}, "is_reserved": 0, "name": "95161181ff181b84d2e7137ee3954b10", "lon": -76.98068416666666, "type": "electric_scooter", "bike_id": "95161181ff181b84d2e7137ee3954b10", "fusion_lon": 0.0, "lat": 38.916713, "fusion_lat": 0.0}, {"is_disabled": 0, "rental_uris": {"android": "https://dc.lft.to/lastmile_qr_scan", "ios": "https://dc.lft.to/lastmile_qr_scan"}, "is_reserved": 0, "name": "299a0c7583aadc9f3812d4afd5b2ade0", "lon": -77.01645766666667, "type": "electric_scooter", "bike_id": "299a0c7583aadc9f3812d4afd5b2ade0", "fusion_lon": 0.0, "lat": 38.881096, "fusion_lat": 0.0}, {"is_disabled": 0, "rental_uris": {"android": "https://dc.lft.to/lastmile_qr_scan", "ios": "https://dc.lft.to/lastmile_qr_scan"}, "is_reserved": 0, "name": "b8b91d5fd1541f06b74762b2db6ea8ad", "lon": -76.9895435, "type": "electric_scooter", "bike_id": "b8b91d5fd1541f06b74762b2db6ea8ad", "fusion_lon": 0.0, "lat": 38.843953166666665, "fusion_lat": 0.0}, {"is_disabled": 0, "rental_uris": {"android": "https://dc.lft.to/lastmile_qr_scan", "ios": "https://dc.lft.to/lastmile_qr_scan"}, "is_reserved": 0, "name": "6616decc6d0b094428d144bd8773ab1e", "lon": -77.0321255, "type": "electric_scooter", "bike_id": "6616decc6d0b094428d144bd8773ab1e", "fusion_lon": 0.0, "lat": 38.9257915, "fusion_lat": 0.0}, {"is_disabled": 0, "rental_uris": {"android": "https://dc.lft.to/lastmile_qr_scan", "ios": "https://dc.lft.to/lastmile_qr_scan"}, "is_reserved": 0, "name": "853a3ec277c5275dd62f96fecb43f900", "lon": -77.06354133333333, "type": "electric_scooter", "bike_id": "853a3ec277c5275dd62f96fecb43f900", "fusion_lon": 0.0, "lat": 38.944381166666666, "fusion_lat": 0.0}, {"is_disabled": 0, "rental_uris": {"android": "https://dc.lft.to/lastmile_qr_scan", "ios": "https://dc.lft.to/lastmile_qr_scan"}, "is_reserved": 0, "name": "02de356b5a04a7d65de46efc7c0bbc56", "lon": -77.09097533333333, "type": "electric_scooter", "bike_id": "02de356b5a04a7d65de46efc7c0bbc56", "fusion_lon": 0.0, "lat": 38.956372, "fusion_lat": 0.0}, {"is_disabled": 0, "rental_uris": {"android": "https://dc.lft.to/lastmile_qr_scan", "ios": "https://dc.lft.to/lastmile_qr_scan"}, "is_reserved": 0, "name": "913130c5f101bb3c8c349770d4304e0c", "lon": -77.022282, "type": "electric_scooter", "bike_id": "913130c5f101bb3c8c349770d4304e0c", "fusion_lon": 0.0, "lat": 38.92100766666667, "fusion_lat": 0.0}, {"is_disabled": 0, "rental_uris": {"android": "https://dc.lft.to/lastmile_qr_scan", "ios": "https://dc.lft.to/lastmile_qr_scan"}, "is_reserved": 0, "name": "db15e8901dd35c2945311066384e8abf", "lon": -77.03420466666667, "type": "electric_scooter", "bike_id": "db15e8901dd35c2945311066384e8abf", "fusion_lon": 0.0, "lat": 38.9191895, "fusion_lat": 0.0}, {"is_disabled": 0, "rental_uris": {"android": "https://dc.lft.to/lastmile_qr_scan", "ios": "https://dc.lft.to/lastmile_qr_scan"}, "is_reserved": 0, "name": "fe8b76e6fdc3fdfef3b7479ea6724d0c", "lon": -76.99462233333334, "type": "electric_scooter", "bike_id": "fe8b76e6fdc3fdfef3b7479ea6724d0c", "fusion_lon": 0.0, "lat": 38.861943, "fusion_lat": 0.0}, {"is_disabled": 0, "rental_uris": {"android": "https://dc.lft.to/lastmile_qr_scan", "ios": "https://dc.lft.to/lastmile_qr_scan"}, "is_reserved": 0, "name": "547ff300676f8e17272d4012fa26ee24", "lon": -77.04369666666666, "type": "electric_scooter", "bike_id": "547ff300676f8e17272d4012fa26ee24", "fusion_lon": 0.0, "lat": 38.925692, "fusion_lat": 0.0}, {"is_disabled": 0, "rental_uris": {"android": "https://dc.lft.to/lastmile_qr_scan", "ios": "https://dc.lft.to/lastmile_qr_scan"}, "is_reserved": 0, "name": "cf072186df52fb1fc8acd6e868b1371b", "lon": -77.04602033333333, "type": "electric_scooter", "bike_id": "cf072186df52fb1fc8acd6e868b1371b", "fusion_lon": 0.0, "lat": 38.905789166666665, "fusion_lat": 0.0}, {"is_disabled": 0, "rental_uris": {"android": "https://dc.lft.to/lastmile_qr_scan", "ios": "https://dc.lft.to/lastmile_qr_scan"}, "is_reserved": 0, "name": "3685385543a96768dfd8998143d94642", "lon": -77.00932366666666, "type": "electric_scooter", "bike_id": "3685385543a96768dfd8998143d94642", "fusion_lon": 0.0, "lat": 38.898387166666666, "fusion_lat": 0.0}, {"is_disabled": 0, "rental_uris": {"android": "https://dc.lft.to/lastmile_qr_scan", "ios": "https://dc.lft.to/lastmile_qr_scan"}, "is_reserved": 0, "name": "1100c593df62e73ed3a867dd93aafb20", "lon": -77.03856066666667, "type": "electric_scooter", "bike_id": "1100c593df62e73ed3a867dd93aafb20", "fusion_lon": 0.0, "lat": 38.918378, "fusion_lat": 0.0}, {"is_disabled": 0, "rental_uris": {"android": "https://dc.lft.to/lastmile_qr_scan", "ios": "https://dc.lft.to/lastmile_qr_scan"}, "is_reserved": 0, "name": "59dab884768270bfbe970b6c3d8ce2c4", "lon": -77.00488483333334, "type": "electric_scooter", "bike_id": "59dab884768270bfbe970b6c3d8ce2c4", "fusion_lon": 0.0, "lat": 38.9057545, "fusion_lat": 0.0}, {"is_disabled": 0, "rental_uris": {"android": "https://dc.lft.to/lastmile_qr_scan", "ios": "https://dc.lft.to/lastmile_qr_scan"}, "is_reserved": 0, "name": "30b35675fc7bdf50e87dfa842f820907", "lon": -77.00570183333333, "type": "electric_scooter", "bike_id": "30b35675fc7bdf50e87dfa842f820907", "fusion_lon": 0.0, "lat": 38.885033, "fusion_lat": 0.0}, {"is_disabled": 0, "rental_uris": {"android": "https://dc.lft.to/lastmile_qr_scan", "ios": "https://dc.lft.to/lastmile_qr_scan"}, "is_reserved": 0, "name": "d67b2c7dad7925e55641cdba161682aa", "lon": -77.11426466666667, "type": "electric_bike", "bike_id": "d67b2c7dad7925e55641cdba161682aa", "fusion_lon": 0.0, "lat": 38.85244816666667, "fusion_lat": 0.0}, {"is_disabled": 0, "rental_uris": {"android": "https://dc.lft.to/lastmile_qr_scan", "ios": "https://dc.lft.to/lastmile_qr_scan"}, "is_reserved": 0, "name": "994b71b206d2f99eb09fcc85a13a0db4", "lon": -77.027261, "type": "electric_scooter", "bike_id": "994b71b206d2f99eb09fcc85a13a0db4", "fusion_lon": 0.0, "lat": 38.904750166666666, "fusion_lat": 0.0}, {"is_disabled": 0, "rental_uris": {"android": "https://dc.lft.to/lastmile_qr_scan", "ios": "https://dc.lft.to/lastmile_qr_scan"}, "is_reserved": 0, "name": "cb800a4beade9784ef19e42b2310ee80", "lon": -77.01135283333333, "type": "electric_scooter", "bike_id": "cb800a4beade9784ef19e42b2310ee80", "fusion_lon": 0.0, "lat": 38.909578, "fusion_lat": 0.0}, {"is_disabled": 0, "rental_uris": {"android": "https://dc.lft.to/lastmile_qr_scan", "ios": "https://dc.lft.to/lastmile_qr_scan"}, "is_reserved": 0, "name": "4b02c5c69a54dcf5156e63c7c95d83ab", "lon": -77.02374266666666, "type": "electric_scooter", "bike_id": "4b02c5c69a54dcf5156e63c7c95d83ab", "fusion_lon": 0.0, "lat": 38.90200166666666, "fusion_lat": 0.0}, {"is_disabled": 0, "rental_uris": {"android": "https://dc.lft.to/lastmile_qr_scan", "ios": "https://dc.lft.to/lastmile_qr_scan"}, "is_reserved": 0, "name": "949da7c392a021f7a2b46bf2cbb0a00b", "lon": -77.03266183333334, "type": "electric_scooter", "bike_id": "949da7c392a021f7a2b46bf2cbb0a00b", "fusion_lon": 0.0, "lat": 38.935224833333336, "fusion_lat": 0.0}, {"is_disabled": 0, "rental_uris": {"android": "https://dc.lft.to/lastmile_qr_scan", "ios": "https://dc.lft.to/lastmile_qr_scan"}, "is_reserved": 0, "name": "3876d576e7684e8823ec4970d22aa298", "lon": -77.04682366666667, "type": "electric_scooter", "bike_id": "3876d576e7684e8823ec4970d22aa298", "fusion_lon": 0.0, "lat": 38.915892, "fusion_lat": 0.0}, {"is_disabled": 0, "rental_uris": {"android": "https://dc.lft.to/lastmile_qr_scan", "ios": "https://dc.lft.to/lastmile_qr_scan"}, "is_reserved": 0, "name": "9e50e146594d39d3a020306bd770b913", "lon": -76.9076005, "type": "electric_bike", "bike_id": "9e50e146594d39d3a020306bd770b913", "fusion_lon": 0.0, "lat": 38.9243715, "fusion_lat": 0.0}, {"is_disabled": 0, "rental_uris": {"android": "https://dc.lft.to/lastmile_qr_scan", "ios": "https://dc.lft.to/lastmile_qr_scan"}, "is_reserved": 0, "name": "04a8d12f751b2cd2e58c207a0053de6f", "lon": -77.03249166666667, "type": "electric_scooter", "bike_id": "04a8d12f751b2cd2e58c207a0053de6f", "fusion_lon": 0.0, "lat": 38.91485733333333, "fusion_lat": 0.0}, {"is_disabled": 0, "rental_uris": {"android": "https://dc.lft.to/lastmile_qr_scan", "ios": "https://dc.lft.to/lastmile_qr_scan"}, "is_reserved": 0, "name": "ee7bb8c1592a95bbac80877a2657580e", "lon": -77.024832, "type": "electric_scooter", "bike_id": "ee7bb8c1592a95bbac80877a2657580e", "fusion_lon": 0.0, "lat": 38.93880383333333, "fusion_lat": 0.0}, {"is_disabled": 0, "rental_uris": {"android": "https://dc.lft.to/lastmile_qr_scan", "ios": "https://dc.lft.to/lastmile_qr_scan"}, "is_reserved": 0, "name": "194520899fbab4c1b736cb0e55d5154e", "lon": -77.051071, "type": "electric_scooter", "bike_id": "194520899fbab4c1b736cb0e55d5154e", "fusion_lon": 0.0, "lat": 38.923638833333335, "fusion_lat": 0.0}, {"is_disabled": 0, "rental_uris": {"android": "https://dc.lft.to/lastmile_qr_scan", "ios": "https://dc.lft.to/lastmile_qr_scan"}, "is_reserved": 0, "name": "1d006fd8bef7d8ad811bcadbc6b19a48", "lon": -77.03158833333333, "type": "electric_scooter", "bike_id": "1d006fd8bef7d8ad811bcadbc6b19a48", "fusion_lon": 0.0, "lat": 38.9200725, "fusion_lat": 0.0}, {"is_disabled": 0, "rental_uris": {"android": "https://dc.lft.to/lastmile_qr_scan", "ios": "https://dc.lft.to/lastmile_qr_scan"}, "is_reserved": 0, "name": "17a27345359558bf28ae5a5a64b8a0bb", "lon": -77.05040383333333, "type": "electric_scooter", "bike_id": "17a27345359558bf28ae5a5a64b8a0bb", "fusion_lon": 0.0, "lat": 38.923560333333334, "fusion_lat": 0.0}, {"is_disabled": 0, "rental_uris": {"android": "https://dc.lft.to/lastmile_qr_scan", "ios": "https://dc.lft.to/lastmile_qr_scan"}, "is_reserved": 0, "name": "8610be82ff4f10b3947d78377bf4294a", "lon": -77.04864766666667, "type": "electric_scooter", "bike_id": "8610be82ff4f10b3947d78377bf4294a", "fusion_lon": 0.0, "lat": 38.89223033333333, "fusion_lat": 0.0}, {"is_disabled": 0, "rental_uris": {"android": "https://dc.lft.to/lastmile_qr_scan", "ios": "https://dc.lft.to/lastmile_qr_scan"}, "is_reserved": 0, "name": "327c524f2be6203f0cc97deb335f3e06", "lon": -77.035777, "type": "electric_scooter", "bike_id": "327c524f2be6203f0cc97deb335f3e06", "fusion_lon": 0.0, "lat": 38.9076415, "fusion_lat": 0.0}, {"is_disabled": 0, "rental_uris": {"android": "https://dc.lft.to/lastmile_qr_scan", "ios": "https://dc.lft.to/lastmile_qr_scan"}, "is_reserved": 0, "name": "e2425a2c6d5d0a5e46eb4a213787e086", "lon": -77.04130033333334, "type": "electric_scooter", "bike_id": "e2425a2c6d5d0a5e46eb4a213787e086", "fusion_lon": 0.0, "lat": 38.89938983333333, "fusion_lat": 0.0}, {"is_disabled": 0, "rental_uris": {"android": "https://dc.lft.to/lastmile_qr_scan", "ios": "https://dc.lft.to/lastmile_qr_scan"}, "is_reserved": 0, "name": "888368116b961e1e951fc896f0d0296e", "lon": -77.0321475, "type": "electric_scooter", "bike_id": "888368116b961e1e951fc896f0d0296e", "fusion_lon": 0.0, "lat": 38.89219833333333, "fusion_lat": 0.0}, {"is_disabled": 0, "rental_uris": {"android": "https://dc.lft.to/lastmile_qr_scan", "ios": "https://dc.lft.to/lastmile_qr_scan"}, "is_reserved": 0, "name": "c7b80cfc26e66ee40658d754cb1b8f0c", "lon": -77.0222045, "type": "electric_scooter", "bike_id": "c7b80cfc26e66ee40658d754cb1b8f0c", "fusion_lon": 0.0, "lat": 38.9355235, "fusion_lat": 0.0}, {"is_disabled": 0, "rental_uris": {"android": "https://dc.lft.to/lastmile_qr_scan", "ios": "https://dc.lft.to/lastmile_qr_scan"}, "is_reserved": 0, "name": "017800bfc724b1d218de0afff7040841", "lon": -76.99486633333333, "type": "electric_scooter", "bike_id": "017800bfc724b1d218de0afff7040841", "fusion_lon": 0.0, "lat": 38.862353, "fusion_lat": 0.0}, {"is_disabled": 0, "rental_uris": {"android": "https://dc.lft.to/lastmile_qr_scan", "ios": "https://dc.lft.to/lastmile_qr_scan"}, "is_reserved": 0, "name": "493c38f46c79163696ebe4244b91f371", "lon": -77.089774, "type": "electric_scooter", "bike_id": "493c38f46c79163696ebe4244b91f371", "fusion_lon": 0.0, "lat": 38.91636483333333, "fusion_lat": 0.0}, {"is_disabled": 0, "rental_uris": {"android": "https://dc.lft.to/lastmile_qr_scan", "ios": "https://dc.lft.to/lastmile_qr_scan"}, "is_reserved": 0, "name": "055d3739d4a451a8f541012edab4c184", "lon": -77.02776766666666, "type": "electric_scooter", "bike_id": "055d3739d4a451a8f541012edab4c184", "fusion_lon": 0.0, "lat": 38.91018833333333, "fusion_lat": 0.0}, {"is_disabled": 0, "rental_uris": {"android": "https://dc.lft.to/lastmile_qr_scan", "ios": "https://dc.lft.to/lastmile_qr_scan"}, "is_reserved": 0, "name": "c74e0db03278108e79f96d844b3230bd", "lon": -77.03222016666666, "type": "electric_scooter", "bike_id": "c74e0db03278108e79f96d844b3230bd", "fusion_lon": 0.0, "lat": 38.901387, "fusion_lat": 0.0}, {"is_disabled": 0, "rental_uris": {"android": "https://dc.lft.to/lastmile_qr_scan", "ios": "https://dc.lft.to/lastmile_qr_scan"}, "is_reserved": 0, "name": "80ec39609153fda6c39946405b741a77", "lon": -77.06898816666667, "type": "electric_scooter", "bike_id": "80ec39609153fda6c39946405b741a77", "fusion_lon": 0.0, "lat": 38.90784766666667, "fusion_lat": 0.0}, {"is_disabled": 0, "rental_uris": {"android": "https://dc.lft.to/lastmile_qr_scan", "ios": "https://dc.lft.to/lastmile_qr_scan"}, "is_reserved": 0, "name": "57abdac4e955261eb812e777424b883a", "lon": -77.03182983333333, "type": "electric_scooter", "bike_id": "57abdac4e955261eb812e777424b883a", "fusion_lon": 0.0, "lat": 38.891761333333335, "fusion_lat": 0.0}, {"is_disabled": 0, "rental_uris": {"android": "https://dc.lft.to/lastmile_qr_scan", "ios": "https://dc.lft.to/lastmile_qr_scan"}, "is_reserved": 0, "name": "e08da7c8eb15b19c434fa14e4adac333", "lon": -77.03466733333333, "type": "electric_scooter", "bike_id": "e08da7c8eb15b19c434fa14e4adac333", "fusion_lon": 0.0, "lat": 38.9214245, "fusion_lat": 0.0}, {"is_disabled": 0, "rental_uris": {"android": "https://dc.lft.to/lastmile_qr_scan", "ios": "https://dc.lft.to/lastmile_qr_scan"}, "is_reserved": 0, "name": "96748a9ebe0336a26ba0afd8d32cbc7b", "lon": -77.022061, "type": "electric_scooter", "bike_id": "96748a9ebe0336a26ba0afd8d32cbc7b", "fusion_lon": 0.0, "lat": 38.914244, "fusion_lat": 0.0}, {"is_disabled": 0, "rental_uris": {"android": "https://dc.lft.to/lastmile_qr_scan", "ios": "https://dc.lft.to/lastmile_qr_scan"}, "is_reserved": 0, "name": "0d8c7bd894aa2fa998c82060204a6b61", "lon": -76.98610666666667, "type": "electric_scooter", "bike_id": "0d8c7bd894aa2fa998c82060204a6b61", "fusion_lon": 0.0, "lat": 38.882902666666666, "fusion_lat": 0.0}, {"is_disabled": 0, "rental_uris": {"android": "https://dc.lft.to/lastmile_qr_scan", "ios": "https://dc.lft.to/lastmile_qr_scan"}, "is_reserved": 0, "name": "cbaa75603ea70a1228a6411ae3a5a5ad", "lon": -77.02157333333334, "type": "electric_scooter", "bike_id": "cbaa75603ea70a1228a6411ae3a5a5ad", "fusion_lon": 0.0, "lat": 38.926105166666666, "fusion_lat": 0.0}, {"is_disabled": 0, "rental_uris": {"android": "https://dc.lft.to/lastmile_qr_scan", "ios": "https://dc.lft.to/lastmile_qr_scan"}, "is_reserved": 0, "name": "ad064639620749fdf92a78133f7418f8", "lon": -77.02675483333333, "type": "electric_scooter", "bike_id": "ad064639620749fdf92a78133f7418f8", "fusion_lon": 0.0, "lat": 38.90000583333333, "fusion_lat": 0.0}, {"is_disabled": 0, "rental_uris": {"android": "https://dc.lft.to/lastmile_qr_scan", "ios": "https://dc.lft.to/lastmile_qr_scan"}, "is_reserved": 0, "name": "22f40308b89af63721dec9a3eaeca720", "lon": -77.04494766666667, "type": "electric_scooter", "bike_id": "22f40308b89af63721dec9a3eaeca720", "fusion_lon": 0.0, "lat": 38.905382, "fusion_lat": 0.0}, {"is_disabled": 0, "rental_uris": {"android": "https://dc.lft.to/lastmile_qr_scan", "ios": "https://dc.lft.to/lastmile_qr_scan"}, "is_reserved": 0, "name": "8649465ff5b621e9f39e2d8c3eade25c", "lon": -77.04348283333333, "type": "electric_scooter", "bike_id": "8649465ff5b621e9f39e2d8c3eade25c", "fusion_lon": 0.0, "lat": 38.92167233333333, "fusion_lat": 0.0}, {"is_disabled": 0, "rental_uris": {"android": "https://dc.lft.to/lastmile_qr_scan", "ios": "https://dc.lft.to/lastmile_qr_scan"}, "is_reserved": 0, "name": "89ba20ab7354fc4ae87605b2155e52e1", "lon": -77.02806983333333, "type": "electric_scooter", "bike_id": "89ba20ab7354fc4ae87605b2155e52e1", "fusion_lon": 0.0, "lat": 38.90737683333333, "fusion_lat": 0.0}, {"is_disabled": 0, "rental_uris": {"android": "https://dc.lft.to/lastmile_qr_scan", "ios": "https://dc.lft.to/lastmile_qr_scan"}, "is_reserved": 0, "name": "f7009b5d0a2eae4a376708e2e293298a", "lon": -76.986179, "type": "electric_scooter", "bike_id": "f7009b5d0a2eae4a376708e2e293298a", "fusion_lon": 0.0, "lat": 38.90348133333333, "fusion_lat": 0.0}, {"is_disabled": 0, "rental_uris": {"android": "https://dc.lft.to/lastmile_qr_scan", "ios": "https://dc.lft.to/lastmile_qr_scan"}, "is_reserved": 0, "name": "ba981239cb3b2c06e231acdc2585aa4f", "lon": -77.021767, "type": "electric_scooter", "bike_id": "ba981239cb3b2c06e231acdc2585aa4f", "fusion_lon": 0.0, "lat": 38.895165666666664, "fusion_lat": 0.0}, {"is_disabled": 0, "rental_uris": {"android": "https://dc.lft.to/lastmile_qr_scan", "ios": "https://dc.lft.to/lastmile_qr_scan"}, "is_reserved": 0, "name": "3ec455bc42af16f06f4292a0e4663523", "lon": -77.03057083333333, "type": "electric_scooter", "bike_id": "3ec455bc42af16f06f4292a0e4663523", "fusion_lon": 0.0, "lat": 38.9097175, "fusion_lat": 0.0}, {"is_disabled": 0, "rental_uris": {"android": "https://dc.lft.to/lastmile_qr_scan", "ios": "https://dc.lft.to/lastmile_qr_scan"}, "is_reserved": 0, "name": "66d5b360762d422163674a426a07bd56", "lon": -76.98090833333333, "type": "electric_scooter", "bike_id": "66d5b360762d422163674a426a07bd56", "fusion_lon": 0.0, "lat": 38.857156, "fusion_lat": 0.0}, {"is_disabled": 0, "rental_uris": {"android": "https://dc.lft.to/lastmile_qr_scan", "ios": "https://dc.lft.to/lastmile_qr_scan"}, "is_reserved": 0, "name": "dd4e0ecdb2b20ec7c4620868b6f93d8d", "lon": -77.05098216666667, "type": "electric_scooter", "bike_id": "dd4e0ecdb2b20ec7c4620868b6f93d8d", "fusion_lon": 0.0, "lat": 38.9234035, "fusion_lat": 0.0}, {"is_disabled": 0, "rental_uris": {"android": "https://dc.lft.to/lastmile_qr_scan", "ios": "https://dc.lft.to/lastmile_qr_scan"}, "is_reserved": 0, "name": "161055c8c96c368c57d83f77c490bd3e", "lon": -77.045369, "type": "electric_scooter", "bike_id": "161055c8c96c368c57d83f77c490bd3e", "fusion_lon": 0.0, "lat": 38.90138666666667, "fusion_lat": 0.0}, {"is_disabled": 0, "rental_uris": {"android": "https://dc.lft.to/lastmile_qr_scan", "ios": "https://dc.lft.to/lastmile_qr_scan"}, "is_reserved": 0, "name": "26b58a72aad513718d9b7bc27de80222", "lon": -76.9691705, "type": "electric_scooter", "bike_id": "26b58a72aad513718d9b7bc27de80222", "fusion_lon": 0.0, "lat": 38.85525716666667, "fusion_lat": 0.0}, {"is_disabled": 0, "rental_uris": {"android": "https://dc.lft.to/lastmile_qr_scan", "ios": "https://dc.lft.to/lastmile_qr_scan"}, "is_reserved": 0, "name": "26a2b549edf8335c9f4aea254c4b85e3", "lon": -77.18291716666667, "type": "electric_bike", "bike_id": "26a2b549edf8335c9f4aea254c4b85e3", "fusion_lon": 0.0, "lat": 38.88341533333333, "fusion_lat": 0.0}, {"is_disabled": 0, "rental_uris": {"android": "https://dc.lft.to/lastmile_qr_scan", "ios": "https://dc.lft.to/lastmile_qr_scan"}, "is_reserved": 0, "name": "14366f1a0d05f6cd676902bd8c6b356e", "lon": -77.03294833333334, "type": "electric_scooter", "bike_id": "14366f1a0d05f6cd676902bd8c6b356e", "fusion_lon": 0.0, "lat": 38.92878133333333, "fusion_lat": 0.0}, {"is_disabled": 0, "rental_uris": {"android": "https://dc.lft.to/lastmile_qr_scan", "ios": "https://dc.lft.to/lastmile_qr_scan"}, "is_reserved": 0, "name": "9ea8a393a363fe876c615e9b82f7b5c7", "lon": -77.04279233333334, "type": "electric_scooter", "bike_id": "9ea8a393a363fe876c615e9b82f7b5c7", "fusion_lon": 0.0, "lat": 38.911048666666666, "fusion_lat": 0.0}, {"is_disabled": 0, "rental_uris": {"android": "https://dc.lft.to/lastmile_qr_scan", "ios": "https://dc.lft.to/lastmile_qr_scan"}, "is_reserved": 0, "name": "e31785a7f4f03d94f7076abc2b7d5cb2", "lon": -77.01585833333333, "type": "electric_bike", "bike_id": "e31785a7f4f03d94f7076abc2b7d5cb2", "fusion_lon": 0.0, "lat": 39.0463675, "fusion_lat": 0.0}, {"is_disabled": 0, "rental_uris": {"android": "https://dc.lft.to/lastmile_qr_scan", "ios": "https://dc.lft.to/lastmile_qr_scan"}, "is_reserved": 0, "name": "77fe27961c2b0b37eddf6e6f4feb029f", "lon": -77.02470666666666, "type": "electric_scooter", "bike_id": "77fe27961c2b0b37eddf6e6f4feb029f", "fusion_lon": 0.0, "lat": 38.939078333333335, "fusion_lat": 0.0}, {"is_disabled": 0, "rental_uris": {"android": "https://dc.lft.to/lastmile_qr_scan", "ios": "https://dc.lft.to/lastmile_qr_scan"}, "is_reserved": 0, "name": "02c5af996b5968c5b46f391496cf0465", "lon": -76.985226, "type": "electric_scooter", "bike_id": "02c5af996b5968c5b46f391496cf0465", "fusion_lon": 0.0, "lat": 38.8600445, "fusion_lat": 0.0}, {"is_disabled": 0, "rental_uris": {"android": "https://dc.lft.to/lastmile_qr_scan", "ios": "https://dc.lft.to/lastmile_qr_scan"}, "is_reserved": 0, "name": "18879576d34b07be3697b6f65bdff78a", "lon": -77.05929766666667, "type": "electric_scooter", "bike_id": "18879576d34b07be3697b6f65bdff78a", "fusion_lon": 0.0, "lat": 38.936645166666665, "fusion_lat": 0.0}, {"is_disabled": 0, "rental_uris": {"android": "https://dc.lft.to/lastmile_qr_scan", "ios": "https://dc.lft.to/lastmile_qr_scan"}, "is_reserved": 0, "name": "77f8b4267a0a253a9c68d5a7df6bb0c7", "lon": -77.02840083333334, "type": "electric_scooter", "bike_id": "77f8b4267a0a253a9c68d5a7df6bb0c7", "fusion_lon": 0.0, "lat": 38.89525166666667, "fusion_lat": 0.0}, {"is_disabled": 0, "rental_uris": {"android": "https://dc.lft.to/lastmile_qr_scan", "ios": "https://dc.lft.to/lastmile_qr_scan"}, "is_reserved": 0, "name": "d3fd3632ffda07ceac30c21ed4469977", "lon": -76.93102533333334, "type": "electric_scooter", "bike_id": "d3fd3632ffda07ceac30c21ed4469977", "fusion_lon": 0.0, "lat": 38.88012883333333, "fusion_lat": 0.0}, {"is_disabled": 0, "rental_uris": {"android": "https://dc.lft.to/lastmile_qr_scan", "ios": "https://dc.lft.to/lastmile_qr_scan"}, "is_reserved": 0, "name": "2fc70c69864c43e517b364f567f5f533", "lon": -77.03502433333334, "type": "electric_scooter", "bike_id": "2fc70c69864c43e517b364f567f5f533", "fusion_lon": 0.0, "lat": 38.9170665, "fusion_lat": 0.0}, {"is_disabled": 0, "rental_uris": {"android": "https://dc.lft.to/lastmile_qr_scan", "ios": "https://dc.lft.to/lastmile_qr_scan"}, "is_reserved": 0, "name": "cc734c77f256f34d11596feeeafcca21", "lon": -77.0467895, "type": "electric_scooter", "bike_id": "cc734c77f256f34d11596feeeafcca21", "fusion_lon": 0.0, "lat": 38.895075, "fusion_lat": 0.0}, {"is_disabled": 0, "rental_uris": {"android": "https://dc.lft.to/lastmile_qr_scan", "ios": "https://dc.lft.to/lastmile_qr_scan"}, "is_reserved": 0, "name": "f6dbe088e0f6856555bdbed3ae443363", "lon": -76.96559416666666, "type": "electric_bike", "bike_id": "f6dbe088e0f6856555bdbed3ae443363", "fusion_lon": 0.0, "lat": 38.950864, "fusion_lat": 0.0}, {"is_disabled": 0, "rental_uris": {"android": "https://dc.lft.to/lastmile_qr_scan", "ios": "https://dc.lft.to/lastmile_qr_scan"}, "is_reserved": 0, "name": "1871d40390da61599e99f5701f0e040f", "lon": -77.040944, "type": "electric_scooter", "bike_id": "1871d40390da61599e99f5701f0e040f", "fusion_lon": 0.0, "lat": 38.907943333333336, "fusion_lat": 0.0}, {"is_disabled": 0, "rental_uris": {"android": "https://dc.lft.to/lastmile_qr_scan", "ios": "https://dc.lft.to/lastmile_qr_scan"}, "is_reserved": 0, "name": "f02a08c2cb9f43d8d65174939fb89f17", "lon": -77.01885, "type": "electric_scooter", "bike_id": "f02a08c2cb9f43d8d65174939fb89f17", "fusion_lon": 0.0, "lat": 38.906441666666666, "fusion_lat": 0.0}, {"is_disabled": 0, "rental_uris": {"android": "https://dc.lft.to/lastmile_qr_scan", "ios": "https://dc.lft.to/lastmile_qr_scan"}, "is_reserved": 0, "name": "a4b72914316feb6d4a9c79dbc05aa5b2", "lon": -76.9652845, "type": "electric_scooter", "bike_id": "a4b72914316feb6d4a9c79dbc05aa5b2", "fusion_lon": 0.0, "lat": 38.87626316666667, "fusion_lat": 0.0}, {"is_disabled": 0, "rental_uris": {"android": "https://dc.lft.to/lastmile_qr_scan", "ios": "https://dc.lft.to/lastmile_qr_scan"}, "is_reserved": 0, "name": "cc445d02f56ac948ca84e734136aea87", "lon": -77.0384685, "type": "electric_scooter", "bike_id": "cc445d02f56ac948ca84e734136aea87", "fusion_lon": 0.0, "lat": 38.90269633333333, "fusion_lat": 0.0}, {"is_disabled": 0, "rental_uris": {"android": "https://dc.lft.to/lastmile_qr_scan", "ios": "https://dc.lft.to/lastmile_qr_scan"}, "is_reserved": 0, "name": "92dcfebafcf9b794c7317fb55de58d8f", "lon": -77.01953483333334, "type": "electric_scooter", "bike_id": "92dcfebafcf9b794c7317fb55de58d8f", "fusion_lon": 0.0, "lat": 38.92846983333333, "fusion_lat": 0.0}, {"is_disabled": 0, "rental_uris": {"android": "https://dc.lft.to/lastmile_qr_scan", "ios": "https://dc.lft.to/lastmile_qr_scan"}, "is_reserved": 0, "name": "aa743e02f39c529f7f6fbe49067c3eeb", "lon": -77.03135783333333, "type": "electric_scooter", "bike_id": "aa743e02f39c529f7f6fbe49067c3eeb", "fusion_lon": 0.0, "lat": 38.91272983333333, "fusion_lat": 0.0}, {"is_disabled": 0, "rental_uris": {"android": "https://dc.lft.to/lastmile_qr_scan", "ios": "https://dc.lft.to/lastmile_qr_scan"}, "is_reserved": 0, "name": "f07c1aa198fc1e84083ad3491dd55966", "lon": -77.04494783333334, "type": "electric_scooter", "bike_id": "f07c1aa198fc1e84083ad3491dd55966", "fusion_lon": 0.0, "lat": 38.912322833333334, "fusion_lat": 0.0}, {"is_disabled": 0, "rental_uris": {"android": "https://dc.lft.to/lastmile_qr_scan", "ios": "https://dc.lft.to/lastmile_qr_scan"}, "is_reserved": 0, "name": "a233884c9a8c9b45a1f764c1ae4151b8", "lon": -77.0261165, "type": "electric_scooter", "bike_id": "a233884c9a8c9b45a1f764c1ae4151b8", "fusion_lon": 0.0, "lat": 38.90123766666667, "fusion_lat": 0.0}, {"is_disabled": 0, "rental_uris": {"android": "https://dc.lft.to/lastmile_qr_scan", "ios": "https://dc.lft.to/lastmile_qr_scan"}, "is_reserved": 0, "name": "3d595fba97ad6f93d3d259275660dbb3", "lon": -77.01627816666667, "type": "electric_scooter", "bike_id": "3d595fba97ad6f93d3d259275660dbb3", "fusion_lon": 0.0, "lat": 38.920481833333334, "fusion_lat": 0.0}, {"is_disabled": 0, "rental_uris": {"android": "https://dc.lft.to/lastmile_qr_scan", "ios": "https://dc.lft.to/lastmile_qr_scan"}, "is_reserved": 0, "name": "3e0868f4a0447869a4e156c8548c4453", "lon": -77.04242716666667, "type": "electric_scooter", "bike_id": "3e0868f4a0447869a4e156c8548c4453", "fusion_lon": 0.0, "lat": 38.9222095, "fusion_lat": 0.0}, {"is_disabled": 0, "rental_uris": {"android": "https://dc.lft.to/lastmile_qr_scan", "ios": "https://dc.lft.to/lastmile_qr_scan"}, "is_reserved": 0, "name": "9734fdce47488714886b330247e7ae16", "lon": -77.03871783333334, "type": "electric_scooter", "bike_id": "9734fdce47488714886b330247e7ae16", "fusion_lon": 0.0, "lat": 38.90807266666667, "fusion_lat": 0.0}, {"is_disabled": 0, "rental_uris": {"android": "https://dc.lft.to/lastmile_qr_scan", "ios": "https://dc.lft.to/lastmile_qr_scan"}, "is_reserved": 0, "name": "c2a453fe1c09f865dcfb87e5e2003b8d", "lon": -77.01620566666666, "type": "electric_scooter", "bike_id": "c2a453fe1c09f865dcfb87e5e2003b8d", "fusion_lon": 0.0, "lat": 38.87870733333333, "fusion_lat": 0.0}, {"is_disabled": 0, "rental_uris": {"android": "https://dc.lft.to/lastmile_qr_scan", "ios": "https://dc.lft.to/lastmile_qr_scan"}, "is_reserved": 0, "name": "ee1aae18b4f2d0fdd50b94b15fc176e1", "lon": -77.03759266666667, "type": "electric_scooter", "bike_id": "ee1aae18b4f2d0fdd50b94b15fc176e1", "fusion_lon": 0.0, "lat": 38.92904033333333, "fusion_lat": 0.0}, {"is_disabled": 0, "rental_uris": {"android": "https://dc.lft.to/lastmile_qr_scan", "ios": "https://dc.lft.to/lastmile_qr_scan"}, "is_reserved": 0, "name": "6f059345b5dccf5def9f77dd5f9b5213", "lon": -76.96527616666667, "type": "electric_scooter", "bike_id": "6f059345b5dccf5def9f77dd5f9b5213", "fusion_lon": 0.0, "lat": 38.87626483333333, "fusion_lat": 0.0}, {"is_disabled": 0, "rental_uris": {"android": "https://dc.lft.to/lastmile_qr_scan", "ios": "https://dc.lft.to/lastmile_qr_scan"}, "is_reserved": 0, "name": "8420b28af7d70b436ed48561c80fdc50", "lon": -77.01965316666667, "type": "electric_scooter", "bike_id": "8420b28af7d70b436ed48561c80fdc50", "fusion_lon": 0.0, "lat": 38.93037866666667, "fusion_lat": 0.0}, {"is_disabled": 0, "rental_uris": {"android": "https://dc.lft.to/lastmile_qr_scan", "ios": "https://dc.lft.to/lastmile_qr_scan"}, "is_reserved": 0, "name": "d177d2e2ab1d0d73746768b2c6a09d6f", "lon": -77.0314695, "type": "electric_scooter", "bike_id": "d177d2e2ab1d0d73746768b2c6a09d6f", "fusion_lon": 0.0, "lat": 38.920256333333334, "fusion_lat": 0.0}, {"is_disabled": 0, "rental_uris": {"android": "https://dc.lft.to/lastmile_qr_scan", "ios": "https://dc.lft.to/lastmile_qr_scan"}, "is_reserved": 0, "name": "082a8b44e65af33d8b07d1a03d95b65b", "lon": -77.05518966666666, "type": "electric_scooter", "bike_id": "082a8b44e65af33d8b07d1a03d95b65b", "fusion_lon": 0.0, "lat": 38.930093166666666, "fusion_lat": 0.0}, {"is_disabled": 0, "rental_uris": {"android": "https://dc.lft.to/lastmile_qr_scan", "ios": "https://dc.lft.to/lastmile_qr_scan"}, "is_reserved": 0, "name": "e0a56d3b32398178d1f8e520d2bee5c1", "lon": -76.9939735, "type": "electric_scooter", "bike_id": "e0a56d3b32398178d1f8e520d2bee5c1", "fusion_lon": 0.0, "lat": 38.92159, "fusion_lat": 0.0}, {"is_disabled": 0, "rental_uris": {"android": "https://dc.lft.to/lastmile_qr_scan", "ios": "https://dc.lft.to/lastmile_qr_scan"}, "is_reserved": 0, "name": "5908171f7f4851fefb7f89274e52c77a", "lon": -77.0417055, "type": "electric_scooter", "bike_id": "5908171f7f4851fefb7f89274e52c77a", "fusion_lon": 0.0, "lat": 38.901499666666666, "fusion_lat": 0.0}, {"is_disabled": 0, "rental_uris": {"android": "https://dc.lft.to/lastmile_qr_scan", "ios": "https://dc.lft.to/lastmile_qr_scan"}, "is_reserved": 0, "name": "8ac94cb16ddc83e60c73d9451d17d113", "lon": -77.025185, "type": "electric_scooter", "bike_id": "8ac94cb16ddc83e60c73d9451d17d113", "fusion_lon": 0.0, "lat": 38.900835666666666, "fusion_lat": 0.0}, {"is_disabled": 0, "rental_uris": {"android": "https://dc.lft.to/lastmile_qr_scan", "ios": "https://dc.lft.to/lastmile_qr_scan"}, "is_reserved": 0, "name": "796a12a978c2af969aace84ab877be4f", "lon": -77.013139, "type": "electric_scooter", "bike_id": "796a12a978c2af969aace84ab877be4f", "fusion_lon": 0.0, "lat": 38.899855, "fusion_lat": 0.0}, {"is_disabled": 0, "rental_uris": {"android": "https://dc.lft.to/lastmile_qr_scan", "ios": "https://dc.lft.to/lastmile_qr_scan"}, "is_reserved": 0, "name": "9d211114e3761d86fff45ecbd3117d20", "lon": -77.00858883333333, "type": "electric_bike", "bike_id": "9d211114e3761d86fff45ecbd3117d20", "fusion_lon": 0.0, "lat": 38.827258666666665, "fusion_lat": 0.0}, {"is_disabled": 0, "rental_uris": {"android": "https://dc.lft.to/lastmile_qr_scan", "ios": "https://dc.lft.to/lastmile_qr_scan"}, "is_reserved": 0, "name": "e4e108af45e6c3ea2248a446bcb0c46c", "lon": -76.99497516666666, "type": "electric_scooter", "bike_id": "e4e108af45e6c3ea2248a446bcb0c46c", "fusion_lon": 0.0, "lat": 38.8624425, "fusion_lat": 0.0}, {"is_disabled": 0, "rental_uris": {"android": "https://dc.lft.to/lastmile_qr_scan", "ios": "https://dc.lft.to/lastmile_qr_scan"}, "is_reserved": 0, "name": "b49dc91676c880b613b1b9c541d67247", "lon": -77.029896, "type": "electric_scooter", "bike_id": "b49dc91676c880b613b1b9c541d67247", "fusion_lon": 0.0, "lat": 38.89849433333333, "fusion_lat": 0.0}, {"is_disabled": 0, "rental_uris": {"android": "https://dc.lft.to/lastmile_qr_scan", "ios": "https://dc.lft.to/lastmile_qr_scan"}, "is_reserved": 0, "name": "dcae01cecf3674d51321b8ccc3b23f3f", "lon": -77.04188133333334, "type": "electric_scooter", "bike_id": "dcae01cecf3674d51321b8ccc3b23f3f", "fusion_lon": 0.0, "lat": 38.916619833333336, "fusion_lat": 0.0}, {"is_disabled": 0, "rental_uris": {"android": "https://dc.lft.to/lastmile_qr_scan", "ios": "https://dc.lft.to/lastmile_qr_scan"}, "is_reserved": 0, "name": "1dd0e59f447536f718f0b30b3ae192da", "lon": -77.02931116666667, "type": "electric_scooter", "bike_id": "1dd0e59f447536f718f0b30b3ae192da", "fusion_lon": 0.0, "lat": 38.882166166666664, "fusion_lat": 0.0}, {"is_disabled": 0, "rental_uris": {"android": "https://dc.lft.to/lastmile_qr_scan", "ios": "https://dc.lft.to/lastmile_qr_scan"}, "is_reserved": 0, "name": "e8af465af05acb3a9d8d829a04c82d4a", "lon": -77.0399725, "type": "electric_scooter", "bike_id": "e8af465af05acb3a9d8d829a04c82d4a", "fusion_lon": 0.0, "lat": 38.91806233333333, "fusion_lat": 0.0}, {"is_disabled": 0, "rental_uris": {"android": "https://dc.lft.to/lastmile_qr_scan", "ios": "https://dc.lft.to/lastmile_qr_scan"}, "is_reserved": 0, "name": "cacb002e5259345392b7c430e5cc3ba1", "lon": -77.03850366666667, "type": "electric_scooter", "bike_id": "cacb002e5259345392b7c430e5cc3ba1", "fusion_lon": 0.0, "lat": 38.91175283333333, "fusion_lat": 0.0}, {"is_disabled": 0, "rental_uris": {"android": "https://dc.lft.to/lastmile_qr_scan", "ios": "https://dc.lft.to/lastmile_qr_scan"}, "is_reserved": 0, "name": "185101c5a1cf3539dab50a73bc0cac6e", "lon": -77.02566, "type": "electric_scooter", "bike_id": "185101c5a1cf3539dab50a73bc0cac6e", "fusion_lon": 0.0, "lat": 38.884707, "fusion_lat": 0.0}, {"is_disabled": 0, "rental_uris": {"android": "https://dc.lft.to/lastmile_qr_scan", "ios": "https://dc.lft.to/lastmile_qr_scan"}, "is_reserved": 0, "name": "45594b21b2533c277bff95ab22bfcaf5", "lon": -77.0323655, "type": "electric_scooter", "bike_id": "45594b21b2533c277bff95ab22bfcaf5", "fusion_lon": 0.0, "lat": 38.905224, "fusion_lat": 0.0}, {"is_disabled": 0, "rental_uris": {"android": "https://dc.lft.to/lastmile_qr_scan", "ios": "https://dc.lft.to/lastmile_qr_scan"}, "is_reserved": 0, "name": "952ed58adee3d09cf7fba3ef728c790d", "lon": -77.043213, "type": "electric_bike", "bike_id": "952ed58adee3d09cf7fba3ef728c790d", "fusion_lon": 0.0, "lat": 38.831215, "fusion_lat": 0.0}, {"is_disabled": 0, "rental_uris": {"android": "https://dc.lft.to/lastmile_qr_scan", "ios": "https://dc.lft.to/lastmile_qr_scan"}, "is_reserved": 0, "name": "906755a21e269f056306cbbca4a51e85", "lon": -77.053313, "type": "electric_scooter", "bike_id": "906755a21e269f056306cbbca4a51e85", "fusion_lon": 0.0, "lat": 38.92313683333333, "fusion_lat": 0.0}, {"is_disabled": 0, "rental_uris": {"android": "https://dc.lft.to/lastmile_qr_scan", "ios": "https://dc.lft.to/lastmile_qr_scan"}, "is_reserved": 0, "name": "017aba0d9c115885f6d84da34cd67710", "lon": -77.03814266666667, "type": "electric_scooter", "bike_id": "017aba0d9c115885f6d84da34cd67710", "fusion_lon": 0.0, "lat": 38.909679833333335, "fusion_lat": 0.0}, {"is_disabled": 0, "rental_uris": {"android": "https://dc.lft.to/lastmile_qr_scan", "ios": "https://dc.lft.to/lastmile_qr_scan"}, "is_reserved": 0, "name": "497e6301570be00084fbdade157b16e7", "lon": -77.00747566666666, "type": "electric_scooter", "bike_id": "497e6301570be00084fbdade157b16e7", "fusion_lon": 0.0, "lat": 38.91186, "fusion_lat": 0.0}, {"is_disabled": 0, "rental_uris": {"android": "https://dc.lft.to/lastmile_qr_scan", "ios": "https://dc.lft.to/lastmile_qr_scan"}, "is_reserved": 0, "name": "17099476d5d5ae043456ff8bd1f1fb07", "lon": -77.04196416666667, "type": "electric_scooter", "bike_id": "17099476d5d5ae043456ff8bd1f1fb07", "fusion_lon": 0.0, "lat": 38.89854066666667, "fusion_lat": 0.0}, {"is_disabled": 0, "rental_uris": {"android": "https://dc.lft.to/lastmile_qr_scan", "ios": "https://dc.lft.to/lastmile_qr_scan"}, "is_reserved": 0, "name": "8379016b1e6cb9fa1056547fbc99fc0f", "lon": -77.03471916666666, "type": "electric_scooter", "bike_id": "8379016b1e6cb9fa1056547fbc99fc0f", "fusion_lon": 0.0, "lat": 38.903198333333336, "fusion_lat": 0.0}, {"is_disabled": 0, "rental_uris": {"android": "https://dc.lft.to/lastmile_qr_scan", "ios": "https://dc.lft.to/lastmile_qr_scan"},