{"data": {"bikes": [{"rental_uris": {"ios": "https://dc.lft.to/lastmile_qr_scan", "android": "https://dc.lft.to/lastmile_qr_scan"}, "type": "electric_scooter", "name": "59355e59236064513e8341b20c5f1d80", "is_reserved": 0, "lon": -77.0475595, "is_disabled": 0, "fusion_lat": 0.0, "lat": 38.90092216666667, "bike_id": "59355e59236064513e8341b20c5f1d80", "fusion_lon": 0.0}, {"rental_uris": {"ios": "https://dc.lft.to/lastmile_qr_scan", "android": "https://dc.lft.to/lastmile_qr_scan"}, "type": "electric_scooter", "name": "663c971a1741d1d407f4c0bd21a6d4ab", "is_reserved": 0, "lon": -77.02202516666667, "is_disabled": 0, "fusion_lat": 0.0, "lat": 38.91135, "bike_id": "663c971a1741d1d407f4c0bd21a6d4ab", "fusion_lon": 0.0}, {"rental_uris": {"ios": "https://dc.lft.to/lastmile_qr_scan", "android": "https://dc.lft.to/lastmile_qr_scan"}, "type": "electric_bike", "name": "61ea031c09c3f76df6f6b2fd087213c2", "is_reserved": 0, "lon": -77.106248, "is_disabled": 0, "fusion_lat": 0.0, "lat": 38.8732485, "bike_id": "61ea031c09c3f76df6f6b2fd087213c2", "fusion_lon": 0.0}, {"rental_uris": {"ios": "https://dc.lft.to/lastmile_qr_scan", "android": "https://dc.lft.to/lastmile_qr_scan"}, "type": "electric_scooter", "name": "70d9f11969f43b68ac167127b785bdc2", "is_reserved": 0, "lon": -77.03834416666666, "is_disabled": 0, "fusion_lat": 0.0, "lat": 38.91036616666667, "bike_id": "70d9f11969f43b68ac167127b785bdc2", "fusion_lon": 0.0}, {"rental_uris": {"ios": "https://dc.lft.to/lastmile_qr_scan", "android": "https://dc.lft.to/lastmile_qr_scan"}, "type": "electric_scooter", "name": "b20b602c6bd3c94b1d92292ebd1759e2", "is_reserved": 0, "lon": -77.02614266666667, "is_disabled": 0, "fusion_lat": 0.0, "lat": 38.8967815, "bike_id": "b20b602c6bd3c94b1d92292ebd1759e2", "fusion_lon": 0.0}, {"rental_uris": {"ios": "https://dc.lft.to/lastmile_qr_scan", "android": "https://dc.lft.to/lastmile_qr_scan"}, "type": "electric_bike", "name": "87b4c9bac40654c519fe031eaabb7f0c", "is_reserved": 0, "lon": -77.07386633333333, "is_disabled": 0, "fusion_lat": 0.0, "lat": 38.9143825, "bike_id": "87b4c9bac40654c519fe031eaabb7f0c", "fusion_lon": 0.0}, {"rental_uris": {"ios": "https://dc.lft.to/lastmile_qr_scan", "android": "https://dc.lft.to/lastmile_qr_scan"}, "type": "electric_scooter", "name": "ff48f7b74e15ac9bb6626d264a20d26a", "is_reserved": 0, "lon": -76.9230565, "is_disabled": 0, "fusion_lat": 0.0, "lat": 38.893897333333335, "bike_id": "ff48f7b74e15ac9bb6626d264a20d26a", "fusion_lon": 0.0}, {"rental_uris": {"ios": "https://dc.lft.to/lastmile_qr_scan", "android": "https://dc.lft.to/lastmile_qr_scan"}, "type": "electric_scooter", "name": "f0d32ce98eb6e78fafd8c48e1c06e01c", "is_reserved": 0, "lon": -77.02712283333334, "is_disabled": 0, "fusion_lat": 0.0, "lat": 38.905317833333335, "bike_id": "f0d32ce98eb6e78fafd8c48e1c06e01c", "fusion_lon": 0.0}, {"rental_uris": {"ios": "https://dc.lft.to/lastmile_qr_scan", "android": "https://dc.lft.to/lastmile_qr_scan"}, "type": "electric_scooter", "name": "33fdad554c47d739862e070636f556f5", "is_reserved": 0, "lon": -77.02469983333333, "is_disabled": 0, "fusion_lat": 0.0, "lat": 38.957773833333334, "bike_id": "33fdad554c47d739862e070636f556f5", "fusion_lon": 0.0}, {"rental_uris": {"ios": "https://dc.lft.to/lastmile_qr_scan", "android": "https://dc.lft.to/lastmile_qr_scan"}, "type": "electric_scooter", "name": "d2cb9a5ca8dcfbd6c0ce8aeb741693f9", "is_reserved": 0, "lon": -77.02447633333334, "is_disabled": 0, "fusion_lat": 0.0, "lat": 38.949774, "bike_id": "d2cb9a5ca8dcfbd6c0ce8aeb741693f9", "fusion_lon": 0.0}, {"rental_uris": {"ios": "https://dc.lft.to/lastmile_qr_scan", "android": "https://dc.lft.to/lastmile_qr_scan"}, "type": "electric_scooter", "name": "089356aaaa8fa0646bb23cdac3189d98", "is_reserved": 0, "lon": -77.020328, "is_disabled": 0, "fusion_lat": 0.0, "lat": 38.92427966666666, "bike_id": "089356aaaa8fa0646bb23cdac3189d98", "fusion_lon": 0.0}, {"rental_uris": {"ios": "https://dc.lft.to/lastmile_qr_scan", "android": "https://dc.lft.to/lastmile_qr_scan"}, "type": "electric_scooter", "name": "1ea4c4528a896a045d6ced4ad3d79dc3", "is_reserved": 0, "lon": -77.03207333333333, "is_disabled": 0, "fusion_lat": 0.0, "lat": 38.8923255, "bike_id": "1ea4c4528a896a045d6ced4ad3d79dc3", "fusion_lon": 0.0}, {"rental_uris": {"ios": "https://dc.lft.to/lastmile_qr_scan", "android": "https://dc.lft.to/lastmile_qr_scan"}, "type": "electric_scooter", "name": "4b92b1ae7e01d259fa29080dc3889aae", "is_reserved": 0, "lon": -77.0741205, "is_disabled": 0, "fusion_lat": 0.0, "lat": 38.89733016666667, "bike_id": "4b92b1ae7e01d259fa29080dc3889aae", "fusion_lon": 0.0}, {"rental_uris": {"ios": "https://dc.lft.to/lastmile_qr_scan", "android": "https://dc.lft.to/lastmile_qr_scan"}, "type": "electric_scooter", "name": "66093b4db48fb5677cecceb5ba4a9b86", "is_reserved": 0, "lon": -77.02318516666666, "is_disabled": 0, "fusion_lat": 0.0, "lat": 38.92077283333333, "bike_id": "66093b4db48fb5677cecceb5ba4a9b86", "fusion_lon": 0.0}, {"rental_uris": {"ios": "https://dc.lft.to/lastmile_qr_scan", "android": "https://dc.lft.to/lastmile_qr_scan"}, "type": "electric_scooter", "name": "a9c76d63c187f0091ae7b8007b99e439", "is_reserved": 0, "lon": -77.03493916666666, "is_disabled": 0, "fusion_lat": 0.0, "lat": 38.93275033333333, "bike_id": "a9c76d63c187f0091ae7b8007b99e439", "fusion_lon": 0.0}, {"rental_uris": {"ios": "https://dc.lft.to/lastmile_qr_scan", "android": "https://dc.lft.to/lastmile_qr_scan"}, "type": "electric_scooter", "name": "be0099e965c46806c3859c1316132946", "is_reserved": 0, "lon": -76.98865616666667, "is_disabled": 0, "fusion_lat": 0.0, "lat": 38.90030016666667, "bike_id": "be0099e965c46806c3859c1316132946", "fusion_lon": 0.0}, {"rental_uris": {"ios": "https://dc.lft.to/lastmile_qr_scan", "android": "https://dc.lft.to/lastmile_qr_scan"}, "type": "electric_scooter", "name": "8e45122e7ec3e3aefb1e31dad096b86a", "is_reserved": 0, "lon": -77.015012, "is_disabled": 0, "fusion_lat": 0.0, "lat": 38.926695, "bike_id": "8e45122e7ec3e3aefb1e31dad096b86a", "fusion_lon": 0.0}, {"rental_uris": {"ios": "https://dc.lft.to/lastmile_qr_scan", "android": "https://dc.lft.to/lastmile_qr_scan"}, "type": "electric_scooter", "name": "c81ce973f394eb2a7aa52980316a8552", "is_reserved": 0, "lon": -76.98651766666667, "is_disabled": 0, "fusion_lat": 0.0, "lat": 38.905399333333335, "bike_id": "c81ce973f394eb2a7aa52980316a8552", "fusion_lon": 0.0}, {"rental_uris": {"ios": "https://dc.lft.to/lastmile_qr_scan", "android": "https://dc.lft.to/lastmile_qr_scan"}, "type": "electric_scooter", "name": "679af958eb5eb174f0783dfd28057d07", "is_reserved": 0, "lon": -77.00406716666667, "is_disabled": 0, "fusion_lat": 0.0, "lat": 38.879601, "bike_id": "679af958eb5eb174f0783dfd28057d07", "fusion_lon": 0.0}, {"rental_uris": {"ios": "https://dc.lft.to/lastmile_qr_scan", "android": "https://dc.lft.to/lastmile_qr_scan"}, "type": "electric_scooter", "name": "f9fe990dc9fc8cf7a9b29b000f3aef42", "is_reserved": 0, "lon": -77.03495133333334, "is_disabled": 0, "fusion_lat": 0.0, "lat": 38.928641, "bike_id": "f9fe990dc9fc8cf7a9b29b000f3aef42", "fusion_lon": 0.0}, {"rental_uris": {"ios": "https://dc.lft.to/lastmile_qr_scan", "android": "https://dc.lft.to/lastmile_qr_scan"}, "type": "electric_scooter", "name": "4920136fafeaa3289c2874a403191577", "is_reserved": 0, "lon": -77.044284, "is_disabled": 0, "fusion_lat": 0.0, "lat": 38.92601966666667, "bike_id": "4920136fafeaa3289c2874a403191577", "fusion_lon": 0.0}, {"rental_uris": {"ios": "https://dc.lft.to/lastmile_qr_scan", "android": "https://dc.lft.to/lastmile_qr_scan"}, "type": "electric_scooter", "name": "d6c39dbf7d24c17727afe51c52fda57c", "is_reserved": 0, "lon": -77.02098666666667, "is_disabled": 0, "fusion_lat": 0.0, "lat": 38.931164333333335, "bike_id": "d6c39dbf7d24c17727afe51c52fda57c", "fusion_lon": 0.0}, {"rental_uris": {"ios": "https://dc.lft.to/lastmile_qr_scan", "android": "https://dc.lft.to/lastmile_qr_scan"}, "type": "electric_scooter", "name": "0459fd7cb183d62ef79ffc247673bde3", "is_reserved": 0, "lon": -77.02341, "is_disabled": 0, "fusion_lat": 0.0, "lat": 38.9270375, "bike_id": "0459fd7cb183d62ef79ffc247673bde3", "fusion_lon": 0.0}, {"rental_uris": {"ios": "https://dc.lft.to/lastmile_qr_scan", "android": "https://dc.lft.to/lastmile_qr_scan"}, "type": "electric_bike", "name": "e8b10458845a9b2b2d654f5052cb86c1", "is_reserved": 0, "lon": -77.0395745, "is_disabled": 0, "fusion_lat": 0.0, "lat": 38.903678166666666, "bike_id": "e8b10458845a9b2b2d654f5052cb86c1", "fusion_lon": 0.0}, {"rental_uris": {"ios": "https://dc.lft.to/lastmile_qr_scan", "android": "https://dc.lft.to/lastmile_qr_scan"}, "type": "electric_scooter", "name": "096dd8607de84e52afc53da3e14412be", "is_reserved": 0, "lon": -77.04456016666667, "is_disabled": 0, "fusion_lat": 0.0, "lat": 38.907919666666665, "bike_id": "096dd8607de84e52afc53da3e14412be", "fusion_lon": 0.0}, {"rental_uris": {"ios": "https://dc.lft.to/lastmile_qr_scan", "android": "https://dc.lft.to/lastmile_qr_scan"}, "type": "electric_scooter", "name": "173623dee7bc0b9b6914e387bc673714", "is_reserved": 0, "lon": -77.02305883333334, "is_disabled": 0, "fusion_lat": 0.0, "lat": 38.91053316666667, "bike_id": "173623dee7bc0b9b6914e387bc673714", "fusion_lon": 0.0}, {"rental_uris": {"ios": "https://dc.lft.to/lastmile_qr_scan", "android": "https://dc.lft.to/lastmile_qr_scan"}, "type": "electric_scooter", "name": "8f3430054fc4e657c7c47ae1b0e4dbff", "is_reserved": 0, "lon": -77.03905233333333, "is_disabled": 0, "fusion_lat": 0.0, "lat": 38.90820266666667, "bike_id": "8f3430054fc4e657c7c47ae1b0e4dbff", "fusion_lon": 0.0}, {"rental_uris": {"ios": "https://dc.lft.to/lastmile_qr_scan", "android": "https://dc.lft.to/lastmile_qr_scan"}, "type": "electric_scooter", "name": "ee0c146e662b0b049f7bccaa4b685ede", "is_reserved": 0, "lon": -76.98451916666667, "is_disabled": 0, "fusion_lat": 0.0, "lat": 38.91471933333333, "bike_id": "ee0c146e662b0b049f7bccaa4b685ede", "fusion_lon": 0.0}, {"rental_uris": {"ios": "https://dc.lft.to/lastmile_qr_scan", "android": "https://dc.lft.to/lastmile_qr_scan"}, "type": "electric_scooter", "name": "269cd74a1320f7a25e360ca217267e5e", "is_reserved": 0, "lon": -77.00492166666666, "is_disabled": 0, "fusion_lat": 0.0, "lat": 38.905635833333335, "bike_id": "269cd74a1320f7a25e360ca217267e5e", "fusion_lon": 0.0}, {"rental_uris": {"ios": "https://dc.lft.to/lastmile_qr_scan", "android": "https://dc.lft.to/lastmile_qr_scan"}, "type": "electric_scooter", "name": "3ef0cff237bdbf8bfa74c1c8c7058058", "is_reserved": 0, "lon": -77.05331216666667, "is_disabled": 0, "fusion_lat": 0.0, "lat": 38.907297, "bike_id": "3ef0cff237bdbf8bfa74c1c8c7058058", "fusion_lon": 0.0}, {"rental_uris": {"ios": "https://dc.lft.to/lastmile_qr_scan", "android": "https://dc.lft.to/lastmile_qr_scan"}, "type": "electric_scooter", "name": "6dc51222de8b1efe5680311a41cca581", "is_reserved": 0, "lon": -77.02310883333334, "is_disabled": 0, "fusion_lat": 0.0, "lat": 38.9177685, "bike_id": "6dc51222de8b1efe5680311a41cca581", "fusion_lon": 0.0}, {"rental_uris": {"ios": "https://dc.lft.to/lastmile_qr_scan", "android": "https://dc.lft.to/lastmile_qr_scan"}, "type": "electric_scooter", "name": "cbd8e8d12725e7aa16471112eb8197d2", "is_reserved": 0, "lon": -77.04801616666667, "is_disabled": 0, "fusion_lat": 0.0, "lat": 38.892249, "bike_id": "cbd8e8d12725e7aa16471112eb8197d2", "fusion_lon": 0.0}, {"rental_uris": {"ios": "https://dc.lft.to/lastmile_qr_scan", "android": "https://dc.lft.to/lastmile_qr_scan"}, "type": "electric_scooter", "name": "11140b9cace05f9ab300b6a88ce221a6", "is_reserved": 0, "lon": -76.99368433333333, "is_disabled": 0, "fusion_lat": 0.0, "lat": 38.92294533333333, "bike_id": "11140b9cace05f9ab300b6a88ce221a6", "fusion_lon": 0.0}, {"rental_uris": {"ios": "https://dc.lft.to/lastmile_qr_scan", "android": "https://dc.lft.to/lastmile_qr_scan"}, "type": "electric_scooter", "name": "c5d488d61075c4659408d1d9f9b7da50", "is_reserved": 0, "lon": -77.074613, "is_disabled": 0, "fusion_lat": 0.0, "lat": 38.920795166666664, "bike_id": "c5d488d61075c4659408d1d9f9b7da50", "fusion_lon": 0.0}, {"rental_uris": {"ios": "https://dc.lft.to/lastmile_qr_scan", "android": "https://dc.lft.to/lastmile_qr_scan"}, "type": "electric_scooter", "name": "1514c8974f203c7403c11bb0fc14742d", "is_reserved": 0, "lon": -77.03764016666666, "is_disabled": 0, "fusion_lat": 0.0, "lat": 38.92916183333333, "bike_id": "1514c8974f203c7403c11bb0fc14742d", "fusion_lon": 0.0}, {"rental_uris": {"ios": "https://dc.lft.to/lastmile_qr_scan", "android": "https://dc.lft.to/lastmile_qr_scan"}, "type": "electric_scooter", "name": "3dcbc059a0c81f52f6a74160dbc1f93f", "is_reserved": 0, "lon": -76.985603, "is_disabled": 0, "fusion_lat": 0.0, "lat": 38.889962, "bike_id": "3dcbc059a0c81f52f6a74160dbc1f93f", "fusion_lon": 0.0}, {"rental_uris": {"ios": "https://dc.lft.to/lastmile_qr_scan", "android": "https://dc.lft.to/lastmile_qr_scan"}, "type": "electric_scooter", "name": "02e9fb2bdfb71198282e72e93d187504", "is_reserved": 0, "lon": -77.00205283333334, "is_disabled": 0, "fusion_lat": 0.0, "lat": 38.89294183333333, "bike_id": "02e9fb2bdfb71198282e72e93d187504", "fusion_lon": 0.0}, {"rental_uris": {"ios": "https://dc.lft.to/lastmile_qr_scan", "android": "https://dc.lft.to/lastmile_qr_scan"}, "type": "electric_scooter", "name": "3a4aab59aa44840c00d8d99f1606bf06", "is_reserved": 0, "lon": -76.934296, "is_disabled": 0, "fusion_lat": 0.0, "lat": 38.899184166666664, "bike_id": "3a4aab59aa44840c00d8d99f1606bf06", "fusion_lon": 0.0}, {"rental_uris": {"ios": "https://dc.lft.to/lastmile_qr_scan", "android": "https://dc.lft.to/lastmile_qr_scan"}, "type": "electric_bike", "name": "3c6faecb870b3d3c8530d4b7df6bdd4f", "is_reserved": 0, "lon": -77.00763783333333, "is_disabled": 0, "fusion_lat": 0.0, "lat": 38.9978415, "bike_id": "3c6faecb870b3d3c8530d4b7df6bdd4f", "fusion_lon": 0.0}, {"rental_uris": {"ios": "https://dc.lft.to/lastmile_qr_scan", "android": "https://dc.lft.to/lastmile_qr_scan"}, "type": "electric_scooter", "name": "308138dc65a61766a52ef2fc25601b94", "is_reserved": 0, "lon": -76.99495166666667, "is_disabled": 0, "fusion_lat": 0.0, "lat": 38.862218, "bike_id": "308138dc65a61766a52ef2fc25601b94", "fusion_lon": 0.0}, {"rental_uris": {"ios": "https://dc.lft.to/lastmile_qr_scan", "android": "https://dc.lft.to/lastmile_qr_scan"}, "type": "electric_scooter", "name": "ddf804c8eac9a0f4bb72749daf8a89ba", "is_reserved": 0, "lon": -77.02297316666667, "is_disabled": 0, "fusion_lat": 0.0, "lat": 38.895259, "bike_id": "ddf804c8eac9a0f4bb72749daf8a89ba", "fusion_lon": 0.0}, {"rental_uris": {"ios": "https://dc.lft.to/lastmile_qr_scan", "android": "https://dc.lft.to/lastmile_qr_scan"}, "type": "electric_scooter", "name": "3de071623433a9487244dde2d1d4e1e2", "is_reserved": 0, "lon": -77.01861583333333, "is_disabled": 0, "fusion_lat": 0.0, "lat": 38.8946805, "bike_id": "3de071623433a9487244dde2d1d4e1e2", "fusion_lon": 0.0}, {"rental_uris": {"ios": "https://dc.lft.to/lastmile_qr_scan", "android": "https://dc.lft.to/lastmile_qr_scan"}, "type": "electric_scooter", "name": "068205367355a00fe38a605e4b460e89", "is_reserved": 0, "lon": -76.98994816666666, "is_disabled": 0, "fusion_lat": 0.0, "lat": 38.91756083333333, "bike_id": "068205367355a00fe38a605e4b460e89", "fusion_lon": 0.0}, {"rental_uris": {"ios": "https://dc.lft.to/lastmile_qr_scan", "android": "https://dc.lft.to/lastmile_qr_scan"}, "type": "electric_scooter", "name": "8e5c21f09027494826fd13ac942477be", "is_reserved": 0, "lon": -77.04367016666667, "is_disabled": 0, "fusion_lat": 0.0, "lat": 38.89225016666666, "bike_id": "8e5c21f09027494826fd13ac942477be", "fusion_lon": 0.0}, {"rental_uris": {"ios": "https://dc.lft.to/lastmile_qr_scan", "android": "https://dc.lft.to/lastmile_qr_scan"}, "type": "electric_scooter", "name": "03eac114011a593485bc61aa5367308e", "is_reserved": 0, "lon": -76.99910583333333, "is_disabled": 0, "fusion_lat": 0.0, "lat": 38.924586, "bike_id": "03eac114011a593485bc61aa5367308e", "fusion_lon": 0.0}, {"rental_uris": {"ios": "https://dc.lft.to/lastmile_qr_scan", "android": "https://dc.lft.to/lastmile_qr_scan"}, "type": "electric_scooter", "name": "b6a2f7f2ce23c278e1ed79460258276a", "is_reserved": 0, "lon": -77.0318815, "is_disabled": 0, "fusion_lat": 0.0, "lat": 38.913531166666665, "bike_id": "b6a2f7f2ce23c278e1ed79460258276a", "fusion_lon": 0.0}, {"rental_uris": {"ios": "https://dc.lft.to/lastmile_qr_scan", "android": "https://dc.lft.to/lastmile_qr_scan"}, "type": "electric_scooter", "name": "1814da72b28ddf75d0a69d938850139a", "is_reserved": 0, "lon": -77.02898416666666, "is_disabled": 0, "fusion_lat": 0.0, "lat": 38.917014333333334, "bike_id": "1814da72b28ddf75d0a69d938850139a", "fusion_lon": 0.0}, {"rental_uris": {"ios": "https://dc.lft.to/lastmile_qr_scan", "android": "https://dc.lft.to/lastmile_qr_scan"}, "type": "electric_scooter", "name": "83fdfb0eb9a47e14f53ef64e4b5ae4af", "is_reserved": 0, "lon": -77.04237183333333, "is_disabled": 0, "fusion_lat": 0.0, "lat": 38.905772166666665, "bike_id": "83fdfb0eb9a47e14f53ef64e4b5ae4af", "fusion_lon": 0.0}, {"rental_uris": {"ios": "https://dc.lft.to/lastmile_qr_scan", "android": "https://dc.lft.to/lastmile_qr_scan"}, "type": "electric_scooter", "name": "3a1b1129f424bb7ad130dbcf2a10752b", "is_reserved": 0, "lon": -77.01043233333333, "is_disabled": 0, "fusion_lat": 0.0, "lat": 38.911072, "bike_id": "3a1b1129f424bb7ad130dbcf2a10752b", "fusion_lon": 0.0}, {"rental_uris": {"ios": "https://dc.lft.to/lastmile_qr_scan", "android": "https://dc.lft.to/lastmile_qr_scan"}, "type": "electric_scooter", "name": "4584ee3afe7891adb27bf65e0ac9ecba", "is_reserved": 0, "lon": -77.04173316666666, "is_disabled": 0, "fusion_lat": 0.0, "lat": 38.913984166666665, "bike_id": "4584ee3afe7891adb27bf65e0ac9ecba", "fusion_lon": 0.0}, {"rental_uris": {"ios": "https://dc.lft.to/lastmile_qr_scan", "android": "https://dc.lft.to/lastmile_qr_scan"}, "type": "electric_scooter", "name": "334fc338d930763bf279885202aadb11", "is_reserved": 0, "lon": -77.02393383333333, "is_disabled": 0, "fusion_lat": 0.0, "lat": 38.92191, "bike_id": "334fc338d930763bf279885202aadb11", "fusion_lon": 0.0}, {"rental_uris": {"ios": "https://dc.lft.to/lastmile_qr_scan", "android": "https://dc.lft.to/lastmile_qr_scan"}, "type": "electric_scooter", "name": "6fea90ec9fec8a9f35ac9d6e7f6c0251", "is_reserved": 0, "lon": -77.04808233333333, "is_disabled": 0, "fusion_lat": 0.0, "lat": 38.90973233333333, "bike_id": "6fea90ec9fec8a9f35ac9d6e7f6c0251", "fusion_lon": 0.0}, {"rental_uris": {"ios": "https://dc.lft.to/lastmile_qr_scan", "android": "https://dc.lft.to/lastmile_qr_scan"}, "type": "electric_scooter", "name": "a07d5ce228976858b455ebcd3120575e", "is_reserved": 0, "lon": -77.04256816666667, "is_disabled": 0, "fusion_lat": 0.0, "lat": 38.909566833333336, "bike_id": "a07d5ce228976858b455ebcd3120575e", "fusion_lon": 0.0}, {"rental_uris": {"ios": "https://dc.lft.to/lastmile_qr_scan", "android": "https://dc.lft.to/lastmile_qr_scan"}, "type": "electric_bike", "name": "a1e4b2e52ffa2e0467db7ef88b5817df", "is_reserved": 0, "lon": -77.0591305, "is_disabled": 0, "fusion_lat": 0.0, "lat": 38.905373833333336, "bike_id": "a1e4b2e52ffa2e0467db7ef88b5817df", "fusion_lon": 0.0}, {"rental_uris": {"ios": "https://dc.lft.to/lastmile_qr_scan", "android": "https://dc.lft.to/lastmile_qr_scan"}, "type": "electric_scooter", "name": "6f61a6ff4da68b8333d47134aa21b4c5", "is_reserved": 0, "lon": -76.9855895, "is_disabled": 0, "fusion_lat": 0.0, "lat": 38.859939833333335, "bike_id": "6f61a6ff4da68b8333d47134aa21b4c5", "fusion_lon": 0.0}, {"rental_uris": {"ios": "https://dc.lft.to/lastmile_qr_scan", "android": "https://dc.lft.to/lastmile_qr_scan"}, "type": "electric_scooter", "name": "03c2497b8057675d12a204f7b0376417", "is_reserved": 0, "lon": -77.03870166666667, "is_disabled": 0, "fusion_lat": 0.0, "lat": 38.903771, "bike_id": "03c2497b8057675d12a204f7b0376417", "fusion_lon": 0.0}, {"rental_uris": {"ios": "https://dc.lft.to/lastmile_qr_scan", "android": "https://dc.lft.to/lastmile_qr_scan"}, "type": "electric_scooter", "name": "98fc46ed4d4c7a6621021b9a9d200d14", "is_reserved": 0, "lon": -77.032854, "is_disabled": 0, "fusion_lat": 0.0, "lat": 38.93882983333334, "bike_id": "98fc46ed4d4c7a6621021b9a9d200d14", "fusion_lon": 0.0}, {"rental_uris": {"ios": "https://dc.lft.to/lastmile_qr_scan", "android": "https://dc.lft.to/lastmile_qr_scan"}, "type": "electric_scooter", "name": "0151d72ca54c192d67185479f5116dc5", "is_reserved": 0, "lon": -77.06397883333334, "is_disabled": 0, "fusion_lat": 0.0, "lat": 38.90865383333333, "bike_id": "0151d72ca54c192d67185479f5116dc5", "fusion_lon": 0.0}, {"rental_uris": {"ios": "https://dc.lft.to/lastmile_qr_scan", "android": "https://dc.lft.to/lastmile_qr_scan"}, "type": "electric_scooter", "name": "a63483010787c545852daf493195bdfe", "is_reserved": 0, "lon": -77.04332216666667, "is_disabled": 0, "fusion_lat": 0.0, "lat": 38.89690866666667, "bike_id": "a63483010787c545852daf493195bdfe", "fusion_lon": 0.0}, {"rental_uris": {"ios": "https://dc.lft.to/lastmile_qr_scan", "android": "https://dc.lft.to/lastmile_qr_scan"}, "type": "electric_scooter", "name": "361fc48854d24e017ac0f4e028568675", "is_reserved": 0, "lon": -77.0366365, "is_disabled": 0, "fusion_lat": 0.0, "lat": 38.91389683333333, "bike_id": "361fc48854d24e017ac0f4e028568675", "fusion_lon": 0.0}, {"rental_uris": {"ios": "https://dc.lft.to/lastmile_qr_scan", "android": "https://dc.lft.to/lastmile_qr_scan"}, "type": "electric_scooter", "name": "cfe4816219871905f89ac479b803c817", "is_reserved": 0, "lon": -77.03218416666667, "is_disabled": 0, "fusion_lat": 0.0, "lat": 38.8871035, "bike_id": "cfe4816219871905f89ac479b803c817", "fusion_lon": 0.0}, {"rental_uris": {"ios": "https://dc.lft.to/lastmile_qr_scan", "android": "https://dc.lft.to/lastmile_qr_scan"}, "type": "electric_bike", "name": "1013d4e240eb666bf19f7f6ac2c0298d", "is_reserved": 0, "lon": -76.968882, "is_disabled": 0, "fusion_lat": 0.0, "lat": 38.86991366666667, "bike_id": "1013d4e240eb666bf19f7f6ac2c0298d", "fusion_lon": 0.0}, {"rental_uris": {"ios": "https://dc.lft.to/lastmile_qr_scan", "android": "https://dc.lft.to/lastmile_qr_scan"}, "type": "electric_scooter", "name": "656c549ba6843677fac7ad87c069ed62", "is_reserved": 0, "lon": -77.0209925, "is_disabled": 0, "fusion_lat": 0.0, "lat": 38.923208833333334, "bike_id": "656c549ba6843677fac7ad87c069ed62", "fusion_lon": 0.0}, {"rental_uris": {"ios": "https://dc.lft.to/lastmile_qr_scan", "android": "https://dc.lft.to/lastmile_qr_scan"}, "type": "electric_scooter", "name": "d090161caef097b9c255d407f8840f83", "is_reserved": 0, "lon": -77.05122733333333, "is_disabled": 0, "fusion_lat": 0.0, "lat": 38.897646333333334, "bike_id": "d090161caef097b9c255d407f8840f83", "fusion_lon": 0.0}, {"rental_uris": {"ios": "https://dc.lft.to/lastmile_qr_scan", "android": "https://dc.lft.to/lastmile_qr_scan"}, "type": "electric_scooter", "name": "3e1d5367df8070a83bc03316be17a60a", "is_reserved": 0, "lon": -77.045772, "is_disabled": 0, "fusion_lat": 0.0, "lat": 38.914059, "bike_id": "3e1d5367df8070a83bc03316be17a60a", "fusion_lon": 0.0}, {"rental_uris": {"ios": "https://dc.lft.to/lastmile_qr_scan", "android": "https://dc.lft.to/lastmile_qr_scan"}, "type": "electric_scooter", "name": "432571be33681fb2c5b3495a462f96e5", "is_reserved": 0, "lon": -77.0321225, "is_disabled": 0, "fusion_lat": 0.0, "lat": 38.90788933333333, "bike_id": "432571be33681fb2c5b3495a462f96e5", "fusion_lon": 0.0}, {"rental_uris": {"ios": "https://dc.lft.to/lastmile_qr_scan", "android": "https://dc.lft.to/lastmile_qr_scan"}, "type": "electric_scooter", "name": "9ddd65ca0669be2207bf5cc734ecf4e3", "is_reserved": 0, "lon": -77.03865016666667, "is_disabled": 0, "fusion_lat": 0.0, "lat": 38.91178266666667, "bike_id": "9ddd65ca0669be2207bf5cc734ecf4e3", "fusion_lon": 0.0}, {"rental_uris": {"ios": "https://dc.lft.to/lastmile_qr_scan", "android": "https://dc.lft.to/lastmile_qr_scan"}, "type": "electric_scooter", "name": "3983a65f86b3f476361351d55111b76c", "is_reserved": 0, "lon": -77.03274116666667, "is_disabled": 0, "fusion_lat": 0.0, "lat": 38.89873133333333, "bike_id": "3983a65f86b3f476361351d55111b76c", "fusion_lon": 0.0}, {"rental_uris": {"ios": "https://dc.lft.to/lastmile_qr_scan", "android": "https://dc.lft.to/lastmile_qr_scan"}, "type": "electric_bike", "name": "243d613a0bbf4cd4e03f4077664561a8", "is_reserved": 0, "lon": -77.0067865, "is_disabled": 0, "fusion_lat": 0.0, "lat": 38.94514733333333, "bike_id": "243d613a0bbf4cd4e03f4077664561a8", "fusion_lon": 0.0}, {"rental_uris": {"ios": "https://dc.lft.to/lastmile_qr_scan", "android": "https://dc.lft.to/lastmile_qr_scan"}, "type": "electric_scooter", "name": "423f4a9ab28dbe9b1eacfe1c590ad081", "is_reserved": 0, "lon": -77.0122025, "is_disabled": 0, "fusion_lat": 0.0, "lat": 38.876714666666665, "bike_id": "423f4a9ab28dbe9b1eacfe1c590ad081", "fusion_lon": 0.0}, {"rental_uris": {"ios": "https://dc.lft.to/lastmile_qr_scan", "android": "https://dc.lft.to/lastmile_qr_scan"}, "type": "electric_scooter", "name": "828c01f563a50260983606c2c664058e", "is_reserved": 0, "lon": -77.02965916666666, "is_disabled": 0, "fusion_lat": 0.0, "lat": 38.907119, "bike_id": "828c01f563a50260983606c2c664058e", "fusion_lon": 0.0}, {"rental_uris": {"ios": "https://dc.lft.to/lastmile_qr_scan", "android": "https://dc.lft.to/lastmile_qr_scan"}, "type": "electric_scooter", "name": "7d6e3adac0db5d5ac3509bcb80caa172", "is_reserved": 0, "lon": -77.00530316666666, "is_disabled": 0, "fusion_lat": 0.0, "lat": 38.87943466666667, "bike_id": "7d6e3adac0db5d5ac3509bcb80caa172", "fusion_lon": 0.0}, {"rental_uris": {"ios": "https://dc.lft.to/lastmile_qr_scan", "android": "https://dc.lft.to/lastmile_qr_scan"}, "type": "electric_scooter", "name": "a77608658af4199973d16f74f6a299f3", "is_reserved": 0, "lon": -77.00927283333333, "is_disabled": 0, "fusion_lat": 0.0, "lat": 38.8998385, "bike_id": "a77608658af4199973d16f74f6a299f3", "fusion_lon": 0.0}, {"rental_uris": {"ios": "https://dc.lft.to/lastmile_qr_scan", "android": "https://dc.lft.to/lastmile_qr_scan"}, "type": "electric_scooter", "name": "cafced7be97ebb0fe2325afe2942a793", "is_reserved": 0, "lon": -77.046978, "is_disabled": 0, "fusion_lat": 0.0, "lat": 38.921663333333335, "bike_id": "cafced7be97ebb0fe2325afe2942a793", "fusion_lon": 0.0}, {"rental_uris": {"ios": "https://dc.lft.to/lastmile_qr_scan", "android": "https://dc.lft.to/lastmile_qr_scan"}, "type": "electric_scooter", "name": "1015d71ae143986639b06b3b2bb090b4", "is_reserved": 0, "lon": -77.03919016666667, "is_disabled": 0, "fusion_lat": 0.0, "lat": 38.8984795, "bike_id": "1015d71ae143986639b06b3b2bb090b4", "fusion_lon": 0.0}, {"rental_uris": {"ios": "https://dc.lft.to/lastmile_qr_scan", "android": "https://dc.lft.to/lastmile_qr_scan"}, "type": "electric_scooter", "name": "6029a810c77ab6647527a1215c2f9aad", "is_reserved": 0, "lon": -77.0269815, "is_disabled": 0, "fusion_lat": 0.0, "lat": 38.9024185, "bike_id": "6029a810c77ab6647527a1215c2f9aad", "fusion_lon": 0.0}, {"rental_uris": {"ios": "https://dc.lft.to/lastmile_qr_scan", "android": "https://dc.lft.to/lastmile_qr_scan"}, "type": "electric_scooter", "name": "a72059669ba078a3e1a48729476899f2", "is_reserved": 0, "lon": -77.02520033333333, "is_disabled": 0, "fusion_lat": 0.0, "lat": 38.940088, "bike_id": "a72059669ba078a3e1a48729476899f2", "fusion_lon": 0.0}, {"rental_uris": {"ios": "https://dc.lft.to/lastmile_qr_scan", "android": "https://dc.lft.to/lastmile_qr_scan"}, "type": "electric_scooter", "name": "0bcc2425a9e7fab918781886abb43720", "is_reserved": 0, "lon": -77.03343083333333, "is_disabled": 0, "fusion_lat": 0.0, "lat": 38.92870683333334, "bike_id": "0bcc2425a9e7fab918781886abb43720", "fusion_lon": 0.0}, {"rental_uris": {"ios": "https://dc.lft.to/lastmile_qr_scan", "android": "https://dc.lft.to/lastmile_qr_scan"}, "type": "electric_scooter", "name": "7faa029eeebf9bd90958632a218b030d", "is_reserved": 0, "lon": -77.00363, "is_disabled": 0, "fusion_lat": 0.0, "lat": 38.89909316666667, "bike_id": "7faa029eeebf9bd90958632a218b030d", "fusion_lon": 0.0}, {"rental_uris": {"ios": "https://dc.lft.to/lastmile_qr_scan", "android": "https://dc.lft.to/lastmile_qr_scan"}, "type": "electric_scooter", "name": "7007c219632d6e651ad7e5ca2e02c0c7", "is_reserved": 0, "lon": -77.03132833333333, "is_disabled": 0, "fusion_lat": 0.0, "lat": 38.923787, "bike_id": "7007c219632d6e651ad7e5ca2e02c0c7", "fusion_lon": 0.0}, {"rental_uris": {"ios": "https://dc.lft.to/lastmile_qr_scan", "android": "https://dc.lft.to/lastmile_qr_scan"}, "type": "electric_bike", "name": "ded762e27c4f2b8a94ec3d2cf52722d4", "is_reserved": 0, "lon": -76.9847005, "is_disabled": 0, "fusion_lat": 0.0, "lat": 38.9097395, "bike_id": "ded762e27c4f2b8a94ec3d2cf52722d4", "fusion_lon": 0.0}, {"rental_uris": {"ios": "https://dc.lft.to/lastmile_qr_scan", "android": "https://dc.lft.to/lastmile_qr_scan"}, "type": "electric_scooter", "name": "f45034198ccf5cfd8e9d812f219bf520", "is_reserved": 0, "lon": -77.04453583333333, "is_disabled": 0, "fusion_lat": 0.0, "lat": 38.90137216666667, "bike_id": "f45034198ccf5cfd8e9d812f219bf520", "fusion_lon": 0.0}, {"rental_uris": {"ios": "https://dc.lft.to/lastmile_qr_scan", "android": "https://dc.lft.to/lastmile_qr_scan"}, "type": "electric_scooter", "name": "bed29ea9822f64f892291ace056008be", "is_reserved": 0, "lon": -77.03781033333334, "is_disabled": 0, "fusion_lat": 0.0, "lat": 38.93966983333333, "bike_id": "bed29ea9822f64f892291ace056008be", "fusion_lon": 0.0}, {"rental_uris": {"ios": "https://dc.lft.to/lastmile_qr_scan", "android": "https://dc.lft.to/lastmile_qr_scan"}, "type": "electric_scooter", "name": "d63116577fb34c575ca3a4ee800ef15c", "is_reserved": 0, "lon": -77.02711883333333, "is_disabled": 0, "fusion_lat": 0.0, "lat": 38.897421666666666, "bike_id": "d63116577fb34c575ca3a4ee800ef15c", "fusion_lon": 0.0}, {"rental_uris": {"ios": "https://dc.lft.to/lastmile_qr_scan", "android": "https://dc.lft.to/lastmile_qr_scan"}, "type": "electric_scooter", "name": "ebdb33cc0e7f88ce04c0b2ac1e674114", "is_reserved": 0, "lon": -77.02201783333334, "is_disabled": 0, "fusion_lat": 0.0, "lat": 38.887171333333335, "bike_id": "ebdb33cc0e7f88ce04c0b2ac1e674114", "fusion_lon": 0.0}, {"rental_uris": {"ios": "https://dc.lft.to/lastmile_qr_scan", "android": "https://dc.lft.to/lastmile_qr_scan"}, "type": "electric_scooter", "name": "60798a59facf6de021e1acff9166535b", "is_reserved": 0, "lon": -77.00891083333333, "is_disabled": 0, "fusion_lat": 0.0, "lat": 38.917148833333336, "bike_id": "60798a59facf6de021e1acff9166535b", "fusion_lon": 0.0}, {"rental_uris": {"ios": "https://dc.lft.to/lastmile_qr_scan", "android": "https://dc.lft.to/lastmile_qr_scan"}, "type": "electric_scooter", "name": "dc61a029b82a53f8ebab56638b7bae14", "is_reserved": 0, "lon": -77.03071783333333, "is_disabled": 0, "fusion_lat": 0.0, "lat": 38.9344885, "bike_id": "dc61a029b82a53f8ebab56638b7bae14", "fusion_lon": 0.0}, {"rental_uris": {"ios": "https://dc.lft.to/lastmile_qr_scan", "android": "https://dc.lft.to/lastmile_qr_scan"}, "type": "electric_scooter", "name": "73f6bb214e69438209b99d597c7ca552", "is_reserved": 0, "lon": -77.03195233333334, "is_disabled": 0, "fusion_lat": 0.0, "lat": 38.908271, "bike_id": "73f6bb214e69438209b99d597c7ca552", "fusion_lon": 0.0}, {"rental_uris": {"ios": "https://dc.lft.to/lastmile_qr_scan", "android": "https://dc.lft.to/lastmile_qr_scan"}, "type": "electric_scooter", "name": "cf3a3794c0200777178f6915c91ec038", "is_reserved": 0, "lon": -77.0449965, "is_disabled": 0, "fusion_lat": 0.0, "lat": 38.9001915, "bike_id": "cf3a3794c0200777178f6915c91ec038", "fusion_lon": 0.0}, {"rental_uris": {"ios": "https://dc.lft.to/lastmile_qr_scan", "android": "https://dc.lft.to/lastmile_qr_scan"}, "type": "electric_scooter", "name": "b3bcf8d60cbca3d3124786304b67bb72", "is_reserved": 0, "lon": -77.02226416666667, "is_disabled": 0, "fusion_lat": 0.0, "lat": 38.92093166666667, "bike_id": "b3bcf8d60cbca3d3124786304b67bb72", "fusion_lon": 0.0}, {"rental_uris": {"ios": "https://dc.lft.to/lastmile_qr_scan", "android": "https://dc.lft.to/lastmile_qr_scan"}, "type": "electric_scooter", "name": "ac771e96047123a3a4a73005cea65642", "is_reserved": 0, "lon": -77.0056025, "is_disabled": 0, "fusion_lat": 0.0, "lat": 38.87473133333334, "bike_id": "ac771e96047123a3a4a73005cea65642", "fusion_lon": 0.0}, {"rental_uris": {"ios": "https://dc.lft.to/lastmile_qr_scan", "android": "https://dc.lft.to/lastmile_qr_scan"}, "type": "electric_scooter", "name": "316656d713a3abd17112841c558e489d", "is_reserved": 0, "lon": -77.06425183333333, "is_disabled": 0, "fusion_lat": 0.0, "lat": 38.91404383333333, "bike_id": "316656d713a3abd17112841c558e489d", "fusion_lon": 0.0}, {"rental_uris": {"ios": "https://dc.lft.to/lastmile_qr_scan", "android": "https://dc.lft.to/lastmile_qr_scan"}, "type": "electric_scooter", "name": "6aec0fe32a5e9dfe5dde9666cce93255", "is_reserved": 0, "lon": -77.04202066666667, "is_disabled": 0, "fusion_lat": 0.0, "lat": 38.90373733333333, "bike_id": "6aec0fe32a5e9dfe5dde9666cce93255", "fusion_lon": 0.0}, {"rental_uris": {"ios": "https://dc.lft.to/lastmile_qr_scan", "android": "https://dc.lft.to/lastmile_qr_scan"}, "type": "electric_scooter", "name": "033eb19b3176e9f3fbbe38990e23c0d3", "is_reserved": 0, "lon": -77.00982166666667, "is_disabled": 0, "fusion_lat": 0.0, "lat": 38.90576983333333, "bike_id": "033eb19b3176e9f3fbbe38990e23c0d3", "fusion_lon": 0.0}, {"rental_uris": {"ios": "https://dc.lft.to/lastmile_qr_scan", "android": "https://dc.lft.to/lastmile_qr_scan"}, "type": "electric_scooter", "name": "24366d7457dc6f0305b14e131facc88b", "is_reserved": 0, "lon": -77.02477466666667, "is_disabled": 0, "fusion_lat": 0.0, "lat": 38.918187, "bike_id": "24366d7457dc6f0305b14e131facc88b", "fusion_lon": 0.0}, {"rental_uris": {"ios": "https://dc.lft.to/lastmile_qr_scan", "android": "https://dc.lft.to/lastmile_qr_scan"}, "type": "electric_scooter", "name": "356d9d9dd2d95a884bb34b01675a8f20", "is_reserved": 0, "lon": -77.031837, "is_disabled": 0, "fusion_lat": 0.0, "lat": 38.909465, "bike_id": "356d9d9dd2d95a884bb34b01675a8f20", "fusion_lon": 0.0}, {"rental_uris": {"ios": "https://dc.lft.to/lastmile_qr_scan", "android": "https://dc.lft.to/lastmile_qr_scan"}, "type": "electric_bike", "name": "f292b65e3c9e2e4069406aeff4238f8d", "is_reserved": 0, "lon": -76.994982, "is_disabled": 0, "fusion_lat": 0.0, "lat": 38.862191, "bike_id": "f292b65e3c9e2e4069406aeff4238f8d", "fusion_lon": 0.0}, {"rental_uris": {"ios": "https://dc.lft.to/lastmile_qr_scan", "android": "https://dc.lft.to/lastmile_qr_scan"}, "type": "electric_scooter", "name": "78c905c0a124985c60081a5b72f79e3d", "is_reserved": 0, "lon": -76.97982266666666, "is_disabled": 0, "fusion_lat": 0.0, "lat": 38.89735733333333, "bike_id": "78c905c0a124985c60081a5b72f79e3d", "fusion_lon": 0.0}, {"rental_uris": {"ios": "https://dc.lft.to/lastmile_qr_scan", "android": "https://dc.lft.to/lastmile_qr_scan"}, "type": "electric_scooter", "name": "61fc66774289c1790b76b0bdcb3dc9ec", "is_reserved": 0, "lon": -77.03242466666667, "is_disabled": 0, "fusion_lat": 0.0, "lat": 38.8994425, "bike_id": "61fc66774289c1790b76b0bdcb3dc9ec", "fusion_lon": 0.0}, {"rental_uris": {"ios": "https://dc.lft.to/lastmile_qr_scan", "android": "https://dc.lft.to/lastmile_qr_scan"}, "type": "electric_scooter", "name": "98c95d023ceadee4c4753633d3b3adac", "is_reserved": 0, "lon": -77.05793916666667, "is_disabled": 0, "fusion_lat": 0.0, "lat": 38.934797833333334, "bike_id": "98c95d023ceadee4c4753633d3b3adac", "fusion_lon": 0.0}, {"rental_uris": {"ios": "https://dc.lft.to/lastmile_qr_scan", "android": "https://dc.lft.to/lastmile_qr_scan"}, "type": "electric_scooter", "name": "b0a7990523fecb2bff35ccac45da517e", "is_reserved": 0, "lon": -77.027111, "is_disabled": 0, "fusion_lat": 0.0, "lat": 38.93575533333333, "bike_id": "b0a7990523fecb2bff35ccac45da517e", "fusion_lon": 0.0}, {"rental_uris": {"ios": "https://dc.lft.to/lastmile_qr_scan", "android": "https://dc.lft.to/lastmile_qr_scan"}, "type": "electric_scooter", "name": "106026c5ed5f20ab0806cc3cda33a8ba", "is_reserved": 0, "lon": -77.04571783333333, "is_disabled": 0, "fusion_lat": 0.0, "lat": 38.914102166666666, "bike_id": "106026c5ed5f20ab0806cc3cda33a8ba", "fusion_lon": 0.0}, {"rental_uris": {"ios": "https://dc.lft.to/lastmile_qr_scan", "android": "https://dc.lft.to/lastmile_qr_scan"}, "type": "electric_scooter", "name": "0e86edc0bb92ace22b5a4b88cee5d092", "is_reserved": 0, "lon": -77.01622066666667, "is_disabled": 0, "fusion_lat": 0.0, "lat": 38.9065765, "bike_id": "0e86edc0bb92ace22b5a4b88cee5d092", "fusion_lon": 0.0}, {"rental_uris": {"ios": "https://dc.lft.to/lastmile_qr_scan", "android": "https://dc.lft.to/lastmile_qr_scan"}, "type": "electric_bike", "name": "843659e29cab5abac4c26871b42afb3e", "is_reserved": 0, "lon": -76.9074175, "is_disabled": 0, "fusion_lat": 0.0, "lat": 38.896190833333335, "bike_id": "843659e29cab5abac4c26871b42afb3e", "fusion_lon": 0.0}, {"rental_uris": {"ios": "https://dc.lft.to/lastmile_qr_scan", "android": "https://dc.lft.to/lastmile_qr_scan"}, "type": "electric_scooter", "name": "3b6edf984265551b3434b8487bfbabf7", "is_reserved": 0, "lon": -77.022761, "is_disabled": 0, "fusion_lat": 0.0, "lat": 38.924261333333334, "bike_id": "3b6edf984265551b3434b8487bfbabf7", "fusion_lon": 0.0}, {"rental_uris": {"ios": "https://dc.lft.to/lastmile_qr_scan", "android": "https://dc.lft.to/lastmile_qr_scan"}, "type": "electric_scooter", "name": "dd36ca07ea43bbfd6a66451d3c4c8368", "is_reserved": 0, "lon": -77.04336333333333, "is_disabled": 0, "fusion_lat": 0.0, "lat": 38.892222333333336, "bike_id": "dd36ca07ea43bbfd6a66451d3c4c8368", "fusion_lon": 0.0}, {"rental_uris": {"ios": "https://dc.lft.to/lastmile_qr_scan", "android": "https://dc.lft.to/lastmile_qr_scan"}, "type": "electric_bike", "name": "6f5d434f6544e4b0592e6ce00886ebd7", "is_reserved": 0, "lon": -76.988385, "is_disabled": 0, "fusion_lat": 0.0, "lat": 38.84278116666667, "bike_id": "6f5d434f6544e4b0592e6ce00886ebd7", "fusion_lon": 0.0}, {"rental_uris": {"ios": "https://dc.lft.to/lastmile_qr_scan", "android": "https://dc.lft.to/lastmile_qr_scan"}, "type": "electric_scooter", "name": "a857971b63187da7e978e8aae1f7faae", "is_reserved": 0, "lon": -77.024494, "is_disabled": 0, "fusion_lat": 0.0, "lat": 38.9000405, "bike_id": "a857971b63187da7e978e8aae1f7faae", "fusion_lon": 0.0}, {"rental_uris": {"ios": "https://dc.lft.to/lastmile_qr_scan", "android": "https://dc.lft.to/lastmile_qr_scan"}, "type": "electric_scooter", "name": "faedbc4a866f9d0ec3878dc27827c7f1", "is_reserved": 0, "lon": -77.02382333333334, "is_disabled": 0, "fusion_lat": 0.0, "lat": 38.919530333333334, "bike_id": "faedbc4a866f9d0ec3878dc27827c7f1", "fusion_lon": 0.0}, {"rental_uris": {"ios": "https://dc.lft.to/lastmile_qr_scan", "android": "https://dc.lft.to/lastmile_qr_scan"}, "type": "electric_scooter", "name": "723fecfc36bad4872e0ddfb7048340ee", "is_reserved": 0, "lon": -77.03235583333333, "is_disabled": 0, "fusion_lat": 0.0, "lat": 38.90714766666667, "bike_id": "723fecfc36bad4872e0ddfb7048340ee", "fusion_lon": 0.0}, {"rental_uris": {"ios": "https://dc.lft.to/lastmile_qr_scan", "android": "https://dc.lft.to/lastmile_qr_scan"}, "type": "electric_scooter", "name": "12eeeb051ead1a692e93d7124c1871e7", "is_reserved": 0, "lon": -77.034758, "is_disabled": 0, "fusion_lat": 0.0, "lat": 38.908866, "bike_id": "12eeeb051ead1a692e93d7124c1871e7", "fusion_lon": 0.0}, {"rental_uris": {"ios": "https://dc.lft.to/lastmile_qr_scan", "android": "https://dc.lft.to/lastmile_qr_scan"}, "type": "electric_scooter", "name": "815fac511cfeeef9878e3e025d2cd56e", "is_reserved": 0, "lon": -77.04093433333334, "is_disabled": 0, "fusion_lat": 0.0, "lat": 38.90015366666667, "bike_id": "815fac511cfeeef9878e3e025d2cd56e", "fusion_lon": 0.0}, {"rental_uris": {"ios": "https://dc.lft.to/lastmile_qr_scan", "android": "https://dc.lft.to/lastmile_qr_scan"}, "type": "electric_scooter", "name": "522ed94b6503813d1d5321c44dbadcec", "is_reserved": 0, "lon": -77.0237735, "is_disabled": 0, "fusion_lat": 0.0, "lat": 38.909561333333336, "bike_id": "522ed94b6503813d1d5321c44dbadcec", "fusion_lon": 0.0}, {"rental_uris": {"ios": "https://dc.lft.to/lastmile_qr_scan", "android": "https://dc.lft.to/lastmile_qr_scan"}, "type": "electric_scooter", "name": "59651c005ad7f9f715d1f728e9ad1b4c", "is_reserved": 0, "lon": -77.040049, "is_disabled": 0, "fusion_lat": 0.0, "lat": 38.9119205, "bike_id": "59651c005ad7f9f715d1f728e9ad1b4c", "fusion_lon": 0.0}, {"rental_uris": {"ios": "https://dc.lft.to/lastmile_qr_scan", "android": "https://dc.lft.to/lastmile_qr_scan"}, "type": "electric_scooter", "name": "54bda93f74435c20469ff46afd1fde5e", "is_reserved": 0, "lon": -77.02733233333333, "is_disabled": 0, "fusion_lat": 0.0, "lat": 38.8975515, "bike_id": "54bda93f74435c20469ff46afd1fde5e", "fusion_lon": 0.0}, {"rental_uris": {"ios": "https://dc.lft.to/lastmile_qr_scan", "android": "https://dc.lft.to/lastmile_qr_scan"}, "type": "electric_scooter", "name": "c222a301ab3a972c0e61169aa85b5113", "is_reserved": 0, "lon": -77.0318155, "is_disabled": 0, "fusion_lat": 0.0, "lat": 38.918403, "bike_id": "c222a301ab3a972c0e61169aa85b5113", "fusion_lon": 0.0}, {"rental_uris": {"ios": "https://dc.lft.to/lastmile_qr_scan", "android": "https://dc.lft.to/lastmile_qr_scan"}, "type": "electric_scooter", "name": "5566f981dffc9528e2d18a37ed6ca7d4", "is_reserved": 0, "lon": -77.021294, "is_disabled": 0, "fusion_lat": 0.0, "lat": 38.926954333333335, "bike_id": "5566f981dffc9528e2d18a37ed6ca7d4", "fusion_lon": 0.0}, {"rental_uris": {"ios": "https://dc.lft.to/lastmile_qr_scan", "android": "https://dc.lft.to/lastmile_qr_scan"}, "type": "electric_scooter", "name": "4e441a432c95bf69787cb5e9eb884923", "is_reserved": 0, "lon": -77.027859, "is_disabled": 0, "fusion_lat": 0.0, "lat": 38.92763766666667, "bike_id": "4e441a432c95bf69787cb5e9eb884923", "fusion_lon": 0.0}, {"rental_uris": {"ios": "https://dc.lft.to/lastmile_qr_scan", "android": "https://dc.lft.to/lastmile_qr_scan"}, "type": "electric_scooter", "name": "dc920fb73cafd9fb7248af67d1710efb", "is_reserved": 0, "lon": -76.94721933333334, "is_disabled": 0, "fusion_lat": 0.0, "lat": 38.890866333333335, "bike_id": "dc920fb73cafd9fb7248af67d1710efb", "fusion_lon": 0.0}, {"rental_uris": {"ios": "https://dc.lft.to/lastmile_qr_scan", "android": "https://dc.lft.to/lastmile_qr_scan"}, "type": "electric_scooter", "name": "8df17c6d0002bd0811fef5acd9a6c767", "is_reserved": 0, "lon": -77.031342, "is_disabled": 0, "fusion_lat": 0.0, "lat": 38.918153833333335, "bike_id": "8df17c6d0002bd0811fef5acd9a6c767", "fusion_lon": 0.0}, {"rental_uris": {"ios": "https://dc.lft.to/lastmile_qr_scan", "android": "https://dc.lft.to/lastmile_qr_scan"}, "type": "electric_scooter", "name": "5d0d8fb122356f445a80b5597cfe667f", "is_reserved": 0, "lon": -77.04552616666666, "is_disabled": 0, "fusion_lat": 0.0, "lat": 38.909716, "bike_id": "5d0d8fb122356f445a80b5597cfe667f", "fusion_lon": 0.0}, {"rental_uris": {"ios": "https://dc.lft.to/lastmile_qr_scan", "android": "https://dc.lft.to/lastmile_qr_scan"}, "type": "electric_scooter", "name": "ea0fb44ada4288164579dfa8a617a2f0", "is_reserved": 0, "lon": -77.03339316666667, "is_disabled": 0, "fusion_lat": 0.0, "lat": 38.897328, "bike_id": "ea0fb44ada4288164579dfa8a617a2f0", "fusion_lon": 0.0}, {"rental_uris": {"ios": "https://dc.lft.to/lastmile_qr_scan", "android": "https://dc.lft.to/lastmile_qr_scan"}, "type": "electric_bike", "name": "d90cd40fa34cccfec8a06fbcb83ab769", "is_reserved": 0, "lon": -76.95743716666667, "is_disabled": 0, "fusion_lat": 0.0, "lat": 38.888593666666665, "bike_id": "d90cd40fa34cccfec8a06fbcb83ab769", "fusion_lon": 0.0}, {"rental_uris": {"ios": "https://dc.lft.to/lastmile_qr_scan", "android": "https://dc.lft.to/lastmile_qr_scan"}, "type": "electric_scooter", "name": "43f58bcf3d0c7b4374b878255c255f13", "is_reserved": 0, "lon": -77.03958316666667, "is_disabled": 0, "fusion_lat": 0.0, "lat": 38.89248283333333, "bike_id": "43f58bcf3d0c7b4374b878255c255f13", "fusion_lon": 0.0}, {"rental_uris": {"ios": "https://dc.lft.to/lastmile_qr_scan", "android": "https://dc.lft.to/lastmile_qr_scan"}, "type": "electric_scooter", "name": "0460f32e3069e69abec49dc0a7d49786", "is_reserved": 0, "lon": -77.06773716666666, "is_disabled": 0, "fusion_lat": 0.0, "lat": 38.908824, "bike_id": "0460f32e3069e69abec49dc0a7d49786", "fusion_lon": 0.0}, {"rental_uris": {"ios": "https://dc.lft.to/lastmile_qr_scan", "android": "https://dc.lft.to/lastmile_qr_scan"}, "type": "electric_scooter", "name": "6d33978e2b22030fe7da90586bec7d12", "is_reserved": 0, "lon": -77.02982083333333, "is_disabled": 0, "fusion_lat": 0.0, "lat": 38.923709833333334, "bike_id": "6d33978e2b22030fe7da90586bec7d12", "fusion_lon": 0.0}, {"rental_uris": {"ios": "https://dc.lft.to/lastmile_qr_scan", "android": "https://dc.lft.to/lastmile_qr_scan"}, "type": "electric_scooter", "name": "484e99c9194573795726e7123b509d24", "is_reserved": 0, "lon": -77.037509, "is_disabled": 0, "fusion_lat": 0.0, "lat": 38.9320275, "bike_id": "484e99c9194573795726e7123b509d24", "fusion_lon": 0.0}, {"rental_uris": {"ios": "https://dc.lft.to/lastmile_qr_scan", "android": "https://dc.lft.to/lastmile_qr_scan"}, "type": "electric_scooter", "name": "ca8b843f93ff086dfc19ce8510d27f60", "is_reserved": 0, "lon": -77.042219, "is_disabled": 0, "fusion_lat": 0.0, "lat": 38.911164166666666, "bike_id": "ca8b843f93ff086dfc19ce8510d27f60", "fusion_lon": 0.0}, {"rental_uris": {"ios": "https://dc.lft.to/lastmile_qr_scan", "android": "https://dc.lft.to/lastmile_qr_scan"}, "type": "electric_scooter", "name": "ac860a053f9bc5e6dc5b6291d53f62c0", "is_reserved": 0, "lon": -77.03867266666667, "is_disabled": 0, "fusion_lat": 0.0, "lat": 38.91111016666667, "bike_id": "ac860a053f9bc5e6dc5b6291d53f62c0", "fusion_lon": 0.0}, {"rental_uris": {"ios": "https://dc.lft.to/lastmile_qr_scan", "android": "https://dc.lft.to/lastmile_qr_scan"}, "type": "electric_scooter", "name": "1171251b44973abc7e7a775bd2108760", "is_reserved": 0, "lon": -77.04366783333333, "is_disabled": 0, "fusion_lat": 0.0, "lat": 38.911219, "bike_id": "1171251b44973abc7e7a775bd2108760", "fusion_lon": 0.0}, {"rental_uris": {"ios": "https://dc.lft.to/lastmile_qr_scan", "android": "https://dc.lft.to/lastmile_qr_scan"}, "type": "electric_bike", "name": "5c622555e7e9dc91c357d27be8400efe", "is_reserved": 0, "lon": -77.0207295, "is_disabled": 0, "fusion_lat": 0.0, "lat": 38.964446, "bike_id": "5c622555e7e9dc91c357d27be8400efe", "fusion_lon": 0.0}, {"rental_uris": {"ios": "https://dc.lft.to/lastmile_qr_scan", "android": "https://dc.lft.to/lastmile_qr_scan"}, "type": "electric_scooter", "name": "ae63eb5956418870bf033425aab42cc0", "is_reserved": 0, "lon": -76.98535033333333, "is_disabled": 0, "fusion_lat": 0.0, "lat": 38.914495333333335, "bike_id": "ae63eb5956418870bf033425aab42cc0", "fusion_lon": 0.0}, {"rental_uris": {"ios": "https://dc.lft.to/lastmile_qr_scan", "android": "https://dc.lft.to/lastmile_qr_scan"}, "type": "electric_scooter", "name": "64dd32055083e6bbbb63fed4911f541d", "is_reserved": 0, "lon": -77.02407933333333, "is_disabled": 0, "fusion_lat": 0.0, "lat": 38.91717916666666, "bike_id": "64dd32055083e6bbbb63fed4911f541d", "fusion_lon": 0.0}, {"rental_uris": {"ios": "https://dc.lft.to/lastmile_qr_scan", "android": "https://dc.lft.to/lastmile_qr_scan"}, "type": "electric_scooter", "name": "0242b0d037d24287d83993cb93c6cfc6", "is_reserved": 0, "lon": -77.0260145, "is_disabled": 0, "fusion_lat": 0.0, "lat": 38.90631, "bike_id": "0242b0d037d24287d83993cb93c6cfc6", "fusion_lon": 0.0}, {"rental_uris": {"ios": "https://dc.lft.to/lastmile_qr_scan", "android": "https://dc.lft.to/lastmile_qr_scan"}, "type": "electric_scooter", "name": "27ffd8eb7840ad1647c95f65294a03c9", "is_reserved": 0, "lon": -77.03620816666667, "is_disabled": 0, "fusion_lat": 0.0, "lat": 38.942909, "bike_id": "27ffd8eb7840ad1647c95f65294a03c9", "fusion_lon": 0.0}, {"rental_uris": {"ios": "https://dc.lft.to/lastmile_qr_scan", "android": "https://dc.lft.to/lastmile_qr_scan"}, "type": "electric_scooter", "name": "00dc951f2c542b2cba08dd5e39a87b80", "is_reserved": 0, "lon": -76.98694, "is_disabled": 0, "fusion_lat": 0.0, "lat": 38.9069975, "bike_id": "00dc951f2c542b2cba08dd5e39a87b80", "fusion_lon": 0.0}, {"rental_uris": {"ios": "https://dc.lft.to/lastmile_qr_scan", "android": "https://dc.lft.to/lastmile_qr_scan"}, "type": "electric_scooter", "name": "3f01659a6f7a36f754f9d2149476be01", "is_reserved": 0, "lon": -77.02627266666667, "is_disabled": 0, "fusion_lat": 0.0, "lat": 38.89635333333333, "bike_id": "3f01659a6f7a36f754f9d2149476be01", "fusion_lon": 0.0}, {"rental_uris": {"ios": "https://dc.lft.to/lastmile_qr_scan", "android": "https://dc.lft.to/lastmile_qr_scan"}, "type": "electric_scooter", "name": "84fef5cc85806cfb4000c7c6f9d2db6d", "is_reserved": 0, "lon": -77.02296183333333, "is_disabled": 0, "fusion_lat": 0.0, "lat": 38.917809, "bike_id": "84fef5cc85806cfb4000c7c6f9d2db6d", "fusion_lon": 0.0}, {"rental_uris": {"ios": "https://dc.lft.to/lastmile_qr_scan", "android": "https://dc.lft.to/lastmile_qr_scan"}, "type": "electric_scooter", "name": "a21819afe08470759d777bc0dc852506", "is_reserved": 0, "lon": -76.99156266666667, "is_disabled": 0, "fusion_lat": 0.0, "lat": 38.900407666666666, "bike_id": "a21819afe08470759d777bc0dc852506", "fusion_lon": 0.0}, {"rental_uris": {"ios": "https://dc.lft.to/lastmile_qr_scan", "android": "https://dc.lft.to/lastmile_qr_scan"}, "type": "electric_scooter", "name": "f78d6445af117d3ffcdae05e422d02b2", "is_reserved": 0, "lon": -77.029824, "is_disabled": 0, "fusion_lat": 0.0, "lat": 38.91695333333333, "bike_id": "f78d6445af117d3ffcdae05e422d02b2", "fusion_lon": 0.0}, {"rental_uris": {"ios": "https://dc.lft.to/lastmile_qr_scan", "android": "https://dc.lft.to/lastmile_qr_scan"}, "type": "electric_scooter", "name": "0aada651df49f11ed2e0f41784ca80ec", "is_reserved": 0, "lon": -76.99033383333334, "is_disabled": 0, "fusion_lat": 0.0, "lat": 38.8888125, "bike_id": "0aada651df49f11ed2e0f41784ca80ec", "fusion_lon": 0.0}, {"rental_uris": {"ios": "https://dc.lft.to/lastmile_qr_scan", "android": "https://dc.lft.to/lastmile_qr_scan"}, "type": "electric_scooter", "name": "2fc3eb3561ced18e0eedb850c1405ba4", "is_reserved": 0, "lon": -77.02105333333333, "is_disabled": 0, "fusion_lat": 0.0, "lat": 38.9668205, "bike_id": "2fc3eb3561ced18e0eedb850c1405ba4", "fusion_lon": 0.0}, {"rental_uris": {"ios": "https://dc.lft.to/lastmile_qr_scan", "android": "https://dc.lft.to/lastmile_qr_scan"}, "type": "electric_bike", "name": "88f0037c083f281d65ca6a02cad022b5", "is_reserved": 0, "lon": -76.99368966666667, "is_disabled": 0, "fusion_lat": 0.0, "lat": 38.927344166666664, "bike_id": "88f0037c083f281d65ca6a02cad022b5", "fusion_lon": 0.0}, {"rental_uris": {"ios": "https://dc.lft.to/lastmile_qr_scan", "android": "https://dc.lft.to/lastmile_qr_scan"}, "type": "electric_scooter", "name": "2926d3188196133bbc50858fb2c5d9fc", "is_reserved": 0, "lon": -77.00748933333334, "is_disabled": 0, "fusion_lat": 0.0, "lat": 38.91119033333333, "bike_id": "2926d3188196133bbc50858fb2c5d9fc", "fusion_lon": 0.0}, {"rental_uris": {"ios": "https://dc.lft.to/lastmile_qr_scan", "android": "https://dc.lft.to/lastmile_qr_scan"}, "type": "electric_bike", "name": "90465b0675687e1e8d0f330a2dd9ad16", "is_reserved": 0, "lon": -77.01913383333333, "is_disabled": 0, "fusion_lat": 0.0, "lat": 38.976717666666666, "bike_id": "90465b0675687e1e8d0f330a2dd9ad16", "fusion_lon": 0.0}, {"rental_uris": {"ios": "https://dc.lft.to/lastmile_qr_scan", "android": "https://dc.lft.to/lastmile_qr_scan"}, "type": "electric_bike", "name": "fdc8e2961a6d06f4a64d931d7758659e", "is_reserved": 0, "lon": -76.97533966666667, "is_disabled": 0, "fusion_lat": 0.0, "lat": 38.903300333333334, "bike_id": "fdc8e2961a6d06f4a64d931d7758659e", "fusion_lon": 0.0}, {"rental_uris": {"ios": "https://dc.lft.to/lastmile_qr_scan", "android": "https://dc.lft.to/lastmile_qr_scan"}, "type": "electric_scooter", "name": "783812321eb0fdd736669ce172527821", "is_reserved": 0, "lon": -77.01912933333334, "is_disabled": 0, "fusion_lat": 0.0, "lat": 38.923373, "bike_id": "783812321eb0fdd736669ce172527821", "fusion_lon": 0.0}, {"rental_uris": {"ios": "https://dc.lft.to/lastmile_qr_scan", "android": "https://dc.lft.to/lastmile_qr_scan"}, "type": "electric_scooter", "name": "099eaae467756d29587b58732b6906a2", "is_reserved": 0, "lon": -77.03541683333333, "is_disabled": 0, "fusion_lat": 0.0, "lat": 38.923406166666666, "bike_id": "099eaae467756d29587b58732b6906a2", "fusion_lon": 0.0}, {"rental_uris": {"ios": "https://dc.lft.to/lastmile_qr_scan", "android": "https://dc.lft.to/lastmile_qr_scan"}, "type": "electric_scooter", "name": "0a4ac479195807bf61a646ca5c55c58c", "is_reserved": 0, "lon": -77.00572233333334, "is_disabled": 0, "fusion_lat": 0.0, "lat": 38.87460516666667, "bike_id": "0a4ac479195807bf61a646ca5c55c58c", "fusion_lon": 0.0}, {"rental_uris": {"ios": "https://dc.lft.to/lastmile_qr_scan", "android": "https://dc.lft.to/lastmile_qr_scan"}, "type": "electric_scooter", "name": "a2402d03ecb86938435e5187bcd39e08", "is_reserved": 0, "lon": -76.98509283333334, "is_disabled": 0, "fusion_lat": 0.0, "lat": 38.90692883333333, "bike_id": "a2402d03ecb86938435e5187bcd39e08", "fusion_lon": 0.0}, {"rental_uris": {"ios": "https://dc.lft.to/lastmile_qr_scan", "android": "https://dc.lft.to/lastmile_qr_scan"}, "type": "electric_scooter", "name": "10a643754b6024fd85ee931546040243", "is_reserved": 0, "lon": -76.95701716666667, "is_disabled": 0, "fusion_lat": 0.0, "lat": 38.892030166666665, "bike_id": "10a643754b6024fd85ee931546040243", "fusion_lon": 0.0}, {"rental_uris": {"ios": "https://dc.lft.to/lastmile_qr_scan", "android": "https://dc.lft.to/lastmile_qr_scan"}, "type": "electric_scooter", "name": "51043fb283b66da3f261e2dae94eea3a", "is_reserved": 0, "lon": -77.01765066666667, "is_disabled": 0, "fusion_lat": 0.0, "lat": 38.8771995, "bike_id": "51043fb283b66da3f261e2dae94eea3a", "fusion_lon": 0.0}, {"rental_uris": {"ios": "https://dc.lft.to/lastmile_qr_scan", "android": "https://dc.lft.to/lastmile_qr_scan"}, "type": "electric_scooter", "name": "c45dfda560aa5fa204fafe1023d16b03", "is_reserved": 0, "lon": -77.03859466666667, "is_disabled": 0, "fusion_lat": 0.0, "lat": 38.917149, "bike_id": "c45dfda560aa5fa204fafe1023d16b03", "fusion_lon": 0.0}, {"rental_uris": {"ios": "https://dc.lft.to/lastmile_qr_scan", "android": "https://dc.lft.to/lastmile_qr_scan"}, "type": "electric_scooter", "name": "453c201844040488a71e826d7b6fff74", "is_reserved": 0, "lon": -76.9903705, "is_disabled": 0, "fusion_lat": 0.0, "lat": 38.8887385, "bike_id": "453c201844040488a71e826d7b6fff74", "fusion_lon": 0.0}, {"rental_uris": {"ios": "https://dc.lft.to/lastmile_qr_scan", "android": "https://dc.lft.to/lastmile_qr_scan"}, "type": "electric_scooter", "name": "0f494068a83b4941d1e8a41e8760a6e5", "is_reserved": 0, "lon": -77.01154283333334, "is_disabled": 0, "fusion_lat": 0.0, "lat": 38.914566, "bike_id": "0f494068a83b4941d1e8a41e8760a6e5", "fusion_lon": 0.0}, {"rental_uris": {"ios": "https://dc.lft.to/lastmile_qr_scan", "android": "https://dc.lft.to/lastmile_qr_scan"}, "type": "electric_scooter", "name": "c015123c2ca48c80e5357c2dd6d21bd6", "is_reserved": 0, "lon": -77.04357783333333, "is_disabled": 0, "fusion_lat": 0.0, "lat": 38.901281833333336, "bike_id": "c015123c2ca48c80e5357c2dd6d21bd6", "fusion_lon": 0.0}, {"rental_uris": {"ios": "https://dc.lft.to/lastmile_qr_scan", "android": "https://dc.lft.to/lastmile_qr_scan"}, "type": "electric_bike", "name": "9e0f235a2aae940ea6a0072c9b2c8a59", "is_reserved": 0, "lon": -77.03623433333334, "is_disabled": 0, "fusion_lat": 0.0, "lat": 38.9265975, "bike_id": "9e0f235a2aae940ea6a0072c9b2c8a59", "fusion_lon": 0.0}, {"rental_uris": {"ios": "https://dc.lft.to/lastmile_qr_scan", "android": "https://dc.lft.to/lastmile_qr_scan"}, "type": "electric_scooter", "name": "321c20b0cf418861cab205569718700c", "is_reserved": 0, "lon": -77.0329645, "is_disabled": 0, "fusion_lat": 0.0, "lat": 38.92845783333333, "bike_id": "321c20b0cf418861cab205569718700c", "fusion_lon": 0.0}, {"rental_uris": {"ios": "https://dc.lft.to/lastmile_qr_scan", "android": "https://dc.lft.to/lastmile_qr_scan"}, "type": "electric_scooter", "name": "3ded4439ea199197711dbfa460975f3b", "is_reserved": 0, "lon": -77.00929583333334, "is_disabled": 0, "fusion_lat": 0.0, "lat": 38.91256883333333, "bike_id": "3ded4439ea199197711dbfa460975f3b", "fusion_lon": 0.0}, {"rental_uris": {"ios": "https://dc.lft.to/lastmile_qr_scan", "android": "https://dc.lft.to/lastmile_qr_scan"}, "type": "electric_scooter", "name": "104c820687f52a8b1f511ac31af78ace", "is_reserved": 0, "lon": -77.038149, "is_disabled": 0, "fusion_lat": 0.0, "lat": 38.91553183333333, "bike_id": "104c820687f52a8b1f511ac31af78ace", "fusion_lon": 0.0}, {"rental_uris": {"ios": "https://dc.lft.to/lastmile_qr_scan", "android": "https://dc.lft.to/lastmile_qr_scan"}, "type": "electric_scooter", "name": "46e887a3421bdc9e3b6afa0febb1af75", "is_reserved": 0, "lon": -77.00393066666666, "is_disabled": 0, "fusion_lat": 0.0, "lat": 38.874552, "bike_id": "46e887a3421bdc9e3b6afa0febb1af75", "fusion_lon": 0.0}, {"rental_uris": {"ios": "https://dc.lft.to/lastmile_qr_scan", "android": "https://dc.lft.to/lastmile_qr_scan"}, "type": "electric_scooter", "name": "1c35907016e2955b6bcc93f7e936de7c", "is_reserved": 0, "lon": -77.05015683333333, "is_disabled": 0, "fusion_lat": 0.0, "lat": 38.910576166666665, "bike_id": "1c35907016e2955b6bcc93f7e936de7c", "fusion_lon": 0.0}, {"rental_uris": {"ios": "https://dc.lft.to/lastmile_qr_scan", "android": "https://dc.lft.to/lastmile_qr_scan"}, "type": "electric_scooter", "name": "5fbdb1c9cfaf85ef5c830f2f035dea26", "is_reserved": 0, "lon": -77.01775966666666, "is_disabled": 0, "fusion_lat": 0.0, "lat": 38.88321416666667, "bike_id": "5fbdb1c9cfaf85ef5c830f2f035dea26", "fusion_lon": 0.0}, {"rental_uris": {"ios": "https://dc.lft.to/lastmile_qr_scan", "android": "https://dc.lft.to/lastmile_qr_scan"}, "type": "electric_scooter", "name": "977e06266d9d69ee07da1434bd722575", "is_reserved": 0, "lon": -77.01980683333333, "is_disabled": 0, "fusion_lat": 0.0, "lat": 38.952149666666664, "bike_id": "977e06266d9d69ee07da1434bd722575", "fusion_lon": 0.0}, {"rental_uris": {"ios": "https://dc.lft.to/lastmile_qr_scan", "android": "https://dc.lft.to/lastmile_qr_scan"}, "type": "electric_scooter", "name": "85cfbaa35bc59b64e7a92b1c112a6bf4", "is_reserved": 0, "lon": -77.0468015, "is_disabled": 0, "fusion_lat": 0.0, "lat": 38.892368166666664, "bike_id": "85cfbaa35bc59b64e7a92b1c112a6bf4", "fusion_lon": 0.0}, {"rental_uris": {"ios": "https://dc.lft.to/lastmile_qr_scan", "android": "https://dc.lft.to/lastmile_qr_scan"}, "type": "electric_scooter", "name": "832752abe04adf6c7047844d23f94804", "is_reserved": 0, "lon": -77.025867, "is_disabled": 0, "fusion_lat": 0.0, "lat": 38.9203785, "bike_id": "832752abe04adf6c7047844d23f94804", "fusion_lon": 0.0}, {"rental_uris": {"ios": "https://dc.lft.to/lastmile_qr_scan", "android": "https://dc.lft.to/lastmile_qr_scan"}, "type": "electric_scooter", "name": "9b26593b2bc6922189964d861f54dd5f", "is_reserved": 0, "lon": -77.0654305, "is_disabled": 0, "fusion_lat": 0.0, "lat": 38.90519116666667, "bike_id": "9b26593b2bc6922189964d861f54dd5f", "fusion_lon": 0.0}, {"rental_uris": {"ios": "https://dc.lft.to/lastmile_qr_scan", "android": "https://dc.lft.to/lastmile_qr_scan"}, "type": "electric_scooter", "name": "92cd484f39a7b8729245aac7a7132b3a", "is_reserved": 0, "lon": -76.92650233333333, "is_disabled": 0, "fusion_lat": 0.0, "lat": 38.883787833333336, "bike_id": "92cd484f39a7b8729245aac7a7132b3a", "fusion_lon": 0.0}, {"rental_uris": {"ios": "https://dc.lft.to/lastmile_qr_scan", "android": "https://dc.lft.to/lastmile_qr_scan"}, "type": "electric_scooter", "name": "0f0125e5c3e099288dddfd00c2096abf", "is_reserved": 0, "lon": -77.01997816666666, "is_disabled": 0, "fusion_lat": 0.0, "lat": 38.90160133333333, "bike_id": "0f0125e5c3e099288dddfd00c2096abf", "fusion_lon": 0.0}, {"rental_uris": {"ios": "https://dc.lft.to/lastmile_qr_scan", "android": "https://dc.lft.to/lastmile_qr_scan"}, "type": "electric_scooter", "name": "bb96fd588b8cf7a1bdd587c32f9a2019", "is_reserved": 0, "lon": -77.03180416666666, "is_disabled": 0, "fusion_lat": 0.0, "lat": 38.89225733333333, "bike_id": "bb96fd588b8cf7a1bdd587c32f9a2019", "fusion_lon": 0.0}, {"rental_uris": {"ios": "https://dc.lft.to/lastmile_qr_scan", "android": "https://dc.lft.to/lastmile_qr_scan"}, "type": "electric_scooter", "name": "5f1b61dbcb865a8097290165f7720b6b", "is_reserved": 0, "lon": -77.02671616666667, "is_disabled": 0, "fusion_lat": 0.0, "lat": 38.984306, "bike_id": "5f1b61dbcb865a8097290165f7720b6b", "fusion_lon": 0.0}, {"rental_uris": {"ios": "https://dc.lft.to/lastmile_qr_scan", "android": "https://dc.lft.to/lastmile_qr_scan"}, "type": "electric_scooter", "name": "03d27531f4de3eeac2e4a7927716f5fd", "is_reserved": 0, "lon": -77.04043366666667, "is_disabled": 0, "fusion_lat": 0.0, "lat": 38.923115333333335, "bike_id": "03d27531f4de3eeac2e4a7927716f5fd", "fusion_lon": 0.0}, {"rental_uris": {"ios": "https://dc.lft.to/lastmile_qr_scan", "android": "https://dc.lft.to/lastmile_qr_scan"}, "type": "electric_scooter", "name": "286b00513b1349f22ead55e82f3a593d", "is_reserved": 0, "lon": -76.99970683333333, "is_disabled": 0, "fusion_lat": 0.0, "lat": 38.8865845, "bike_id": "286b00513b1349f22ead55e82f3a593d", "fusion_lon": 0.0}, {"rental_uris": {"ios": "https://dc.lft.to/lastmile_qr_scan", "android": "https://dc.lft.to/lastmile_qr_scan"}, "type": "electric_scooter", "name": "29dd6c0609eb889e03005642e27f0c3d", "is_reserved": 0, "lon": -77.028426, "is_disabled": 0, "fusion_lat": 0.0, "lat": 38.8922145, "bike_id": "29dd6c0609eb889e03005642e27f0c3d", "fusion_lon": 0.0}, {"rental_uris": {"ios": "https://dc.lft.to/lastmile_qr_scan", "android": "https://dc.lft.to/lastmile_qr_scan"}, "type": "electric_scooter", "name": "eb4c2bb3b9a4a1c8aff6ca3e61ce7fce", "is_reserved": 0, "lon": -77.0396015, "is_disabled": 0, "fusion_lat": 0.0, "lat": 38.924706, "bike_id": "eb4c2bb3b9a4a1c8aff6ca3e61ce7fce", "fusion_lon": 0.0}, {"rental_uris": {"ios": "https://dc.lft.to/lastmile_qr_scan", "android": "https://dc.lft.to/lastmile_qr_scan"}, "type": "electric_scooter", "name": "c08b5f2b9350d6d7079cc521da2389b4", "is_reserved": 0, "lon": -76.9837285, "is_disabled": 0, "fusion_lat": 0.0, "lat": 38.86670516666667, "bike_id": "c08b5f2b9350d6d7079cc521da2389b4", "fusion_lon": 0.0}, {"rental_uris": {"ios": "https://dc.lft.to/lastmile_qr_scan", "android": "https://dc.lft.to/lastmile_qr_scan"}, "type": "electric_scooter", "name": "2ab8b921995ebc4de32545de63106569", "is_reserved": 0, "lon": -77.05597616666667, "is_disabled": 0, "fusion_lat": 0.0, "lat": 38.937008166666665, "bike_id": "2ab8b921995ebc4de32545de63106569", "fusion_lon": 0.0}, {"rental_uris": {"ios": "https://dc.lft.to/lastmile_qr_scan", "android": "https://dc.lft.to/lastmile_qr_scan"}, "type": "electric_scooter", "name": "b7d4c38c8a689b889a2b158ebe67e568", "is_reserved": 0, "lon": -77.02643983333333, "is_disabled": 0, "fusion_lat": 0.0, "lat": 38.90721666666666, "bike_id": "b7d4c38c8a689b889a2b158ebe67e568", "fusion_lon": 0.0}, {"rental_uris": {"ios": "https://dc.lft.to/lastmile_qr_scan", "android": "https://dc.lft.to/lastmile_qr_scan"}, "type": "electric_bike", "name": "0b7e7aac7729d4d7215e6b8a6f28c732", "is_reserved": 0, "lon": -77.12840716666666, "is_disabled": 0, "fusion_lat": 0.0, "lat": 38.800534, "bike_id": "0b7e7aac7729d4d7215e6b8a6f28c732", "fusion_lon": 0.0}, {"rental_uris": {"ios": "https://dc.lft.to/lastmile_qr_scan", "android": "https://dc.lft.to/lastmile_qr_scan"}, "type": "electric_scooter", "name": "55707f8f7ee23a8ebb8ac1cfd18a16e2", "is_reserved": 0, "lon": -77.03233383333334, "is_disabled": 0, "fusion_lat": 0.0, "lat": 38.898180333333336, "bike_id": "55707f8f7ee23a8ebb8ac1cfd18a16e2", "fusion_lon": 0.0}, {"rental_uris": {"ios": "https://dc.lft.to/lastmile_qr_scan", "android": "https://dc.lft.to/lastmile_qr_scan"}, "type": "electric_scooter", "name": "9dee6a63c9169f0e187d0f397e59db0e", "is_reserved": 0, "lon": -77.0072285, "is_disabled": 0, "fusion_lat": 0.0, "lat": 38.911062666666666, "bike_id": "9dee6a63c9169f0e187d0f397e59db0e", "fusion_lon": 0.0}, {"rental_uris": {"ios": "https://dc.lft.to/lastmile_qr_scan", "android": "https://dc.lft.to/lastmile_qr_scan"}, "type": "electric_scooter", "name": "8fbc03a76caf7a2e7ab6c9b70c7a43f2", "is_reserved": 0, "lon": -77.02576516666667, "is_disabled": 0, "fusion_lat": 0.0, "lat": 38.925292166666665, "bike_id": "8fbc03a76caf7a2e7ab6c9b70c7a43f2", "fusion_lon": 0.0}, {"rental_uris": {"ios": "https://dc.lft.to/lastmile_qr_scan", "android": "https://dc.lft.to/lastmile_qr_scan"}, "type": "electric_scooter", "name": "89db0cd64067f77cf5e672056bc925fb", "is_reserved": 0, "lon": -77.03082633333334, "is_disabled": 0, "fusion_lat": 0.0, "lat": 38.93519916666666, "bike_id": "89db0cd64067f77cf5e672056bc925fb", "fusion_lon": 0.0}, {"rental_uris": {"ios": "https://dc.lft.to/lastmile_qr_scan", "android": "https://dc.lft.to/lastmile_qr_scan"}, "type": "electric_scooter", "name": "0ec5fc157f8bc5bea998eb1662bbe58b", "is_reserved": 0, "lon": -77.02409116666666, "is_disabled": 0, "fusion_lat": 0.0, "lat": 38.90041033333333, "bike_id": "0ec5fc157f8bc5bea998eb1662bbe58b", "fusion_lon": 0.0}, {"rental_uris": {"ios": "https://dc.lft.to/lastmile_qr_scan", "android": "https://dc.lft.to/lastmile_qr_scan"}, "type": "electric_scooter", "name": "d7443af845e8444e3470b76388eb2436", "is_reserved": 0, "lon": -77.03830116666667, "is_disabled": 0, "fusion_lat": 0.0, "lat": 38.9125515, "bike_id": "d7443af845e8444e3470b76388eb2436", "fusion_lon": 0.0}, {"rental_uris": {"ios": "https://dc.lft.to/lastmile_qr_scan", "android": "https://dc.lft.to/lastmile_qr_scan"}, "type": "electric_scooter", "name": "d79ff668c6a52d52272d7724a3bb834b", "is_reserved": 0, "lon": -77.04362366666666, "is_disabled": 0, "fusion_lat": 0.0, "lat": 38.892233, "bike_id": "d79ff668c6a52d52272d7724a3bb834b", "fusion_lon": 0.0}, {"rental_uris": {"ios": "https://dc.lft.to/lastmile_qr_scan", "android": "https://dc.lft.to/lastmile_qr_scan"}, "type": "electric_scooter", "name": "f68f917bbc28263270bb829c8171154b", "is_reserved": 0, "lon": -77.00193683333333, "is_disabled": 0, "fusion_lat": 0.0, "lat": 38.900218833333334, "bike_id": "f68f917bbc28263270bb829c8171154b", "fusion_lon": 0.0}, {"rental_uris": {"ios": "https://dc.lft.to/lastmile_qr_scan", "android": "https://dc.lft.to/lastmile_qr_scan"}, "type": "electric_scooter", "name": "4806e5d3e53c8c1719abccafb7062d69", "is_reserved": 0, "lon": -77.04574466666666, "is_disabled": 0, "fusion_lat": 0.0, "lat": 38.91322383333333, "bike_id": "4806e5d3e53c8c1719abccafb7062d69", "fusion_lon": 0.0}, {"rental_uris": {"ios": "https://dc.lft.to/lastmile_qr_scan", "android": "https://dc.lft.to/lastmile_qr_scan"}, "type": "electric_bike", "name": "f1479d4e4476ff7195477f0df5ac74b3", "is_reserved": 0, "lon": -76.977752, "is_disabled": 0, "fusion_lat": 0.0, "lat": 38.857212833333335, "bike_id": "f1479d4e4476ff7195477f0df5ac74b3", "fusion_lon": 0.0}, {"rental_uris": {"ios": "https://dc.lft.to/lastmile_qr_scan", "android": "https://dc.lft.to/lastmile_qr_scan"}, "type": "electric_scooter", "name": "ba1a5ecacbbeca427b5857621363d656", "is_reserved": 0, "lon": -77.02504266666666, "is_disabled": 0, "fusion_lat": 0.0, "lat": 38.94209883333333, "bike_id": "ba1a5ecacbbeca427b5857621363d656", "fusion_lon": 0.0}, {"rental_uris": {"ios": "https://dc.lft.to/lastmile_qr_scan", "android": "https://dc.lft.to/lastmile_qr_scan"}, "type": "electric_scooter", "name": "c9122fdf1c33539df10cbe43530f921e", "is_reserved": 0, "lon": -77.02990566666666, "is_disabled": 0, "fusion_lat": 0.0, "lat": 38.9170465, "bike_id": "c9122fdf1c33539df10cbe43530f921e", "fusion_lon": 0.0}, {"rental_uris": {"ios": "https://dc.lft.to/lastmile_qr_scan", "android": "https://dc.lft.to/lastmile_qr_scan"}, "type": "electric_scooter", "name": "bd4ed92cea68f8c0fd1fe701605f0a92", "is_reserved": 0, "lon": -77.00184233333333, "is_disabled": 0, "fusion_lat": 0.0, "lat": 38.875034, "bike_id": "bd4ed92cea68f8c0fd1fe701605f0a92", "fusion_lon": 0.0}, {"rental_uris": {"ios": "https://dc.lft.to/lastmile_qr_scan", "android": "https://dc.lft.to/lastmile_qr_scan"}, "type": "electric_scooter", "name": "96b70f4f03f787b403a4deaf2bc4798f", "is_reserved": 0, "lon": -77.02201366666667, "is_disabled": 0, "fusion_lat": 0.0, "lat": 38.9515425, "bike_id": "96b70f4f03f787b403a4deaf2bc4798f", "fusion_lon": 0.0}, {"rental_uris": {"ios": "https://dc.lft.to/lastmile_qr_scan", "android": "https://dc.lft.to/lastmile_qr_scan"}, "type": "electric_scooter", "name": "a8001c5de0f5dac3d27f90025719449d", "is_reserved": 0, "lon": -77.03149383333333, "is_disabled": 0, "fusion_lat": 0.0, "lat": 38.9112245, "bike_id": "a8001c5de0f5dac3d27f90025719449d", "fusion_lon": 0.0}, {"rental_uris": {"ios": "https://dc.lft.to/lastmile_qr_scan", "android": "https://dc.lft.to/lastmile_qr_scan"}, "type": "electric_scooter", "name": "da56ca74f906f9a00edc56e662cdccf5", "is_reserved": 0, "lon": -77.02567883333333, "is_disabled": 0, "fusion_lat": 0.0, "lat": 38.9238485, "bike_id": "da56ca74f906f9a00edc56e662cdccf5", "fusion_lon": 0.0}, {"rental_uris": {"ios": "https://dc.lft.to/lastmile_qr_scan", "android": "https://dc.lft.to/lastmile_qr_scan"}, "type": "electric_bike", "name": "09bcc304a444b6e8aceed57d3fc35271", "is_reserved": 0, "lon": -77.09452833333333, "is_disabled": 0, "fusion_lat": 0.0, "lat": 38.807533666666664, "bike_id": "09bcc304a444b6e8aceed57d3fc35271", "fusion_lon": 0.0}, {"rental_uris": {"ios": "https://dc.lft.to/lastmile_qr_scan", "android": "https://dc.lft.to/lastmile_qr_scan"}, "type": "electric_scooter", "name": "b938c4c994f673c026a3272b9d2e6fc6", "is_reserved": 0, "lon": -77.033721, "is_disabled": 0, "fusion_lat": 0.0, "lat": 38.901151666666664, "bike_id": "b938c4c994f673c026a3272b9d2e6fc6", "fusion_lon": 0.0}, {"rental_uris": {"ios": "https://dc.lft.to/lastmile_qr_scan", "android": "https://dc.lft.to/lastmile_qr_scan"}, "type": "electric_scooter", "name": "dc85f71f7548912191daadf086450690", "is_reserved": 0, "lon": -77.04158533333333, "is_disabled": 0, "fusion_lat": 0.0, "lat": 38.915525, "bike_id": "dc85f71f7548912191daadf086450690", "fusion_lon": 0.0}, {"rental_uris": {"ios": "https://dc.lft.to/lastmile_qr_scan", "android": "https://dc.lft.to/lastmile_qr_scan"}, "type": "electric_scooter", "name": "9f96dcb537fe4de68ea38c3f19b2ad4b", "is_reserved": 0, "lon": -77.04509616666667, "is_disabled": 0, "fusion_lat": 0.0, "lat": 38.892247, "bike_id": "9f96dcb537fe4de68ea38c3f19b2ad4b", "fusion_lon": 0.0}, {"rental_uris": {"ios": "https://dc.lft.to/lastmile_qr_scan", "android": "https://dc.lft.to/lastmile_qr_scan"}, "type": "electric_scooter", "name": "c3bed4f44efaa20a1b2c777410a5cc7c", "is_reserved": 0, "lon": -77.07879483333333, "is_disabled": 0, "fusion_lat": 0.0, "lat": 38.94611833333333, "bike_id": "c3bed4f44efaa20a1b2c777410a5cc7c", "fusion_lon": 0.0}, {"rental_uris": {"ios": "https://dc.lft.to/lastmile_qr_scan", "android": "https://dc.lft.to/lastmile_qr_scan"}, "type": "electric_scooter", "name": "10e5d42474206928a31635660ac0aced", "is_reserved": 0, "lon": -77.021548, "is_disabled": 0, "fusion_lat": 0.0, "lat": 38.92604583333333, "bike_id": "10e5d42474206928a31635660ac0aced", "fusion_lon": 0.0}, {"rental_uris": {"ios": "https://dc.lft.to/lastmile_qr_scan", "android": "https://dc.lft.to/lastmile_qr_scan"}, "type": "electric_bike", "name": "edeb36d0fd80524dbe3ff6c099e4a34d", "is_reserved": 0, "lon": -77.0038475, "is_disabled": 0, "fusion_lat": 0.0, "lat": 38.83609916666666, "bike_id": "edeb36d0fd80524dbe3ff6c099e4a34d", "fusion_lon": 0.0}, {"rental_uris": {"ios": "https://dc.lft.to/lastmile_qr_scan", "android": "https://dc.lft.to/lastmile_qr_scan"}, "type": "electric_scooter", "name": "f273187aecc7fc03f70d7b408ec56d69", "is_reserved": 0, "lon": -77.032674, "is_disabled": 0, "fusion_lat": 0.0, "lat": 38.91989316666667, "bike_id": "f273187aecc7fc03f70d7b408ec56d69", "fusion_lon": 0.0}, {"rental_uris": {"ios": "https://dc.lft.to/lastmile_qr_scan", "android": "https://dc.lft.to/lastmile_qr_scan"}, "type": "electric_scooter", "name": "608e434be38127b6e3596ef857bcffb3", "is_reserved": 0, "lon": -77.02282416666667, "is_disabled": 0, "fusion_lat": 0.0, "lat": 38.89524433333333, "bike_id": "608e434be38127b6e3596ef857bcffb3", "fusion_lon": 0.0}, {"rental_uris": {"ios": "https://dc.lft.to/lastmile_qr_scan", "android": "https://dc.lft.to/lastmile_qr_scan"}, "type": "electric_scooter", "name": "a46110e72ba4195bb5478a6ce96b1ad7", "is_reserved": 0, "lon": -77.017591, "is_disabled": 0, "fusion_lat": 0.0, "lat": 38.9210765, "bike_id": "a46110e72ba4195bb5478a6ce96b1ad7", "fusion_lon": 0.0}, {"rental_uris": {"ios": "https://dc.lft.to/lastmile_qr_scan", "android": "https://dc.lft.to/lastmile_qr_scan"}, "type": "electric_scooter", "name": "ab23a445e84b7ee9b32795825eecaa7b", "is_reserved": 0, "lon": -77.00918766666666, "is_disabled": 0, "fusion_lat": 0.0, "lat": 38.88192466666667, "bike_id": "ab23a445e84b7ee9b32795825eecaa7b", "fusion_lon": 0.0}, {"rental_uris": {"ios": "https://dc.lft.to/lastmile_qr_scan", "android": "https://dc.lft.to/lastmile_qr_scan"}, "type": "electric_scooter", "name": "446cbe4342171e89b7d204b4139a0599", "is_reserved": 0, "lon": -77.0260845, "is_disabled": 0, "fusion_lat": 0.0, "lat": 38.9195995, "bike_id": "446cbe4342171e89b7d204b4139a0599", "fusion_lon": 0.0}, {"rental_uris": {"ios": "https://dc.lft.to/lastmile_qr_scan", "android": "https://dc.lft.to/lastmile_qr_scan"}, "type": "electric_scooter", "name": "70795c2aa4ca2f85e6ed7c9b6b55d524", "is_reserved": 0, "lon": -77.01221983333333, "is_disabled": 0, "fusion_lat": 0.0, "lat": 38.920399833333335, "bike_id": "70795c2aa4ca2f85e6ed7c9b6b55d524", "fusion_lon": 0.0}, {"rental_uris": {"ios": "https://dc.lft.to/lastmile_qr_scan", "android": "https://dc.lft.to/lastmile_qr_scan"}, "type": "electric_scooter", "name": "fd7a3f6836aef2d333e4fdc4e42578f1", "is_reserved": 0, "lon": -77.01932366666666, "is_disabled": 0, "fusion_lat": 0.0, "lat": 38.92879166666667, "bike_id": "fd7a3f6836aef2d333e4fdc4e42578f1", "fusion_lon": 0.0}, {"rental_uris": {"ios": "https://dc.lft.to/lastmile_qr_scan", "android": "https://dc.lft.to/lastmile_qr_scan"}, "type": "electric_scooter", "name": "c8f394ff8c392575081d4f64311dbfeb", "is_reserved": 0, "lon": -77.02710483333334, "is_disabled": 0, "fusion_lat": 0.0, "lat": 38.923992166666665, "bike_id": "c8f394ff8c392575081d4f64311dbfeb", "fusion_lon": 0.0}, {"rental_uris": {"ios": "https://dc.lft.to/lastmile_qr_scan", "android": "https://dc.lft.to/lastmile_qr_scan"}, "type": "electric_scooter", "name": "28cdb2aa93df921c15a8fedb5415c2a0", "is_reserved": 0, "lon": -77.04654933333333, "is_disabled": 0, "fusion_lat": 0.0, "lat": 38.9196955, "bike_id": "28cdb2aa93df921c15a8fedb5415c2a0", "fusion_lon": 0.0}, {"rental_uris": {"ios": "https://dc.lft.to/lastmile_qr_scan", "android": "https://dc.lft.to/lastmile_qr_scan"}, "type": "electric_scooter", "name": "91958b3562a1f4a377f084d6226f6e7a", "is_reserved": 0, "lon": -77.00380733333333, "is_disabled": 0, "fusion_lat": 0.0, "lat": 38.940668333333335, "bike_id": "91958b3562a1f4a377f084d6226f6e7a", "fusion_lon": 0.0}, {"rental_uris": {"ios": "https://dc.lft.to/lastmile_qr_scan", "android": "https://dc.lft.to/lastmile_qr_scan"}, "type": "electric_scooter", "name": "24f430942ac24e04204354981719470c", "is_reserved": 0, "lon": -77.04680316666666, "is_disabled": 0, "fusion_lat": 0.0, "lat": 38.9056115, "bike_id": "24f430942ac24e04204354981719470c", "fusion_lon": 0.0}, {"rental_uris": {"ios": "https://dc.lft.to/lastmile_qr_scan", "android": "https://dc.lft.to/lastmile_qr_scan"}, "type": "electric_scooter", "name": "57f69aae14a66aa9af7c4eb53860bf1e", "is_reserved": 0, "lon": -77.03445766666667, "is_disabled": 0, "fusion_lat": 0.0, "lat": 38.91802716666667, "bike_id": "57f69aae14a66aa9af7c4eb53860bf1e", "fusion_lon": 0.0}, {"rental_uris": {"ios": "https://dc.lft.to/lastmile_qr_scan", "android": "https://dc.lft.to/lastmile_qr_scan"}, "type": "electric_scooter", "name": "24a7187c51a34403b48214bdb20c69e3", "is_reserved": 0, "lon": -77.04471466666666, "is_disabled": 0, "fusion_lat": 0.0, "lat": 38.922930666666666, "bike_id": "24a7187c51a34403b48214bdb20c69e3", "fusion_lon": 0.0}, {"rental_uris": {"ios": "https://dc.lft.to/lastmile_qr_scan", "android": "https://dc.lft.to/lastmile_qr_scan"}, "type": "electric_scooter", "name": "6486d4147b117929238d581118a27255", "is_reserved": 0, "lon": -77.0468655, "is_disabled": 0, "fusion_lat": 0.0, "lat": 38.89223366666667, "bike_id": "6486d4147b117929238d581118a27255", "fusion_lon": 0.0}, {"rental_uris": {"ios": "https://dc.lft.to/lastmile_qr_scan", "android": "https://dc.lft.to/lastmile_qr_scan"}, "type": "electric_scooter", "name": "839c34001b86e707e350910b9dfea73b", "is_reserved": 0, "lon": -77.02936383333333, "is_disabled": 0, "fusion_lat": 0.0, "lat": 38.907276333333336, "bike_id": "839c34001b86e707e350910b9dfea73b", "fusion_lon": 0.0}, {"rental_uris": {"ios": "https://dc.lft.to/lastmile_qr_scan", "android": "https://dc.lft.to/lastmile_qr_scan"}, "type": "electric_scooter", "name": "117da0158f6d91d0a9c40db5e9cb05f0", "is_reserved": 0, "lon": -77.0660705, "is_disabled": 0, "fusion_lat": 0.0, "lat": 38.91112316666667, "bike_id": "117da0158f6d91d0a9c40db5e9cb05f0", "fusion_lon": 0.0}, {"rental_uris": {"ios": "https://dc.lft.to/lastmile_qr_scan", "android": "https://dc.lft.to/lastmile_qr_scan"}, "type": "electric_scooter", "name": "d8beb576b605790e787cf800aa354ed4", "is_reserved": 0, "lon": -77.02784483333333, "is_disabled": 0, "fusion_lat": 0.0, "lat": 38.962483, "bike_id": "d8beb576b605790e787cf800aa354ed4", "fusion_lon": 0.0}, {"rental_uris": {"ios": "https://dc.lft.to/lastmile_qr_scan", "android": "https://dc.lft.to/lastmile_qr_scan"}, "type": "electric_bike", "name": "747ca6a0159f8029ac5bd922d70064b9", "is_reserved": 0, "lon": -77.0551725, "is_disabled": 0, "fusion_lat": 0.0, "lat": 38.944136666666665, "bike_id": "747ca6a0159f8029ac5bd922d70064b9", "fusion_lon": 0.0}, {"rental_uris": {"ios": "https://dc.lft.to/lastmile_qr_scan", "android": "https://dc.lft.to/lastmile_qr_scan"}, "type": "electric_bike", "name": "524cc5219d9b27bb00ca58d266eb2180", "is_reserved": 0, "lon": -76.99918766666667, "is_disabled": 0, "fusion_lat": 0.0, "lat": 38.994696833333336, "bike_id": "524cc5219d9b27bb00ca58d266eb2180", "fusion_lon": 0.0}, {"rental_uris": {"ios": "https://dc.lft.to/lastmile_qr_scan", "android": "https://dc.lft.to/lastmile_qr_scan"}, "type": "electric_scooter", "name": "6b1a5790abc60c85eeb631b352590f38", "is_reserved": 0, "lon": -77.05120283333333, "is_disabled": 0, "fusion_lat": 0.0, "lat": 38.92530283333333, "bike_id": "6b1a5790abc60c85eeb631b352590f38", "fusion_lon": 0.0}, {"rental_uris": {"ios": "https://dc.lft.to/lastmile_qr_scan", "android": "https://dc.lft.to/lastmile_qr_scan"}, "type": "electric_scooter", "name": "d82151311b43102a616d4b703d8a3b71", "is_reserved": 0, "lon": -77.04675833333333, "is_disabled": 0, "fusion_lat": 0.0, "lat": 38.892814, "bike_id": "d82151311b43102a616d4b703d8a3b71", "fusion_lon": 0.0}, {"rental_uris": {"ios": "https://dc.lft.to/lastmile_qr_scan", "android": "https://dc.lft.to/lastmile_qr_scan"}, "type": "electric_scooter", "name": "f3e43849c03cc51a72d3faf708e84301", "is_reserved": 0, "lon": -77.040839, "is_disabled": 0, "fusion_lat": 0.0, "lat": 38.947895333333335, "bike_id": "f3e43849c03cc51a72d3faf708e84301", "fusion_lon": 0.0}, {"rental_uris": {"ios": "https://dc.lft.to/lastmile_qr_scan", "android": "https://dc.lft.to/lastmile_qr_scan"}, "type": "electric_bike", "name": "4b74b2a3243935a977544ddf3df26b10", "is_reserved": 0, "lon": -76.98024616666666, "is_disabled": 0, "fusion_lat": 0.0, "lat": 38.85320333333333, "bike_id": "4b74b2a3243935a977544ddf3df26b10", "fusion_lon": 0.0}, {"rental_uris": {"ios": "https://dc.lft.to/lastmile_qr_scan", "android": "https://dc.lft.to/lastmile_qr_scan"}, "type": "electric_scooter", "name": "b2d6954e09f6260f2c80c47b93d95d4a", "is_reserved": 0, "lon": -77.038684, "is_disabled": 0, "fusion_lat": 0.0, "lat": 38.90374933333333, "bike_id": "b2d6954e09f6260f2c80c47b93d95d4a", "fusion_lon": 0.0}, {"rental_uris": {"ios": "https://dc.lft.to/lastmile_qr_scan", "android": "https://dc.lft.to/lastmile_qr_scan"}, "type": "electric_scooter", "name": "15900d1b7d592e8ae7dfb04d2f1733ae", "is_reserved": 0, "lon": -77.00747333333334, "is_disabled": 0, "fusion_lat": 0.0, "lat": 38.911139166666665, "bike_id": "15900d1b7d592e8ae7dfb04d2f1733ae", "fusion_lon": 0.0}, {"rental_uris": {"ios": "https://dc.lft.to/lastmile_qr_scan", "android": "https://dc.lft.to/lastmile_qr_scan"}, "type": "electric_scooter", "name": "15bf8dd39404f018d1ebd881b7c25eb9", "is_reserved": 0, "lon": -77.0344625, "is_disabled": 0, "fusion_lat": 0.0, "lat": 38.90566316666666, "bike_id": "15bf8dd39404f018d1ebd881b7c25eb9", "fusion_lon": 0.0}, {"rental_uris": {"ios": "https://dc.lft.to/lastmile_qr_scan", "android": "https://dc.lft.to/lastmile_qr_scan"}, "type": "electric_scooter", "name": "d76dc37613869c2702ce3ed1ab1c49ea", "is_reserved": 0, "lon": -77.01968183333334, "is_disabled": 0, "fusion_lat": 0.0, "lat": 38.92329566666667, "bike_id": "d76dc37613869c2702ce3ed1ab1c49ea", "fusion_lon": 0.0}, {"rental_uris": {"ios": "https://dc.lft.to/lastmile_qr_scan", "android": "https://dc.lft.to/lastmile_qr_scan"}, "type": "electric_scooter", "name": "328523caa443d319bb2fa26eff815cc1", "is_reserved": 0, "lon": -77.04216333333333, "is_disabled": 0, "fusion_lat": 0.0, "lat": 38.911193833333336, "bike_id": "328523caa443d319bb2fa26eff815cc1", "fusion_lon": 0.0}, {"rental_uris": {"ios": "https://dc.lft.to/lastmile_qr_scan", "android": "https://dc.lft.to/lastmile_qr_scan"}, "type": "electric_scooter", "name": "59bcb93c0b00508bc8afa2ef24286cca", "is_reserved": 0, "lon": -77.0191555, "is_disabled": 0, "fusion_lat": 0.0, "lat": 38.89727466666667, "bike_id": "59bcb93c0b00508bc8afa2ef24286cca", "fusion_lon": 0.0}, {"rental_uris": {"ios": "https://dc.lft.to/lastmile_qr_scan", "android": "https://dc.lft.to/lastmile_qr_scan"}, "type": "electric_scooter", "name": "0ce99f7f08b163e9c0e91839d38d69ce", "is_reserved": 0, "lon": -77.043695, "is_disabled": 0, "fusion_lat": 0.0, "lat": 38.897467166666665, "bike_id": "0ce99f7f08b163e9c0e91839d38d69ce", "fusion_lon": 0.0}, {"rental_uris": {"ios": "https://dc.lft.to/lastmile_qr_scan", "android": "https://dc.lft.to/lastmile_qr_scan"}, "type": "electric_scooter", "name": "38d878eef5e3228f81dc5937b5c351f0", "is_reserved": 0, "lon": -77.040258, "is_disabled": 0, "fusion_lat": 0.0, "lat": 38.92173016666667, "bike_id": "38d878eef5e3228f81dc5937b5c351f0", "fusion_lon": 0.0}, {"rental_uris": {"ios": "https://dc.lft.to/lastmile_qr_scan", "android": "https://dc.lft.to/lastmile_qr_scan"}, "type": "electric_scooter", "name": "daf3dff72eca344232be4180ea4e136b", "is_reserved": 0, "lon": -77.03418666666667, "is_disabled": 0, "fusion_lat": 0.0, "lat": 38.92401866666667, "bike_id": "daf3dff72eca344232be4180ea4e136b", "fusion_lon": 0.0}, {"rental_uris": {"ios": "https://dc.lft.to/lastmile_qr_scan", "android": "https://dc.lft.to/lastmile_qr_scan"}, "type": "electric_scooter", "name": "afddf48a01ff979969b06965cdb936da", "is_reserved": 0, "lon": -77.0385965, "is_disabled": 0, "fusion_lat": 0.0, "lat": 38.91283216666667, "bike_id": "afddf48a01ff979969b06965cdb936da", "fusion_lon": 0.0}, {"rental_uris": {"ios": "https://dc.lft.to/lastmile_qr_scan", "android": "https://dc.lft.to/lastmile_qr_scan"}, "type": "electric_scooter", "name": "ff1c6026030a41c2a7ac82ba576b733f", "is_reserved": 0, "lon": -77.0494475, "is_disabled": 0, "fusion_lat": 0.0, "lat": 38.920187, "bike_id": "ff1c6026030a41c2a7ac82ba576b733f", "fusion_lon": 0.0}, {"rental_uris": {"ios": "https://dc.lft.to/lastmile_qr_scan", "android": "https://dc.lft.to/lastmile_qr_scan"}, "type": "electric_scooter", "name": "cb6229baac31ebfd6f3074b1da832333", "is_reserved": 0, "lon": -76.93043066666667, "is_disabled": 0, "fusion_lat": 0.0, "lat": 38.88397966666667, "bike_id": "cb6229baac31ebfd6f3074b1da832333", "fusion_lon": 0.0}, {"rental_uris": {"ios": "https://dc.lft.to/lastmile_qr_scan", "android": "https://dc.lft.to/lastmile_qr_scan"}, "type": "electric_scooter", "name": "26ab86ddd3fb42f9a750adf5dec9e482", "is_reserved": 0, "lon": -76.948279, "is_disabled": 0, "fusion_lat": 0.0, "lat": 38.8851805, "bike_id": "26ab86ddd3fb42f9a750adf5dec9e482", "fusion_lon": 0.0}, {"rental_uris": {"ios": "https://dc.lft.to/lastmile_qr_scan", "android": "https://dc.lft.to/lastmile_qr_scan"}, "type": "electric_bike", "name": "1c56ab10feab9ff40673c44ff5fc09b4", "is_reserved": 0, "lon": -76.97559766666667, "is_disabled": 0, "fusion_lat": 0.0, "lat": 38.90441466666667, "bike_id": "1c56ab10feab9ff40673c44ff5fc09b4", "fusion_lon": 0.0}, {"rental_uris": {"ios": "https://dc.lft.to/lastmile_qr_scan", "android": "https://dc.lft.to/lastmile_qr_scan"}, "type": "electric_bike", "name": "c30c1a532f3b7fa03219873a6c4fd776", "is_reserved": 0, "lon": -76.951652, "is_disabled": 0, "fusion_lat": 0.0, "lat": 39.084323499999996, "bike_id": "c30c1a532f3b7fa03219873a6c4fd776", "fusion_lon": 0.0}, {"rental_uris": {"ios": "https://dc.lft.to/lastmile_qr_scan", "android": "https://dc.lft.to/lastmile_qr_scan"}, "type": "electric_scooter", "name": "57884a254cab3165a0f58da8128a3d03", "is_reserved": 0, "lon": -77.04365, "is_disabled": 0, "fusion_lat": 0.0, "lat": 38.89221166666667, "bike_id": "57884a254cab3165a0f58da8128a3d03", "fusion_lon": 0.0}, {"rental_uris": {"ios": "https://dc.lft.to/lastmile_qr_scan", "android": "https://dc.lft.to/lastmile_qr_scan"}, "type": "electric_scooter", "name": "2e7fb55a926114ce430cff1e8daf91eb", "is_reserved": 0, "lon": -77.01819716666667, "is_disabled": 0, "fusion_lat": 0.0, "lat": 38.9010015, "bike_id": "2e7fb55a926114ce430cff1e8daf91eb", "fusion_lon": 0.0}, {"rental_uris": {"ios": "https://dc.lft.to/lastmile_qr_scan", "android": "https://dc.lft.to/lastmile_qr_scan"}, "type": "electric_scooter", "name": "402c142b2047b14f8dd7ae4d89019791", "is_reserved": 0, "lon": -77.01946383333333, "is_disabled": 0, "fusion_lat": 0.0, "lat": 38.94698016666667, "bike_id": "402c142b2047b14f8dd7ae4d89019791", "fusion_lon": 0.0}, {"rental_uris": {"ios": "https://dc.lft.to/lastmile_qr_scan", "android": "https://dc.lft.to/lastmile_qr_scan"}, "type": "electric_scooter", "name": "28c00b12afa9316e7be243455ecb1901", "is_reserved": 0, "lon": -77.0261255, "is_disabled": 0, "fusion_lat": 0.0, "lat": 38.905195166666665, "bike_id": "28c00b12afa9316e7be243455ecb1901", "fusion_lon": 0.0}, {"rental_uris": {"ios": "https://dc.lft.to/lastmile_qr_scan", "android": "https://dc.lft.to/lastmile_qr_scan"}, "type": "electric_scooter", "name": "8f3371a77ce2e73adeddc456c1d10e88", "is_reserved": 0, "lon": -77.01345633333334, "is_disabled": 0, "fusion_lat": 0.0, "lat": 38.91921283333333, "bike_id": "8f3371a77ce2e73adeddc456c1d10e88", "fusion_lon": 0.0}, {"rental_uris": {"ios": "https://dc.lft.to/lastmile_qr_scan", "android": "https://dc.lft.to/lastmile_qr_scan"}, "type": "electric_scooter", "name": "57f6dd5fb7615c602e110f14223a8d73", "is_reserved": 0, "lon": -77.03433666666666, "is_disabled": 0, "fusion_lat": 0.0, "lat": 38.900992, "bike_id": "57f6dd5fb7615c602e110f14223a8d73", "fusion_lon": 0.0}, {"rental_uris": {"ios": "https://dc.lft.to/lastmile_qr_scan", "android": "https://dc.lft.to/lastmile_qr_scan"}, "type": "electric_scooter", "name": "8266444695c5616b16712cbf7d48f38b", "is_reserved": 0, "lon": -77.03087266666667, "is_disabled": 0, "fusion_lat": 0.0, "lat": 38.9330985, "bike_id": "8266444695c5616b16712cbf7d48f38b", "fusion_lon": 0.0}, {"rental_uris": {"ios": "https://dc.lft.to/lastmile_qr_scan", "android": "https://dc.lft.to/lastmile_qr_scan"}, "type": "electric_scooter", "name": "6f9ca430aff37a590679de907869dc7d", "is_reserved": 0, "lon": -77.00156866666667, "is_disabled": 0, "fusion_lat": 0.0, "lat": 38.821332166666664, "bike_id": "6f9ca430aff37a590679de907869dc7d", "fusion_lon": 0.0}, {"rental_uris": {"ios": "https://dc.lft.to/lastmile_qr_scan", "android": "https://dc.lft.to/lastmile_qr_scan"}, "type": "electric_scooter", "name": "70ab3d68b85714336ca7721824002824", "is_reserved": 0, "lon": -77.04337333333334, "is_disabled": 0, "fusion_lat": 0.0, "lat": 38.892233833333336, "bike_id": "70ab3d68b85714336ca7721824002824", "fusion_lon": 0.0}, {"rental_uris": {"ios": "https://dc.lft.to/lastmile_qr_scan", "android": "https://dc.lft.to/lastmile_qr_scan"}, "type": "electric_scooter", "name": "7009810a6a2ece697c766b0db4831e70", "is_reserved": 0, "lon": -77.007751, "is_disabled": 0, "fusion_lat": 0.0, "lat": 38.9524715, "bike_id": "7009810a6a2ece697c766b0db4831e70", "fusion_lon": 0.0}, {"rental_uris": {"ios": "https://dc.lft.to/lastmile_qr_scan", "android": "https://dc.lft.to/lastmile_qr_scan"}, "type": "electric_bike", "name": "d1acc5afd38a09e9ee9440701f4c2d28", "is_reserved": 0, "lon": -77.2282615, "is_disabled": 0, "fusion_lat": 0.0, "lat": 38.8826685, "bike_id": "d1acc5afd38a09e9ee9440701f4c2d28", "fusion_lon": 0.0}, {"rental_uris": {"ios": "https://dc.lft.to/lastmile_qr_scan", "android": "https://dc.lft.to/lastmile_qr_scan"}, "type": "electric_bike", "name": "fde4105ab3c853f7be4cc5b4abfe8e6a", "is_reserved": 0, "lon": -77.01441716666666, "is_disabled": 0, "fusion_lat": 0.0, "lat": 38.87674966666667, "bike_id": "fde4105ab3c853f7be4cc5b4abfe8e6a", "fusion_lon": 0.0}, {"rental_uris": {"ios": "https://dc.lft.to/lastmile_qr_scan", "android": "https://dc.lft.to/lastmile_qr_scan"}, "type": "electric_scooter", "name": "924a6d42ce3dada2289af3c92e7d8db8", "is_reserved": 0, "lon": -77.02839383333334, "is_disabled": 0, "fusion_lat": 0.0, "lat": 38.914066166666665, "bike_id": "924a6d42ce3dada2289af3c92e7d8db8", "fusion_lon": 0.0}, {"rental_uris": {"ios": "https://dc.lft.to/lastmile_qr_scan", "android": "https://dc.lft.to/lastmile_qr_scan"}, "type": "electric_scooter", "name": "1b13e5a5ac0a5d7d0adb4fe992346e0d", "is_reserved": 0, "lon": -77.018243, "is_disabled": 0, "fusion_lat": 0.0, "lat": 38.9007795, "bike_id": "1b13e5a5ac0a5d7d0adb4fe992346e0d", "fusion_lon": 0.0}, {"rental_uris": {"ios": "https://dc.lft.to/lastmile_qr_scan", "android": "https://dc.lft.to/lastmile_qr_scan"}, "type": "electric_scooter", "name": "c6269a62edca28db2b0a2e0d0236fee0", "is_reserved": 0, "lon": -77.04328933333333, "is_disabled": 0, "fusion_lat": 0.0, "lat": 38.908076, "bike_id": "c6269a62edca28db2b0a2e0d0236fee0", "fusion_lon": 0.0}, {"rental_uris": {"ios": "https://dc.lft.to/lastmile_qr_scan", "android": "https://dc.lft.to/lastmile_qr_scan"}, "type": "electric_scooter", "name": "2ee4e7e95612d23c2b70209e9de1ad7e", "is_reserved": 0, "lon": -76.9793765, "is_disabled": 0, "fusion_lat": 0.0, "lat": 38.9066135, "bike_id": "2ee4e7e95612d23c2b70209e9de1ad7e", "fusion_lon": 0.0}, {"rental_uris": {"ios": "https://dc.lft.to/lastmile_qr_scan", "android": "https://dc.lft.to/lastmile_qr_scan"}, "type": "electric_scooter", "name": "6a22006301dc33e02d4624c714427b9c", "is_reserved": 0, "lon": -77.036603, "is_disabled": 0, "fusion_lat": 0.0, "lat": 38.92288666666666, "bike_id": "6a22006301dc33e02d4624c714427b9c", "fusion_lon": 0.0}, {"rental_uris": {"ios": "https://dc.lft.to/lastmile_qr_scan", "android": "https://dc.lft.to/lastmile_qr_scan"}, "type": "electric_scooter", "name": "852ac9b3b111f5abf77bb2a96f86cac5", "is_reserved": 0, "lon": -77.02201416666666, "is_disabled": 0, "fusion_lat": 0.0, "lat": 38.89509816666666, "bike_id": "852ac9b3b111f5abf77bb2a96f86cac5", "fusion_lon": 0.0}, {"rental_uris": {"ios": "https://dc.lft.to/lastmile_qr_scan", "android": "https://dc.lft.to/lastmile_qr_scan"}, "type": "electric_scooter", "name": "39862f7b8bdac5acae7a506dedc609d7", "is_reserved": 0, "lon": -77.00911483333333, "is_disabled": 0, "fusion_lat": 0.0, "lat": 38.89876483333333, "bike_id": "39862f7b8bdac5acae7a506dedc609d7", "fusion_lon": 0.0}, {"rental_uris": {"ios": "https://dc.lft.to/lastmile_qr_scan", "android": "https://dc.lft.to/lastmile_qr_scan"}, "type": "electric_scooter", "name": "5e4119ec592315c8eaf288e0aa6bf6ee", "is_reserved": 0, "lon": -77.064799, "is_disabled": 0, "fusion_lat": 0.0, "lat": 38.910273833333335, "bike_id": "5e4119ec592315c8eaf288e0aa6bf6ee", "fusion_lon": 0.0}, {"rental_uris": {"ios": "https://dc.lft.to/lastmile_qr_scan", "android": "https://dc.lft.to/lastmile_qr_scan"}, "type": "electric_scooter", "name": "a8c7415d0caa1c388928d4c8ca2b6f6d", "is_reserved": 0, "lon": -77.052138, "is_disabled": 0, "fusion_lat": 0.0, "lat": 38.90017, "bike_id": "a8c7415d0caa1c388928d4c8ca2b6f6d", "fusion_lon": 0.0}, {"rental_uris": {"ios": "https://dc.lft.to/lastmile_qr_scan", "android": "https://dc.lft.to/lastmile_qr_scan"}, "type": "electric_bike", "name": "bc657c768d7d3f4805b8974d0e9adb24", "is_reserved": 0, "lon": -77.00137516666666, "is_disabled": 0, "fusion_lat": 0.0, "lat": 38.995054333333336, "bike_id": "bc657c768d7d3f4805b8974d0e9adb24", "fusion_lon": 0.0}, {"rental_uris": {"ios": "https://dc.lft.to/lastmile_qr_scan", "android": "https://dc.lft.to/lastmile_qr_scan"}, "type": "electric_scooter", "name": "b4b6200a87b07ba539c866191a9b5627", "is_reserved": 0, "lon": -77.045076, "is_disabled": 0, "fusion_lat": 0.0, "lat": 38.892229666666665, "bike_id": "b4b6200a87b07ba539c866191a9b5627", "fusion_lon": 0.0}, {"rental_uris": {"ios": "https://dc.lft.to/lastmile_qr_scan", "android": "https://dc.lft.to/lastmile_qr_scan"}, "type": "electric_scooter", "name": "a9cb42ff33d00d62a76a2f62eb90538b", "is_reserved": 0, "lon": -77.00400283333333, "is_disabled": 0, "fusion_lat": 0.0, "lat": 38.90564, "bike_id": "a9cb42ff33d00d62a76a2f62eb90538b", "fusion_lon": 0.0}, {"rental_uris": {"ios": "https://dc.lft.to/lastmile_qr_scan", "android": "https://dc.lft.to/lastmile_qr_scan"}, "type": "electric_scooter", "name": "59505298d64e2bead0b3da80d7b07ed8", "is_reserved": 0, "lon": -77.02703966666667, "is_disabled": 0, "fusion_lat": 0.0, "lat": 38.92330716666667, "bike_id": "59505298d64e2bead0b3da80d7b07ed8", "fusion_lon": 0.0}, {"rental_uris": {"ios": "https://dc.lft.to/lastmile_qr_scan", "android": "https://dc.lft.to/lastmile_qr_scan"}, "type": "electric_scooter", "name": "efa74969803f0e2aa78db4254414e8ec", "is_reserved": 0, "lon": -77.00198283333333, "is_disabled": 0, "fusion_lat": 0.0, "lat": 38.902419333333334, "bike_id": "efa74969803f0e2aa78db4254414e8ec", "fusion_lon": 0.0}, {"rental_uris": {"ios": "https://dc.lft.to/lastmile_qr_scan", "android": "https://dc.lft.to/lastmile_qr_scan"}, "type": "electric_scooter", "name": "20a99d8b120142dc48f0fbe68a2bbceb", "is_reserved": 0, "lon": -77.05066916666667, "is_disabled": 0, "fusion_lat": 0.0, "lat": 38.90066983333333, "bike_id": "20a99d8b120142dc48f0fbe68a2bbceb", "fusion_lon": 0.0}, {"rental_uris": {"ios": "https://dc.lft.to/lastmile_qr_scan", "android": "https://dc.lft.to/lastmile_qr_scan"}, "type": "electric_scooter", "name": "8e4f152cf21a5d3d2c94d1e6938d020f", "is_reserved": 0, "lon": -76.99599166666667, "is_disabled": 0, "fusion_lat": 0.0, "lat": 38.90031416666667, "bike_id": "8e4f152cf21a5d3d2c94d1e6938d020f", "fusion_lon": 0.0}, {"rental_uris": {"ios": "https://dc.lft.to/lastmile_qr_scan", "android": "https://dc.lft.to/lastmile_qr_scan"}, "type": "electric_scooter", "name": "875b1c683dabd5df19fac414f2b9f702", "is_reserved": 0, "lon": -77.02723433333334, "is_disabled": 0, "fusion_lat": 0.0, "lat": 38.9248065, "bike_id": "875b1c683dabd5df19fac414f2b9f702", "fusion_lon": 0.0}, {"rental_uris": {"ios": "https://dc.lft.to/lastmile_qr_scan", "android": "https://dc.lft.to/lastmile_qr_scan"}, "type": "electric_scooter", "name": "2562b0049950da3c54b874cc414d44c4", "is_reserved": 0, "lon": -77.03025983333333, "is_disabled": 0, "fusion_lat": 0.0, "lat": 38.922496, "bike_id": "2562b0049950da3c54b874cc414d44c4", "fusion_lon": 0.0}, {"rental_uris": {"ios": "https://dc.lft.to/lastmile_qr_scan", "android": "https://dc.lft.to/lastmile_qr_scan"}, "type": "electric_scooter", "name": "d503b1ea99d9a01230c9dd49adeb4c74", "is_reserved": 0, "lon": -77.0390895, "is_disabled": 0, "fusion_lat": 0.0, "lat": 38.90834266666667, "bike_id": "d503b1ea99d9a01230c9dd49adeb4c74", "fusion_lon": 0.0}, {"rental_uris": {"ios": "https://dc.lft.to/lastmile_qr_scan", "android": "https://dc.lft.to/lastmile_qr_scan"}, "type": "electric_scooter", "name": "442ed275c9fa2cd3f5ac23641283fe1f", "is_reserved": 0, "lon": -77.02205016666667, "is_disabled": 0, "fusion_lat": 0.0, "lat": 38.88719533333333, "bike_id": "442ed275c9fa2cd3f5ac23641283fe1f", "fusion_lon": 0.0}, {"rental_uris": {"ios": "https://dc.lft.to/lastmile_qr_scan", "android": "https://dc.lft.to/lastmile_qr_scan"}, "type": "electric_scooter", "name": "3a39ad9ae1177452da2d743ce0ecf332", "is_reserved": 0, "lon": -77.02599466666666, "is_disabled": 0, "fusion_lat": 0.0, "lat": 38.916941333333334, "bike_id": "3a39ad9ae1177452da2d743ce0ecf332", "fusion_lon": 0.0}, {"rental_uris": {"ios": "https://dc.lft.to/lastmile_qr_scan", "android": "https://dc.lft.to/lastmile_qr_scan"}, "type": "electric_scooter", "name": "5ea45872b9d3b0dca9ee39ad74076806", "is_reserved": 0, "lon": -77.031752, "is_disabled": 0, "fusion_lat": 0.0, "lat": 38.9181845, "bike_id": "5ea45872b9d3b0dca9ee39ad74076806", "fusion_lon": 0.0}, {"rental_uris": {"ios": "https://dc.lft.to/lastmile_qr_scan", "android": "https://dc.lft.to/lastmile_qr_scan"}, "type": "electric_bike", "name": "ec9f33b67e9e878fa7d55714b2ff82cd", "is_reserved": 0, "lon": -77.01226616666666, "is_disabled": 0, "fusion_lat": 0.0, "lat": 38.871981, "bike_id": "ec9f33b67e9e878fa7d55714b2ff82cd", "fusion_lon": 0.0}, {"rental_uris": {"ios": "https://dc.lft.to/lastmile_qr_scan", "android": "https://dc.lft.to/lastmile_qr_scan"}, "type": "electric_bike", "name": "1f50ec53d8bbb4f42989d7bf2c3f7147", "is_reserved": 0, "lon": -77.216654, "is_disabled": 0, "fusion_lat": 0.0, "lat": 38.89507966666667, "bike_id": "1f50ec53d8bbb4f42989d7bf2c3f7147", "fusion_lon": 0.0}, {"rental_uris": {"ios": "https://dc.lft.to/lastmile_qr_scan", "android": "https://dc.lft.to/lastmile_qr_scan"}, "type": "electric_bike", "name": "058a8cd31ee137fd6cc6cf66235fcaa4", "is_reserved": 0, "lon": -77.06531116666666, "is_disabled": 0, "fusion_lat": 0.0, "lat": 38.99239733333334, "bike_id": "058a8cd31ee137fd6cc6cf66235fcaa4", "fusion_lon": 0.0}, {"rental_uris": {"ios": "https://dc.lft.to/lastmile_qr_scan", "android": "https://dc.lft.to/lastmile_qr_scan"}, "type": "electric_bike", "name": "a09edf7865a19cd0381f659aeccaf2be", "is_reserved": 0, "lon": -77.09722716666667, "is_disabled": 0, "fusion_lat": 0.0, "lat": 38.80740616666667, "bike_id": "a09edf7865a19cd0381f659aeccaf2be", "fusion_lon": 0.0}, {"rental_uris": {"ios": "https://dc.lft.to/lastmile_qr_scan", "android": "https://dc.lft.to/lastmile_qr_scan"}, "type": "electric_scooter", "name": "bccb4f14b76b776c87ca9906abb1034c", "is_reserved": 0, "lon": -77.037912, "is_disabled": 0, "fusion_lat": 0.0, "lat": 38.91579083333333, "bike_id": "bccb4f14b76b776c87ca9906abb1034c", "fusion_lon": 0.0}, {"rental_uris": {"ios": "https://dc.lft.to/lastmile_qr_scan", "android": "https://dc.lft.to/lastmile_qr_scan"}, "type": "electric_scooter", "name": "7fdff3109bb5b35c33598c0441ebb70e", "is_reserved": 0, "lon": -77.01210183333333, "is_disabled": 0, "fusion_lat": 0.0, "lat": 38.91718066666667, "bike_id": "7fdff3109bb5b35c33598c0441ebb70e", "fusion_lon": 0.0}, {"rental_uris": {"ios": "https://dc.lft.to/lastmile_qr_scan", "android": "https://dc.lft.to/lastmile_qr_scan"}, "type": "electric_scooter", "name": "55de09922c2418dd145f2a2d1e8af51b", "is_reserved": 0, "lon": -77.04209016666667, "is_disabled": 0, "fusion_lat": 0.0, "lat": 38.9037015, "bike_id": "55de09922c2418dd145f2a2d1e8af51b", "fusion_lon": 0.0}, {"rental_uris": {"ios": "https://dc.lft.to/lastmile_qr_scan", "android": "https://dc.lft.to/lastmile_qr_scan"}, "type": "electric_scooter", "name": "327c2756d5478b168ff9dcbfec3c0870", "is_reserved": 0, "lon": -77.01581566666667, "is_disabled": 0, "fusion_lat": 0.0, "lat": 38.876642333333336, "bike_id": "327c2756d5478b168ff9dcbfec3c0870", "fusion_lon": 0.0}, {"rental_uris": {"ios": "https://dc.lft.to/lastmile_qr_scan", "android": "https://dc.lft.to/lastmile_qr_scan"},