{"data": {"bikes": [{"type": "electric_scooter", "fusion_lon": 0.0, "bike_id": "de5dd8667201d2fc3cd39e23a546ff21", "is_disabled": 0, "lat": 38.9224915, "rental_uris": {"ios": "https://dc.lft.to/lastmile_qr_scan", "android": "https://dc.lft.to/lastmile_qr_scan"}, "is_reserved": 0, "lon": -77.03894216666667, "fusion_lat": 0.0, "name": "de5dd8667201d2fc3cd39e23a546ff21"}, {"type": "electric_scooter", "fusion_lon": 0.0, "bike_id": "7d35e93c5750379a78c18f9a74664e6d", "is_disabled": 0, "lat": 38.91921133333334, "rental_uris": {"ios": "https://dc.lft.to/lastmile_qr_scan", "android": "https://dc.lft.to/lastmile_qr_scan"}, "is_reserved": 0, "lon": -77.03271983333333, "fusion_lat": 0.0, "name": "7d35e93c5750379a78c18f9a74664e6d"}, {"type": "electric_scooter", "fusion_lon": 0.0, "bike_id": "575321523c62940b8a2cbd3656c2ce1a", "is_disabled": 0, "lat": 38.9399155, "rental_uris": {"ios": "https://dc.lft.to/lastmile_qr_scan", "android": "https://dc.lft.to/lastmile_qr_scan"}, "is_reserved": 0, "lon": -77.02550616666667, "fusion_lat": 0.0, "name": "575321523c62940b8a2cbd3656c2ce1a"}, {"type": "electric_scooter", "fusion_lon": 0.0, "bike_id": "01e70742760f893a2b10359d38c74e64", "is_disabled": 0, "lat": 38.90193266666667, "rental_uris": {"ios": "https://dc.lft.to/lastmile_qr_scan", "android": "https://dc.lft.to/lastmile_qr_scan"}, "is_reserved": 0, "lon": -76.92632683333333, "fusion_lat": 0.0, "name": "01e70742760f893a2b10359d38c74e64"}, {"type": "electric_scooter", "fusion_lon": 0.0, "bike_id": "ff47fd6df508b124a4c0581611d9948a", "is_disabled": 0, "lat": 38.91624683333333, "rental_uris": {"ios": "https://dc.lft.to/lastmile_qr_scan", "android": "https://dc.lft.to/lastmile_qr_scan"}, "is_reserved": 0, "lon": -77.04267566666667, "fusion_lat": 0.0, "name": "ff47fd6df508b124a4c0581611d9948a"}, {"type": "electric_scooter", "fusion_lon": 0.0, "bike_id": "f6ef98656b05307fbc93bc7c0869e589", "is_disabled": 0, "lat": 38.896471, "rental_uris": {"ios": "https://dc.lft.to/lastmile_qr_scan", "android": "https://dc.lft.to/lastmile_qr_scan"}, "is_reserved": 0, "lon": -77.0116305, "fusion_lat": 0.0, "name": "f6ef98656b05307fbc93bc7c0869e589"}, {"type": "electric_bike", "fusion_lon": 0.0, "bike_id": "17d92ca918366989daf11027349fcfd5", "is_disabled": 0, "lat": 38.92275, "rental_uris": {"ios": "https://dc.lft.to/lastmile_qr_scan", "android": "https://dc.lft.to/lastmile_qr_scan"}, "is_reserved": 0, "lon": -76.99745383333334, "fusion_lat": 0.0, "name": "17d92ca918366989daf11027349fcfd5"}, {"type": "electric_scooter", "fusion_lon": 0.0, "bike_id": "d92eec3dad1c6addbe0a17ec786bcbfa", "is_disabled": 0, "lat": 38.90391533333333, "rental_uris": {"ios": "https://dc.lft.to/lastmile_qr_scan", "android": "https://dc.lft.to/lastmile_qr_scan"}, "is_reserved": 0, "lon": -76.98492216666666, "fusion_lat": 0.0, "name": "d92eec3dad1c6addbe0a17ec786bcbfa"}, {"type": "electric_scooter", "fusion_lon": 0.0, "bike_id": "2b1cda81cf1940decf9d7c2dd9b6ce61", "is_disabled": 0, "lat": 38.924711, "rental_uris": {"ios": "https://dc.lft.to/lastmile_qr_scan", "android": "https://dc.lft.to/lastmile_qr_scan"}, "is_reserved": 0, "lon": -77.02213983333333, "fusion_lat": 0.0, "name": "2b1cda81cf1940decf9d7c2dd9b6ce61"}, {"type": "electric_scooter", "fusion_lon": 0.0, "bike_id": "c43465ffaa5dc341401ce112e4c648ee", "is_disabled": 0, "lat": 38.915475, "rental_uris": {"ios": "https://dc.lft.to/lastmile_qr_scan", "android": "https://dc.lft.to/lastmile_qr_scan"}, "is_reserved": 0, "lon": -77.03240433333333, "fusion_lat": 0.0, "name": "c43465ffaa5dc341401ce112e4c648ee"}, {"type": "electric_scooter", "fusion_lon": 0.0, "bike_id": "dce05c39a4d7f1018d66dc29bafa7f12", "is_disabled": 0, "lat": 38.869370333333336, "rental_uris": {"ios": "https://dc.lft.to/lastmile_qr_scan", "android": "https://dc.lft.to/lastmile_qr_scan"}, "is_reserved": 0, "lon": -77.01376333333333, "fusion_lat": 0.0, "name": "dce05c39a4d7f1018d66dc29bafa7f12"}, {"type": "electric_scooter", "fusion_lon": 0.0, "bike_id": "87ce0117eedd5d589e86dc21b4c99d1d", "is_disabled": 0, "lat": 38.86474333333334, "rental_uris": {"ios": "https://dc.lft.to/lastmile_qr_scan", "android": "https://dc.lft.to/lastmile_qr_scan"}, "is_reserved": 0, "lon": -76.9822895, "fusion_lat": 0.0, "name": "87ce0117eedd5d589e86dc21b4c99d1d"}, {"type": "electric_bike", "fusion_lon": 0.0, "bike_id": "65e916f0fa187347d50ce60fb61417af", "is_disabled": 0, "lat": 38.957544, "rental_uris": {"ios": "https://dc.lft.to/lastmile_qr_scan", "android": "https://dc.lft.to/lastmile_qr_scan"}, "is_reserved": 0, "lon": -76.9802525, "fusion_lat": 0.0, "name": "65e916f0fa187347d50ce60fb61417af"}, {"type": "electric_scooter", "fusion_lon": 0.0, "bike_id": "098abb63fd4ef943a004287816e7f3c1", "is_disabled": 0, "lat": 38.921023166666664, "rental_uris": {"ios": "https://dc.lft.to/lastmile_qr_scan", "android": "https://dc.lft.to/lastmile_qr_scan"}, "is_reserved": 0, "lon": -77.0469125, "fusion_lat": 0.0, "name": "098abb63fd4ef943a004287816e7f3c1"}, {"type": "electric_scooter", "fusion_lon": 0.0, "bike_id": "276ba464064135601cf1d6caae482fc0", "is_disabled": 0, "lat": 38.918334333333334, "rental_uris": {"ios": "https://dc.lft.to/lastmile_qr_scan", "android": "https://dc.lft.to/lastmile_qr_scan"}, "is_reserved": 0, "lon": -77.01789083333334, "fusion_lat": 0.0, "name": "276ba464064135601cf1d6caae482fc0"}, {"type": "electric_scooter", "fusion_lon": 0.0, "bike_id": "2529fc487dd27d768bedcab6abb06ee1", "is_disabled": 0, "lat": 38.934650833333336, "rental_uris": {"ios": "https://dc.lft.to/lastmile_qr_scan", "android": "https://dc.lft.to/lastmile_qr_scan"}, "is_reserved": 0, "lon": -77.02925283333333, "fusion_lat": 0.0, "name": "2529fc487dd27d768bedcab6abb06ee1"}, {"type": "electric_scooter", "fusion_lon": 0.0, "bike_id": "3ccd1c9224b3e9c49d4f2e24b33afddf", "is_disabled": 0, "lat": 38.89610583333334, "rental_uris": {"ios": "https://dc.lft.to/lastmile_qr_scan", "android": "https://dc.lft.to/lastmile_qr_scan"}, "is_reserved": 0, "lon": -76.9809755, "fusion_lat": 0.0, "name": "3ccd1c9224b3e9c49d4f2e24b33afddf"}, {"type": "electric_bike", "fusion_lon": 0.0, "bike_id": "52c855d4af7de5900f961b0ed158a078", "is_disabled": 0, "lat": 38.941465, "rental_uris": {"ios": "https://dc.lft.to/lastmile_qr_scan", "android": "https://dc.lft.to/lastmile_qr_scan"}, "is_reserved": 0, "lon": -77.001935, "fusion_lat": 0.0, "name": "52c855d4af7de5900f961b0ed158a078"}, {"type": "electric_scooter", "fusion_lon": 0.0, "bike_id": "b38f17e5891408ddc17ee82bfed9a76d", "is_disabled": 0, "lat": 38.90568783333333, "rental_uris": {"ios": "https://dc.lft.to/lastmile_qr_scan", "android": "https://dc.lft.to/lastmile_qr_scan"}, "is_reserved": 0, "lon": -77.00695916666666, "fusion_lat": 0.0, "name": "b38f17e5891408ddc17ee82bfed9a76d"}, {"type": "electric_scooter", "fusion_lon": 0.0, "bike_id": "ce459fad182d39afbfe0aec00d6a33ea", "is_disabled": 0, "lat": 38.934687, "rental_uris": {"ios": "https://dc.lft.to/lastmile_qr_scan", "android": "https://dc.lft.to/lastmile_qr_scan"}, "is_reserved": 0, "lon": -77.04136083333333, "fusion_lat": 0.0, "name": "ce459fad182d39afbfe0aec00d6a33ea"}, {"type": "electric_scooter", "fusion_lon": 0.0, "bike_id": "7a1f37c357f94b81c9f2f1a93c6b9d74", "is_disabled": 0, "lat": 38.9096165, "rental_uris": {"ios": "https://dc.lft.to/lastmile_qr_scan", "android": "https://dc.lft.to/lastmile_qr_scan"}, "is_reserved": 0, "lon": -77.0479735, "fusion_lat": 0.0, "name": "7a1f37c357f94b81c9f2f1a93c6b9d74"}, {"type": "electric_scooter", "fusion_lon": 0.0, "bike_id": "b72fcccf9646803e0319301f5a2c05a1", "is_disabled": 0, "lat": 38.90082366666667, "rental_uris": {"ios": "https://dc.lft.to/lastmile_qr_scan", "android": "https://dc.lft.to/lastmile_qr_scan"}, "is_reserved": 0, "lon": -77.04988566666667, "fusion_lat": 0.0, "name": "b72fcccf9646803e0319301f5a2c05a1"}, {"type": "electric_scooter", "fusion_lon": 0.0, "bike_id": "377841b4e153836606f94d11d9ae7e05", "is_disabled": 0, "lat": 38.897734666666665, "rental_uris": {"ios": "https://dc.lft.to/lastmile_qr_scan", "android": "https://dc.lft.to/lastmile_qr_scan"}, "is_reserved": 0, "lon": -77.027223, "fusion_lat": 0.0, "name": "377841b4e153836606f94d11d9ae7e05"}, {"type": "electric_scooter", "fusion_lon": 0.0, "bike_id": "2aad90c8acc70195f4fc37d089c1f4dc", "is_disabled": 0, "lat": 38.911019333333336, "rental_uris": {"ios": "https://dc.lft.to/lastmile_qr_scan", "android": "https://dc.lft.to/lastmile_qr_scan"}, "is_reserved": 0, "lon": -77.00752766666666, "fusion_lat": 0.0, "name": "2aad90c8acc70195f4fc37d089c1f4dc"}, {"type": "electric_scooter", "fusion_lon": 0.0, "bike_id": "256a21074ded114045f007071ce63bd7", "is_disabled": 0, "lat": 38.88017383333333, "rental_uris": {"ios": "https://dc.lft.to/lastmile_qr_scan", "android": "https://dc.lft.to/lastmile_qr_scan"}, "is_reserved": 0, "lon": -76.98069516666666, "fusion_lat": 0.0, "name": "256a21074ded114045f007071ce63bd7"}, {"type": "electric_scooter", "fusion_lon": 0.0, "bike_id": "8e027909b6397aba8d7e7c8e5e6a6bfa", "is_disabled": 0, "lat": 38.95181633333333, "rental_uris": {"ios": "https://dc.lft.to/lastmile_qr_scan", "android": "https://dc.lft.to/lastmile_qr_scan"}, "is_reserved": 0, "lon": -77.02617416666666, "fusion_lat": 0.0, "name": "8e027909b6397aba8d7e7c8e5e6a6bfa"}, {"type": "electric_scooter", "fusion_lon": 0.0, "bike_id": "f7f9e75e7924e1e6bb7b1134d48dce60", "is_disabled": 0, "lat": 38.918343666666665, "rental_uris": {"ios": "https://dc.lft.to/lastmile_qr_scan", "android": "https://dc.lft.to/lastmile_qr_scan"}, "is_reserved": 0, "lon": -77.04173216666666, "fusion_lat": 0.0, "name": "f7f9e75e7924e1e6bb7b1134d48dce60"}, {"type": "electric_scooter", "fusion_lon": 0.0, "bike_id": "b58a6c21647fd94c883179aec0deb9a7", "is_disabled": 0, "lat": 38.90518633333333, "rental_uris": {"ios": "https://dc.lft.to/lastmile_qr_scan", "android": "https://dc.lft.to/lastmile_qr_scan"}, "is_reserved": 0, "lon": -77.02946866666667, "fusion_lat": 0.0, "name": "b58a6c21647fd94c883179aec0deb9a7"}, {"type": "electric_scooter", "fusion_lon": 0.0, "bike_id": "9b6ef4cb6562639aa84971dfe7ccb4d4", "is_disabled": 0, "lat": 38.892273333333335, "rental_uris": {"ios": "https://dc.lft.to/lastmile_qr_scan", "android": "https://dc.lft.to/lastmile_qr_scan"}, "is_reserved": 0, "lon": -77.0241385, "fusion_lat": 0.0, "name": "9b6ef4cb6562639aa84971dfe7ccb4d4"}, {"type": "electric_scooter", "fusion_lon": 0.0, "bike_id": "cf8cc13eb62f4f6bbc6d67ae194b0862", "is_disabled": 0, "lat": 38.9310385, "rental_uris": {"ios": "https://dc.lft.to/lastmile_qr_scan", "android": "https://dc.lft.to/lastmile_qr_scan"}, "is_reserved": 0, "lon": -77.0247765, "fusion_lat": 0.0, "name": "cf8cc13eb62f4f6bbc6d67ae194b0862"}, {"type": "electric_scooter", "fusion_lon": 0.0, "bike_id": "aa9319d569d6834c91b7599693feff21", "is_disabled": 0, "lat": 38.90890266666667, "rental_uris": {"ios": "https://dc.lft.to/lastmile_qr_scan", "android": "https://dc.lft.to/lastmile_qr_scan"}, "is_reserved": 0, "lon": -77.067817, "fusion_lat": 0.0, "name": "aa9319d569d6834c91b7599693feff21"}, {"type": "electric_scooter", "fusion_lon": 0.0, "bike_id": "661a321cad09df00f8cc2f8ce537f910", "is_disabled": 0, "lat": 38.920313166666666, "rental_uris": {"ios": "https://dc.lft.to/lastmile_qr_scan", "android": "https://dc.lft.to/lastmile_qr_scan"}, "is_reserved": 0, "lon": -77.014298, "fusion_lat": 0.0, "name": "661a321cad09df00f8cc2f8ce537f910"}, {"type": "electric_bike", "fusion_lon": 0.0, "bike_id": "ed8dfe59e9e836e0c4f4d0d555d2b1fa", "is_disabled": 0, "lat": 38.89569616666667, "rental_uris": {"ios": "https://dc.lft.to/lastmile_qr_scan", "android": "https://dc.lft.to/lastmile_qr_scan"}, "is_reserved": 0, "lon": -77.09618783333333, "fusion_lat": 0.0, "name": "ed8dfe59e9e836e0c4f4d0d555d2b1fa"}, {"type": "electric_scooter", "fusion_lon": 0.0, "bike_id": "57c3d58ee5f3111c794d4ca6c6ed1ab2", "is_disabled": 0, "lat": 38.905149, "rental_uris": {"ios": "https://dc.lft.to/lastmile_qr_scan", "android": "https://dc.lft.to/lastmile_qr_scan"}, "is_reserved": 0, "lon": -77.04775516666666, "fusion_lat": 0.0, "name": "57c3d58ee5f3111c794d4ca6c6ed1ab2"}, {"type": "electric_scooter", "fusion_lon": 0.0, "bike_id": "23b4f444891353b8db60a45e652148f2", "is_disabled": 0, "lat": 38.914760333333334, "rental_uris": {"ios": "https://dc.lft.to/lastmile_qr_scan", "android": "https://dc.lft.to/lastmile_qr_scan"}, "is_reserved": 0, "lon": -77.032463, "fusion_lat": 0.0, "name": "23b4f444891353b8db60a45e652148f2"}, {"type": "electric_scooter", "fusion_lon": 0.0, "bike_id": "ba3da6c13cdf7ef88cc4b3dba5e0e575", "is_disabled": 0, "lat": 38.902561166666665, "rental_uris": {"ios": "https://dc.lft.to/lastmile_qr_scan", "android": "https://dc.lft.to/lastmile_qr_scan"}, "is_reserved": 0, "lon": -77.02672716666666, "fusion_lat": 0.0, "name": "ba3da6c13cdf7ef88cc4b3dba5e0e575"}, {"type": "electric_scooter", "fusion_lon": 0.0, "bike_id": "334a4902d7dac16261f19df5e8e77f77", "is_disabled": 0, "lat": 38.8877095, "rental_uris": {"ios": "https://dc.lft.to/lastmile_qr_scan", "android": "https://dc.lft.to/lastmile_qr_scan"}, "is_reserved": 0, "lon": -77.03357183333334, "fusion_lat": 0.0, "name": "334a4902d7dac16261f19df5e8e77f77"}, {"type": "electric_scooter", "fusion_lon": 0.0, "bike_id": "95b87719a5b7bf161ec6b654d30ba2eb", "is_disabled": 0, "lat": 38.859464833333334, "rental_uris": {"ios": "https://dc.lft.to/lastmile_qr_scan", "android": "https://dc.lft.to/lastmile_qr_scan"}, "is_reserved": 0, "lon": -76.95874116666667, "fusion_lat": 0.0, "name": "95b87719a5b7bf161ec6b654d30ba2eb"}, {"type": "electric_scooter", "fusion_lon": 0.0, "bike_id": "814409db2a3f71b081cdd0b17edc8a2e", "is_disabled": 0, "lat": 38.921078333333334, "rental_uris": {"ios": "https://dc.lft.to/lastmile_qr_scan", "android": "https://dc.lft.to/lastmile_qr_scan"}, "is_reserved": 0, "lon": -77.048297, "fusion_lat": 0.0, "name": "814409db2a3f71b081cdd0b17edc8a2e"}, {"type": "electric_scooter", "fusion_lon": 0.0, "bike_id": "0673fc331528fbeee0e00065d14b686a", "is_disabled": 0, "lat": 38.93224683333333, "rental_uris": {"ios": "https://dc.lft.to/lastmile_qr_scan", "android": "https://dc.lft.to/lastmile_qr_scan"}, "is_reserved": 0, "lon": -77.02383716666667, "fusion_lat": 0.0, "name": "0673fc331528fbeee0e00065d14b686a"}, {"type": "electric_scooter", "fusion_lon": 0.0, "bike_id": "ce423980bc4986d561bcb39459582728", "is_disabled": 0, "lat": 38.925078166666665, "rental_uris": {"ios": "https://dc.lft.to/lastmile_qr_scan", "android": "https://dc.lft.to/lastmile_qr_scan"}, "is_reserved": 0, "lon": -77.02161616666666, "fusion_lat": 0.0, "name": "ce423980bc4986d561bcb39459582728"}, {"type": "electric_scooter", "fusion_lon": 0.0, "bike_id": "180641d70c47d5e1a9a73747e7d56b01", "is_disabled": 0, "lat": 38.90649783333333, "rental_uris": {"ios": "https://dc.lft.to/lastmile_qr_scan", "android": "https://dc.lft.to/lastmile_qr_scan"}, "is_reserved": 0, "lon": -77.01136333333334, "fusion_lat": 0.0, "name": "180641d70c47d5e1a9a73747e7d56b01"}, {"type": "electric_scooter", "fusion_lon": 0.0, "bike_id": "071b3fea6883aec171bfdf7a379c25bd", "is_disabled": 0, "lat": 38.94411933333333, "rental_uris": {"ios": "https://dc.lft.to/lastmile_qr_scan", "android": "https://dc.lft.to/lastmile_qr_scan"}, "is_reserved": 0, "lon": -77.00503, "fusion_lat": 0.0, "name": "071b3fea6883aec171bfdf7a379c25bd"}, {"type": "electric_scooter", "fusion_lon": 0.0, "bike_id": "1156b2e77b64d68fb669a51b53d135be", "is_disabled": 0, "lat": 38.9146475, "rental_uris": {"ios": "https://dc.lft.to/lastmile_qr_scan", "android": "https://dc.lft.to/lastmile_qr_scan"}, "is_reserved": 0, "lon": -77.01493583333334, "fusion_lat": 0.0, "name": "1156b2e77b64d68fb669a51b53d135be"}, {"type": "electric_scooter", "fusion_lon": 0.0, "bike_id": "308f7f6cf64a96a1f4a7420b402675e1", "is_disabled": 0, "lat": 38.93661933333333, "rental_uris": {"ios": "https://dc.lft.to/lastmile_qr_scan", "android": "https://dc.lft.to/lastmile_qr_scan"}, "is_reserved": 0, "lon": -77.03395083333334, "fusion_lat": 0.0, "name": "308f7f6cf64a96a1f4a7420b402675e1"}, {"type": "electric_bike", "fusion_lon": 0.0, "bike_id": "060832439789c3f353897ca3435622b6", "is_disabled": 0, "lat": 38.882993, "rental_uris": {"ios": "https://dc.lft.to/lastmile_qr_scan", "android": "https://dc.lft.to/lastmile_qr_scan"}, "is_reserved": 0, "lon": -76.94973616666667, "fusion_lat": 0.0, "name": "060832439789c3f353897ca3435622b6"}, {"type": "electric_scooter", "fusion_lon": 0.0, "bike_id": "7b069ce17b660a414be0ce366b74531a", "is_disabled": 0, "lat": 38.877407833333336, "rental_uris": {"ios": "https://dc.lft.to/lastmile_qr_scan", "android": "https://dc.lft.to/lastmile_qr_scan"}, "is_reserved": 0, "lon": -77.007474, "fusion_lat": 0.0, "name": "7b069ce17b660a414be0ce366b74531a"}, {"type": "electric_scooter", "fusion_lon": 0.0, "bike_id": "fdc99771680784ba68addf7c765eff58", "is_disabled": 0, "lat": 38.910615666666665, "rental_uris": {"ios": "https://dc.lft.to/lastmile_qr_scan", "android": "https://dc.lft.to/lastmile_qr_scan"}, "is_reserved": 0, "lon": -77.02653416666666, "fusion_lat": 0.0, "name": "fdc99771680784ba68addf7c765eff58"}, {"type": "electric_scooter", "fusion_lon": 0.0, "bike_id": "0fee3916f96f2142e393ca35bf71325b", "is_disabled": 0, "lat": 38.927767333333335, "rental_uris": {"ios": "https://dc.lft.to/lastmile_qr_scan", "android": "https://dc.lft.to/lastmile_qr_scan"}, "is_reserved": 0, "lon": -77.0269605, "fusion_lat": 0.0, "name": "0fee3916f96f2142e393ca35bf71325b"}, {"type": "electric_scooter", "fusion_lon": 0.0, "bike_id": "9e54ffe16fed43ade126f22e869ba5bb", "is_disabled": 0, "lat": 38.940866666666665, "rental_uris": {"ios": "https://dc.lft.to/lastmile_qr_scan", "android": "https://dc.lft.to/lastmile_qr_scan"}, "is_reserved": 0, "lon": -77.02729716666667, "fusion_lat": 0.0, "name": "9e54ffe16fed43ade126f22e869ba5bb"}, {"type": "electric_scooter", "fusion_lon": 0.0, "bike_id": "6c8fb25fd5a1ecd80206d98401d8738e", "is_disabled": 0, "lat": 38.9163835, "rental_uris": {"ios": "https://dc.lft.to/lastmile_qr_scan", "android": "https://dc.lft.to/lastmile_qr_scan"}, "is_reserved": 0, "lon": -77.0506935, "fusion_lat": 0.0, "name": "6c8fb25fd5a1ecd80206d98401d8738e"}, {"type": "electric_scooter", "fusion_lon": 0.0, "bike_id": "ed24ea49ffa78b5b75b6b9d5ab086433", "is_disabled": 0, "lat": 38.916262333333336, "rental_uris": {"ios": "https://dc.lft.to/lastmile_qr_scan", "android": "https://dc.lft.to/lastmile_qr_scan"}, "is_reserved": 0, "lon": -77.04589733333333, "fusion_lat": 0.0, "name": "ed24ea49ffa78b5b75b6b9d5ab086433"}, {"type": "electric_scooter", "fusion_lon": 0.0, "bike_id": "6ca061d50af63ab215763ed8eb6c7149", "is_disabled": 0, "lat": 38.90172533333333, "rental_uris": {"ios": "https://dc.lft.to/lastmile_qr_scan", "android": "https://dc.lft.to/lastmile_qr_scan"}, "is_reserved": 0, "lon": -76.980752, "fusion_lat": 0.0, "name": "6ca061d50af63ab215763ed8eb6c7149"}, {"type": "electric_scooter", "fusion_lon": 0.0, "bike_id": "af47af49d4256e2b464cc41cfda407a0", "is_disabled": 0, "lat": 38.91079466666667, "rental_uris": {"ios": "https://dc.lft.to/lastmile_qr_scan", "android": "https://dc.lft.to/lastmile_qr_scan"}, "is_reserved": 0, "lon": -77.001513, "fusion_lat": 0.0, "name": "af47af49d4256e2b464cc41cfda407a0"}, {"type": "electric_scooter", "fusion_lon": 0.0, "bike_id": "27092494eacecdb72efac629a88b5947", "is_disabled": 0, "lat": 38.9335065, "rental_uris": {"ios": "https://dc.lft.to/lastmile_qr_scan", "android": "https://dc.lft.to/lastmile_qr_scan"}, "is_reserved": 0, "lon": -77.02982583333333, "fusion_lat": 0.0, "name": "27092494eacecdb72efac629a88b5947"}, {"type": "electric_bike", "fusion_lon": 0.0, "bike_id": "20cfa781c46b53282e7651e4f71a8bb8", "is_disabled": 0, "lat": 38.97468533333333, "rental_uris": {"ios": "https://dc.lft.to/lastmile_qr_scan", "android": "https://dc.lft.to/lastmile_qr_scan"}, "is_reserved": 0, "lon": -77.01207683333334, "fusion_lat": 0.0, "name": "20cfa781c46b53282e7651e4f71a8bb8"}, {"type": "electric_scooter", "fusion_lon": 0.0, "bike_id": "99b8b049ce8c3c648811a79391ef0503", "is_disabled": 0, "lat": 38.8946815, "rental_uris": {"ios": "https://dc.lft.to/lastmile_qr_scan", "android": "https://dc.lft.to/lastmile_qr_scan"}, "is_reserved": 0, "lon": -77.01865266666667, "fusion_lat": 0.0, "name": "99b8b049ce8c3c648811a79391ef0503"}, {"type": "electric_bike", "fusion_lon": 0.0, "bike_id": "e5177e8bf81cce6d22abb86b84a102af", "is_disabled": 0, "lat": 38.86592533333334, "rental_uris": {"ios": "https://dc.lft.to/lastmile_qr_scan", "android": "https://dc.lft.to/lastmile_qr_scan"}, "is_reserved": 0, "lon": -76.98047933333334, "fusion_lat": 0.0, "name": "e5177e8bf81cce6d22abb86b84a102af"}, {"type": "electric_scooter", "fusion_lon": 0.0, "bike_id": "327cd20faf98cfc3c2e1a7c09045408f", "is_disabled": 0, "lat": 38.8740405, "rental_uris": {"ios": "https://dc.lft.to/lastmile_qr_scan", "android": "https://dc.lft.to/lastmile_qr_scan"}, "is_reserved": 0, "lon": -76.96982933333334, "fusion_lat": 0.0, "name": "327cd20faf98cfc3c2e1a7c09045408f"}, {"type": "electric_scooter", "fusion_lon": 0.0, "bike_id": "28ebe5beef98abc9a5165140f0fd9304", "is_disabled": 0, "lat": 38.956025, "rental_uris": {"ios": "https://dc.lft.to/lastmile_qr_scan", "android": "https://dc.lft.to/lastmile_qr_scan"}, "is_reserved": 0, "lon": -77.08064183333333, "fusion_lat": 0.0, "name": "28ebe5beef98abc9a5165140f0fd9304"}, {"type": "electric_scooter", "fusion_lon": 0.0, "bike_id": "aaaf097acdef17288a8fcb712d3bb7ea", "is_disabled": 0, "lat": 38.884310666666664, "rental_uris": {"ios": "https://dc.lft.to/lastmile_qr_scan", "android": "https://dc.lft.to/lastmile_qr_scan"}, "is_reserved": 0, "lon": -76.95763233333334, "fusion_lat": 0.0, "name": "aaaf097acdef17288a8fcb712d3bb7ea"}, {"type": "electric_scooter", "fusion_lon": 0.0, "bike_id": "6d0392080605e33ef6e93d16ff3b8557", "is_disabled": 0, "lat": 38.892194333333336, "rental_uris": {"ios": "https://dc.lft.to/lastmile_qr_scan", "android": "https://dc.lft.to/lastmile_qr_scan"}, "is_reserved": 0, "lon": -77.03213283333334, "fusion_lat": 0.0, "name": "6d0392080605e33ef6e93d16ff3b8557"}, {"type": "electric_scooter", "fusion_lon": 0.0, "bike_id": "fda3e4f808703cc6491246c8b65e81f0", "is_disabled": 0, "lat": 38.919682333333334, "rental_uris": {"ios": "https://dc.lft.to/lastmile_qr_scan", "android": "https://dc.lft.to/lastmile_qr_scan"}, "is_reserved": 0, "lon": -77.03862566666666, "fusion_lat": 0.0, "name": "fda3e4f808703cc6491246c8b65e81f0"}, {"type": "electric_scooter", "fusion_lon": 0.0, "bike_id": "66928d6b1affe7c709d4dbb74b3fa977", "is_disabled": 0, "lat": 38.89406816666666, "rental_uris": {"ios": "https://dc.lft.to/lastmile_qr_scan", "android": "https://dc.lft.to/lastmile_qr_scan"}, "is_reserved": 0, "lon": -77.02150916666666, "fusion_lat": 0.0, "name": "66928d6b1affe7c709d4dbb74b3fa977"}, {"type": "electric_scooter", "fusion_lon": 0.0, "bike_id": "410f06c8c2b7875f9315f90f39a260bf", "is_disabled": 0, "lat": 38.914245666666666, "rental_uris": {"ios": "https://dc.lft.to/lastmile_qr_scan", "android": "https://dc.lft.to/lastmile_qr_scan"}, "is_reserved": 0, "lon": -77.03903916666667, "fusion_lat": 0.0, "name": "410f06c8c2b7875f9315f90f39a260bf"}, {"type": "electric_scooter", "fusion_lon": 0.0, "bike_id": "f100dd41d3e84c14c158bdbf9a43e294", "is_disabled": 0, "lat": 38.93529616666667, "rental_uris": {"ios": "https://dc.lft.to/lastmile_qr_scan", "android": "https://dc.lft.to/lastmile_qr_scan"}, "is_reserved": 0, "lon": -77.0235215, "fusion_lat": 0.0, "name": "f100dd41d3e84c14c158bdbf9a43e294"}, {"type": "electric_scooter", "fusion_lon": 0.0, "bike_id": "d893c34ff76b96592eb6a979f9142107", "is_disabled": 0, "lat": 38.90668333333333, "rental_uris": {"ios": "https://dc.lft.to/lastmile_qr_scan", "android": "https://dc.lft.to/lastmile_qr_scan"}, "is_reserved": 0, "lon": -77.029485, "fusion_lat": 0.0, "name": "d893c34ff76b96592eb6a979f9142107"}, {"type": "electric_scooter", "fusion_lon": 0.0, "bike_id": "bdbfeed427202b8fad7c08af4553b6d6", "is_disabled": 0, "lat": 38.89400633333333, "rental_uris": {"ios": "https://dc.lft.to/lastmile_qr_scan", "android": "https://dc.lft.to/lastmile_qr_scan"}, "is_reserved": 0, "lon": -77.021214, "fusion_lat": 0.0, "name": "bdbfeed427202b8fad7c08af4553b6d6"}, {"type": "electric_scooter", "fusion_lon": 0.0, "bike_id": "d8e2f32ae0f05fdee515a41451305acd", "is_disabled": 0, "lat": 38.924833166666666, "rental_uris": {"ios": "https://dc.lft.to/lastmile_qr_scan", "android": "https://dc.lft.to/lastmile_qr_scan"}, "is_reserved": 0, "lon": -77.0255135, "fusion_lat": 0.0, "name": "d8e2f32ae0f05fdee515a41451305acd"}, {"type": "electric_scooter", "fusion_lon": 0.0, "bike_id": "87b314a29b44dd7e9240b75fd965533a", "is_disabled": 0, "lat": 38.91683883333334, "rental_uris": {"ios": "https://dc.lft.to/lastmile_qr_scan", "android": "https://dc.lft.to/lastmile_qr_scan"}, "is_reserved": 0, "lon": -77.02526816666666, "fusion_lat": 0.0, "name": "87b314a29b44dd7e9240b75fd965533a"}, {"type": "electric_scooter", "fusion_lon": 0.0, "bike_id": "e3fe20f04766e2d6803ffda7d6184fe6", "is_disabled": 0, "lat": 38.869611666666664, "rental_uris": {"ios": "https://dc.lft.to/lastmile_qr_scan", "android": "https://dc.lft.to/lastmile_qr_scan"}, "is_reserved": 0, "lon": -76.97864383333334, "fusion_lat": 0.0, "name": "e3fe20f04766e2d6803ffda7d6184fe6"}, {"type": "electric_scooter", "fusion_lon": 0.0, "bike_id": "d6de139a9edbf9b6cbcdb6fb9ab86af6", "is_disabled": 0, "lat": 38.900394, "rental_uris": {"ios": "https://dc.lft.to/lastmile_qr_scan", "android": "https://dc.lft.to/lastmile_qr_scan"}, "is_reserved": 0, "lon": -77.04323283333333, "fusion_lat": 0.0, "name": "d6de139a9edbf9b6cbcdb6fb9ab86af6"}, {"type": "electric_scooter", "fusion_lon": 0.0, "bike_id": "7862d7f86c8598edf54c7225924c7e50", "is_disabled": 0, "lat": 38.919204, "rental_uris": {"ios": "https://dc.lft.to/lastmile_qr_scan", "android": "https://dc.lft.to/lastmile_qr_scan"}, "is_reserved": 0, "lon": -77.030404, "fusion_lat": 0.0, "name": "7862d7f86c8598edf54c7225924c7e50"}, {"type": "electric_scooter", "fusion_lon": 0.0, "bike_id": "a4751e3a070f34702265dbf0d7218598", "is_disabled": 0, "lat": 38.92093083333334, "rental_uris": {"ios": "https://dc.lft.to/lastmile_qr_scan", "android": "https://dc.lft.to/lastmile_qr_scan"}, "is_reserved": 0, "lon": -77.02593366666666, "fusion_lat": 0.0, "name": "a4751e3a070f34702265dbf0d7218598"}, {"type": "electric_scooter", "fusion_lon": 0.0, "bike_id": "b7090593d6e25c526eac992a6bca8440", "is_disabled": 0, "lat": 38.92337716666667, "rental_uris": {"ios": "https://dc.lft.to/lastmile_qr_scan", "android": "https://dc.lft.to/lastmile_qr_scan"}, "is_reserved": 0, "lon": -77.04143083333334, "fusion_lat": 0.0, "name": "b7090593d6e25c526eac992a6bca8440"}, {"type": "electric_scooter", "fusion_lon": 0.0, "bike_id": "7c7cd775ca5440fb1fa92db07927b4c8", "is_disabled": 0, "lat": 38.90454616666667, "rental_uris": {"ios": "https://dc.lft.to/lastmile_qr_scan", "android": "https://dc.lft.to/lastmile_qr_scan"}, "is_reserved": 0, "lon": -76.98254833333333, "fusion_lat": 0.0, "name": "7c7cd775ca5440fb1fa92db07927b4c8"}, {"type": "electric_scooter", "fusion_lon": 0.0, "bike_id": "ff6253daabefa0b5e4f174afd5435459", "is_disabled": 0, "lat": 38.9097785, "rental_uris": {"ios": "https://dc.lft.to/lastmile_qr_scan", "android": "https://dc.lft.to/lastmile_qr_scan"}, "is_reserved": 0, "lon": -77.03359583333334, "fusion_lat": 0.0, "name": "ff6253daabefa0b5e4f174afd5435459"}, {"type": "electric_scooter", "fusion_lon": 0.0, "bike_id": "75f16b2f6a080e4701abf330d7d35ef5", "is_disabled": 0, "lat": 38.9094755, "rental_uris": {"ios": "https://dc.lft.to/lastmile_qr_scan", "android": "https://dc.lft.to/lastmile_qr_scan"}, "is_reserved": 0, "lon": -77.05559416666667, "fusion_lat": 0.0, "name": "75f16b2f6a080e4701abf330d7d35ef5"}, {"type": "electric_scooter", "fusion_lon": 0.0, "bike_id": "8988c7da07cbba6c2464eb6bef9b307d", "is_disabled": 0, "lat": 38.896944166666664, "rental_uris": {"ios": "https://dc.lft.to/lastmile_qr_scan", "android": "https://dc.lft.to/lastmile_qr_scan"}, "is_reserved": 0, "lon": -77.043558, "fusion_lat": 0.0, "name": "8988c7da07cbba6c2464eb6bef9b307d"}, {"type": "electric_scooter", "fusion_lon": 0.0, "bike_id": "c2c355a1cfae6b2b3a9c6ee01cabbfe2", "is_disabled": 0, "lat": 38.898027666666664, "rental_uris": {"ios": "https://dc.lft.to/lastmile_qr_scan", "android": "https://dc.lft.to/lastmile_qr_scan"}, "is_reserved": 0, "lon": -76.97946366666666, "fusion_lat": 0.0, "name": "c2c355a1cfae6b2b3a9c6ee01cabbfe2"}, {"type": "electric_scooter", "fusion_lon": 0.0, "bike_id": "18ef61a3c6d90b5cba331befffa9d316", "is_disabled": 0, "lat": 38.904081833333336, "rental_uris": {"ios": "https://dc.lft.to/lastmile_qr_scan", "android": "https://dc.lft.to/lastmile_qr_scan"}, "is_reserved": 0, "lon": -77.02942333333333, "fusion_lat": 0.0, "name": "18ef61a3c6d90b5cba331befffa9d316"}, {"type": "electric_scooter", "fusion_lon": 0.0, "bike_id": "16b57ea48051c0ac74e9c9f65580b3fa", "is_disabled": 0, "lat": 38.8924605, "rental_uris": {"ios": "https://dc.lft.to/lastmile_qr_scan", "android": "https://dc.lft.to/lastmile_qr_scan"}, "is_reserved": 0, "lon": -77.0334615, "fusion_lat": 0.0, "name": "16b57ea48051c0ac74e9c9f65580b3fa"}, {"type": "electric_scooter", "fusion_lon": 0.0, "bike_id": "e69592210be43f8b7d61e6ffcf534a2c", "is_disabled": 0, "lat": 38.908817166666665, "rental_uris": {"ios": "https://dc.lft.to/lastmile_qr_scan", "android": "https://dc.lft.to/lastmile_qr_scan"}, "is_reserved": 0, "lon": -77.04291966666666, "fusion_lat": 0.0, "name": "e69592210be43f8b7d61e6ffcf534a2c"}, {"type": "electric_scooter", "fusion_lon": 0.0, "bike_id": "045df087d9e265c30f971e40fdd5714e", "is_disabled": 0, "lat": 38.876627, "rental_uris": {"ios": "https://dc.lft.to/lastmile_qr_scan", "android": "https://dc.lft.to/lastmile_qr_scan"}, "is_reserved": 0, "lon": -77.0094445, "fusion_lat": 0.0, "name": "045df087d9e265c30f971e40fdd5714e"}, {"type": "electric_scooter", "fusion_lon": 0.0, "bike_id": "44d7541b5b8184cf3df9446e915f72c7", "is_disabled": 0, "lat": 38.9202945, "rental_uris": {"ios": "https://dc.lft.to/lastmile_qr_scan", "android": "https://dc.lft.to/lastmile_qr_scan"}, "is_reserved": 0, "lon": -77.00290533333333, "fusion_lat": 0.0, "name": "44d7541b5b8184cf3df9446e915f72c7"}, {"type": "electric_scooter", "fusion_lon": 0.0, "bike_id": "553ca8ae4aee4413b35391d31112bcf2", "is_disabled": 0, "lat": 38.88369983333333, "rental_uris": {"ios": "https://dc.lft.to/lastmile_qr_scan", "android": "https://dc.lft.to/lastmile_qr_scan"}, "is_reserved": 0, "lon": -76.957103, "fusion_lat": 0.0, "name": "553ca8ae4aee4413b35391d31112bcf2"}, {"type": "electric_scooter", "fusion_lon": 0.0, "bike_id": "4d533061016e60eea32c3ce72c5b68c9", "is_disabled": 0, "lat": 38.89979, "rental_uris": {"ios": "https://dc.lft.to/lastmile_qr_scan", "android": "https://dc.lft.to/lastmile_qr_scan"}, "is_reserved": 0, "lon": -77.02110616666667, "fusion_lat": 0.0, "name": "4d533061016e60eea32c3ce72c5b68c9"}, {"type": "electric_scooter", "fusion_lon": 0.0, "bike_id": "05e3810a58ccf3928620266d068996bc", "is_disabled": 0, "lat": 38.91001633333333, "rental_uris": {"ios": "https://dc.lft.to/lastmile_qr_scan", "android": "https://dc.lft.to/lastmile_qr_scan"}, "is_reserved": 0, "lon": -77.04007166666666, "fusion_lat": 0.0, "name": "05e3810a58ccf3928620266d068996bc"}, {"type": "electric_scooter", "fusion_lon": 0.0, "bike_id": "f42859d2fa65673e26e7cd145601726a", "is_disabled": 0, "lat": 38.90427016666667, "rental_uris": {"ios": "https://dc.lft.to/lastmile_qr_scan", "android": "https://dc.lft.to/lastmile_qr_scan"}, "is_reserved": 0, "lon": -77.03268483333333, "fusion_lat": 0.0, "name": "f42859d2fa65673e26e7cd145601726a"}, {"type": "electric_scooter", "fusion_lon": 0.0, "bike_id": "e3a111bec9552377f9aac2d3ba8ccf5f", "is_disabled": 0, "lat": 38.918927333333336, "rental_uris": {"ios": "https://dc.lft.to/lastmile_qr_scan", "android": "https://dc.lft.to/lastmile_qr_scan"}, "is_reserved": 0, "lon": -77.03825083333334, "fusion_lat": 0.0, "name": "e3a111bec9552377f9aac2d3ba8ccf5f"}, {"type": "electric_scooter", "fusion_lon": 0.0, "bike_id": "7c0c9064f465514f8ab73a90d7ff2044", "is_disabled": 0, "lat": 38.891993666666664, "rental_uris": {"ios": "https://dc.lft.to/lastmile_qr_scan", "android": "https://dc.lft.to/lastmile_qr_scan"}, "is_reserved": 0, "lon": -77.00294783333334, "fusion_lat": 0.0, "name": "7c0c9064f465514f8ab73a90d7ff2044"}, {"type": "electric_scooter", "fusion_lon": 0.0, "bike_id": "f1949224c9a85c4901519a445d199669", "is_disabled": 0, "lat": 38.892243666666666, "rental_uris": {"ios": "https://dc.lft.to/lastmile_qr_scan", "android": "https://dc.lft.to/lastmile_qr_scan"}, "is_reserved": 0, "lon": -77.043343, "fusion_lat": 0.0, "name": "f1949224c9a85c4901519a445d199669"}, {"type": "electric_scooter", "fusion_lon": 0.0, "bike_id": "46a6cc4fcaf417da4b9097945431be30", "is_disabled": 0, "lat": 38.903455666666666, "rental_uris": {"ios": "https://dc.lft.to/lastmile_qr_scan", "android": "https://dc.lft.to/lastmile_qr_scan"}, "is_reserved": 0, "lon": -77.0238765, "fusion_lat": 0.0, "name": "46a6cc4fcaf417da4b9097945431be30"}, {"type": "electric_scooter", "fusion_lon": 0.0, "bike_id": "a0c5f598a738dc48c4c55128723ef891", "is_disabled": 0, "lat": 38.920848666666664, "rental_uris": {"ios": "https://dc.lft.to/lastmile_qr_scan", "android": "https://dc.lft.to/lastmile_qr_scan"}, "is_reserved": 0, "lon": -77.0249905, "fusion_lat": 0.0, "name": "a0c5f598a738dc48c4c55128723ef891"}, {"type": "electric_bike", "fusion_lon": 0.0, "bike_id": "099753753954fa2afa72d5310954fb96", "is_disabled": 0, "lat": 38.87136, "rental_uris": {"ios": "https://dc.lft.to/lastmile_qr_scan", "android": "https://dc.lft.to/lastmile_qr_scan"}, "is_reserved": 0, "lon": -76.93726733333334, "fusion_lat": 0.0, "name": "099753753954fa2afa72d5310954fb96"}, {"type": "electric_scooter", "fusion_lon": 0.0, "bike_id": "2b9a7e831b017fb348447c52151bd3b3", "is_disabled": 0, "lat": 38.97214, "rental_uris": {"ios": "https://dc.lft.to/lastmile_qr_scan", "android": "https://dc.lft.to/lastmile_qr_scan"}, "is_reserved": 0, "lon": -77.03336233333333, "fusion_lat": 0.0, "name": "2b9a7e831b017fb348447c52151bd3b3"}, {"type": "electric_scooter", "fusion_lon": 0.0, "bike_id": "dd231bc9069dbb129b404dd3e9f27976", "is_disabled": 0, "lat": 38.900094833333334, "rental_uris": {"ios": "https://dc.lft.to/lastmile_qr_scan", "android": "https://dc.lft.to/lastmile_qr_scan"}, "is_reserved": 0, "lon": -77.00674416666666, "fusion_lat": 0.0, "name": "dd231bc9069dbb129b404dd3e9f27976"}, {"type": "electric_scooter", "fusion_lon": 0.0, "bike_id": "211c5b4c0f124fc9dca44b12dbca2334", "is_disabled": 0, "lat": 38.9041805, "rental_uris": {"ios": "https://dc.lft.to/lastmile_qr_scan", "android": "https://dc.lft.to/lastmile_qr_scan"}, "is_reserved": 0, "lon": -77.04261883333334, "fusion_lat": 0.0, "name": "211c5b4c0f124fc9dca44b12dbca2334"}, {"type": "electric_scooter", "fusion_lon": 0.0, "bike_id": "0606bceca6009154f0cebf648add6a6a", "is_disabled": 0, "lat": 38.905100833333336, "rental_uris": {"ios": "https://dc.lft.to/lastmile_qr_scan", "android": "https://dc.lft.to/lastmile_qr_scan"}, "is_reserved": 0, "lon": -76.95207533333334, "fusion_lat": 0.0, "name": "0606bceca6009154f0cebf648add6a6a"}, {"type": "electric_scooter", "fusion_lon": 0.0, "bike_id": "bf89cc69d04febd42cbc854e7c93da62", "is_disabled": 0, "lat": 38.92793433333333, "rental_uris": {"ios": "https://dc.lft.to/lastmile_qr_scan", "android": "https://dc.lft.to/lastmile_qr_scan"}, "is_reserved": 0, "lon": -77.03156083333333, "fusion_lat": 0.0, "name": "bf89cc69d04febd42cbc854e7c93da62"}, {"type": "electric_scooter", "fusion_lon": 0.0, "bike_id": "896e879e20fad545d1a1c61b2b1650d1", "is_disabled": 0, "lat": 38.93696466666667, "rental_uris": {"ios": "https://dc.lft.to/lastmile_qr_scan", "android": "https://dc.lft.to/lastmile_qr_scan"}, "is_reserved": 0, "lon": -77.06009733333333, "fusion_lat": 0.0, "name": "896e879e20fad545d1a1c61b2b1650d1"}, {"type": "electric_scooter", "fusion_lon": 0.0, "bike_id": "d94ae025a38cbdf7767ebf273afa9475", "is_disabled": 0, "lat": 38.899647333333334, "rental_uris": {"ios": "https://dc.lft.to/lastmile_qr_scan", "android": "https://dc.lft.to/lastmile_qr_scan"}, "is_reserved": 0, "lon": -77.0160525, "fusion_lat": 0.0, "name": "d94ae025a38cbdf7767ebf273afa9475"}, {"type": "electric_scooter", "fusion_lon": 0.0, "bike_id": "fa712db68a813a13cf763c21732e5072", "is_disabled": 0, "lat": 38.947564166666666, "rental_uris": {"ios": "https://dc.lft.to/lastmile_qr_scan", "android": "https://dc.lft.to/lastmile_qr_scan"}, "is_reserved": 0, "lon": -77.07965033333333, "fusion_lat": 0.0, "name": "fa712db68a813a13cf763c21732e5072"}, {"type": "electric_scooter", "fusion_lon": 0.0, "bike_id": "564c1e04a7f48732139235dd337ecb46", "is_disabled": 0, "lat": 38.854557, "rental_uris": {"ios": "https://dc.lft.to/lastmile_qr_scan", "android": "https://dc.lft.to/lastmile_qr_scan"}, "is_reserved": 0, "lon": -76.9723295, "fusion_lat": 0.0, "name": "564c1e04a7f48732139235dd337ecb46"}, {"type": "electric_scooter", "fusion_lon": 0.0, "bike_id": "0acab1ada39baa2e4df061d413378bbf", "is_disabled": 0, "lat": 38.933027, "rental_uris": {"ios": "https://dc.lft.to/lastmile_qr_scan", "android": "https://dc.lft.to/lastmile_qr_scan"}, "is_reserved": 0, "lon": -77.03261016666667, "fusion_lat": 0.0, "name": "0acab1ada39baa2e4df061d413378bbf"}, {"type": "electric_scooter", "fusion_lon": 0.0, "bike_id": "4ec0a94bbcd722ff8f8eef56fc5b3b86", "is_disabled": 0, "lat": 38.9170535, "rental_uris": {"ios": "https://dc.lft.to/lastmile_qr_scan", "android": "https://dc.lft.to/lastmile_qr_scan"}, "is_reserved": 0, "lon": -77.0346655, "fusion_lat": 0.0, "name": "4ec0a94bbcd722ff8f8eef56fc5b3b86"}, {"type": "electric_bike", "fusion_lon": 0.0, "bike_id": "5b20140999bc11dd7407c5c36e523cf4", "is_disabled": 0, "lat": 38.862624833333335, "rental_uris": {"ios": "https://dc.lft.to/lastmile_qr_scan", "android": "https://dc.lft.to/lastmile_qr_scan"}, "is_reserved": 0, "lon": -76.9834565, "fusion_lat": 0.0, "name": "5b20140999bc11dd7407c5c36e523cf4"}, {"type": "electric_scooter", "fusion_lon": 0.0, "bike_id": "d01fa0abe121c159c235eae9165d5a3d", "is_disabled": 0, "lat": 38.9161, "rental_uris": {"ios": "https://dc.lft.to/lastmile_qr_scan", "android": "https://dc.lft.to/lastmile_qr_scan"}, "is_reserved": 0, "lon": -77.048779, "fusion_lat": 0.0, "name": "d01fa0abe121c159c235eae9165d5a3d"}, {"type": "electric_scooter", "fusion_lon": 0.0, "bike_id": "d0f7877f80826268c3762c9256e02b84", "is_disabled": 0, "lat": 38.88180466666667, "rental_uris": {"ios": "https://dc.lft.to/lastmile_qr_scan", "android": "https://dc.lft.to/lastmile_qr_scan"}, "is_reserved": 0, "lon": -77.02207883333334, "fusion_lat": 0.0, "name": "d0f7877f80826268c3762c9256e02b84"}, {"type": "electric_bike", "fusion_lon": 0.0, "bike_id": "62b309448ea171254654a650fe7a23e9", "is_disabled": 0, "lat": 38.80738783333334, "rental_uris": {"ios": "https://dc.lft.to/lastmile_qr_scan", "android": "https://dc.lft.to/lastmile_qr_scan"}, "is_reserved": 0, "lon": -77.09724666666666, "fusion_lat": 0.0, "name": "62b309448ea171254654a650fe7a23e9"}, {"type": "electric_scooter", "fusion_lon": 0.0, "bike_id": "3ec72267c85103f6087b5b91ed0a2053", "is_disabled": 0, "lat": 38.92026333333333, "rental_uris": {"ios": "https://dc.lft.to/lastmile_qr_scan", "android": "https://dc.lft.to/lastmile_qr_scan"}, "is_reserved": 0, "lon": -76.995636, "fusion_lat": 0.0, "name": "3ec72267c85103f6087b5b91ed0a2053"}, {"type": "electric_scooter", "fusion_lon": 0.0, "bike_id": "7a3ea68cf1dd343e705dc397b83a8821", "is_disabled": 0, "lat": 38.90262466666667, "rental_uris": {"ios": "https://dc.lft.to/lastmile_qr_scan", "android": "https://dc.lft.to/lastmile_qr_scan"}, "is_reserved": 0, "lon": -77.01784083333334, "fusion_lat": 0.0, "name": "7a3ea68cf1dd343e705dc397b83a8821"}, {"type": "electric_scooter", "fusion_lon": 0.0, "bike_id": "29dc5d3608a956cc3e875d3a738f4d1a", "is_disabled": 0, "lat": 38.8953095, "rental_uris": {"ios": "https://dc.lft.to/lastmile_qr_scan", "android": "https://dc.lft.to/lastmile_qr_scan"}, "is_reserved": 0, "lon": -76.94931916666667, "fusion_lat": 0.0, "name": "29dc5d3608a956cc3e875d3a738f4d1a"}, {"type": "electric_scooter", "fusion_lon": 0.0, "bike_id": "7a127293c0be7d35b1e2d777e410d638", "is_disabled": 0, "lat": 38.8755135, "rental_uris": {"ios": "https://dc.lft.to/lastmile_qr_scan", "android": "https://dc.lft.to/lastmile_qr_scan"}, "is_reserved": 0, "lon": -77.00059866666666, "fusion_lat": 0.0, "name": "7a127293c0be7d35b1e2d777e410d638"}, {"type": "electric_scooter", "fusion_lon": 0.0, "bike_id": "df98c11c0e67a1028bf7fc03bcf551ff", "is_disabled": 0, "lat": 38.914230333333336, "rental_uris": {"ios": "https://dc.lft.to/lastmile_qr_scan", "android": "https://dc.lft.to/lastmile_qr_scan"}, "is_reserved": 0, "lon": -77.03811616666667, "fusion_lat": 0.0, "name": "df98c11c0e67a1028bf7fc03bcf551ff"}, {"type": "electric_scooter", "fusion_lon": 0.0, "bike_id": "3665f60d3d46c713cee25fcb9e6b837d", "is_disabled": 0, "lat": 38.92127933333333, "rental_uris": {"ios": "https://dc.lft.to/lastmile_qr_scan", "android": "https://dc.lft.to/lastmile_qr_scan"}, "is_reserved": 0, "lon": -77.04586466666666, "fusion_lat": 0.0, "name": "3665f60d3d46c713cee25fcb9e6b837d"}, {"type": "electric_scooter", "fusion_lon": 0.0, "bike_id": "48c607bb1aa33839d2f48df1a5e895d4", "is_disabled": 0, "lat": 38.915613666666665, "rental_uris": {"ios": "https://dc.lft.to/lastmile_qr_scan", "android": "https://dc.lft.to/lastmile_qr_scan"}, "is_reserved": 0, "lon": -77.03156483333333, "fusion_lat": 0.0, "name": "48c607bb1aa33839d2f48df1a5e895d4"}, {"type": "electric_scooter", "fusion_lon": 0.0, "bike_id": "0bb301ae6062ccc39bb24a7082518b86", "is_disabled": 0, "lat": 38.957324, "rental_uris": {"ios": "https://dc.lft.to/lastmile_qr_scan", "android": "https://dc.lft.to/lastmile_qr_scan"}, "is_reserved": 0, "lon": -77.02402033333334, "fusion_lat": 0.0, "name": "0bb301ae6062ccc39bb24a7082518b86"}, {"type": "electric_scooter", "fusion_lon": 0.0, "bike_id": "9ce9584ccbfbc9f2b7a2128889cc462b", "is_disabled": 0, "lat": 38.89222316666667, "rental_uris": {"ios": "https://dc.lft.to/lastmile_qr_scan", "android": "https://dc.lft.to/lastmile_qr_scan"}, "is_reserved": 0, "lon": -77.0222005, "fusion_lat": 0.0, "name": "9ce9584ccbfbc9f2b7a2128889cc462b"}, {"type": "electric_scooter", "fusion_lon": 0.0, "bike_id": "6ed208facb54b839325f6c356a0bd91b", "is_disabled": 0, "lat": 38.90016583333333, "rental_uris": {"ios": "https://dc.lft.to/lastmile_qr_scan", "android": "https://dc.lft.to/lastmile_qr_scan"}, "is_reserved": 0, "lon": -77.001774, "fusion_lat": 0.0, "name": "6ed208facb54b839325f6c356a0bd91b"}, {"type": "electric_bike", "fusion_lon": 0.0, "bike_id": "382ce48217c4c6dcef737e8046f878df", "is_disabled": 0, "lat": 38.8888975, "rental_uris": {"ios": "https://dc.lft.to/lastmile_qr_scan", "android": "https://dc.lft.to/lastmile_qr_scan"}, "is_reserved": 0, "lon": -77.079475, "fusion_lat": 0.0, "name": "382ce48217c4c6dcef737e8046f878df"}, {"type": "electric_scooter", "fusion_lon": 0.0, "bike_id": "084656bc6a7c20023441f121c9595410", "is_disabled": 0, "lat": 38.89903533333333, "rental_uris": {"ios": "https://dc.lft.to/lastmile_qr_scan", "android": "https://dc.lft.to/lastmile_qr_scan"}, "is_reserved": 0, "lon": -77.0487395, "fusion_lat": 0.0, "name": "084656bc6a7c20023441f121c9595410"}, {"type": "electric_scooter", "fusion_lon": 0.0, "bike_id": "55c98d55021b465168bfbdaec1c0a546", "is_disabled": 0, "lat": 38.938970166666664, "rental_uris": {"ios": "https://dc.lft.to/lastmile_qr_scan", "android": "https://dc.lft.to/lastmile_qr_scan"}, "is_reserved": 0, "lon": -76.9860845, "fusion_lat": 0.0, "name": "55c98d55021b465168bfbdaec1c0a546"}, {"type": "electric_scooter", "fusion_lon": 0.0, "bike_id": "e3cd7775758417c9f316ba464467ccb3", "is_disabled": 0, "lat": 38.923742833333336, "rental_uris": {"ios": "https://dc.lft.to/lastmile_qr_scan", "android": "https://dc.lft.to/lastmile_qr_scan"}, "is_reserved": 0, "lon": -77.02250583333333, "fusion_lat": 0.0, "name": "e3cd7775758417c9f316ba464467ccb3"}, {"type": "electric_scooter", "fusion_lon": 0.0, "bike_id": "a7d095f89f8e2c1be90fc0d134f23e97", "is_disabled": 0, "lat": 38.90907716666667, "rental_uris": {"ios": "https://dc.lft.to/lastmile_qr_scan", "android": "https://dc.lft.to/lastmile_qr_scan"}, "is_reserved": 0, "lon": -77.02316416666666, "fusion_lat": 0.0, "name": "a7d095f89f8e2c1be90fc0d134f23e97"}, {"type": "electric_scooter", "fusion_lon": 0.0, "bike_id": "164ddd0766a0f8967ab91517736570c9", "is_disabled": 0, "lat": 38.90723933333334, "rental_uris": {"ios": "https://dc.lft.to/lastmile_qr_scan", "android": "https://dc.lft.to/lastmile_qr_scan"}, "is_reserved": 0, "lon": -77.0076225, "fusion_lat": 0.0, "name": "164ddd0766a0f8967ab91517736570c9"}, {"type": "electric_scooter", "fusion_lon": 0.0, "bike_id": "20ba3a7d94b43211db086005ce2e1a83", "is_disabled": 0, "lat": 38.9181955, "rental_uris": {"ios": "https://dc.lft.to/lastmile_qr_scan", "android": "https://dc.lft.to/lastmile_qr_scan"}, "is_reserved": 0, "lon": -77.00574066666667, "fusion_lat": 0.0, "name": "20ba3a7d94b43211db086005ce2e1a83"}, {"type": "electric_scooter", "fusion_lon": 0.0, "bike_id": "276a07b8c7639acb14d29a0c2efdf7d2", "is_disabled": 0, "lat": 38.9279495, "rental_uris": {"ios": "https://dc.lft.to/lastmile_qr_scan", "android": "https://dc.lft.to/lastmile_qr_scan"}, "is_reserved": 0, "lon": -77.02390283333334, "fusion_lat": 0.0, "name": "276a07b8c7639acb14d29a0c2efdf7d2"}, {"type": "electric_scooter", "fusion_lon": 0.0, "bike_id": "d824873b0698bb7d683f321515d53d85", "is_disabled": 0, "lat": 38.9174775, "rental_uris": {"ios": "https://dc.lft.to/lastmile_qr_scan", "android": "https://dc.lft.to/lastmile_qr_scan"}, "is_reserved": 0, "lon": -77.04056483333333, "fusion_lat": 0.0, "name": "d824873b0698bb7d683f321515d53d85"}, {"type": "electric_scooter", "fusion_lon": 0.0, "bike_id": "e086192d076800b37ef51ca5a9baa096", "is_disabled": 0, "lat": 38.8851785, "rental_uris": {"ios": "https://dc.lft.to/lastmile_qr_scan", "android": "https://dc.lft.to/lastmile_qr_scan"}, "is_reserved": 0, "lon": -77.02827183333333, "fusion_lat": 0.0, "name": "e086192d076800b37ef51ca5a9baa096"}, {"type": "electric_scooter", "fusion_lon": 0.0, "bike_id": "753caf52f29bae73f67f2757931062f4", "is_disabled": 0, "lat": 38.90762766666667, "rental_uris": {"ios": "https://dc.lft.to/lastmile_qr_scan", "android": "https://dc.lft.to/lastmile_qr_scan"}, "is_reserved": 0, "lon": -77.00922783333333, "fusion_lat": 0.0, "name": "753caf52f29bae73f67f2757931062f4"}, {"type": "electric_bike", "fusion_lon": 0.0, "bike_id": "7865ccadcc269f30b3e2ccefa43290ad", "is_disabled": 0, "lat": 38.86323816666667, "rental_uris": {"ios": "https://dc.lft.to/lastmile_qr_scan", "android": "https://dc.lft.to/lastmile_qr_scan"}, "is_reserved": 0, "lon": -76.98731883333333, "fusion_lat": 0.0, "name": "7865ccadcc269f30b3e2ccefa43290ad"}, {"type": "electric_scooter", "fusion_lon": 0.0, "bike_id": "d3b09bb448123caaab74fd9cbdcb30cf", "is_disabled": 0, "lat": 38.91915133333333, "rental_uris": {"ios": "https://dc.lft.to/lastmile_qr_scan", "android": "https://dc.lft.to/lastmile_qr_scan"}, "is_reserved": 0, "lon": -77.03375116666666, "fusion_lat": 0.0, "name": "d3b09bb448123caaab74fd9cbdcb30cf"}, {"type": "electric_scooter", "fusion_lon": 0.0, "bike_id": "5312312119c3772e8eacc7cd0ce388ac", "is_disabled": 0, "lat": 38.89220983333333, "rental_uris": {"ios": "https://dc.lft.to/lastmile_qr_scan", "android": "https://dc.lft.to/lastmile_qr_scan"}, "is_reserved": 0, "lon": -77.0201385, "fusion_lat": 0.0, "name": "5312312119c3772e8eacc7cd0ce388ac"}, {"type": "electric_scooter", "fusion_lon": 0.0, "bike_id": "1d1dc0a08e944a9e6ebaca721a106b2b", "is_disabled": 0, "lat": 38.9384885, "rental_uris": {"ios": "https://dc.lft.to/lastmile_qr_scan", "android": "https://dc.lft.to/lastmile_qr_scan"}, "is_reserved": 0, "lon": -77.033927, "fusion_lat": 0.0, "name": "1d1dc0a08e944a9e6ebaca721a106b2b"}, {"type": "electric_scooter", "fusion_lon": 0.0, "bike_id": "a6cfc1d035a6ce8715aaa42ce1c99c9e", "is_disabled": 0, "lat": 38.903729166666665, "rental_uris": {"ios": "https://dc.lft.to/lastmile_qr_scan", "android": "https://dc.lft.to/lastmile_qr_scan"}, "is_reserved": 0, "lon": -77.01836866666666, "fusion_lat": 0.0, "name": "a6cfc1d035a6ce8715aaa42ce1c99c9e"}, {"type": "electric_scooter", "fusion_lon": 0.0, "bike_id": "c18bcbe055a91e507f80d3889d215011", "is_disabled": 0, "lat": 38.9134725, "rental_uris": {"ios": "https://dc.lft.to/lastmile_qr_scan", "android": "https://dc.lft.to/lastmile_qr_scan"}, "is_reserved": 0, "lon": -77.032012, "fusion_lat": 0.0, "name": "c18bcbe055a91e507f80d3889d215011"}, {"type": "electric_bike", "fusion_lon": 0.0, "bike_id": "0ac57fb9728034a2b17ffdfd5fe7e144", "is_disabled": 0, "lat": 38.934880666666665, "rental_uris": {"ios": "https://dc.lft.to/lastmile_qr_scan", "android": "https://dc.lft.to/lastmile_qr_scan"}, "is_reserved": 0, "lon": -77.03025366666667, "fusion_lat": 0.0, "name": "0ac57fb9728034a2b17ffdfd5fe7e144"}, {"type": "electric_scooter", "fusion_lon": 0.0, "bike_id": "1e14384f29cd043ad7a8b384696cc2e8", "is_disabled": 0, "lat": 38.923940333333334, "rental_uris": {"ios": "https://dc.lft.to/lastmile_qr_scan", "android": "https://dc.lft.to/lastmile_qr_scan"}, "is_reserved": 0, "lon": -77.03404316666666, "fusion_lat": 0.0, "name": "1e14384f29cd043ad7a8b384696cc2e8"}, {"type": "electric_bike", "fusion_lon": 0.0, "bike_id": "187db2c90a14669f841128e6e426a065", "is_disabled": 0, "lat": 39.000022333333334, "rental_uris": {"ios": "https://dc.lft.to/lastmile_qr_scan", "android": "https://dc.lft.to/lastmile_qr_scan"}, "is_reserved": 0, "lon": -76.91801883333333, "fusion_lat": 0.0, "name": "187db2c90a14669f841128e6e426a065"}, {"type": "electric_scooter", "fusion_lon": 0.0, "bike_id": "25b7ba1f19b97cdf6f3ed94f4988b8d2", "is_disabled": 0, "lat": 38.88714433333333, "rental_uris": {"ios": "https://dc.lft.to/lastmile_qr_scan", "android": "https://dc.lft.to/lastmile_qr_scan"}, "is_reserved": 0, "lon": -77.02206366666667, "fusion_lat": 0.0, "name": "25b7ba1f19b97cdf6f3ed94f4988b8d2"}, {"type": "electric_scooter", "fusion_lon": 0.0, "bike_id": "e170db7ddea02deaa3945ba696bbdfba", "is_disabled": 0, "lat": 38.90564783333333, "rental_uris": {"ios": "https://dc.lft.to/lastmile_qr_scan", "android": "https://dc.lft.to/lastmile_qr_scan"}, "is_reserved": 0, "lon": -77.03478883333334, "fusion_lat": 0.0, "name": "e170db7ddea02deaa3945ba696bbdfba"}, {"type": "electric_scooter", "fusion_lon": 0.0, "bike_id": "c8c4cc4d0ff2b32f4dea7ee9706cfd0d", "is_disabled": 0, "lat": 38.918182333333334, "rental_uris": {"ios": "https://dc.lft.to/lastmile_qr_scan", "android": "https://dc.lft.to/lastmile_qr_scan"}, "is_reserved": 0, "lon": -77.00259233333334, "fusion_lat": 0.0, "name": "c8c4cc4d0ff2b32f4dea7ee9706cfd0d"}, {"type": "electric_scooter", "fusion_lon": 0.0, "bike_id": "986cb733344d1c26b78f96a5cf8c4324", "is_disabled": 0, "lat": 38.92670433333333, "rental_uris": {"ios": "https://dc.lft.to/lastmile_qr_scan", "android": "https://dc.lft.to/lastmile_qr_scan"}, "is_reserved": 0, "lon": -77.0360005, "fusion_lat": 0.0, "name": "986cb733344d1c26b78f96a5cf8c4324"}, {"type": "electric_scooter", "fusion_lon": 0.0, "bike_id": "a289b56c3e8ddf6375448e2d6a97d767", "is_disabled": 0, "lat": 38.90146383333333, "rental_uris": {"ios": "https://dc.lft.to/lastmile_qr_scan", "android": "https://dc.lft.to/lastmile_qr_scan"}, "is_reserved": 0, "lon": -77.04435966666667, "fusion_lat": 0.0, "name": "a289b56c3e8ddf6375448e2d6a97d767"}, {"type": "electric_bike", "fusion_lon": 0.0, "bike_id": "534fc4ffa8579487d62e4bf5faadadad", "is_disabled": 0, "lat": 38.88490516666667, "rental_uris": {"ios": "https://dc.lft.to/lastmile_qr_scan", "android": "https://dc.lft.to/lastmile_qr_scan"}, "is_reserved": 0, "lon": -76.95763783333334, "fusion_lat": 0.0, "name": "534fc4ffa8579487d62e4bf5faadadad"}, {"type": "electric_scooter", "fusion_lon": 0.0, "bike_id": "b5cd84ccc530b70d2fb33976e4978b8d", "is_disabled": 0, "lat": 38.921684166666665, "rental_uris": {"ios": "https://dc.lft.to/lastmile_qr_scan", "android": "https://dc.lft.to/lastmile_qr_scan"}, "is_reserved": 0, "lon": -77.0469285, "fusion_lat": 0.0, "name": "b5cd84ccc530b70d2fb33976e4978b8d"}, {"type": "electric_scooter", "fusion_lon": 0.0, "bike_id": "304058467e15bc11ddb88226de2f9ce5", "is_disabled": 0, "lat": 38.94232083333333, "rental_uris": {"ios": "https://dc.lft.to/lastmile_qr_scan", "android": "https://dc.lft.to/lastmile_qr_scan"}, "is_reserved": 0, "lon": -77.03872066666666, "fusion_lat": 0.0, "name": "304058467e15bc11ddb88226de2f9ce5"}, {"type": "electric_scooter", "fusion_lon": 0.0, "bike_id": "66fdb873fbaad551395ab33d994af015", "is_disabled": 0, "lat": 38.89950533333333, "rental_uris": {"ios": "https://dc.lft.to/lastmile_qr_scan", "android": "https://dc.lft.to/lastmile_qr_scan"}, "is_reserved": 0, "lon": -77.0449855, "fusion_lat": 0.0, "name": "66fdb873fbaad551395ab33d994af015"}, {"type": "electric_scooter", "fusion_lon": 0.0, "bike_id": "b8cd20c505ec1d4be5b9887e1d83c87b", "is_disabled": 0, "lat": 38.918036666666666, "rental_uris": {"ios": "https://dc.lft.to/lastmile_qr_scan", "android": "https://dc.lft.to/lastmile_qr_scan"}, "is_reserved": 0, "lon": -77.0109855, "fusion_lat": 0.0, "name": "b8cd20c505ec1d4be5b9887e1d83c87b"}, {"type": "electric_scooter", "fusion_lon": 0.0, "bike_id": "1bc2b8d5aaacdf4bd934e6c4800b0f6b", "is_disabled": 0, "lat": 38.8786175, "rental_uris": {"ios": "https://dc.lft.to/lastmile_qr_scan", "android": "https://dc.lft.to/lastmile_qr_scan"}, "is_reserved": 0, "lon": -76.98927166666667, "fusion_lat": 0.0, "name": "1bc2b8d5aaacdf4bd934e6c4800b0f6b"}, {"type": "electric_scooter", "fusion_lon": 0.0, "bike_id": "106fedcb0d43841d94f19e80ff6e7376", "is_disabled": 0, "lat": 38.9266375, "rental_uris": {"ios": "https://dc.lft.to/lastmile_qr_scan", "android": "https://dc.lft.to/lastmile_qr_scan"}, "is_reserved": 0, "lon": -77.03712383333334, "fusion_lat": 0.0, "name": "106fedcb0d43841d94f19e80ff6e7376"}, {"type": "electric_scooter", "fusion_lon": 0.0, "bike_id": "afe4ec4b560c981702207b3684137173", "is_disabled": 0, "lat": 38.9431775, "rental_uris": {"ios": "https://dc.lft.to/lastmile_qr_scan", "android": "https://dc.lft.to/lastmile_qr_scan"}, "is_reserved": 0, "lon": -77.06170366666667, "fusion_lat": 0.0, "name": "afe4ec4b560c981702207b3684137173"}, {"type": "electric_scooter", "fusion_lon": 0.0, "bike_id": "88149a657dc866f1df191941b1c2e6bc", "is_disabled": 0, "lat": 38.92392733333333, "rental_uris": {"ios": "https://dc.lft.to/lastmile_qr_scan", "android": "https://dc.lft.to/lastmile_qr_scan"}, "is_reserved": 0, "lon": -77.02971983333333, "fusion_lat": 0.0, "name": "88149a657dc866f1df191941b1c2e6bc"}, {"type": "electric_scooter", "fusion_lon": 0.0, "bike_id": "9ecb2780fb197f76f851160117ac0be0", "is_disabled": 0, "lat": 38.906733, "rental_uris": {"ios": "https://dc.lft.to/lastmile_qr_scan", "android": "https://dc.lft.to/lastmile_qr_scan"}, "is_reserved": 0, "lon": -77.02198083333333, "fusion_lat": 0.0, "name": "9ecb2780fb197f76f851160117ac0be0"}, {"type": "electric_scooter", "fusion_lon": 0.0, "bike_id": "305841ac9e255dc1e29bd7f992ed65df", "is_disabled": 0, "lat": 38.90809216666667, "rental_uris": {"ios": "https://dc.lft.to/lastmile_qr_scan", "android": "https://dc.lft.to/lastmile_qr_scan"}, "is_reserved": 0, "lon": -77.00031116666666, "fusion_lat": 0.0, "name": "305841ac9e255dc1e29bd7f992ed65df"}, {"type": "electric_scooter", "fusion_lon": 0.0, "bike_id": "592d09a1356ad85019699276a082593d", "is_disabled": 0, "lat": 38.892252166666665, "rental_uris": {"ios": "https://dc.lft.to/lastmile_qr_scan", "android": "https://dc.lft.to/lastmile_qr_scan"}, "is_reserved": 0, "lon": -77.04502433333333, "fusion_lat": 0.0, "name": "592d09a1356ad85019699276a082593d"}, {"type": "electric_scooter", "fusion_lon": 0.0, "bike_id": "092fe0073f89003ad43c3ad7399f7e0e", "is_disabled": 0, "lat": 38.8990665, "rental_uris": {"ios": "https://dc.lft.to/lastmile_qr_scan", "android": "https://dc.lft.to/lastmile_qr_scan"}, "is_reserved": 0, "lon": -77.02798383333334, "fusion_lat": 0.0, "name": "092fe0073f89003ad43c3ad7399f7e0e"}, {"type": "electric_scooter", "fusion_lon": 0.0, "bike_id": "2ac9c97c4f07713b031f5977e716c94a", "is_disabled": 0, "lat": 38.91821366666667, "rental_uris": {"ios": "https://dc.lft.to/lastmile_qr_scan", "android": "https://dc.lft.to/lastmile_qr_scan"}, "is_reserved": 0, "lon": -77.0344415, "fusion_lat": 0.0, "name": "2ac9c97c4f07713b031f5977e716c94a"}, {"type": "electric_scooter", "fusion_lon": 0.0, "bike_id": "150df846d2cae778f93b271059bd24e9", "is_disabled": 0, "lat": 38.90353616666667, "rental_uris": {"ios": "https://dc.lft.to/lastmile_qr_scan", "android": "https://dc.lft.to/lastmile_qr_scan"}, "is_reserved": 0, "lon": -77.04330633333333, "fusion_lat": 0.0, "name": "150df846d2cae778f93b271059bd24e9"}, {"type": "electric_bike", "fusion_lon": 0.0, "bike_id": "f418ec3a4830564c6dc6ad018fdf914c", "is_disabled": 0, "lat": 38.890159, "rental_uris": {"ios": "https://dc.lft.to/lastmile_qr_scan", "android": "https://dc.lft.to/lastmile_qr_scan"}, "is_reserved": 0, "lon": -76.9416925, "fusion_lat": 0.0, "name": "f418ec3a4830564c6dc6ad018fdf914c"}, {"type": "electric_scooter", "fusion_lon": 0.0, "bike_id": "92c35be1e9d08cefe0083ef680f256cc", "is_disabled": 0, "lat": 38.91185516666667, "rental_uris": {"ios": "https://dc.lft.to/lastmile_qr_scan", "android": "https://dc.lft.to/lastmile_qr_scan"}, "is_reserved": 0, "lon": -77.04292, "fusion_lat": 0.0, "name": "92c35be1e9d08cefe0083ef680f256cc"}, {"type": "electric_scooter", "fusion_lon": 0.0, "bike_id": "4cc90447b1f0bf70242445d412b9b54c", "is_disabled": 0, "lat": 38.91820883333333, "rental_uris": {"ios": "https://dc.lft.to/lastmile_qr_scan", "android": "https://dc.lft.to/lastmile_qr_scan"}, "is_reserved": 0, "lon": -77.03135166666667, "fusion_lat": 0.0, "name": "4cc90447b1f0bf70242445d412b9b54c"}, {"type": "electric_scooter", "fusion_lon": 0.0, "bike_id": "dab0f89114fa8c739baab18364361c54", "is_disabled": 0, "lat": 38.9039405, "rental_uris": {"ios": "https://dc.lft.to/lastmile_qr_scan", "android": "https://dc.lft.to/lastmile_qr_scan"}, "is_reserved": 0, "lon": -77.01746916666667, "fusion_lat": 0.0, "name": "dab0f89114fa8c739baab18364361c54"}, {"type": "electric_scooter", "fusion_lon": 0.0, "bike_id": "6cb4849b40789ec792278c94dddf0e10", "is_disabled": 0, "lat": 38.904221666666665, "rental_uris": {"ios": "https://dc.lft.to/lastmile_qr_scan", "android": "https://dc.lft.to/lastmile_qr_scan"}, "is_reserved": 0, "lon": -77.01840516666667, "fusion_lat": 0.0, "name": "6cb4849b40789ec792278c94dddf0e10"}, {"type": "electric_scooter", "fusion_lon": 0.0, "bike_id": "b7ff90fe44307b2f41a66296c268b218", "is_disabled": 0, "lat": 38.87866616666667, "rental_uris": {"ios": "https://dc.lft.to/lastmile_qr_scan", "android": "https://dc.lft.to/lastmile_qr_scan"}, "is_reserved": 0, "lon": -76.96256733333334, "fusion_lat": 0.0, "name": "b7ff90fe44307b2f41a66296c268b218"}, {"type": "electric_scooter", "fusion_lon": 0.0, "bike_id": "2f2dbf2397790d89f68152fa54cc3abc", "is_disabled": 0, "lat": 38.90574466666666, "rental_uris": {"ios": "https://dc.lft.to/lastmile_qr_scan", "android": "https://dc.lft.to/lastmile_qr_scan"}, "is_reserved": 0, "lon": -77.043522, "fusion_lat": 0.0, "name": "2f2dbf2397790d89f68152fa54cc3abc"}, {"type": "electric_scooter", "fusion_lon": 0.0, "bike_id": "a643b339ae41f0bd57b484fa3204505e", "is_disabled": 0, "lat": 38.89221, "rental_uris": {"ios": "https://dc.lft.to/lastmile_qr_scan", "android": "https://dc.lft.to/lastmile_qr_scan"}, "is_reserved": 0, "lon": -77.0321605, "fusion_lat": 0.0, "name": "a643b339ae41f0bd57b484fa3204505e"}, {"type": "electric_scooter", "fusion_lon": 0.0, "bike_id": "f97794b8e527f430736952d5ffc7b728", "is_disabled": 0, "lat": 38.912658, "rental_uris": {"ios": "https://dc.lft.to/lastmile_qr_scan", "android": "https://dc.lft.to/lastmile_qr_scan"}, "is_reserved": 0, "lon": -77.03797116666667, "fusion_lat": 0.0, "name": "f97794b8e527f430736952d5ffc7b728"}, {"type": "electric_bike", "fusion_lon": 0.0, "bike_id": "f7a8920e1c2bdab80a85447b5e8b8ca0", "is_disabled": 0, "lat": 38.862357833333334, "rental_uris": {"ios": "https://dc.lft.to/lastmile_qr_scan", "android": "https://dc.lft.to/lastmile_qr_scan"}, "is_reserved": 0, "lon": -76.99587716666667, "fusion_lat": 0.0, "name": "f7a8920e1c2bdab80a85447b5e8b8ca0"}, {"type": "electric_scooter", "fusion_lon": 0.0, "bike_id": "bce2ea9e8a753d5d644a2b8673203a06", "is_disabled": 0, "lat": 38.91703833333333, "rental_uris": {"ios": "https://dc.lft.to/lastmile_qr_scan", "android": "https://dc.lft.to/lastmile_qr_scan"}, "is_reserved": 0, "lon": -77.03465366666667, "fusion_lat": 0.0, "name": "bce2ea9e8a753d5d644a2b8673203a06"}, {"type": "electric_scooter", "fusion_lon": 0.0, "bike_id": "395d70d07c1459bd46d89fa904917e3c", "is_disabled": 0, "lat": 38.908460166666664, "rental_uris": {"ios": "https://dc.lft.to/lastmile_qr_scan", "android": "https://dc.lft.to/lastmile_qr_scan"}, "is_reserved": 0, "lon": -76.99681083333333, "fusion_lat": 0.0, "name": "395d70d07c1459bd46d89fa904917e3c"}, {"type": "electric_scooter", "fusion_lon": 0.0, "bike_id": "c970c14cf28ade6ec9e97d28bdb94750", "is_disabled": 0, "lat": 38.900410666666666, "rental_uris": {"ios": "https://dc.lft.to/lastmile_qr_scan", "android": "https://dc.lft.to/lastmile_qr_scan"}, "is_reserved": 0, "lon": -77.02411116666667, "fusion_lat": 0.0, "name": "c970c14cf28ade6ec9e97d28bdb94750"}, {"type": "electric_scooter", "fusion_lon": 0.0, "bike_id": "e1fe7911a1fc15b6972ad718f7c88c32", "is_disabled": 0, "lat": 38.9051735, "rental_uris": {"ios": "https://dc.lft.to/lastmile_qr_scan", "android": "https://dc.lft.to/lastmile_qr_scan"}, "is_reserved": 0, "lon": -77.02937983333334, "fusion_lat": 0.0, "name": "e1fe7911a1fc15b6972ad718f7c88c32"}, {"type": "electric_scooter", "fusion_lon": 0.0, "bike_id": "da7192595afc8ed35302a1610f827624", "is_disabled": 0, "lat": 38.917680833333335, "rental_uris": {"ios": "https://dc.lft.to/lastmile_qr_scan", "android": "https://dc.lft.to/lastmile_qr_scan"}, "is_reserved": 0, "lon": -77.0234125, "fusion_lat": 0.0, "name": "da7192595afc8ed35302a1610f827624"}, {"type": "electric_scooter", "fusion_lon": 0.0, "bike_id": "dfda4399297547964f57541d339f4a85", "is_disabled": 0, "lat": 38.92247833333333, "rental_uris": {"ios": "https://dc.lft.to/lastmile_qr_scan", "android": "https://dc.lft.to/lastmile_qr_scan"}, "is_reserved": 0, "lon": -77.07346133333333, "fusion_lat": 0.0, "name": "dfda4399297547964f57541d339f4a85"}, {"type": "electric_scooter", "fusion_lon": 0.0, "bike_id": "dcac1c11b52091ae204973457113e1f6", "is_disabled": 0, "lat": 38.87671816666667, "rental_uris": {"ios": "https://dc.lft.to/lastmile_qr_scan", "android": "https://dc.lft.to/lastmile_qr_scan"}, "is_reserved": 0, "lon": -77.00937166666667, "fusion_lat": 0.0, "name": "dcac1c11b52091ae204973457113e1f6"}, {"type": "electric_bike", "fusion_lon": 0.0, "bike_id": "4b68c106d9c1ab71b17497ff5a90b89c", "is_disabled": 0, "lat": 38.9221165, "rental_uris": {"ios": "https://dc.lft.to/lastmile_qr_scan", "android": "https://dc.lft.to/lastmile_qr_scan"}, "is_reserved": 0, "lon": -77.0818855, "fusion_lat": 0.0, "name": "4b68c106d9c1ab71b17497ff5a90b89c"}, {"type": "electric_scooter", "fusion_lon": 0.0, "bike_id": "e00faba0760ea7d313d7f9afa462d59d", "is_disabled": 0, "lat": 38.9195535, "rental_uris": {"ios": "https://dc.lft.to/lastmile_qr_scan", "android": "https://dc.lft.to/lastmile_qr_scan"}, "is_reserved": 0, "lon": -77.02406133333334, "fusion_lat": 0.0, "name": "e00faba0760ea7d313d7f9afa462d59d"}, {"type": "electric_bike", "fusion_lon": 0.0, "bike_id": "655410a58b0b370a8808da5157e2d796", "is_disabled": 0, "lat": 38.85613516666667, "rental_uris": {"ios": "https://dc.lft.to/lastmile_qr_scan", "android": "https://dc.lft.to/lastmile_qr_scan"}, "is_reserved": 0, "lon": -77.11180983333334, "fusion_lat": 0.0, "name": "655410a58b0b370a8808da5157e2d796"}, {"type": "electric_scooter", "fusion_lon": 0.0, "bike_id": "663f7e396161fbeccc33a901671c6bbe", "is_disabled": 0, "lat": 38.87786, "rental_uris": {"ios": "https://dc.lft.to/lastmile_qr_scan", "android": "https://dc.lft.to/lastmile_qr_scan"}, "is_reserved": 0, "lon": -76.99409233333333, "fusion_lat": 0.0, "name": "663f7e396161fbeccc33a901671c6bbe"}, {"type": "electric_scooter", "fusion_lon": 0.0, "bike_id": "2bf2efce5823d244a222bf75b3131355", "is_disabled": 0, "lat": 38.8923705, "rental_uris": {"ios": "https://dc.lft.to/lastmile_qr_scan", "android": "https://dc.lft.to/lastmile_qr_scan"}, "is_reserved": 0, "lon": -77.03210283333334, "fusion_lat": 0.0, "name": "2bf2efce5823d244a222bf75b3131355"}, {"type": "electric_scooter", "fusion_lon": 0.0, "bike_id": "09508f4af075cedff1e2e3537721caf0", "is_disabled": 0, "lat": 38.9333245, "rental_uris": {"ios": "https://dc.lft.to/lastmile_qr_scan", "android": "https://dc.lft.to/lastmile_qr_scan"}, "is_reserved": 0, "lon": -77.0380695, "fusion_lat": 0.0, "name": "09508f4af075cedff1e2e3537721caf0"}, {"type": "electric_scooter", "fusion_lon": 0.0, "bike_id": "73ccc4fb5f4e19ce76b0bb952308158d", "is_disabled": 0, "lat": 38.90563083333333, "rental_uris": {"ios": "https://dc.lft.to/lastmile_qr_scan", "android": "https://dc.lft.to/lastmile_qr_scan"}, "is_reserved": 0, "lon": -77.03477383333333, "fusion_lat": 0.0, "name": "73ccc4fb5f4e19ce76b0bb952308158d"}, {"type": "electric_scooter", "fusion_lon": 0.0, "bike_id": "3f40a10d905f31637bd97573dce6a2d5", "is_disabled": 0, "lat": 38.892318333333336, "rental_uris": {"ios": "https://dc.lft.to/lastmile_qr_scan", "android": "https://dc.lft.to/lastmile_qr_scan"}, "is_reserved": 0, "lon": -77.04657183333333, "fusion_lat": 0.0, "name": "3f40a10d905f31637bd97573dce6a2d5"}, {"type": "electric_scooter", "fusion_lon": 0.0, "bike_id": "aefefdd00d2ba1cd12f72d58507386ce", "is_disabled": 0, "lat": 38.92053333333333, "rental_uris": {"ios": "https://dc.lft.to/lastmile_qr_scan", "android": "https://dc.lft.to/lastmile_qr_scan"}, "is_reserved": 0, "lon": -77.0343515, "fusion_lat": 0.0, "name": "aefefdd00d2ba1cd12f72d58507386ce"}, {"type": "electric_scooter", "fusion_lon": 0.0, "bike_id": "24cb39ade5b4fed8d7f4bad2904f0a43", "is_disabled": 0, "lat": 38.94906233333333, "rental_uris": {"ios": "https://dc.lft.to/lastmile_qr_scan", "android": "https://dc.lft.to/lastmile_qr_scan"}, "is_reserved": 0, "lon": -77.02388866666666, "fusion_lat": 0.0, "name": "24cb39ade5b4fed8d7f4bad2904f0a43"}, {"type": "electric_scooter", "fusion_lon": 0.0, "bike_id": "76c86eb15717f3a694874d52e135e415", "is_disabled": 0, "lat": 38.904975, "rental_uris": {"ios": "https://dc.lft.to/lastmile_qr_scan", "android": "https://dc.lft.to/lastmile_qr_scan"}, "is_reserved": 0, "lon": -77.02596083333333, "fusion_lat": 0.0, "name": "76c86eb15717f3a694874d52e135e415"}, {"type": "electric_scooter", "fusion_lon": 0.0, "bike_id": "b8c1a569b632342e0e522d1f84e50085", "is_disabled": 0, "lat": 38.92348033333333, "rental_uris": {"ios": "https://dc.lft.to/lastmile_qr_scan", "android": "https://dc.lft.to/lastmile_qr_scan"}, "is_reserved": 0, "lon": -77.0363815, "fusion_lat": 0.0, "name": "b8c1a569b632342e0e522d1f84e50085"}, {"type": "electric_scooter", "fusion_lon": 0.0, "bike_id": "2ab0675142b0785f9ee3e3a46dad50e4", "is_disabled": 0, "lat": 38.92338516666667, "rental_uris": {"ios": "https://dc.lft.to/lastmile_qr_scan", "android": "https://dc.lft.to/lastmile_qr_scan"}, "is_reserved": 0, "lon": -77.0361505, "fusion_lat": 0.0, "name": "2ab0675142b0785f9ee3e3a46dad50e4"}, {"type": "electric_scooter", "fusion_lon": 0.0, "bike_id": "98cda86114349129d1e425c2e868d52e", "is_disabled": 0, "lat": 38.927843, "rental_uris": {"ios": "https://dc.lft.to/lastmile_qr_scan", "android": "https://dc.lft.to/lastmile_qr_scan"}, "is_reserved": 0, "lon": -77.05417283333334, "fusion_lat": 0.0, "name": "98cda86114349129d1e425c2e868d52e"}, {"type": "electric_scooter", "fusion_lon": 0.0, "bike_id": "8502016bd716026b3e295a30f075d705", "is_disabled": 0, "lat": 38.9027065, "rental_uris": {"ios": "https://dc.lft.to/lastmile_qr_scan", "android": "https://dc.lft.to/lastmile_qr_scan"}, "is_reserved": 0, "lon": -77.00328133333333, "fusion_lat": 0.0, "name": "8502016bd716026b3e295a30f075d705"}, {"type": "electric_bike", "fusion_lon": 0.0, "bike_id": "99f19162637d07cb5bc570c71fe57e0c", "is_disabled": 0, "lat": 38.9646645, "rental_uris": {"ios": "https://dc.lft.to/lastmile_qr_scan", "android": "https://dc.lft.to/lastmile_qr_scan"}, "is_reserved": 0, "lon": -77.03563466666667, "fusion_lat": 0.0, "name": "99f19162637d07cb5bc570c71fe57e0c"}, {"type": "electric_bike", "fusion_lon": 0.0, "bike_id": "8136e878e7751c8ddcbdb4efa52e0521", "is_disabled": 0, "lat": 38.92267016666667, "rental_uris": {"ios": "https://dc.lft.to/lastmile_qr_scan", "android": "https://dc.lft.to/lastmile_qr_scan"}, "is_reserved": 0, "lon": -77.03683266666667, "fusion_lat": 0.0, "name": "8136e878e7751c8ddcbdb4efa52e0521"}, {"type": "electric_bike", "fusion_lon": 0.0, "bike_id": "39312f1f0ac0f382eab9434a572c9e8d", "is_disabled": 0, "lat": 38.89198716666667, "rental_uris": {"ios": "https://dc.lft.to/lastmile_qr_scan", "android": "https://dc.lft.to/lastmile_qr_scan"}, "is_reserved": 0, "lon": -76.99395416666667, "fusion_lat": 0.0, "name": "39312f1f0ac0f382eab9434a572c9e8d"}, {"type": "electric_scooter", "fusion_lon": 0.0, "bike_id": "5c9869c3c62483c9014a22c196806c3b", "is_disabled": 0, "lat": 38.8922055, "rental_uris": {"ios": "https://dc.lft.to/lastmile_qr_scan", "android": "https://dc.lft.to/lastmile_qr_scan"}, "is_reserved": 0, "lon": -77.0316225, "fusion_lat": 0.0, "name": "5c9869c3c62483c9014a22c196806c3b"}, {"type": "electric_scooter", "fusion_lon": 0.0, "bike_id": "999f573a7aa7529787a92ca4360528b9", "is_disabled": 0, "lat": 38.892241166666665, "rental_uris": {"ios": "https://dc.lft.to/lastmile_qr_scan", "android": "https://dc.lft.to/lastmile_qr_scan"}, "is_reserved": 0, "lon": -77.046885, "fusion_lat": 0.0, "name": "999f573a7aa7529787a92ca4360528b9"}, {"type": "electric_scooter", "fusion_lon": 0.0, "bike_id": "2e30fd9df6f2d4840de1d6e5f6227fdf", "is_disabled": 0, "lat": 38.905575, "rental_uris": {"ios": "https://dc.lft.to/lastmile_qr_scan", "android": "https://dc.lft.to/lastmile_qr_scan"}, "is_reserved": 0, "lon": -77.01733683333333, "fusion_lat": 0.0, "name": "2e30fd9df6f2d4840de1d6e5f6227fdf"}, {"type": "electric_scooter", "fusion_lon": 0.0, "bike_id": "67d57fabe2304d551cfb14941360d514", "is_disabled": 0, "lat": 38.901444833333336, "rental_uris": {"ios": "https://dc.lft.to/lastmile_qr_scan", "android": "https://dc.lft.to/lastmile_qr_scan"}, "is_reserved": 0, "lon": -77.04053666666667, "fusion_lat": 0.0, "name": "67d57fabe2304d551cfb14941360d514"}, {"type": "electric_scooter", "fusion_lon": 0.0, "bike_id": "7be68e0a720326f3f1bb98e53f920ac3", "is_disabled": 0, "lat": 38.90766516666667, "rental_uris": {"ios": "https://dc.lft.to/lastmile_qr_scan", "android": "https://dc.lft.to/lastmile_qr_scan"}, "is_reserved": 0, "lon": -77.03743366666667, "fusion_lat": 0.0, "name": "7be68e0a720326f3f1bb98e53f920ac3"}, {"type": "electric_scooter", "fusion_lon": 0.0, "bike_id": "edc59ee5d9718aba1e644030c58dd196", "is_disabled": 0, "lat": 38.929070833333334, "rental_uris": {"ios": "https://dc.lft.to/lastmile_qr_scan", "android": "https://dc.lft.to/lastmile_qr_scan"}, "is_reserved": 0, "lon": -77.03247233333333, "fusion_lat": 0.0, "name": "edc59ee5d9718aba1e644030c58dd196"}, {"type": "electric_scooter", "fusion_lon": 0.0, "bike_id": "b2cc9cfa3c310a36f20d0e1cfe009afe", "is_disabled": 0, "lat": 38.87886816666666, "rental_uris": {"ios": "https://dc.lft.to/lastmile_qr_scan", "android": "https://dc.lft.to/lastmile_qr_scan"}, "is_reserved": 0, "lon": -76.9654265, "fusion_lat": 0.0, "name": "b2cc9cfa3c310a36f20d0e1cfe009afe"}, {"type": "electric_bike", "fusion_lon": 0.0, "bike_id": "777aeec749130a8e83bd83ab58c089b1", "is_disabled": 0, "lat": 38.8310425, "rental_uris": {"ios": "https://dc.lft.to/lastmile_qr_scan", "android": "https://dc.lft.to/lastmile_qr_scan"}, "is_reserved": 0, "lon": -76.9940655, "fusion_lat": 0.0, "name": "777aeec749130a8e83bd83ab58c089b1"}, {"type": "electric_scooter", "fusion_lon": 0.0, "bike_id": "724fa74d2c9c218159792e5f8a5a0ad8", "is_disabled": 0, "lat": 38.927954166666666, "rental_uris": {"ios": "https://dc.lft.to/lastmile_qr_scan", "android": "https://dc.lft.to/lastmile_qr_scan"}, "is_reserved": 0, "lon": -77.03693766666666, "fusion_lat": 0.0, "name": "724fa74d2c9c218159792e5f8a5a0ad8"}, {"type": "electric_scooter", "fusion_lon": 0.0, "bike_id": "4d18048b8b34f5cfbdce005e1b464767", "is_disabled": 0, "lat": 38.87638416666667, "rental_uris": {"ios": "https://dc.lft.to/lastmile_qr_scan", "android": "https://dc.lft.to/lastmile_qr_scan"}, "is_reserved": 0, "lon": -77.00570783333333, "fusion_lat": 0.0, "name": "4d18048b8b34f5cfbdce005e1b464767"}, {"type": "electric_scooter", "fusion_lon": 0.0, "bike_id": "3939c7500cf339b447d99bab8afdcefb", "is_disabled": 0, "lat": 38.954151333333336, "rental_uris": {"ios": "https://dc.lft.to/lastmile_qr_scan", "android": "https://dc.lft.to/lastmile_qr_scan"}, "is_reserved": 0, "lon": -77.03516983333333, "fusion_lat": 0.0, "name": "3939c7500cf339b447d99bab8afdcefb"}, {"type": "electric_scooter", "fusion_lon": 0.0, "bike_id": "03e464591220a18810fa64d3b199c401", "is_disabled": 0, "lat": 38.95714133333333, "rental_uris": {"ios": "https://dc.lft.to/lastmile_qr_scan", "android": "https://dc.lft.to/lastmile_qr_scan"}, "is_reserved": 0, "lon": -77.02405516666667, "fusion_lat": 0.0, "name": "03e464591220a18810fa64d3b199c401"}, {"type": "electric_scooter", "fusion_lon": 0.0, "bike_id": "fd756555a274aa696f9b82af0e48ac15", "is_disabled": 0, "lat": 38.8922165, "rental_uris": {"ios": "https://dc.lft.to/lastmile_qr_scan", "android": "https://dc.lft.to/lastmile_qr_scan"}, "is_reserved": 0, "lon": -77.03162416666666, "fusion_lat": 0.0, "name": "fd756555a274aa696f9b82af0e48ac15"}, {"type": "electric_scooter", "fusion_lon": 0.0, "bike_id": "f9e4c4d9a1bc17859b7a0bba820c850c", "is_disabled": 0, "lat": 38.94614883333333, "rental_uris": {"ios": "https://dc.lft.to/lastmile_qr_scan", "android": "https://dc.lft.to/lastmile_qr_scan"}, "is_reserved": 0, "lon": -77.07879966666667, "fusion_lat": 0.0, "name": "f9e4c4d9a1bc17859b7a0bba820c850c"}, {"type": "electric_scooter", "fusion_lon": 0.0, "bike_id": "7c0c1fac7b2fbed7faf1ef1dbe6ed153", "is_disabled": 0, "lat": 38.936079666666664, "rental_uris": {"ios": "https://dc.lft.to/lastmile_qr_scan", "android": "https://dc.lft.to/lastmile_qr_scan"}, "is_reserved": 0, "lon": -77.037901, "fusion_lat": 0.0, "name": "7c0c1fac7b2fbed7faf1ef1dbe6ed153"}, {"type": "electric_scooter", "fusion_lon": 0.0, "bike_id": "35f5ee4d2b98d1e8e15ac6f1ae52bdfc", "is_disabled": 0, "lat": 38.909056666666665, "rental_uris": {"ios": "https://dc.lft.to/lastmile_qr_scan", "android": "https://dc.lft.to/lastmile_qr_scan"}, "is_reserved": 0, "lon": -77.002904, "fusion_lat": 0.0, "name": "35f5ee4d2b98d1e8e15ac6f1ae52bdfc"}, {"type": "electric_bike", "fusion_lon": 0.0, "bike_id": "fde3a7e4786769938a5770d4fa673652", "is_disabled": 0, "lat": 38.80756383333333, "rental_uris": {"ios": "https://dc.lft.to/lastmile_qr_scan", "android": "https://dc.lft.to/lastmile_qr_scan"}, "is_reserved": 0, "lon": -77.09454066666666, "fusion_lat": 0.0, "name": "fde3a7e4786769938a5770d4fa673652"}, {"type": "electric_scooter", "fusion_lon": 0.0, "bike_id": "faae5d971a859d0f922f289a5417a28d", "is_disabled": 0, "lat": 38.936005333333334, "rental_uris": {"ios": "https://dc.lft.to/lastmile_qr_scan", "android": "https://dc.lft.to/lastmile_qr_scan"}, "is_reserved": 0, "lon": -77.03797666666667, "fusion_lat": 0.0, "name": "faae5d971a859d0f922f289a5417a28d"}, {"type": "electric_scooter", "fusion_lon": 0.0, "bike_id": "b4fa23223d5134e85557afbd169cc47d", "is_disabled": 0, "lat": 38.9187885, "rental_uris": {"ios": "https://dc.lft.to/lastmile_qr_scan", "android": "https://dc.lft.to/lastmile_qr_scan"}, "is_reserved": 0, "lon": -77.03577033333333, "fusion_lat": 0.0, "name": "b4fa23223d5134e85557afbd169cc47d"}, {"type": "electric_scooter", "fusion_lon": 0.0, "bike_id": "69563193a6535c7192bb05805ebb96ed", "is_disabled": 0, "lat": 38.862716666666664, "rental_uris": {"ios": "https://dc.lft.to/lastmile_qr_scan", "android": "https://dc.lft.to/lastmile_qr_scan"}, "is_reserved": 0, "lon": -76.99531133333333, "fusion_lat": 0.0, "name": "69563193a6535c7192bb05805ebb96ed"}, {"type": "electric_scooter", "fusion_lon": 0.0, "bike_id": "3c4a1c890434a1cce03d86601f3b1018", "is_disabled": 0, "lat": 38.91688416666667, "rental_uris": {"ios": "https://dc.lft.to/lastmile_qr_scan", "android": "https://dc.lft.to/lastmile_qr_scan"}, "is_reserved": 0, "lon": -77.02528966666667, "fusion_lat": 0.0, "name": "3c4a1c890434a1cce03d86601f3b1018"}, {"type": "electric_scooter", "fusion_lon": 0.0, "bike_id": "2749319bfecb45aa04b247fef13cf41a", "is_disabled": 0, "lat": 38.91801683333333, "rental_uris": {"ios": "https://dc.lft.to/lastmile_qr_scan", "android": "https://dc.lft.to/lastmile_qr_scan"}, "is_reserved": 0, "lon": -77.03166416666667, "fusion_lat": 0.0, "name": "2749319bfecb45aa04b247fef13cf41a"}, {"type": "electric_scooter", "fusion_lon": 0.0, "bike_id": "b3d02b6521f056cbff31225c773d8dd6", "is_disabled": 0, "lat": 38.896061333333336, "rental_uris": {"ios": "https://dc.lft.to/lastmile_qr_scan", "android": "https://dc.lft.to/lastmile_qr_scan"}, "is_reserved": 0, "lon": -76.99885783333333, "fusion_lat": 0.0, "name": "b3d02b6521f056cbff31225c773d8dd6"}, {"type": "electric_scooter", "fusion_lon": 0.0, "bike_id": "2696eb6bbc929b3bb48f427d57258bb0", "is_disabled": 0, "lat": 38.913654333333334, "rental_uris": {"ios": "https://dc.lft.to/lastmile_qr_scan", "android": "https://dc.lft.to/lastmile_qr_scan"}, "is_reserved": 0, "lon": -77.02245466666666, "fusion_lat": 0.0, "name": "2696eb6bbc929b3bb48f427d57258bb0"}, {"type": "electric_scooter", "fusion_lon": 0.0, "bike_id": "0fa3efa781e4937ebdd448db18925fac", "is_disabled": 0, "lat": 38.916493, "rental_uris": {"ios": "https://dc.lft.to/lastmile_qr_scan", "android": "https://dc.lft.to/lastmile_qr_scan"}, "is_reserved": 0, "lon": -77.0228045, "fusion_lat": 0.0, "name": "0fa3efa781e4937ebdd448db18925fac"}, {"type": "electric_scooter", "fusion_lon": 0.0, "bike_id": "38e29b037ba6b744a2e5b085e3c65979", "is_disabled": 0, "lat": 38.911077666666664, "rental_uris": {"ios": "https://dc.lft.to/lastmile_qr_scan", "android": "https://dc.lft.to/lastmile_qr_scan"}, "is_reserved": 0, "lon": -77.01155033333333, "fusion_lat": 0.0, "name": "38e29b037ba6b744a2e5b085e3c65979"}, {"type": "electric_scooter", "fusion_lon": 0.0, "bike_id": "e4e003ade208da139e47adba551bb25d", "is_disabled": 0, "lat": 38.95417066666667, "rental_uris": {"ios": "https://dc.lft.to/lastmile_qr_scan", "android": "https://dc.lft.to/lastmile_qr_scan"}, "is_reserved": 0, "lon": -77.01367016666667, "fusion_lat": 0.0, "name": "e4e003ade208da139e47adba551bb25d"}, {"type": "electric_scooter", "fusion_lon": 0.0, "bike_id": "c032de29fb8a146b741ae47516df947e", "is_disabled": 0, "lat": 38.86535666666666, "rental_uris": {"ios": "https://dc.lft.to/lastmile_qr_scan", "android": "https://dc.lft.to/lastmile_qr_scan"}, "is_reserved": 0, "lon": -76.98709216666667, "fusion_lat": 0.0, "name": "c032de29fb8a146b741ae47516df947e"}, {"type": "electric_scooter", "fusion_lon": 0.0, "bike_id": "52c77bca19f54572d6ad766d986b3453", "is_disabled": 0, "lat": 38.966110666666665, "rental_uris": {"ios": "https://dc.lft.to/lastmile_qr_scan", "android": "https://dc.lft.to/lastmile_qr_scan"}, "is_reserved": 0, "lon": -77.02747733333334, "fusion_lat": 0.0, "name": "52c77bca19f54572d6ad766d986b3453"}, {"type": "electric_scooter", "fusion_lon": 0.0, "bike_id": "5d390f18b8e3f557b81e87a6fa4a8bc4", "is_disabled": 0, "lat": 38.93941066666667, "rental_uris": {"ios": "https://dc.lft.to/lastmile_qr_scan", "android": "https://dc.lft.to/lastmile_qr_scan"}, "is_reserved": 0, "lon": -77.0752235, "fusion_lat": 0.0, "name": "5d390f18b8e3f557b81e87a6fa4a8bc4"}, {"type": "electric_scooter", "fusion_lon": 0.0, "bike_id": "af1c6c9531ffe9c7c9b0b68b783b77d8", "is_disabled": 0, "lat": 38.9339695, "rental_uris": {"ios": "https://dc.lft.to/lastmile_qr_scan", "android": "https://dc.lft.to/lastmile_qr_scan"}, "is_reserved": 0, "lon": -77.05746516666666, "fusion_lat": 0.0, "name": "af1c6c9531ffe9c7c9b0b68b783b77d8"}, {"type": "electric_scooter", "fusion_lon": 0.0, "bike_id": "34b204fd49bef17358a5e3f925fbe732", "is_disabled": 0, "lat": 38.874693666666666, "rental_uris": {"ios": "https://dc.lft.to/lastmile_qr_scan", "android": "https://dc.lft.to/lastmile_qr_scan"}, "is_reserved": 0, "lon": -77.00559566666666, "fusion_lat": 0.0, "name": "34b204fd49bef17358a5e3f925fbe732"}, {"type": "electric_scooter", "fusion_lon": 0.0, "bike_id": "1e06dce1812711e9e0941905340cb125", "is_disabled": 0, "lat": 38.90392716666667, "rental_uris": {"ios": "https://dc.lft.to/lastmile_qr_scan", "android": "https://dc.lft.to/lastmile_qr_scan"}, "is_reserved": 0, "lon": -77.01789583333333, "fusion_lat": 0.0, "name": "1e06dce1812711e9e0941905340cb125"}, {"type": "electric_scooter", "fusion_lon": 0.0, "bike_id": "09690fee32b698016cf2c17d0e470c52", "is_disabled": 0, "lat": 38.886612666666664, "rental_uris": {"ios": "https://dc.lft.to/lastmile_qr_scan", "android": "https://dc.lft.to/lastmile_qr_scan"}, "is_reserved": 0, "lon": -77.02826416666667, "fusion_lat": 0.0, "name": "09690fee32b698016cf2c17d0e470c52"}, {"type": "electric_scooter", "fusion_lon": 0.0, "bike_id": "829624792f9f5060451ce66331dce626", "is_disabled": 0, "lat": 38.92656383333333, "rental_uris": {"ios": "https://dc.lft.to/lastmile_qr_scan", "android": "https://dc.lft.to/lastmile_qr_scan"}, "is_reserved": 0, "lon": -77.02435433333333, "fusion_lat": 0.0, "name": "829624792f9f5060451ce66331dce626"}, {"type": "electric_bike", "fusion_lon": 0.0, "bike_id": "c89767ad40884edb167105a6cbedeeae", "is_disabled": 0, "lat": 38.835847666666666, "rental_uris": {"ios": "https://dc.lft.to/lastmile_qr_scan", "android": "https://dc.lft.to/lastmile_qr_scan"}, "is_reserved": 0, "lon": -77.00137216666667, "fusion_lat": 0.0, "name": "c89767ad40884edb167105a6cbedeeae"}, {"type": "electric_scooter", "fusion_lon": 0.0, "bike_id": "32c65fa2f43b343f1683e12276c895db", "is_disabled": 0, "lat": 38.892298833333335, "rental_uris": {"ios": "https://dc.lft.to/lastmile_qr_scan", "android": "https://dc.lft.to/lastmile_qr_scan"}, "is_reserved": 0, "lon": -77.0466155, "fusion_lat": 0.0, "name": "32c65fa2f43b343f1683e12276c895db"}, {"type": "electric_scooter", "fusion_lon": 0.0, "bike_id": "61b668ecf507807970421f20b8e38fc0", "is_disabled": 0, "lat": 38.9142075, "rental_uris": {"ios": "https://dc.lft.to/lastmile_qr_scan", "android": "https://dc.lft.to/lastmile_qr_scan"}, "is_reserved": 0, "lon": -77.01079016666667, "fusion_lat": 0.0, "name": "61b668ecf507807970421f20b8e38fc0"}, {"type": "electric_scooter", "fusion_lon": 0.0, "bike_id": "b87290577e1f994feb06fbfe65fd5567", "is_disabled": 0, "lat": 38.9047495, "rental_uris": {"ios": "https://dc.lft.to/lastmile_qr_scan", "android": "https://dc.lft.to/lastmile_qr_scan"}, "is_reserved": 0, "lon": -77.02721933333333, "fusion_lat": 0.0, "name": "b87290577e1f994feb06fbfe65fd5567"}, {"type": "electric_scooter", "fusion_lon": 0.0, "bike_id": "7630e072fc6a8bbabe738ab057ad42f9", "is_disabled": 0, "lat": 38.91961516666667, "rental_uris": {"ios": "https://dc.lft.to/lastmile_qr_scan", "android": "https://dc.lft.to/lastmile_qr_scan"}, "is_reserved": 0, "lon": -77.02597433333334, "fusion_lat": 0.0, "name": "7630e072fc6a8bbabe738ab057ad42f9"}, {"type": "electric_scooter", "fusion_lon": 0.0, "bike_id": "8ccfb126408bccaa2b7d738c25c25a6d", "is_disabled": 0, "lat": 38.908985333333334, "rental_uris": {"ios": "https://dc.lft.to/lastmile_qr_scan", "android": "https://dc.lft.to/lastmile_qr_scan"}, "is_reserved": 0, "lon": -77.04490516666667, "fusion_lat": 0.0, "name": "8ccfb126408bccaa2b7d738c25c25a6d"}, {"type": "electric_scooter", "fusion_lon": 0.0, "bike_id": "b2cab5bdd0f608c47b5f32d0b80eddb8", "is_disabled": 0, "lat": 38.88294483333333, "rental_uris": {"ios": "https://dc.lft.to/lastmile_qr_scan", "android": "https://dc.lft.to/lastmile_qr_scan"}, "is_reserved": 0, "lon": -77.02206133333334, "fusion_lat": 0.0, "name": "b2cab5bdd0f608c47b5f32d0b80eddb8"}, {"type": "electric_scooter", "fusion_lon": 0.0, "bike_id": "d6b9e8f65823def28419acc15adc0396", "is_disabled": 0, "lat": 38.89236433333333, "rental_uris": {"ios": "https://dc.lft.to/lastmile_qr_scan", "android": "https://dc.lft.to/lastmile_qr_scan"}, "is_reserved": 0, "lon": -77.03211383333333, "fusion_lat": 0.0, "name": "d6b9e8f65823def28419acc15adc0396"}, {"type": "electric_scooter", "fusion_lon": 0.0, "bike_id": "a61f55a2383d5f380dc432af983ac09c", "is_disabled": 0, "lat": 38.9238355, "rental_uris": {"ios": "https://dc.lft.to/lastmile_qr_scan", "android": "https://dc.lft.to/lastmile_qr_scan"}, "is_reserved": 0, "lon": -77.03660816666667, "fusion_lat": 0.0, "name": "a61f55a2383d5f380dc432af983ac09c"}, {"type": "electric_bike", "fusion_lon": 0.0, "bike_id": "9f3224789cac6924edc6c6b5b637da65", "is_disabled": 0, "lat": 38.94037383333333, "rental_uris": {"ios": "https://dc.lft.to/lastmile_qr_scan", "android": "https://dc.lft.to/lastmile_qr_scan"}, "is_reserved": 0, "lon": -76.99469466666666, "fusion_lat": 0.0, "name": "9f3224789cac6924edc6c6b5b637da65"}, {"type": "electric_scooter", "fusion_lon": 0.0, "bike_id": "734d3d173076563f5a2f926aab5d6396", "is_disabled": 0, "lat": 38.919388833333336, "rental_uris": {"ios": "https://dc.lft.to/lastmile_qr_scan", "android": "https://dc.lft.to/lastmile_qr_scan"}, "is_reserved": 0, "lon": -77.048941, "fusion_lat": 0.0, "name": "734d3d173076563f5a2f926aab5d6396"}, {"type": "electric_scooter", "fusion_lon": 0.0, "bike_id": "8c401c32b8ce954ef49623083aff427d", "is_disabled": 0, "lat": 38.92569, "rental_uris": {"ios": "https://dc.lft.to/lastmile_qr_scan", "android": "https://dc.lft.to/lastmile_qr_scan"}, "is_reserved": 0, "lon": -77.078763, "fusion_lat": 0.0, "name": "8c401c32b8ce954ef49623083aff427d"}, {"type": "electric_scooter", "fusion_lon": 0.0, "bike_id": "096cb99388bfdc8175b1e211a256b7a1", "is_disabled": 0, "lat": 38.93302033333333, "rental_uris": {"ios": "https://dc.lft.to/lastmile_qr_scan", "android": "https://dc.lft.to/lastmile_qr_scan"}, "is_reserved": 0, "lon": -77.07236783333333, "fusion_lat": 0.0, "name": "096cb99388bfdc8175b1e211a256b7a1"}, {"type": "electric_scooter", "fusion_lon": 0.0, "bike_id": "e6d7ef31a0a84871faa81e124010e883", "is_disabled": 0, "lat": 38.920392666666665, "rental_uris": {"ios": "https://dc.lft.to/lastmile_qr_scan", "android": "https://dc.lft.to/lastmile_qr_scan"}, "is_reserved": 0, "lon": -77.04390133333334, "fusion_lat": 0.0, "name": "e6d7ef31a0a84871faa81e124010e883"}, {"type": "electric_scooter", "fusion_lon": 0.0, "bike_id": "7c1bf252c0fb51d39f905c542acee218", "is_disabled": 0, "lat": 38.89222266666667, "rental_uris": {"ios": "https://dc.lft.to/lastmile_qr_scan", "android": "https://dc.lft.to/lastmile_qr_scan"}, "is_reserved": 0, "lon": -77.048077, "fusion_lat": 0.0, "name": "7c1bf252c0fb51d39f905c542acee218"}, {"type": "electric_scooter", "fusion_lon": 0.0, "bike_id": "5b3ad6f80a4181a0d06f92905b7f39c8", "is_disabled": 0, "lat": 38.89216483333333, "rental_uris": {"ios": "https://dc.lft.to/lastmile_qr_scan", "android": "https://dc.lft.to/lastmile_qr_scan"}, "is_reserved": 0, "lon": -77.0446855, "fusion_lat": 0.0, "name": "5b3ad6f80a4181a0d06f92905b7f39c8"}, {"type": "electric_scooter", "fusion_lon": 0.0, "bike_id": "0f5d902c050e72c18ccf08d5a449340b", "is_disabled": 0, "lat": 38.92399783333333, "rental_uris": {"ios": "https://dc.lft.to/lastmile_qr_scan", "android": "https://dc.lft.to/lastmile_qr_scan"}, "is_reserved": 0, "lon": -77.02484933333334, "fusion_lat": 0.0, "name": "0f5d902c050e72c18ccf08d5a449340b"}, {"type": "electric_scooter", "fusion_lon": 0.0, "bike_id": "04ea70487963c16560ea0821fa76a57e", "is_disabled": 0, "lat": 38.91934633333334, "rental_uris": {"ios": "https://dc.lft.to/lastmile_qr_scan", "android": "https://dc.lft.to/lastmile_qr_scan"}, "is_reserved": 0, "lon": -77.024692, "fusion_lat": 0.0, "name": "04ea70487963c16560ea0821fa76a57e"}, {"type": "electric_bike", "fusion_lon": 0.0, "bike_id": "cab35302a7f1afc196b057821aa08003", "is_disabled": 0, "lat": 38.82302033333333, "rental_uris": {"ios": "https://dc.lft.to/lastmile_qr_scan", "android": "https://dc.lft.to/lastmile_qr_scan"}, "is_reserved": 0, "lon": -77.08140633333333, "fusion_lat": 0.0, "name": "cab35302a7f1afc196b057821aa08003"}, {"type": "electric_bike", "fusion_lon": 0.0, "bike_id": "c8a40c5981eada63145ab0bdd679f60b", "is_disabled": 0, "lat": 38.966858, "rental_uris": {"ios": "https://dc.lft.to/lastmile_qr_scan", "android": "https://dc.lft.to/lastmile_qr_scan"}, "is_reserved": 0, "lon": -77.0227195, "fusion_lat": 0.0, "name": "c8a40c5981eada63145ab0bdd679f60b"}, {"type": "electric_scooter", "fusion_lon": 0.0, "bike_id": "44340ebfe9a4bd871b4389e4610bf251", "is_disabled": 0, "lat": 38.89942933333333, "rental_uris": {"ios": "https://dc.lft.to/lastmile_qr_scan", "android": "https://dc.lft.to/lastmile_qr_scan"}, "is_reserved": 0, "lon": -77.045054, "fusion_lat": 0.0, "name": "44340ebfe9a4bd871b4389e4610bf251"}, {"type": "electric_scooter", "fusion_lon": 0.0, "bike_id": "fffba96bfae8dcc246e85c1dd0848bb2", "is_disabled": 0, "lat": 38.8997275, "rental_uris": {"ios": "https://dc.lft.to/lastmile_qr_scan", "android": "https://dc.lft.to/lastmile_qr_scan"}, "is_reserved": 0, "lon": -77.01594833333333, "fusion_lat": 0.0, "name": "fffba96bfae8dcc246e85c1dd0848bb2"}, {"type": "electric_scooter", "fusion_lon": 0.0, "bike_id": "ec714b949f58fe2c6af923b2f1590ef0", "is_disabled": 0, "lat": 38.92061983333333, "rental_uris": {"ios": "https://dc.lft.to/lastmile_qr_scan", "android": "https://dc.lft.to/lastmile_qr_scan"}, "is_reserved": 0, "lon": -77.04246816666667, "fusion_lat": 0.0, "name": "ec714b949f58fe2c6af923b2f1590ef0"}, {"type": "electric_scooter", "fusion_lon": 0.0, "bike_id": "5918d32f5224ccc6987c14bb6864abcb", "is_disabled": 0, "lat": 38.94198316666667, "rental_uris": {"ios": "https://dc.lft.to/lastmile_qr_scan", "android": "https://dc.lft.to/lastmile_qr_scan"}, "is_reserved": 0, "lon": -77.0258945, "fusion_lat": 0.0, "name": "5918d32f5224ccc6987c14bb6864abcb"}, {"type": "electric_scooter", "fusion_lon": 0.0, "bike_id": "54b722bc48ab01793ca26362659b2a07", "is_disabled": 0, "lat": 38.894966833333335, "rental_uris": {"ios": "https://dc.lft.to/lastmile_qr_scan", "android": "https://dc.lft.to/lastmile_qr_scan"}, "is_reserved": 0, "lon": -77.00944316666667, "fusion_lat": 0.0, "name": "54b722bc48ab01793ca26362659b2a07"}, {"type": "electric_scooter", "fusion_lon": 0.0, "bike_id": "c2e921d88819d655cc9623d636e2020f", "is_disabled": 0, "lat": 38.9004025, "rental_uris": {"ios": "https://dc.lft.to/lastmile_qr_scan", "android": "https://dc.lft.to/lastmile_qr_scan"}, "is_reserved": 0, "lon": -77.04896066666667, "fusion_lat": 0.0, "name": "c2e921d88819d655cc9623d636e2020f"}, {"type": "electric_scooter", "fusion_lon": 0.0, "bike_id": "d95d46a4d2002eb76fb4a3c644ab87be", "is_disabled": 0, "lat": 38.92589616666667, "rental_uris": {"ios": "https://dc.lft.to/lastmile_qr_scan", "android": "https://dc.lft.to/lastmile_qr_scan"}, "is_reserved": 0, "lon": -77.02582783333334, "fusion_lat": 0.0, "name": "d95d46a4d2002eb76fb4a3c644ab87be"}, {"type": "electric_scooter", "fusion_lon": 0.0, "bike_id": "bf21be3fc9ce37531ef43e2f195abf65", "is_disabled": 0, "lat": 38.9276305, "rental_uris": {"ios": "https://dc.lft.to/lastmile_qr_scan", "android": "https://dc.lft.to/lastmile_qr_scan"}, "is_reserved": 0, "lon": -77.0282485, "fusion_lat": 0.0, "name": "bf21be3fc9ce37531ef43e2f195abf65"}, {"type": "electric_scooter", "fusion_lon": 0.0, "bike_id": "21ee88e00bf71f025e97ffd48d75a196", "is_disabled": 0, "lat": 38.92056433333333, "rental_uris": {"ios": "https://dc.lft.to/lastmile_qr_scan", "android": "https://dc.lft.to/lastmile_qr_scan"}, "is_reserved": 0, "lon": -77.04183983333333, "fusion_lat": 0.0, "name": "21ee88e00bf71f025e97ffd48d75a196"}, {"type": "electric_scooter", "fusion_lon": 0.0, "bike_id": "cf583d0c923517f81e7fb56db41a9678", "is_disabled": 0, "lat": 38.921471333333336, "rental_uris": {"ios": "https://dc.lft.to/lastmile_qr_scan", "android": "https://dc.lft.to/lastmile_qr_scan"}, "is_reserved": 0, "lon": -77.0740215, "fusion_lat": 0.0, "name": "cf583d0c923517f81e7fb56db41a9678"}, {"type": "electric_scooter", "fusion_lon": 0.0, "bike_id": "f405ab47025c5ea63833e87c8df2a0c5", "is_disabled": 0, "lat": 38.90375683333333, "rental_uris": {"ios": "https://dc.lft.to/lastmile_qr_scan", "android": "https://dc.lft.to/lastmile_qr_scan"}, "is_reserved": 0, "lon": -76.99510916666667, "fusion_lat": 0.0, "name": "f405ab47025c5ea63833e87c8df2a0c5"}, {"type": "electric_scooter", "fusion_lon": 0.0, "bike_id": "9039b665553e70c33b6fc191de8bc1a3", "is_disabled": 0, "lat": 38.87796983333333, "rental_uris": {"ios": "https://dc.lft.to/lastmile_qr_scan", "android": "https://dc.lft.to/lastmile_qr_scan"}, "is_reserved": 0, "lon": -77.00724866666667, "fusion_lat": 0.0, "name": "9039b665553e70c33b6fc191de8bc1a3"}, {"type": "electric_scooter", "fusion_lon": 0.0, "bike_id": "f354a965d19bd8020574ab57afb18d72", "is_disabled": 0, "lat": 38.9199425, "rental_uris": {"ios": "https://dc.lft.to/lastmile_qr_scan", "android": "https://dc.lft.to/lastmile_qr_scan"}, "is_reserved": 0, "lon": -77.01791966666667, "fusion_lat": 0.0, "name": "f354a965d19bd8020574ab57afb18d72"}, {"type": "electric_scooter", "fusion_lon": 0.0, "bike_id": "f15f8730f1e95fb0a40dcb157ae95a11", "is_disabled": 0, "lat": 38.90730833333333, "rental_uris": {"ios": "https://dc.lft.to/lastmile_qr_scan", "android": "https://dc.lft.to/lastmile_qr_scan"}, "is_reserved": 0, "lon": -77.04475283333333, "fusion_lat": 0.0, "name": "f15f8730f1e95fb0a40dcb157ae95a11"}, {"type": "electric_scooter", "fusion_lon": 0.0, "bike_id": "1b79f851cb417725acef5e4d6bcd8284", "is_disabled": 0, "lat": 38.875466333333335, "rental_uris": {"ios": "https://dc.lft.to/lastmile_qr_scan", "android": "https://dc.lft.to/lastmile_qr_scan"}, "is_reserved": 0, "lon": -77.00537133333333, "fusion_lat": 0.0, "name": "1b79f851cb417725acef5e4d6bcd8284"}, {"type": "electric_scooter", "fusion_lon": 0.0, "bike_id": "7bef428b9086ea881dfdef4ff1d1f697", "is_disabled": 0, "lat": 38.914887, "rental_uris": {"ios": "https://dc.lft.to/lastmile_qr_scan", "android": "https://dc.lft.to/lastmile_qr_scan"}, "is_reserved": 0, "lon": -77.02581833333333, "fusion_lat": 0.0, "name": "7bef428b9086ea881dfdef4ff1d1f697"}, {"type": "electric_scooter", "fusion_lon": 0.0, "bike_id": "e111ff4edaae0946027ff8c1bdfe33ab", "is_disabled": 0, "lat": 38.92700383333333, "rental_uris": {"ios": "https://dc.lft.to/lastmile_qr_scan", "android": "https://dc.lft.to/lastmile_qr_scan"}, "is_reserved": 0, "lon": -77.023869, "fusion_lat": 0.0, "name": "e111ff4edaae0946027ff8c1bdfe33ab"}, {"type": "electric_scooter", "fusion_lon": 0.0, "bike_id": "43dd997f0469d566c7c25e760ca60b42", "is_disabled": 0, "lat": 38.884469833333334, "rental_uris": {"ios": "https://dc.lft.to/lastmile_qr_scan", "android": "https://dc.lft.to/lastmile_qr_scan"}, "is_reserved": 0, "lon": -76.942215, "fusion_lat": 0.0, "name": "43dd997f0469d566c7c25e760ca60b42"}, {"type": "electric_scooter", "fusion_lon": 0.0, "bike_id": "437b9c76feb70c6b2d30635c49db704e", "is_disabled": 0, "lat": 38.91749883333333, "rental_uris": {"ios": "https://dc.lft.to/lastmile_qr_scan", "android": "https://dc.lft.to/lastmile_qr_scan"}, "is_reserved": 0, "lon": -77.022797, "fusion_lat": 0.0, "name": "437b9c76feb70c6b2d30635c49db704e"}, {"type": "electric_scooter", "fusion_lon": 0.0, "bike_id": "54b75881adaeb8e7306b6829e4cc8064", "is_disabled": 0, "lat": 38.922057833333334, "rental_uris": {"ios": "https://dc.lft.to/lastmile_qr_scan", "android": "https://dc.lft.to/lastmile_qr_scan"}, "is_reserved": 0, "lon": -77.04703166666667, "fusion_lat": 0.0, "name": "54b75881adaeb8e7306b6829e4cc8064"}, {"type": "electric_scooter", "fusion_lon": 0.0, "bike_id": "6dea97148d036824a49bf7fe71991b51", "is_disabled": 0, "lat": 38.921512666666665, "rental_uris": {"ios": "https://dc.lft.to/lastmile_qr_scan", "android": "https://dc.lft.to/lastmile_qr_scan"}, "is_reserved": 0, "lon": -77.038683, "fusion_lat": 0.0, "name": "6dea97148d036824a49bf7fe71991b51"}, {"type": "electric_scooter", "fusion_lon": 0.0, "bike_id": "6872ed5027de656b1163787bdd5233ce", "is_disabled": 0, "lat": 38.92796833333333, "rental_uris": {"ios": "https://dc.lft.to/lastmile_qr_scan", "android": "https://dc.lft.to/lastmile_qr_scan"}, "is_reserved": 0, "lon": -77.03693883333334, "fusion_lat": 0.0, "name": "6872ed5027de656b1163787bdd5233ce"}, {"type": "electric_scooter", "fusion_lon": 0.0, "bike_id": "9239712e5c52b3b084f61c8e07e2f467", "is_disabled": 0, "lat": 38.9208565, "rental_uris": {"ios": "https://dc.lft.to/lastmile_qr_scan", "android": "https://dc.lft.to/lastmile_qr_scan"}, "is_reserved": 0, "lon": -77.07552133333333, "fusion_lat": 0.0, "name": "9239712e5c52b3b084f61c8e07e2f467"}, {"type": "electric_scooter", "fusion_lon": 0.0, "bike_id": "3929c1bd0e3288146b740908955e595e", "is_disabled": 0, "lat": 38.876022, "rental_uris": {"ios": "https://dc.lft.to/lastmile_qr_scan", "android": "https://dc.lft.to/lastmile_qr_scan"}, "is_reserved": 0, "lon": -77.00074416666666, "fusion_lat": 0.0, "name": "3929c1bd0e3288146b740908955e595e"}, {"type": "electric_scooter", "fusion_lon": 0.0, "bike_id": "db320981287d9da6ca8e3ca46d9c5d74", "is_disabled": 0, "lat": 38.9022485, "rental_uris": {"ios": "https://dc.lft.to/lastmile_qr_scan", "android": "https://dc.lft.to/lastmile_qr_scan"}, "is_reserved": 0, "lon": -76.94195816666667, "fusion_lat": 0.0, "name": "db320981287d9da6ca8e3ca46d9c5d74"}, {"type": "electric_scooter", "fusion_lon": 0.0, "bike_id": "a4a2e4e544ca9de43b3e120dba509cfd", "is_disabled": 0, "lat": 38.8872255, "rental_uris": {"ios": "https://dc.lft.to/lastmile_qr_scan", "android": "https://dc.lft.to/lastmile_qr_scan"}, "is_reserved": 0, "lon": -76.98360216666667, "fusion_lat": 0.0, "name": "a4a2e4e544ca9de43b3e120dba509cfd"}, {"type": "electric_scooter", "fusion_lon": 0.0, "bike_id": "250420cbc08405ddc940c7de5c63e5c3", "is_disabled": 0, "lat": 38.90553, "rental_uris": {"ios": "https://dc.lft.to/lastmile_qr_scan", "android": "https://dc.lft.to/lastmile_qr_scan"}, "is_reserved": 0, "lon": -76.99476133333333, "fusion_lat": 0.0, "name": "250420cbc08405ddc940c7de5c63e5c3"}, {"type": "electric_scooter", "fusion_lon": 0.0, "bike_id": "30a5a14aadf3f849590538b6f25dcede", "is_disabled": 0, "lat": 38.91557666666667, "rental_uris": {"ios": "https://dc.lft.to/lastmile_qr_scan", "android": "https://dc.lft.to/lastmile_qr_scan"}, "is_reserved": 0, "lon": -77.03837016666667, "fusion_lat": 0.0, "name": "30a5a14aadf3f849590538b6f25dcede"}, {"type": "electric_scooter", "fusion_lon": 0.0, "bike_id": "4e5b38c16e2f548d7591794b16502d5b", "is_disabled": 0, "lat": 38.914385, "rental_uris": {"ios": "https://dc.lft.to/lastmile_qr_scan", "android": "https://dc.lft.to/lastmile_qr_scan"}, "is_reserved": 0, "lon": -77.04181166666666, "fusion_lat": 0.0, "name": "4e5b38c16e2f548d7591794b16502d5b"}, {"type": "electric_scooter", "fusion_lon": 0.0, "bike_id": "ac850dc065085bb88217ffa18396ad7f", "is_disabled": 0, "lat": 38.90783916666667, "rental_uris": {"ios": "https://dc.lft.to/lastmile_qr_scan", "android": "https://dc.lft.to/lastmile_qr_scan"}, "is_reserved": 0, "lon": -77.04506416666666, "fusion_lat": 0.0, "name": "ac850dc065085bb88217ffa18396ad7f"}, {"type": "electric_scooter", "fusion_lon": 0.0, "bike_id": "7500761b2f7be43d95cc16ce065ebe2f", "is_disabled": 0, "lat": 38.905492, "rental_uris": {"ios": "https://dc.lft.to/lastmile_qr_scan", "android": "https://dc.lft.to/lastmile_qr_scan"}, "is_reserved": 0, "lon": -77.014121, "fusion_lat": 0.0, "name": "7500761b2f7be43d95cc16ce065ebe2f"}, {"type": "electric_scooter", "fusion_lon": 0.0, "bike_id": "60ee765ebe96a0897431166ba85348c7", "is_disabled": 0, "lat": 38.97373266666666, "rental_uris": {"ios": "https://dc.lft.to/lastmile_qr_scan", "android": "https://dc.lft.to/lastmile_qr_scan"}, "is_reserved": 0, "lon": -77.01854666666667, "fusion_lat": 0.0, "name": "60ee765ebe96a0897431166ba85348c7"},