{"data": {"bikes": [{"name": "66452537ad7e1acbc360c9df256692f8", "fusion_lon": 0.0, "lat": 38.911741166666665, "is_reserved": 0, "type": "electric_scooter", "bike_id": "66452537ad7e1acbc360c9df256692f8", "is_disabled": 0, "rental_uris": {"android": "https://dc.lft.to/lastmile_qr_scan", "ios": "https://dc.lft.to/lastmile_qr_scan"}, "lon": -77.0113075, "fusion_lat": 0.0}, {"name": "45b9dea2640574a0692130d31c50a4c6", "fusion_lon": 0.0, "lat": 38.86378583333333, "is_reserved": 0, "type": "electric_scooter", "bike_id": "45b9dea2640574a0692130d31c50a4c6", "is_disabled": 0, "rental_uris": {"android": "https://dc.lft.to/lastmile_qr_scan", "ios": "https://dc.lft.to/lastmile_qr_scan"}, "lon": -76.99061966666666, "fusion_lat": 0.0}, {"name": "c2984536d54cdae619df132313f72c04", "fusion_lon": 0.0, "lat": 38.94182933333333, "is_reserved": 0, "type": "electric_scooter", "bike_id": "c2984536d54cdae619df132313f72c04", "is_disabled": 0, "rental_uris": {"android": "https://dc.lft.to/lastmile_qr_scan", "ios": "https://dc.lft.to/lastmile_qr_scan"}, "lon": -77.02559533333333, "fusion_lat": 0.0}, {"name": "03eb134e2e2e2c6ed88d5c1ba394b88d", "fusion_lon": 0.0, "lat": 38.91317083333333, "is_reserved": 0, "type": "electric_bike", "bike_id": "03eb134e2e2e2c6ed88d5c1ba394b88d", "is_disabled": 0, "rental_uris": {"android": "https://dc.lft.to/lastmile_qr_scan", "ios": "https://dc.lft.to/lastmile_qr_scan"}, "lon": -77.22302, "fusion_lat": 0.0}, {"name": "01868f8c00b0bad6627f578b5c483a94", "fusion_lon": 0.0, "lat": 38.91733216666667, "is_reserved": 0, "type": "electric_scooter", "bike_id": "01868f8c00b0bad6627f578b5c483a94", "is_disabled": 0, "rental_uris": {"android": "https://dc.lft.to/lastmile_qr_scan", "ios": "https://dc.lft.to/lastmile_qr_scan"}, "lon": -77.03211716666667, "fusion_lat": 0.0}, {"name": "7474af7979d0c2a08775d557165ff90b", "fusion_lon": 0.0, "lat": 38.883813, "is_reserved": 0, "type": "electric_scooter", "bike_id": "7474af7979d0c2a08775d557165ff90b", "is_disabled": 0, "rental_uris": {"android": "https://dc.lft.to/lastmile_qr_scan", "ios": "https://dc.lft.to/lastmile_qr_scan"}, "lon": -76.9951585, "fusion_lat": 0.0}, {"name": "6dfb41caeb7cdc8a73353c7bf34b9351", "fusion_lon": 0.0, "lat": 38.89204083333333, "is_reserved": 0, "type": "electric_scooter", "bike_id": "6dfb41caeb7cdc8a73353c7bf34b9351", "is_disabled": 0, "rental_uris": {"android": "https://dc.lft.to/lastmile_qr_scan", "ios": "https://dc.lft.to/lastmile_qr_scan"}, "lon": -77.00296933333334, "fusion_lat": 0.0}, {"name": "b431f02ca38e254569f1990a48655d36", "fusion_lon": 0.0, "lat": 38.866934666666666, "is_reserved": 0, "type": "electric_scooter", "bike_id": "b431f02ca38e254569f1990a48655d36", "is_disabled": 0, "rental_uris": {"android": "https://dc.lft.to/lastmile_qr_scan", "ios": "https://dc.lft.to/lastmile_qr_scan"}, "lon": -76.985583, "fusion_lat": 0.0}, {"name": "a6731c75d69303fa613a29d4d63df5ff", "fusion_lon": 0.0, "lat": 38.931878, "is_reserved": 0, "type": "electric_scooter", "bike_id": "a6731c75d69303fa613a29d4d63df5ff", "is_disabled": 0, "rental_uris": {"android": "https://dc.lft.to/lastmile_qr_scan", "ios": "https://dc.lft.to/lastmile_qr_scan"}, "lon": -77.03877033333333, "fusion_lat": 0.0}, {"name": "aa4ffc8e4a3a67c0e6ebccb8ae3688ff", "fusion_lon": 0.0, "lat": 38.9025985, "is_reserved": 0, "type": "electric_scooter", "bike_id": "aa4ffc8e4a3a67c0e6ebccb8ae3688ff", "is_disabled": 0, "rental_uris": {"android": "https://dc.lft.to/lastmile_qr_scan", "ios": "https://dc.lft.to/lastmile_qr_scan"}, "lon": -77.03976333333334, "fusion_lat": 0.0}, {"name": "c3b133e4be043d3c5ff25580c7905f0c", "fusion_lon": 0.0, "lat": 38.91057833333333, "is_reserved": 0, "type": "electric_scooter", "bike_id": "c3b133e4be043d3c5ff25580c7905f0c", "is_disabled": 0, "rental_uris": {"android": "https://dc.lft.to/lastmile_qr_scan", "ios": "https://dc.lft.to/lastmile_qr_scan"}, "lon": -77.0539645, "fusion_lat": 0.0}, {"name": "48158d75e7150d57b8de769869a95955", "fusion_lon": 0.0, "lat": 38.904129833333336, "is_reserved": 0, "type": "electric_scooter", "bike_id": "48158d75e7150d57b8de769869a95955", "is_disabled": 0, "rental_uris": {"android": "https://dc.lft.to/lastmile_qr_scan", "ios": "https://dc.lft.to/lastmile_qr_scan"}, "lon": -76.97331883333334, "fusion_lat": 0.0}, {"name": "371caa35aa6f613fbd2d7d646ca0bbe5", "fusion_lon": 0.0, "lat": 38.971797, "is_reserved": 0, "type": "electric_scooter", "bike_id": "371caa35aa6f613fbd2d7d646ca0bbe5", "is_disabled": 0, "rental_uris": {"android": "https://dc.lft.to/lastmile_qr_scan", "ios": "https://dc.lft.to/lastmile_qr_scan"}, "lon": -77.02697983333333, "fusion_lat": 0.0}, {"name": "b7985af665e9a9a0ff7d098261a42877", "fusion_lon": 0.0, "lat": 38.90573883333333, "is_reserved": 0, "type": "electric_scooter", "bike_id": "b7985af665e9a9a0ff7d098261a42877", "is_disabled": 0, "rental_uris": {"android": "https://dc.lft.to/lastmile_qr_scan", "ios": "https://dc.lft.to/lastmile_qr_scan"}, "lon": -77.0435635, "fusion_lat": 0.0}, {"name": "7ad6a88560e9be0f162fc46944d29a1f", "fusion_lon": 0.0, "lat": 38.9288555, "is_reserved": 0, "type": "electric_scooter", "bike_id": "7ad6a88560e9be0f162fc46944d29a1f", "is_disabled": 0, "rental_uris": {"android": "https://dc.lft.to/lastmile_qr_scan", "ios": "https://dc.lft.to/lastmile_qr_scan"}, "lon": -77.01359833333333, "fusion_lat": 0.0}, {"name": "89bc304ff8c38bdf2747cd3155f35f6a", "fusion_lon": 0.0, "lat": 38.87298916666667, "is_reserved": 0, "type": "electric_bike", "bike_id": "89bc304ff8c38bdf2747cd3155f35f6a", "is_disabled": 0, "rental_uris": {"android": "https://dc.lft.to/lastmile_qr_scan", "ios": "https://dc.lft.to/lastmile_qr_scan"}, "lon": -76.96980883333333, "fusion_lat": 0.0}, {"name": "57773dc76626f493eecff56f4b99c4b0", "fusion_lon": 0.0, "lat": 38.915622166666665, "is_reserved": 0, "type": "electric_scooter", "bike_id": "57773dc76626f493eecff56f4b99c4b0", "is_disabled": 0, "rental_uris": {"android": "https://dc.lft.to/lastmile_qr_scan", "ios": "https://dc.lft.to/lastmile_qr_scan"}, "lon": -77.03167183333333, "fusion_lat": 0.0}, {"name": "31fda3c57b572b99a695c47b424c7dc3", "fusion_lon": 0.0, "lat": 38.94989, "is_reserved": 0, "type": "electric_scooter", "bike_id": "31fda3c57b572b99a695c47b424c7dc3", "is_disabled": 0, "rental_uris": {"android": "https://dc.lft.to/lastmile_qr_scan", "ios": "https://dc.lft.to/lastmile_qr_scan"}, "lon": -77.02703533333333, "fusion_lat": 0.0}, {"name": "3dac1600269357971d88998fe9a340f3", "fusion_lon": 0.0, "lat": 39.000330166666664, "is_reserved": 0, "type": "electric_bike", "bike_id": "3dac1600269357971d88998fe9a340f3", "is_disabled": 0, "rental_uris": {"android": "https://dc.lft.to/lastmile_qr_scan", "ios": "https://dc.lft.to/lastmile_qr_scan"}, "lon": -77.04743233333333, "fusion_lat": 0.0}, {"name": "d42ac4df3af8de36ab6ca50acc6c6b52", "fusion_lon": 0.0, "lat": 38.88401066666667, "is_reserved": 0, "type": "electric_scooter", "bike_id": "d42ac4df3af8de36ab6ca50acc6c6b52", "is_disabled": 0, "rental_uris": {"android": "https://dc.lft.to/lastmile_qr_scan", "ios": "https://dc.lft.to/lastmile_qr_scan"}, "lon": -77.02578316666667, "fusion_lat": 0.0}, {"name": "480222ab9f6d827cb73c6b7eb9a9a329", "fusion_lon": 0.0, "lat": 38.911273333333334, "is_reserved": 0, "type": "electric_scooter", "bike_id": "480222ab9f6d827cb73c6b7eb9a9a329", "is_disabled": 0, "rental_uris": {"android": "https://dc.lft.to/lastmile_qr_scan", "ios": "https://dc.lft.to/lastmile_qr_scan"}, "lon": -77.02245016666667, "fusion_lat": 0.0}, {"name": "e0cf7dcaec8645408593e8781262a305", "fusion_lon": 0.0, "lat": 38.87816433333333, "is_reserved": 0, "type": "electric_scooter", "bike_id": "e0cf7dcaec8645408593e8781262a305", "is_disabled": 0, "rental_uris": {"android": "https://dc.lft.to/lastmile_qr_scan", "ios": "https://dc.lft.to/lastmile_qr_scan"}, "lon": -76.93101716666666, "fusion_lat": 0.0}, {"name": "6dd7823aa90dcbaaac461e69e3299e9f", "fusion_lon": 0.0, "lat": 38.926151, "is_reserved": 0, "type": "electric_scooter", "bike_id": "6dd7823aa90dcbaaac461e69e3299e9f", "is_disabled": 0, "rental_uris": {"android": "https://dc.lft.to/lastmile_qr_scan", "ios": "https://dc.lft.to/lastmile_qr_scan"}, "lon": -77.024205, "fusion_lat": 0.0}, {"name": "d3b61a978b4c9d96b8c52026211e00f2", "fusion_lon": 0.0, "lat": 38.88365983333333, "is_reserved": 0, "type": "electric_scooter", "bike_id": "d3b61a978b4c9d96b8c52026211e00f2", "is_disabled": 0, "rental_uris": {"android": "https://dc.lft.to/lastmile_qr_scan", "ios": "https://dc.lft.to/lastmile_qr_scan"}, "lon": -76.99485566666667, "fusion_lat": 0.0}, {"name": "19d4b94d97897cc5745209176e8116a0", "fusion_lon": 0.0, "lat": 38.91553416666667, "is_reserved": 0, "type": "electric_scooter", "bike_id": "19d4b94d97897cc5745209176e8116a0", "is_disabled": 0, "rental_uris": {"android": "https://dc.lft.to/lastmile_qr_scan", "ios": "https://dc.lft.to/lastmile_qr_scan"}, "lon": -77.05317133333334, "fusion_lat": 0.0}, {"name": "6dd37381ba8a8aa2654ab51ff2749796", "fusion_lon": 0.0, "lat": 38.92543883333333, "is_reserved": 0, "type": "electric_scooter", "bike_id": "6dd37381ba8a8aa2654ab51ff2749796", "is_disabled": 0, "rental_uris": {"android": "https://dc.lft.to/lastmile_qr_scan", "ios": "https://dc.lft.to/lastmile_qr_scan"}, "lon": -76.972221, "fusion_lat": 0.0}, {"name": "2ac7874317441efbabc8d8915259203f", "fusion_lon": 0.0, "lat": 38.927750333333336, "is_reserved": 0, "type": "electric_scooter", "bike_id": "2ac7874317441efbabc8d8915259203f", "is_disabled": 0, "rental_uris": {"android": "https://dc.lft.to/lastmile_qr_scan", "ios": "https://dc.lft.to/lastmile_qr_scan"}, "lon": -77.027782, "fusion_lat": 0.0}, {"name": "bbdebc2528d3d1add4895f714c5da42d", "fusion_lon": 0.0, "lat": 38.8869345, "is_reserved": 0, "type": "electric_scooter", "bike_id": "bbdebc2528d3d1add4895f714c5da42d", "is_disabled": 0, "rental_uris": {"android": "https://dc.lft.to/lastmile_qr_scan", "ios": "https://dc.lft.to/lastmile_qr_scan"}, "lon": -76.976391, "fusion_lat": 0.0}, {"name": "3349defd02e7f24270a98fc531413905", "fusion_lon": 0.0, "lat": 38.90371833333333, "is_reserved": 0, "type": "electric_scooter", "bike_id": "3349defd02e7f24270a98fc531413905", "is_disabled": 0, "rental_uris": {"android": "https://dc.lft.to/lastmile_qr_scan", "ios": "https://dc.lft.to/lastmile_qr_scan"}, "lon": -77.04510016666667, "fusion_lat": 0.0}, {"name": "79d8e41864ae5f5b66d31c457289d63d", "fusion_lon": 0.0, "lat": 38.879406833333334, "is_reserved": 0, "type": "electric_scooter", "bike_id": "79d8e41864ae5f5b66d31c457289d63d", "is_disabled": 0, "rental_uris": {"android": "https://dc.lft.to/lastmile_qr_scan", "ios": "https://dc.lft.to/lastmile_qr_scan"}, "lon": -77.00529183333333, "fusion_lat": 0.0}, {"name": "5f37d7cc21cdd2855d01b644f8075080", "fusion_lon": 0.0, "lat": 38.924420833333336, "is_reserved": 0, "type": "electric_scooter", "bike_id": "5f37d7cc21cdd2855d01b644f8075080", "is_disabled": 0, "rental_uris": {"android": "https://dc.lft.to/lastmile_qr_scan", "ios": "https://dc.lft.to/lastmile_qr_scan"}, "lon": -77.04256583333333, "fusion_lat": 0.0}, {"name": "4bc583a90d80bedecc3e755a7282428d", "fusion_lon": 0.0, "lat": 38.9339475, "is_reserved": 0, "type": "electric_scooter", "bike_id": "4bc583a90d80bedecc3e755a7282428d", "is_disabled": 0, "rental_uris": {"android": "https://dc.lft.to/lastmile_qr_scan", "ios": "https://dc.lft.to/lastmile_qr_scan"}, "lon": -77.023352, "fusion_lat": 0.0}, {"name": "5b9fdba7818b4edbcda27a0f3981d1a2", "fusion_lon": 0.0, "lat": 38.924660833333334, "is_reserved": 0, "type": "electric_scooter", "bike_id": "5b9fdba7818b4edbcda27a0f3981d1a2", "is_disabled": 0, "rental_uris": {"android": "https://dc.lft.to/lastmile_qr_scan", "ios": "https://dc.lft.to/lastmile_qr_scan"}, "lon": -77.08163166666667, "fusion_lat": 0.0}, {"name": "0ab0c1201125d539a9ca7f2eec92e722", "fusion_lon": 0.0, "lat": 38.900174666666665, "is_reserved": 0, "type": "electric_scooter", "bike_id": "0ab0c1201125d539a9ca7f2eec92e722", "is_disabled": 0, "rental_uris": {"android": "https://dc.lft.to/lastmile_qr_scan", "ios": "https://dc.lft.to/lastmile_qr_scan"}, "lon": -76.93031633333334, "fusion_lat": 0.0}, {"name": "4dfb1b2dfec23162b1aaf32cc49b2783", "fusion_lon": 0.0, "lat": 38.93536916666667, "is_reserved": 0, "type": "electric_scooter", "bike_id": "4dfb1b2dfec23162b1aaf32cc49b2783", "is_disabled": 0, "rental_uris": {"android": "https://dc.lft.to/lastmile_qr_scan", "ios": "https://dc.lft.to/lastmile_qr_scan"}, "lon": -77.03476533333334, "fusion_lat": 0.0}, {"name": "20db026d8d1ae03ddcf89efbd21dff81", "fusion_lon": 0.0, "lat": 38.92716433333333, "is_reserved": 0, "type": "electric_scooter", "bike_id": "20db026d8d1ae03ddcf89efbd21dff81", "is_disabled": 0, "rental_uris": {"android": "https://dc.lft.to/lastmile_qr_scan", "ios": "https://dc.lft.to/lastmile_qr_scan"}, "lon": -77.0210095, "fusion_lat": 0.0}, {"name": "776bb18726562a06b8e0a8fd0509fca5", "fusion_lon": 0.0, "lat": 38.90834, "is_reserved": 0, "type": "electric_scooter", "bike_id": "776bb18726562a06b8e0a8fd0509fca5", "is_disabled": 0, "rental_uris": {"android": "https://dc.lft.to/lastmile_qr_scan", "ios": "https://dc.lft.to/lastmile_qr_scan"}, "lon": -77.04457516666666, "fusion_lat": 0.0}, {"name": "14ebf1f0de3a54b90fc841dafd4681bc", "fusion_lon": 0.0, "lat": 38.95663483333333, "is_reserved": 0, "type": "electric_scooter", "bike_id": "14ebf1f0de3a54b90fc841dafd4681bc", "is_disabled": 0, "rental_uris": {"android": "https://dc.lft.to/lastmile_qr_scan", "ios": "https://dc.lft.to/lastmile_qr_scan"}, "lon": -77.010405, "fusion_lat": 0.0}, {"name": "c29c94006aed49dd61afd9a09c49739b", "fusion_lon": 0.0, "lat": 38.90751016666667, "is_reserved": 0, "type": "electric_scooter", "bike_id": "c29c94006aed49dd61afd9a09c49739b", "is_disabled": 0, "rental_uris": {"android": "https://dc.lft.to/lastmile_qr_scan", "ios": "https://dc.lft.to/lastmile_qr_scan"}, "lon": -76.99872316666666, "fusion_lat": 0.0}, {"name": "3f6d119c497e79a840d812a10981b653", "fusion_lon": 0.0, "lat": 38.928803, "is_reserved": 0, "type": "electric_bike", "bike_id": "3f6d119c497e79a840d812a10981b653", "is_disabled": 0, "rental_uris": {"android": "https://dc.lft.to/lastmile_qr_scan", "ios": "https://dc.lft.to/lastmile_qr_scan"}, "lon": -77.01240533333333, "fusion_lat": 0.0}, {"name": "7a0ecc93d009d8d8bcefa2f8beb6fc93", "fusion_lon": 0.0, "lat": 38.9110295, "is_reserved": 0, "type": "electric_scooter", "bike_id": "7a0ecc93d009d8d8bcefa2f8beb6fc93", "is_disabled": 0, "rental_uris": {"android": "https://dc.lft.to/lastmile_qr_scan", "ios": "https://dc.lft.to/lastmile_qr_scan"}, "lon": -77.04207016666666, "fusion_lat": 0.0}, {"name": "72afc95a0b6497cc11eaf91ae8e085d3", "fusion_lon": 0.0, "lat": 38.913841833333336, "is_reserved": 0, "type": "electric_bike", "bike_id": "72afc95a0b6497cc11eaf91ae8e085d3", "is_disabled": 0, "rental_uris": {"android": "https://dc.lft.to/lastmile_qr_scan", "ios": "https://dc.lft.to/lastmile_qr_scan"}, "lon": -77.08925283333333, "fusion_lat": 0.0}, {"name": "42da82ea096b1d652e9d5ea7b1341587", "fusion_lon": 0.0, "lat": 38.9251295, "is_reserved": 0, "type": "electric_scooter", "bike_id": "42da82ea096b1d652e9d5ea7b1341587", "is_disabled": 0, "rental_uris": {"android": "https://dc.lft.to/lastmile_qr_scan", "ios": "https://dc.lft.to/lastmile_qr_scan"}, "lon": -77.02700983333334, "fusion_lat": 0.0}, {"name": "5742771499b82ed6aae9dc9652786847", "fusion_lon": 0.0, "lat": 38.892215666666665, "is_reserved": 0, "type": "electric_bike", "bike_id": "5742771499b82ed6aae9dc9652786847", "is_disabled": 0, "rental_uris": {"android": "https://dc.lft.to/lastmile_qr_scan", "ios": "https://dc.lft.to/lastmile_qr_scan"}, "lon": -76.97081783333333, "fusion_lat": 0.0}, {"name": "39948630139f0a292c34d6bb8c23bf52", "fusion_lon": 0.0, "lat": 38.92827183333333, "is_reserved": 0, "type": "electric_scooter", "bike_id": "39948630139f0a292c34d6bb8c23bf52", "is_disabled": 0, "rental_uris": {"android": "https://dc.lft.to/lastmile_qr_scan", "ios": "https://dc.lft.to/lastmile_qr_scan"}, "lon": -77.01409016666666, "fusion_lat": 0.0}, {"name": "7af37c64e0d6a900fca40c5419c95007", "fusion_lon": 0.0, "lat": 38.844328833333336, "is_reserved": 0, "type": "electric_scooter", "bike_id": "7af37c64e0d6a900fca40c5419c95007", "is_disabled": 0, "rental_uris": {"android": "https://dc.lft.to/lastmile_qr_scan", "ios": "https://dc.lft.to/lastmile_qr_scan"}, "lon": -76.998133, "fusion_lat": 0.0}, {"name": "4aa255ff7e214d57ee68d2f42eaece26", "fusion_lon": 0.0, "lat": 38.834347666666666, "is_reserved": 0, "type": "electric_bike", "bike_id": "4aa255ff7e214d57ee68d2f42eaece26", "is_disabled": 0, "rental_uris": {"android": "https://dc.lft.to/lastmile_qr_scan", "ios": "https://dc.lft.to/lastmile_qr_scan"}, "lon": -77.10355616666666, "fusion_lat": 0.0}, {"name": "57c0e9afa6ccb027a7d0756db0baed98", "fusion_lon": 0.0, "lat": 38.919875166666664, "is_reserved": 0, "type": "electric_scooter", "bike_id": "57c0e9afa6ccb027a7d0756db0baed98", "is_disabled": 0, "rental_uris": {"android": "https://dc.lft.to/lastmile_qr_scan", "ios": "https://dc.lft.to/lastmile_qr_scan"}, "lon": -77.077003, "fusion_lat": 0.0}, {"name": "d33216a5902900ad1e95b1eebcf6ad0b", "fusion_lon": 0.0, "lat": 38.90721333333333, "is_reserved": 0, "type": "electric_scooter", "bike_id": "d33216a5902900ad1e95b1eebcf6ad0b", "is_disabled": 0, "rental_uris": {"android": "https://dc.lft.to/lastmile_qr_scan", "ios": "https://dc.lft.to/lastmile_qr_scan"}, "lon": -77.03379883333334, "fusion_lat": 0.0}, {"name": "e47d2bec3d5cfbaaf4cdd5eadaccd30e", "fusion_lon": 0.0, "lat": 38.917341666666665, "is_reserved": 0, "type": "electric_scooter", "bike_id": "e47d2bec3d5cfbaaf4cdd5eadaccd30e", "is_disabled": 0, "rental_uris": {"android": "https://dc.lft.to/lastmile_qr_scan", "ios": "https://dc.lft.to/lastmile_qr_scan"}, "lon": -77.02504966666666, "fusion_lat": 0.0}, {"name": "72e2f4354b1afb1bc042fce68ebc4abc", "fusion_lon": 0.0, "lat": 38.91775166666667, "is_reserved": 0, "type": "electric_scooter", "bike_id": "72e2f4354b1afb1bc042fce68ebc4abc", "is_disabled": 0, "rental_uris": {"android": "https://dc.lft.to/lastmile_qr_scan", "ios": "https://dc.lft.to/lastmile_qr_scan"}, "lon": -77.04059566666666, "fusion_lat": 0.0}, {"name": "bfcca6c53e310704b4b46ab47f5c65ff", "fusion_lon": 0.0, "lat": 38.9155515, "is_reserved": 0, "type": "electric_scooter", "bike_id": "bfcca6c53e310704b4b46ab47f5c65ff", "is_disabled": 0, "rental_uris": {"android": "https://dc.lft.to/lastmile_qr_scan", "ios": "https://dc.lft.to/lastmile_qr_scan"}, "lon": -77.04179533333334, "fusion_lat": 0.0}, {"name": "91a29520b47a7c3cca06f9671f542649", "fusion_lon": 0.0, "lat": 38.91742966666666, "is_reserved": 0, "type": "electric_scooter", "bike_id": "91a29520b47a7c3cca06f9671f542649", "is_disabled": 0, "rental_uris": {"android": "https://dc.lft.to/lastmile_qr_scan", "ios": "https://dc.lft.to/lastmile_qr_scan"}, "lon": -77.02118383333334, "fusion_lat": 0.0}, {"name": "fa6fabfafb29b2e243b96a57d058ccf4", "fusion_lon": 0.0, "lat": 38.92518616666667, "is_reserved": 0, "type": "electric_scooter", "bike_id": "fa6fabfafb29b2e243b96a57d058ccf4", "is_disabled": 0, "rental_uris": {"android": "https://dc.lft.to/lastmile_qr_scan", "ios": "https://dc.lft.to/lastmile_qr_scan"}, "lon": -77.02354266666667, "fusion_lat": 0.0}, {"name": "f9302a502235e72e65ccfa9aae1040b3", "fusion_lon": 0.0, "lat": 38.916956666666664, "is_reserved": 0, "type": "electric_scooter", "bike_id": "f9302a502235e72e65ccfa9aae1040b3", "is_disabled": 0, "rental_uris": {"android": "https://dc.lft.to/lastmile_qr_scan", "ios": "https://dc.lft.to/lastmile_qr_scan"}, "lon": -77.0426265, "fusion_lat": 0.0}, {"name": "0d206582bb63f3d55d57aac950f82faf", "fusion_lon": 0.0, "lat": 38.87887666666666, "is_reserved": 0, "type": "electric_bike", "bike_id": "0d206582bb63f3d55d57aac950f82faf", "is_disabled": 0, "rental_uris": {"android": "https://dc.lft.to/lastmile_qr_scan", "ios": "https://dc.lft.to/lastmile_qr_scan"}, "lon": -77.09616633333333, "fusion_lat": 0.0}, {"name": "d74bfdb3c49efad76cfa710079890d8b", "fusion_lon": 0.0, "lat": 38.8979985, "is_reserved": 0, "type": "electric_scooter", "bike_id": "d74bfdb3c49efad76cfa710079890d8b", "is_disabled": 0, "rental_uris": {"android": "https://dc.lft.to/lastmile_qr_scan", "ios": "https://dc.lft.to/lastmile_qr_scan"}, "lon": -77.00926766666667, "fusion_lat": 0.0}, {"name": "9d44ce2e5902cb593fc9f75340a1fc76", "fusion_lon": 0.0, "lat": 38.888214833333336, "is_reserved": 0, "type": "electric_scooter", "bike_id": "9d44ce2e5902cb593fc9f75340a1fc76", "is_disabled": 0, "rental_uris": {"android": "https://dc.lft.to/lastmile_qr_scan", "ios": "https://dc.lft.to/lastmile_qr_scan"}, "lon": -77.01493633333334, "fusion_lat": 0.0}, {"name": "dbeda69983a54d5fd3132b599ce7d1e6", "fusion_lon": 0.0, "lat": 38.92456466666667, "is_reserved": 0, "type": "electric_scooter", "bike_id": "dbeda69983a54d5fd3132b599ce7d1e6", "is_disabled": 0, "rental_uris": {"android": "https://dc.lft.to/lastmile_qr_scan", "ios": "https://dc.lft.to/lastmile_qr_scan"}, "lon": -77.04117716666667, "fusion_lat": 0.0}, {"name": "142ca7a262c3e35b5301ca9ae0f6eb7f", "fusion_lon": 0.0, "lat": 38.912802666666664, "is_reserved": 0, "type": "electric_scooter", "bike_id": "142ca7a262c3e35b5301ca9ae0f6eb7f", "is_disabled": 0, "rental_uris": {"android": "https://dc.lft.to/lastmile_qr_scan", "ios": "https://dc.lft.to/lastmile_qr_scan"}, "lon": -77.04501683333334, "fusion_lat": 0.0}, {"name": "d84e5c9cc1bc627414fb93b9f8e560dd", "fusion_lon": 0.0, "lat": 38.90358583333333, "is_reserved": 0, "type": "electric_scooter", "bike_id": "d84e5c9cc1bc627414fb93b9f8e560dd", "is_disabled": 0, "rental_uris": {"android": "https://dc.lft.to/lastmile_qr_scan", "ios": "https://dc.lft.to/lastmile_qr_scan"}, "lon": -77.0501945, "fusion_lat": 0.0}, {"name": "90ac7655d4ae259ae04dc7d6ee1e06fa", "fusion_lon": 0.0, "lat": 38.898472166666664, "is_reserved": 0, "type": "electric_scooter", "bike_id": "90ac7655d4ae259ae04dc7d6ee1e06fa", "is_disabled": 0, "rental_uris": {"android": "https://dc.lft.to/lastmile_qr_scan", "ios": "https://dc.lft.to/lastmile_qr_scan"}, "lon": -77.043723, "fusion_lat": 0.0}, {"name": "e94fa394483b6c6eecc74eed0cfee509", "fusion_lon": 0.0, "lat": 38.9530105, "is_reserved": 0, "type": "electric_bike", "bike_id": "e94fa394483b6c6eecc74eed0cfee509", "is_disabled": 0, "rental_uris": {"android": "https://dc.lft.to/lastmile_qr_scan", "ios": "https://dc.lft.to/lastmile_qr_scan"}, "lon": -77.02403233333334, "fusion_lat": 0.0}, {"name": "d0dc9330fc578706c0e01b44d8e813e1", "fusion_lon": 0.0, "lat": 38.951395166666664, "is_reserved": 0, "type": "electric_scooter", "bike_id": "d0dc9330fc578706c0e01b44d8e813e1", "is_disabled": 0, "rental_uris": {"android": "https://dc.lft.to/lastmile_qr_scan", "ios": "https://dc.lft.to/lastmile_qr_scan"}, "lon": -77.0272185, "fusion_lat": 0.0}, {"name": "98526c6e1a1c0a976d135031a5e3ad02", "fusion_lon": 0.0, "lat": 38.893646333333336, "is_reserved": 0, "type": "electric_scooter", "bike_id": "98526c6e1a1c0a976d135031a5e3ad02", "is_disabled": 0, "rental_uris": {"android": "https://dc.lft.to/lastmile_qr_scan", "ios": "https://dc.lft.to/lastmile_qr_scan"}, "lon": -76.99090116666666, "fusion_lat": 0.0}, {"name": "ba69dcb7580ceeda64fe3f4b4454da3e", "fusion_lon": 0.0, "lat": 38.919524, "is_reserved": 0, "type": "electric_scooter", "bike_id": "ba69dcb7580ceeda64fe3f4b4454da3e", "is_disabled": 0, "rental_uris": {"android": "https://dc.lft.to/lastmile_qr_scan", "ios": "https://dc.lft.to/lastmile_qr_scan"}, "lon": -77.02888916666667, "fusion_lat": 0.0}, {"name": "a4ad970508b3a6f36c368a5b3a7123a7", "fusion_lon": 0.0, "lat": 38.9584285, "is_reserved": 0, "type": "electric_scooter", "bike_id": "a4ad970508b3a6f36c368a5b3a7123a7", "is_disabled": 0, "rental_uris": {"android": "https://dc.lft.to/lastmile_qr_scan", "ios": "https://dc.lft.to/lastmile_qr_scan"}, "lon": -77.015149, "fusion_lat": 0.0}, {"name": "c22e2dd3c97e5d4951a0ea8eeb1c2557", "fusion_lon": 0.0, "lat": 38.92453966666667, "is_reserved": 0, "type": "electric_scooter", "bike_id": "c22e2dd3c97e5d4951a0ea8eeb1c2557", "is_disabled": 0, "rental_uris": {"android": "https://dc.lft.to/lastmile_qr_scan", "ios": "https://dc.lft.to/lastmile_qr_scan"}, "lon": -77.02271833333333, "fusion_lat": 0.0}, {"name": "7fefbd6db0dfec615074fc7bde00672b", "fusion_lon": 0.0, "lat": 38.8764825, "is_reserved": 0, "type": "electric_scooter", "bike_id": "7fefbd6db0dfec615074fc7bde00672b", "is_disabled": 0, "rental_uris": {"android": "https://dc.lft.to/lastmile_qr_scan", "ios": "https://dc.lft.to/lastmile_qr_scan"}, "lon": -76.965046, "fusion_lat": 0.0}, {"name": "bb373d9c49f8440b2166e4647b146e42", "fusion_lon": 0.0, "lat": 38.9550865, "is_reserved": 0, "type": "electric_bike", "bike_id": "bb373d9c49f8440b2166e4647b146e42", "is_disabled": 0, "rental_uris": {"android": "https://dc.lft.to/lastmile_qr_scan", "ios": "https://dc.lft.to/lastmile_qr_scan"}, "lon": -76.993539, "fusion_lat": 0.0}, {"name": "6b01b0f3f90259b14dae8d9663f562e9", "fusion_lon": 0.0, "lat": 38.895607166666665, "is_reserved": 0, "type": "electric_scooter", "bike_id": "6b01b0f3f90259b14dae8d9663f562e9", "is_disabled": 0, "rental_uris": {"android": "https://dc.lft.to/lastmile_qr_scan", "ios": "https://dc.lft.to/lastmile_qr_scan"}, "lon": -77.046751, "fusion_lat": 0.0}, {"name": "c145b9b7f023127c75dda908b97202df", "fusion_lon": 0.0, "lat": 39.03929866666667, "is_reserved": 0, "type": "electric_bike", "bike_id": "c145b9b7f023127c75dda908b97202df", "is_disabled": 0, "rental_uris": {"android": "https://dc.lft.to/lastmile_qr_scan", "ios": "https://dc.lft.to/lastmile_qr_scan"}, "lon": -77.0285505, "fusion_lat": 0.0}, {"name": "1037cb4eecddd4d25492dae6b3256aca", "fusion_lon": 0.0, "lat": 38.89227016666667, "is_reserved": 0, "type": "electric_scooter", "bike_id": "1037cb4eecddd4d25492dae6b3256aca", "is_disabled": 0, "rental_uris": {"android": "https://dc.lft.to/lastmile_qr_scan", "ios": "https://dc.lft.to/lastmile_qr_scan"}, "lon": -77.04310616666666, "fusion_lat": 0.0}, {"name": "1153e253ff288a7ef61288dd6baf3b02", "fusion_lon": 0.0, "lat": 38.9002725, "is_reserved": 0, "type": "electric_scooter", "bike_id": "1153e253ff288a7ef61288dd6baf3b02", "is_disabled": 0, "rental_uris": {"android": "https://dc.lft.to/lastmile_qr_scan", "ios": "https://dc.lft.to/lastmile_qr_scan"}, "lon": -76.99528016666666, "fusion_lat": 0.0}, {"name": "5b99d30c017d01a490a09091e8f11a92", "fusion_lon": 0.0, "lat": 38.9035115, "is_reserved": 0, "type": "electric_scooter", "bike_id": "5b99d30c017d01a490a09091e8f11a92", "is_disabled": 0, "rental_uris": {"android": "https://dc.lft.to/lastmile_qr_scan", "ios": "https://dc.lft.to/lastmile_qr_scan"}, "lon": -77.04895233333333, "fusion_lat": 0.0}, {"name": "e204b323f7fd860efe984d4c0f68b642", "fusion_lon": 0.0, "lat": 38.897430166666666, "is_reserved": 0, "type": "electric_bike", "bike_id": "e204b323f7fd860efe984d4c0f68b642", "is_disabled": 0, "rental_uris": {"android": "https://dc.lft.to/lastmile_qr_scan", "ios": "https://dc.lft.to/lastmile_qr_scan"}, "lon": -77.00776816666666, "fusion_lat": 0.0}, {"name": "3f8f0539a098139670b4a8b259a0e76a", "fusion_lon": 0.0, "lat": 38.95738083333333, "is_reserved": 0, "type": "electric_scooter", "bike_id": "3f8f0539a098139670b4a8b259a0e76a", "is_disabled": 0, "rental_uris": {"android": "https://dc.lft.to/lastmile_qr_scan", "ios": "https://dc.lft.to/lastmile_qr_scan"}, "lon": -77.02425783333334, "fusion_lat": 0.0}, {"name": "9b39fc4f90db943b52e0b3bce21812e5", "fusion_lon": 0.0, "lat": 38.929046666666665, "is_reserved": 0, "type": "electric_scooter", "bike_id": "9b39fc4f90db943b52e0b3bce21812e5", "is_disabled": 0, "rental_uris": {"android": "https://dc.lft.to/lastmile_qr_scan", "ios": "https://dc.lft.to/lastmile_qr_scan"}, "lon": -77.01655216666667, "fusion_lat": 0.0}, {"name": "2d3de71b74ceca8ecf41f793613ace71", "fusion_lon": 0.0, "lat": 38.90022583333333, "is_reserved": 0, "type": "electric_scooter", "bike_id": "2d3de71b74ceca8ecf41f793613ace71", "is_disabled": 0, "rental_uris": {"android": "https://dc.lft.to/lastmile_qr_scan", "ios": "https://dc.lft.to/lastmile_qr_scan"}, "lon": -77.00689933333334, "fusion_lat": 0.0}, {"name": "2a28a79b71dc302639ef2988a8956dfd", "fusion_lon": 0.0, "lat": 38.90080833333333, "is_reserved": 0, "type": "electric_scooter", "bike_id": "2a28a79b71dc302639ef2988a8956dfd", "is_disabled": 0, "rental_uris": {"android": "https://dc.lft.to/lastmile_qr_scan", "ios": "https://dc.lft.to/lastmile_qr_scan"}, "lon": -77.04754566666666, "fusion_lat": 0.0}, {"name": "796d435418600548b8111a22fab3e9b9", "fusion_lon": 0.0, "lat": 38.96469183333333, "is_reserved": 0, "type": "electric_bike", "bike_id": "796d435418600548b8111a22fab3e9b9", "is_disabled": 0, "rental_uris": {"android": "https://dc.lft.to/lastmile_qr_scan", "ios": "https://dc.lft.to/lastmile_qr_scan"}, "lon": -77.03561383333333, "fusion_lat": 0.0}, {"name": "bb3ec23eaed9fc96940f14f1e7e94e0c", "fusion_lon": 0.0, "lat": 38.91380683333333, "is_reserved": 0, "type": "electric_scooter", "bike_id": "bb3ec23eaed9fc96940f14f1e7e94e0c", "is_disabled": 0, "rental_uris": {"android": "https://dc.lft.to/lastmile_qr_scan", "ios": "https://dc.lft.to/lastmile_qr_scan"}, "lon": -77.04136216666667, "fusion_lat": 0.0}, {"name": "410889ddb82fb7820e5962b836d3d8f9", "fusion_lon": 0.0, "lat": 38.87275283333334, "is_reserved": 0, "type": "electric_bike", "bike_id": "410889ddb82fb7820e5962b836d3d8f9", "is_disabled": 0, "rental_uris": {"android": "https://dc.lft.to/lastmile_qr_scan", "ios": "https://dc.lft.to/lastmile_qr_scan"}, "lon": -77.23328416666666, "fusion_lat": 0.0}, {"name": "ec273cd7119800064197d04f99fb7b00", "fusion_lon": 0.0, "lat": 38.9082965, "is_reserved": 0, "type": "electric_scooter", "bike_id": "ec273cd7119800064197d04f99fb7b00", "is_disabled": 0, "rental_uris": {"android": "https://dc.lft.to/lastmile_qr_scan", "ios": "https://dc.lft.to/lastmile_qr_scan"}, "lon": -76.94156633333333, "fusion_lat": 0.0}, {"name": "7c36f6020202904179b8a436dc9eff40", "fusion_lon": 0.0, "lat": 38.901714166666665, "is_reserved": 0, "type": "electric_scooter", "bike_id": "7c36f6020202904179b8a436dc9eff40", "is_disabled": 0, "rental_uris": {"android": "https://dc.lft.to/lastmile_qr_scan", "ios": "https://dc.lft.to/lastmile_qr_scan"}, "lon": -77.06024666666667, "fusion_lat": 0.0}, {"name": "aa19d3c5e42a919d1a6bfa3956cb18a4", "fusion_lon": 0.0, "lat": 38.903975833333334, "is_reserved": 0, "type": "electric_scooter", "bike_id": "aa19d3c5e42a919d1a6bfa3956cb18a4", "is_disabled": 0, "rental_uris": {"android": "https://dc.lft.to/lastmile_qr_scan", "ios": "https://dc.lft.to/lastmile_qr_scan"}, "lon": -77.03839316666667, "fusion_lat": 0.0}, {"name": "39ac5efc06bb95d8e3a390d3061ffa43", "fusion_lon": 0.0, "lat": 38.89627316666667, "is_reserved": 0, "type": "electric_bike", "bike_id": "39ac5efc06bb95d8e3a390d3061ffa43", "is_disabled": 0, "rental_uris": {"android": "https://dc.lft.to/lastmile_qr_scan", "ios": "https://dc.lft.to/lastmile_qr_scan"}, "lon": -77.022087, "fusion_lat": 0.0}, {"name": "ba3342ad2c62b95dc593a450c802136d", "fusion_lon": 0.0, "lat": 38.905767, "is_reserved": 0, "type": "electric_scooter", "bike_id": "ba3342ad2c62b95dc593a450c802136d", "is_disabled": 0, "rental_uris": {"android": "https://dc.lft.to/lastmile_qr_scan", "ios": "https://dc.lft.to/lastmile_qr_scan"}, "lon": -77.0071425, "fusion_lat": 0.0}, {"name": "c63749f923438a8e4e940f14b3f2349a", "fusion_lon": 0.0, "lat": 38.907568166666664, "is_reserved": 0, "type": "electric_scooter", "bike_id": "c63749f923438a8e4e940f14b3f2349a", "is_disabled": 0, "rental_uris": {"android": "https://dc.lft.to/lastmile_qr_scan", "ios": "https://dc.lft.to/lastmile_qr_scan"}, "lon": -77.03186916666667, "fusion_lat": 0.0}, {"name": "8bf1f1ff34bfc9eca0c6d782e367cc43", "fusion_lon": 0.0, "lat": 38.9271945, "is_reserved": 0, "type": "electric_scooter", "bike_id": "8bf1f1ff34bfc9eca0c6d782e367cc43", "is_disabled": 0, "rental_uris": {"android": "https://dc.lft.to/lastmile_qr_scan", "ios": "https://dc.lft.to/lastmile_qr_scan"}, "lon": -77.0399265, "fusion_lat": 0.0}, {"name": "b977529d266377a841bee824a511f4d5", "fusion_lon": 0.0, "lat": 38.90380416666667, "is_reserved": 0, "type": "electric_scooter", "bike_id": "b977529d266377a841bee824a511f4d5", "is_disabled": 0, "rental_uris": {"android": "https://dc.lft.to/lastmile_qr_scan", "ios": "https://dc.lft.to/lastmile_qr_scan"}, "lon": -77.03642766666667, "fusion_lat": 0.0}, {"name": "3da0c1a7d4ec49b307e04fef31b54f04", "fusion_lon": 0.0, "lat": 38.884094, "is_reserved": 0, "type": "electric_scooter", "bike_id": "3da0c1a7d4ec49b307e04fef31b54f04", "is_disabled": 0, "rental_uris": {"android": "https://dc.lft.to/lastmile_qr_scan", "ios": "https://dc.lft.to/lastmile_qr_scan"}, "lon": -76.95397866666667, "fusion_lat": 0.0}, {"name": "5c916eb279069092fc92b6d0917a3ceb", "fusion_lon": 0.0, "lat": 38.92972983333333, "is_reserved": 0, "type": "electric_scooter", "bike_id": "5c916eb279069092fc92b6d0917a3ceb", "is_disabled": 0, "rental_uris": {"android": "https://dc.lft.to/lastmile_qr_scan", "ios": "https://dc.lft.to/lastmile_qr_scan"}, "lon": -77.02823783333334, "fusion_lat": 0.0}, {"name": "22dd5235e1923c3711f26656295388f3", "fusion_lon": 0.0, "lat": 38.892705166666666, "is_reserved": 0, "type": "electric_scooter", "bike_id": "22dd5235e1923c3711f26656295388f3", "is_disabled": 0, "rental_uris": {"android": "https://dc.lft.to/lastmile_qr_scan", "ios": "https://dc.lft.to/lastmile_qr_scan"}, "lon": -77.00370966666667, "fusion_lat": 0.0}, {"name": "9ddeb34c3bb52553f7f341dc8a93881d", "fusion_lon": 0.0, "lat": 38.94036066666666, "is_reserved": 0, "type": "electric_scooter", "bike_id": "9ddeb34c3bb52553f7f341dc8a93881d", "is_disabled": 0, "rental_uris": {"android": "https://dc.lft.to/lastmile_qr_scan", "ios": "https://dc.lft.to/lastmile_qr_scan"}, "lon": -77.02915816666666, "fusion_lat": 0.0}, {"name": "41865cc83b2d644318969b31808dad95", "fusion_lon": 0.0, "lat": 38.91072533333333, "is_reserved": 0, "type": "electric_scooter", "bike_id": "41865cc83b2d644318969b31808dad95", "is_disabled": 0, "rental_uris": {"android": "https://dc.lft.to/lastmile_qr_scan", "ios": "https://dc.lft.to/lastmile_qr_scan"}, "lon": -77.038452, "fusion_lat": 0.0}, {"name": "0a1f122524a183870e588c7f967ff17d", "fusion_lon": 0.0, "lat": 38.838317, "is_reserved": 0, "type": "electric_bike", "bike_id": "0a1f122524a183870e588c7f967ff17d", "is_disabled": 0, "rental_uris": {"android": "https://dc.lft.to/lastmile_qr_scan", "ios": "https://dc.lft.to/lastmile_qr_scan"}, "lon": -77.07914683333334, "fusion_lat": 0.0}, {"name": "6e2549ddcddf8e31ebedcc3b8b0c105d", "fusion_lon": 0.0, "lat": 38.96135316666667, "is_reserved": 0, "type": "electric_bike", "bike_id": "6e2549ddcddf8e31ebedcc3b8b0c105d", "is_disabled": 0, "rental_uris": {"android": "https://dc.lft.to/lastmile_qr_scan", "ios": "https://dc.lft.to/lastmile_qr_scan"}, "lon": -77.013622, "fusion_lat": 0.0}, {"name": "74acd921fd9473da8af629492afbcafc", "fusion_lon": 0.0, "lat": 38.91423733333333, "is_reserved": 0, "type": "electric_scooter", "bike_id": "74acd921fd9473da8af629492afbcafc", "is_disabled": 0, "rental_uris": {"android": "https://dc.lft.to/lastmile_qr_scan", "ios": "https://dc.lft.to/lastmile_qr_scan"}, "lon": -77.0221885, "fusion_lat": 0.0}, {"name": "f706e6262f62845b4612b1a8c545bcca", "fusion_lon": 0.0, "lat": 38.90796983333333, "is_reserved": 0, "type": "electric_scooter", "bike_id": "f706e6262f62845b4612b1a8c545bcca", "is_disabled": 0, "rental_uris": {"android": "https://dc.lft.to/lastmile_qr_scan", "ios": "https://dc.lft.to/lastmile_qr_scan"}, "lon": -77.038648, "fusion_lat": 0.0}, {"name": "6ed285195249cef2498938fd456bc452", "fusion_lon": 0.0, "lat": 38.908417, "is_reserved": 0, "type": "electric_bike", "bike_id": "6ed285195249cef2498938fd456bc452", "is_disabled": 0, "rental_uris": {"android": "https://dc.lft.to/lastmile_qr_scan", "ios": "https://dc.lft.to/lastmile_qr_scan"}, "lon": -76.93312333333333, "fusion_lat": 0.0}, {"name": "1235b57434089b88f6d1ce3f2a3e676a", "fusion_lon": 0.0, "lat": 38.886624166666664, "is_reserved": 0, "type": "electric_scooter", "bike_id": "1235b57434089b88f6d1ce3f2a3e676a", "is_disabled": 0, "rental_uris": {"android": "https://dc.lft.to/lastmile_qr_scan", "ios": "https://dc.lft.to/lastmile_qr_scan"}, "lon": -76.99993783333333, "fusion_lat": 0.0}, {"name": "3d01d8aba742b5567f74963f7a417813", "fusion_lon": 0.0, "lat": 38.924657833333335, "is_reserved": 0, "type": "electric_scooter", "bike_id": "3d01d8aba742b5567f74963f7a417813", "is_disabled": 0, "rental_uris": {"android": "https://dc.lft.to/lastmile_qr_scan", "ios": "https://dc.lft.to/lastmile_qr_scan"}, "lon": -77.02707916666667, "fusion_lat": 0.0}, {"name": "7499f997ad09d3602726ce7ac5958a1d", "fusion_lon": 0.0, "lat": 38.875531333333335, "is_reserved": 0, "type": "electric_scooter", "bike_id": "7499f997ad09d3602726ce7ac5958a1d", "is_disabled": 0, "rental_uris": {"android": "https://dc.lft.to/lastmile_qr_scan", "ios": "https://dc.lft.to/lastmile_qr_scan"}, "lon": -77.005669, "fusion_lat": 0.0}, {"name": "d8f7c65cc826316ddf6c2de4b6b8b98f", "fusion_lon": 0.0, "lat": 38.928793666666664, "is_reserved": 0, "type": "electric_scooter", "bike_id": "d8f7c65cc826316ddf6c2de4b6b8b98f", "is_disabled": 0, "rental_uris": {"android": "https://dc.lft.to/lastmile_qr_scan", "ios": "https://dc.lft.to/lastmile_qr_scan"}, "lon": -77.01390933333333, "fusion_lat": 0.0}, {"name": "e4188c6245aaf2bb40ef904c67eb5d92", "fusion_lon": 0.0, "lat": 38.91845933333333, "is_reserved": 0, "type": "electric_scooter", "bike_id": "e4188c6245aaf2bb40ef904c67eb5d92", "is_disabled": 0, "rental_uris": {"android": "https://dc.lft.to/lastmile_qr_scan", "ios": "https://dc.lft.to/lastmile_qr_scan"}, "lon": -77.0230445, "fusion_lat": 0.0}, {"name": "7f2b808ea632b0d05af431413306cfe3", "fusion_lon": 0.0, "lat": 38.96276566666667, "is_reserved": 0, "type": "electric_bike", "bike_id": "7f2b808ea632b0d05af431413306cfe3", "is_disabled": 0, "rental_uris": {"android": "https://dc.lft.to/lastmile_qr_scan", "ios": "https://dc.lft.to/lastmile_qr_scan"}, "lon": -77.0145725, "fusion_lat": 0.0}, {"name": "b6cdf41b8760b1ac6bf0a2730c0f76c0", "fusion_lon": 0.0, "lat": 38.921406833333336, "is_reserved": 0, "type": "electric_scooter", "bike_id": "b6cdf41b8760b1ac6bf0a2730c0f76c0", "is_disabled": 0, "rental_uris": {"android": "https://dc.lft.to/lastmile_qr_scan", "ios": "https://dc.lft.to/lastmile_qr_scan"}, "lon": -77.0182365, "fusion_lat": 0.0}, {"name": "f1e8307ec28f2d6448ff318065bc9241", "fusion_lon": 0.0, "lat": 38.951776833333334, "is_reserved": 0, "type": "electric_bike", "bike_id": "f1e8307ec28f2d6448ff318065bc9241", "is_disabled": 0, "rental_uris": {"android": "https://dc.lft.to/lastmile_qr_scan", "ios": "https://dc.lft.to/lastmile_qr_scan"}, "lon": -76.977309, "fusion_lat": 0.0}, {"name": "e26138e5f27dfb3dffb645862eb5fd90", "fusion_lon": 0.0, "lat": 38.90776816666666, "is_reserved": 0, "type": "electric_scooter", "bike_id": "e26138e5f27dfb3dffb645862eb5fd90", "is_disabled": 0, "rental_uris": {"android": "https://dc.lft.to/lastmile_qr_scan", "ios": "https://dc.lft.to/lastmile_qr_scan"}, "lon": -77.003499, "fusion_lat": 0.0}, {"name": "6eb231fbe8c3633efb73a62d439aa08f", "fusion_lon": 0.0, "lat": 38.90960066666667, "is_reserved": 0, "type": "electric_scooter", "bike_id": "6eb231fbe8c3633efb73a62d439aa08f", "is_disabled": 0, "rental_uris": {"android": "https://dc.lft.to/lastmile_qr_scan", "ios": "https://dc.lft.to/lastmile_qr_scan"}, "lon": -77.02688116666667, "fusion_lat": 0.0}, {"name": "e077112c734948bc9f0ea96b52cd544f", "fusion_lon": 0.0, "lat": 38.904893, "is_reserved": 0, "type": "electric_scooter", "bike_id": "e077112c734948bc9f0ea96b52cd544f", "is_disabled": 0, "rental_uris": {"android": "https://dc.lft.to/lastmile_qr_scan", "ios": "https://dc.lft.to/lastmile_qr_scan"}, "lon": -76.949618, "fusion_lat": 0.0}, {"name": "ed958c9bb2cd50e51967a62f19c4246e", "fusion_lon": 0.0, "lat": 38.92460966666667, "is_reserved": 0, "type": "electric_bike", "bike_id": "ed958c9bb2cd50e51967a62f19c4246e", "is_disabled": 0, "rental_uris": {"android": "https://dc.lft.to/lastmile_qr_scan", "ios": "https://dc.lft.to/lastmile_qr_scan"}, "lon": -77.22563183333334, "fusion_lat": 0.0}, {"name": "c25ab7fd7e0d054c9f4c22806fc9e344", "fusion_lon": 0.0, "lat": 38.920884666666666, "is_reserved": 0, "type": "electric_scooter", "bike_id": "c25ab7fd7e0d054c9f4c22806fc9e344", "is_disabled": 0, "rental_uris": {"android": "https://dc.lft.to/lastmile_qr_scan", "ios": "https://dc.lft.to/lastmile_qr_scan"}, "lon": -77.025253, "fusion_lat": 0.0}, {"name": "403274bdbd35aa97702be89cc2036c23", "fusion_lon": 0.0, "lat": 38.900765, "is_reserved": 0, "type": "electric_scooter", "bike_id": "403274bdbd35aa97702be89cc2036c23", "is_disabled": 0, "rental_uris": {"android": "https://dc.lft.to/lastmile_qr_scan", "ios": "https://dc.lft.to/lastmile_qr_scan"}, "lon": -77.030699, "fusion_lat": 0.0}, {"name": "172809390d51aca24e99319dce20e622", "fusion_lon": 0.0, "lat": 38.924954166666666, "is_reserved": 0, "type": "electric_scooter", "bike_id": "172809390d51aca24e99319dce20e622", "is_disabled": 0, "rental_uris": {"android": "https://dc.lft.to/lastmile_qr_scan", "ios": "https://dc.lft.to/lastmile_qr_scan"}, "lon": -77.0525365, "fusion_lat": 0.0}, {"name": "ff8ca65d606a28114f544764c939799d", "fusion_lon": 0.0, "lat": 38.91325533333333, "is_reserved": 0, "type": "electric_scooter", "bike_id": "ff8ca65d606a28114f544764c939799d", "is_disabled": 0, "rental_uris": {"android": "https://dc.lft.to/lastmile_qr_scan", "ios": "https://dc.lft.to/lastmile_qr_scan"}, "lon": -76.984969, "fusion_lat": 0.0}, {"name": "0f0a522f96298283bcd7d0d8d48d80a7", "fusion_lon": 0.0, "lat": 38.837926833333334, "is_reserved": 0, "type": "electric_bike", "bike_id": "0f0a522f96298283bcd7d0d8d48d80a7", "is_disabled": 0, "rental_uris": {"android": "https://dc.lft.to/lastmile_qr_scan", "ios": "https://dc.lft.to/lastmile_qr_scan"}, "lon": -76.9974825, "fusion_lat": 0.0}, {"name": "a95d37eab89a5f9693a9154d50262c60", "fusion_lon": 0.0, "lat": 38.88745766666667, "is_reserved": 0, "type": "electric_scooter", "bike_id": "a95d37eab89a5f9693a9154d50262c60", "is_disabled": 0, "rental_uris": {"android": "https://dc.lft.to/lastmile_qr_scan", "ios": "https://dc.lft.to/lastmile_qr_scan"}, "lon": -77.0153595, "fusion_lat": 0.0}, {"name": "74c9093d425cf4b376f49da8dc572928", "fusion_lon": 0.0, "lat": 38.915646833333334, "is_reserved": 0, "type": "electric_scooter", "bike_id": "74c9093d425cf4b376f49da8dc572928", "is_disabled": 0, "rental_uris": {"android": "https://dc.lft.to/lastmile_qr_scan", "ios": "https://dc.lft.to/lastmile_qr_scan"}, "lon": -77.03172016666667, "fusion_lat": 0.0}, {"name": "5a4c577bfa53e4c5c447dcbab8eb17fa", "fusion_lon": 0.0, "lat": 38.874567166666665, "is_reserved": 0, "type": "electric_scooter", "bike_id": "5a4c577bfa53e4c5c447dcbab8eb17fa", "is_disabled": 0, "rental_uris": {"android": "https://dc.lft.to/lastmile_qr_scan", "ios": "https://dc.lft.to/lastmile_qr_scan"}, "lon": -77.00289783333334, "fusion_lat": 0.0}, {"name": "4c726c4dbb9f9d350ef7264e6f28b6c9", "fusion_lon": 0.0, "lat": 38.881382, "is_reserved": 0, "type": "electric_scooter", "bike_id": "4c726c4dbb9f9d350ef7264e6f28b6c9", "is_disabled": 0, "rental_uris": {"android": "https://dc.lft.to/lastmile_qr_scan", "ios": "https://dc.lft.to/lastmile_qr_scan"}, "lon": -77.01336383333333, "fusion_lat": 0.0}, {"name": "e6c902ecfd51ced02f97f751ddff8523", "fusion_lon": 0.0, "lat": 38.871710666666665, "is_reserved": 0, "type": "electric_scooter", "bike_id": "e6c902ecfd51ced02f97f751ddff8523", "is_disabled": 0, "rental_uris": {"android": "https://dc.lft.to/lastmile_qr_scan", "ios": "https://dc.lft.to/lastmile_qr_scan"}, "lon": -76.97741716666667, "fusion_lat": 0.0}, {"name": "3e306ecb79eb3d580401c184908bbe67", "fusion_lon": 0.0, "lat": 38.8959235, "is_reserved": 0, "type": "electric_scooter", "bike_id": "3e306ecb79eb3d580401c184908bbe67", "is_disabled": 0, "rental_uris": {"android": "https://dc.lft.to/lastmile_qr_scan", "ios": "https://dc.lft.to/lastmile_qr_scan"}, "lon": -77.02583483333333, "fusion_lat": 0.0}, {"name": "a494497a3c92e552c4bff9a6696718b6", "fusion_lon": 0.0, "lat": 38.891817833333334, "is_reserved": 0, "type": "electric_scooter", "bike_id": "a494497a3c92e552c4bff9a6696718b6", "is_disabled": 0, "rental_uris": {"android": "https://dc.lft.to/lastmile_qr_scan", "ios": "https://dc.lft.to/lastmile_qr_scan"}, "lon": -76.91187283333333, "fusion_lat": 0.0}, {"name": "3d4e494d2510297bc4b7be26c5e8a7f1", "fusion_lon": 0.0, "lat": 38.91617466666667, "is_reserved": 0, "type": "electric_scooter", "bike_id": "3d4e494d2510297bc4b7be26c5e8a7f1", "is_disabled": 0, "rental_uris": {"android": "https://dc.lft.to/lastmile_qr_scan", "ios": "https://dc.lft.to/lastmile_qr_scan"}, "lon": -77.02161683333334, "fusion_lat": 0.0}, {"name": "a2e9668ef0d01fd1182b36d2e993d8db", "fusion_lon": 0.0, "lat": 38.9258405, "is_reserved": 0, "type": "electric_scooter", "bike_id": "a2e9668ef0d01fd1182b36d2e993d8db", "is_disabled": 0, "rental_uris": {"android": "https://dc.lft.to/lastmile_qr_scan", "ios": "https://dc.lft.to/lastmile_qr_scan"}, "lon": -77.02609983333333, "fusion_lat": 0.0}, {"name": "58195b3b60e3a11bf384d946ef799f07", "fusion_lon": 0.0, "lat": 38.916913666666666, "is_reserved": 0, "type": "electric_scooter", "bike_id": "58195b3b60e3a11bf384d946ef799f07", "is_disabled": 0, "rental_uris": {"android": "https://dc.lft.to/lastmile_qr_scan", "ios": "https://dc.lft.to/lastmile_qr_scan"}, "lon": -77.03372466666667, "fusion_lat": 0.0}, {"name": "bad204139a1670b13a346e24b5ac2cb4", "fusion_lon": 0.0, "lat": 38.924934666666665, "is_reserved": 0, "type": "electric_scooter", "bike_id": "bad204139a1670b13a346e24b5ac2cb4", "is_disabled": 0, "rental_uris": {"android": "https://dc.lft.to/lastmile_qr_scan", "ios": "https://dc.lft.to/lastmile_qr_scan"}, "lon": -77.02140166666666, "fusion_lat": 0.0}, {"name": "29815c4a4b29f95e1e7438fc8a4b056e", "fusion_lon": 0.0, "lat": 38.898395, "is_reserved": 0, "type": "electric_scooter", "bike_id": "29815c4a4b29f95e1e7438fc8a4b056e", "is_disabled": 0, "rental_uris": {"android": "https://dc.lft.to/lastmile_qr_scan", "ios": "https://dc.lft.to/lastmile_qr_scan"}, "lon": -77.033274, "fusion_lat": 0.0}, {"name": "e43d60be1ea18b1e8f566665da03b894", "fusion_lon": 0.0, "lat": 38.941107, "is_reserved": 0, "type": "electric_scooter", "bike_id": "e43d60be1ea18b1e8f566665da03b894", "is_disabled": 0, "rental_uris": {"android": "https://dc.lft.to/lastmile_qr_scan", "ios": "https://dc.lft.to/lastmile_qr_scan"}, "lon": -77.07725716666667, "fusion_lat": 0.0}, {"name": "a0e38578ee4fae76cfceb8df4ee7cc6f", "fusion_lon": 0.0, "lat": 38.9155875, "is_reserved": 0, "type": "electric_scooter", "bike_id": "a0e38578ee4fae76cfceb8df4ee7cc6f", "is_disabled": 0, "rental_uris": {"android": "https://dc.lft.to/lastmile_qr_scan", "ios": "https://dc.lft.to/lastmile_qr_scan"}, "lon": -77.02428233333333, "fusion_lat": 0.0}, {"name": "1c6a8bf81edc4d993645d4317cc2238f", "fusion_lon": 0.0, "lat": 38.898423666666666, "is_reserved": 0, "type": "electric_scooter", "bike_id": "1c6a8bf81edc4d993645d4317cc2238f", "is_disabled": 0, "rental_uris": {"android": "https://dc.lft.to/lastmile_qr_scan", "ios": "https://dc.lft.to/lastmile_qr_scan"}, "lon": -77.04368433333333, "fusion_lat": 0.0}, {"name": "f13e806fa682c6327df288cb60057479", "fusion_lon": 0.0, "lat": 38.92344, "is_reserved": 0, "type": "electric_scooter", "bike_id": "f13e806fa682c6327df288cb60057479", "is_disabled": 0, "rental_uris": {"android": "https://dc.lft.to/lastmile_qr_scan", "ios": "https://dc.lft.to/lastmile_qr_scan"}, "lon": -77.052431, "fusion_lat": 0.0}, {"name": "0bcb5e016a8e8ff3376f1cbdf1f5a1ee", "fusion_lon": 0.0, "lat": 38.9160555, "is_reserved": 0, "type": "electric_scooter", "bike_id": "0bcb5e016a8e8ff3376f1cbdf1f5a1ee", "is_disabled": 0, "rental_uris": {"android": "https://dc.lft.to/lastmile_qr_scan", "ios": "https://dc.lft.to/lastmile_qr_scan"}, "lon": -76.98380316666666, "fusion_lat": 0.0}, {"name": "53b147069d81fa577c8bf0ae8cd1afdf", "fusion_lon": 0.0, "lat": 38.99628666666667, "is_reserved": 0, "type": "electric_scooter", "bike_id": "53b147069d81fa577c8bf0ae8cd1afdf", "is_disabled": 0, "rental_uris": {"android": "https://dc.lft.to/lastmile_qr_scan", "ios": "https://dc.lft.to/lastmile_qr_scan"}, "lon": -77.03142483333333, "fusion_lat": 0.0}, {"name": "8645f97bdeae0b6834aefaa1a97c948b", "fusion_lon": 0.0, "lat": 38.9100545, "is_reserved": 0, "type": "electric_scooter", "bike_id": "8645f97bdeae0b6834aefaa1a97c948b", "is_disabled": 0, "rental_uris": {"android": "https://dc.lft.to/lastmile_qr_scan", "ios": "https://dc.lft.to/lastmile_qr_scan"}, "lon": -77.040062, "fusion_lat": 0.0}, {"name": "7857bfd7814da0853e000f8f6daa98f4", "fusion_lon": 0.0, "lat": 38.874849833333336, "is_reserved": 0, "type": "electric_bike", "bike_id": "7857bfd7814da0853e000f8f6daa98f4", "is_disabled": 0, "rental_uris": {"android": "https://dc.lft.to/lastmile_qr_scan", "ios": "https://dc.lft.to/lastmile_qr_scan"}, "lon": -76.96530216666666, "fusion_lat": 0.0}, {"name": "45e653919ac57f93faeee7d1242d8b9b", "fusion_lon": 0.0, "lat": 38.9065445, "is_reserved": 0, "type": "electric_scooter", "bike_id": "45e653919ac57f93faeee7d1242d8b9b", "is_disabled": 0, "rental_uris": {"android": "https://dc.lft.to/lastmile_qr_scan", "ios": "https://dc.lft.to/lastmile_qr_scan"}, "lon": -77.01143966666666, "fusion_lat": 0.0}, {"name": "027a8bd7d892b9e0bf37acfd2b349b7d", "fusion_lon": 0.0, "lat": 38.9023965, "is_reserved": 0, "type": "electric_scooter", "bike_id": "027a8bd7d892b9e0bf37acfd2b349b7d", "is_disabled": 0, "rental_uris": {"android": "https://dc.lft.to/lastmile_qr_scan", "ios": "https://dc.lft.to/lastmile_qr_scan"}, "lon": -77.0019955, "fusion_lat": 0.0}, {"name": "2a6554a8bd8faeb9d65b9db1c1125a40", "fusion_lon": 0.0, "lat": 38.91422433333334, "is_reserved": 0, "type": "electric_scooter", "bike_id": "2a6554a8bd8faeb9d65b9db1c1125a40", "is_disabled": 0, "rental_uris": {"android": "https://dc.lft.to/lastmile_qr_scan", "ios": "https://dc.lft.to/lastmile_qr_scan"}, "lon": -77.04923266666667, "fusion_lat": 0.0}, {"name": "46b0e12b09b0f4f7a64b364c016a5e4d", "fusion_lon": 0.0, "lat": 38.874773, "is_reserved": 0, "type": "electric_scooter", "bike_id": "46b0e12b09b0f4f7a64b364c016a5e4d", "is_disabled": 0, "rental_uris": {"android": "https://dc.lft.to/lastmile_qr_scan", "ios": "https://dc.lft.to/lastmile_qr_scan"}, "lon": -77.0056065, "fusion_lat": 0.0}, {"name": "0997515ca6716475dc489990392ff303", "fusion_lon": 0.0, "lat": 38.916865333333334, "is_reserved": 0, "type": "electric_scooter", "bike_id": "0997515ca6716475dc489990392ff303", "is_disabled": 0, "rental_uris": {"android": "https://dc.lft.to/lastmile_qr_scan", "ios": "https://dc.lft.to/lastmile_qr_scan"}, "lon": -77.01583983333333, "fusion_lat": 0.0}, {"name": "3f700ed717b82422ce897cc8074f4ec4", "fusion_lon": 0.0, "lat": 38.881127666666664, "is_reserved": 0, "type": "electric_scooter", "bike_id": "3f700ed717b82422ce897cc8074f4ec4", "is_disabled": 0, "rental_uris": {"android": "https://dc.lft.to/lastmile_qr_scan", "ios": "https://dc.lft.to/lastmile_qr_scan"}, "lon": -77.01656433333333, "fusion_lat": 0.0}, {"name": "99a7e1b8cab527c7a030ffaf0e851ddd", "fusion_lon": 0.0, "lat": 38.90756016666667, "is_reserved": 0, "type": "electric_scooter", "bike_id": "99a7e1b8cab527c7a030ffaf0e851ddd", "is_disabled": 0, "rental_uris": {"android": "https://dc.lft.to/lastmile_qr_scan", "ios": "https://dc.lft.to/lastmile_qr_scan"}, "lon": -77.03181766666667, "fusion_lat": 0.0}, {"name": "fc8c2745e7c779570f14e2fd6646505e", "fusion_lon": 0.0, "lat": 38.92418966666666, "is_reserved": 0, "type": "electric_scooter", "bike_id": "fc8c2745e7c779570f14e2fd6646505e", "is_disabled": 0, "rental_uris": {"android": "https://dc.lft.to/lastmile_qr_scan", "ios": "https://dc.lft.to/lastmile_qr_scan"}, "lon": -77.050675, "fusion_lat": 0.0}, {"name": "68aab6f17e3097037b1fa9a65e4f1d27", "fusion_lon": 0.0, "lat": 38.9016755, "is_reserved": 0, "type": "electric_scooter", "bike_id": "68aab6f17e3097037b1fa9a65e4f1d27", "is_disabled": 0, "rental_uris": {"android": "https://dc.lft.to/lastmile_qr_scan", "ios": "https://dc.lft.to/lastmile_qr_scan"}, "lon": -76.93024116666666, "fusion_lat": 0.0}, {"name": "fd31d2c1070d6152094d59936d589200", "fusion_lon": 0.0, "lat": 38.92326633333333, "is_reserved": 0, "type": "electric_scooter", "bike_id": "fd31d2c1070d6152094d59936d589200", "is_disabled": 0, "rental_uris": {"android": "https://dc.lft.to/lastmile_qr_scan", "ios": "https://dc.lft.to/lastmile_qr_scan"}, "lon": -77.03572066666666, "fusion_lat": 0.0}, {"name": "08d2f65106adea65f0c4697cb50959cf", "fusion_lon": 0.0, "lat": 38.87698683333333, "is_reserved": 0, "type": "electric_scooter", "bike_id": "08d2f65106adea65f0c4697cb50959cf", "is_disabled": 0, "rental_uris": {"android": "https://dc.lft.to/lastmile_qr_scan", "ios": "https://dc.lft.to/lastmile_qr_scan"}, "lon": -77.0044965, "fusion_lat": 0.0}, {"name": "3d2661890ff80562f13ba00d36a567f9", "fusion_lon": 0.0, "lat": 38.901824, "is_reserved": 0, "type": "electric_scooter", "bike_id": "3d2661890ff80562f13ba00d36a567f9", "is_disabled": 0, "rental_uris": {"android": "https://dc.lft.to/lastmile_qr_scan", "ios": "https://dc.lft.to/lastmile_qr_scan"}, "lon": -77.01305883333333, "fusion_lat": 0.0}, {"name": "1d25fbec522ef0c2c2116e37146ff7e1", "fusion_lon": 0.0, "lat": 38.85522266666667, "is_reserved": 0, "type": "electric_bike", "bike_id": "1d25fbec522ef0c2c2116e37146ff7e1", "is_disabled": 0, "rental_uris": {"android": "https://dc.lft.to/lastmile_qr_scan", "ios": "https://dc.lft.to/lastmile_qr_scan"}, "lon": -76.98439316666666, "fusion_lat": 0.0}, {"name": "917fe997d94ceb7e6560124011d02c12", "fusion_lon": 0.0, "lat": 38.9125945, "is_reserved": 0, "type": "electric_scooter", "bike_id": "917fe997d94ceb7e6560124011d02c12", "is_disabled": 0, "rental_uris": {"android": "https://dc.lft.to/lastmile_qr_scan", "ios": "https://dc.lft.to/lastmile_qr_scan"}, "lon": -77.04442533333334, "fusion_lat": 0.0}, {"name": "fe16ca7567c1518a608d11e6363663f6", "fusion_lon": 0.0, "lat": 38.908625666666666, "is_reserved": 0, "type": "electric_scooter", "bike_id": "fe16ca7567c1518a608d11e6363663f6", "is_disabled": 0, "rental_uris": {"android": "https://dc.lft.to/lastmile_qr_scan", "ios": "https://dc.lft.to/lastmile_qr_scan"}, "lon": -76.99972366666667, "fusion_lat": 0.0}, {"name": "0c6adef2014b759260aafcbe631bb308", "fusion_lon": 0.0, "lat": 38.919235666666665, "is_reserved": 0, "type": "electric_scooter", "bike_id": "0c6adef2014b759260aafcbe631bb308", "is_disabled": 0, "rental_uris": {"android": "https://dc.lft.to/lastmile_qr_scan", "ios": "https://dc.lft.to/lastmile_qr_scan"}, "lon": -77.03185083333334, "fusion_lat": 0.0}, {"name": "f9e7ab3ec7ac7cda5046d9f19916d5df", "fusion_lon": 0.0, "lat": 38.8831425, "is_reserved": 0, "type": "electric_scooter", "bike_id": "f9e7ab3ec7ac7cda5046d9f19916d5df", "is_disabled": 0, "rental_uris": {"android": "https://dc.lft.to/lastmile_qr_scan", "ios": "https://dc.lft.to/lastmile_qr_scan"}, "lon": -77.00051133333334, "fusion_lat": 0.0}, {"name": "ae26c84391eef069a683efb6a695ac09", "fusion_lon": 0.0, "lat": 38.8747995, "is_reserved": 0, "type": "electric_scooter", "bike_id": "ae26c84391eef069a683efb6a695ac09", "is_disabled": 0, "rental_uris": {"android": "https://dc.lft.to/lastmile_qr_scan", "ios": "https://dc.lft.to/lastmile_qr_scan"}, "lon": -77.00941866666666, "fusion_lat": 0.0}, {"name": "c00b258f4976d18903a216cecad5b358", "fusion_lon": 0.0, "lat": 38.8431785, "is_reserved": 0, "type": "electric_scooter", "bike_id": "c00b258f4976d18903a216cecad5b358", "is_disabled": 0, "rental_uris": {"android": "https://dc.lft.to/lastmile_qr_scan", "ios": "https://dc.lft.to/lastmile_qr_scan"}, "lon": -76.99929683333333, "fusion_lat": 0.0}, {"name": "0310f2b1fb99b52dca0b569a8b5dbd10", "fusion_lon": 0.0, "lat": 38.90041216666667, "is_reserved": 0, "type": "electric_scooter", "bike_id": "0310f2b1fb99b52dca0b569a8b5dbd10", "is_disabled": 0, "rental_uris": {"android": "https://dc.lft.to/lastmile_qr_scan", "ios": "https://dc.lft.to/lastmile_qr_scan"}, "lon": -76.91918016666666, "fusion_lat": 0.0}, {"name": "5b682cd8e5a87b73176bcb55e67ff6ba", "fusion_lon": 0.0, "lat": 38.92050483333333, "is_reserved": 0, "type": "electric_scooter", "bike_id": "5b682cd8e5a87b73176bcb55e67ff6ba", "is_disabled": 0, "rental_uris": {"android": "https://dc.lft.to/lastmile_qr_scan", "ios": "https://dc.lft.to/lastmile_qr_scan"}, "lon": -77.02609166666667, "fusion_lat": 0.0}, {"name": "9f4b92db9b3e790b146ed0c140cff07a", "fusion_lon": 0.0, "lat": 38.921608, "is_reserved": 0, "type": "electric_scooter", "bike_id": "9f4b92db9b3e790b146ed0c140cff07a", "is_disabled": 0, "rental_uris": {"android": "https://dc.lft.to/lastmile_qr_scan", "ios": "https://dc.lft.to/lastmile_qr_scan"}, "lon": -77.03233383333334, "fusion_lat": 0.0}, {"name": "5cd902fa3aafbf78f2eae7324283e59b", "fusion_lon": 0.0, "lat": 38.801289833333335, "is_reserved": 0, "type": "electric_bike", "bike_id": "5cd902fa3aafbf78f2eae7324283e59b", "is_disabled": 0, "rental_uris": {"android": "https://dc.lft.to/lastmile_qr_scan", "ios": "https://dc.lft.to/lastmile_qr_scan"}, "lon": -77.07050833333334, "fusion_lat": 0.0}, {"name": "f79faa2dfee096c434cc0a144b5290e1", "fusion_lon": 0.0, "lat": 38.83147616666667, "is_reserved": 0, "type": "electric_scooter", "bike_id": "f79faa2dfee096c434cc0a144b5290e1", "is_disabled": 0, "rental_uris": {"android": "https://dc.lft.to/lastmile_qr_scan", "ios": "https://dc.lft.to/lastmile_qr_scan"}, "lon": -77.05119, "fusion_lat": 0.0}, {"name": "7fc064e52742bf4a98d26964cbf49f63", "fusion_lon": 0.0, "lat": 38.92811366666667, "is_reserved": 0, "type": "electric_scooter", "bike_id": "7fc064e52742bf4a98d26964cbf49f63", "is_disabled": 0, "rental_uris": {"android": "https://dc.lft.to/lastmile_qr_scan", "ios": "https://dc.lft.to/lastmile_qr_scan"}, "lon": -77.01410133333333, "fusion_lat": 0.0}, {"name": "7eca1c47e5f6e5ab9475c24941f229e5", "fusion_lon": 0.0, "lat": 38.899634166666665, "is_reserved": 0, "type": "electric_bike", "bike_id": "7eca1c47e5f6e5ab9475c24941f229e5", "is_disabled": 0, "rental_uris": {"android": "https://dc.lft.to/lastmile_qr_scan", "ios": "https://dc.lft.to/lastmile_qr_scan"}, "lon": -76.986733, "fusion_lat": 0.0}, {"name": "64535f7ed3a2716690de975c40d28c74", "fusion_lon": 0.0, "lat": 38.9105085, "is_reserved": 0, "type": "electric_scooter", "bike_id": "64535f7ed3a2716690de975c40d28c74", "is_disabled": 0, "rental_uris": {"android": "https://dc.lft.to/lastmile_qr_scan", "ios": "https://dc.lft.to/lastmile_qr_scan"}, "lon": -77.043475, "fusion_lat": 0.0}, {"name": "1cdb9ff081440f570bdbf3bd05a9baec", "fusion_lon": 0.0, "lat": 38.8794045, "is_reserved": 0, "type": "electric_scooter", "bike_id": "1cdb9ff081440f570bdbf3bd05a9baec", "is_disabled": 0, "rental_uris": {"android": "https://dc.lft.to/lastmile_qr_scan", "ios": "https://dc.lft.to/lastmile_qr_scan"}, "lon": -77.00068133333333, "fusion_lat": 0.0}, {"name": "dbcbf8890b71ddf471c24d288f6b33cf", "fusion_lon": 0.0, "lat": 38.936296166666665, "is_reserved": 0, "type": "electric_bike", "bike_id": "dbcbf8890b71ddf471c24d288f6b33cf", "is_disabled": 0, "rental_uris": {"android": "https://dc.lft.to/lastmile_qr_scan", "ios": "https://dc.lft.to/lastmile_qr_scan"}, "lon": -77.090263, "fusion_lat": 0.0}, {"name": "9d149f8d950fcca243229187aa1f2dbf", "fusion_lon": 0.0, "lat": 38.90589216666667, "is_reserved": 0, "type": "electric_scooter", "bike_id": "9d149f8d950fcca243229187aa1f2dbf", "is_disabled": 0, "rental_uris": {"android": "https://dc.lft.to/lastmile_qr_scan", "ios": "https://dc.lft.to/lastmile_qr_scan"}, "lon": -77.04124816666666, "fusion_lat": 0.0}, {"name": "ccd6fd754772d7a957c1e7a62fd6bccd", "fusion_lon": 0.0, "lat": 38.90058783333333, "is_reserved": 0, "type": "electric_scooter", "bike_id": "ccd6fd754772d7a957c1e7a62fd6bccd", "is_disabled": 0, "rental_uris": {"android": "https://dc.lft.to/lastmile_qr_scan", "ios": "https://dc.lft.to/lastmile_qr_scan"}, "lon": -76.919401, "fusion_lat": 0.0}, {"name": "65250642d20c69c92e2f47ed81b09eb0", "fusion_lon": 0.0, "lat": 38.9095955, "is_reserved": 0, "type": "electric_scooter", "bike_id": "65250642d20c69c92e2f47ed81b09eb0", "is_disabled": 0, "rental_uris": {"android": "https://dc.lft.to/lastmile_qr_scan", "ios": "https://dc.lft.to/lastmile_qr_scan"}, "lon": -77.026886, "fusion_lat": 0.0}, {"name": "70aff142fe5cc209a7764f15cc1d8ce9", "fusion_lon": 0.0, "lat": 38.8639005, "is_reserved": 0, "type": "electric_scooter", "bike_id": "70aff142fe5cc209a7764f15cc1d8ce9", "is_disabled": 0, "rental_uris": {"android": "https://dc.lft.to/lastmile_qr_scan", "ios": "https://dc.lft.to/lastmile_qr_scan"}, "lon": -76.9904505, "fusion_lat": 0.0}, {"name": "fe9b663c4387084afcba0264379c7866", "fusion_lon": 0.0, "lat": 38.9277035, "is_reserved": 0, "type": "electric_bike", "bike_id": "fe9b663c4387084afcba0264379c7866", "is_disabled": 0, "rental_uris": {"android": "https://dc.lft.to/lastmile_qr_scan", "ios": "https://dc.lft.to/lastmile_qr_scan"}, "lon": -77.0702025, "fusion_lat": 0.0}, {"name": "3f2d9fdb501e76f04e096f892134c3f5", "fusion_lon": 0.0, "lat": 38.903805166666665, "is_reserved": 0, "type": "electric_scooter", "bike_id": "3f2d9fdb501e76f04e096f892134c3f5", "is_disabled": 0, "rental_uris": {"android": "https://dc.lft.to/lastmile_qr_scan", "ios": "https://dc.lft.to/lastmile_qr_scan"}, "lon": -77.03643583333333, "fusion_lat": 0.0}, {"name": "fa0baaad139aa3ce444ddb1dd4ae0864", "fusion_lon": 0.0, "lat": 38.885026333333336, "is_reserved": 0, "type": "electric_scooter", "bike_id": "fa0baaad139aa3ce444ddb1dd4ae0864", "is_disabled": 0, "rental_uris": {"android": "https://dc.lft.to/lastmile_qr_scan", "ios": "https://dc.lft.to/lastmile_qr_scan"}, "lon": -77.0056985, "fusion_lat": 0.0}, {"name": "8e834aab37895e7b6abf0f676a3b73f9", "fusion_lon": 0.0, "lat": 38.9108635, "is_reserved": 0, "type": "electric_scooter", "bike_id": "8e834aab37895e7b6abf0f676a3b73f9", "is_disabled": 0, "rental_uris": {"android": "https://dc.lft.to/lastmile_qr_scan", "ios": "https://dc.lft.to/lastmile_qr_scan"}, "lon": -76.992682, "fusion_lat": 0.0}, {"name": "f7165e7b327b28b42f51edf22bd97225", "fusion_lon": 0.0, "lat": 39.052815, "is_reserved": 0, "type": "electric_bike", "bike_id": "f7165e7b327b28b42f51edf22bd97225", "is_disabled": 0, "rental_uris": {"android": "https://dc.lft.to/lastmile_qr_scan", "ios": "https://dc.lft.to/lastmile_qr_scan"}, "lon": -77.08073133333333, "fusion_lat": 0.0}, {"name": "33f425506fef6b81fb7792c8ab9b4262", "fusion_lon": 0.0, "lat": 38.92434433333333, "is_reserved": 0, "type": "electric_scooter", "bike_id": "33f425506fef6b81fb7792c8ab9b4262", "is_disabled": 0, "rental_uris": {"android": "https://dc.lft.to/lastmile_qr_scan", "ios": "https://dc.lft.to/lastmile_qr_scan"}, "lon": -77.04248983333333, "fusion_lat": 0.0}, {"name": "39f287c0798f94a15c896b8b80d239c3", "fusion_lon": 0.0, "lat": 38.86701133333333, "is_reserved": 0, "type": "electric_scooter", "bike_id": "39f287c0798f94a15c896b8b80d239c3", "is_disabled": 0, "rental_uris": {"android": "https://dc.lft.to/lastmile_qr_scan", "ios": "https://dc.lft.to/lastmile_qr_scan"}, "lon": -76.9871525, "fusion_lat": 0.0}, {"name": "857b11fa3329d93fce432c786168546c", "fusion_lon": 0.0, "lat": 38.87829383333333, "is_reserved": 0, "type": "electric_scooter", "bike_id": "857b11fa3329d93fce432c786168546c", "is_disabled": 0, "rental_uris": {"android": "https://dc.lft.to/lastmile_qr_scan", "ios": "https://dc.lft.to/lastmile_qr_scan"}, "lon": -76.96312466666667, "fusion_lat": 0.0}, {"name": "2a7b99ce092e594d5bf182ab0733f01a", "fusion_lon": 0.0, "lat": 38.947956, "is_reserved": 0, "type": "electric_scooter", "bike_id": "2a7b99ce092e594d5bf182ab0733f01a", "is_disabled": 0, "rental_uris": {"android": "https://dc.lft.to/lastmile_qr_scan", "ios": "https://dc.lft.to/lastmile_qr_scan"}, "lon": -77.08022183333334, "fusion_lat": 0.0}, {"name": "f7deb0ca919e8d9359bbc76a395d480a", "fusion_lon": 0.0, "lat": 38.914664, "is_reserved": 0, "type": "electric_scooter", "bike_id": "f7deb0ca919e8d9359bbc76a395d480a", "is_disabled": 0, "rental_uris": {"android": "https://dc.lft.to/lastmile_qr_scan", "ios": "https://dc.lft.to/lastmile_qr_scan"}, "lon": -76.98420416666667, "fusion_lat": 0.0}, {"name": "9d60328427fdea1e13394654596b80cb", "fusion_lon": 0.0, "lat": 38.8996115, "is_reserved": 0, "type": "electric_scooter", "bike_id": "9d60328427fdea1e13394654596b80cb", "is_disabled": 0, "rental_uris": {"android": "https://dc.lft.to/lastmile_qr_scan", "ios": "https://dc.lft.to/lastmile_qr_scan"}, "lon": -77.0163125, "fusion_lat": 0.0}, {"name": "b341111ed38e9331eb7ff79f1f1c49f5", "fusion_lon": 0.0, "lat": 38.91831066666667, "is_reserved": 0, "type": "electric_scooter", "bike_id": "b341111ed38e9331eb7ff79f1f1c49f5", "is_disabled": 0, "rental_uris": {"android": "https://dc.lft.to/lastmile_qr_scan", "ios": "https://dc.lft.to/lastmile_qr_scan"}, "lon": -77.03168666666667, "fusion_lat": 0.0}, {"name": "a5634656cad3d3faa3a25c38755ffc89", "fusion_lon": 0.0, "lat": 38.916092, "is_reserved": 0, "type": "electric_scooter", "bike_id": "a5634656cad3d3faa3a25c38755ffc89", "is_disabled": 0, "rental_uris": {"android": "https://dc.lft.to/lastmile_qr_scan", "ios": "https://dc.lft.to/lastmile_qr_scan"}, "lon": -76.983752, "fusion_lat": 0.0}, {"name": "f73b14714a21586310d94ac2c85317e6", "fusion_lon": 0.0, "lat": 38.901249, "is_reserved": 0, "type": "electric_scooter", "bike_id": "f73b14714a21586310d94ac2c85317e6", "is_disabled": 0, "rental_uris": {"android": "https://dc.lft.to/lastmile_qr_scan", "ios": "https://dc.lft.to/lastmile_qr_scan"}, "lon": -77.04140433333333, "fusion_lat": 0.0}, {"name": "27465784674c800e0d5fa6140f647f0b", "fusion_lon": 0.0, "lat": 38.921524166666664, "is_reserved": 0, "type": "electric_scooter", "bike_id": "27465784674c800e0d5fa6140f647f0b", "is_disabled": 0, "rental_uris": {"android": "https://dc.lft.to/lastmile_qr_scan", "ios": "https://dc.lft.to/lastmile_qr_scan"}, "lon": -76.99566616666667, "fusion_lat": 0.0}, {"name": "a777e86cd94c13a99c075aeb0db47556", "fusion_lon": 0.0, "lat": 38.91106816666667, "is_reserved": 0, "type": "electric_scooter", "bike_id": "a777e86cd94c13a99c075aeb0db47556", "is_disabled": 0, "rental_uris": {"android": "https://dc.lft.to/lastmile_qr_scan", "ios": "https://dc.lft.to/lastmile_qr_scan"}, "lon": -77.00361983333333, "fusion_lat": 0.0}, {"name": "82cd970b4272e4b5cf1ed704f8af182b", "fusion_lon": 0.0, "lat": 38.86216133333333, "is_reserved": 0, "type": "electric_scooter", "bike_id": "82cd970b4272e4b5cf1ed704f8af182b", "is_disabled": 0, "rental_uris": {"android": "https://dc.lft.to/lastmile_qr_scan", "ios": "https://dc.lft.to/lastmile_qr_scan"}, "lon": -76.9948165, "fusion_lat": 0.0}, {"name": "6883e75ef583d5955709b5ed059b95e0", "fusion_lon": 0.0, "lat": 38.866598833333335, "is_reserved": 0, "type": "electric_scooter", "bike_id": "6883e75ef583d5955709b5ed059b95e0", "is_disabled": 0, "rental_uris": {"android": "https://dc.lft.to/lastmile_qr_scan", "ios": "https://dc.lft.to/lastmile_qr_scan"}, "lon": -76.98883083333334, "fusion_lat": 0.0}, {"name": "9e4fbdf2354a5c0a386153698bb61974", "fusion_lon": 0.0, "lat": 38.871038666666664, "is_reserved": 0, "type": "electric_scooter", "bike_id": "9e4fbdf2354a5c0a386153698bb61974", "is_disabled": 0, "rental_uris": {"android": "https://dc.lft.to/lastmile_qr_scan", "ios": "https://dc.lft.to/lastmile_qr_scan"}, "lon": -76.96573583333333, "fusion_lat": 0.0}, {"name": "14a69632b3e4f24bf9b517a122324f7d", "fusion_lon": 0.0, "lat": 38.9297235, "is_reserved": 0, "type": "electric_scooter", "bike_id": "14a69632b3e4f24bf9b517a122324f7d", "is_disabled": 0, "rental_uris": {"android": "https://dc.lft.to/lastmile_qr_scan", "ios": "https://dc.lft.to/lastmile_qr_scan"}, "lon": -77.0275245, "fusion_lat": 0.0}, {"name": "5ad53631ce6ab3d6c071b16e8093acc8", "fusion_lon": 0.0, "lat": 38.940866666666665, "is_reserved": 0, "type": "electric_scooter", "bike_id": "5ad53631ce6ab3d6c071b16e8093acc8", "is_disabled": 0, "rental_uris": {"android": "https://dc.lft.to/lastmile_qr_scan", "ios": "https://dc.lft.to/lastmile_qr_scan"}, "lon": -77.02729966666666, "fusion_lat": 0.0}, {"name": "dabbdbde527e40f63b8c6d9f3ff13687", "fusion_lon": 0.0, "lat": 38.88736466666667, "is_reserved": 0, "type": "electric_scooter", "bike_id": "dabbdbde527e40f63b8c6d9f3ff13687", "is_disabled": 0, "rental_uris": {"android": "https://dc.lft.to/lastmile_qr_scan", "ios": "https://dc.lft.to/lastmile_qr_scan"}, "lon": -77.028303, "fusion_lat": 0.0}, {"name": "122fdfe97f01d8e641a3ed57c60494fc", "fusion_lon": 0.0, "lat": 38.9184515, "is_reserved": 0, "type": "electric_scooter", "bike_id": "122fdfe97f01d8e641a3ed57c60494fc", "is_disabled": 0, "rental_uris": {"android": "https://dc.lft.to/lastmile_qr_scan", "ios": "https://dc.lft.to/lastmile_qr_scan"}, "lon": -77.023109, "fusion_lat": 0.0}, {"name": "f027d7638d636e77678f6054795b80ef", "fusion_lon": 0.0, "lat": 38.922172833333335, "is_reserved": 0, "type": "electric_scooter", "bike_id": "f027d7638d636e77678f6054795b80ef", "is_disabled": 0, "rental_uris": {"android": "https://dc.lft.to/lastmile_qr_scan", "ios": "https://dc.lft.to/lastmile_qr_scan"}, "lon": -76.98746433333334, "fusion_lat": 0.0}, {"name": "630fc1630035002b137fb1487777d28d", "fusion_lon": 0.0, "lat": 38.945182, "is_reserved": 0, "type": "electric_scooter", "bike_id": "630fc1630035002b137fb1487777d28d", "is_disabled": 0, "rental_uris": {"android": "https://dc.lft.to/lastmile_qr_scan", "ios": "https://dc.lft.to/lastmile_qr_scan"}, "lon": -77.033632, "fusion_lat": 0.0}, {"name": "0361081a6417ca8c21495f30f60da402", "fusion_lon": 0.0, "lat": 38.92488916666667, "is_reserved": 0, "type": "electric_scooter", "bike_id": "0361081a6417ca8c21495f30f60da402", "is_disabled": 0, "rental_uris": {"android": "https://dc.lft.to/lastmile_qr_scan", "ios": "https://dc.lft.to/lastmile_qr_scan"}, "lon": -77.03184483333334, "fusion_lat": 0.0}, {"name": "c059f563588fb42978723c74a1628615", "fusion_lon": 0.0, "lat": 38.87660133333333, "is_reserved": 0, "type": "electric_scooter", "bike_id": "c059f563588fb42978723c74a1628615", "is_disabled": 0, "rental_uris": {"android": "https://dc.lft.to/lastmile_qr_scan", "ios": "https://dc.lft.to/lastmile_qr_scan"}, "lon": -77.00319133333333, "fusion_lat": 0.0}, {"name": "75e1e0f76dc2a62aa298e2195f6148e0", "fusion_lon": 0.0, "lat": 38.909993166666666, "is_reserved": 0, "type": "electric_scooter", "bike_id": "75e1e0f76dc2a62aa298e2195f6148e0", "is_disabled": 0, "rental_uris": {"android": "https://dc.lft.to/lastmile_qr_scan", "ios": "https://dc.lft.to/lastmile_qr_scan"}, "lon": -77.03842233333333, "fusion_lat": 0.0}, {"name": "7db4f36d95ef3fe5be26d7dfb7219e13", "fusion_lon": 0.0, "lat": 38.87013366666667, "is_reserved": 0, "type": "electric_scooter", "bike_id": "7db4f36d95ef3fe5be26d7dfb7219e13", "is_disabled": 0, "rental_uris": {"android": "https://dc.lft.to/lastmile_qr_scan", "ios": "https://dc.lft.to/lastmile_qr_scan"}, "lon": -76.98086633333334, "fusion_lat": 0.0}, {"name": "e6e46b904e5805c8b294aa5593acf26f", "fusion_lon": 0.0, "lat": 38.8661605, "is_reserved": 0, "type": "electric_bike", "bike_id": "e6e46b904e5805c8b294aa5593acf26f", "is_disabled": 0, "rental_uris": {"android": "https://dc.lft.to/lastmile_qr_scan", "ios": "https://dc.lft.to/lastmile_qr_scan"}, "lon": -77.08783633333333, "fusion_lat": 0.0}, {"name": "ce1db0d9bcdc7ad92d1f258d1e4e5db7", "fusion_lon": 0.0, "lat": 38.92465133333334, "is_reserved": 0, "type": "electric_scooter", "bike_id": "ce1db0d9bcdc7ad92d1f258d1e4e5db7", "is_disabled": 0, "rental_uris": {"android": "https://dc.lft.to/lastmile_qr_scan", "ios": "https://dc.lft.to/lastmile_qr_scan"}, "lon": -77.02711733333334, "fusion_lat": 0.0}, {"name": "3b2eca16bb562275acc6a6f7d22f3d46", "fusion_lon": 0.0, "lat": 38.89227133333333, "is_reserved": 0, "type": "electric_scooter", "bike_id": "3b2eca16bb562275acc6a6f7d22f3d46", "is_disabled": 0, "rental_uris": {"android": "https://dc.lft.to/lastmile_qr_scan", "ios": "https://dc.lft.to/lastmile_qr_scan"}, "lon": -77.04862033333333, "fusion_lat": 0.0}, {"name": "7548caf104eb47b3632d90fa171ab7c2", "fusion_lon": 0.0, "lat": 38.93233816666667, "is_reserved": 0, "type": "electric_scooter", "bike_id": "7548caf104eb47b3632d90fa171ab7c2", "is_disabled": 0, "rental_uris": {"android": "https://dc.lft.to/lastmile_qr_scan", "ios": "https://dc.lft.to/lastmile_qr_scan"}, "lon": -77.03867966666667, "fusion_lat": 0.0}, {"name": "7ea3f1da83cc7a874238c7aa9a29fb26", "fusion_lon": 0.0, "lat": 38.9079115, "is_reserved": 0, "type": "electric_scooter", "bike_id": "7ea3f1da83cc7a874238c7aa9a29fb26", "is_disabled": 0, "rental_uris": {"android": "https://dc.lft.to/lastmile_qr_scan", "ios": "https://dc.lft.to/lastmile_qr_scan"}, "lon": -77.00210016666666, "fusion_lat": 0.0}, {"name": "f395aa973ba6e88cea3c8ad89c19527d", "fusion_lon": 0.0, "lat": 38.893306333333335, "is_reserved": 0, "type": "electric_scooter", "bike_id": "f395aa973ba6e88cea3c8ad89c19527d", "is_disabled": 0, "rental_uris": {"android": "https://dc.lft.to/lastmile_qr_scan", "ios": "https://dc.lft.to/lastmile_qr_scan"}, "lon": -77.01814566666667, "fusion_lat": 0.0}, {"name": "a24a55c339ccc9287f0c59c1b5707f92", "fusion_lon": 0.0, "lat": 38.9768365, "is_reserved": 0, "type": "electric_scooter", "bike_id": "a24a55c339ccc9287f0c59c1b5707f92", "is_disabled": 0, "rental_uris": {"android": "https://dc.lft.to/lastmile_qr_scan", "ios": "https://dc.lft.to/lastmile_qr_scan"}, "lon": -77.016574, "fusion_lat": 0.0}, {"name": "efc39c2c9a39cafd6597ebc65103b839", "fusion_lon": 0.0, "lat": 38.9241925, "is_reserved": 0, "type": "electric_scooter", "bike_id": "efc39c2c9a39cafd6597ebc65103b839", "is_disabled": 0, "rental_uris": {"android": "https://dc.lft.to/lastmile_qr_scan", "ios": "https://dc.lft.to/lastmile_qr_scan"}, "lon": -77.050674, "fusion_lat": 0.0}, {"name": "5dd15f2441b92d86bbb7cdd95ffe3609", "fusion_lon": 0.0, "lat": 38.88486916666667, "is_reserved": 0, "type": "electric_scooter", "bike_id": "5dd15f2441b92d86bbb7cdd95ffe3609", "is_disabled": 0, "rental_uris": {"android": "https://dc.lft.to/lastmile_qr_scan", "ios": "https://dc.lft.to/lastmile_qr_scan"}, "lon": -77.00917683333333, "fusion_lat": 0.0}, {"name": "66f527d004f5449beea90ad477bc702b", "fusion_lon": 0.0, "lat": 38.88893433333333, "is_reserved": 0, "type": "electric_scooter", "bike_id": "66f527d004f5449beea90ad477bc702b", "is_disabled": 0, "rental_uris": {"android": "https://dc.lft.to/lastmile_qr_scan", "ios": "https://dc.lft.to/lastmile_qr_scan"}, "lon": -76.947786, "fusion_lat": 0.0}, {"name": "d931b5b97d339a8867b3ed51840cd7b3", "fusion_lon": 0.0, "lat": 38.9009145, "is_reserved": 0, "type": "electric_scooter", "bike_id": "d931b5b97d339a8867b3ed51840cd7b3", "is_disabled": 0, "rental_uris": {"android": "https://dc.lft.to/lastmile_qr_scan", "ios": "https://dc.lft.to/lastmile_qr_scan"}, "lon": -76.98332533333334, "fusion_lat": 0.0}, {"name": "5103083c776e842042a0b1f4711b157d", "fusion_lon": 0.0, "lat": 38.9427265, "is_reserved": 0, "type": "electric_bike", "bike_id": "5103083c776e842042a0b1f4711b157d", "is_disabled": 0, "rental_uris": {"android": "https://dc.lft.to/lastmile_qr_scan", "ios": "https://dc.lft.to/lastmile_qr_scan"}, "lon": -77.02836466666666, "fusion_lat": 0.0}, {"name": "b9666dba2660251869519ae7202e904e", "fusion_lon": 0.0, "lat": 38.91028633333333, "is_reserved": 0, "type": "electric_scooter", "bike_id": "b9666dba2660251869519ae7202e904e", "is_disabled": 0, "rental_uris": {"android": "https://dc.lft.to/lastmile_qr_scan", "ios": "https://dc.lft.to/lastmile_qr_scan"}, "lon": -77.007575, "fusion_lat": 0.0}, {"name": "730fbdfeae92941f28b652dc82aae430", "fusion_lon": 0.0, "lat": 38.796128833333334, "is_reserved": 0, "type": "electric_bike", "bike_id": "730fbdfeae92941f28b652dc82aae430", "is_disabled": 0, "rental_uris": {"android": "https://dc.lft.to/lastmile_qr_scan", "ios": "https://dc.lft.to/lastmile_qr_scan"}, "lon": -76.997424, "fusion_lat": 0.0}, {"name": "e80adb7d21d73a8e458deeb7a51855a6", "fusion_lon": 0.0, "lat": 38.916981, "is_reserved": 0, "type": "electric_scooter", "bike_id": "e80adb7d21d73a8e458deeb7a51855a6", "is_disabled": 0, "rental_uris": {"android": "https://dc.lft.to/lastmile_qr_scan", "ios": "https://dc.lft.to/lastmile_qr_scan"}, "lon": -77.0259465, "fusion_lat": 0.0}, {"name": "e05a4a441ec932e4c6c58d8241ce9fd0", "fusion_lon": 0.0, "lat": 38.9169575, "is_reserved": 0, "type": "electric_scooter", "bike_id": "e05a4a441ec932e4c6c58d8241ce9fd0", "is_disabled": 0, "rental_uris": {"android": "https://dc.lft.to/lastmile_qr_scan", "ios": "https://dc.lft.to/lastmile_qr_scan"}, "lon": -77.02343916666666, "fusion_lat": 0.0}, {"name": "76eaed9178a7cd3b2519daef6e218227", "fusion_lon": 0.0, "lat": 38.92352066666667, "is_reserved": 0, "type": "electric_scooter", "bike_id": "76eaed9178a7cd3b2519daef6e218227", "is_disabled": 0, "rental_uris": {"android": "https://dc.lft.to/lastmile_qr_scan", "ios": "https://dc.lft.to/lastmile_qr_scan"}, "lon": -77.05080733333334, "fusion_lat": 0.0}, {"name": "22ba8edc3b3bd5e9fca34e0d078d0cc2", "fusion_lon": 0.0, "lat": 39.01373233333333, "is_reserved": 0, "type": "electric_bike", "bike_id": "22ba8edc3b3bd5e9fca34e0d078d0cc2", "is_disabled": 0, "rental_uris": {"android": "https://dc.lft.to/lastmile_qr_scan", "ios": "https://dc.lft.to/lastmile_qr_scan"}, "lon": -76.92135583333334, "fusion_lat": 0.0}, {"name": "242ab362ecd37c7ffcdf2e9db4c1de9f", "fusion_lon": 0.0, "lat": 38.9192215, "is_reserved": 0, "type": "electric_scooter", "bike_id": "242ab362ecd37c7ffcdf2e9db4c1de9f", "is_disabled": 0, "rental_uris": {"android": "https://dc.lft.to/lastmile_qr_scan", "ios": "https://dc.lft.to/lastmile_qr_scan"}, "lon": -77.02148066666666, "fusion_lat": 0.0}, {"name": "87267482af4952465237c06042b166c2", "fusion_lon": 0.0, "lat": 38.892239333333336, "is_reserved": 0, "type": "electric_scooter", "bike_id": "87267482af4952465237c06042b166c2", "is_disabled": 0, "rental_uris": {"android": "https://dc.lft.to/lastmile_qr_scan", "ios": "https://dc.lft.to/lastmile_qr_scan"}, "lon": -77.048032, "fusion_lat": 0.0}, {"name": "22dd91545085a02abe7c86652299af96", "fusion_lon": 0.0, "lat": 38.896590333333336, "is_reserved": 0, "type": "electric_scooter", "bike_id": "22dd91545085a02abe7c86652299af96", "is_disabled": 0, "rental_uris": {"android": "https://dc.lft.to/lastmile_qr_scan", "ios": "https://dc.lft.to/lastmile_qr_scan"}, "lon": -77.02708383333334, "fusion_lat": 0.0}, {"name": "f2369bc68543413b4e6f332d5f886a6f", "fusion_lon": 0.0, "lat": 38.9178295, "is_reserved": 0, "type": "electric_scooter", "bike_id": "f2369bc68543413b4e6f332d5f886a6f", "is_disabled": 0, "rental_uris": {"android": "https://dc.lft.to/lastmile_qr_scan", "ios": "https://dc.lft.to/lastmile_qr_scan"}, "lon": -77.01792633333334, "fusion_lat": 0.0}, {"name": "218757b09746e0a3b602b06b73e094d2", "fusion_lon": 0.0, "lat": 38.923185, "is_reserved": 0, "type": "electric_scooter", "bike_id": "218757b09746e0a3b602b06b73e094d2", "is_disabled": 0, "rental_uris": {"android": "https://dc.lft.to/lastmile_qr_scan", "ios": "https://dc.lft.to/lastmile_qr_scan"}, "lon": -77.04180183333334, "fusion_lat": 0.0}, {"name": "9a21d0da15466ae1b303e2a61ab071cc", "fusion_lon": 0.0, "lat": 38.94285283333333, "is_reserved": 0, "type": "electric_bike", "bike_id": "9a21d0da15466ae1b303e2a61ab071cc", "is_disabled": 0, "rental_uris": {"android": "https://dc.lft.to/lastmile_qr_scan", "ios": "https://dc.lft.to/lastmile_qr_scan"}, "lon": -76.9878445, "fusion_lat": 0.0}, {"name": "ae4a3e9d05a4a67bfb085c9907bd0b48", "fusion_lon": 0.0, "lat": 38.91969183333333, "is_reserved": 0, "type": "electric_scooter", "bike_id": "ae4a3e9d05a4a67bfb085c9907bd0b48", "is_disabled": 0, "rental_uris": {"android": "https://dc.lft.to/lastmile_qr_scan", "ios": "https://dc.lft.to/lastmile_qr_scan"}, "lon": -77.03858133333334, "fusion_lat": 0.0}, {"name": "d9bd95fd64616aea3cd33c8d8c13421a", "fusion_lon": 0.0, "lat": 38.888758833333334, "is_reserved": 0, "type": "electric_scooter", "bike_id": "d9bd95fd64616aea3cd33c8d8c13421a", "is_disabled": 0, "rental_uris": {"android": "https://dc.lft.to/lastmile_qr_scan", "ios": "https://dc.lft.to/lastmile_qr_scan"}, "lon": -76.99031816666667, "fusion_lat": 0.0}, {"name": "3a2318ddd05e93d98616bf0ee4b36c93", "fusion_lon": 0.0, "lat": 38.8826515, "is_reserved": 0, "type": "electric_scooter", "bike_id": "3a2318ddd05e93d98616bf0ee4b36c93", "is_disabled": 0, "rental_uris": {"android": "https://dc.lft.to/lastmile_qr_scan", "ios": "https://dc.lft.to/lastmile_qr_scan"}, "lon": -77.008501, "fusion_lat": 0.0}, {"name": "ca886380e6dba078a7cb1e1457e217bf", "fusion_lon": 0.0, "lat": 38.900888333333334, "is_reserved": 0, "type": "electric_scooter", "bike_id": "ca886380e6dba078a7cb1e1457e217bf", "is_disabled": 0, "rental_uris": {"android": "https://dc.lft.to/lastmile_qr_scan", "ios": "https://dc.lft.to/lastmile_qr_scan"}, "lon": -77.04755133333333, "fusion_lat": 0.0}, {"name": "d35407a0193e836755d5a6b29f859ed3", "fusion_lon": 0.0, "lat": 38.909732, "is_reserved": 0, "type": "electric_scooter", "bike_id": "d35407a0193e836755d5a6b29f859ed3", "is_disabled": 0, "rental_uris": {"android": "https://dc.lft.to/lastmile_qr_scan", "ios": "https://dc.lft.to/lastmile_qr_scan"}, "lon": -77.0423715, "fusion_lat": 0.0}, {"name": "4885042b53b5897a1f8c504fd48dd8c6", "fusion_lon": 0.0, "lat": 38.874779333333336, "is_reserved": 0, "type": "electric_scooter", "bike_id": "4885042b53b5897a1f8c504fd48dd8c6", "is_disabled": 0, "rental_uris": {"android": "https://dc.lft.to/lastmile_qr_scan", "ios": "https://dc.lft.to/lastmile_qr_scan"}, "lon": -76.999868, "fusion_lat": 0.0}, {"name": "77d05a009ea77bf1c0d20f2699c940b6", "fusion_lon": 0.0, "lat": 38.92484833333334, "is_reserved": 0, "type": "electric_scooter", "bike_id": "77d05a009ea77bf1c0d20f2699c940b6", "is_disabled": 0, "rental_uris": {"android": "https://dc.lft.to/lastmile_qr_scan", "ios": "https://dc.lft.to/lastmile_qr_scan"}, "lon": -77.03179933333334, "fusion_lat": 0.0}, {"name": "c5238ad06adc4db25903fb0931fb28e2", "fusion_lon": 0.0, "lat": 38.907779833333336, "is_reserved": 0, "type": "electric_scooter", "bike_id": "c5238ad06adc4db25903fb0931fb28e2", "is_disabled": 0, "rental_uris": {"android": "https://dc.lft.to/lastmile_qr_scan", "ios": "https://dc.lft.to/lastmile_qr_scan"}, "lon": -77.03832933333334, "fusion_lat": 0.0}, {"name": "8c3295268be1e91dc78ad128f62f33ec", "fusion_lon": 0.0, "lat": 38.874264833333335, "is_reserved": 0, "type": "electric_scooter", "bike_id": "8c3295268be1e91dc78ad128f62f33ec", "is_disabled": 0, "rental_uris": {"android": "https://dc.lft.to/lastmile_qr_scan", "ios": "https://dc.lft.to/lastmile_qr_scan"}, "lon": -76.9677095, "fusion_lat": 0.0}, {"name": "cb95332670a27022e3bbf2d096620665", "fusion_lon": 0.0, "lat": 38.97400916666667, "is_reserved": 0, "type": "electric_bike", "bike_id": "cb95332670a27022e3bbf2d096620665", "is_disabled": 0, "rental_uris": {"android": "https://dc.lft.to/lastmile_qr_scan", "ios": "https://dc.lft.to/lastmile_qr_scan"}, "lon": -77.06449733333334, "fusion_lat": 0.0}, {"name": "9af7a933b7cf258dcd9fb63ece510641", "fusion_lon": 0.0, "lat": 38.92768266666667, "is_reserved": 0, "type": "electric_scooter", "bike_id": "9af7a933b7cf258dcd9fb63ece510641", "is_disabled": 0, "rental_uris": {"android": "https://dc.lft.to/lastmile_qr_scan", "ios": "https://dc.lft.to/lastmile_qr_scan"}, "lon": -77.04062433333333, "fusion_lat": 0.0}, {"name": "afadd1e214cecac481a2678bfbaa2ab3", "fusion_lon": 0.0, "lat": 38.909939666666666, "is_reserved": 0, "type": "electric_scooter", "bike_id": "afadd1e214cecac481a2678bfbaa2ab3", "is_disabled": 0, "rental_uris": {"android": "https://dc.lft.to/lastmile_qr_scan", "ios": "https://dc.lft.to/lastmile_qr_scan"}, "lon": -77.03187883333334, "fusion_lat": 0.0}, {"name": "047a91f3267e5b81538652ae278d08b1", "fusion_lon": 0.0, "lat": 38.9148355, "is_reserved": 0, "type": "electric_scooter", "bike_id": "047a91f3267e5b81538652ae278d08b1", "is_disabled": 0, "rental_uris": {"android": "https://dc.lft.to/lastmile_qr_scan", "ios": "https://dc.lft.to/lastmile_qr_scan"}, "lon": -77.0322965, "fusion_lat": 0.0}, {"name": "4b8981c9732d2be1db0eb812bf03ae75", "fusion_lon": 0.0, "lat": 38.91551966666667, "is_reserved": 0, "type": "electric_scooter", "bike_id": "4b8981c9732d2be1db0eb812bf03ae75", "is_disabled": 0, "rental_uris": {"android": "https://dc.lft.to/lastmile_qr_scan", "ios": "https://dc.lft.to/lastmile_qr_scan"}, "lon": -77.05323683333333, "fusion_lat": 0.0}, {"name": "2af4d818d8ec0c131fcc69ce38c9e302", "fusion_lon": 0.0, "lat": 38.92107266666667, "is_reserved": 0, "type": "electric_scooter", "bike_id": "2af4d818d8ec0c131fcc69ce38c9e302", "is_disabled": 0, "rental_uris": {"android": "https://dc.lft.to/lastmile_qr_scan", "ios": "https://dc.lft.to/lastmile_qr_scan"}, "lon": -77.039276, "fusion_lat": 0.0}, {"name": "ed4baf4ff474c3b78b6ad5ab66610346", "fusion_lon": 0.0, "lat": 38.91993016666667, "is_reserved": 0, "type": "electric_scooter", "bike_id": "ed4baf4ff474c3b78b6ad5ab66610346", "is_disabled": 0, "rental_uris": {"android": "https://dc.lft.to/lastmile_qr_scan", "ios": "https://dc.lft.to/lastmile_qr_scan"}, "lon": -77.02141616666667, "fusion_lat": 0.0}, {"name": "7f098c5fa63c9fb12bcea3f147f68566", "fusion_lon": 0.0, "lat": 38.90217166666667, "is_reserved": 0, "type": "electric_scooter", "bike_id": "7f098c5fa63c9fb12bcea3f147f68566", "is_disabled": 0, "rental_uris": {"android": "https://dc.lft.to/lastmile_qr_scan", "ios": "https://dc.lft.to/lastmile_qr_scan"}, "lon": -77.0237625, "fusion_lat": 0.0}, {"name": "d06ce5ecf52b8a8875003adb042f7b70", "fusion_lon": 0.0, "lat": 38.90154716666667, "is_reserved": 0, "type": "electric_scooter", "bike_id": "d06ce5ecf52b8a8875003adb042f7b70", "is_disabled": 0, "rental_uris": {"android": "https://dc.lft.to/lastmile_qr_scan", "ios": "https://dc.lft.to/lastmile_qr_scan"}, "lon": -76.92983033333333, "fusion_lat": 0.0}, {"name": "76083c3a0228b35c7503a294b0a79079", "fusion_lon": 0.0, "lat": 38.91772133333333, "is_reserved": 0, "type": "electric_scooter", "bike_id": "76083c3a0228b35c7503a294b0a79079", "is_disabled": 0, "rental_uris": {"android": "https://dc.lft.to/lastmile_qr_scan", "ios": "https://dc.lft.to/lastmile_qr_scan"}, "lon": -77.047668, "fusion_lat": 0.0}, {"name": "c0566c14f2c4f2a73ed190de007c6d86", "fusion_lon": 0.0, "lat": 38.9562925, "is_reserved": 0, "type": "electric_bike", "bike_id": "c0566c14f2c4f2a73ed190de007c6d86", "is_disabled": 0, "rental_uris": {"android": "https://dc.lft.to/lastmile_qr_scan", "ios": "https://dc.lft.to/lastmile_qr_scan"}, "lon": -76.93873983333333, "fusion_lat": 0.0}, {"name": "06b7f2deb5c18e7426ab8f54a471cf23", "fusion_lon": 0.0, "lat": 38.98439333333334, "is_reserved": 0, "type": "electric_scooter", "bike_id": "06b7f2deb5c18e7426ab8f54a471cf23", "is_disabled": 0, "rental_uris": {"android": "https://dc.lft.to/lastmile_qr_scan", "ios": "https://dc.lft.to/lastmile_qr_scan"}, "lon": -77.026811, "fusion_lat": 0.0}, {"name": "7e84409d94f060d5974e1ea5d0795866", "fusion_lon": 0.0, "lat": 38.90385833333333, "is_reserved": 0, "type": "electric_scooter", "bike_id": "7e84409d94f060d5974e1ea5d0795866", "is_disabled": 0, "rental_uris": {"android": "https://dc.lft.to/lastmile_qr_scan", "ios": "https://dc.lft.to/lastmile_qr_scan"}, "lon": -77.0262585, "fusion_lat": 0.0}, {"name": "0ba18b2e371f4007eb06f46ace9de77b", "fusion_lon": 0.0, "lat": 38.9037975, "is_reserved": 0, "type": "electric_scooter", "bike_id": "0ba18b2e371f4007eb06f46ace9de77b", "is_disabled": 0, "rental_uris": {"android": "https://dc.lft.to/lastmile_qr_scan", "ios": "https://dc.lft.to/lastmile_qr_scan"}, "lon": -77.017356, "fusion_lat": 0.0}, {"name": "ed87d728f3f18eddb9563221024f0ca6", "fusion_lon": 0.0, "lat": 38.89481983333334, "is_reserved": 0, "type": "electric_scooter", "bike_id": "ed87d728f3f18eddb9563221024f0ca6", "is_disabled": 0, "rental_uris": {"android": "https://dc.lft.to/lastmile_qr_scan", "ios": "https://dc.lft.to/lastmile_qr_scan"}, "lon": -77.0465685, "fusion_lat": 0.0}, {"name": "47247acf3eb91d3650753dfb62f22fca", "fusion_lon": 0.0, "lat": 38.89226133333333, "is_reserved": 0, "type": "electric_scooter", "bike_id": "47247acf3eb91d3650753dfb62f22fca", "is_disabled": 0, "rental_uris": {"android": "https://dc.lft.to/lastmile_qr_scan", "ios": "https://dc.lft.to/lastmile_qr_scan"}, "lon": -77.048726, "fusion_lat": 0.0}, {"name": "d5f9f0db55bfbc9f93dc7e01bf4083cd", "fusion_lon": 0.0, "lat": 38.892471666666665, "is_reserved": 0, "type": "electric_scooter", "bike_id": "d5f9f0db55bfbc9f93dc7e01bf4083cd", "is_disabled": 0, "rental_uris": {"android": "https://dc.lft.to/lastmile_qr_scan", "ios": "https://dc.lft.to/lastmile_qr_scan"}, "lon": -77.02414766666666, "fusion_lat": 0.0}, {"name": "e44cde6bc513ad8bfc890d9b0d5ad801", "fusion_lon": 0.0, "lat": 38.8783605, "is_reserved": 0, "type": "electric_scooter", "bike_id": "e44cde6bc513ad8bfc890d9b0d5ad801", "is_disabled": 0, "rental_uris": {"android": "https://dc.lft.to/lastmile_qr_scan", "ios": "https://dc.lft.to/lastmile_qr_scan"}, "lon": -77.01596683333334, "fusion_lat": 0.0}, {"name": "53aee9c161313a1657eaf87abd13bfc0", "fusion_lon": 0.0, "lat": 38.9173665, "is_reserved": 0, "type": "electric_scooter", "bike_id": "53aee9c161313a1657eaf87abd13bfc0", "is_disabled": 0, "rental_uris": {"android": "https://dc.lft.to/lastmile_qr_scan", "ios": "https://dc.lft.to/lastmile_qr_scan"}, "lon": -77.032121, "fusion_lat": 0.0}, {"name": "4e0ff9cc92f3176220b38d4bd51982c7", "fusion_lon": 0.0, "lat": 38.907595, "is_reserved": 0, "type": "electric_scooter", "bike_id": "4e0ff9cc92f3176220b38d4bd51982c7", "is_disabled": 0, "rental_uris": {"android": "https://dc.lft.to/lastmile_qr_scan", "ios": "https://dc.lft.to/lastmile_qr_scan"}, "lon": -77.0260005, "fusion_lat": 0.0}, {"name": "914c6a992496fb0764bfb1a69362f489", "fusion_lon": 0.0, "lat": 38.920350666666664, "is_reserved": 0, "type": "electric_scooter", "bike_id": "914c6a992496fb0764bfb1a69362f489", "is_disabled": 0, "rental_uris": {"android": "https://dc.lft.to/lastmile_qr_scan", "ios": "https://dc.lft.to/lastmile_qr_scan"}, "lon": -77.0258785, "fusion_lat": 0.0}, {"name": "22865ac159d7624bc5bcdaa6cae8d59c", "fusion_lon": 0.0, "lat": 38.90246333333333, "is_reserved": 0, "type": "electric_scooter", "bike_id": "22865ac159d7624bc5bcdaa6cae8d59c", "is_disabled": 0, "rental_uris": {"android": "https://dc.lft.to/lastmile_qr_scan", "ios": "https://dc.lft.to/lastmile_qr_scan"}, "lon": -77.04858666666667, "fusion_lat": 0.0}, {"name": "8ccea4c1c161be4654f90c7871a59a09", "fusion_lon": 0.0, "lat": 38.89303366666667, "is_reserved": 0, "type": "electric_scooter", "bike_id": "8ccea4c1c161be4654f90c7871a59a09", "is_disabled": 0, "rental_uris": {"android": "https://dc.lft.to/lastmile_qr_scan", "ios": "https://dc.lft.to/lastmile_qr_scan"}, "lon": -76.93924883333334, "fusion_lat": 0.0}, {"name": "1c3e194f36e1cc561be4cebed9cbef5c", "fusion_lon": 0.0, "lat": 38.92881583333333, "is_reserved": 0, "type": "electric_scooter", "bike_id": "1c3e194f36e1cc561be4cebed9cbef5c", "is_disabled": 0, "rental_uris": {"android": "https://dc.lft.to/lastmile_qr_scan", "ios": "https://dc.lft.to/lastmile_qr_scan"}, "lon": -77.04232316666666, "fusion_lat": 0.0}, {"name": "88d244d16ebc8474993017c4a9874ec0", "fusion_lon": 0.0, "lat": 38.92152733333333, "is_reserved": 0, "type": "electric_scooter", "bike_id": "88d244d16ebc8474993017c4a9874ec0", "is_disabled": 0, "rental_uris": {"android": "https://dc.lft.to/lastmile_qr_scan", "ios": "https://dc.lft.to/lastmile_qr_scan"}, "lon": -77.03469983333333, "fusion_lat": 0.0}, {"name": "d962029221025f8021c5476a5f2d8fcb", "fusion_lon": 0.0, "lat": 38.87230483333333, "is_reserved": 0, "type": "electric_scooter", "bike_id": "d962029221025f8021c5476a5f2d8fcb", "is_disabled": 0, "rental_uris": {"android": "https://dc.lft.to/lastmile_qr_scan", "ios": "https://dc.lft.to/lastmile_qr_scan"}, "lon": -77.01170166666667, "fusion_lat": 0.0}, {"name": "323d228f59138df5df3e008d84df3737", "fusion_lon": 0.0, "lat": 38.9026675, "is_reserved": 0, "type": "electric_scooter", "bike_id": "323d228f59138df5df3e008d84df3737", "is_disabled": 0, "rental_uris": {"android": "https://dc.lft.to/lastmile_qr_scan", "ios": "https://dc.lft.to/lastmile_qr_scan"}, "lon": -77.01761683333334, "fusion_lat": 0.0}, {"name": "eda0b9405e9049af1af61330e442f030", "fusion_lon": 0.0, "lat": 38.898843, "is_reserved": 0, "type": "electric_scooter", "bike_id": "eda0b9405e9049af1af61330e442f030", "is_disabled": 0, "rental_uris": {"android": "https://dc.lft.to/lastmile_qr_scan", "ios": "https://dc.lft.to/lastmile_qr_scan"}, "lon": -77.03283983333333, "fusion_lat": 0.0}, {"name": "da688452f484bc96f2ce15a9814a9638", "fusion_lon": 0.0, "lat": 38.90013966666667, "is_reserved": 0, "type": "electric_scooter", "bike_id": "da688452f484bc96f2ce15a9814a9638", "is_disabled": 0, "rental_uris": {"android": "https://dc.lft.to/lastmile_qr_scan", "ios": "https://dc.lft.to/lastmile_qr_scan"}, "lon": -77.00140083333334, "fusion_lat": 0.0}, {"name": "2253c09bc7d3d3950450d3c582ccad1f", "fusion_lon": 0.0, "lat": 38.91129766666667, "is_reserved": 0, "type": "electric_scooter", "bike_id": "2253c09bc7d3d3950450d3c582ccad1f", "is_disabled": 0, "rental_uris": {"android": "https://dc.lft.to/lastmile_qr_scan", "ios": "https://dc.lft.to/lastmile_qr_scan"}, "lon": -77.02242683333333, "fusion_lat": 0.0}, {"name": "c329f102e03402f676ac77971915537b", "fusion_lon": 0.0, "lat": 38.930699, "is_reserved": 0, "type": "electric_scooter", "bike_id": "c329f102e03402f676ac77971915537b", "is_disabled": 0, "rental_uris": {"android": "https://dc.lft.to/lastmile_qr_scan", "ios": "https://dc.lft.to/lastmile_qr_scan"}, "lon": -77.02189666666666, "fusion_lat": 0.0}, {"name": "b15e8470f52a50cb488ec3956d341577", "fusion_lon": 0.0, "lat": 38.8708705, "is_reserved": 0, "type": "electric_bike", "bike_id": "b15e8470f52a50cb488ec3956d341577", "is_disabled": 0, "rental_uris": {"android": "https://dc.lft.to/lastmile_qr_scan", "ios": "https://dc.lft.to/lastmile_qr_scan"}, "lon": -77.01208983333333, "fusion_lat": 0.0}, {"name": "b763ebbd24a3e27c1751aaa4c788fd05", "fusion_lon": 0.0, "lat": 38.9027875, "is_reserved": 0, "type": "electric_scooter", "bike_id": "b763ebbd24a3e27c1751aaa4c788fd05", "is_disabled": 0, "rental_uris": {"android": "https://dc.lft.to/lastmile_qr_scan", "ios": "https://dc.lft.to/lastmile_qr_scan"}, "lon": -77.05920183333333, "fusion_lat": 0.0}, {"name": "bc5f7301786c08183c5ae6d3cf6d170a", "fusion_lon": 0.0, "lat": 38.86949516666667, "is_reserved": 0, "type": "electric_scooter", "bike_id": "bc5f7301786c08183c5ae6d3cf6d170a", "is_disabled": 0, "rental_uris": {"android": "https://dc.lft.to/lastmile_qr_scan", "ios": "https://dc.lft.to/lastmile_qr_scan"}, "lon": -76.981741, "fusion_lat": 0.0}, {"name": "082a28c4938cca5a5568ef49eebb7366", "fusion_lon": 0.0, "lat": 38.90753483333334, "is_reserved": 0, "type": "electric_scooter", "bike_id": "082a28c4938cca5a5568ef49eebb7366", "is_disabled": 0, "rental_uris": {"android": "https://dc.lft.to/lastmile_qr_scan", "ios": "https://dc.lft.to/lastmile_qr_scan"}, "lon": -77.043382, "fusion_lat": 0.0}, {"name": "b462ec7f8e6d40503fdb4fdeb25ff124", "fusion_lon": 0.0, "lat": 38.90155433333334, "is_reserved": 0, "type": "electric_scooter", "bike_id": "b462ec7f8e6d40503fdb4fdeb25ff124", "is_disabled": 0, "rental_uris": {"android": "https://dc.lft.to/lastmile_qr_scan", "ios": "https://dc.lft.to/lastmile_qr_scan"}, "lon": -77.01992083333333, "fusion_lat": 0.0}, {"name": "62a42c405fd636003f424e20aeb12662", "fusion_lon": 0.0, "lat": 38.897500666666666, "is_reserved": 0, "type": "electric_scooter", "bike_id": "62a42c405fd636003f424e20aeb12662", "is_disabled": 0, "rental_uris": {"android": "https://dc.lft.to/lastmile_qr_scan", "ios": "https://dc.lft.to/lastmile_qr_scan"}, "lon": -77.00781366666666, "fusion_lat": 0.0}, {"name": "2b482d102bf21a87f59c304bd42b1a3b", "fusion_lon": 0.0, "lat": 38.899560666666666, "is_reserved": 0, "type": "electric_scooter", "bike_id": "2b482d102bf21a87f59c304bd42b1a3b", "is_disabled": 0, "rental_uris": {"android": "https://dc.lft.to/lastmile_qr_scan", "ios": "https://dc.lft.to/lastmile_qr_scan"}, "lon": -77.0479125, "fusion_lat": 0.0}, {"name": "d9c737223905d3753155c8bff83f976a", "fusion_lon": 0.0, "lat": 38.903789333333336, "is_reserved": 0, "type": "electric_scooter", "bike_id": "d9c737223905d3753155c8bff83f976a", "is_disabled": 0, "rental_uris": {"android": "https://dc.lft.to/lastmile_qr_scan", "ios": "https://dc.lft.to/lastmile_qr_scan"}, "lon": -77.04012883333333, "fusion_lat": 0.0}, {"name": "3e73d886ed1efb056dd06defce8b5106", "fusion_lon": 0.0, "lat": 38.90007466666667, "is_reserved": 0, "type": "electric_scooter", "bike_id": "3e73d886ed1efb056dd06defce8b5106", "is_disabled": 0, "rental_uris": {"android": "https://dc.lft.to/lastmile_qr_scan", "ios": "https://dc.lft.to/lastmile_qr_scan"}, "lon": -77.00131866666666, "fusion_lat": 0.0}, {"name": "7ebc04e529cad6b5961c488b512edde8", "fusion_lon": 0.0, "lat": 38.90425783333333, "is_reserved": 0, "type": "electric_scooter", "bike_id": "7ebc04e529cad6b5961c488b512edde8", "is_disabled": 0, "rental_uris": {"android": "https://dc.lft.to/lastmile_qr_scan", "ios": "https://dc.lft.to/lastmile_qr_scan"}, "lon": -77.04352716666666, "fusion_lat": 0.0}, {"name": "0c645f92f70e681bdc44f5be1460bf1b", "fusion_lon": 0.0, "lat": 38.897087166666665, "is_reserved": 0, "type": "electric_scooter", "bike_id": "0c645f92f70e681bdc44f5be1460bf1b", "is_disabled": 0, "rental_uris": {"android": "https://dc.lft.to/lastmile_qr_scan", "ios": "https://dc.lft.to/lastmile_qr_scan"}, "lon": -77.0213655, "fusion_lat": 0.0}, {"name": "965842a49f1976057d82ca35935576c5", "fusion_lon": 0.0, "lat": 38.918723, "is_reserved": 0, "type": "electric_scooter", "bike_id": "965842a49f1976057d82ca35935576c5", "is_disabled": 0, "rental_uris": {"android": "https://dc.lft.to/lastmile_qr_scan", "ios": "https://dc.lft.to/lastmile_qr_scan"}, "lon": -77.0476345, "fusion_lat": 0.0}, {"name": "a35acc2649fc66f76f25e548820b3cd0", "fusion_lon": 0.0, "lat": 38.896109, "is_reserved": 0, "type": "electric_scooter", "bike_id": "a35acc2649fc66f76f25e548820b3cd0", "is_disabled": 0, "rental_uris": {"android": "https://dc.lft.to/lastmile_qr_scan", "ios": "https://dc.lft.to/lastmile_qr_scan"}, "lon": -77.045586, "fusion_lat": 0.0}, {"name": "d750da79aeabf07d59adc2485f943c27", "fusion_lon": 0.0, "lat": 38.91175416666667, "is_reserved": 0, "type": "electric_scooter", "bike_id": "d750da79aeabf07d59adc2485f943c27", "is_disabled": 0, "rental_uris": {"android": "https://dc.lft.to/lastmile_qr_scan", "ios": "https://dc.lft.to/lastmile_qr_scan"}, "lon": -77.03833383333334, "fusion_lat": 0.0}, {"name": "f51ffc6cc42edfde073ed815c9f1958f", "fusion_lon": 0.0, "lat": 38.925114666666666, "is_reserved": 0, "type": "electric_scooter", "bike_id": "f51ffc6cc42edfde073ed815c9f1958f", "is_disabled": 0, "rental_uris": {"android": "https://dc.lft.to/lastmile_qr_scan", "ios": "https://dc.lft.to/lastmile_qr_scan"}, "lon": -77.03883633333334, "fusion_lat": 0.0}, {"name": "81e5d92247d74a9c464f847de15aaafa", "fusion_lon": 0.0, "lat": 38.9037405, "is_reserved": 0, "type": "electric_scooter", "bike_id": "81e5d92247d74a9c464f847de15aaafa", "is_disabled": 0, "rental_uris": {"android": "https://dc.lft.to/lastmile_qr_scan", "ios": "https://dc.lft.to/lastmile_qr_scan"}, "lon": -77.0401055, "fusion_lat": 0.0}, {"name": "c99a69a60edefc4dbec47cb93c7cbec6", "fusion_lon": 0.0, "lat": 38.915536, "is_reserved": 0, "type": "electric_scooter", "bike_id": "c99a69a60edefc4dbec47cb93c7cbec6", "is_disabled": 0, "rental_uris": {"android": "https://dc.lft.to/lastmile_qr_scan", "ios": "https://dc.lft.to/lastmile_qr_scan"}, "lon": -77.04179516666666, "fusion_lat": 0.0}, {"name": "6ccef20042a067dc2e2baf05fceb090b", "fusion_lon": 0.0, "lat": 38.90621766666667, "is_reserved": 0, "type": "electric_scooter", "bike_id": "6ccef20042a067dc2e2baf05fceb090b", "is_disabled": 0, "rental_uris": {"android": "https://dc.lft.to/lastmile_qr_scan", "ios": "https://dc.lft.to/lastmile_qr_scan"}, "lon": -77.041685, "fusion_lat": 0.0},