{"data": {"bikes": [{"rental_uris": {"android": "https://dc.lft.to/lastmile_qr_scan", "ios": "https://dc.lft.to/lastmile_qr_scan"}, "type": "electric_scooter", "lon": -76.9804755, "name": "3e381bb0fb4f393ebf8613eb982c4e58", "bike_id": "3e381bb0fb4f393ebf8613eb982c4e58", "fusion_lat": 0.0, "is_reserved": 0, "lat": 38.916751166666664, "fusion_lon": 0.0, "is_disabled": 0}, {"rental_uris": {"android": "https://dc.lft.to/lastmile_qr_scan", "ios": "https://dc.lft.to/lastmile_qr_scan"}, "type": "electric_scooter", "lon": -77.05439466666667, "name": "da36cf5a922cf5cef3d48ad0cd0895b6", "bike_id": "da36cf5a922cf5cef3d48ad0cd0895b6", "fusion_lat": 0.0, "is_reserved": 0, "lat": 38.895995, "fusion_lon": 0.0, "is_disabled": 0}, {"rental_uris": {"android": "https://dc.lft.to/lastmile_qr_scan", "ios": "https://dc.lft.to/lastmile_qr_scan"}, "type": "electric_scooter", "lon": -77.03365283333333, "name": "ddb7479728bea45cc8391cf9e15dc623", "bike_id": "ddb7479728bea45cc8391cf9e15dc623", "fusion_lat": 0.0, "is_reserved": 0, "lat": 38.91190533333334, "fusion_lon": 0.0, "is_disabled": 0}, {"rental_uris": {"android": "https://dc.lft.to/lastmile_qr_scan", "ios": "https://dc.lft.to/lastmile_qr_scan"}, "type": "electric_scooter", "lon": -77.030254, "name": "9c9bcc61f3b8e53585a2afaf1d3e15f7", "bike_id": "9c9bcc61f3b8e53585a2afaf1d3e15f7", "fusion_lat": 0.0, "is_reserved": 0, "lat": 38.92679316666667, "fusion_lon": 0.0, "is_disabled": 0}, {"rental_uris": {"android": "https://dc.lft.to/lastmile_qr_scan", "ios": "https://dc.lft.to/lastmile_qr_scan"}, "type": "electric_scooter", "lon": -76.9995445, "name": "2b1d16fb3dab3a07260bd41ea250abc4", "bike_id": "2b1d16fb3dab3a07260bd41ea250abc4", "fusion_lat": 0.0, "is_reserved": 0, "lat": 38.84290683333333, "fusion_lon": 0.0, "is_disabled": 0}, {"rental_uris": {"android": "https://dc.lft.to/lastmile_qr_scan", "ios": "https://dc.lft.to/lastmile_qr_scan"}, "type": "electric_scooter", "lon": -77.0345215, "name": "697dd31de4ca132c64d606302c0e606f", "bike_id": "697dd31de4ca132c64d606302c0e606f", "fusion_lat": 0.0, "is_reserved": 0, "lat": 38.9057505, "fusion_lon": 0.0, "is_disabled": 0}, {"rental_uris": {"android": "https://dc.lft.to/lastmile_qr_scan", "ios": "https://dc.lft.to/lastmile_qr_scan"}, "type": "electric_scooter", "lon": -77.0267775, "name": "9c8dfbb645fdacc049a53d40278db236", "bike_id": "9c8dfbb645fdacc049a53d40278db236", "fusion_lat": 0.0, "is_reserved": 0, "lat": 38.900090166666665, "fusion_lon": 0.0, "is_disabled": 0}, {"rental_uris": {"android": "https://dc.lft.to/lastmile_qr_scan", "ios": "https://dc.lft.to/lastmile_qr_scan"}, "type": "electric_scooter", "lon": -77.054366, "name": "e0f2cf8bbbfc0820186438d1775bd2b4", "bike_id": "e0f2cf8bbbfc0820186438d1775bd2b4", "fusion_lat": 0.0, "is_reserved": 0, "lat": 38.928526, "fusion_lon": 0.0, "is_disabled": 0}, {"rental_uris": {"android": "https://dc.lft.to/lastmile_qr_scan", "ios": "https://dc.lft.to/lastmile_qr_scan"}, "type": "electric_bike", "lon": -77.08577933333333, "name": "881bf5b05f1ea347315d817f8f254462", "bike_id": "881bf5b05f1ea347315d817f8f254462", "fusion_lat": 0.0, "is_reserved": 0, "lat": 38.874260166666666, "fusion_lon": 0.0, "is_disabled": 0}, {"rental_uris": {"android": "https://dc.lft.to/lastmile_qr_scan", "ios": "https://dc.lft.to/lastmile_qr_scan"}, "type": "electric_scooter", "lon": -76.947365, "name": "4266eecc85ac906a1db109bc60469927", "bike_id": "4266eecc85ac906a1db109bc60469927", "fusion_lat": 0.0, "is_reserved": 0, "lat": 38.89680233333333, "fusion_lon": 0.0, "is_disabled": 0}, {"rental_uris": {"android": "https://dc.lft.to/lastmile_qr_scan", "ios": "https://dc.lft.to/lastmile_qr_scan"}, "type": "electric_scooter", "lon": -77.022786, "name": "33641ef4d2531fc76f009c6cd9bae593", "bike_id": "33641ef4d2531fc76f009c6cd9bae593", "fusion_lat": 0.0, "is_reserved": 0, "lat": 38.91736933333333, "fusion_lon": 0.0, "is_disabled": 0}, {"rental_uris": {"android": "https://dc.lft.to/lastmile_qr_scan", "ios": "https://dc.lft.to/lastmile_qr_scan"}, "type": "electric_scooter", "lon": -77.0254645, "name": "803aac82dece571d13a096cae693e23f", "bike_id": "803aac82dece571d13a096cae693e23f", "fusion_lat": 0.0, "is_reserved": 0, "lat": 38.9072305, "fusion_lon": 0.0, "is_disabled": 0}, {"rental_uris": {"android": "https://dc.lft.to/lastmile_qr_scan", "ios": "https://dc.lft.to/lastmile_qr_scan"}, "type": "electric_scooter", "lon": -77.00594383333333, "name": "6a3ed0d5d96d18b0436530f2d8c9d4ce", "bike_id": "6a3ed0d5d96d18b0436530f2d8c9d4ce", "fusion_lat": 0.0, "is_reserved": 0, "lat": 38.9056215, "fusion_lon": 0.0, "is_disabled": 0}, {"rental_uris": {"android": "https://dc.lft.to/lastmile_qr_scan", "ios": "https://dc.lft.to/lastmile_qr_scan"}, "type": "electric_scooter", "lon": -77.02511533333333, "name": "d8395b50ac9dd4f27e1e143263d4c444", "bike_id": "d8395b50ac9dd4f27e1e143263d4c444", "fusion_lat": 0.0, "is_reserved": 0, "lat": 38.941769, "fusion_lon": 0.0, "is_disabled": 0}, {"rental_uris": {"android": "https://dc.lft.to/lastmile_qr_scan", "ios": "https://dc.lft.to/lastmile_qr_scan"}, "type": "electric_bike", "lon": -77.02494083333333, "name": "624520351588c3ac65a07eaf9180ad1a", "bike_id": "624520351588c3ac65a07eaf9180ad1a", "fusion_lat": 0.0, "is_reserved": 0, "lat": 38.97405933333334, "fusion_lon": 0.0, "is_disabled": 0}, {"rental_uris": {"android": "https://dc.lft.to/lastmile_qr_scan", "ios": "https://dc.lft.to/lastmile_qr_scan"}, "type": "electric_bike", "lon": -76.9495925, "name": "41c3767983c9847c1e98e572fe29ce13", "bike_id": "41c3767983c9847c1e98e572fe29ce13", "fusion_lat": 0.0, "is_reserved": 0, "lat": 38.934994, "fusion_lon": 0.0, "is_disabled": 0}, {"rental_uris": {"android": "https://dc.lft.to/lastmile_qr_scan", "ios": "https://dc.lft.to/lastmile_qr_scan"}, "type": "electric_scooter", "lon": -77.010127, "name": "1c2d4f35626c9f3a75b9359433935edd", "bike_id": "1c2d4f35626c9f3a75b9359433935edd", "fusion_lat": 0.0, "is_reserved": 0, "lat": 38.867121, "fusion_lon": 0.0, "is_disabled": 0}, {"rental_uris": {"android": "https://dc.lft.to/lastmile_qr_scan", "ios": "https://dc.lft.to/lastmile_qr_scan"}, "type": "electric_scooter", "lon": -77.0303615, "name": "f507382b8ebae211ac383d359fcc3486", "bike_id": "f507382b8ebae211ac383d359fcc3486", "fusion_lat": 0.0, "is_reserved": 0, "lat": 38.908574333333334, "fusion_lon": 0.0, "is_disabled": 0}, {"rental_uris": {"android": "https://dc.lft.to/lastmile_qr_scan", "ios": "https://dc.lft.to/lastmile_qr_scan"}, "type": "electric_scooter", "lon": -77.03175483333334, "name": "63bd728634db3459cd2334c821cdfd21", "bike_id": "63bd728634db3459cd2334c821cdfd21", "fusion_lat": 0.0, "is_reserved": 0, "lat": 38.9190075, "fusion_lon": 0.0, "is_disabled": 0}, {"rental_uris": {"android": "https://dc.lft.to/lastmile_qr_scan", "ios": "https://dc.lft.to/lastmile_qr_scan"}, "type": "electric_scooter", "lon": -77.01205616666667, "name": "134831b44d339e278880c61f1508ac17", "bike_id": "134831b44d339e278880c61f1508ac17", "fusion_lat": 0.0, "is_reserved": 0, "lat": 38.90059633333333, "fusion_lon": 0.0, "is_disabled": 0}, {"rental_uris": {"android": "https://dc.lft.to/lastmile_qr_scan", "ios": "https://dc.lft.to/lastmile_qr_scan"}, "type": "electric_scooter", "lon": -77.006559, "name": "1697125fb6eaa29fa673d23e0943453f", "bike_id": "1697125fb6eaa29fa673d23e0943453f", "fusion_lat": 0.0, "is_reserved": 0, "lat": 38.883303, "fusion_lon": 0.0, "is_disabled": 0}, {"rental_uris": {"android": "https://dc.lft.to/lastmile_qr_scan", "ios": "https://dc.lft.to/lastmile_qr_scan"}, "type": "electric_scooter", "lon": -77.03196483333333, "name": "c36cbd20cb7e513e221acf2ecd9c53d2", "bike_id": "c36cbd20cb7e513e221acf2ecd9c53d2", "fusion_lat": 0.0, "is_reserved": 0, "lat": 38.90744816666667, "fusion_lon": 0.0, "is_disabled": 0}, {"rental_uris": {"android": "https://dc.lft.to/lastmile_qr_scan", "ios": "https://dc.lft.to/lastmile_qr_scan"}, "type": "electric_scooter", "lon": -77.03181316666667, "name": "3f6d8472f82e29283c1306e0d890cd76", "bike_id": "3f6d8472f82e29283c1306e0d890cd76", "fusion_lat": 0.0, "is_reserved": 0, "lat": 38.90763666666667, "fusion_lon": 0.0, "is_disabled": 0}, {"rental_uris": {"android": "https://dc.lft.to/lastmile_qr_scan", "ios": "https://dc.lft.to/lastmile_qr_scan"}, "type": "electric_scooter", "lon": -77.01069816666667, "name": "95420f81b20e27e74ff4878fedb06474", "bike_id": "95420f81b20e27e74ff4878fedb06474", "fusion_lat": 0.0, "is_reserved": 0, "lat": 38.90338766666667, "fusion_lon": 0.0, "is_disabled": 0}, {"rental_uris": {"android": "https://dc.lft.to/lastmile_qr_scan", "ios": "https://dc.lft.to/lastmile_qr_scan"}, "type": "electric_scooter", "lon": -76.9938745, "name": "3409897883d09dc237af9f39def1866c", "bike_id": "3409897883d09dc237af9f39def1866c", "fusion_lat": 0.0, "is_reserved": 0, "lat": 38.884477333333336, "fusion_lon": 0.0, "is_disabled": 0}, {"rental_uris": {"android": "https://dc.lft.to/lastmile_qr_scan", "ios": "https://dc.lft.to/lastmile_qr_scan"}, "type": "electric_scooter", "lon": -77.04675583333334, "name": "122c07910fd0a38408e7e3716e1c93f5", "bike_id": "122c07910fd0a38408e7e3716e1c93f5", "fusion_lat": 0.0, "is_reserved": 0, "lat": 38.89556433333333, "fusion_lon": 0.0, "is_disabled": 0}, {"rental_uris": {"android": "https://dc.lft.to/lastmile_qr_scan", "ios": "https://dc.lft.to/lastmile_qr_scan"}, "type": "electric_scooter", "lon": -77.0577075, "name": "371e5e4e654a2932f530308ab510fdb8", "bike_id": "371e5e4e654a2932f530308ab510fdb8", "fusion_lat": 0.0, "is_reserved": 0, "lat": 38.90530583333334, "fusion_lon": 0.0, "is_disabled": 0}, {"rental_uris": {"android": "https://dc.lft.to/lastmile_qr_scan", "ios": "https://dc.lft.to/lastmile_qr_scan"}, "type": "electric_bike", "lon": -77.0211185, "name": "2a473e88de3a15d88d220bdf5ae480d2", "bike_id": "2a473e88de3a15d88d220bdf5ae480d2", "fusion_lat": 0.0, "is_reserved": 0, "lat": 39.02297933333333, "fusion_lon": 0.0, "is_disabled": 0}, {"rental_uris": {"android": "https://dc.lft.to/lastmile_qr_scan", "ios": "https://dc.lft.to/lastmile_qr_scan"}, "type": "electric_scooter", "lon": -77.0326315, "name": "aa5f6d595d2c27c3e1eb4508d1e0c915", "bike_id": "aa5f6d595d2c27c3e1eb4508d1e0c915", "fusion_lat": 0.0, "is_reserved": 0, "lat": 38.93665383333333, "fusion_lon": 0.0, "is_disabled": 0}, {"rental_uris": {"android": "https://dc.lft.to/lastmile_qr_scan", "ios": "https://dc.lft.to/lastmile_qr_scan"}, "type": "electric_scooter", "lon": -77.048078, "name": "92aa90cec8d36be74f7dee4441a114bd", "bike_id": "92aa90cec8d36be74f7dee4441a114bd", "fusion_lat": 0.0, "is_reserved": 0, "lat": 38.920279, "fusion_lon": 0.0, "is_disabled": 0}, {"rental_uris": {"android": "https://dc.lft.to/lastmile_qr_scan", "ios": "https://dc.lft.to/lastmile_qr_scan"}, "type": "electric_scooter", "lon": -77.0061125, "name": "a8fd4a6c10087c1951fdde7be3ffc713", "bike_id": "a8fd4a6c10087c1951fdde7be3ffc713", "fusion_lat": 0.0, "is_reserved": 0, "lat": 38.9056805, "fusion_lon": 0.0, "is_disabled": 0}, {"rental_uris": {"android": "https://dc.lft.to/lastmile_qr_scan", "ios": "https://dc.lft.to/lastmile_qr_scan"}, "type": "electric_scooter", "lon": -77.06045016666667, "name": "8fcdefa8b03ff19cb1be352f109a23f1", "bike_id": "8fcdefa8b03ff19cb1be352f109a23f1", "fusion_lat": 0.0, "is_reserved": 0, "lat": 38.93921666666667, "fusion_lon": 0.0, "is_disabled": 0}, {"rental_uris": {"android": "https://dc.lft.to/lastmile_qr_scan", "ios": "https://dc.lft.to/lastmile_qr_scan"}, "type": "electric_scooter", "lon": -77.023632, "name": "9cb97c35b1e37abbf3a57898647245e5", "bike_id": "9cb97c35b1e37abbf3a57898647245e5", "fusion_lat": 0.0, "is_reserved": 0, "lat": 38.91788716666667, "fusion_lon": 0.0, "is_disabled": 0}, {"rental_uris": {"android": "https://dc.lft.to/lastmile_qr_scan", "ios": "https://dc.lft.to/lastmile_qr_scan"}, "type": "electric_scooter", "lon": -77.05107016666666, "name": "c5f63ed6496a08fc7d49290108d3b5bf", "bike_id": "c5f63ed6496a08fc7d49290108d3b5bf", "fusion_lat": 0.0, "is_reserved": 0, "lat": 38.90514733333333, "fusion_lon": 0.0, "is_disabled": 0}, {"rental_uris": {"android": "https://dc.lft.to/lastmile_qr_scan", "ios": "https://dc.lft.to/lastmile_qr_scan"}, "type": "electric_scooter", "lon": -77.07441233333333, "name": "0c1c57592f4c97c73486ed0058b41f7d", "bike_id": "0c1c57592f4c97c73486ed0058b41f7d", "fusion_lat": 0.0, "is_reserved": 0, "lat": 38.91093683333333, "fusion_lon": 0.0, "is_disabled": 0}, {"rental_uris": {"android": "https://dc.lft.to/lastmile_qr_scan", "ios": "https://dc.lft.to/lastmile_qr_scan"}, "type": "electric_scooter", "lon": -77.02559216666667, "name": "6a93bf1cd9ea654ec3077cd8ec8730a4", "bike_id": "6a93bf1cd9ea654ec3077cd8ec8730a4", "fusion_lat": 0.0, "is_reserved": 0, "lat": 38.941670333333334, "fusion_lon": 0.0, "is_disabled": 0}, {"rental_uris": {"android": "https://dc.lft.to/lastmile_qr_scan", "ios": "https://dc.lft.to/lastmile_qr_scan"}, "type": "electric_scooter", "lon": -77.00597066666667, "name": "43c3345771e18564f7f8aac47003bcb0", "bike_id": "43c3345771e18564f7f8aac47003bcb0", "fusion_lat": 0.0, "is_reserved": 0, "lat": 38.883720833333335, "fusion_lon": 0.0, "is_disabled": 0}, {"rental_uris": {"android": "https://dc.lft.to/lastmile_qr_scan", "ios": "https://dc.lft.to/lastmile_qr_scan"}, "type": "electric_scooter", "lon": -77.00583533333334, "name": "3b46692c834d866e62bf62aadd758069", "bike_id": "3b46692c834d866e62bf62aadd758069", "fusion_lat": 0.0, "is_reserved": 0, "lat": 38.885311, "fusion_lon": 0.0, "is_disabled": 0}, {"rental_uris": {"android": "https://dc.lft.to/lastmile_qr_scan", "ios": "https://dc.lft.to/lastmile_qr_scan"}, "type": "electric_scooter", "lon": -77.03263116666666, "name": "baeb2b0790a4657cf2c0e92e075d3db2", "bike_id": "baeb2b0790a4657cf2c0e92e075d3db2", "fusion_lat": 0.0, "is_reserved": 0, "lat": 38.933826833333335, "fusion_lon": 0.0, "is_disabled": 0}, {"rental_uris": {"android": "https://dc.lft.to/lastmile_qr_scan", "ios": "https://dc.lft.to/lastmile_qr_scan"}, "type": "electric_scooter", "lon": -77.03976466666667, "name": "f9aae6d8b9779d9edac7b70f1e76be58", "bike_id": "f9aae6d8b9779d9edac7b70f1e76be58", "fusion_lat": 0.0, "is_reserved": 0, "lat": 38.909165333333334, "fusion_lon": 0.0, "is_disabled": 0}, {"rental_uris": {"android": "https://dc.lft.to/lastmile_qr_scan", "ios": "https://dc.lft.to/lastmile_qr_scan"}, "type": "electric_bike", "lon": -77.1290065, "name": "915670d04bd2a449a7789911990f284a", "bike_id": "915670d04bd2a449a7789911990f284a", "fusion_lat": 0.0, "is_reserved": 0, "lat": 38.8637595, "fusion_lon": 0.0, "is_disabled": 0}, {"rental_uris": {"android": "https://dc.lft.to/lastmile_qr_scan", "ios": "https://dc.lft.to/lastmile_qr_scan"}, "type": "electric_scooter", "lon": -76.984068, "name": "c2c9d1ff815673935bbb667ef0b8b170", "bike_id": "c2c9d1ff815673935bbb667ef0b8b170", "fusion_lat": 0.0, "is_reserved": 0, "lat": 38.8597015, "fusion_lon": 0.0, "is_disabled": 0}, {"rental_uris": {"android": "https://dc.lft.to/lastmile_qr_scan", "ios": "https://dc.lft.to/lastmile_qr_scan"}, "type": "electric_scooter", "lon": -77.04249733333333, "name": "ee3adfbdfe679ba221eeb530327a3c7f", "bike_id": "ee3adfbdfe679ba221eeb530327a3c7f", "fusion_lat": 0.0, "is_reserved": 0, "lat": 38.91776216666667, "fusion_lon": 0.0, "is_disabled": 0}, {"rental_uris": {"android": "https://dc.lft.to/lastmile_qr_scan", "ios": "https://dc.lft.to/lastmile_qr_scan"}, "type": "electric_scooter", "lon": -77.0077095, "name": "3c27da397128f06c144a02a514f078aa", "bike_id": "3c27da397128f06c144a02a514f078aa", "fusion_lat": 0.0, "is_reserved": 0, "lat": 38.87916933333333, "fusion_lon": 0.0, "is_disabled": 0}, {"rental_uris": {"android": "https://dc.lft.to/lastmile_qr_scan", "ios": "https://dc.lft.to/lastmile_qr_scan"}, "type": "electric_scooter", "lon": -77.02763766666666, "name": "8c5fd8bc3f334ebfc0347a280fc69349", "bike_id": "8c5fd8bc3f334ebfc0347a280fc69349", "fusion_lat": 0.0, "is_reserved": 0, "lat": 38.94285033333333, "fusion_lon": 0.0, "is_disabled": 0}, {"rental_uris": {"android": "https://dc.lft.to/lastmile_qr_scan", "ios": "https://dc.lft.to/lastmile_qr_scan"}, "type": "electric_scooter", "lon": -77.02955683333333, "name": "0c4c1724183d0feaed59f3e2f758723a", "bike_id": "0c4c1724183d0feaed59f3e2f758723a", "fusion_lat": 0.0, "is_reserved": 0, "lat": 38.90781166666667, "fusion_lon": 0.0, "is_disabled": 0}, {"rental_uris": {"android": "https://dc.lft.to/lastmile_qr_scan", "ios": "https://dc.lft.to/lastmile_qr_scan"}, "type": "electric_bike", "lon": -77.09549866666667, "name": "9efb14c7a0516f05a2dcd7645944fece", "bike_id": "9efb14c7a0516f05a2dcd7645944fece", "fusion_lat": 0.0, "is_reserved": 0, "lat": 38.838036, "fusion_lon": 0.0, "is_disabled": 0}, {"rental_uris": {"android": "https://dc.lft.to/lastmile_qr_scan", "ios": "https://dc.lft.to/lastmile_qr_scan"}, "type": "electric_bike", "lon": -77.07258833333333, "name": "2fe8a7b0c74009027a72e37b1a2f3ffe", "bike_id": "2fe8a7b0c74009027a72e37b1a2f3ffe", "fusion_lat": 0.0, "is_reserved": 0, "lat": 38.959171166666664, "fusion_lon": 0.0, "is_disabled": 0}, {"rental_uris": {"android": "https://dc.lft.to/lastmile_qr_scan", "ios": "https://dc.lft.to/lastmile_qr_scan"}, "type": "electric_scooter", "lon": -77.02261116666666, "name": "cb8d9bb7ce455cd61625a6e26412a802", "bike_id": "cb8d9bb7ce455cd61625a6e26412a802", "fusion_lat": 0.0, "is_reserved": 0, "lat": 38.928210666666665, "fusion_lon": 0.0, "is_disabled": 0}, {"rental_uris": {"android": "https://dc.lft.to/lastmile_qr_scan", "ios": "https://dc.lft.to/lastmile_qr_scan"}, "type": "electric_scooter", "lon": -77.0325975, "name": "78957cacccd0022f0414549849ca40c6", "bike_id": "78957cacccd0022f0414549849ca40c6", "fusion_lat": 0.0, "is_reserved": 0, "lat": 38.932553, "fusion_lon": 0.0, "is_disabled": 0}, {"rental_uris": {"android": "https://dc.lft.to/lastmile_qr_scan", "ios": "https://dc.lft.to/lastmile_qr_scan"}, "type": "electric_bike", "lon": -77.1009815, "name": "37c9eac856d159c46dbdea2220bbc523", "bike_id": "37c9eac856d159c46dbdea2220bbc523", "fusion_lat": 0.0, "is_reserved": 0, "lat": 38.85862933333333, "fusion_lon": 0.0, "is_disabled": 0}, {"rental_uris": {"android": "https://dc.lft.to/lastmile_qr_scan", "ios": "https://dc.lft.to/lastmile_qr_scan"}, "type": "electric_scooter", "lon": -77.03650933333333, "name": "d0e8da6271ad0de4ee62d470bc375f11", "bike_id": "d0e8da6271ad0de4ee62d470bc375f11", "fusion_lat": 0.0, "is_reserved": 0, "lat": 38.936329666666666, "fusion_lon": 0.0, "is_disabled": 0}, {"rental_uris": {"android": "https://dc.lft.to/lastmile_qr_scan", "ios": "https://dc.lft.to/lastmile_qr_scan"}, "type": "electric_scooter", "lon": -76.99839133333333, "name": "ca6799b9d001cb35234ea2fe5d7df3b1", "bike_id": "ca6799b9d001cb35234ea2fe5d7df3b1", "fusion_lat": 0.0, "is_reserved": 0, "lat": 38.953702166666666, "fusion_lon": 0.0, "is_disabled": 0}, {"rental_uris": {"android": "https://dc.lft.to/lastmile_qr_scan", "ios": "https://dc.lft.to/lastmile_qr_scan"}, "type": "electric_scooter", "lon": -77.06838033333334, "name": "3d409359c84dcf2c074d03338b20a7d9", "bike_id": "3d409359c84dcf2c074d03338b20a7d9", "fusion_lat": 0.0, "is_reserved": 0, "lat": 38.951943166666666, "fusion_lon": 0.0, "is_disabled": 0}, {"rental_uris": {"android": "https://dc.lft.to/lastmile_qr_scan", "ios": "https://dc.lft.to/lastmile_qr_scan"}, "type": "electric_scooter", "lon": -77.0438225, "name": "07512b0c21f6d5c7cd614f0d7834a499", "bike_id": "07512b0c21f6d5c7cd614f0d7834a499", "fusion_lat": 0.0, "is_reserved": 0, "lat": 38.92070783333333, "fusion_lon": 0.0, "is_disabled": 0}, {"rental_uris": {"android": "https://dc.lft.to/lastmile_qr_scan", "ios": "https://dc.lft.to/lastmile_qr_scan"}, "type": "electric_scooter", "lon": -77.02359583333333, "name": "bf108d9222e8a8b334839488d078671a", "bike_id": "bf108d9222e8a8b334839488d078671a", "fusion_lat": 0.0, "is_reserved": 0, "lat": 38.9250105, "fusion_lon": 0.0, "is_disabled": 0}, {"rental_uris": {"android": "https://dc.lft.to/lastmile_qr_scan", "ios": "https://dc.lft.to/lastmile_qr_scan"}, "type": "electric_scooter", "lon": -76.99141116666667, "name": "0df43fb21cfca7019266f597a91b3da2", "bike_id": "0df43fb21cfca7019266f597a91b3da2", "fusion_lat": 0.0, "is_reserved": 0, "lat": 38.8972885, "fusion_lon": 0.0, "is_disabled": 0}, {"rental_uris": {"android": "https://dc.lft.to/lastmile_qr_scan", "ios": "https://dc.lft.to/lastmile_qr_scan"}, "type": "electric_scooter", "lon": -77.04350466666666, "name": "0d4d642a64da4975e409a814b80c113c", "bike_id": "0d4d642a64da4975e409a814b80c113c", "fusion_lat": 0.0, "is_reserved": 0, "lat": 38.93133566666667, "fusion_lon": 0.0, "is_disabled": 0}, {"rental_uris": {"android": "https://dc.lft.to/lastmile_qr_scan", "ios": "https://dc.lft.to/lastmile_qr_scan"}, "type": "electric_bike", "lon": -77.19553783333333, "name": "11086adb3b1357bc3461e443e1abc99f", "bike_id": "11086adb3b1357bc3461e443e1abc99f", "fusion_lat": 0.0, "is_reserved": 0, "lat": 39.115170166666665, "fusion_lon": 0.0, "is_disabled": 0}, {"rental_uris": {"android": "https://dc.lft.to/lastmile_qr_scan", "ios": "https://dc.lft.to/lastmile_qr_scan"}, "type": "electric_bike", "lon": -76.966989, "name": "e47db684115a955b55797f07c7001997", "bike_id": "e47db684115a955b55797f07c7001997", "fusion_lat": 0.0, "is_reserved": 0, "lat": 38.8684305, "fusion_lon": 0.0, "is_disabled": 0}, {"rental_uris": {"android": "https://dc.lft.to/lastmile_qr_scan", "ios": "https://dc.lft.to/lastmile_qr_scan"}, "type": "electric_scooter", "lon": -77.009198, "name": "7091a0db1c07ffd36580beddf5d568c8", "bike_id": "7091a0db1c07ffd36580beddf5d568c8", "fusion_lat": 0.0, "is_reserved": 0, "lat": 38.876348166666666, "fusion_lon": 0.0, "is_disabled": 0}, {"rental_uris": {"android": "https://dc.lft.to/lastmile_qr_scan", "ios": "https://dc.lft.to/lastmile_qr_scan"}, "type": "electric_bike", "lon": -77.01199716666666, "name": "98643ad7f11e2517507303fbe83c097f", "bike_id": "98643ad7f11e2517507303fbe83c097f", "fusion_lat": 0.0, "is_reserved": 0, "lat": 38.95071466666667, "fusion_lon": 0.0, "is_disabled": 0}, {"rental_uris": {"android": "https://dc.lft.to/lastmile_qr_scan", "ios": "https://dc.lft.to/lastmile_qr_scan"}, "type": "electric_scooter", "lon": -76.99825233333334, "name": "ff3b8a84d7c93dcc365cad71764e2ebe", "bike_id": "ff3b8a84d7c93dcc365cad71764e2ebe", "fusion_lat": 0.0, "is_reserved": 0, "lat": 38.8826425, "fusion_lon": 0.0, "is_disabled": 0}, {"rental_uris": {"android": "https://dc.lft.to/lastmile_qr_scan", "ios": "https://dc.lft.to/lastmile_qr_scan"}, "type": "electric_scooter", "lon": -77.046776, "name": "c5c7c67d9dedcb45170e352c1c23998c", "bike_id": "c5c7c67d9dedcb45170e352c1c23998c", "fusion_lat": 0.0, "is_reserved": 0, "lat": 38.915742, "fusion_lon": 0.0, "is_disabled": 0}, {"rental_uris": {"android": "https://dc.lft.to/lastmile_qr_scan", "ios": "https://dc.lft.to/lastmile_qr_scan"}, "type": "electric_bike", "lon": -77.04977, "name": "b2adff9f03f93a890a7786f322af637f", "bike_id": "b2adff9f03f93a890a7786f322af637f", "fusion_lat": 0.0, "is_reserved": 0, "lat": 38.99239516666667, "fusion_lon": 0.0, "is_disabled": 0}, {"rental_uris": {"android": "https://dc.lft.to/lastmile_qr_scan", "ios": "https://dc.lft.to/lastmile_qr_scan"}, "type": "electric_scooter", "lon": -76.9903575, "name": "6a2ce9b383abe593419b6b0593129f6e", "bike_id": "6a2ce9b383abe593419b6b0593129f6e", "fusion_lat": 0.0, "is_reserved": 0, "lat": 38.923436333333335, "fusion_lon": 0.0, "is_disabled": 0}, {"rental_uris": {"android": "https://dc.lft.to/lastmile_qr_scan", "ios": "https://dc.lft.to/lastmile_qr_scan"}, "type": "electric_scooter", "lon": -77.03588933333333, "name": "3c7247bdd525af79ff5f3c7651216d94", "bike_id": "3c7247bdd525af79ff5f3c7651216d94", "fusion_lat": 0.0, "is_reserved": 0, "lat": 38.92866866666667, "fusion_lon": 0.0, "is_disabled": 0}, {"rental_uris": {"android": "https://dc.lft.to/lastmile_qr_scan", "ios": "https://dc.lft.to/lastmile_qr_scan"}, "type": "electric_scooter", "lon": -77.02707116666667, "name": "3d954a07cd9ce58a35ecf9f8f8a61b1b", "bike_id": "3d954a07cd9ce58a35ecf9f8f8a61b1b", "fusion_lat": 0.0, "is_reserved": 0, "lat": 38.927787333333335, "fusion_lon": 0.0, "is_disabled": 0}, {"rental_uris": {"android": "https://dc.lft.to/lastmile_qr_scan", "ios": "https://dc.lft.to/lastmile_qr_scan"}, "type": "electric_scooter", "lon": -77.00145383333333, "name": "81006a9f870fbcdeaae5f30410dcb900", "bike_id": "81006a9f870fbcdeaae5f30410dcb900", "fusion_lat": 0.0, "is_reserved": 0, "lat": 38.900259166666665, "fusion_lon": 0.0, "is_disabled": 0}, {"rental_uris": {"android": "https://dc.lft.to/lastmile_qr_scan", "ios": "https://dc.lft.to/lastmile_qr_scan"}, "type": "electric_scooter", "lon": -76.99032666666666, "name": "81fba1fd6fef34871d261280b4ac5daa", "bike_id": "81fba1fd6fef34871d261280b4ac5daa", "fusion_lat": 0.0, "is_reserved": 0, "lat": 38.89850833333333, "fusion_lon": 0.0, "is_disabled": 0}, {"rental_uris": {"android": "https://dc.lft.to/lastmile_qr_scan", "ios": "https://dc.lft.to/lastmile_qr_scan"}, "type": "electric_scooter", "lon": -77.00609033333333, "name": "93511007c7f15584676a1363608a978e", "bike_id": "93511007c7f15584676a1363608a978e", "fusion_lat": 0.0, "is_reserved": 0, "lat": 38.9056655, "fusion_lon": 0.0, "is_disabled": 0}, {"rental_uris": {"android": "https://dc.lft.to/lastmile_qr_scan", "ios": "https://dc.lft.to/lastmile_qr_scan"}, "type": "electric_bike", "lon": -77.06981483333334, "name": "463789799cbbf19e105ffd6462fdcdee", "bike_id": "463789799cbbf19e105ffd6462fdcdee", "fusion_lat": 0.0, "is_reserved": 0, "lat": 38.952672666666665, "fusion_lon": 0.0, "is_disabled": 0}, {"rental_uris": {"android": "https://dc.lft.to/lastmile_qr_scan", "ios": "https://dc.lft.to/lastmile_qr_scan"}, "type": "electric_scooter", "lon": -77.04227116666667, "name": "c9ca1541ff68f9d4e3297ad1bf6aee89", "bike_id": "c9ca1541ff68f9d4e3297ad1bf6aee89", "fusion_lat": 0.0, "is_reserved": 0, "lat": 38.911066166666664, "fusion_lon": 0.0, "is_disabled": 0}, {"rental_uris": {"android": "https://dc.lft.to/lastmile_qr_scan", "ios": "https://dc.lft.to/lastmile_qr_scan"}, "type": "electric_scooter", "lon": -76.9745765, "name": "2779e213cd572cecae221b404b83909e", "bike_id": "2779e213cd572cecae221b404b83909e", "fusion_lat": 0.0, "is_reserved": 0, "lat": 38.86370633333333, "fusion_lon": 0.0, "is_disabled": 0}, {"rental_uris": {"android": "https://dc.lft.to/lastmile_qr_scan", "ios": "https://dc.lft.to/lastmile_qr_scan"}, "type": "electric_scooter", "lon": -77.03653433333334, "name": "d07b51e4a15e869753d11b305f26c72c", "bike_id": "d07b51e4a15e869753d11b305f26c72c", "fusion_lat": 0.0, "is_reserved": 0, "lat": 38.918646333333335, "fusion_lon": 0.0, "is_disabled": 0}, {"rental_uris": {"android": "https://dc.lft.to/lastmile_qr_scan", "ios": "https://dc.lft.to/lastmile_qr_scan"}, "type": "electric_scooter", "lon": -77.041832, "name": "6a54a7d1e713046d258711a67b6fa0de", "bike_id": "6a54a7d1e713046d258711a67b6fa0de", "fusion_lat": 0.0, "is_reserved": 0, "lat": 38.9204845, "fusion_lon": 0.0, "is_disabled": 0}, {"rental_uris": {"android": "https://dc.lft.to/lastmile_qr_scan", "ios": "https://dc.lft.to/lastmile_qr_scan"}, "type": "electric_scooter", "lon": -77.04879966666667, "name": "139e33c3c5ca8d00f1eb74240edb685e", "bike_id": "139e33c3c5ca8d00f1eb74240edb685e", "fusion_lat": 0.0, "is_reserved": 0, "lat": 38.91234683333333, "fusion_lon": 0.0, "is_disabled": 0}, {"rental_uris": {"android": "https://dc.lft.to/lastmile_qr_scan", "ios": "https://dc.lft.to/lastmile_qr_scan"}, "type": "electric_scooter", "lon": -77.00189133333333, "name": "72ea9055cdfb1c3365aa5f8bad3c8b95", "bike_id": "72ea9055cdfb1c3365aa5f8bad3c8b95", "fusion_lat": 0.0, "is_reserved": 0, "lat": 38.90032183333334, "fusion_lon": 0.0, "is_disabled": 0}, {"rental_uris": {"android": "https://dc.lft.to/lastmile_qr_scan", "ios": "https://dc.lft.to/lastmile_qr_scan"}, "type": "electric_scooter", "lon": -77.01601283333333, "name": "ad1180736806e4aa34a1dc02aa8027cd", "bike_id": "ad1180736806e4aa34a1dc02aa8027cd", "fusion_lat": 0.0, "is_reserved": 0, "lat": 38.89957916666667, "fusion_lon": 0.0, "is_disabled": 0}, {"rental_uris": {"android": "https://dc.lft.to/lastmile_qr_scan", "ios": "https://dc.lft.to/lastmile_qr_scan"}, "type": "electric_scooter", "lon": -77.04198983333333, "name": "140162debcaee244b55ca4d2065684e0", "bike_id": "140162debcaee244b55ca4d2065684e0", "fusion_lat": 0.0, "is_reserved": 0, "lat": 38.8922085, "fusion_lon": 0.0, "is_disabled": 0}, {"rental_uris": {"android": "https://dc.lft.to/lastmile_qr_scan", "ios": "https://dc.lft.to/lastmile_qr_scan"}, "type": "electric_scooter", "lon": -77.00601633333333, "name": "c3fe30565552d37bbe4bbfcc456380b6", "bike_id": "c3fe30565552d37bbe4bbfcc456380b6", "fusion_lat": 0.0, "is_reserved": 0, "lat": 38.9056895, "fusion_lon": 0.0, "is_disabled": 0}, {"rental_uris": {"android": "https://dc.lft.to/lastmile_qr_scan", "ios": "https://dc.lft.to/lastmile_qr_scan"}, "type": "electric_bike", "lon": -77.01999233333333, "name": "36278958ec128cbda7c1294e86cd05c3", "bike_id": "36278958ec128cbda7c1294e86cd05c3", "fusion_lat": 0.0, "is_reserved": 0, "lat": 38.96020466666667, "fusion_lon": 0.0, "is_disabled": 0}, {"rental_uris": {"android": "https://dc.lft.to/lastmile_qr_scan", "ios": "https://dc.lft.to/lastmile_qr_scan"}, "type": "electric_scooter", "lon": -77.06345166666667, "name": "344911a225b5dea4e86b7dc01be56a9e", "bike_id": "344911a225b5dea4e86b7dc01be56a9e", "fusion_lat": 0.0, "is_reserved": 0, "lat": 38.9133515, "fusion_lon": 0.0, "is_disabled": 0}, {"rental_uris": {"android": "https://dc.lft.to/lastmile_qr_scan", "ios": "https://dc.lft.to/lastmile_qr_scan"}, "type": "electric_scooter", "lon": -77.0543145, "name": "b4636c83157927dae767802f763a8915", "bike_id": "b4636c83157927dae767802f763a8915", "fusion_lat": 0.0, "is_reserved": 0, "lat": 38.9231425, "fusion_lon": 0.0, "is_disabled": 0}, {"rental_uris": {"android": "https://dc.lft.to/lastmile_qr_scan", "ios": "https://dc.lft.to/lastmile_qr_scan"}, "type": "electric_scooter", "lon": -77.03904983333334, "name": "09e7704b63062d636d166f910ffde5bc", "bike_id": "09e7704b63062d636d166f910ffde5bc", "fusion_lat": 0.0, "is_reserved": 0, "lat": 38.92221416666667, "fusion_lon": 0.0, "is_disabled": 0}, {"rental_uris": {"android": "https://dc.lft.to/lastmile_qr_scan", "ios": "https://dc.lft.to/lastmile_qr_scan"}, "type": "electric_scooter", "lon": -77.016472, "name": "33549f9560db01a609eb8a3f394e1384", "bike_id": "33549f9560db01a609eb8a3f394e1384", "fusion_lat": 0.0, "is_reserved": 0, "lat": 38.883303833333336, "fusion_lon": 0.0, "is_disabled": 0}, {"rental_uris": {"android": "https://dc.lft.to/lastmile_qr_scan", "ios": "https://dc.lft.to/lastmile_qr_scan"}, "type": "electric_scooter", "lon": -77.03002883333333, "name": "f68d71bdd47f5288709808c317c87b4b", "bike_id": "f68d71bdd47f5288709808c317c87b4b", "fusion_lat": 0.0, "is_reserved": 0, "lat": 38.92798533333333, "fusion_lon": 0.0, "is_disabled": 0}, {"rental_uris": {"android": "https://dc.lft.to/lastmile_qr_scan", "ios": "https://dc.lft.to/lastmile_qr_scan"}, "type": "electric_bike", "lon": -77.35313266666667, "name": "ac5b77a4f2cf5a273174ec56da303f21", "bike_id": "ac5b77a4f2cf5a273174ec56da303f21", "fusion_lat": 0.0, "is_reserved": 0, "lat": 38.949981333333334, "fusion_lon": 0.0, "is_disabled": 0}, {"rental_uris": {"android": "https://dc.lft.to/lastmile_qr_scan", "ios": "https://dc.lft.to/lastmile_qr_scan"}, "type": "electric_scooter", "lon": -76.99718883333334, "name": "50774b660977974974b55b3307bcfb3e", "bike_id": "50774b660977974974b55b3307bcfb3e", "fusion_lat": 0.0, "is_reserved": 0, "lat": 38.91089566666667, "fusion_lon": 0.0, "is_disabled": 0}, {"rental_uris": {"android": "https://dc.lft.to/lastmile_qr_scan", "ios": "https://dc.lft.to/lastmile_qr_scan"}, "type": "electric_scooter", "lon": -77.0272545, "name": "330d15b2b0c829edb12355a057b63c5a", "bike_id": "330d15b2b0c829edb12355a057b63c5a", "fusion_lat": 0.0, "is_reserved": 0, "lat": 38.951331, "fusion_lon": 0.0, "is_disabled": 0}, {"rental_uris": {"android": "https://dc.lft.to/lastmile_qr_scan", "ios": "https://dc.lft.to/lastmile_qr_scan"}, "type": "electric_bike", "lon": -77.122701, "name": "d2061ac7369b562e994e15b960c75e0b", "bike_id": "d2061ac7369b562e994e15b960c75e0b", "fusion_lat": 0.0, "is_reserved": 0, "lat": 38.89733716666667, "fusion_lon": 0.0, "is_disabled": 0}, {"rental_uris": {"android": "https://dc.lft.to/lastmile_qr_scan", "ios": "https://dc.lft.to/lastmile_qr_scan"}, "type": "electric_scooter", "lon": -77.025766, "name": "f9ac92daf8f3d041520d0d0265cbfcac", "bike_id": "f9ac92daf8f3d041520d0d0265cbfcac", "fusion_lat": 0.0, "is_reserved": 0, "lat": 38.92505, "fusion_lon": 0.0, "is_disabled": 0}, {"rental_uris": {"android": "https://dc.lft.to/lastmile_qr_scan", "ios": "https://dc.lft.to/lastmile_qr_scan"}, "type": "electric_scooter", "lon": -77.060785, "name": "ae422d9a075d576c93c0d1bc0c6fce91", "bike_id": "ae422d9a075d576c93c0d1bc0c6fce91", "fusion_lat": 0.0, "is_reserved": 0, "lat": 38.9051875, "fusion_lon": 0.0, "is_disabled": 0}, {"rental_uris": {"android": "https://dc.lft.to/lastmile_qr_scan", "ios": "https://dc.lft.to/lastmile_qr_scan"}, "type": "electric_scooter", "lon": -76.954075, "name": "825995fa012d46625eda6efdc6563a82", "bike_id": "825995fa012d46625eda6efdc6563a82", "fusion_lat": 0.0, "is_reserved": 0, "lat": 38.89158, "fusion_lon": 0.0, "is_disabled": 0}, {"rental_uris": {"android": "https://dc.lft.to/lastmile_qr_scan", "ios": "https://dc.lft.to/lastmile_qr_scan"}, "type": "electric_scooter", "lon": -77.04393166666667, "name": "a0f233e2b704128453fbced41011e897", "bike_id": "a0f233e2b704128453fbced41011e897", "fusion_lat": 0.0, "is_reserved": 0, "lat": 38.9064565, "fusion_lon": 0.0, "is_disabled": 0}, {"rental_uris": {"android": "https://dc.lft.to/lastmile_qr_scan", "ios": "https://dc.lft.to/lastmile_qr_scan"}, "type": "electric_scooter", "lon": -77.0401335, "name": "61bddbe18e9e1f99356490ae00f87084", "bike_id": "61bddbe18e9e1f99356490ae00f87084", "fusion_lat": 0.0, "is_reserved": 0, "lat": 38.91305, "fusion_lon": 0.0, "is_disabled": 0}, {"rental_uris": {"android": "https://dc.lft.to/lastmile_qr_scan", "ios": "https://dc.lft.to/lastmile_qr_scan"}, "type": "electric_scooter", "lon": -77.07346566666666, "name": "4a345ea0d5a4dd038cf9aaeca40879d2", "bike_id": "4a345ea0d5a4dd038cf9aaeca40879d2", "fusion_lat": 0.0, "is_reserved": 0, "lat": 38.911002833333335, "fusion_lon": 0.0, "is_disabled": 0}, {"rental_uris": {"android": "https://dc.lft.to/lastmile_qr_scan", "ios": "https://dc.lft.to/lastmile_qr_scan"}, "type": "electric_bike", "lon": -77.232983, "name": "a4af0dc479d0c8ecb9b7a72d801af815", "bike_id": "a4af0dc479d0c8ecb9b7a72d801af815", "fusion_lat": 0.0, "is_reserved": 0, "lat": 38.92515233333334, "fusion_lon": 0.0, "is_disabled": 0}, {"rental_uris": {"android": "https://dc.lft.to/lastmile_qr_scan", "ios": "https://dc.lft.to/lastmile_qr_scan"}, "type": "electric_scooter", "lon": -77.0480525, "name": "29b84ae7e585ea872f2c652d4b6f0e62", "bike_id": "29b84ae7e585ea872f2c652d4b6f0e62", "fusion_lat": 0.0, "is_reserved": 0, "lat": 38.9109845, "fusion_lon": 0.0, "is_disabled": 0}, {"rental_uris": {"android": "https://dc.lft.to/lastmile_qr_scan", "ios": "https://dc.lft.to/lastmile_qr_scan"}, "type": "electric_bike", "lon": -76.9165655, "name": "610b218cfffe363d829e92ce6fc5d99b", "bike_id": "610b218cfffe363d829e92ce6fc5d99b", "fusion_lat": 0.0, "is_reserved": 0, "lat": 38.86856366666667, "fusion_lon": 0.0, "is_disabled": 0}, {"rental_uris": {"android": "https://dc.lft.to/lastmile_qr_scan", "ios": "https://dc.lft.to/lastmile_qr_scan"}, "type": "electric_scooter", "lon": -76.942517, "name": "37ad19d155aa7503df6a1fdaa0f9f50e", "bike_id": "37ad19d155aa7503df6a1fdaa0f9f50e", "fusion_lat": 0.0, "is_reserved": 0, "lat": 38.89679616666667, "fusion_lon": 0.0, "is_disabled": 0}, {"rental_uris": {"android": "https://dc.lft.to/lastmile_qr_scan", "ios": "https://dc.lft.to/lastmile_qr_scan"}, "type": "electric_scooter", "lon": -77.02827266666667, "name": "eed5a6f493f599b5802082394cbb5860", "bike_id": "eed5a6f493f599b5802082394cbb5860", "fusion_lat": 0.0, "is_reserved": 0, "lat": 38.91550466666666, "fusion_lon": 0.0, "is_disabled": 0}, {"rental_uris": {"android": "https://dc.lft.to/lastmile_qr_scan", "ios": "https://dc.lft.to/lastmile_qr_scan"}, "type": "electric_bike", "lon": -77.05090016666666, "name": "bbad787322cd192e77555d6b7f9bb926", "bike_id": "bbad787322cd192e77555d6b7f9bb926", "fusion_lat": 0.0, "is_reserved": 0, "lat": 38.813304333333335, "fusion_lon": 0.0, "is_disabled": 0}, {"rental_uris": {"android": "https://dc.lft.to/lastmile_qr_scan", "ios": "https://dc.lft.to/lastmile_qr_scan"}, "type": "electric_scooter", "lon": -76.98364833333333, "name": "d72089c19b976770b78bd021b4e4daf0", "bike_id": "d72089c19b976770b78bd021b4e4daf0", "fusion_lat": 0.0, "is_reserved": 0, "lat": 38.861058, "fusion_lon": 0.0, "is_disabled": 0}, {"rental_uris": {"android": "https://dc.lft.to/lastmile_qr_scan", "ios": "https://dc.lft.to/lastmile_qr_scan"}, "type": "electric_scooter", "lon": -77.02354383333333, "name": "9128077b715d44cd59c2673ba8672d5e", "bike_id": "9128077b715d44cd59c2673ba8672d5e", "fusion_lat": 0.0, "is_reserved": 0, "lat": 38.892206, "fusion_lon": 0.0, "is_disabled": 0}, {"rental_uris": {"android": "https://dc.lft.to/lastmile_qr_scan", "ios": "https://dc.lft.to/lastmile_qr_scan"}, "type": "electric_scooter", "lon": -77.02778783333333, "name": "f103e21f4a41980f8149a3f9ba38ab69", "bike_id": "f103e21f4a41980f8149a3f9ba38ab69", "fusion_lat": 0.0, "is_reserved": 0, "lat": 38.926760333333334, "fusion_lon": 0.0, "is_disabled": 0}, {"rental_uris": {"android": "https://dc.lft.to/lastmile_qr_scan", "ios": "https://dc.lft.to/lastmile_qr_scan"}, "type": "electric_bike", "lon": -77.07902683333333, "name": "3a7e667a9776e1a1bae262c8d0bb3878", "bike_id": "3a7e667a9776e1a1bae262c8d0bb3878", "fusion_lat": 0.0, "is_reserved": 0, "lat": 38.839321166666664, "fusion_lon": 0.0, "is_disabled": 0}, {"rental_uris": {"android": "https://dc.lft.to/lastmile_qr_scan", "ios": "https://dc.lft.to/lastmile_qr_scan"}, "type": "electric_bike", "lon": -76.9446895, "name": "20fb0cb48d947acca3c9fc911a489efd", "bike_id": "20fb0cb48d947acca3c9fc911a489efd", "fusion_lat": 0.0, "is_reserved": 0, "lat": 38.945585, "fusion_lon": 0.0, "is_disabled": 0}, {"rental_uris": {"android": "https://dc.lft.to/lastmile_qr_scan", "ios": "https://dc.lft.to/lastmile_qr_scan"}, "type": "electric_scooter", "lon": -76.91920883333333, "name": "9d0630fe891c568a91940b01b22b7ef5", "bike_id": "9d0630fe891c568a91940b01b22b7ef5", "fusion_lat": 0.0, "is_reserved": 0, "lat": 38.89074183333334, "fusion_lon": 0.0, "is_disabled": 0}, {"rental_uris": {"android": "https://dc.lft.to/lastmile_qr_scan", "ios": "https://dc.lft.to/lastmile_qr_scan"}, "type": "electric_scooter", "lon": -76.98569866666666, "name": "a5cd083ccfbe07302feaef45d7be9f33", "bike_id": "a5cd083ccfbe07302feaef45d7be9f33", "fusion_lat": 0.0, "is_reserved": 0, "lat": 38.9092975, "fusion_lon": 0.0, "is_disabled": 0}, {"rental_uris": {"android": "https://dc.lft.to/lastmile_qr_scan", "ios": "https://dc.lft.to/lastmile_qr_scan"}, "type": "electric_scooter", "lon": -77.02697933333333, "name": "b017170a3524c82b47e3bbd0603aa2cf", "bike_id": "b017170a3524c82b47e3bbd0603aa2cf", "fusion_lat": 0.0, "is_reserved": 0, "lat": 38.91270166666666, "fusion_lon": 0.0, "is_disabled": 0}, {"rental_uris": {"android": "https://dc.lft.to/lastmile_qr_scan", "ios": "https://dc.lft.to/lastmile_qr_scan"}, "type": "electric_scooter", "lon": -77.03439016666667, "name": "262053bc9c7dcb40023d5e1f279ba5b0", "bike_id": "262053bc9c7dcb40023d5e1f279ba5b0", "fusion_lat": 0.0, "is_reserved": 0, "lat": 38.9043715, "fusion_lon": 0.0, "is_disabled": 0}, {"rental_uris": {"android": "https://dc.lft.to/lastmile_qr_scan", "ios": "https://dc.lft.to/lastmile_qr_scan"}, "type": "electric_scooter", "lon": -77.0450395, "name": "5a2e5115b68cc06b98f3f80b03f4cd8a", "bike_id": "5a2e5115b68cc06b98f3f80b03f4cd8a", "fusion_lat": 0.0, "is_reserved": 0, "lat": 38.8921885, "fusion_lon": 0.0, "is_disabled": 0}, {"rental_uris": {"android": "https://dc.lft.to/lastmile_qr_scan", "ios": "https://dc.lft.to/lastmile_qr_scan"}, "type": "electric_scooter", "lon": -77.02384033333334, "name": "ebe9d3f788e8c74bfebdebda3974b633", "bike_id": "ebe9d3f788e8c74bfebdebda3974b633", "fusion_lat": 0.0, "is_reserved": 0, "lat": 38.898923333333336, "fusion_lon": 0.0, "is_disabled": 0}, {"rental_uris": {"android": "https://dc.lft.to/lastmile_qr_scan", "ios": "https://dc.lft.to/lastmile_qr_scan"}, "type": "electric_scooter", "lon": -76.99661416666666, "name": "e3c3ae54ae1e34dfe864bd643e2a6a92", "bike_id": "e3c3ae54ae1e34dfe864bd643e2a6a92", "fusion_lat": 0.0, "is_reserved": 0, "lat": 38.898860666666664, "fusion_lon": 0.0, "is_disabled": 0}, {"rental_uris": {"android": "https://dc.lft.to/lastmile_qr_scan", "ios": "https://dc.lft.to/lastmile_qr_scan"}, "type": "electric_scooter", "lon": -77.0283085, "name": "8da11b95ad29f56cba5b8ec5add3a2c3", "bike_id": "8da11b95ad29f56cba5b8ec5add3a2c3", "fusion_lat": 0.0, "is_reserved": 0, "lat": 38.95084283333333, "fusion_lon": 0.0, "is_disabled": 0}, {"rental_uris": {"android": "https://dc.lft.to/lastmile_qr_scan", "ios": "https://dc.lft.to/lastmile_qr_scan"}, "type": "electric_bike", "lon": -77.0162285, "name": "14ac87380ea0bf80f339549655b9757e", "bike_id": "14ac87380ea0bf80f339549655b9757e", "fusion_lat": 0.0, "is_reserved": 0, "lat": 38.9908595, "fusion_lon": 0.0, "is_disabled": 0}, {"rental_uris": {"android": "https://dc.lft.to/lastmile_qr_scan", "ios": "https://dc.lft.to/lastmile_qr_scan"}, "type": "electric_scooter", "lon": -77.02693183333334, "name": "66a0b7e50c913f0e5eed2f990de3f675", "bike_id": "66a0b7e50c913f0e5eed2f990de3f675", "fusion_lat": 0.0, "is_reserved": 0, "lat": 38.91820533333333, "fusion_lon": 0.0, "is_disabled": 0}, {"rental_uris": {"android": "https://dc.lft.to/lastmile_qr_scan", "ios": "https://dc.lft.to/lastmile_qr_scan"}, "type": "electric_scooter", "lon": -77.05298966666666, "name": "609638ad8e0554d05b86c23d2502bc31", "bike_id": "609638ad8e0554d05b86c23d2502bc31", "fusion_lat": 0.0, "is_reserved": 0, "lat": 38.91696483333333, "fusion_lon": 0.0, "is_disabled": 0}, {"rental_uris": {"android": "https://dc.lft.to/lastmile_qr_scan", "ios": "https://dc.lft.to/lastmile_qr_scan"}, "type": "electric_bike", "lon": -76.96689933333333, "name": "0772b6c53a54f31173295610ca0dd133", "bike_id": "0772b6c53a54f31173295610ca0dd133", "fusion_lat": 0.0, "is_reserved": 0, "lat": 38.94562583333333, "fusion_lon": 0.0, "is_disabled": 0}, {"rental_uris": {"android": "https://dc.lft.to/lastmile_qr_scan", "ios": "https://dc.lft.to/lastmile_qr_scan"}, "type": "electric_scooter", "lon": -77.03173583333333, "name": "e438ce726c5602c1c1077e66fa009d20", "bike_id": "e438ce726c5602c1c1077e66fa009d20", "fusion_lat": 0.0, "is_reserved": 0, "lat": 38.91807133333333, "fusion_lon": 0.0, "is_disabled": 0}, {"rental_uris": {"android": "https://dc.lft.to/lastmile_qr_scan", "ios": "https://dc.lft.to/lastmile_qr_scan"}, "type": "electric_scooter", "lon": -77.031462, "name": "cfe9b64de83e63f496457cd20de51228", "bike_id": "cfe9b64de83e63f496457cd20de51228", "fusion_lat": 0.0, "is_reserved": 0, "lat": 38.912600166666664, "fusion_lon": 0.0, "is_disabled": 0}, {"rental_uris": {"android": "https://dc.lft.to/lastmile_qr_scan", "ios": "https://dc.lft.to/lastmile_qr_scan"}, "type": "electric_scooter", "lon": -77.03519183333333, "name": "79a14d6515d9ed39e96141579ad8252b", "bike_id": "79a14d6515d9ed39e96141579ad8252b", "fusion_lat": 0.0, "is_reserved": 0, "lat": 38.923389666666665, "fusion_lon": 0.0, "is_disabled": 0}, {"rental_uris": {"android": "https://dc.lft.to/lastmile_qr_scan", "ios": "https://dc.lft.to/lastmile_qr_scan"}, "type": "electric_scooter", "lon": -77.01767016666666, "name": "a41d8adc2ec9c1b7a81de6126a8405b2", "bike_id": "a41d8adc2ec9c1b7a81de6126a8405b2", "fusion_lat": 0.0, "is_reserved": 0, "lat": 38.8735185, "fusion_lon": 0.0, "is_disabled": 0}, {"rental_uris": {"android": "https://dc.lft.to/lastmile_qr_scan", "ios": "https://dc.lft.to/lastmile_qr_scan"}, "type": "electric_scooter", "lon": -77.024557, "name": "8d6ec6152fbe15ca9e363c58a169ce07", "bike_id": "8d6ec6152fbe15ca9e363c58a169ce07", "fusion_lat": 0.0, "is_reserved": 0, "lat": 38.93859916666667, "fusion_lon": 0.0, "is_disabled": 0}, {"rental_uris": {"android": "https://dc.lft.to/lastmile_qr_scan", "ios": "https://dc.lft.to/lastmile_qr_scan"}, "type": "electric_scooter", "lon": -77.03185583333334, "name": "aa479c78ce3d665f0080446fa86e276e", "bike_id": "aa479c78ce3d665f0080446fa86e276e", "fusion_lat": 0.0, "is_reserved": 0, "lat": 38.91910033333333, "fusion_lon": 0.0, "is_disabled": 0}, {"rental_uris": {"android": "https://dc.lft.to/lastmile_qr_scan", "ios": "https://dc.lft.to/lastmile_qr_scan"}, "type": "electric_scooter", "lon": -77.0088525, "name": "cb2875317ea37f17078a979fce5ec1f6", "bike_id": "cb2875317ea37f17078a979fce5ec1f6", "fusion_lat": 0.0, "is_reserved": 0, "lat": 38.87362316666667, "fusion_lon": 0.0, "is_disabled": 0}, {"rental_uris": {"android": "https://dc.lft.to/lastmile_qr_scan", "ios": "https://dc.lft.to/lastmile_qr_scan"}, "type": "electric_scooter", "lon": -76.99850916666666, "name": "0309f1b6d91a06069ed3219d68880189", "bike_id": "0309f1b6d91a06069ed3219d68880189", "fusion_lat": 0.0, "is_reserved": 0, "lat": 38.90771866666667, "fusion_lon": 0.0, "is_disabled": 0}, {"rental_uris": {"android": "https://dc.lft.to/lastmile_qr_scan", "ios": "https://dc.lft.to/lastmile_qr_scan"}, "type": "electric_bike", "lon": -77.00596983333334, "name": "cc96462230178ba65d30a3afc05dd7ac", "bike_id": "cc96462230178ba65d30a3afc05dd7ac", "fusion_lat": 0.0, "is_reserved": 0, "lat": 38.89815483333334, "fusion_lon": 0.0, "is_disabled": 0}, {"rental_uris": {"android": "https://dc.lft.to/lastmile_qr_scan", "ios": "https://dc.lft.to/lastmile_qr_scan"}, "type": "electric_scooter", "lon": -77.04832016666667, "name": "2b806dfe6d93b4648cf57373029da1c7", "bike_id": "2b806dfe6d93b4648cf57373029da1c7", "fusion_lat": 0.0, "is_reserved": 0, "lat": 38.9114435, "fusion_lon": 0.0, "is_disabled": 0}, {"rental_uris": {"android": "https://dc.lft.to/lastmile_qr_scan", "ios": "https://dc.lft.to/lastmile_qr_scan"}, "type": "electric_scooter", "lon": -77.03827466666667, "name": "9c57a58893cd695564fc23d82eda2133", "bike_id": "9c57a58893cd695564fc23d82eda2133", "fusion_lat": 0.0, "is_reserved": 0, "lat": 38.92074083333333, "fusion_lon": 0.0, "is_disabled": 0}, {"rental_uris": {"android": "https://dc.lft.to/lastmile_qr_scan", "ios": "https://dc.lft.to/lastmile_qr_scan"}, "type": "electric_bike", "lon": -76.99060533333333, "name": "1a71e12fee168c15af81e9f56e84c253", "bike_id": "1a71e12fee168c15af81e9f56e84c253", "fusion_lat": 0.0, "is_reserved": 0, "lat": 38.93684733333333, "fusion_lon": 0.0, "is_disabled": 0}, {"rental_uris": {"android": "https://dc.lft.to/lastmile_qr_scan", "ios": "https://dc.lft.to/lastmile_qr_scan"}, "type": "electric_scooter", "lon": -77.03339533333333, "name": "01a7dc960477d679647e30098c4cf3d2", "bike_id": "01a7dc960477d679647e30098c4cf3d2", "fusion_lat": 0.0, "is_reserved": 0, "lat": 38.92254166666667, "fusion_lon": 0.0, "is_disabled": 0}, {"rental_uris": {"android": "https://dc.lft.to/lastmile_qr_scan", "ios": "https://dc.lft.to/lastmile_qr_scan"}, "type": "electric_bike", "lon": -77.06979416666667, "name": "1007167b36bc9727f63918f75c731ffb", "bike_id": "1007167b36bc9727f63918f75c731ffb", "fusion_lat": 0.0, "is_reserved": 0, "lat": 38.952684166666664, "fusion_lon": 0.0, "is_disabled": 0}, {"rental_uris": {"android": "https://dc.lft.to/lastmile_qr_scan", "ios": "https://dc.lft.to/lastmile_qr_scan"}, "type": "electric_scooter", "lon": -77.0470895, "name": "1f1853a38a2bf5f89e767c3fac7b868c", "bike_id": "1f1853a38a2bf5f89e767c3fac7b868c", "fusion_lat": 0.0, "is_reserved": 0, "lat": 38.912561, "fusion_lon": 0.0, "is_disabled": 0}, {"rental_uris": {"android": "https://dc.lft.to/lastmile_qr_scan", "ios": "https://dc.lft.to/lastmile_qr_scan"}, "type": "electric_scooter", "lon": -77.01132583333333, "name": "81015f6a2ee956d6b7afc09d60cfb6d5", "bike_id": "81015f6a2ee956d6b7afc09d60cfb6d5", "fusion_lat": 0.0, "is_reserved": 0, "lat": 38.907287833333335, "fusion_lon": 0.0, "is_disabled": 0}, {"rental_uris": {"android": "https://dc.lft.to/lastmile_qr_scan", "ios": "https://dc.lft.to/lastmile_qr_scan"}, "type": "electric_scooter", "lon": -77.0514055, "name": "389561789f07d02e58eed18931e11840", "bike_id": "389561789f07d02e58eed18931e11840", "fusion_lat": 0.0, "is_reserved": 0, "lat": 38.90799966666667, "fusion_lon": 0.0, "is_disabled": 0}, {"rental_uris": {"android": "https://dc.lft.to/lastmile_qr_scan", "ios": "https://dc.lft.to/lastmile_qr_scan"}, "type": "electric_bike", "lon": -76.979042, "name": "625abc5121ccc61aed131b983798d152", "bike_id": "625abc5121ccc61aed131b983798d152", "fusion_lat": 0.0, "is_reserved": 0, "lat": 38.88835266666667, "fusion_lon": 0.0, "is_disabled": 0}, {"rental_uris": {"android": "https://dc.lft.to/lastmile_qr_scan", "ios": "https://dc.lft.to/lastmile_qr_scan"}, "type": "electric_scooter", "lon": -77.05299483333333, "name": "99a5e8053c7b586429a14eb25e644b9b", "bike_id": "99a5e8053c7b586429a14eb25e644b9b", "fusion_lat": 0.0, "is_reserved": 0, "lat": 38.9278475, "fusion_lon": 0.0, "is_disabled": 0}, {"rental_uris": {"android": "https://dc.lft.to/lastmile_qr_scan", "ios": "https://dc.lft.to/lastmile_qr_scan"}, "type": "electric_scooter", "lon": -77.03898016666666, "name": "b7b5e95a626c5a9e02430fb0f2f7113d", "bike_id": "b7b5e95a626c5a9e02430fb0f2f7113d", "fusion_lat": 0.0, "is_reserved": 0, "lat": 38.922345166666666, "fusion_lon": 0.0, "is_disabled": 0}, {"rental_uris": {"android": "https://dc.lft.to/lastmile_qr_scan", "ios": "https://dc.lft.to/lastmile_qr_scan"}, "type": "electric_scooter", "lon": -77.028649, "name": "07bd6638c1807f9500e5ecd9f1736c16", "bike_id": "07bd6638c1807f9500e5ecd9f1736c16", "fusion_lat": 0.0, "is_reserved": 0, "lat": 38.92227966666667, "fusion_lon": 0.0, "is_disabled": 0}, {"rental_uris": {"android": "https://dc.lft.to/lastmile_qr_scan", "ios": "https://dc.lft.to/lastmile_qr_scan"}, "type": "electric_scooter", "lon": -77.03262766666667, "name": "08abb782d8b0eb1a9caec2cd150fd011", "bike_id": "08abb782d8b0eb1a9caec2cd150fd011", "fusion_lat": 0.0, "is_reserved": 0, "lat": 38.936661666666666, "fusion_lon": 0.0, "is_disabled": 0}, {"rental_uris": {"android": "https://dc.lft.to/lastmile_qr_scan", "ios": "https://dc.lft.to/lastmile_qr_scan"}, "type": "electric_scooter", "lon": -76.9343215, "name": "d56f0b8d02e90d2d9de2dc42f36f3a3d", "bike_id": "d56f0b8d02e90d2d9de2dc42f36f3a3d", "fusion_lat": 0.0, "is_reserved": 0, "lat": 38.899659, "fusion_lon": 0.0, "is_disabled": 0}, {"rental_uris": {"android": "https://dc.lft.to/lastmile_qr_scan", "ios": "https://dc.lft.to/lastmile_qr_scan"}, "type": "electric_scooter", "lon": -76.9483295, "name": "1456ef56ba2c712912eb6a27927ca906", "bike_id": "1456ef56ba2c712912eb6a27927ca906", "fusion_lat": 0.0, "is_reserved": 0, "lat": 38.893455, "fusion_lon": 0.0, "is_disabled": 0}, {"rental_uris": {"android": "https://dc.lft.to/lastmile_qr_scan", "ios": "https://dc.lft.to/lastmile_qr_scan"}, "type": "electric_scooter", "lon": -77.0023925, "name": "f1d22ed24a5ee17131235576011c9bd6", "bike_id": "f1d22ed24a5ee17131235576011c9bd6", "fusion_lat": 0.0, "is_reserved": 0, "lat": 38.90825316666667, "fusion_lon": 0.0, "is_disabled": 0}, {"rental_uris": {"android": "https://dc.lft.to/lastmile_qr_scan", "ios": "https://dc.lft.to/lastmile_qr_scan"}, "type": "electric_scooter", "lon": -77.002262, "name": "d5d8f5089a519b9b5702dc37eaad0688", "bike_id": "d5d8f5089a519b9b5702dc37eaad0688", "fusion_lat": 0.0, "is_reserved": 0, "lat": 38.95727766666667, "fusion_lon": 0.0, "is_disabled": 0}, {"rental_uris": {"android": "https://dc.lft.to/lastmile_qr_scan", "ios": "https://dc.lft.to/lastmile_qr_scan"}, "type": "electric_scooter", "lon": -76.99003016666667, "name": "56b01cfe80e7a6c3ba4a4f96be88f5ad", "bike_id": "56b01cfe80e7a6c3ba4a4f96be88f5ad", "fusion_lat": 0.0, "is_reserved": 0, "lat": 38.86505366666667, "fusion_lon": 0.0, "is_disabled": 0}, {"rental_uris": {"android": "https://dc.lft.to/lastmile_qr_scan", "ios": "https://dc.lft.to/lastmile_qr_scan"}, "type": "electric_scooter", "lon": -77.0176805, "name": "87e0d4f430f14d0f34225f84041ad04c", "bike_id": "87e0d4f430f14d0f34225f84041ad04c", "fusion_lat": 0.0, "is_reserved": 0, "lat": 38.87293866666667, "fusion_lon": 0.0, "is_disabled": 0}, {"rental_uris": {"android": "https://dc.lft.to/lastmile_qr_scan", "ios": "https://dc.lft.to/lastmile_qr_scan"}, "type": "electric_scooter", "lon": -77.03456833333334, "name": "a21b06a236d16f5944db0105fa441688", "bike_id": "a21b06a236d16f5944db0105fa441688", "fusion_lat": 0.0, "is_reserved": 0, "lat": 38.93558616666667, "fusion_lon": 0.0, "is_disabled": 0}, {"rental_uris": {"android": "https://dc.lft.to/lastmile_qr_scan", "ios": "https://dc.lft.to/lastmile_qr_scan"}, "type": "electric_scooter", "lon": -77.03204116666667, "name": "e6ac7c576bdfa048361e1d3fc5091767", "bike_id": "e6ac7c576bdfa048361e1d3fc5091767", "fusion_lat": 0.0, "is_reserved": 0, "lat": 38.918775833333335, "fusion_lon": 0.0, "is_disabled": 0}, {"rental_uris": {"android": "https://dc.lft.to/lastmile_qr_scan", "ios": "https://dc.lft.to/lastmile_qr_scan"}, "type": "electric_scooter", "lon": -76.97020133333334, "name": "1591b41864354b10248162b813834b25", "bike_id": "1591b41864354b10248162b813834b25", "fusion_lat": 0.0, "is_reserved": 0, "lat": 38.920304, "fusion_lon": 0.0, "is_disabled": 0}, {"rental_uris": {"android": "https://dc.lft.to/lastmile_qr_scan", "ios": "https://dc.lft.to/lastmile_qr_scan"}, "type": "electric_scooter", "lon": -76.98464183333333, "name": "0be877e856d4c1f8a26a458e5f525933", "bike_id": "0be877e856d4c1f8a26a458e5f525933", "fusion_lat": 0.0, "is_reserved": 0, "lat": 38.893683833333334, "fusion_lon": 0.0, "is_disabled": 0}, {"rental_uris": {"android": "https://dc.lft.to/lastmile_qr_scan", "ios": "https://dc.lft.to/lastmile_qr_scan"}, "type": "electric_scooter", "lon": -77.04998016666667, "name": "cc84809366b37bec60641c928984a31e", "bike_id": "cc84809366b37bec60641c928984a31e", "fusion_lat": 0.0, "is_reserved": 0, "lat": 38.900878166666665, "fusion_lon": 0.0, "is_disabled": 0}, {"rental_uris": {"android": "https://dc.lft.to/lastmile_qr_scan", "ios": "https://dc.lft.to/lastmile_qr_scan"}, "type": "electric_scooter", "lon": -77.02155283333333, "name": "35d2c720685d085cb46286a6037dab3a", "bike_id": "35d2c720685d085cb46286a6037dab3a", "fusion_lat": 0.0, "is_reserved": 0, "lat": 38.879099333333336, "fusion_lon": 0.0, "is_disabled": 0}, {"rental_uris": {"android": "https://dc.lft.to/lastmile_qr_scan", "ios": "https://dc.lft.to/lastmile_qr_scan"}, "type": "electric_scooter", "lon": -77.01900766666667, "name": "2956fd6b2c41993f1edbc480acc0de57", "bike_id": "2956fd6b2c41993f1edbc480acc0de57", "fusion_lat": 0.0, "is_reserved": 0, "lat": 38.939184833333336, "fusion_lon": 0.0, "is_disabled": 0}, {"rental_uris": {"android": "https://dc.lft.to/lastmile_qr_scan", "ios": "https://dc.lft.to/lastmile_qr_scan"}, "type": "electric_scooter", "lon": -77.03864333333334, "name": "1a6149d3d0dbf33e004e341332b730b4", "bike_id": "1a6149d3d0dbf33e004e341332b730b4", "fusion_lat": 0.0, "is_reserved": 0, "lat": 38.917085, "fusion_lon": 0.0, "is_disabled": 0}, {"rental_uris": {"android": "https://dc.lft.to/lastmile_qr_scan", "ios": "https://dc.lft.to/lastmile_qr_scan"}, "type": "electric_scooter", "lon": -76.99080633333334, "name": "1ce5804f16ecc768426ca5a33fa297a8", "bike_id": "1ce5804f16ecc768426ca5a33fa297a8", "fusion_lat": 0.0, "is_reserved": 0, "lat": 38.8428815, "fusion_lon": 0.0, "is_disabled": 0}, {"rental_uris": {"android": "https://dc.lft.to/lastmile_qr_scan", "ios": "https://dc.lft.to/lastmile_qr_scan"}, "type": "electric_bike", "lon": -76.94794616666667, "name": "d9b8cebeed05e7cc5a61220abd697652", "bike_id": "d9b8cebeed05e7cc5a61220abd697652", "fusion_lat": 0.0, "is_reserved": 0, "lat": 38.8964925, "fusion_lon": 0.0, "is_disabled": 0}, {"rental_uris": {"android": "https://dc.lft.to/lastmile_qr_scan", "ios": "https://dc.lft.to/lastmile_qr_scan"}, "type": "electric_scooter", "lon": -77.01209316666667, "name": "300a6ad6a31cb13f48c8f2e119812efa", "bike_id": "300a6ad6a31cb13f48c8f2e119812efa", "fusion_lat": 0.0, "is_reserved": 0, "lat": 38.91823, "fusion_lon": 0.0, "is_disabled": 0}, {"rental_uris": {"android": "https://dc.lft.to/lastmile_qr_scan", "ios": "https://dc.lft.to/lastmile_qr_scan"}, "type": "electric_scooter", "lon": -77.001462, "name": "d5c058145642d6b14e6e058954e3aa5a", "bike_id": "d5c058145642d6b14e6e058954e3aa5a", "fusion_lat": 0.0, "is_reserved": 0, "lat": 38.900289666666666, "fusion_lon": 0.0, "is_disabled": 0}, {"rental_uris": {"android": "https://dc.lft.to/lastmile_qr_scan", "ios": "https://dc.lft.to/lastmile_qr_scan"}, "type": "electric_bike", "lon": -76.99103483333333, "name": "6727d8c7d2dc3be3f8c18b71247e2366", "bike_id": "6727d8c7d2dc3be3f8c18b71247e2366", "fusion_lat": 0.0, "is_reserved": 0, "lat": 38.93368816666667, "fusion_lon": 0.0, "is_disabled": 0}, {"rental_uris": {"android": "https://dc.lft.to/lastmile_qr_scan", "ios": "https://dc.lft.to/lastmile_qr_scan"}, "type": "electric_scooter", "lon": -77.04990783333334, "name": "9cf70cb61e08ebdc6125d1254db8d8c3", "bike_id": "9cf70cb61e08ebdc6125d1254db8d8c3", "fusion_lat": 0.0, "is_reserved": 0, "lat": 38.89730016666667, "fusion_lon": 0.0, "is_disabled": 0}, {"rental_uris": {"android": "https://dc.lft.to/lastmile_qr_scan", "ios": "https://dc.lft.to/lastmile_qr_scan"}, "type": "electric_bike", "lon": -76.87496633333333, "name": "39273d5aace707e33e18aa6a539d4cfc", "bike_id": "39273d5aace707e33e18aa6a539d4cfc", "fusion_lat": 0.0, "is_reserved": 0, "lat": 38.9908955, "fusion_lon": 0.0, "is_disabled": 0}, {"rental_uris": {"android": "https://dc.lft.to/lastmile_qr_scan", "ios": "https://dc.lft.to/lastmile_qr_scan"}, "type": "electric_scooter", "lon": -77.00073833333333, "name": "fe97188424f3bd9255bdb1c9100e1265", "bike_id": "fe97188424f3bd9255bdb1c9100e1265", "fusion_lat": 0.0, "is_reserved": 0, "lat": 38.897440333333336, "fusion_lon": 0.0, "is_disabled": 0}, {"rental_uris": {"android": "https://dc.lft.to/lastmile_qr_scan", "ios": "https://dc.lft.to/lastmile_qr_scan"}, "type": "electric_scooter", "lon": -77.06815116666667, "name": "8c46c27f3d0cd40f69fc04851a9310ba", "bike_id": "8c46c27f3d0cd40f69fc04851a9310ba", "fusion_lat": 0.0, "is_reserved": 0, "lat": 38.90506216666667, "fusion_lon": 0.0, "is_disabled": 0}, {"rental_uris": {"android": "https://dc.lft.to/lastmile_qr_scan", "ios": "https://dc.lft.to/lastmile_qr_scan"}, "type": "electric_bike", "lon": -77.11220916666667, "name": "7d0038146375e18c1047585e1cf0b9a6", "bike_id": "7d0038146375e18c1047585e1cf0b9a6", "fusion_lat": 0.0, "is_reserved": 0, "lat": 38.82870883333333, "fusion_lon": 0.0, "is_disabled": 0}, {"rental_uris": {"android": "https://dc.lft.to/lastmile_qr_scan", "ios": "https://dc.lft.to/lastmile_qr_scan"}, "type": "electric_scooter", "lon": -77.01580383333334, "name": "ca3c89df71a7c47196c154351a4bfeec", "bike_id": "ca3c89df71a7c47196c154351a4bfeec", "fusion_lat": 0.0, "is_reserved": 0, "lat": 38.876639833333336, "fusion_lon": 0.0, "is_disabled": 0}, {"rental_uris": {"android": "https://dc.lft.to/lastmile_qr_scan", "ios": "https://dc.lft.to/lastmile_qr_scan"}, "type": "electric_scooter", "lon": -76.931616, "name": "248718d95ab75e6a8350a781d9dcfede", "bike_id": "248718d95ab75e6a8350a781d9dcfede", "fusion_lat": 0.0, "is_reserved": 0, "lat": 38.898825, "fusion_lon": 0.0, "is_disabled": 0}, {"rental_uris": {"android": "https://dc.lft.to/lastmile_qr_scan", "ios": "https://dc.lft.to/lastmile_qr_scan"}, "type": "electric_scooter", "lon": -77.03845966666667, "name": "e22edf859078b11ccefcac175b4a65dd", "bike_id": "e22edf859078b11ccefcac175b4a65dd", "fusion_lat": 0.0, "is_reserved": 0, "lat": 38.912048, "fusion_lon": 0.0, "is_disabled": 0}, {"rental_uris": {"android": "https://dc.lft.to/lastmile_qr_scan", "ios": "https://dc.lft.to/lastmile_qr_scan"}, "type": "electric_scooter", "lon": -77.00958783333333, "name": "599c953cf6c0667b36bc7a6aef77f3be", "bike_id": "599c953cf6c0667b36bc7a6aef77f3be", "fusion_lat": 0.0, "is_reserved": 0, "lat": 38.92133583333333, "fusion_lon": 0.0, "is_disabled": 0}, {"rental_uris": {"android": "https://dc.lft.to/lastmile_qr_scan", "ios": "https://dc.lft.to/lastmile_qr_scan"}, "type": "electric_scooter", "lon": -76.942142, "name": "16760a7731717c6694d561722d5485ed", "bike_id": "16760a7731717c6694d561722d5485ed", "fusion_lat": 0.0, "is_reserved": 0, "lat": 38.896662, "fusion_lon": 0.0, "is_disabled": 0}, {"rental_uris": {"android": "https://dc.lft.to/lastmile_qr_scan", "ios": "https://dc.lft.to/lastmile_qr_scan"}, "type": "electric_bike", "lon": -77.00672383333334, "name": "faf0d1afc6790085f78669f2765c08c9", "bike_id": "faf0d1afc6790085f78669f2765c08c9", "fusion_lat": 0.0, "is_reserved": 0, "lat": 38.94508783333333, "fusion_lon": 0.0, "is_disabled": 0}, {"rental_uris": {"android": "https://dc.lft.to/lastmile_qr_scan", "ios": "https://dc.lft.to/lastmile_qr_scan"}, "type": "electric_scooter", "lon": -77.0059355, "name": "1eaf4552c602835855aed9c90453a443", "bike_id": "1eaf4552c602835855aed9c90453a443", "fusion_lat": 0.0, "is_reserved": 0, "lat": 38.915647666666665, "fusion_lon": 0.0, "is_disabled": 0}, {"rental_uris": {"android": "https://dc.lft.to/lastmile_qr_scan", "ios": "https://dc.lft.to/lastmile_qr_scan"}, "type": "electric_scooter", "lon": -76.93842283333333, "name": "6605538639a6fa13b75a3810725597bf", "bike_id": "6605538639a6fa13b75a3810725597bf", "fusion_lat": 0.0, "is_reserved": 0, "lat": 38.89009083333333, "fusion_lon": 0.0, "is_disabled": 0}, {"rental_uris": {"android": "https://dc.lft.to/lastmile_qr_scan", "ios": "https://dc.lft.to/lastmile_qr_scan"}, "type": "electric_scooter", "lon": -77.02410616666667, "name": "1a242b540652b1f5f7b021d5d750fbeb", "bike_id": "1a242b540652b1f5f7b021d5d750fbeb", "fusion_lat": 0.0, "is_reserved": 0, "lat": 38.920868, "fusion_lon": 0.0, "is_disabled": 0}, {"rental_uris": {"android": "https://dc.lft.to/lastmile_qr_scan", "ios": "https://dc.lft.to/lastmile_qr_scan"}, "type": "electric_scooter", "lon": -77.02341833333334, "name": "d684a24ce1ca91a8463ed3a283ff2ca5", "bike_id": "d684a24ce1ca91a8463ed3a283ff2ca5", "fusion_lat": 0.0, "is_reserved": 0, "lat": 38.9298475, "fusion_lon": 0.0, "is_disabled": 0}, {"rental_uris": {"android": "https://dc.lft.to/lastmile_qr_scan", "ios": "https://dc.lft.to/lastmile_qr_scan"}, "type": "electric_scooter", "lon": -77.04305333333333, "name": "55ee452e206e8b37cf03c2f5cf6680d2", "bike_id": "55ee452e206e8b37cf03c2f5cf6680d2", "fusion_lat": 0.0, "is_reserved": 0, "lat": 38.926588333333335, "fusion_lon": 0.0, "is_disabled": 0}, {"rental_uris": {"android": "https://dc.lft.to/lastmile_qr_scan", "ios": "https://dc.lft.to/lastmile_qr_scan"}, "type": "electric_scooter", "lon": -77.07862283333333, "name": "68e81b98be48e27f22809aa4aaf11a7e", "bike_id": "68e81b98be48e27f22809aa4aaf11a7e", "fusion_lat": 0.0, "is_reserved": 0, "lat": 38.919109666666664, "fusion_lon": 0.0, "is_disabled": 0}, {"rental_uris": {"android": "https://dc.lft.to/lastmile_qr_scan", "ios": "https://dc.lft.to/lastmile_qr_scan"}, "type": "electric_scooter", "lon": -76.983416, "name": "fb1653de3e52049c75d2c201b0395526", "bike_id": "fb1653de3e52049c75d2c201b0395526", "fusion_lat": 0.0, "is_reserved": 0, "lat": 38.864653833333335, "fusion_lon": 0.0, "is_disabled": 0}, {"rental_uris": {"android": "https://dc.lft.to/lastmile_qr_scan", "ios": "https://dc.lft.to/lastmile_qr_scan"}, "type": "electric_scooter", "lon": -77.02343083333334, "name": "13726786b543cdc2f3c73f5b1fa3d894", "bike_id": "13726786b543cdc2f3c73f5b1fa3d894", "fusion_lat": 0.0, "is_reserved": 0, "lat": 38.96204383333333, "fusion_lon": 0.0, "is_disabled": 0}, {"rental_uris": {"android": "https://dc.lft.to/lastmile_qr_scan", "ios": "https://dc.lft.to/lastmile_qr_scan"}, "type": "electric_scooter", "lon": -77.03555816666666, "name": "ba4660b377a863e082f0a53cbdabac2b", "bike_id": "ba4660b377a863e082f0a53cbdabac2b", "fusion_lat": 0.0, "is_reserved": 0, "lat": 38.90365883333333, "fusion_lon": 0.0, "is_disabled": 0}, {"rental_uris": {"android": "https://dc.lft.to/lastmile_qr_scan", "ios": "https://dc.lft.to/lastmile_qr_scan"}, "type": "electric_bike", "lon": -77.12503866666667, "name": "5dd99a0c657ceace540ace7cb2911307", "bike_id": "5dd99a0c657ceace540ace7cb2911307", "fusion_lat": 0.0, "is_reserved": 0, "lat": 39.0241575, "fusion_lon": 0.0, "is_disabled": 0}, {"rental_uris": {"android": "https://dc.lft.to/lastmile_qr_scan", "ios": "https://dc.lft.to/lastmile_qr_scan"}, "type": "electric_scooter", "lon": -77.04358583333334, "name": "7884a5a952674b86f68dc50bdbe8e682", "bike_id": "7884a5a952674b86f68dc50bdbe8e682", "fusion_lat": 0.0, "is_reserved": 0, "lat": 38.921245166666665, "fusion_lon": 0.0, "is_disabled": 0}, {"rental_uris": {"android": "https://dc.lft.to/lastmile_qr_scan", "ios": "https://dc.lft.to/lastmile_qr_scan"}, "type": "electric_scooter", "lon": -77.0296275, "name": "cfaebd1705e2c24cc44e6f385e8e4087", "bike_id": "cfaebd1705e2c24cc44e6f385e8e4087", "fusion_lat": 0.0, "is_reserved": 0, "lat": 38.9231305, "fusion_lon": 0.0, "is_disabled": 0}, {"rental_uris": {"android": "https://dc.lft.to/lastmile_qr_scan", "ios": "https://dc.lft.to/lastmile_qr_scan"}, "type": "electric_scooter", "lon": -77.026973, "name": "84d9cd4f0e951b810c27f04d503792d4", "bike_id": "84d9cd4f0e951b810c27f04d503792d4", "fusion_lat": 0.0, "is_reserved": 0, "lat": 38.906909, "fusion_lon": 0.0, "is_disabled": 0}, {"rental_uris": {"android": "https://dc.lft.to/lastmile_qr_scan", "ios": "https://dc.lft.to/lastmile_qr_scan"}, "type": "electric_scooter", "lon": -77.04816466666666, "name": "0336399a0b8a7812b4fc0a2bf075bf2a", "bike_id": "0336399a0b8a7812b4fc0a2bf075bf2a", "fusion_lat": 0.0, "is_reserved": 0, "lat": 38.90461283333333, "fusion_lon": 0.0, "is_disabled": 0}, {"rental_uris": {"android": "https://dc.lft.to/lastmile_qr_scan", "ios": "https://dc.lft.to/lastmile_qr_scan"}, "type": "electric_scooter", "lon": -76.9463625, "name": "e8c7efabeb0e912b2f461cbda68362a3", "bike_id": "e8c7efabeb0e912b2f461cbda68362a3", "fusion_lat": 0.0, "is_reserved": 0, "lat": 38.89842866666667, "fusion_lon": 0.0, "is_disabled": 0}, {"rental_uris": {"android": "https://dc.lft.to/lastmile_qr_scan", "ios": "https://dc.lft.to/lastmile_qr_scan"}, "type": "electric_scooter", "lon": -77.05736666666667, "name": "b8c708efea34cdbbfd486db74a33223d", "bike_id": "b8c708efea34cdbbfd486db74a33223d", "fusion_lat": 0.0, "is_reserved": 0, "lat": 38.93363933333333, "fusion_lon": 0.0, "is_disabled": 0}, {"rental_uris": {"android": "https://dc.lft.to/lastmile_qr_scan", "ios": "https://dc.lft.to/lastmile_qr_scan"}, "type": "electric_scooter", "lon": -77.0216125, "name": "bec33667a865895fac7bbc74bbebe737", "bike_id": "bec33667a865895fac7bbc74bbebe737", "fusion_lat": 0.0, "is_reserved": 0, "lat": 38.88494133333333, "fusion_lon": 0.0, "is_disabled": 0}, {"rental_uris": {"android": "https://dc.lft.to/lastmile_qr_scan", "ios": "https://dc.lft.to/lastmile_qr_scan"}, "type": "electric_scooter", "lon": -77.02356016666667, "name": "71ac57926837d17ff0efdf1ebda0bd1a", "bike_id": "71ac57926837d17ff0efdf1ebda0bd1a", "fusion_lat": 0.0, "is_reserved": 0, "lat": 38.892244166666664, "fusion_lon": 0.0, "is_disabled": 0}, {"rental_uris": {"android": "https://dc.lft.to/lastmile_qr_scan", "ios": "https://dc.lft.to/lastmile_qr_scan"}, "type": "electric_scooter", "lon": -77.04170183333333, "name": "20d998dce1559cf1143dda4da34456ce", "bike_id": "20d998dce1559cf1143dda4da34456ce", "fusion_lat": 0.0, "is_reserved": 0, "lat": 38.91343766666667, "fusion_lon": 0.0, "is_disabled": 0}, {"rental_uris": {"android": "https://dc.lft.to/lastmile_qr_scan", "ios": "https://dc.lft.to/lastmile_qr_scan"}, "type": "electric_scooter", "lon": -77.0368375, "name": "b767067acde469bd18915cc8b3f58bbc", "bike_id": "b767067acde469bd18915cc8b3f58bbc", "fusion_lat": 0.0, "is_reserved": 0, "lat": 38.936518166666666, "fusion_lon": 0.0, "is_disabled": 0}, {"rental_uris": {"android": "https://dc.lft.to/lastmile_qr_scan", "ios": "https://dc.lft.to/lastmile_qr_scan"}, "type": "electric_scooter", "lon": -77.00530316666666, "name": "35fb46ec94913e9a01d239e9e66c1361", "bike_id": "35fb46ec94913e9a01d239e9e66c1361", "fusion_lat": 0.0, "is_reserved": 0, "lat": 38.8782415, "fusion_lon": 0.0, "is_disabled": 0}, {"rental_uris": {"android": "https://dc.lft.to/lastmile_qr_scan", "ios": "https://dc.lft.to/lastmile_qr_scan"}, "type": "electric_scooter", "lon": -77.025414, "name": "2054dbe969a6740de603345ef93111ef", "bike_id": "2054dbe969a6740de603345ef93111ef", "fusion_lat": 0.0, "is_reserved": 0, "lat": 38.9021115, "fusion_lon": 0.0, "is_disabled": 0}, {"rental_uris": {"android": "https://dc.lft.to/lastmile_qr_scan", "ios": "https://dc.lft.to/lastmile_qr_scan"}, "type": "electric_scooter", "lon": -77.01926116666667, "name": "2f99c06f64b02fa8d682b540a66f3620", "bike_id": "2f99c06f64b02fa8d682b540a66f3620", "fusion_lat": 0.0, "is_reserved": 0, "lat": 38.93568666666667, "fusion_lon": 0.0, "is_disabled": 0}, {"rental_uris": {"android": "https://dc.lft.to/lastmile_qr_scan", "ios": "https://dc.lft.to/lastmile_qr_scan"}, "type": "electric_scooter", "lon": -76.96431416666667, "name": "8362696678afb8f18a8ed4ea98624b73", "bike_id": "8362696678afb8f18a8ed4ea98624b73", "fusion_lat": 0.0, "is_reserved": 0, "lat": 38.93442866666667, "fusion_lon": 0.0, "is_disabled": 0}, {"rental_uris": {"android": "https://dc.lft.to/lastmile_qr_scan", "ios": "https://dc.lft.to/lastmile_qr_scan"}, "type": "electric_bike", "lon": -77.109932, "name": "baa71dea18252a9be9dc86126b690bbe", "bike_id": "baa71dea18252a9be9dc86126b690bbe", "fusion_lat": 0.0, "is_reserved": 0, "lat": 38.870513833333334, "fusion_lon": 0.0, "is_disabled": 0}, {"rental_uris": {"android": "https://dc.lft.to/lastmile_qr_scan", "ios": "https://dc.lft.to/lastmile_qr_scan"}, "type": "electric_scooter", "lon": -77.0344585, "name": "1fa92823f3e43ba596a9b30b9c2cfb01", "bike_id": "1fa92823f3e43ba596a9b30b9c2cfb01", "fusion_lat": 0.0, "is_reserved": 0, "lat": 38.91807566666667, "fusion_lon": 0.0, "is_disabled": 0}, {"rental_uris": {"android": "https://dc.lft.to/lastmile_qr_scan", "ios": "https://dc.lft.to/lastmile_qr_scan"}, "type": "electric_scooter", "lon": -77.04464716666666, "name": "f8611565c93a2d16d41db0e5a32f8fe1", "bike_id": "f8611565c93a2d16d41db0e5a32f8fe1", "fusion_lat": 0.0, "is_reserved": 0, "lat": 38.9188395, "fusion_lon": 0.0, "is_disabled": 0}, {"rental_uris": {"android": "https://dc.lft.to/lastmile_qr_scan", "ios": "https://dc.lft.to/lastmile_qr_scan"}, "type": "electric_scooter", "lon": -77.02345516666666, "name": "d943c66bb573b015e4ae90e4607e7435", "bike_id": "d943c66bb573b015e4ae90e4607e7435", "fusion_lat": 0.0, "is_reserved": 0, "lat": 38.962043, "fusion_lon": 0.0, "is_disabled": 0}, {"rental_uris": {"android": "https://dc.lft.to/lastmile_qr_scan", "ios": "https://dc.lft.to/lastmile_qr_scan"}, "type": "electric_scooter", "lon": -77.04559416666666, "name": "5164718ac99647fedd3564fedd307f67", "bike_id": "5164718ac99647fedd3564fedd307f67", "fusion_lat": 0.0, "is_reserved": 0, "lat": 38.919358833333334, "fusion_lon": 0.0, "is_disabled": 0}, {"rental_uris": {"android": "https://dc.lft.to/lastmile_qr_scan", "ios": "https://dc.lft.to/lastmile_qr_scan"}, "type": "electric_scooter", "lon": -77.03442483333333, "name": "755ceddcdc96a65ddd2e0e2298090287", "bike_id": "755ceddcdc96a65ddd2e0e2298090287", "fusion_lat": 0.0, "is_reserved": 0, "lat": 38.90297916666667, "fusion_lon": 0.0, "is_disabled": 0}, {"rental_uris": {"android": "https://dc.lft.to/lastmile_qr_scan", "ios": "https://dc.lft.to/lastmile_qr_scan"}, "type": "electric_scooter", "lon": -76.99485116666666, "name": "5f79e67c76ab60b8b81f8f3362c410bf", "bike_id": "5f79e67c76ab60b8b81f8f3362c410bf", "fusion_lat": 0.0, "is_reserved": 0, "lat": 38.87732183333333, "fusion_lon": 0.0, "is_disabled": 0}, {"rental_uris": {"android": "https://dc.lft.to/lastmile_qr_scan", "ios": "https://dc.lft.to/lastmile_qr_scan"}, "type": "electric_scooter", "lon": -76.989904, "name": "93f9c5da006b3e4fcde774801601cd17", "bike_id": "93f9c5da006b3e4fcde774801601cd17", "fusion_lat": 0.0, "is_reserved": 0, "lat": 38.86437983333333, "fusion_lon": 0.0, "is_disabled": 0}, {"rental_uris": {"android": "https://dc.lft.to/lastmile_qr_scan", "ios": "https://dc.lft.to/lastmile_qr_scan"}, "type": "electric_scooter", "lon": -77.03182633333333, "name": "aa72fef58020aa6747cd64c5b2c0df68", "bike_id": "aa72fef58020aa6747cd64c5b2c0df68", "fusion_lat": 0.0, "is_reserved": 0, "lat": 38.88658783333333, "fusion_lon": 0.0, "is_disabled": 0}, {"rental_uris": {"android": "https://dc.lft.to/lastmile_qr_scan", "ios": "https://dc.lft.to/lastmile_qr_scan"}, "type": "electric_scooter", "lon": -77.02405416666667, "name": "fbf280e39f8eeb94933b1d42c8e0434f", "bike_id": "fbf280e39f8eeb94933b1d42c8e0434f", "fusion_lat": 0.0, "is_reserved": 0, "lat": 38.9208305, "fusion_lon": 0.0, "is_disabled": 0}, {"rental_uris": {"android": "https://dc.lft.to/lastmile_qr_scan", "ios": "https://dc.lft.to/lastmile_qr_scan"}, "type": "electric_scooter", "lon": -77.01560866666667, "name": "087463d34c70613cdf64ca4ee8766703", "bike_id": "087463d34c70613cdf64ca4ee8766703", "fusion_lat": 0.0, "is_reserved": 0, "lat": 38.913690333333335, "fusion_lon": 0.0, "is_disabled": 0}, {"rental_uris": {"android": "https://dc.lft.to/lastmile_qr_scan", "ios": "https://dc.lft.to/lastmile_qr_scan"}, "type": "electric_scooter", "lon": -77.01583283333333, "name": "a7b7cb90f20c4e14c7bab3ed7f38838c", "bike_id": "a7b7cb90f20c4e14c7bab3ed7f38838c", "fusion_lat": 0.0, "is_reserved": 0, "lat": 38.91675333333333, "fusion_lon": 0.0, "is_disabled": 0}, {"rental_uris": {"android": "https://dc.lft.to/lastmile_qr_scan", "ios": "https://dc.lft.to/lastmile_qr_scan"}, "type": "electric_scooter", "lon": -77.03171783333333, "name": "6edf2a8685e3ccd367a8bc108926535f", "bike_id": "6edf2a8685e3ccd367a8bc108926535f", "fusion_lat": 0.0, "is_reserved": 0, "lat": 38.897374, "fusion_lon": 0.0, "is_disabled": 0}, {"rental_uris": {"android": "https://dc.lft.to/lastmile_qr_scan", "ios": "https://dc.lft.to/lastmile_qr_scan"}, "type": "electric_scooter", "lon": -77.02558133333334, "name": "df64ad18986971ef6a36aed6a2a6aaf9", "bike_id": "df64ad18986971ef6a36aed6a2a6aaf9", "fusion_lat": 0.0, "is_reserved": 0, "lat": 38.9416515, "fusion_lon": 0.0, "is_disabled": 0}, {"rental_uris": {"android": "https://dc.lft.to/lastmile_qr_scan", "ios": "https://dc.lft.to/lastmile_qr_scan"}, "type": "electric_scooter", "lon": -76.99220866666667, "name": "4e885b8c06f80a111438ecb94763f4f5", "bike_id": "4e885b8c06f80a111438ecb94763f4f5", "fusion_lat": 0.0, "is_reserved": 0, "lat": 38.895094, "fusion_lon": 0.0, "is_disabled": 0}, {"rental_uris": {"android": "https://dc.lft.to/lastmile_qr_scan", "ios": "https://dc.lft.to/lastmile_qr_scan"}, "type": "electric_scooter", "lon": -77.0487065, "name": "4338d489c86322bfdda72bff9b5ea102", "bike_id": "4338d489c86322bfdda72bff9b5ea102", "fusion_lat": 0.0, "is_reserved": 0, "lat": 38.9097655, "fusion_lon": 0.0, "is_disabled": 0}, {"rental_uris": {"android": "https://dc.lft.to/lastmile_qr_scan", "ios": "https://dc.lft.to/lastmile_qr_scan"}, "type": "electric_scooter", "lon": -76.98853116666666, "name": "8621867fbfda658244e4f19d60613bb1", "bike_id": "8621867fbfda658244e4f19d60613bb1", "fusion_lat": 0.0, "is_reserved": 0, "lat": 38.900295, "fusion_lon": 0.0, "is_disabled": 0}, {"rental_uris": {"android": "https://dc.lft.to/lastmile_qr_scan", "ios": "https://dc.lft.to/lastmile_qr_scan"}, "type": "electric_scooter", "lon": -77.04214866666666, "name": "7de6776796cc8e549c4dfaeb7bf8c366", "bike_id": "7de6776796cc8e549c4dfaeb7bf8c366", "fusion_lat": 0.0, "is_reserved": 0, "lat": 38.921262, "fusion_lon": 0.0, "is_disabled": 0}, {"rental_uris": {"android": "https://dc.lft.to/lastmile_qr_scan", "ios": "https://dc.lft.to/lastmile_qr_scan"}, "type": "electric_scooter", "lon": -77.045779, "name": "cebf5138998faef56d99cf51b8d51608", "bike_id": "cebf5138998faef56d99cf51b8d51608", "fusion_lat": 0.0, "is_reserved": 0, "lat": 38.921350833333335, "fusion_lon": 0.0, "is_disabled": 0}, {"rental_uris": {"android": "https://dc.lft.to/lastmile_qr_scan", "ios": "https://dc.lft.to/lastmile_qr_scan"}, "type": "electric_bike", "lon": -77.095205, "name": "aea2968834113f04dc6faff580d2c8cb", "bike_id": "aea2968834113f04dc6faff580d2c8cb", "fusion_lat": 0.0, "is_reserved": 0, "lat": 38.838087, "fusion_lon": 0.0, "is_disabled": 0}, {"rental_uris": {"android": "https://dc.lft.to/lastmile_qr_scan", "ios": "https://dc.lft.to/lastmile_qr_scan"}, "type": "electric_scooter", "lon": -77.05447583333333, "name": "8affd10325edec6d09c700995e536eee", "bike_id": "8affd10325edec6d09c700995e536eee", "fusion_lat": 0.0, "is_reserved": 0, "lat": 38.92859966666666, "fusion_lon": 0.0, "is_disabled": 0}, {"rental_uris": {"android": "https://dc.lft.to/lastmile_qr_scan", "ios": "https://dc.lft.to/lastmile_qr_scan"}, "type": "electric_scooter", "lon": -77.05440433333334, "name": "0d33dfe53c061a65e48abdaa2f678774", "bike_id": "0d33dfe53c061a65e48abdaa2f678774", "fusion_lat": 0.0, "is_reserved": 0, "lat": 38.9284905, "fusion_lon": 0.0, "is_disabled": 0}, {"rental_uris": {"android": "https://dc.lft.to/lastmile_qr_scan", "ios": "https://dc.lft.to/lastmile_qr_scan"}, "type": "electric_scooter", "lon": -77.021801, "name": "2c395efab5b567b4acec0fe6b0f34a70", "bike_id": "2c395efab5b567b4acec0fe6b0f34a70", "fusion_lat": 0.0, "is_reserved": 0, "lat": 38.9431125, "fusion_lon": 0.0, "is_disabled": 0}, {"rental_uris": {"android": "https://dc.lft.to/lastmile_qr_scan", "ios": "https://dc.lft.to/lastmile_qr_scan"}, "type": "electric_scooter", "lon": -77.05286783333334, "name": "0c0d7275692c9505f17dec5585f6754e", "bike_id": "0c0d7275692c9505f17dec5585f6754e", "fusion_lat": 0.0, "is_reserved": 0, "lat": 38.91052716666667, "fusion_lon": 0.0, "is_disabled": 0}, {"rental_uris": {"android": "https://dc.lft.to/lastmile_qr_scan", "ios": "https://dc.lft.to/lastmile_qr_scan"}, "type": "electric_scooter", "lon": -76.99554716666667, "name": "f628d0bf14d2c4e17524b1cea6c00033", "bike_id": "f628d0bf14d2c4e17524b1cea6c00033", "fusion_lat": 0.0, "is_reserved": 0, "lat": 38.884244833333334, "fusion_lon": 0.0, "is_disabled": 0}, {"rental_uris": {"android": "https://dc.lft.to/lastmile_qr_scan", "ios": "https://dc.lft.to/lastmile_qr_scan"}, "type": "electric_scooter", "lon": -77.0364725, "name": "96dd5df5a8aaa22b9cfea3f7e4b3b11b", "bike_id": "96dd5df5a8aaa22b9cfea3f7e4b3b11b", "fusion_lat": 0.0, "is_reserved": 0, "lat": 38.902597166666666, "fusion_lon": 0.0, "is_disabled": 0}, {"rental_uris": {"android": "https://dc.lft.to/lastmile_qr_scan", "ios": "https://dc.lft.to/lastmile_qr_scan"}, "type": "electric_scooter", "lon": -77.03466333333333, "name": "ec1c7bbb3d2051f70f38b98581d90112", "bike_id": "ec1c7bbb3d2051f70f38b98581d90112", "fusion_lat": 0.0, "is_reserved": 0, "lat": 38.9146775, "fusion_lon": 0.0, "is_disabled": 0}, {"rental_uris": {"android": "https://dc.lft.to/lastmile_qr_scan", "ios": "https://dc.lft.to/lastmile_qr_scan"}, "type": "electric_scooter", "lon": -77.02977733333333, "name": "f54dae1d1d794bdebf41436d7e11094d", "bike_id": "f54dae1d1d794bdebf41436d7e11094d", "fusion_lat": 0.0, "is_reserved": 0, "lat": 38.962287, "fusion_lon": 0.0, "is_disabled": 0}, {"rental_uris": {"android": "https://dc.lft.to/lastmile_qr_scan", "ios": "https://dc.lft.to/lastmile_qr_scan"}, "type": "electric_bike", "lon": -77.02115433333333, "name": "a5953c01e827ef6a3db8896ec101ad1e", "bike_id": "a5953c01e827ef6a3db8896ec101ad1e", "fusion_lat": 0.0, "is_reserved": 0, "lat": 38.935959833333335, "fusion_lon": 0.0, "is_disabled": 0}, {"rental_uris": {"android": "https://dc.lft.to/lastmile_qr_scan", "ios": "https://dc.lft.to/lastmile_qr_scan"}, "type": "electric_scooter", "lon": -77.0438615, "name": "1175f45478045b6bd06287446e8ff416", "bike_id": "1175f45478045b6bd06287446e8ff416", "fusion_lat": 0.0, "is_reserved": 0, "lat": 38.92362383333333, "fusion_lon": 0.0, "is_disabled": 0}, {"rental_uris": {"android": "https://dc.lft.to/lastmile_qr_scan", "ios": "https://dc.lft.to/lastmile_qr_scan"}, "type": "electric_bike", "lon": -77.101314, "name": "3fb5356ef5f691d824a7f2498ecefb80", "bike_id": "3fb5356ef5f691d824a7f2498ecefb80", "fusion_lat": 0.0, "is_reserved": 0, "lat": 38.85211283333334, "fusion_lon": 0.0, "is_disabled": 0}, {"rental_uris": {"android": "https://dc.lft.to/lastmile_qr_scan", "ios": "https://dc.lft.to/lastmile_qr_scan"}, "type": "electric_scooter", "lon": -77.0307135, "name": "1d398194209be6d2fc7170747d434e2f", "bike_id": "1d398194209be6d2fc7170747d434e2f", "fusion_lat": 0.0, "is_reserved": 0, "lat": 38.92244916666667, "fusion_lon": 0.0, "is_disabled": 0}, {"rental_uris": {"android": "https://dc.lft.to/lastmile_qr_scan", "ios": "https://dc.lft.to/lastmile_qr_scan"}, "type": "electric_scooter", "lon": -77.03524916666667, "name": "495e4ce4a2de93582cc5b2cb2e96bf8a", "bike_id": "495e4ce4a2de93582cc5b2cb2e96bf8a", "fusion_lat": 0.0, "is_reserved": 0, "lat": 38.90386866666667, "fusion_lon": 0.0, "is_disabled": 0}, {"rental_uris": {"android": "https://dc.lft.to/lastmile_qr_scan", "ios": "https://dc.lft.to/lastmile_qr_scan"}, "type": "electric_scooter", "lon": -76.99492516666666, "name": "fa34b663151416265bc90edaedd888dc", "bike_id": "fa34b663151416265bc90edaedd888dc", "fusion_lat": 0.0, "is_reserved": 0, "lat": 38.862163833333334, "fusion_lon": 0.0, "is_disabled": 0}, {"rental_uris": {"android": "https://dc.lft.to/lastmile_qr_scan", "ios": "https://dc.lft.to/lastmile_qr_scan"}, "type": "electric_scooter", "lon": -77.03396366666666, "name": "db3484d9f2abd7d34fb6b56ac8819fe3", "bike_id": "db3484d9f2abd7d34fb6b56ac8819fe3", "fusion_lat": 0.0, "is_reserved": 0, "lat": 38.920525166666664, "fusion_lon": 0.0, "is_disabled": 0}, {"rental_uris": {"android": "https://dc.lft.to/lastmile_qr_scan", "ios": "https://dc.lft.to/lastmile_qr_scan"}, "type": "electric_scooter", "lon": -76.97464183333334, "name": "a49e93d5f9f33dd270a1c743bc32a347", "bike_id": "a49e93d5f9f33dd270a1c743bc32a347", "fusion_lat": 0.0, "is_reserved": 0, "lat": 38.883950666666664, "fusion_lon": 0.0, "is_disabled": 0}, {"rental_uris": {"android": "https://dc.lft.to/lastmile_qr_scan", "ios": "https://dc.lft.to/lastmile_qr_scan"}, "type": "electric_scooter", "lon": -77.03444416666666, "name": "5ad02133182034ca65472a7246c40065", "bike_id": "5ad02133182034ca65472a7246c40065", "fusion_lat": 0.0, "is_reserved": 0, "lat": 38.902690666666665, "fusion_lon": 0.0, "is_disabled": 0}, {"rental_uris": {"android": "https://dc.lft.to/lastmile_qr_scan", "ios": "https://dc.lft.to/lastmile_qr_scan"}, "type": "electric_scooter", "lon": -77.0269615, "name": "63e52f6b605b69d7a91f9758d28c377e", "bike_id": "63e52f6b605b69d7a91f9758d28c377e", "fusion_lat": 0.0, "is_reserved": 0, "lat": 38.90840466666667, "fusion_lon": 0.0, "is_disabled": 0}, {"rental_uris": {"android": "https://dc.lft.to/lastmile_qr_scan", "ios": "https://dc.lft.to/lastmile_qr_scan"}, "type": "electric_scooter", "lon": -76.9471665, "name": "68632832452698434ece47a3c2054464", "bike_id": "68632832452698434ece47a3c2054464", "fusion_lat": 0.0, "is_reserved": 0, "lat": 38.897332666666664, "fusion_lon": 0.0, "is_disabled": 0}, {"rental_uris": {"android": "https://dc.lft.to/lastmile_qr_scan", "ios": "https://dc.lft.to/lastmile_qr_scan"}, "type": "electric_scooter", "lon": -77.03523566666667, "name": "45384be466c6c82dce4fb8b31c873e98", "bike_id": "45384be466c6c82dce4fb8b31c873e98", "fusion_lat": 0.0, "is_reserved": 0, "lat": 38.9233875, "fusion_lon": 0.0, "is_disabled": 0}, {"rental_uris": {"android": "https://dc.lft.to/lastmile_qr_scan", "ios": "https://dc.lft.to/lastmile_qr_scan"}, "type": "electric_scooter", "lon": -77.02409966666667, "name": "35308e88892aa858dbefea61cc06cc31", "bike_id": "35308e88892aa858dbefea61cc06cc31", "fusion_lat": 0.0, "is_reserved": 0, "lat": 38.92084966666667, "fusion_lon": 0.0, "is_disabled": 0}, {"rental_uris": {"android": "https://dc.lft.to/lastmile_qr_scan", "ios": "https://dc.lft.to/lastmile_qr_scan"}, "type": "electric_scooter", "lon": -77.04175133333334, "name": "cbd3adac63c3319e1ab09be73130f3fb", "bike_id": "cbd3adac63c3319e1ab09be73130f3fb", "fusion_lat": 0.0, "is_reserved": 0, "lat": 38.91586683333333, "fusion_lon": 0.0, "is_disabled": 0}, {"rental_uris": {"android": "https://dc.lft.to/lastmile_qr_scan", "ios": "https://dc.lft.to/lastmile_qr_scan"}, "type": "electric_scooter", "lon": -76.9901645, "name": "017320514f54e9e8fbc7febe97130005", "bike_id": "017320514f54e9e8fbc7febe97130005", "fusion_lat": 0.0, "is_reserved": 0, "lat": 38.901493, "fusion_lon": 0.0, "is_disabled": 0}, {"rental_uris": {"android": "https://dc.lft.to/lastmile_qr_scan", "ios": "https://dc.lft.to/lastmile_qr_scan"}, "type": "electric_scooter", "lon": -77.02645316666667, "name": "4a60af76e04c8a2ecada38fbafc5ec28", "bike_id": "4a60af76e04c8a2ecada38fbafc5ec28", "fusion_lat": 0.0, "is_reserved": 0, "lat": 38.902598, "fusion_lon": 0.0, "is_disabled": 0}, {"rental_uris": {"android": "https://dc.lft.to/lastmile_qr_scan", "ios": "https://dc.lft.to/lastmile_qr_scan"}, "type": "electric_scooter", "lon": -77.02514266666667, "name": "4336d7b086d629fad694ec65325a4878", "bike_id": "4336d7b086d629fad694ec65325a4878", "fusion_lat": 0.0, "is_reserved": 0, "lat": 38.926460166666665, "fusion_lon": 0.0, "is_disabled": 0}, {"rental_uris": {"android": "https://dc.lft.to/lastmile_qr_scan", "ios": "https://dc.lft.to/lastmile_qr_scan"}, "type": "electric_scooter", "lon": -77.03484133333333, "name": "04409eb23415730e59da1cf7948b0152", "bike_id": "04409eb23415730e59da1cf7948b0152", "fusion_lat": 0.0, "is_reserved": 0, "lat": 38.9248015, "fusion_lon": 0.0, "is_disabled": 0}, {"rental_uris": {"android": "https://dc.lft.to/lastmile_qr_scan", "ios": "https://dc.lft.to/lastmile_qr_scan"}, "type": "electric_bike", "lon": -76.931891, "name": "5015f986cc75d56f4b7f27c505eb9255", "bike_id": "5015f986cc75d56f4b7f27c505eb9255", "fusion_lat": 0.0, "is_reserved": 0, "lat": 38.89850716666667, "fusion_lon": 0.0, "is_disabled": 0}, {"rental_uris": {"android": "https://dc.lft.to/lastmile_qr_scan", "ios": "https://dc.lft.to/lastmile_qr_scan"}, "type": "electric_scooter", "lon": -76.982441, "name": "4637885a9783b27a85de879cf20836c4", "bike_id": "4637885a9783b27a85de879cf20836c4", "fusion_lat": 0.0, "is_reserved": 0, "lat": 38.903114, "fusion_lon": 0.0, "is_disabled": 0}, {"rental_uris": {"android": "https://dc.lft.to/lastmile_qr_scan", "ios": "https://dc.lft.to/lastmile_qr_scan"}, "type": "electric_bike", "lon": -77.06954316666666, "name": "24cda8de672fc69a2a599a6cb987fdaf", "bike_id": "24cda8de672fc69a2a599a6cb987fdaf", "fusion_lat": 0.0, "is_reserved": 0, "lat": 38.990431666666666, "fusion_lon": 0.0, "is_disabled": 0}, {"rental_uris": {"android": "https://dc.lft.to/lastmile_qr_scan", "ios": "https://dc.lft.to/lastmile_qr_scan"}, "type": "electric_scooter", "lon": -77.01691083333333, "name": "d13f40108fb9ff14f896eec0f669ce6b", "bike_id": "d13f40108fb9ff14f896eec0f669ce6b", "fusion_lat": 0.0, "is_reserved": 0, "lat": 38.883230166666664, "fusion_lon": 0.0, "is_disabled": 0}, {"rental_uris": {"android": "https://dc.lft.to/lastmile_qr_scan", "ios": "https://dc.lft.to/lastmile_qr_scan"}, "type": "electric_scooter", "lon": -77.03837366666667, "name": "beed4f4ce88a5a4ec4e070c5a552ad7e", "bike_id": "beed4f4ce88a5a4ec4e070c5a552ad7e", "fusion_lat": 0.0, "is_reserved": 0, "lat": 38.903394666666664, "fusion_lon": 0.0, "is_disabled": 0}, {"rental_uris": {"android": "https://dc.lft.to/lastmile_qr_scan", "ios": "https://dc.lft.to/lastmile_qr_scan"}, "type": "electric_scooter", "lon": -77.03444216666666, "name": "964836c26ad3aa80eea9b391cab44524", "bike_id": "964836c26ad3aa80eea9b391cab44524", "fusion_lat": 0.0, "is_reserved": 0, "lat": 38.92859283333333, "fusion_lon": 0.0, "is_disabled": 0}, {"rental_uris": {"android": "https://dc.lft.to/lastmile_qr_scan", "ios": "https://dc.lft.to/lastmile_qr_scan"}, "type": "electric_scooter", "lon": -76.9378185, "name": "0c9c7961bfc775fe9874f21aeca76829", "bike_id": "0c9c7961bfc775fe9874f21aeca76829", "fusion_lat": 0.0, "is_reserved": 0, "lat": 38.899667, "fusion_lon": 0.0, "is_disabled": 0}, {"rental_uris": {"android": "https://dc.lft.to/lastmile_qr_scan", "ios": "https://dc.lft.to/lastmile_qr_scan"}, "type": "electric_scooter", "lon": -76.99591866666667, "name": "751287dc80235a7b74178c60d827e1db", "bike_id": "751287dc80235a7b74178c60d827e1db", "fusion_lat": 0.0, "is_reserved": 0, "lat": 38.88434183333333, "fusion_lon": 0.0, "is_disabled": 0}, {"rental_uris": {"android": "https://dc.lft.to/lastmile_qr_scan", "ios": "https://dc.lft.to/lastmile_qr_scan"}, "type": "electric_scooter", "lon": -77.01952583333333, "name": "8c797e808a67a12099631f5a5ec4ef0f", "bike_id": "8c797e808a67a12099631f5a5ec4ef0f", "fusion_lat": 0.0, "is_reserved": 0, "lat": 38.876672166666665, "fusion_lon": 0.0, "is_disabled": 0}, {"rental_uris": {"android": "https://dc.lft.to/lastmile_qr_scan", "ios": "https://dc.lft.to/lastmile_qr_scan"}, "type": "electric_scooter", "lon": -77.02898266666666, "name": "b63e9e7bb2d5fc1e2b1b0530664ada3c", "bike_id": "b63e9e7bb2d5fc1e2b1b0530664ada3c", "fusion_lat": 0.0, "is_reserved": 0, "lat": 38.903709666666664, "fusion_lon": 0.0, "is_disabled": 0}, {"rental_uris": {"android": "https://dc.lft.to/lastmile_qr_scan", "ios": "https://dc.lft.to/lastmile_qr_scan"}, "type": "electric_scooter", "lon": -76.990283, "name": "41a1f8e3a005674dee51fc3a962a1b40", "bike_id": "41a1f8e3a005674dee51fc3a962a1b40", "fusion_lat": 0.0, "is_reserved": 0, "lat": 38.864069666666666, "fusion_lon": 0.0, "is_disabled": 0}, {"rental_uris": {"android": "https://dc.lft.to/lastmile_qr_scan", "ios": "https://dc.lft.to/lastmile_qr_scan"}, "type": "electric_scooter", "lon": -77.04497416666666, "name": "def5c88f6168b006e3316f1d4f3609b5", "bike_id": "def5c88f6168b006e3316f1d4f3609b5", "fusion_lat": 0.0, "is_reserved": 0, "lat": 38.918502333333336, "fusion_lon": 0.0, "is_disabled": 0}, {"rental_uris": {"android": "https://dc.lft.to/lastmile_qr_scan", "ios": "https://dc.lft.to/lastmile_qr_scan"}, "type": "electric_scooter", "lon": -77.03443983333334, "name": "309e186439855f8c6504be5dc7cb349b", "bike_id": "309e186439855f8c6504be5dc7cb349b", "fusion_lat": 0.0, "is_reserved": 0, "lat": 38.907338833333334, "fusion_lon": 0.0, "is_disabled": 0}, {"rental_uris": {"android": "https://dc.lft.to/lastmile_qr_scan", "ios": "https://dc.lft.to/lastmile_qr_scan"}, "type": "electric_scooter", "lon": -76.99368116666666, "name": "ab36b50effe174ae503f55128bf2006a", "bike_id": "ab36b50effe174ae503f55128bf2006a", "fusion_lat": 0.0, "is_reserved": 0, "lat": 38.92838166666667, "fusion_lon": 0.0, "is_disabled": 0}, {"rental_uris": {"android": "https://dc.lft.to/lastmile_qr_scan", "ios": "https://dc.lft.to/lastmile_qr_scan"}, "type": "electric_bike", "lon": -76.95804433333333, "name": "e04047765f67dbc0afc136654dd9c777", "bike_id": "e04047765f67dbc0afc136654dd9c777", "fusion_lat": 0.0, "is_reserved": 0, "lat": 38.98046766666667, "fusion_lon": 0.0, "is_disabled": 0}, {"rental_uris": {"android": "https://dc.lft.to/lastmile_qr_scan", "ios": "https://dc.lft.to/lastmile_qr_scan"}, "type": "electric_scooter", "lon": -76.9941365, "name": "3bd72806e9584035334d18bde7dc8c01", "bike_id": "3bd72806e9584035334d18bde7dc8c01", "fusion_lat": 0.0, "is_reserved": 0, "lat": 38.922841, "fusion_lon": 0.0, "is_disabled": 0}, {"rental_uris": {"android": "https://dc.lft.to/lastmile_qr_scan", "ios": "https://dc.lft.to/lastmile_qr_scan"}, "type": "electric_scooter", "lon": -77.05889266666667, "name": "de3d188bc340db141b9e0a24115ff4e6", "bike_id": "de3d188bc340db141b9e0a24115ff4e6", "fusion_lat": 0.0, "is_reserved": 0, "lat": 38.936362833333334, "fusion_lon": 0.0, "is_disabled": 0}, {"rental_uris": {"android": "https://dc.lft.to/lastmile_qr_scan", "ios": "https://dc.lft.to/lastmile_qr_scan"}, "type": "electric_scooter", "lon": -76.99080416666666, "name": "70c9b46ce1555ce75ea4362f969019cb", "bike_id": "70c9b46ce1555ce75ea4362f969019cb", "fusion_lat": 0.0, "is_reserved": 0, "lat": 38.860510833333336, "fusion_lon": 0.0, "is_disabled": 0}, {"rental_uris": {"android": "https://dc.lft.to/lastmile_qr_scan", "ios": "https://dc.lft.to/lastmile_qr_scan"}, "type": "electric_scooter", "lon": -76.9900905, "name": "6f09ede0961c140d9a222762530e0393", "bike_id": "6f09ede0961c140d9a222762530e0393", "fusion_lat": 0.0, "is_reserved": 0, "lat": 38.86505316666667, "fusion_lon": 0.0, "is_disabled": 0}, {"rental_uris": {"android": "https://dc.lft.to/lastmile_qr_scan", "ios": "https://dc.lft.to/lastmile_qr_scan"}, "type": "electric_scooter", "lon": -77.02281233333333, "name": "89ff025794ee5bc21532b5e0a2934cb9", "bike_id": "89ff025794ee5bc21532b5e0a2934cb9", "fusion_lat": 0.0, "is_reserved": 0, "lat": 38.909576333333334, "fusion_lon": 0.0, "is_disabled": 0}, {"rental_uris": {"android": "https://dc.lft.to/lastmile_qr_scan", "ios": "https://dc.lft.to/lastmile_qr_scan"}, "type": "electric_scooter", "lon": -77.04316516666667, "name": "d2f38efd9234e750aa96a479ea73de50", "bike_id": "d2f38efd9234e750aa96a479ea73de50", "fusion_lat": 0.0, "is_reserved": 0, "lat": 38.908539833333336, "fusion_lon": 0.0, "is_disabled": 0}, {"rental_uris": {"android": "https://dc.lft.to/lastmile_qr_scan", "ios": "https://dc.lft.to/lastmile_qr_scan"}, "type": "electric_scooter", "lon": -76.99941366666667, "name": "118e1cf6b119d4907b6a416eadbaa3d6", "bike_id": "118e1cf6b119d4907b6a416eadbaa3d6", "fusion_lat": 0.0, "is_reserved": 0, "lat": 38.843177, "fusion_lon": 0.0, "is_disabled": 0}, {"rental_uris": {"android": "https://dc.lft.to/lastmile_qr_scan", "ios": "https://dc.lft.to/lastmile_qr_scan"}, "type": "electric_scooter", "lon": -77.01997466666667, "name": "a3f2b5289a997843b514a7d1e4b188be", "bike_id": "a3f2b5289a997843b514a7d1e4b188be", "fusion_lat": 0.0, "is_reserved": 0, "lat": 38.96638883333333, "fusion_lon": 0.0, "is_disabled": 0}, {"rental_uris": {"android": "https://dc.lft.to/lastmile_qr_scan", "ios": "https://dc.lft.to/lastmile_qr_scan"}, "type": "electric_scooter", "lon": -77.04665633333333, "name": "c218502ac184cf8420c50ceb2a1954ae", "bike_id": "c218502ac184cf8420c50ceb2a1954ae", "fusion_lat": 0.0, "is_reserved": 0, "lat": 38.900113, "fusion_lon": 0.0, "is_disabled": 0}, {"rental_uris": {"android": "https://dc.lft.to/lastmile_qr_scan", "ios": "https://dc.lft.to/lastmile_qr_scan"}, "type": "electric_scooter", "lon": -77.01618366666666, "name": "edd5276ca2fc9624d8ea046ea5b7f264", "bike_id": "edd5276ca2fc9624d8ea046ea5b7f264", "fusion_lat": 0.0, "is_reserved": 0, "lat": 38.903131333333334, "fusion_lon": 0.0, "is_disabled": 0}, {"rental_uris": {"android": "https://dc.lft.to/lastmile_qr_scan", "ios": "https://dc.lft.to/lastmile_qr_scan"}, "type": "electric_scooter", "lon": -77.02297483333334, "name": "4389c703e5c78821b1ec87608931f2fa", "bike_id": "4389c703e5c78821b1ec87608931f2fa", "fusion_lat": 0.0, "is_reserved": 0, "lat": 38.9161205, "fusion_lon": 0.0, "is_disabled": 0}, {"rental_uris": {"android": "https://dc.lft.to/lastmile_qr_scan", "ios": "https://dc.lft.to/lastmile_qr_scan"}, "type": "electric_bike", "lon": -77.0799125, "name": "f11da54052f36fae1a64c51cbac5c81c", "bike_id": "f11da54052f36fae1a64c51cbac5c81c", "fusion_lat": 0.0, "is_reserved": 0, "lat": 38.922502333333334, "fusion_lon": 0.0, "is_disabled": 0}, {"rental_uris": {"android": "https://dc.lft.to/lastmile_qr_scan", "ios": "https://dc.lft.to/lastmile_qr_scan"}, "type": "electric_scooter", "lon": -77.02835366666666, "name": "b8237d8f3b57aff97189e2f9261923b7", "bike_id": "b8237d8f3b57aff97189e2f9261923b7", "fusion_lat": 0.0, "is_reserved": 0, "lat": 38.8925455, "fusion_lon": 0.0, "is_disabled": 0}, {"rental_uris": {"android": "https://dc.lft.to/lastmile_qr_scan", "ios": "https://dc.lft.to/lastmile_qr_scan"}, "type": "electric_scooter", "lon": -77.00268183333333, "name": "9cbdb315736e9d7c82c59e5db193c0dc", "bike_id": "9cbdb315736e9d7c82c59e5db193c0dc", "fusion_lat": 0.0, "is_reserved": 0, "lat": 38.90381683333333, "fusion_lon": 0.0, "is_disabled": 0}, {"rental_uris": {"android": "https://dc.lft.to/lastmile_qr_scan", "ios": "https://dc.lft.to/lastmile_qr_scan"}, "type": "electric_scooter", "lon": -77.03644983333334, "name": "127800e881ae407844aeebdee7edabb6", "bike_id": "127800e881ae407844aeebdee7edabb6", "fusion_lat": 0.0, "is_reserved": 0, "lat": 38.906698666666664, "fusion_lon": 0.0, "is_disabled": 0}, {"rental_uris": {"android": "https://dc.lft.to/lastmile_qr_scan", "ios": "https://dc.lft.to/lastmile_qr_scan"}, "type": "electric_scooter", "lon": -77.02396016666667, "name": "721026cceeaee8b26867351ab33c9114", "bike_id": "721026cceeaee8b26867351ab33c9114", "fusion_lat": 0.0, "is_reserved": 0, "lat": 38.91969116666667, "fusion_lon": 0.0, "is_disabled": 0}, {"rental_uris": {"android": "https://dc.lft.to/lastmile_qr_scan", "ios": "https://dc.lft.to/lastmile_qr_scan"}, "type": "electric_scooter", "lon": -77.02186316666666, "name": "509f62d91b197b4ba722f00d472f6cbb", "bike_id": "509f62d91b197b4ba722f00d472f6cbb", "fusion_lat": 0.0, "is_reserved": 0, "lat": 38.92002866666667, "fusion_lon": 0.0, "is_disabled": 0}, {"rental_uris": {"android": "https://dc.lft.to/lastmile_qr_scan", "ios": "https://dc.lft.to/lastmile_qr_scan"}, "type": "electric_scooter", "lon": -77.00543983333333, "name": "7c25f139386bc720af14751d87329172", "bike_id": "7c25f139386bc720af14751d87329172", "fusion_lat": 0.0, "is_reserved": 0, "lat": 38.87457833333333, "fusion_lon": 0.0, "is_disabled": 0}, {"rental_uris": {"android": "https://dc.lft.to/lastmile_qr_scan", "ios": "https://dc.lft.to/lastmile_qr_scan"}, "type": "electric_scooter", "lon": -76.98094883333333, "name": "433fd762450fdfbb0df229113bb6ddce", "bike_id": "433fd762450fdfbb0df229113bb6ddce", "fusion_lat": 0.0, "is_reserved": 0, "lat": 38.850605333333334, "fusion_lon": 0.0, "is_disabled": 0}, {"rental_uris": {"android": "https://dc.lft.to/lastmile_qr_scan", "ios": "https://dc.lft.to/lastmile_qr_scan"}, "type": "electric_scooter", "lon": -77.04364666666666, "name": "e71cb9caf60be99a35cee259f5841eff", "bike_id": "e71cb9caf60be99a35cee259f5841eff", "fusion_lat": 0.0, "is_reserved": 0, "lat": 38.892365166666664, "fusion_lon": 0.0, "is_disabled": 0}, {"rental_uris": {"android": "https://dc.lft.to/lastmile_qr_scan", "ios": "https://dc.lft.to/lastmile_qr_scan"}, "type": "electric_scooter", "lon": -77.02723183333333, "name": "3a97c3e3dec41fb00796b65d49430992", "bike_id": "3a97c3e3dec41fb00796b65d49430992", "fusion_lat": 0.0, "is_reserved": 0, "lat": 38.9512935, "fusion_lon": 0.0, "is_disabled": 0}, {"rental_uris": {"android": "https://dc.lft.to/lastmile_qr_scan", "ios": "https://dc.lft.to/lastmile_qr_scan"}, "type": "electric_scooter", "lon": -77.06388266666667, "name": "34e4118358b02e94997804dfcb5e2044", "bike_id": "34e4118358b02e94997804dfcb5e2044", "fusion_lat": 0.0, "is_reserved": 0, "lat": 38.929013833333336, "fusion_lon": 0.0, "is_disabled": 0}, {"rental_uris": {"android": "https://dc.lft.to/lastmile_qr_scan", "ios": "https://dc.lft.to/lastmile_qr_scan"}, "type": "electric_scooter", "lon": -76.98705383333333, "name": "e696f22934c2b42489367a31ae8b93e2", "bike_id": "e696f22934c2b42489367a31ae8b93e2", "fusion_lat": 0.0, "is_reserved": 0, "lat": 38.86530716666667, "fusion_lon": 0.0, "is_disabled": 0}, {"rental_uris": {"android": "https://dc.lft.to/lastmile_qr_scan", "ios": "https://dc.lft.to/lastmile_qr_scan"}, "type": "electric_scooter", "lon": -77.02212366666667, "name": "591f150aa10ad2d71ecf933b5139368e", "bike_id": "591f150aa10ad2d71ecf933b5139368e", "fusion_lat": 0.0, "is_reserved": 0, "lat": 38.905761166666665, "fusion_lon": 0.0, "is_disabled": 0}, {"rental_uris": {"android": "https://dc.lft.to/lastmile_qr_scan", "ios": "https://dc.lft.to/lastmile_qr_scan"}, "type": "electric_scooter", "lon": -76.9471545, "name": "f081ca5ada8aeab3e98e7ff84fceb9eb", "bike_id": "f081ca5ada8aeab3e98e7ff84fceb9eb", "fusion_lat": 0.0, "is_reserved": 0, "lat": 38.896701166666666, "fusion_lon": 0.0, "is_disabled": 0}, {"rental_uris": {"android": "https://dc.lft.to/lastmile_qr_scan", "ios": "https://dc.lft.to/lastmile_qr_scan"},