{"data": {"bikes": [{"rental_uris": {"ios": "https://dc.lft.to/lastmile_qr_scan", "android": "https://dc.lft.to/lastmile_qr_scan"}, "type": "electric_scooter", "name": "b427b3e4a2e614da4896140a69d114d4", "is_reserved": 0, "lon": -77.002203, "is_disabled": 0, "fusion_lat": 0.0, "lat": 38.900278666666665, "bike_id": "b427b3e4a2e614da4896140a69d114d4", "fusion_lon": 0.0}, {"rental_uris": {"ios": "https://dc.lft.to/lastmile_qr_scan", "android": "https://dc.lft.to/lastmile_qr_scan"}, "type": "electric_scooter", "name": "a21d8c1fb05ada050163e1672a35eb73", "is_reserved": 0, "lon": -77.01630566666667, "is_disabled": 0, "fusion_lat": 0.0, "lat": 38.929398666666664, "bike_id": "a21d8c1fb05ada050163e1672a35eb73", "fusion_lon": 0.0}, {"rental_uris": {"ios": "https://dc.lft.to/lastmile_qr_scan", "android": "https://dc.lft.to/lastmile_qr_scan"}, "type": "electric_scooter", "name": "b3799c9b2738707c3ed8f4e0d0cd962f", "is_reserved": 0, "lon": -77.06689516666667, "is_disabled": 0, "fusion_lat": 0.0, "lat": 38.909792, "bike_id": "b3799c9b2738707c3ed8f4e0d0cd962f", "fusion_lon": 0.0}, {"rental_uris": {"ios": "https://dc.lft.to/lastmile_qr_scan", "android": "https://dc.lft.to/lastmile_qr_scan"}, "type": "electric_scooter", "name": "274c6981fe102bc3dd927d32a84f4cdd", "is_reserved": 0, "lon": -77.029133, "is_disabled": 0, "fusion_lat": 0.0, "lat": 38.9333375, "bike_id": "274c6981fe102bc3dd927d32a84f4cdd", "fusion_lon": 0.0}, {"rental_uris": {"ios": "https://dc.lft.to/lastmile_qr_scan", "android": "https://dc.lft.to/lastmile_qr_scan"}, "type": "electric_scooter", "name": "35e03593ffe5a8dce3106a3656e93c1d", "is_reserved": 0, "lon": -77.015196, "is_disabled": 0, "fusion_lat": 0.0, "lat": 38.910442, "bike_id": "35e03593ffe5a8dce3106a3656e93c1d", "fusion_lon": 0.0}, {"rental_uris": {"ios": "https://dc.lft.to/lastmile_qr_scan", "android": "https://dc.lft.to/lastmile_qr_scan"}, "type": "electric_scooter", "name": "5ff7e9a5a3237701238a9abc121d3895", "is_reserved": 0, "lon": -77.021801, "is_disabled": 0, "fusion_lat": 0.0, "lat": 38.8922675, "bike_id": "5ff7e9a5a3237701238a9abc121d3895", "fusion_lon": 0.0}, {"rental_uris": {"ios": "https://dc.lft.to/lastmile_qr_scan", "android": "https://dc.lft.to/lastmile_qr_scan"}, "type": "electric_scooter", "name": "51bf4f987a3c8b0828ad6bd021be6b5d", "is_reserved": 0, "lon": -77.03196266666667, "is_disabled": 0, "fusion_lat": 0.0, "lat": 38.90137083333333, "bike_id": "51bf4f987a3c8b0828ad6bd021be6b5d", "fusion_lon": 0.0}, {"rental_uris": {"ios": "https://dc.lft.to/lastmile_qr_scan", "android": "https://dc.lft.to/lastmile_qr_scan"}, "type": "electric_scooter", "name": "909d9993ed18d96343f2d75e3bd72558", "is_reserved": 0, "lon": -76.98698316666666, "is_disabled": 0, "fusion_lat": 0.0, "lat": 38.91294283333333, "bike_id": "909d9993ed18d96343f2d75e3bd72558", "fusion_lon": 0.0}, {"rental_uris": {"ios": "https://dc.lft.to/lastmile_qr_scan", "android": "https://dc.lft.to/lastmile_qr_scan"}, "type": "electric_scooter", "name": "70beecb516a99f0a1b2f03a01a2c7f32", "is_reserved": 0, "lon": -77.0363935, "is_disabled": 0, "fusion_lat": 0.0, "lat": 38.90631, "bike_id": "70beecb516a99f0a1b2f03a01a2c7f32", "fusion_lon": 0.0}, {"rental_uris": {"ios": "https://dc.lft.to/lastmile_qr_scan", "android": "https://dc.lft.to/lastmile_qr_scan"}, "type": "electric_scooter", "name": "b0ee827c85cfb65597332d06146b63b1", "is_reserved": 0, "lon": -77.038967, "is_disabled": 0, "fusion_lat": 0.0, "lat": 38.922204, "bike_id": "b0ee827c85cfb65597332d06146b63b1", "fusion_lon": 0.0}, {"rental_uris": {"ios": "https://dc.lft.to/lastmile_qr_scan", "android": "https://dc.lft.to/lastmile_qr_scan"}, "type": "electric_scooter", "name": "e20ec9d1d5e66e8d620b6d9fb021d471", "is_reserved": 0, "lon": -77.04171833333334, "is_disabled": 0, "fusion_lat": 0.0, "lat": 38.9173865, "bike_id": "e20ec9d1d5e66e8d620b6d9fb021d471", "fusion_lon": 0.0}, {"rental_uris": {"ios": "https://dc.lft.to/lastmile_qr_scan", "android": "https://dc.lft.to/lastmile_qr_scan"}, "type": "electric_scooter", "name": "ece173de5b364f60013a1998ea8497fa", "is_reserved": 0, "lon": -77.035007, "is_disabled": 0, "fusion_lat": 0.0, "lat": 38.918823833333335, "bike_id": "ece173de5b364f60013a1998ea8497fa", "fusion_lon": 0.0}, {"rental_uris": {"ios": "https://dc.lft.to/lastmile_qr_scan", "android": "https://dc.lft.to/lastmile_qr_scan"}, "type": "electric_scooter", "name": "a323854e976ddb37bcaffc3df8f9b2fe", "is_reserved": 0, "lon": -76.98090733333333, "is_disabled": 0, "fusion_lat": 0.0, "lat": 38.904152833333335, "bike_id": "a323854e976ddb37bcaffc3df8f9b2fe", "fusion_lon": 0.0}, {"rental_uris": {"ios": "https://dc.lft.to/lastmile_qr_scan", "android": "https://dc.lft.to/lastmile_qr_scan"}, "type": "electric_scooter", "name": "ee5b5143df46167ece5c1f0d61251507", "is_reserved": 0, "lon": -77.02152366666667, "is_disabled": 0, "fusion_lat": 0.0, "lat": 38.8791975, "bike_id": "ee5b5143df46167ece5c1f0d61251507", "fusion_lon": 0.0}, {"rental_uris": {"ios": "https://dc.lft.to/lastmile_qr_scan", "android": "https://dc.lft.to/lastmile_qr_scan"}, "type": "electric_scooter", "name": "2d5322c360fd6d5f6310ce1820e3bdbf", "is_reserved": 0, "lon": -77.008382, "is_disabled": 0, "fusion_lat": 0.0, "lat": 38.879083666666666, "bike_id": "2d5322c360fd6d5f6310ce1820e3bdbf", "fusion_lon": 0.0}, {"rental_uris": {"ios": "https://dc.lft.to/lastmile_qr_scan", "android": "https://dc.lft.to/lastmile_qr_scan"}, "type": "electric_scooter", "name": "563d211c237a00b61d05bcd6ae8c6b02", "is_reserved": 0, "lon": -77.04092883333334, "is_disabled": 0, "fusion_lat": 0.0, "lat": 38.92628116666667, "bike_id": "563d211c237a00b61d05bcd6ae8c6b02", "fusion_lon": 0.0}, {"rental_uris": {"ios": "https://dc.lft.to/lastmile_qr_scan", "android": "https://dc.lft.to/lastmile_qr_scan"}, "type": "electric_scooter", "name": "4d3837244ff3dfff213d6bca41982dca", "is_reserved": 0, "lon": -77.02165483333333, "is_disabled": 0, "fusion_lat": 0.0, "lat": 38.92498716666667, "bike_id": "4d3837244ff3dfff213d6bca41982dca", "fusion_lon": 0.0}, {"rental_uris": {"ios": "https://dc.lft.to/lastmile_qr_scan", "android": "https://dc.lft.to/lastmile_qr_scan"}, "type": "electric_scooter", "name": "644b28bdf1e3aa6ad5ab723959642ad9", "is_reserved": 0, "lon": -77.03962083333333, "is_disabled": 0, "fusion_lat": 0.0, "lat": 38.931531166666666, "bike_id": "644b28bdf1e3aa6ad5ab723959642ad9", "fusion_lon": 0.0}, {"rental_uris": {"ios": "https://dc.lft.to/lastmile_qr_scan", "android": "https://dc.lft.to/lastmile_qr_scan"}, "type": "electric_scooter", "name": "787a7aff546989aa4d66e97075b0d9b0", "is_reserved": 0, "lon": -77.0347885, "is_disabled": 0, "fusion_lat": 0.0, "lat": 38.9303235, "bike_id": "787a7aff546989aa4d66e97075b0d9b0", "fusion_lon": 0.0}, {"rental_uris": {"ios": "https://dc.lft.to/lastmile_qr_scan", "android": "https://dc.lft.to/lastmile_qr_scan"}, "type": "electric_scooter", "name": "f2ccbd19a09c311e22eb4e8c9fdb0e2c", "is_reserved": 0, "lon": -77.034682, "is_disabled": 0, "fusion_lat": 0.0, "lat": 38.916967166666666, "bike_id": "f2ccbd19a09c311e22eb4e8c9fdb0e2c", "fusion_lon": 0.0}, {"rental_uris": {"ios": "https://dc.lft.to/lastmile_qr_scan", "android": "https://dc.lft.to/lastmile_qr_scan"}, "type": "electric_scooter", "name": "597ad7d465b497e7b6dbe34a59eb0cb7", "is_reserved": 0, "lon": -76.97351833333333, "is_disabled": 0, "fusion_lat": 0.0, "lat": 38.85020983333333, "bike_id": "597ad7d465b497e7b6dbe34a59eb0cb7", "fusion_lon": 0.0}, {"rental_uris": {"ios": "https://dc.lft.to/lastmile_qr_scan", "android": "https://dc.lft.to/lastmile_qr_scan"}, "type": "electric_scooter", "name": "749358a627f831c96f798152ea529929", "is_reserved": 0, "lon": -77.0079635, "is_disabled": 0, "fusion_lat": 0.0, "lat": 38.909669, "bike_id": "749358a627f831c96f798152ea529929", "fusion_lon": 0.0}, {"rental_uris": {"ios": "https://dc.lft.to/lastmile_qr_scan", "android": "https://dc.lft.to/lastmile_qr_scan"}, "type": "electric_scooter", "name": "ed9861c18d8cef48d918792b4e5446a3", "is_reserved": 0, "lon": -77.00060566666667, "is_disabled": 0, "fusion_lat": 0.0, "lat": 38.873718, "bike_id": "ed9861c18d8cef48d918792b4e5446a3", "fusion_lon": 0.0}, {"rental_uris": {"ios": "https://dc.lft.to/lastmile_qr_scan", "android": "https://dc.lft.to/lastmile_qr_scan"}, "type": "electric_scooter", "name": "71ae18583e1de96442a77ed08fd00e25", "is_reserved": 0, "lon": -77.08196533333333, "is_disabled": 0, "fusion_lat": 0.0, "lat": 38.93328866666667, "bike_id": "71ae18583e1de96442a77ed08fd00e25", "fusion_lon": 0.0}, {"rental_uris": {"ios": "https://dc.lft.to/lastmile_qr_scan", "android": "https://dc.lft.to/lastmile_qr_scan"}, "type": "electric_scooter", "name": "b7e7170bdcaf486de9daa5e3f54a795a", "is_reserved": 0, "lon": -77.04350216666667, "is_disabled": 0, "fusion_lat": 0.0, "lat": 38.913453, "bike_id": "b7e7170bdcaf486de9daa5e3f54a795a", "fusion_lon": 0.0}, {"rental_uris": {"ios": "https://dc.lft.to/lastmile_qr_scan", "android": "https://dc.lft.to/lastmile_qr_scan"}, "type": "electric_scooter", "name": "9592227083d53736809c85a50b80385e", "is_reserved": 0, "lon": -77.05973766666666, "is_disabled": 0, "fusion_lat": 0.0, "lat": 38.910456833333335, "bike_id": "9592227083d53736809c85a50b80385e", "fusion_lon": 0.0}, {"rental_uris": {"ios": "https://dc.lft.to/lastmile_qr_scan", "android": "https://dc.lft.to/lastmile_qr_scan"}, "type": "electric_scooter", "name": "822dc7a4eca675e5dc8f3e28cac9f447", "is_reserved": 0, "lon": -76.95449333333333, "is_disabled": 0, "fusion_lat": 0.0, "lat": 38.883924666666665, "bike_id": "822dc7a4eca675e5dc8f3e28cac9f447", "fusion_lon": 0.0}, {"rental_uris": {"ios": "https://dc.lft.to/lastmile_qr_scan", "android": "https://dc.lft.to/lastmile_qr_scan"}, "type": "electric_scooter", "name": "b7df1a3eff431b0d29b7e0f33dabd9f4", "is_reserved": 0, "lon": -77.03868316666667, "is_disabled": 0, "fusion_lat": 0.0, "lat": 38.91278333333333, "bike_id": "b7df1a3eff431b0d29b7e0f33dabd9f4", "fusion_lon": 0.0}, {"rental_uris": {"ios": "https://dc.lft.to/lastmile_qr_scan", "android": "https://dc.lft.to/lastmile_qr_scan"}, "type": "electric_scooter", "name": "7be2c39b4f7eaefd3fdb7cc934bc292e", "is_reserved": 0, "lon": -76.99512733333333, "is_disabled": 0, "fusion_lat": 0.0, "lat": 38.889868, "bike_id": "7be2c39b4f7eaefd3fdb7cc934bc292e", "fusion_lon": 0.0}, {"rental_uris": {"ios": "https://dc.lft.to/lastmile_qr_scan", "android": "https://dc.lft.to/lastmile_qr_scan"}, "type": "electric_scooter", "name": "7eebf429c8afe38ce7cc15e172fa94d9", "is_reserved": 0, "lon": -77.03212966666666, "is_disabled": 0, "fusion_lat": 0.0, "lat": 38.9131365, "bike_id": "7eebf429c8afe38ce7cc15e172fa94d9", "fusion_lon": 0.0}, {"rental_uris": {"ios": "https://dc.lft.to/lastmile_qr_scan", "android": "https://dc.lft.to/lastmile_qr_scan"}, "type": "electric_scooter", "name": "79210997e0df945ab95a1d1c4268d871", "is_reserved": 0, "lon": -76.98703883333333, "is_disabled": 0, "fusion_lat": 0.0, "lat": 38.859596, "bike_id": "79210997e0df945ab95a1d1c4268d871", "fusion_lon": 0.0}, {"rental_uris": {"ios": "https://dc.lft.to/lastmile_qr_scan", "android": "https://dc.lft.to/lastmile_qr_scan"}, "type": "electric_scooter", "name": "08f50905eac96aa818e600292754d88c", "is_reserved": 0, "lon": -77.022061, "is_disabled": 0, "fusion_lat": 0.0, "lat": 38.89497583333333, "bike_id": "08f50905eac96aa818e600292754d88c", "fusion_lon": 0.0}, {"rental_uris": {"ios": "https://dc.lft.to/lastmile_qr_scan", "android": "https://dc.lft.to/lastmile_qr_scan"}, "type": "electric_scooter", "name": "46b823d77602315ffedecb4b67106a51", "is_reserved": 0, "lon": -77.03795783333334, "is_disabled": 0, "fusion_lat": 0.0, "lat": 38.92678316666667, "bike_id": "46b823d77602315ffedecb4b67106a51", "fusion_lon": 0.0}, {"rental_uris": {"ios": "https://dc.lft.to/lastmile_qr_scan", "android": "https://dc.lft.to/lastmile_qr_scan"}, "type": "electric_scooter", "name": "68aaa656a9620c5167c158dbd483b850", "is_reserved": 0, "lon": -76.97714533333334, "is_disabled": 0, "fusion_lat": 0.0, "lat": 38.888243333333335, "bike_id": "68aaa656a9620c5167c158dbd483b850", "fusion_lon": 0.0}, {"rental_uris": {"ios": "https://dc.lft.to/lastmile_qr_scan", "android": "https://dc.lft.to/lastmile_qr_scan"}, "type": "electric_scooter", "name": "af8b4b12743a2f4d4d98862d6d7dc5ce", "is_reserved": 0, "lon": -77.0179225, "is_disabled": 0, "fusion_lat": 0.0, "lat": 38.892364, "bike_id": "af8b4b12743a2f4d4d98862d6d7dc5ce", "fusion_lon": 0.0}, {"rental_uris": {"ios": "https://dc.lft.to/lastmile_qr_scan", "android": "https://dc.lft.to/lastmile_qr_scan"}, "type": "electric_scooter", "name": "5677070e5caf0be3c8aa5eb3f7efeeda", "is_reserved": 0, "lon": -77.01651733333334, "is_disabled": 0, "fusion_lat": 0.0, "lat": 38.942017166666666, "bike_id": "5677070e5caf0be3c8aa5eb3f7efeeda", "fusion_lon": 0.0}, {"rental_uris": {"ios": "https://dc.lft.to/lastmile_qr_scan", "android": "https://dc.lft.to/lastmile_qr_scan"}, "type": "electric_scooter", "name": "906164460a500388fe5f946ee8d955ae", "is_reserved": 0, "lon": -77.00468933333333, "is_disabled": 0, "fusion_lat": 0.0, "lat": 38.885114333333334, "bike_id": "906164460a500388fe5f946ee8d955ae", "fusion_lon": 0.0}, {"rental_uris": {"ios": "https://dc.lft.to/lastmile_qr_scan", "android": "https://dc.lft.to/lastmile_qr_scan"}, "type": "electric_scooter", "name": "88ab2aaa4615a43442c956e5786a8a05", "is_reserved": 0, "lon": -76.94059083333333, "is_disabled": 0, "fusion_lat": 0.0, "lat": 38.8859275, "bike_id": "88ab2aaa4615a43442c956e5786a8a05", "fusion_lon": 0.0}, {"rental_uris": {"ios": "https://dc.lft.to/lastmile_qr_scan", "android": "https://dc.lft.to/lastmile_qr_scan"}, "type": "electric_bike", "name": "30e8c0c2287c11b3cac3aafa8ffc9b2f", "is_reserved": 0, "lon": -77.038317, "is_disabled": 0, "fusion_lat": 0.0, "lat": 38.92971433333334, "bike_id": "30e8c0c2287c11b3cac3aafa8ffc9b2f", "fusion_lon": 0.0}, {"rental_uris": {"ios": "https://dc.lft.to/lastmile_qr_scan", "android": "https://dc.lft.to/lastmile_qr_scan"}, "type": "electric_scooter", "name": "17cb4ed4cc7be3ae6ed4da232b66cb10", "is_reserved": 0, "lon": -76.93391383333334, "is_disabled": 0, "fusion_lat": 0.0, "lat": 38.89907266666667, "bike_id": "17cb4ed4cc7be3ae6ed4da232b66cb10", "fusion_lon": 0.0}, {"rental_uris": {"ios": "https://dc.lft.to/lastmile_qr_scan", "android": "https://dc.lft.to/lastmile_qr_scan"}, "type": "electric_scooter", "name": "777d7660773afb8d3b1573c6c15d0a02", "is_reserved": 0, "lon": -76.99507983333334, "is_disabled": 0, "fusion_lat": 0.0, "lat": 38.90976283333333, "bike_id": "777d7660773afb8d3b1573c6c15d0a02", "fusion_lon": 0.0}, {"rental_uris": {"ios": "https://dc.lft.to/lastmile_qr_scan", "android": "https://dc.lft.to/lastmile_qr_scan"}, "type": "electric_scooter", "name": "310288fe17fc004fa7cbc4ab41e78138", "is_reserved": 0, "lon": -77.02526383333333, "is_disabled": 0, "fusion_lat": 0.0, "lat": 38.93970566666667, "bike_id": "310288fe17fc004fa7cbc4ab41e78138", "fusion_lon": 0.0}, {"rental_uris": {"ios": "https://dc.lft.to/lastmile_qr_scan", "android": "https://dc.lft.to/lastmile_qr_scan"}, "type": "electric_bike", "name": "cf75eaf4cba20d23562a9be8229f61d1", "is_reserved": 0, "lon": -77.03278716666667, "is_disabled": 0, "fusion_lat": 0.0, "lat": 38.880938666666665, "bike_id": "cf75eaf4cba20d23562a9be8229f61d1", "fusion_lon": 0.0}, {"rental_uris": {"ios": "https://dc.lft.to/lastmile_qr_scan", "android": "https://dc.lft.to/lastmile_qr_scan"}, "type": "electric_scooter", "name": "bbefdd856f4aa1a4857d0f29dac049d2", "is_reserved": 0, "lon": -77.01522133333333, "is_disabled": 0, "fusion_lat": 0.0, "lat": 38.89264983333333, "bike_id": "bbefdd856f4aa1a4857d0f29dac049d2", "fusion_lon": 0.0}, {"rental_uris": {"ios": "https://dc.lft.to/lastmile_qr_scan", "android": "https://dc.lft.to/lastmile_qr_scan"}, "type": "electric_scooter", "name": "1b0436ea0b594fdbdc73f1878b8653dd", "is_reserved": 0, "lon": -77.02399216666667, "is_disabled": 0, "fusion_lat": 0.0, "lat": 38.931076, "bike_id": "1b0436ea0b594fdbdc73f1878b8653dd", "fusion_lon": 0.0}, {"rental_uris": {"ios": "https://dc.lft.to/lastmile_qr_scan", "android": "https://dc.lft.to/lastmile_qr_scan"}, "type": "electric_scooter", "name": "09f74041543ed02360262fb4f57f4366", "is_reserved": 0, "lon": -77.031805, "is_disabled": 0, "fusion_lat": 0.0, "lat": 38.905038166666664, "bike_id": "09f74041543ed02360262fb4f57f4366", "fusion_lon": 0.0}, {"rental_uris": {"ios": "https://dc.lft.to/lastmile_qr_scan", "android": "https://dc.lft.to/lastmile_qr_scan"}, "type": "electric_bike", "name": "24c951e9b40e6cec925b96a88801f875", "is_reserved": 0, "lon": -76.98139333333333, "is_disabled": 0, "fusion_lat": 0.0, "lat": 38.934921833333334, "bike_id": "24c951e9b40e6cec925b96a88801f875", "fusion_lon": 0.0}, {"rental_uris": {"ios": "https://dc.lft.to/lastmile_qr_scan", "android": "https://dc.lft.to/lastmile_qr_scan"}, "type": "electric_scooter", "name": "9ee0df5f152f2aa493574c7cdf71498a", "is_reserved": 0, "lon": -77.02971, "is_disabled": 0, "fusion_lat": 0.0, "lat": 38.91720983333333, "bike_id": "9ee0df5f152f2aa493574c7cdf71498a", "fusion_lon": 0.0}, {"rental_uris": {"ios": "https://dc.lft.to/lastmile_qr_scan", "android": "https://dc.lft.to/lastmile_qr_scan"}, "type": "electric_scooter", "name": "deca0b5304ca7bcd93c89ff121ba342f", "is_reserved": 0, "lon": -77.012128, "is_disabled": 0, "fusion_lat": 0.0, "lat": 38.91602533333333, "bike_id": "deca0b5304ca7bcd93c89ff121ba342f", "fusion_lon": 0.0}, {"rental_uris": {"ios": "https://dc.lft.to/lastmile_qr_scan", "android": "https://dc.lft.to/lastmile_qr_scan"}, "type": "electric_scooter", "name": "16ab60142b1fb30e0524b8baff63e89b", "is_reserved": 0, "lon": -76.98607533333333, "is_disabled": 0, "fusion_lat": 0.0, "lat": 38.88274066666666, "bike_id": "16ab60142b1fb30e0524b8baff63e89b", "fusion_lon": 0.0}, {"rental_uris": {"ios": "https://dc.lft.to/lastmile_qr_scan", "android": "https://dc.lft.to/lastmile_qr_scan"}, "type": "electric_scooter", "name": "2ace7d4eca8e02db329d652d75acc4bd", "is_reserved": 0, "lon": -77.04541683333333, "is_disabled": 0, "fusion_lat": 0.0, "lat": 38.90060783333333, "bike_id": "2ace7d4eca8e02db329d652d75acc4bd", "fusion_lon": 0.0}, {"rental_uris": {"ios": "https://dc.lft.to/lastmile_qr_scan", "android": "https://dc.lft.to/lastmile_qr_scan"}, "type": "electric_scooter", "name": "7ac9513666594e5aacc7ff39b5dc8b09", "is_reserved": 0, "lon": -77.03150666666667, "is_disabled": 0, "fusion_lat": 0.0, "lat": 38.887441, "bike_id": "7ac9513666594e5aacc7ff39b5dc8b09", "fusion_lon": 0.0}, {"rental_uris": {"ios": "https://dc.lft.to/lastmile_qr_scan", "android": "https://dc.lft.to/lastmile_qr_scan"}, "type": "electric_scooter", "name": "92ac00306da5d3f9d91f2fca98ce70ba", "is_reserved": 0, "lon": -77.03534983333333, "is_disabled": 0, "fusion_lat": 0.0, "lat": 38.92349866666667, "bike_id": "92ac00306da5d3f9d91f2fca98ce70ba", "fusion_lon": 0.0}, {"rental_uris": {"ios": "https://dc.lft.to/lastmile_qr_scan", "android": "https://dc.lft.to/lastmile_qr_scan"}, "type": "electric_scooter", "name": "b77e5d3a5d368328f89e5f2c71acfdf1", "is_reserved": 0, "lon": -77.04021516666667, "is_disabled": 0, "fusion_lat": 0.0, "lat": 38.898302666666666, "bike_id": "b77e5d3a5d368328f89e5f2c71acfdf1", "fusion_lon": 0.0}, {"rental_uris": {"ios": "https://dc.lft.to/lastmile_qr_scan", "android": "https://dc.lft.to/lastmile_qr_scan"}, "type": "electric_scooter", "name": "c09c5eadfa04fd188301acc7ae86c0bb", "is_reserved": 0, "lon": -77.06972866666666, "is_disabled": 0, "fusion_lat": 0.0, "lat": 38.9523215, "bike_id": "c09c5eadfa04fd188301acc7ae86c0bb", "fusion_lon": 0.0}, {"rental_uris": {"ios": "https://dc.lft.to/lastmile_qr_scan", "android": "https://dc.lft.to/lastmile_qr_scan"}, "type": "electric_scooter", "name": "51b4c76c1c3d359d163a10b043bfbd99", "is_reserved": 0, "lon": -77.0109965, "is_disabled": 0, "fusion_lat": 0.0, "lat": 38.8854235, "bike_id": "51b4c76c1c3d359d163a10b043bfbd99", "fusion_lon": 0.0}, {"rental_uris": {"ios": "https://dc.lft.to/lastmile_qr_scan", "android": "https://dc.lft.to/lastmile_qr_scan"}, "type": "electric_scooter", "name": "f8165e9eaf6fd778dae7899ec69494fc", "is_reserved": 0, "lon": -77.01614833333333, "is_disabled": 0, "fusion_lat": 0.0, "lat": 38.910709, "bike_id": "f8165e9eaf6fd778dae7899ec69494fc", "fusion_lon": 0.0}, {"rental_uris": {"ios": "https://dc.lft.to/lastmile_qr_scan", "android": "https://dc.lft.to/lastmile_qr_scan"}, "type": "electric_bike", "name": "6c01839882ef2afa24025c56277f47e0", "is_reserved": 0, "lon": -76.96093233333333, "is_disabled": 0, "fusion_lat": 0.0, "lat": 38.94964866666667, "bike_id": "6c01839882ef2afa24025c56277f47e0", "fusion_lon": 0.0}, {"rental_uris": {"ios": "https://dc.lft.to/lastmile_qr_scan", "android": "https://dc.lft.to/lastmile_qr_scan"}, "type": "electric_scooter", "name": "7bacbe77cf32427082c699336f33096b", "is_reserved": 0, "lon": -77.046939, "is_disabled": 0, "fusion_lat": 0.0, "lat": 38.89748866666667, "bike_id": "7bacbe77cf32427082c699336f33096b", "fusion_lon": 0.0}, {"rental_uris": {"ios": "https://dc.lft.to/lastmile_qr_scan", "android": "https://dc.lft.to/lastmile_qr_scan"}, "type": "electric_scooter", "name": "efa848ece0702ae804f32e909643ae56", "is_reserved": 0, "lon": -76.99637983333334, "is_disabled": 0, "fusion_lat": 0.0, "lat": 38.887671166666664, "bike_id": "efa848ece0702ae804f32e909643ae56", "fusion_lon": 0.0}, {"rental_uris": {"ios": "https://dc.lft.to/lastmile_qr_scan", "android": "https://dc.lft.to/lastmile_qr_scan"}, "type": "electric_scooter", "name": "059fb359167a842c4c4593ab43a9d430", "is_reserved": 0, "lon": -77.0465715, "is_disabled": 0, "fusion_lat": 0.0, "lat": 38.89341233333333, "bike_id": "059fb359167a842c4c4593ab43a9d430", "fusion_lon": 0.0}, {"rental_uris": {"ios": "https://dc.lft.to/lastmile_qr_scan", "android": "https://dc.lft.to/lastmile_qr_scan"}, "type": "electric_scooter", "name": "eb847fa79affda3ae19bbf947a87a52e", "is_reserved": 0, "lon": -77.02155316666666, "is_disabled": 0, "fusion_lat": 0.0, "lat": 38.8874105, "bike_id": "eb847fa79affda3ae19bbf947a87a52e", "fusion_lon": 0.0}, {"rental_uris": {"ios": "https://dc.lft.to/lastmile_qr_scan", "android": "https://dc.lft.to/lastmile_qr_scan"}, "type": "electric_bike", "name": "4de9538fc6a7e084c4a93c3c950e2e90", "is_reserved": 0, "lon": -76.98090133333334, "is_disabled": 0, "fusion_lat": 0.0, "lat": 38.953545166666665, "bike_id": "4de9538fc6a7e084c4a93c3c950e2e90", "fusion_lon": 0.0}, {"rental_uris": {"ios": "https://dc.lft.to/lastmile_qr_scan", "android": "https://dc.lft.to/lastmile_qr_scan"}, "type": "electric_bike", "name": "84876b76c1666d1bfb8a5430f640fc3d", "is_reserved": 0, "lon": -76.9955, "is_disabled": 0, "fusion_lat": 0.0, "lat": 38.831562166666664, "bike_id": "84876b76c1666d1bfb8a5430f640fc3d", "fusion_lon": 0.0}, {"rental_uris": {"ios": "https://dc.lft.to/lastmile_qr_scan", "android": "https://dc.lft.to/lastmile_qr_scan"}, "type": "electric_scooter", "name": "cd846a9f9589c72394f8f40b14595d55", "is_reserved": 0, "lon": -77.015115, "is_disabled": 0, "fusion_lat": 0.0, "lat": 38.887343666666666, "bike_id": "cd846a9f9589c72394f8f40b14595d55", "fusion_lon": 0.0}, {"rental_uris": {"ios": "https://dc.lft.to/lastmile_qr_scan", "android": "https://dc.lft.to/lastmile_qr_scan"}, "type": "electric_scooter", "name": "5ad48be30928f272a14bb81b8e7c6c04", "is_reserved": 0, "lon": -77.00898866666667, "is_disabled": 0, "fusion_lat": 0.0, "lat": 38.898888, "bike_id": "5ad48be30928f272a14bb81b8e7c6c04", "fusion_lon": 0.0}, {"rental_uris": {"ios": "https://dc.lft.to/lastmile_qr_scan", "android": "https://dc.lft.to/lastmile_qr_scan"}, "type": "electric_scooter", "name": "9635b466a413d7803049cab4a05e38bb", "is_reserved": 0, "lon": -77.00711983333333, "is_disabled": 0, "fusion_lat": 0.0, "lat": 38.9056565, "bike_id": "9635b466a413d7803049cab4a05e38bb", "fusion_lon": 0.0}, {"rental_uris": {"ios": "https://dc.lft.to/lastmile_qr_scan", "android": "https://dc.lft.to/lastmile_qr_scan"}, "type": "electric_scooter", "name": "48c9ee17751cbf17b4a90dfc93290d77", "is_reserved": 0, "lon": -76.97938583333334, "is_disabled": 0, "fusion_lat": 0.0, "lat": 38.906596, "bike_id": "48c9ee17751cbf17b4a90dfc93290d77", "fusion_lon": 0.0}, {"rental_uris": {"ios": "https://dc.lft.to/lastmile_qr_scan", "android": "https://dc.lft.to/lastmile_qr_scan"}, "type": "electric_scooter", "name": "164fb55f2f18d2815695d284d3ec5175", "is_reserved": 0, "lon": -77.03640033333333, "is_disabled": 0, "fusion_lat": 0.0, "lat": 38.9376455, "bike_id": "164fb55f2f18d2815695d284d3ec5175", "fusion_lon": 0.0}, {"rental_uris": {"ios": "https://dc.lft.to/lastmile_qr_scan", "android": "https://dc.lft.to/lastmile_qr_scan"}, "type": "electric_scooter", "name": "2ceda5a7be2fb715c83515b3489ec6ba", "is_reserved": 0, "lon": -77.04607283333333, "is_disabled": 0, "fusion_lat": 0.0, "lat": 38.916200333333336, "bike_id": "2ceda5a7be2fb715c83515b3489ec6ba", "fusion_lon": 0.0}, {"rental_uris": {"ios": "https://dc.lft.to/lastmile_qr_scan", "android": "https://dc.lft.to/lastmile_qr_scan"}, "type": "electric_scooter", "name": "ce7ed956a5facbaa129071d46ae59cfa", "is_reserved": 0, "lon": -76.99613766666667, "is_disabled": 0, "fusion_lat": 0.0, "lat": 38.93179083333333, "bike_id": "ce7ed956a5facbaa129071d46ae59cfa", "fusion_lon": 0.0}, {"rental_uris": {"ios": "https://dc.lft.to/lastmile_qr_scan", "android": "https://dc.lft.to/lastmile_qr_scan"}, "type": "electric_scooter", "name": "e145a4b96b3ae49141de1521ad2895ec", "is_reserved": 0, "lon": -77.03661, "is_disabled": 0, "fusion_lat": 0.0, "lat": 38.932061833333336, "bike_id": "e145a4b96b3ae49141de1521ad2895ec", "fusion_lon": 0.0}, {"rental_uris": {"ios": "https://dc.lft.to/lastmile_qr_scan", "android": "https://dc.lft.to/lastmile_qr_scan"}, "type": "electric_scooter", "name": "03f9f0778edbcaae009e7569433c6f9c", "is_reserved": 0, "lon": -77.03548616666667, "is_disabled": 0, "fusion_lat": 0.0, "lat": 38.9234345, "bike_id": "03f9f0778edbcaae009e7569433c6f9c", "fusion_lon": 0.0}, {"rental_uris": {"ios": "https://dc.lft.to/lastmile_qr_scan", "android": "https://dc.lft.to/lastmile_qr_scan"}, "type": "electric_scooter", "name": "9999d488f79a11ea25da7a6d6a8ee45b", "is_reserved": 0, "lon": -77.03461416666667, "is_disabled": 0, "fusion_lat": 0.0, "lat": 38.92042283333333, "bike_id": "9999d488f79a11ea25da7a6d6a8ee45b", "fusion_lon": 0.0}, {"rental_uris": {"ios": "https://dc.lft.to/lastmile_qr_scan", "android": "https://dc.lft.to/lastmile_qr_scan"}, "type": "electric_scooter", "name": "b38c26f9fc6ecf161809ae54cf3b189b", "is_reserved": 0, "lon": -76.99842733333334, "is_disabled": 0, "fusion_lat": 0.0, "lat": 38.902999, "bike_id": "b38c26f9fc6ecf161809ae54cf3b189b", "fusion_lon": 0.0}, {"rental_uris": {"ios": "https://dc.lft.to/lastmile_qr_scan", "android": "https://dc.lft.to/lastmile_qr_scan"}, "type": "electric_scooter", "name": "27baa347598c2f5709985a4629297e01", "is_reserved": 0, "lon": -77.0343985, "is_disabled": 0, "fusion_lat": 0.0, "lat": 38.911116666666665, "bike_id": "27baa347598c2f5709985a4629297e01", "fusion_lon": 0.0}, {"rental_uris": {"ios": "https://dc.lft.to/lastmile_qr_scan", "android": "https://dc.lft.to/lastmile_qr_scan"}, "type": "electric_bike", "name": "a5ac5df68f161c835a5f86b851547928", "is_reserved": 0, "lon": -76.90301, "is_disabled": 0, "fusion_lat": 0.0, "lat": 39.00293633333333, "bike_id": "a5ac5df68f161c835a5f86b851547928", "fusion_lon": 0.0}, {"rental_uris": {"ios": "https://dc.lft.to/lastmile_qr_scan", "android": "https://dc.lft.to/lastmile_qr_scan"}, "type": "electric_scooter", "name": "86f48e321f68c3b39832af2b0e30425a", "is_reserved": 0, "lon": -77.03635383333334, "is_disabled": 0, "fusion_lat": 0.0, "lat": 38.93370083333333, "bike_id": "86f48e321f68c3b39832af2b0e30425a", "fusion_lon": 0.0}, {"rental_uris": {"ios": "https://dc.lft.to/lastmile_qr_scan", "android": "https://dc.lft.to/lastmile_qr_scan"}, "type": "electric_scooter", "name": "a86758d8d575619cb46ada8884009a26", "is_reserved": 0, "lon": -77.00211983333334, "is_disabled": 0, "fusion_lat": 0.0, "lat": 38.914616, "bike_id": "a86758d8d575619cb46ada8884009a26", "fusion_lon": 0.0}, {"rental_uris": {"ios": "https://dc.lft.to/lastmile_qr_scan", "android": "https://dc.lft.to/lastmile_qr_scan"}, "type": "electric_scooter", "name": "c8ba890e7fab170be9fddac4c7ef21a9", "is_reserved": 0, "lon": -77.03661366666667, "is_disabled": 0, "fusion_lat": 0.0, "lat": 38.921158166666665, "bike_id": "c8ba890e7fab170be9fddac4c7ef21a9", "fusion_lon": 0.0}, {"rental_uris": {"ios": "https://dc.lft.to/lastmile_qr_scan", "android": "https://dc.lft.to/lastmile_qr_scan"}, "type": "electric_scooter", "name": "3d421333a1cf5e7c26e366ff61a9bd96", "is_reserved": 0, "lon": -76.99414166666666, "is_disabled": 0, "fusion_lat": 0.0, "lat": 38.87785783333333, "bike_id": "3d421333a1cf5e7c26e366ff61a9bd96", "fusion_lon": 0.0}, {"rental_uris": {"ios": "https://dc.lft.to/lastmile_qr_scan", "android": "https://dc.lft.to/lastmile_qr_scan"}, "type": "electric_scooter", "name": "8545c828def879e46a065030943b361d", "is_reserved": 0, "lon": -77.04662483333334, "is_disabled": 0, "fusion_lat": 0.0, "lat": 38.89747783333333, "bike_id": "8545c828def879e46a065030943b361d", "fusion_lon": 0.0}, {"rental_uris": {"ios": "https://dc.lft.to/lastmile_qr_scan", "android": "https://dc.lft.to/lastmile_qr_scan"}, "type": "electric_scooter", "name": "47aa2966ee6998dbf77076e08be795fc", "is_reserved": 0, "lon": -76.97711233333334, "is_disabled": 0, "fusion_lat": 0.0, "lat": 38.88826133333333, "bike_id": "47aa2966ee6998dbf77076e08be795fc", "fusion_lon": 0.0}, {"rental_uris": {"ios": "https://dc.lft.to/lastmile_qr_scan", "android": "https://dc.lft.to/lastmile_qr_scan"}, "type": "electric_scooter", "name": "3ec4527f94616b345b05a60b44de026d", "is_reserved": 0, "lon": -76.9321185, "is_disabled": 0, "fusion_lat": 0.0, "lat": 38.8804555, "bike_id": "3ec4527f94616b345b05a60b44de026d", "fusion_lon": 0.0}, {"rental_uris": {"ios": "https://dc.lft.to/lastmile_qr_scan", "android": "https://dc.lft.to/lastmile_qr_scan"}, "type": "electric_scooter", "name": "ed212e682afa2354316998841b012861", "is_reserved": 0, "lon": -77.02505133333334, "is_disabled": 0, "fusion_lat": 0.0, "lat": 38.920202333333336, "bike_id": "ed212e682afa2354316998841b012861", "fusion_lon": 0.0}, {"rental_uris": {"ios": "https://dc.lft.to/lastmile_qr_scan", "android": "https://dc.lft.to/lastmile_qr_scan"}, "type": "electric_scooter", "name": "28951f9db715e4b4ff8e323d661daaca", "is_reserved": 0, "lon": -77.04137666666666, "is_disabled": 0, "fusion_lat": 0.0, "lat": 38.893439666666666, "bike_id": "28951f9db715e4b4ff8e323d661daaca", "fusion_lon": 0.0}, {"rental_uris": {"ios": "https://dc.lft.to/lastmile_qr_scan", "android": "https://dc.lft.to/lastmile_qr_scan"}, "type": "electric_scooter", "name": "20b3c5233cae6b62dea583887e07ebb5", "is_reserved": 0, "lon": -77.03448416666667, "is_disabled": 0, "fusion_lat": 0.0, "lat": 38.907386333333335, "bike_id": "20b3c5233cae6b62dea583887e07ebb5", "fusion_lon": 0.0}, {"rental_uris": {"ios": "https://dc.lft.to/lastmile_qr_scan", "android": "https://dc.lft.to/lastmile_qr_scan"}, "type": "electric_scooter", "name": "1d2e326d429d63e175e63400532897c5", "is_reserved": 0, "lon": -77.057257, "is_disabled": 0, "fusion_lat": 0.0, "lat": 38.933554, "bike_id": "1d2e326d429d63e175e63400532897c5", "fusion_lon": 0.0}, {"rental_uris": {"ios": "https://dc.lft.to/lastmile_qr_scan", "android": "https://dc.lft.to/lastmile_qr_scan"}, "type": "electric_scooter", "name": "f6dd5f74c93597ab28076ad250455188", "is_reserved": 0, "lon": -76.9835655, "is_disabled": 0, "fusion_lat": 0.0, "lat": 38.8873545, "bike_id": "f6dd5f74c93597ab28076ad250455188", "fusion_lon": 0.0}, {"rental_uris": {"ios": "https://dc.lft.to/lastmile_qr_scan", "android": "https://dc.lft.to/lastmile_qr_scan"}, "type": "electric_scooter", "name": "b4d45928737b1853e0127790d1d6f64a", "is_reserved": 0, "lon": -77.03683683333334, "is_disabled": 0, "fusion_lat": 0.0, "lat": 38.93919566666667, "bike_id": "b4d45928737b1853e0127790d1d6f64a", "fusion_lon": 0.0}, {"rental_uris": {"ios": "https://dc.lft.to/lastmile_qr_scan", "android": "https://dc.lft.to/lastmile_qr_scan"}, "type": "electric_scooter", "name": "2fab8da06754e31afe0ee832e7aca1de", "is_reserved": 0, "lon": -77.039773, "is_disabled": 0, "fusion_lat": 0.0, "lat": 38.89223333333333, "bike_id": "2fab8da06754e31afe0ee832e7aca1de", "fusion_lon": 0.0}, {"rental_uris": {"ios": "https://dc.lft.to/lastmile_qr_scan", "android": "https://dc.lft.to/lastmile_qr_scan"}, "type": "electric_bike", "name": "0fbc6d9b1c38fb0956ecd50f2d1e439e", "is_reserved": 0, "lon": -76.980597, "is_disabled": 0, "fusion_lat": 0.0, "lat": 38.97251466666667, "bike_id": "0fbc6d9b1c38fb0956ecd50f2d1e439e", "fusion_lon": 0.0}, {"rental_uris": {"ios": "https://dc.lft.to/lastmile_qr_scan", "android": "https://dc.lft.to/lastmile_qr_scan"}, "type": "electric_scooter", "name": "2e914faf75cd8d9f9304bb8cdb063fe4", "is_reserved": 0, "lon": -77.03993833333334, "is_disabled": 0, "fusion_lat": 0.0, "lat": 38.933965, "bike_id": "2e914faf75cd8d9f9304bb8cdb063fe4", "fusion_lon": 0.0}, {"rental_uris": {"ios": "https://dc.lft.to/lastmile_qr_scan", "android": "https://dc.lft.to/lastmile_qr_scan"}, "type": "electric_bike", "name": "9b8806484274854357c9789e1a76a418", "is_reserved": 0, "lon": -77.0040475, "is_disabled": 0, "fusion_lat": 0.0, "lat": 38.9211605, "bike_id": "9b8806484274854357c9789e1a76a418", "fusion_lon": 0.0}, {"rental_uris": {"ios": "https://dc.lft.to/lastmile_qr_scan", "android": "https://dc.lft.to/lastmile_qr_scan"}, "type": "electric_scooter", "name": "d8127e99834f2c3efa8c8a544b136192", "is_reserved": 0, "lon": -76.99033033333333, "is_disabled": 0, "fusion_lat": 0.0, "lat": 38.89130083333333, "bike_id": "d8127e99834f2c3efa8c8a544b136192", "fusion_lon": 0.0}, {"rental_uris": {"ios": "https://dc.lft.to/lastmile_qr_scan", "android": "https://dc.lft.to/lastmile_qr_scan"}, "type": "electric_scooter", "name": "a3132847b22b17d45a9aabe2b3570bcd", "is_reserved": 0, "lon": -77.00479483333334, "is_disabled": 0, "fusion_lat": 0.0, "lat": 38.87459883333333, "bike_id": "a3132847b22b17d45a9aabe2b3570bcd", "fusion_lon": 0.0}, {"rental_uris": {"ios": "https://dc.lft.to/lastmile_qr_scan", "android": "https://dc.lft.to/lastmile_qr_scan"}, "type": "electric_scooter", "name": "4c2fc8b4ddb2ee329b9b3326a4d97401", "is_reserved": 0, "lon": -77.00690266666666, "is_disabled": 0, "fusion_lat": 0.0, "lat": 38.9053955, "bike_id": "4c2fc8b4ddb2ee329b9b3326a4d97401", "fusion_lon": 0.0}, {"rental_uris": {"ios": "https://dc.lft.to/lastmile_qr_scan", "android": "https://dc.lft.to/lastmile_qr_scan"}, "type": "electric_bike", "name": "6dd074f19b0e2478e9e27d63a58da8ed", "is_reserved": 0, "lon": -77.0241785, "is_disabled": 0, "fusion_lat": 0.0, "lat": 38.949089666666666, "bike_id": "6dd074f19b0e2478e9e27d63a58da8ed", "fusion_lon": 0.0}, {"rental_uris": {"ios": "https://dc.lft.to/lastmile_qr_scan", "android": "https://dc.lft.to/lastmile_qr_scan"}, "type": "electric_scooter", "name": "1f260c18dd85a6182aece0601e0c545f", "is_reserved": 0, "lon": -77.04338233333333, "is_disabled": 0, "fusion_lat": 0.0, "lat": 38.922188166666665, "bike_id": "1f260c18dd85a6182aece0601e0c545f", "fusion_lon": 0.0}, {"rental_uris": {"ios": "https://dc.lft.to/lastmile_qr_scan", "android": "https://dc.lft.to/lastmile_qr_scan"}, "type": "electric_scooter", "name": "fef395eb28438dda06b5ae7006dd8eaa", "is_reserved": 0, "lon": -77.03838283333333, "is_disabled": 0, "fusion_lat": 0.0, "lat": 38.907304833333335, "bike_id": "fef395eb28438dda06b5ae7006dd8eaa", "fusion_lon": 0.0}, {"rental_uris": {"ios": "https://dc.lft.to/lastmile_qr_scan", "android": "https://dc.lft.to/lastmile_qr_scan"}, "type": "electric_scooter", "name": "b2c91da6015dfe0171d3cdeb9b503988", "is_reserved": 0, "lon": -77.03537566666667, "is_disabled": 0, "fusion_lat": 0.0, "lat": 38.924684, "bike_id": "b2c91da6015dfe0171d3cdeb9b503988", "fusion_lon": 0.0}, {"rental_uris": {"ios": "https://dc.lft.to/lastmile_qr_scan", "android": "https://dc.lft.to/lastmile_qr_scan"}, "type": "electric_scooter", "name": "227f7ce7500dcb1819bcdb2143ad1507", "is_reserved": 0, "lon": -77.00740716666667, "is_disabled": 0, "fusion_lat": 0.0, "lat": 38.92523633333333, "bike_id": "227f7ce7500dcb1819bcdb2143ad1507", "fusion_lon": 0.0}, {"rental_uris": {"ios": "https://dc.lft.to/lastmile_qr_scan", "android": "https://dc.lft.to/lastmile_qr_scan"}, "type": "electric_scooter", "name": "fc63ea726490e1216b8d9258b22e860e", "is_reserved": 0, "lon": -77.031949, "is_disabled": 0, "fusion_lat": 0.0, "lat": 38.88467833333333, "bike_id": "fc63ea726490e1216b8d9258b22e860e", "fusion_lon": 0.0}, {"rental_uris": {"ios": "https://dc.lft.to/lastmile_qr_scan", "android": "https://dc.lft.to/lastmile_qr_scan"}, "type": "electric_scooter", "name": "333ffcb2e207ffb3bfcbc00e9f7b3fed", "is_reserved": 0, "lon": -76.99235633333333, "is_disabled": 0, "fusion_lat": 0.0, "lat": 38.887471833333336, "bike_id": "333ffcb2e207ffb3bfcbc00e9f7b3fed", "fusion_lon": 0.0}, {"rental_uris": {"ios": "https://dc.lft.to/lastmile_qr_scan", "android": "https://dc.lft.to/lastmile_qr_scan"}, "type": "electric_scooter", "name": "d2d8264438e4b17a2d38e9df9bda823a", "is_reserved": 0, "lon": -77.02625233333333, "is_disabled": 0, "fusion_lat": 0.0, "lat": 38.89969283333333, "bike_id": "d2d8264438e4b17a2d38e9df9bda823a", "fusion_lon": 0.0}, {"rental_uris": {"ios": "https://dc.lft.to/lastmile_qr_scan", "android": "https://dc.lft.to/lastmile_qr_scan"}, "type": "electric_scooter", "name": "fd480ba7baca60c2545a2072f9c46118", "is_reserved": 0, "lon": -77.029643, "is_disabled": 0, "fusion_lat": 0.0, "lat": 38.916791333333336, "bike_id": "fd480ba7baca60c2545a2072f9c46118", "fusion_lon": 0.0}, {"rental_uris": {"ios": "https://dc.lft.to/lastmile_qr_scan", "android": "https://dc.lft.to/lastmile_qr_scan"}, "type": "electric_bike", "name": "ffdc4ebe3b88ee429199d6d8d6c9179d", "is_reserved": 0, "lon": -76.90738033333334, "is_disabled": 0, "fusion_lat": 0.0, "lat": 38.8961975, "bike_id": "ffdc4ebe3b88ee429199d6d8d6c9179d", "fusion_lon": 0.0}, {"rental_uris": {"ios": "https://dc.lft.to/lastmile_qr_scan", "android": "https://dc.lft.to/lastmile_qr_scan"}, "type": "electric_scooter", "name": "3caa5b4792d7ceb311e6914922263a03", "is_reserved": 0, "lon": -77.008333, "is_disabled": 0, "fusion_lat": 0.0, "lat": 38.91364816666667, "bike_id": "3caa5b4792d7ceb311e6914922263a03", "fusion_lon": 0.0}, {"rental_uris": {"ios": "https://dc.lft.to/lastmile_qr_scan", "android": "https://dc.lft.to/lastmile_qr_scan"}, "type": "electric_scooter", "name": "d7b0adca6247e8925582fd6cddc2788a", "is_reserved": 0, "lon": -77.0053195, "is_disabled": 0, "fusion_lat": 0.0, "lat": 38.87462983333333, "bike_id": "d7b0adca6247e8925582fd6cddc2788a", "fusion_lon": 0.0}, {"rental_uris": {"ios": "https://dc.lft.to/lastmile_qr_scan", "android": "https://dc.lft.to/lastmile_qr_scan"}, "type": "electric_scooter", "name": "40c268119498ea27df2c6304324a9095", "is_reserved": 0, "lon": -76.99033383333334, "is_disabled": 0, "fusion_lat": 0.0, "lat": 38.88451833333333, "bike_id": "40c268119498ea27df2c6304324a9095", "fusion_lon": 0.0}, {"rental_uris": {"ios": "https://dc.lft.to/lastmile_qr_scan", "android": "https://dc.lft.to/lastmile_qr_scan"}, "type": "electric_scooter", "name": "72b7391be4b0aae518c7269f6b8ba811", "is_reserved": 0, "lon": -77.03912516666666, "is_disabled": 0, "fusion_lat": 0.0, "lat": 38.915541833333336, "bike_id": "72b7391be4b0aae518c7269f6b8ba811", "fusion_lon": 0.0}, {"rental_uris": {"ios": "https://dc.lft.to/lastmile_qr_scan", "android": "https://dc.lft.to/lastmile_qr_scan"}, "type": "electric_scooter", "name": "88dd0a9a2ea05c3d59576ba82bd4b653", "is_reserved": 0, "lon": -77.03204866666667, "is_disabled": 0, "fusion_lat": 0.0, "lat": 38.912186166666665, "bike_id": "88dd0a9a2ea05c3d59576ba82bd4b653", "fusion_lon": 0.0}, {"rental_uris": {"ios": "https://dc.lft.to/lastmile_qr_scan", "android": "https://dc.lft.to/lastmile_qr_scan"}, "type": "electric_scooter", "name": "1a6fd98c2f81d1a51023357717577d1c", "is_reserved": 0, "lon": -77.00065933333333, "is_disabled": 0, "fusion_lat": 0.0, "lat": 38.87443966666667, "bike_id": "1a6fd98c2f81d1a51023357717577d1c", "fusion_lon": 0.0}, {"rental_uris": {"ios": "https://dc.lft.to/lastmile_qr_scan", "android": "https://dc.lft.to/lastmile_qr_scan"}, "type": "electric_scooter", "name": "7233a81868449d8568a837006b5eaf78", "is_reserved": 0, "lon": -77.03829283333333, "is_disabled": 0, "fusion_lat": 0.0, "lat": 38.962633333333336, "bike_id": "7233a81868449d8568a837006b5eaf78", "fusion_lon": 0.0}, {"rental_uris": {"ios": "https://dc.lft.to/lastmile_qr_scan", "android": "https://dc.lft.to/lastmile_qr_scan"}, "type": "electric_scooter", "name": "11672949dc2e88b1d1f13cb1fc09bce0", "is_reserved": 0, "lon": -76.931878, "is_disabled": 0, "fusion_lat": 0.0, "lat": 38.89877883333333, "bike_id": "11672949dc2e88b1d1f13cb1fc09bce0", "fusion_lon": 0.0}, {"rental_uris": {"ios": "https://dc.lft.to/lastmile_qr_scan", "android": "https://dc.lft.to/lastmile_qr_scan"}, "type": "electric_scooter", "name": "736091e3cf5bc763f36be5e090aba092", "is_reserved": 0, "lon": -77.07112833333333, "is_disabled": 0, "fusion_lat": 0.0, "lat": 38.89377916666667, "bike_id": "736091e3cf5bc763f36be5e090aba092", "fusion_lon": 0.0}, {"rental_uris": {"ios": "https://dc.lft.to/lastmile_qr_scan", "android": "https://dc.lft.to/lastmile_qr_scan"}, "type": "electric_bike", "name": "919ce9e31b1eb46cf2d31ed1eaf578c1", "is_reserved": 0, "lon": -76.94152133333333, "is_disabled": 0, "fusion_lat": 0.0, "lat": 38.890140833333334, "bike_id": "919ce9e31b1eb46cf2d31ed1eaf578c1", "fusion_lon": 0.0}, {"rental_uris": {"ios": "https://dc.lft.to/lastmile_qr_scan", "android": "https://dc.lft.to/lastmile_qr_scan"}, "type": "electric_scooter", "name": "4159939a99ecda1b0b210db89d5e588f", "is_reserved": 0, "lon": -77.0150175, "is_disabled": 0, "fusion_lat": 0.0, "lat": 38.92667083333333, "bike_id": "4159939a99ecda1b0b210db89d5e588f", "fusion_lon": 0.0}, {"rental_uris": {"ios": "https://dc.lft.to/lastmile_qr_scan", "android": "https://dc.lft.to/lastmile_qr_scan"}, "type": "electric_scooter", "name": "20fb9143d7a67bf56fea53796dae68c4", "is_reserved": 0, "lon": -77.02861733333333, "is_disabled": 0, "fusion_lat": 0.0, "lat": 38.9125735, "bike_id": "20fb9143d7a67bf56fea53796dae68c4", "fusion_lon": 0.0}, {"rental_uris": {"ios": "https://dc.lft.to/lastmile_qr_scan", "android": "https://dc.lft.to/lastmile_qr_scan"}, "type": "electric_bike", "name": "e2d7ffafda1147e3f43a87b0661f23ca", "is_reserved": 0, "lon": -77.12937233333334, "is_disabled": 0, "fusion_lat": 0.0, "lat": 38.86580466666667, "bike_id": "e2d7ffafda1147e3f43a87b0661f23ca", "fusion_lon": 0.0}, {"rental_uris": {"ios": "https://dc.lft.to/lastmile_qr_scan", "android": "https://dc.lft.to/lastmile_qr_scan"}, "type": "electric_scooter", "name": "e06143ea545782aaefdef081d34c015a", "is_reserved": 0, "lon": -77.00189366666666, "is_disabled": 0, "fusion_lat": 0.0, "lat": 38.91189033333333, "bike_id": "e06143ea545782aaefdef081d34c015a", "fusion_lon": 0.0}, {"rental_uris": {"ios": "https://dc.lft.to/lastmile_qr_scan", "android": "https://dc.lft.to/lastmile_qr_scan"}, "type": "electric_scooter", "name": "b961d61a2b63b834a2655d07e4dafd9d", "is_reserved": 0, "lon": -77.05813683333334, "is_disabled": 0, "fusion_lat": 0.0, "lat": 38.935183333333335, "bike_id": "b961d61a2b63b834a2655d07e4dafd9d", "fusion_lon": 0.0}, {"rental_uris": {"ios": "https://dc.lft.to/lastmile_qr_scan", "android": "https://dc.lft.to/lastmile_qr_scan"}, "type": "electric_scooter", "name": "f16c558af826877323687929ffc36b8c", "is_reserved": 0, "lon": -77.02965416666666, "is_disabled": 0, "fusion_lat": 0.0, "lat": 38.923206666666665, "bike_id": "f16c558af826877323687929ffc36b8c", "fusion_lon": 0.0}, {"rental_uris": {"ios": "https://dc.lft.to/lastmile_qr_scan", "android": "https://dc.lft.to/lastmile_qr_scan"}, "type": "electric_scooter", "name": "991d10e2ca7bb1cfbd9622cece7d3bce", "is_reserved": 0, "lon": -77.02162833333334, "is_disabled": 0, "fusion_lat": 0.0, "lat": 38.924562, "bike_id": "991d10e2ca7bb1cfbd9622cece7d3bce", "fusion_lon": 0.0}, {"rental_uris": {"ios": "https://dc.lft.to/lastmile_qr_scan", "android": "https://dc.lft.to/lastmile_qr_scan"}, "type": "electric_scooter", "name": "42716d3e6a1519787e2b5137f0e407b6", "is_reserved": 0, "lon": -77.0467975, "is_disabled": 0, "fusion_lat": 0.0, "lat": 38.897452333333334, "bike_id": "42716d3e6a1519787e2b5137f0e407b6", "fusion_lon": 0.0}, {"rental_uris": {"ios": "https://dc.lft.to/lastmile_qr_scan", "android": "https://dc.lft.to/lastmile_qr_scan"}, "type": "electric_scooter", "name": "480d8a6e6d0ac151e64d745249ea1f7b", "is_reserved": 0, "lon": -77.03956316666667, "is_disabled": 0, "fusion_lat": 0.0, "lat": 38.89246516666667, "bike_id": "480d8a6e6d0ac151e64d745249ea1f7b", "fusion_lon": 0.0}, {"rental_uris": {"ios": "https://dc.lft.to/lastmile_qr_scan", "android": "https://dc.lft.to/lastmile_qr_scan"}, "type": "electric_scooter", "name": "3582f7b85db04fb39971220eb0c85692", "is_reserved": 0, "lon": -77.03630733333334, "is_disabled": 0, "fusion_lat": 0.0, "lat": 38.92595333333333, "bike_id": "3582f7b85db04fb39971220eb0c85692", "fusion_lon": 0.0}, {"rental_uris": {"ios": "https://dc.lft.to/lastmile_qr_scan", "android": "https://dc.lft.to/lastmile_qr_scan"}, "type": "electric_scooter", "name": "6ab40133c4338306e590f3001e10179d", "is_reserved": 0, "lon": -77.01008716666666, "is_disabled": 0, "fusion_lat": 0.0, "lat": 38.9127075, "bike_id": "6ab40133c4338306e590f3001e10179d", "fusion_lon": 0.0}, {"rental_uris": {"ios": "https://dc.lft.to/lastmile_qr_scan", "android": "https://dc.lft.to/lastmile_qr_scan"}, "type": "electric_scooter", "name": "272a0b50a0564e8520dd6a6413653b95", "is_reserved": 0, "lon": -77.03280816666667, "is_disabled": 0, "fusion_lat": 0.0, "lat": 38.919996, "bike_id": "272a0b50a0564e8520dd6a6413653b95", "fusion_lon": 0.0}, {"rental_uris": {"ios": "https://dc.lft.to/lastmile_qr_scan", "android": "https://dc.lft.to/lastmile_qr_scan"}, "type": "electric_scooter", "name": "2dca6a6ef0a5c5ad2c3cefa68ad4b943", "is_reserved": 0, "lon": -77.0786075, "is_disabled": 0, "fusion_lat": 0.0, "lat": 38.92459866666667, "bike_id": "2dca6a6ef0a5c5ad2c3cefa68ad4b943", "fusion_lon": 0.0}, {"rental_uris": {"ios": "https://dc.lft.to/lastmile_qr_scan", "android": "https://dc.lft.to/lastmile_qr_scan"}, "type": "electric_scooter", "name": "0001fc2c3f688ab451c59d82bd79ed1a", "is_reserved": 0, "lon": -77.03858483333333, "is_disabled": 0, "fusion_lat": 0.0, "lat": 38.91658433333333, "bike_id": "0001fc2c3f688ab451c59d82bd79ed1a", "fusion_lon": 0.0}, {"rental_uris": {"ios": "https://dc.lft.to/lastmile_qr_scan", "android": "https://dc.lft.to/lastmile_qr_scan"}, "type": "electric_scooter", "name": "87e332e1ef5e3fb774ddd92fc8f02fe0", "is_reserved": 0, "lon": -77.056339, "is_disabled": 0, "fusion_lat": 0.0, "lat": 38.93595533333333, "bike_id": "87e332e1ef5e3fb774ddd92fc8f02fe0", "fusion_lon": 0.0}, {"rental_uris": {"ios": "https://dc.lft.to/lastmile_qr_scan", "android": "https://dc.lft.to/lastmile_qr_scan"}, "type": "electric_bike", "name": "790c19ec5924e047922591e5b9d5bb17", "is_reserved": 0, "lon": -77.08981433333334, "is_disabled": 0, "fusion_lat": 0.0, "lat": 38.91175783333333, "bike_id": "790c19ec5924e047922591e5b9d5bb17", "fusion_lon": 0.0}, {"rental_uris": {"ios": "https://dc.lft.to/lastmile_qr_scan", "android": "https://dc.lft.to/lastmile_qr_scan"}, "type": "electric_scooter", "name": "32b564975f7fd5ddd159697d5f8f3926", "is_reserved": 0, "lon": -77.00642216666667, "is_disabled": 0, "fusion_lat": 0.0, "lat": 38.899936333333336, "bike_id": "32b564975f7fd5ddd159697d5f8f3926", "fusion_lon": 0.0}, {"rental_uris": {"ios": "https://dc.lft.to/lastmile_qr_scan", "android": "https://dc.lft.to/lastmile_qr_scan"}, "type": "electric_scooter", "name": "e030951bfd9813b5cf45ee8da25283c9", "is_reserved": 0, "lon": -77.07826933333334, "is_disabled": 0, "fusion_lat": 0.0, "lat": 38.922554833333336, "bike_id": "e030951bfd9813b5cf45ee8da25283c9", "fusion_lon": 0.0}, {"rental_uris": {"ios": "https://dc.lft.to/lastmile_qr_scan", "android": "https://dc.lft.to/lastmile_qr_scan"}, "type": "electric_scooter", "name": "50e29452afee1eec37774dbe7ac15a85", "is_reserved": 0, "lon": -77.018759, "is_disabled": 0, "fusion_lat": 0.0, "lat": 38.914160333333335, "bike_id": "50e29452afee1eec37774dbe7ac15a85", "fusion_lon": 0.0}, {"rental_uris": {"ios": "https://dc.lft.to/lastmile_qr_scan", "android": "https://dc.lft.to/lastmile_qr_scan"}, "type": "electric_scooter", "name": "c74f640f81020b63162fe3b9865682c4", "is_reserved": 0, "lon": -77.02698783333334, "is_disabled": 0, "fusion_lat": 0.0, "lat": 38.90059316666667, "bike_id": "c74f640f81020b63162fe3b9865682c4", "fusion_lon": 0.0}, {"rental_uris": {"ios": "https://dc.lft.to/lastmile_qr_scan", "android": "https://dc.lft.to/lastmile_qr_scan"}, "type": "electric_scooter", "name": "ce7d62cf9aa4c3a2056fc3cd9608747b", "is_reserved": 0, "lon": -77.026358, "is_disabled": 0, "fusion_lat": 0.0, "lat": 38.90423466666667, "bike_id": "ce7d62cf9aa4c3a2056fc3cd9608747b", "fusion_lon": 0.0}, {"rental_uris": {"ios": "https://dc.lft.to/lastmile_qr_scan", "android": "https://dc.lft.to/lastmile_qr_scan"}, "type": "electric_scooter", "name": "49af79349371afd4f380ea3b51031fb5", "is_reserved": 0, "lon": -77.02029816666666, "is_disabled": 0, "fusion_lat": 0.0, "lat": 38.9015005, "bike_id": "49af79349371afd4f380ea3b51031fb5", "fusion_lon": 0.0}, {"rental_uris": {"ios": "https://dc.lft.to/lastmile_qr_scan", "android": "https://dc.lft.to/lastmile_qr_scan"}, "type": "electric_scooter", "name": "4661949a042f10922e1d5692bbd4b033", "is_reserved": 0, "lon": -77.028195, "is_disabled": 0, "fusion_lat": 0.0, "lat": 38.90932633333333, "bike_id": "4661949a042f10922e1d5692bbd4b033", "fusion_lon": 0.0}, {"rental_uris": {"ios": "https://dc.lft.to/lastmile_qr_scan", "android": "https://dc.lft.to/lastmile_qr_scan"}, "type": "electric_scooter", "name": "00688c93a8374665088c8ad3753aa476", "is_reserved": 0, "lon": -77.023943, "is_disabled": 0, "fusion_lat": 0.0, "lat": 38.926031333333334, "bike_id": "00688c93a8374665088c8ad3753aa476", "fusion_lon": 0.0}, {"rental_uris": {"ios": "https://dc.lft.to/lastmile_qr_scan", "android": "https://dc.lft.to/lastmile_qr_scan"}, "type": "electric_scooter", "name": "18dbe14d46cda60729f6d917ad70f845", "is_reserved": 0, "lon": -77.02571016666667, "is_disabled": 0, "fusion_lat": 0.0, "lat": 38.887477833333335, "bike_id": "18dbe14d46cda60729f6d917ad70f845", "fusion_lon": 0.0}, {"rental_uris": {"ios": "https://dc.lft.to/lastmile_qr_scan", "android": "https://dc.lft.to/lastmile_qr_scan"}, "type": "electric_scooter", "name": "074598e4bc281e212ccaa8cd1301cf65", "is_reserved": 0, "lon": -77.01268483333334, "is_disabled": 0, "fusion_lat": 0.0, "lat": 38.91568433333333, "bike_id": "074598e4bc281e212ccaa8cd1301cf65", "fusion_lon": 0.0}, {"rental_uris": {"ios": "https://dc.lft.to/lastmile_qr_scan", "android": "https://dc.lft.to/lastmile_qr_scan"}, "type": "electric_scooter", "name": "3926e874f8c1cd986c0176aa5d2bbc78", "is_reserved": 0, "lon": -77.01190716666666, "is_disabled": 0, "fusion_lat": 0.0, "lat": 38.91550083333333, "bike_id": "3926e874f8c1cd986c0176aa5d2bbc78", "fusion_lon": 0.0}, {"rental_uris": {"ios": "https://dc.lft.to/lastmile_qr_scan", "android": "https://dc.lft.to/lastmile_qr_scan"}, "type": "electric_scooter", "name": "aea61cf7adfee3caa531402c4b12be6f", "is_reserved": 0, "lon": -77.02755, "is_disabled": 0, "fusion_lat": 0.0, "lat": 38.90493216666667, "bike_id": "aea61cf7adfee3caa531402c4b12be6f", "fusion_lon": 0.0}, {"rental_uris": {"ios": "https://dc.lft.to/lastmile_qr_scan", "android": "https://dc.lft.to/lastmile_qr_scan"}, "type": "electric_scooter", "name": "1c2816e9911dce0fdba0c3dc7ceba1df", "is_reserved": 0, "lon": -77.02961166666667, "is_disabled": 0, "fusion_lat": 0.0, "lat": 38.904116333333334, "bike_id": "1c2816e9911dce0fdba0c3dc7ceba1df", "fusion_lon": 0.0}, {"rental_uris": {"ios": "https://dc.lft.to/lastmile_qr_scan", "android": "https://dc.lft.to/lastmile_qr_scan"}, "type": "electric_scooter", "name": "f8157be82655766f30732501f79d0245", "is_reserved": 0, "lon": -77.06287233333333, "is_disabled": 0, "fusion_lat": 0.0, "lat": 38.91245383333333, "bike_id": "f8157be82655766f30732501f79d0245", "fusion_lon": 0.0}, {"rental_uris": {"ios": "https://dc.lft.to/lastmile_qr_scan", "android": "https://dc.lft.to/lastmile_qr_scan"}, "type": "electric_bike", "name": "8bab601810a62e4a7bdcfaf395ef0230", "is_reserved": 0, "lon": -77.03708016666667, "is_disabled": 0, "fusion_lat": 0.0, "lat": 38.935609, "bike_id": "8bab601810a62e4a7bdcfaf395ef0230", "fusion_lon": 0.0}, {"rental_uris": {"ios": "https://dc.lft.to/lastmile_qr_scan", "android": "https://dc.lft.to/lastmile_qr_scan"}, "type": "electric_scooter", "name": "904a57284c7cec0953c31d7eeb811273", "is_reserved": 0, "lon": -77.02788866666667, "is_disabled": 0, "fusion_lat": 0.0, "lat": 38.9013315, "bike_id": "904a57284c7cec0953c31d7eeb811273", "fusion_lon": 0.0}, {"rental_uris": {"ios": "https://dc.lft.to/lastmile_qr_scan", "android": "https://dc.lft.to/lastmile_qr_scan"}, "type": "electric_scooter", "name": "9d264cdf1bff500b15fdb46fa719157d", "is_reserved": 0, "lon": -77.02819016666666, "is_disabled": 0, "fusion_lat": 0.0, "lat": 38.899193333333336, "bike_id": "9d264cdf1bff500b15fdb46fa719157d", "fusion_lon": 0.0}, {"rental_uris": {"ios": "https://dc.lft.to/lastmile_qr_scan", "android": "https://dc.lft.to/lastmile_qr_scan"}, "type": "electric_scooter", "name": "ed878bf4eaa51664e88390e108be2f0f", "is_reserved": 0, "lon": -77.04341716666667, "is_disabled": 0, "fusion_lat": 0.0, "lat": 38.913008166666664, "bike_id": "ed878bf4eaa51664e88390e108be2f0f", "fusion_lon": 0.0}, {"rental_uris": {"ios": "https://dc.lft.to/lastmile_qr_scan", "android": "https://dc.lft.to/lastmile_qr_scan"}, "type": "electric_scooter", "name": "a07fd6139565d512ea85b8d1e01816a3", "is_reserved": 0, "lon": -76.98537166666667, "is_disabled": 0, "fusion_lat": 0.0, "lat": 38.91286933333333, "bike_id": "a07fd6139565d512ea85b8d1e01816a3", "fusion_lon": 0.0}, {"rental_uris": {"ios": "https://dc.lft.to/lastmile_qr_scan", "android": "https://dc.lft.to/lastmile_qr_scan"}, "type": "electric_scooter", "name": "969f63b72aebc728adc08d590e78fa73", "is_reserved": 0, "lon": -77.03178483333333, "is_disabled": 0, "fusion_lat": 0.0, "lat": 38.91624983333333, "bike_id": "969f63b72aebc728adc08d590e78fa73", "fusion_lon": 0.0}, {"rental_uris": {"ios": "https://dc.lft.to/lastmile_qr_scan", "android": "https://dc.lft.to/lastmile_qr_scan"}, "type": "electric_scooter", "name": "b8a7fafb81d97957a4f8d4cefd2c92fa", "is_reserved": 0, "lon": -77.0320235, "is_disabled": 0, "fusion_lat": 0.0, "lat": 38.9131225, "bike_id": "b8a7fafb81d97957a4f8d4cefd2c92fa", "fusion_lon": 0.0}, {"rental_uris": {"ios": "https://dc.lft.to/lastmile_qr_scan", "android": "https://dc.lft.to/lastmile_qr_scan"}, "type": "electric_scooter", "name": "ba3c73f503c2a4d04aff5884ccc217b0", "is_reserved": 0, "lon": -77.02672683333333, "is_disabled": 0, "fusion_lat": 0.0, "lat": 38.91703033333334, "bike_id": "ba3c73f503c2a4d04aff5884ccc217b0", "fusion_lon": 0.0}, {"rental_uris": {"ios": "https://dc.lft.to/lastmile_qr_scan", "android": "https://dc.lft.to/lastmile_qr_scan"}, "type": "electric_scooter", "name": "ea771a7a8842faaaa9f406d3681b3c51", "is_reserved": 0, "lon": -76.95742483333333, "is_disabled": 0, "fusion_lat": 0.0, "lat": 38.883873666666666, "bike_id": "ea771a7a8842faaaa9f406d3681b3c51", "fusion_lon": 0.0}, {"rental_uris": {"ios": "https://dc.lft.to/lastmile_qr_scan", "android": "https://dc.lft.to/lastmile_qr_scan"}, "type": "electric_scooter", "name": "2640fc43e0dd54b0bd301b1c686612e2", "is_reserved": 0, "lon": -76.9850495, "is_disabled": 0, "fusion_lat": 0.0, "lat": 38.879916, "bike_id": "2640fc43e0dd54b0bd301b1c686612e2", "fusion_lon": 0.0}, {"rental_uris": {"ios": "https://dc.lft.to/lastmile_qr_scan", "android": "https://dc.lft.to/lastmile_qr_scan"}, "type": "electric_scooter", "name": "8a977cd803f0dfcefaada7917f93b1a2", "is_reserved": 0, "lon": -77.06630433333333, "is_disabled": 0, "fusion_lat": 0.0, "lat": 38.9052095, "bike_id": "8a977cd803f0dfcefaada7917f93b1a2", "fusion_lon": 0.0}, {"rental_uris": {"ios": "https://dc.lft.to/lastmile_qr_scan", "android": "https://dc.lft.to/lastmile_qr_scan"}, "type": "electric_scooter", "name": "a8ff4e9e46c5811bbe9271fbf41146e3", "is_reserved": 0, "lon": -77.025058, "is_disabled": 0, "fusion_lat": 0.0, "lat": 38.935496, "bike_id": "a8ff4e9e46c5811bbe9271fbf41146e3", "fusion_lon": 0.0}, {"rental_uris": {"ios": "https://dc.lft.to/lastmile_qr_scan", "android": "https://dc.lft.to/lastmile_qr_scan"}, "type": "electric_bike", "name": "906c203a5a67401cfc03022cc03ad70a", "is_reserved": 0, "lon": -77.085292, "is_disabled": 0, "fusion_lat": 0.0, "lat": 38.856477, "bike_id": "906c203a5a67401cfc03022cc03ad70a", "fusion_lon": 0.0}, {"rental_uris": {"ios": "https://dc.lft.to/lastmile_qr_scan", "android": "https://dc.lft.to/lastmile_qr_scan"}, "type": "electric_scooter", "name": "30bec80a4e46bbe6e401e99ad6b0b4d7", "is_reserved": 0, "lon": -77.05916933333333, "is_disabled": 0, "fusion_lat": 0.0, "lat": 38.90279066666667, "bike_id": "30bec80a4e46bbe6e401e99ad6b0b4d7", "fusion_lon": 0.0}, {"rental_uris": {"ios": "https://dc.lft.to/lastmile_qr_scan", "android": "https://dc.lft.to/lastmile_qr_scan"}, "type": "electric_scooter", "name": "c1c2a7d6e22610c2955a58522a2134f8", "is_reserved": 0, "lon": -77.032035, "is_disabled": 0, "fusion_lat": 0.0, "lat": 38.913109166666665, "bike_id": "c1c2a7d6e22610c2955a58522a2134f8", "fusion_lon": 0.0}, {"rental_uris": {"ios": "https://dc.lft.to/lastmile_qr_scan", "android": "https://dc.lft.to/lastmile_qr_scan"}, "type": "electric_scooter", "name": "f9593455f509bb8bc2a0132d1f8aafa0", "is_reserved": 0, "lon": -77.00550433333333, "is_disabled": 0, "fusion_lat": 0.0, "lat": 38.876394, "bike_id": "f9593455f509bb8bc2a0132d1f8aafa0", "fusion_lon": 0.0}, {"rental_uris": {"ios": "https://dc.lft.to/lastmile_qr_scan", "android": "https://dc.lft.to/lastmile_qr_scan"}, "type": "electric_bike", "name": "15dbf903937cfd52e06375fd82e6a167", "is_reserved": 0, "lon": -77.12370816666666, "is_disabled": 0, "fusion_lat": 0.0, "lat": 38.80761483333333, "bike_id": "15dbf903937cfd52e06375fd82e6a167", "fusion_lon": 0.0}, {"rental_uris": {"ios": "https://dc.lft.to/lastmile_qr_scan", "android": "https://dc.lft.to/lastmile_qr_scan"}, "type": "electric_scooter", "name": "5ca8baf1141ca3fbb8cdc90aafd42ba8", "is_reserved": 0, "lon": -77.0200045, "is_disabled": 0, "fusion_lat": 0.0, "lat": 38.966230333333336, "bike_id": "5ca8baf1141ca3fbb8cdc90aafd42ba8", "fusion_lon": 0.0}, {"rental_uris": {"ios": "https://dc.lft.to/lastmile_qr_scan", "android": "https://dc.lft.to/lastmile_qr_scan"}, "type": "electric_scooter", "name": "99d74cdb88e363ccb79dc1eb2fac7852", "is_reserved": 0, "lon": -77.04059716666667, "is_disabled": 0, "fusion_lat": 0.0, "lat": 38.917681, "bike_id": "99d74cdb88e363ccb79dc1eb2fac7852", "fusion_lon": 0.0}, {"rental_uris": {"ios": "https://dc.lft.to/lastmile_qr_scan", "android": "https://dc.lft.to/lastmile_qr_scan"}, "type": "electric_scooter", "name": "6b6474454deb0dfcf9407b18afdb56aa", "is_reserved": 0, "lon": -77.06129033333333, "is_disabled": 0, "fusion_lat": 0.0, "lat": 38.9026335, "bike_id": "6b6474454deb0dfcf9407b18afdb56aa", "fusion_lon": 0.0}, {"rental_uris": {"ios": "https://dc.lft.to/lastmile_qr_scan", "android": "https://dc.lft.to/lastmile_qr_scan"}, "type": "electric_scooter", "name": "55259fe18cbe1fd7181380038cc7265d", "is_reserved": 0, "lon": -77.0435385, "is_disabled": 0, "fusion_lat": 0.0, "lat": 38.907216, "bike_id": "55259fe18cbe1fd7181380038cc7265d", "fusion_lon": 0.0}, {"rental_uris": {"ios": "https://dc.lft.to/lastmile_qr_scan", "android": "https://dc.lft.to/lastmile_qr_scan"}, "type": "electric_scooter", "name": "9dccac0aa03685126049daf6beec0ab6", "is_reserved": 0, "lon": -77.04535733333333, "is_disabled": 0, "fusion_lat": 0.0, "lat": 38.90770066666666, "bike_id": "9dccac0aa03685126049daf6beec0ab6", "fusion_lon": 0.0}, {"rental_uris": {"ios": "https://dc.lft.to/lastmile_qr_scan", "android": "https://dc.lft.to/lastmile_qr_scan"}, "type": "electric_bike", "name": "6ab02d508e29f6f3635782f71fe2a569", "is_reserved": 0, "lon": -76.96151933333333, "is_disabled": 0, "fusion_lat": 0.0, "lat": 38.85618616666667, "bike_id": "6ab02d508e29f6f3635782f71fe2a569", "fusion_lon": 0.0}, {"rental_uris": {"ios": "https://dc.lft.to/lastmile_qr_scan", "android": "https://dc.lft.to/lastmile_qr_scan"}, "type": "electric_scooter", "name": "aa728d4ea99d57c283bab7020f05666e", "is_reserved": 0, "lon": -77.00746983333333, "is_disabled": 0, "fusion_lat": 0.0, "lat": 38.876611, "bike_id": "aa728d4ea99d57c283bab7020f05666e", "fusion_lon": 0.0}, {"rental_uris": {"ios": "https://dc.lft.to/lastmile_qr_scan", "android": "https://dc.lft.to/lastmile_qr_scan"}, "type": "electric_scooter", "name": "c199f09278b33463e0b57ca21e8825fe", "is_reserved": 0, "lon": -77.02810183333334, "is_disabled": 0, "fusion_lat": 0.0, "lat": 38.909170833333334, "bike_id": "c199f09278b33463e0b57ca21e8825fe", "fusion_lon": 0.0}, {"rental_uris": {"ios": "https://dc.lft.to/lastmile_qr_scan", "android": "https://dc.lft.to/lastmile_qr_scan"}, "type": "electric_scooter", "name": "73998ba5be705be5ec723911b6597c94", "is_reserved": 0, "lon": -77.01869383333333, "is_disabled": 0, "fusion_lat": 0.0, "lat": 38.973683, "bike_id": "73998ba5be705be5ec723911b6597c94", "fusion_lon": 0.0}, {"rental_uris": {"ios": "https://dc.lft.to/lastmile_qr_scan", "android": "https://dc.lft.to/lastmile_qr_scan"}, "type": "electric_scooter", "name": "f0722e1f88cbed5acea5b151a69ff991", "is_reserved": 0, "lon": -76.997538, "is_disabled": 0, "fusion_lat": 0.0, "lat": 38.885098, "bike_id": "f0722e1f88cbed5acea5b151a69ff991", "fusion_lon": 0.0}, {"rental_uris": {"ios": "https://dc.lft.to/lastmile_qr_scan", "android": "https://dc.lft.to/lastmile_qr_scan"}, "type": "electric_scooter", "name": "e7f3be4c853c1f05dedbe8d8dabc0b4d", "is_reserved": 0, "lon": -77.0389445, "is_disabled": 0, "fusion_lat": 0.0, "lat": 38.923186, "bike_id": "e7f3be4c853c1f05dedbe8d8dabc0b4d", "fusion_lon": 0.0}, {"rental_uris": {"ios": "https://dc.lft.to/lastmile_qr_scan", "android": "https://dc.lft.to/lastmile_qr_scan"}, "type": "electric_scooter", "name": "f9097df6f238c969a4ad343d184ca7dd", "is_reserved": 0, "lon": -77.04247733333334, "is_disabled": 0, "fusion_lat": 0.0, "lat": 38.90370433333333, "bike_id": "f9097df6f238c969a4ad343d184ca7dd", "fusion_lon": 0.0}, {"rental_uris": {"ios": "https://dc.lft.to/lastmile_qr_scan", "android": "https://dc.lft.to/lastmile_qr_scan"}, "type": "electric_scooter", "name": "67f27b92921e8077b4166365970c6f11", "is_reserved": 0, "lon": -77.000711, "is_disabled": 0, "fusion_lat": 0.0, "lat": 38.87681466666667, "bike_id": "67f27b92921e8077b4166365970c6f11", "fusion_lon": 0.0}, {"rental_uris": {"ios": "https://dc.lft.to/lastmile_qr_scan", "android": "https://dc.lft.to/lastmile_qr_scan"}, "type": "electric_bike", "name": "26c0b21403b51ccdfc0d0e54dc565d4c", "is_reserved": 0, "lon": -76.95243783333333, "is_disabled": 0, "fusion_lat": 0.0, "lat": 38.884661666666666, "bike_id": "26c0b21403b51ccdfc0d0e54dc565d4c", "fusion_lon": 0.0}, {"rental_uris": {"ios": "https://dc.lft.to/lastmile_qr_scan", "android": "https://dc.lft.to/lastmile_qr_scan"}, "type": "electric_bike", "name": "97444751aaeddd33770d9900e7acf5f0", "is_reserved": 0, "lon": -76.945279, "is_disabled": 0, "fusion_lat": 0.0, "lat": 38.982676833333336, "bike_id": "97444751aaeddd33770d9900e7acf5f0", "fusion_lon": 0.0}, {"rental_uris": {"ios": "https://dc.lft.to/lastmile_qr_scan", "android": "https://dc.lft.to/lastmile_qr_scan"}, "type": "electric_scooter", "name": "620f783969cf02d06c3f5d1507740ded", "is_reserved": 0, "lon": -77.0261365, "is_disabled": 0, "fusion_lat": 0.0, "lat": 38.91691183333333, "bike_id": "620f783969cf02d06c3f5d1507740ded", "fusion_lon": 0.0}, {"rental_uris": {"ios": "https://dc.lft.to/lastmile_qr_scan", "android": "https://dc.lft.to/lastmile_qr_scan"}, "type": "electric_scooter", "name": "0a2baa501c96235a732c916456ecb021", "is_reserved": 0, "lon": -77.09666983333334, "is_disabled": 0, "fusion_lat": 0.0, "lat": 38.917637, "bike_id": "0a2baa501c96235a732c916456ecb021", "fusion_lon": 0.0}, {"rental_uris": {"ios": "https://dc.lft.to/lastmile_qr_scan", "android": "https://dc.lft.to/lastmile_qr_scan"}, "type": "electric_scooter", "name": "ed0e672d0fd70fca0ab8c6cfa0470ded", "is_reserved": 0, "lon": -77.020392, "is_disabled": 0, "fusion_lat": 0.0, "lat": 38.899738666666664, "bike_id": "ed0e672d0fd70fca0ab8c6cfa0470ded", "fusion_lon": 0.0}, {"rental_uris": {"ios": "https://dc.lft.to/lastmile_qr_scan", "android": "https://dc.lft.to/lastmile_qr_scan"}, "type": "electric_scooter", "name": "777293b8caddd0ce6e829d1ff8eb31ac", "is_reserved": 0, "lon": -77.03950016666667, "is_disabled": 0, "fusion_lat": 0.0, "lat": 38.8983035, "bike_id": "777293b8caddd0ce6e829d1ff8eb31ac", "fusion_lon": 0.0}, {"rental_uris": {"ios": "https://dc.lft.to/lastmile_qr_scan", "android": "https://dc.lft.to/lastmile_qr_scan"}, "type": "electric_scooter", "name": "4cd94e54396241305e3361f155766f6a", "is_reserved": 0, "lon": -77.034772, "is_disabled": 0, "fusion_lat": 0.0, "lat": 38.9083585, "bike_id": "4cd94e54396241305e3361f155766f6a", "fusion_lon": 0.0}, {"rental_uris": {"ios": "https://dc.lft.to/lastmile_qr_scan", "android": "https://dc.lft.to/lastmile_qr_scan"}, "type": "electric_scooter", "name": "101f382d5a085ab643bc3fdbf1d0895f", "is_reserved": 0, "lon": -77.0175535, "is_disabled": 0, "fusion_lat": 0.0, "lat": 38.87685783333333, "bike_id": "101f382d5a085ab643bc3fdbf1d0895f", "fusion_lon": 0.0}, {"rental_uris": {"ios": "https://dc.lft.to/lastmile_qr_scan", "android": "https://dc.lft.to/lastmile_qr_scan"}, "type": "electric_bike", "name": "37ef98b9fd4c7a4eaa51a3c904527e2d", "is_reserved": 0, "lon": -77.00757883333333, "is_disabled": 0, "fusion_lat": 0.0, "lat": 38.997845833333336, "bike_id": "37ef98b9fd4c7a4eaa51a3c904527e2d", "fusion_lon": 0.0}, {"rental_uris": {"ios": "https://dc.lft.to/lastmile_qr_scan", "android": "https://dc.lft.to/lastmile_qr_scan"}, "type": "electric_scooter", "name": "33d2079da6e59870c895930c2b27cbab", "is_reserved": 0, "lon": -77.00321616666666, "is_disabled": 0, "fusion_lat": 0.0, "lat": 38.877218666666664, "bike_id": "33d2079da6e59870c895930c2b27cbab", "fusion_lon": 0.0}, {"rental_uris": {"ios": "https://dc.lft.to/lastmile_qr_scan", "android": "https://dc.lft.to/lastmile_qr_scan"}, "type": "electric_scooter", "name": "a35bd22dd14276893619f10d630fec27", "is_reserved": 0, "lon": -77.04028283333334, "is_disabled": 0, "fusion_lat": 0.0, "lat": 38.918361, "bike_id": "a35bd22dd14276893619f10d630fec27", "fusion_lon": 0.0}, {"rental_uris": {"ios": "https://dc.lft.to/lastmile_qr_scan", "android": "https://dc.lft.to/lastmile_qr_scan"}, "type": "electric_bike", "name": "dd43e1d907649b6f61e502798f4a2c9d", "is_reserved": 0, "lon": -77.0207495, "is_disabled": 0, "fusion_lat": 0.0, "lat": 38.96439483333333, "bike_id": "dd43e1d907649b6f61e502798f4a2c9d", "fusion_lon": 0.0}, {"rental_uris": {"ios": "https://dc.lft.to/lastmile_qr_scan", "android": "https://dc.lft.to/lastmile_qr_scan"}, "type": "electric_scooter", "name": "7b8c605f41e49d2cbc34f9ea9e4e8199", "is_reserved": 0, "lon": -77.01108166666667, "is_disabled": 0, "fusion_lat": 0.0, "lat": 38.89536233333333, "bike_id": "7b8c605f41e49d2cbc34f9ea9e4e8199", "fusion_lon": 0.0}, {"rental_uris": {"ios": "https://dc.lft.to/lastmile_qr_scan", "android": "https://dc.lft.to/lastmile_qr_scan"}, "type": "electric_scooter", "name": "b8f59e594d7f33d3067bb3dc3436e075", "is_reserved": 0, "lon": -76.94182166666667, "is_disabled": 0, "fusion_lat": 0.0, "lat": 38.89758766666667, "bike_id": "b8f59e594d7f33d3067bb3dc3436e075", "fusion_lon": 0.0}, {"rental_uris": {"ios": "https://dc.lft.to/lastmile_qr_scan", "android": "https://dc.lft.to/lastmile_qr_scan"}, "type": "electric_scooter", "name": "c195676ad46152f0daddefd91c35f49f", "is_reserved": 0, "lon": -77.038347, "is_disabled": 0, "fusion_lat": 0.0, "lat": 38.907295500000004, "bike_id": "c195676ad46152f0daddefd91c35f49f", "fusion_lon": 0.0}, {"rental_uris": {"ios": "https://dc.lft.to/lastmile_qr_scan", "android": "https://dc.lft.to/lastmile_qr_scan"}, "type": "electric_scooter", "name": "196ce662c15eb665f275c18294e1cc0b", "is_reserved": 0, "lon": -77.014932, "is_disabled": 0, "fusion_lat": 0.0, "lat": 38.88817266666667, "bike_id": "196ce662c15eb665f275c18294e1cc0b", "fusion_lon": 0.0}, {"rental_uris": {"ios": "https://dc.lft.to/lastmile_qr_scan", "android": "https://dc.lft.to/lastmile_qr_scan"}, "type": "electric_scooter", "name": "03cd3c69069d3916c86b75f5395bc4ec", "is_reserved": 0, "lon": -76.97718216666667, "is_disabled": 0, "fusion_lat": 0.0, "lat": 38.900570333333334, "bike_id": "03cd3c69069d3916c86b75f5395bc4ec", "fusion_lon": 0.0}, {"rental_uris": {"ios": "https://dc.lft.to/lastmile_qr_scan", "android": "https://dc.lft.to/lastmile_qr_scan"}, "type": "electric_scooter", "name": "84f864e9c0861a68d27f925b7f1c7737", "is_reserved": 0, "lon": -76.99149916666667, "is_disabled": 0, "fusion_lat": 0.0, "lat": 38.901222, "bike_id": "84f864e9c0861a68d27f925b7f1c7737", "fusion_lon": 0.0}, {"rental_uris": {"ios": "https://dc.lft.to/lastmile_qr_scan", "android": "https://dc.lft.to/lastmile_qr_scan"}, "type": "electric_scooter", "name": "1d5e0033d106b5a0872970bdde79414e", "is_reserved": 0, "lon": -77.0513625, "is_disabled": 0, "fusion_lat": 0.0, "lat": 38.90233766666667, "bike_id": "1d5e0033d106b5a0872970bdde79414e", "fusion_lon": 0.0}, {"rental_uris": {"ios": "https://dc.lft.to/lastmile_qr_scan", "android": "https://dc.lft.to/lastmile_qr_scan"}, "type": "electric_scooter", "name": "1dd6f4a601c173e05091de963e7d9ebd", "is_reserved": 0, "lon": -77.0434755, "is_disabled": 0, "fusion_lat": 0.0, "lat": 38.923583, "bike_id": "1dd6f4a601c173e05091de963e7d9ebd", "fusion_lon": 0.0}, {"rental_uris": {"ios": "https://dc.lft.to/lastmile_qr_scan", "android": "https://dc.lft.to/lastmile_qr_scan"}, "type": "electric_scooter", "name": "089effd776b67f2b1c192e79a4c7b189", "is_reserved": 0, "lon": -77.03651683333334, "is_disabled": 0, "fusion_lat": 0.0, "lat": 38.91615566666667, "bike_id": "089effd776b67f2b1c192e79a4c7b189", "fusion_lon": 0.0}, {"rental_uris": {"ios": "https://dc.lft.to/lastmile_qr_scan", "android": "https://dc.lft.to/lastmile_qr_scan"}, "type": "electric_scooter", "name": "2bc1dceb7e710939faf9637e06af7a20", "is_reserved": 0, "lon": -76.99033, "is_disabled": 0, "fusion_lat": 0.0, "lat": 38.88879333333333, "bike_id": "2bc1dceb7e710939faf9637e06af7a20", "fusion_lon": 0.0}, {"rental_uris": {"ios": "https://dc.lft.to/lastmile_qr_scan", "android": "https://dc.lft.to/lastmile_qr_scan"}, "type": "electric_scooter", "name": "951a05bdeed926e9086ce8c60314cdb2", "is_reserved": 0, "lon": -77.01759616666666, "is_disabled": 0, "fusion_lat": 0.0, "lat": 38.8768395, "bike_id": "951a05bdeed926e9086ce8c60314cdb2", "fusion_lon": 0.0}, {"rental_uris": {"ios": "https://dc.lft.to/lastmile_qr_scan", "android": "https://dc.lft.to/lastmile_qr_scan"}, "type": "electric_bike", "name": "9e82cf607bde3bceb0f9b5c7518c4e56", "is_reserved": 0, "lon": -77.07659983333333, "is_disabled": 0, "fusion_lat": 0.0, "lat": 38.809776166666666, "bike_id": "9e82cf607bde3bceb0f9b5c7518c4e56", "fusion_lon": 0.0}, {"rental_uris": {"ios": "https://dc.lft.to/lastmile_qr_scan", "android": "https://dc.lft.to/lastmile_qr_scan"}, "type": "electric_scooter", "name": "eccdec62e784d70c46d8e5616c5591d7", "is_reserved": 0, "lon": -77.02707833333334, "is_disabled": 0, "fusion_lat": 0.0, "lat": 38.90896883333333, "bike_id": "eccdec62e784d70c46d8e5616c5591d7", "fusion_lon": 0.0}, {"rental_uris": {"ios": "https://dc.lft.to/lastmile_qr_scan", "android": "https://dc.lft.to/lastmile_qr_scan"}, "type": "electric_scooter", "name": "1584d73b06a969dd30335e2c97efaddf", "is_reserved": 0, "lon": -77.03558516666666, "is_disabled": 0, "fusion_lat": 0.0, "lat": 38.927386, "bike_id": "1584d73b06a969dd30335e2c97efaddf", "fusion_lon": 0.0}, {"rental_uris": {"ios": "https://dc.lft.to/lastmile_qr_scan", "android": "https://dc.lft.to/lastmile_qr_scan"}, "type": "electric_scooter", "name": "ce4aad614dbbc828fb5195562cdd7c31", "is_reserved": 0, "lon": -77.049782, "is_disabled": 0, "fusion_lat": 0.0, "lat": 38.902996, "bike_id": "ce4aad614dbbc828fb5195562cdd7c31", "fusion_lon": 0.0}, {"rental_uris": {"ios": "https://dc.lft.to/lastmile_qr_scan", "android": "https://dc.lft.to/lastmile_qr_scan"}, "type": "electric_scooter", "name": "e6bfd493d1d1aa385b03975292f900e4", "is_reserved": 0, "lon": -76.9914295, "is_disabled": 0, "fusion_lat": 0.0, "lat": 38.87335266666667, "bike_id": "e6bfd493d1d1aa385b03975292f900e4", "fusion_lon": 0.0}, {"rental_uris": {"ios": "https://dc.lft.to/lastmile_qr_scan", "android": "https://dc.lft.to/lastmile_qr_scan"}, "type": "electric_scooter", "name": "ad823a03b914bc967ff11d2d75683bee", "is_reserved": 0, "lon": -77.01370816666666, "is_disabled": 0, "fusion_lat": 0.0, "lat": 38.9126995, "bike_id": "ad823a03b914bc967ff11d2d75683bee", "fusion_lon": 0.0}, {"rental_uris": {"ios": "https://dc.lft.to/lastmile_qr_scan", "android": "https://dc.lft.to/lastmile_qr_scan"}, "type": "electric_bike", "name": "fd5248d1da35f3f3681f8579370a9035", "is_reserved": 0, "lon": -77.128902, "is_disabled": 0, "fusion_lat": 0.0, "lat": 38.906037833333336, "bike_id": "fd5248d1da35f3f3681f8579370a9035", "fusion_lon": 0.0}, {"rental_uris": {"ios": "https://dc.lft.to/lastmile_qr_scan", "android": "https://dc.lft.to/lastmile_qr_scan"}, "type": "electric_scooter", "name": "3990daca9bd4b04b7d220d08cc3d9e30", "is_reserved": 0, "lon": -77.0399855, "is_disabled": 0, "fusion_lat": 0.0, "lat": 38.93426916666667, "bike_id": "3990daca9bd4b04b7d220d08cc3d9e30", "fusion_lon": 0.0}, {"rental_uris": {"ios": "https://dc.lft.to/lastmile_qr_scan", "android": "https://dc.lft.to/lastmile_qr_scan"}, "type": "electric_scooter", "name": "01c329063deef14d698a7064acb04ea6", "is_reserved": 0, "lon": -76.996353, "is_disabled": 0, "fusion_lat": 0.0, "lat": 38.87737416666667, "bike_id": "01c329063deef14d698a7064acb04ea6", "fusion_lon": 0.0}, {"rental_uris": {"ios": "https://dc.lft.to/lastmile_qr_scan", "android": "https://dc.lft.to/lastmile_qr_scan"}, "type": "electric_scooter", "name": "c544fbe5a4c78cceb33ba7b5bbdeca00", "is_reserved": 0, "lon": -77.00697216666667, "is_disabled": 0, "fusion_lat": 0.0, "lat": 38.905605, "bike_id": "c544fbe5a4c78cceb33ba7b5bbdeca00", "fusion_lon": 0.0}, {"rental_uris": {"ios": "https://dc.lft.to/lastmile_qr_scan", "android": "https://dc.lft.to/lastmile_qr_scan"}, "type": "electric_bike", "name": "7085571ac4362dad8e5bca3af053e954", "is_reserved": 0, "lon": -76.96891533333333, "is_disabled": 0, "fusion_lat": 0.0, "lat": 38.86981183333333, "bike_id": "7085571ac4362dad8e5bca3af053e954", "fusion_lon": 0.0}, {"rental_uris": {"ios": "https://dc.lft.to/lastmile_qr_scan", "android": "https://dc.lft.to/lastmile_qr_scan"}, "type": "electric_scooter", "name": "dfe74d53d4433b0ad117af449461f15c", "is_reserved": 0, "lon": -77.01993066666667, "is_disabled": 0, "fusion_lat": 0.0, "lat": 38.89968183333333, "bike_id": "dfe74d53d4433b0ad117af449461f15c", "fusion_lon": 0.0}, {"rental_uris": {"ios": "https://dc.lft.to/lastmile_qr_scan", "android": "https://dc.lft.to/lastmile_qr_scan"}, "type": "electric_scooter", "name": "f346bf5cecb4197968956105ef06a9e1", "is_reserved": 0, "lon": -77.009243, "is_disabled": 0, "fusion_lat": 0.0, "lat": 38.874539666666664, "bike_id": "f346bf5cecb4197968956105ef06a9e1", "fusion_lon": 0.0}, {"rental_uris": {"ios": "https://dc.lft.to/lastmile_qr_scan", "android": "https://dc.lft.to/lastmile_qr_scan"}, "type": "electric_scooter", "name": "db47fe57fdaff84722055f4688cb1806", "is_reserved": 0, "lon": -77.0425205, "is_disabled": 0, "fusion_lat": 0.0, "lat": 38.909278, "bike_id": "db47fe57fdaff84722055f4688cb1806", "fusion_lon": 0.0}, {"rental_uris": {"ios": "https://dc.lft.to/lastmile_qr_scan", "android": "https://dc.lft.to/lastmile_qr_scan"}, "type": "electric_scooter", "name": "1f612cf3839f286e8382db1253525d7f", "is_reserved": 0, "lon": -77.036588, "is_disabled": 0, "fusion_lat": 0.0, "lat": 38.92046583333333, "bike_id": "1f612cf3839f286e8382db1253525d7f", "fusion_lon": 0.0}, {"rental_uris": {"ios": "https://dc.lft.to/lastmile_qr_scan", "android": "https://dc.lft.to/lastmile_qr_scan"}, "type": "electric_scooter", "name": "8aa2e8db2a380ef9aa517ea1fd1aada7", "is_reserved": 0, "lon": -77.03166866666666, "is_disabled": 0, "fusion_lat": 0.0, "lat": 38.93861066666667, "bike_id": "8aa2e8db2a380ef9aa517ea1fd1aada7", "fusion_lon": 0.0}, {"rental_uris": {"ios": "https://dc.lft.to/lastmile_qr_scan", "android": "https://dc.lft.to/lastmile_qr_scan"}, "type": "electric_scooter", "name": "cb6433bec69b7734abfe9e14fcadb612", "is_reserved": 0, "lon": -77.0237995, "is_disabled": 0, "fusion_lat": 0.0, "lat": 38.908446833333336, "bike_id": "cb6433bec69b7734abfe9e14fcadb612", "fusion_lon": 0.0}, {"rental_uris": {"ios": "https://dc.lft.to/lastmile_qr_scan", "android": "https://dc.lft.to/lastmile_qr_scan"}, "type": "electric_bike", "name": "844330396c605d32575d14fab96e98f3", "is_reserved": 0, "lon": -76.98350266666667, "is_disabled": 0, "fusion_lat": 0.0, "lat": 38.862643166666665, "bike_id": "844330396c605d32575d14fab96e98f3", "fusion_lon": 0.0}, {"rental_uris": {"ios": "https://dc.lft.to/lastmile_qr_scan", "android": "https://dc.lft.to/lastmile_qr_scan"}, "type": "electric_scooter", "name": "33cc40c46b76a73c109fd56f8ba1be4f", "is_reserved": 0, "lon": -77.016285, "is_disabled": 0, "fusion_lat": 0.0, "lat": 38.887322, "bike_id": "33cc40c46b76a73c109fd56f8ba1be4f", "fusion_lon": 0.0}, {"rental_uris": {"ios": "https://dc.lft.to/lastmile_qr_scan", "android": "https://dc.lft.to/lastmile_qr_scan"}, "type": "electric_scooter", "name": "5aba2056be9548a9d391c9d787ba06ba", "is_reserved": 0, "lon": -77.01619883333333, "is_disabled": 0, "fusion_lat": 0.0, "lat": 38.903591166666665, "bike_id": "5aba2056be9548a9d391c9d787ba06ba", "fusion_lon": 0.0}, {"rental_uris": {"ios": "https://dc.lft.to/lastmile_qr_scan", "android": "https://dc.lft.to/lastmile_qr_scan"}, "type": "electric_scooter", "name": "85be4a12503ecf779ac483e5ecd6d045", "is_reserved": 0, "lon": -77.03635716666666, "is_disabled": 0, "fusion_lat": 0.0, "lat": 38.90338366666667, "bike_id": "85be4a12503ecf779ac483e5ecd6d045", "fusion_lon": 0.0}, {"rental_uris": {"ios": "https://dc.lft.to/lastmile_qr_scan", "android": "https://dc.lft.to/lastmile_qr_scan"}, "type": "electric_scooter", "name": "3d0b9e76a72e2ba71dea26e140a11f1a", "is_reserved": 0, "lon": -77.04134883333333, "is_disabled": 0, "fusion_lat": 0.0, "lat": 38.9225565, "bike_id": "3d0b9e76a72e2ba71dea26e140a11f1a", "fusion_lon": 0.0}, {"rental_uris": {"ios": "https://dc.lft.to/lastmile_qr_scan", "android": "https://dc.lft.to/lastmile_qr_scan"}, "type": "electric_scooter", "name": "9b3ab01bdc6483a7935b733ffbf06214", "is_reserved": 0, "lon": -77.03220533333334, "is_disabled": 0, "fusion_lat": 0.0, "lat": 38.91405183333333, "bike_id": "9b3ab01bdc6483a7935b733ffbf06214", "fusion_lon": 0.0}, {"rental_uris": {"ios": "https://dc.lft.to/lastmile_qr_scan", "android": "https://dc.lft.to/lastmile_qr_scan"}, "type": "electric_scooter", "name": "5f0f05bc18e956e851b50cff3c160d64", "is_reserved": 0, "lon": -77.01087083333333, "is_disabled": 0, "fusion_lat": 0.0, "lat": 38.9033305, "bike_id": "5f0f05bc18e956e851b50cff3c160d64", "fusion_lon": 0.0}, {"rental_uris": {"ios": "https://dc.lft.to/lastmile_qr_scan", "android": "https://dc.lft.to/lastmile_qr_scan"}, "type": "electric_scooter", "name": "546acc9a666b10c9eee27a628f0c67b0", "is_reserved": 0, "lon": -76.97715166666667, "is_disabled": 0, "fusion_lat": 0.0, "lat": 38.88823033333333, "bike_id": "546acc9a666b10c9eee27a628f0c67b0", "fusion_lon": 0.0}, {"rental_uris": {"ios": "https://dc.lft.to/lastmile_qr_scan", "android": "https://dc.lft.to/lastmile_qr_scan"}, "type": "electric_scooter", "name": "13564bcaaa8068a51a8e6656f164d831", "is_reserved": 0, "lon": -77.01743716666667, "is_disabled": 0, "fusion_lat": 0.0, "lat": 38.87701066666666, "bike_id": "13564bcaaa8068a51a8e6656f164d831", "fusion_lon": 0.0}, {"rental_uris": {"ios": "https://dc.lft.to/lastmile_qr_scan", "android": "https://dc.lft.to/lastmile_qr_scan"}, "type": "electric_bike", "name": "fdec5f22d93d520ab318faebeda9975e", "is_reserved": 0, "lon": -77.0962005, "is_disabled": 0, "fusion_lat": 0.0, "lat": 38.896548, "bike_id": "fdec5f22d93d520ab318faebeda9975e", "fusion_lon": 0.0}, {"rental_uris": {"ios": "https://dc.lft.to/lastmile_qr_scan", "android": "https://dc.lft.to/lastmile_qr_scan"}, "type": "electric_bike", "name": "d679a46cdba03d6b0d591665339c89b7", "is_reserved": 0, "lon": -77.09622816666666, "is_disabled": 0, "fusion_lat": 0.0, "lat": 38.9743605, "bike_id": "d679a46cdba03d6b0d591665339c89b7", "fusion_lon": 0.0}, {"rental_uris": {"ios": "https://dc.lft.to/lastmile_qr_scan", "android": "https://dc.lft.to/lastmile_qr_scan"}, "type": "electric_bike", "name": "f20b74ce2da28cfdd5e2020ada874ff2", "is_reserved": 0, "lon": -76.9333495, "is_disabled": 0, "fusion_lat": 0.0, "lat": 38.95152083333333, "bike_id": "f20b74ce2da28cfdd5e2020ada874ff2", "fusion_lon": 0.0}, {"rental_uris": {"ios": "https://dc.lft.to/lastmile_qr_scan", "android": "https://dc.lft.to/lastmile_qr_scan"}, "type": "electric_scooter", "name": "e856552d7be2eaa5468f360cf133609a", "is_reserved": 0, "lon": -77.0308715, "is_disabled": 0, "fusion_lat": 0.0, "lat": 38.910317666666664, "bike_id": "e856552d7be2eaa5468f360cf133609a", "fusion_lon": 0.0}, {"rental_uris": {"ios": "https://dc.lft.to/lastmile_qr_scan", "android": "https://dc.lft.to/lastmile_qr_scan"}, "type": "electric_scooter", "name": "f896c37d2fd94d87f4641341355d8589", "is_reserved": 0, "lon": -77.02384566666667, "is_disabled": 0, "fusion_lat": 0.0, "lat": 38.891987666666665, "bike_id": "f896c37d2fd94d87f4641341355d8589", "fusion_lon": 0.0}, {"rental_uris": {"ios": "https://dc.lft.to/lastmile_qr_scan", "android": "https://dc.lft.to/lastmile_qr_scan"}, "type": "electric_scooter", "name": "81e556761f0a4fd574cdf0139a2f00c6", "is_reserved": 0, "lon": -77.055377, "is_disabled": 0, "fusion_lat": 0.0, "lat": 38.91000366666667, "bike_id": "81e556761f0a4fd574cdf0139a2f00c6", "fusion_lon": 0.0}, {"rental_uris": {"ios": "https://dc.lft.to/lastmile_qr_scan", "android": "https://dc.lft.to/lastmile_qr_scan"}, "type": "electric_scooter", "name": "e0ccf7e298161a846bd737ce785b26bc", "is_reserved": 0, "lon": -77.07835483333334, "is_disabled": 0, "fusion_lat": 0.0, "lat": 38.93172116666667, "bike_id": "e0ccf7e298161a846bd737ce785b26bc", "fusion_lon": 0.0}, {"rental_uris": {"ios": "https://dc.lft.to/lastmile_qr_scan", "android": "https://dc.lft.to/lastmile_qr_scan"}, "type": "electric_scooter", "name": "487a54bbdcf8834e556bef5cfdc9aff2", "is_reserved": 0, "lon": -77.00961433333333, "is_disabled": 0, "fusion_lat": 0.0, "lat": 38.874546333333335, "bike_id": "487a54bbdcf8834e556bef5cfdc9aff2", "fusion_lon": 0.0}, {"rental_uris": {"ios": "https://dc.lft.to/lastmile_qr_scan", "android": "https://dc.lft.to/lastmile_qr_scan"}, "type": "electric_scooter", "name": "0ec149662e145d713225d4a5f69de61b", "is_reserved": 0, "lon": -77.04013066666667, "is_disabled": 0, "fusion_lat": 0.0, "lat": 38.922435666666665, "bike_id": "0ec149662e145d713225d4a5f69de61b", "fusion_lon": 0.0}, {"rental_uris": {"ios": "https://dc.lft.to/lastmile_qr_scan", "android": "https://dc.lft.to/lastmile_qr_scan"}, "type": "electric_scooter", "name": "db6e12e64cf60dfa0b2a9e56fc11448a", "is_reserved": 0, "lon": -76.93184783333334, "is_disabled": 0, "fusion_lat": 0.0, "lat": 38.898760833333334, "bike_id": "db6e12e64cf60dfa0b2a9e56fc11448a", "fusion_lon": 0.0}, {"rental_uris": {"ios": "https://dc.lft.to/lastmile_qr_scan", "android": "https://dc.lft.to/lastmile_qr_scan"}, "type": "electric_scooter", "name": "9061ed08ff5aa54bbddc6d094295585f", "is_reserved": 0, "lon": -77.05166833333334, "is_disabled": 0, "fusion_lat": 0.0, "lat": 38.903224, "bike_id": "9061ed08ff5aa54bbddc6d094295585f", "fusion_lon": 0.0}, {"rental_uris": {"ios": "https://dc.lft.to/lastmile_qr_scan", "android": "https://dc.lft.to/lastmile_qr_scan"}, "type": "electric_scooter", "name": "d6ede9fd7929624c8bc219e7af839326", "is_reserved": 0, "lon": -77.0698475, "is_disabled": 0, "fusion_lat": 0.0, "lat": 38.9552685, "bike_id": "d6ede9fd7929624c8bc219e7af839326", "fusion_lon": 0.0}, {"rental_uris": {"ios": "https://dc.lft.to/lastmile_qr_scan", "android": "https://dc.lft.to/lastmile_qr_scan"}, "type": "electric_scooter", "name": "ef00f52efc58ca99539eb1da3864ff23", "is_reserved": 0, "lon": -77.0035725, "is_disabled": 0, "fusion_lat": 0.0, "lat": 38.8992995, "bike_id": "ef00f52efc58ca99539eb1da3864ff23", "fusion_lon": 0.0}, {"rental_uris": {"ios": "https://dc.lft.to/lastmile_qr_scan", "android": "https://dc.lft.to/lastmile_qr_scan"}, "type": "electric_scooter", "name": "8e7338cad9100894f5a41b2ad5b8ace0", "is_reserved": 0, "lon": -77.01724483333334, "is_disabled": 0, "fusion_lat": 0.0, "lat": 38.90560333333333, "bike_id": "8e7338cad9100894f5a41b2ad5b8ace0", "fusion_lon": 0.0}, {"rental_uris": {"ios": "https://dc.lft.to/lastmile_qr_scan", "android": "https://dc.lft.to/lastmile_qr_scan"}, "type": "electric_scooter", "name": "7764a9f5527f497a603c6f8c0c2bf6e9", "is_reserved": 0, "lon": -77.01017066666667, "is_disabled": 0, "fusion_lat": 0.0, "lat": 38.9125885, "bike_id": "7764a9f5527f497a603c6f8c0c2bf6e9", "fusion_lon": 0.0}, {"rental_uris": {"ios": "https://dc.lft.to/lastmile_qr_scan", "android": "https://dc.lft.to/lastmile_qr_scan"}, "type": "electric_scooter", "name": "50847a0eca5fc3bf7507dd6107921864", "is_reserved": 0, "lon": -77.032151, "is_disabled": 0, "fusion_lat": 0.0, "lat": 38.916327, "bike_id": "50847a0eca5fc3bf7507dd6107921864", "fusion_lon": 0.0}, {"rental_uris": {"ios": "https://dc.lft.to/lastmile_qr_scan", "android": "https://dc.lft.to/lastmile_qr_scan"}, "type": "electric_scooter", "name": "0981c71b54a1aae7009517183759a050", "is_reserved": 0, "lon": -77.01796266666666, "is_disabled": 0, "fusion_lat": 0.0, "lat": 38.905232, "bike_id": "0981c71b54a1aae7009517183759a050", "fusion_lon": 0.0}, {"rental_uris": {"ios": "https://dc.lft.to/lastmile_qr_scan", "android": "https://dc.lft.to/lastmile_qr_scan"}, "type": "electric_scooter", "name": "c17efbb16d6f1d9b100c4811e674b58c", "is_reserved": 0, "lon": -77.02183816666667, "is_disabled": 0, "fusion_lat": 0.0, "lat": 38.910444166666665, "bike_id": "c17efbb16d6f1d9b100c4811e674b58c", "fusion_lon": 0.0}, {"rental_uris": {"ios": "https://dc.lft.to/lastmile_qr_scan", "android": "https://dc.lft.to/lastmile_qr_scan"}, "type": "electric_scooter", "name": "5450b894359175f71faebbf241cc3a93", "is_reserved": 0, "lon": -77.0473505, "is_disabled": 0, "fusion_lat": 0.0, "lat": 38.8955205, "bike_id": "5450b894359175f71faebbf241cc3a93", "fusion_lon": 0.0}, {"rental_uris": {"ios": "https://dc.lft.to/lastmile_qr_scan", "android": "https://dc.lft.to/lastmile_qr_scan"}, "type": "electric_scooter", "name": "d0d13c41005d68f9ffd7640cef63d82d", "is_reserved": 0, "lon": -77.02392133333333, "is_disabled": 0, "fusion_lat": 0.0, "lat": 38.9165545, "bike_id": "d0d13c41005d68f9ffd7640cef63d82d", "fusion_lon": 0.0}, {"rental_uris": {"ios": "https://dc.lft.to/lastmile_qr_scan", "android": "https://dc.lft.to/lastmile_qr_scan"}, "type": "electric_scooter", "name": "b7d8fa74944fb588107795cb51fdaf38", "is_reserved": 0, "lon": -77.02138883333333, "is_disabled": 0, "fusion_lat": 0.0, "lat": 38.927405, "bike_id": "b7d8fa74944fb588107795cb51fdaf38", "fusion_lon": 0.0}, {"rental_uris": {"ios": "https://dc.lft.to/lastmile_qr_scan", "android": "https://dc.lft.to/lastmile_qr_scan"}, "type": "electric_scooter", "name": "aa62b6d11df4967bdcba31e287aa49e4", "is_reserved": 0, "lon": -77.02051666666667, "is_disabled": 0, "fusion_lat": 0.0, "lat": 38.9292755, "bike_id": "aa62b6d11df4967bdcba31e287aa49e4", "fusion_lon": 0.0}, {"rental_uris": {"ios": "https://dc.lft.to/lastmile_qr_scan", "android": "https://dc.lft.to/lastmile_qr_scan"}, "type": "electric_scooter", "name": "b4af2c5e43dd7aa86e164de0fd923033", "is_reserved": 0, "lon": -77.03472, "is_disabled": 0, "fusion_lat": 0.0, "lat": 38.9118125, "bike_id": "b4af2c5e43dd7aa86e164de0fd923033", "fusion_lon": 0.0}, {"rental_uris": {"ios": "https://dc.lft.to/lastmile_qr_scan", "android": "https://dc.lft.to/lastmile_qr_scan"}, "type": "electric_scooter", "name": "bfd3d7e7c4a893c2441957655b4c3be3", "is_reserved": 0, "lon": -77.00244616666667, "is_disabled": 0, "fusion_lat": 0.0, "lat": 38.90013966666667, "bike_id": "bfd3d7e7c4a893c2441957655b4c3be3", "fusion_lon": 0.0}, {"rental_uris": {"ios": "https://dc.lft.to/lastmile_qr_scan", "android": "https://dc.lft.to/lastmile_qr_scan"}, "type": "electric_scooter", "name": "23f148cd251ca8ed734a09f8f8556e96", "is_reserved": 0, "lon": -77.0253075, "is_disabled": 0, "fusion_lat": 0.0, "lat": 38.94533366666667, "bike_id": "23f148cd251ca8ed734a09f8f8556e96", "fusion_lon": 0.0}, {"rental_uris": {"ios": "https://dc.lft.to/lastmile_qr_scan", "android": "https://dc.lft.to/lastmile_qr_scan"}, "type": "electric_scooter", "name": "e46cb0662768b4171cfdaf624c1c23c2", "is_reserved": 0, "lon": -77.03751233333334, "is_disabled": 0, "fusion_lat": 0.0, "lat": 38.931969, "bike_id": "e46cb0662768b4171cfdaf624c1c23c2", "fusion_lon": 0.0}, {"rental_uris": {"ios": "https://dc.lft.to/lastmile_qr_scan", "android": "https://dc.lft.to/lastmile_qr_scan"}, "type": "electric_scooter", "name": "b1639323a563713468449829b65f48fe", "is_reserved": 0, "lon": -77.03376216666666, "is_disabled": 0, "fusion_lat": 0.0, "lat": 38.90984366666667, "bike_id": "b1639323a563713468449829b65f48fe", "fusion_lon": 0.0}, {"rental_uris": {"ios": "https://dc.lft.to/lastmile_qr_scan", "android": "https://dc.lft.to/lastmile_qr_scan"}, "type": "electric_scooter", "name": "c00c8aea17ef1be20625e8451e6406f3", "is_reserved": 0, "lon": -76.98894116666666, "is_disabled": 0, "fusion_lat": 0.0, "lat": 38.9065135, "bike_id": "c00c8aea17ef1be20625e8451e6406f3", "fusion_lon": 0.0}, {"rental_uris": {"ios": "https://dc.lft.to/lastmile_qr_scan", "android": "https://dc.lft.to/lastmile_qr_scan"}, "type": "electric_scooter", "name": "286d2b15d326ceaf0851bac0cfd9e30e", "is_reserved": 0, "lon": -77.021532, "is_disabled": 0, "fusion_lat": 0.0, "lat": 38.8874305, "bike_id": "286d2b15d326ceaf0851bac0cfd9e30e", "fusion_lon": 0.0}, {"rental_uris": {"ios": "https://dc.lft.to/lastmile_qr_scan", "android": "https://dc.lft.to/lastmile_qr_scan"}, "type": "electric_scooter", "name": "6b8c98f4bf123d82ea5c1d08e8a73159", "is_reserved": 0, "lon": -76.92658916666667, "is_disabled": 0, "fusion_lat": 0.0, "lat": 38.882496, "bike_id": "6b8c98f4bf123d82ea5c1d08e8a73159", "fusion_lon": 0.0}, {"rental_uris": {"ios": "https://dc.lft.to/lastmile_qr_scan", "android": "https://dc.lft.to/lastmile_qr_scan"}, "type": "electric_bike", "name": "6f2d07e13fa849c87a656df7bbc11802", "is_reserved": 0, "lon": -76.99356916666666, "is_disabled": 0, "fusion_lat": 0.0, "lat": 38.83672033333333, "bike_id": "6f2d07e13fa849c87a656df7bbc11802", "fusion_lon": 0.0}, {"rental_uris": {"ios": "https://dc.lft.to/lastmile_qr_scan", "android": "https://dc.lft.to/lastmile_qr_scan"}, "type": "electric_scooter", "name": "671cf371e7f402b825be78cfe4e6bdde", "is_reserved": 0, "lon": -77.0485495, "is_disabled": 0, "fusion_lat": 0.0, "lat": 38.912669333333334, "bike_id": "671cf371e7f402b825be78cfe4e6bdde", "fusion_lon": 0.0}, {"rental_uris": {"ios": "https://dc.lft.to/lastmile_qr_scan", "android": "https://dc.lft.to/lastmile_qr_scan"}, "type": "electric_scooter", "name": "1dae427a3c97a4090a6f256ee677e32b", "is_reserved": 0, "lon": -77.003124, "is_disabled": 0, "fusion_lat": 0.0, "lat": 38.907408, "bike_id": "1dae427a3c97a4090a6f256ee677e32b", "fusion_lon": 0.0}, {"rental_uris": {"ios": "https://dc.lft.to/lastmile_qr_scan", "android": "https://dc.lft.to/lastmile_qr_scan"}, "type": "electric_bike", "name": "8207f5d605f088159c3c3232b0f54565", "is_reserved": 0, "lon": -76.95743116666667, "is_disabled": 0, "fusion_lat": 0.0, "lat": 38.888561833333334, "bike_id": "8207f5d605f088159c3c3232b0f54565", "fusion_lon": 0.0}, {"rental_uris": {"ios": "https://dc.lft.to/lastmile_qr_scan", "android": "https://dc.lft.to/lastmile_qr_scan"}, "type": "electric_bike", "name": "e4ef65d8238fc33da38685e8c2cd47ee", "is_reserved": 0, "lon": -77.08979433333333, "is_disabled": 0, "fusion_lat": 0.0, "lat": 38.84091383333333, "bike_id": "e4ef65d8238fc33da38685e8c2cd47ee", "fusion_lon": 0.0}, {"rental_uris": {"ios": "https://dc.lft.to/lastmile_qr_scan", "android": "https://dc.lft.to/lastmile_qr_scan"}, "type": "electric_scooter", "name": "86376d7b4d651011408b35741df08bd7", "is_reserved": 0, "lon": -77.00517466666666, "is_disabled": 0, "fusion_lat": 0.0, "lat": 38.896764833333336, "bike_id": "86376d7b4d651011408b35741df08bd7", "fusion_lon": 0.0}, {"rental_uris": {"ios": "https://dc.lft.to/lastmile_qr_scan", "android": "https://dc.lft.to/lastmile_qr_scan"}, "type": "electric_scooter", "name": "0a4d413888777217b8ba358a51fc1c8a", "is_reserved": 0, "lon": -77.030575, "is_disabled": 0, "fusion_lat": 0.0, "lat": 38.89732933333333, "bike_id": "0a4d413888777217b8ba358a51fc1c8a", "fusion_lon": 0.0}, {"rental_uris": {"ios": "https://dc.lft.to/lastmile_qr_scan", "android": "https://dc.lft.to/lastmile_qr_scan"}, "type": "electric_bike", "name": "de376326603899fff2d600b43d86f123", "is_reserved": 0, "lon": -77.08208233333333, "is_disabled": 0, "fusion_lat": 0.0, "lat": 38.9220765, "bike_id": "de376326603899fff2d600b43d86f123", "fusion_lon": 0.0}, {"rental_uris": {"ios": "https://dc.lft.to/lastmile_qr_scan", "android": "https://dc.lft.to/lastmile_qr_scan"}, "type": "electric_scooter", "name": "f3fe1b6d9cb3e5783ff0b3751e6e286f", "is_reserved": 0, "lon": -77.04360383333334, "is_disabled": 0, "fusion_lat": 0.0, "lat": 38.9014045, "bike_id": "f3fe1b6d9cb3e5783ff0b3751e6e286f", "fusion_lon": 0.0}, {"rental_uris": {"ios": "https://dc.lft.to/lastmile_qr_scan", "android": "https://dc.lft.to/lastmile_qr_scan"}, "type": "electric_scooter", "name": "ef1b4b05bece8b10f5d3543afa68b5bb", "is_reserved": 0, "lon": -77.028454, "is_disabled": 0, "fusion_lat": 0.0, "lat": 38.904481833333335, "bike_id": "ef1b4b05bece8b10f5d3543afa68b5bb", "fusion_lon": 0.0}, {"rental_uris": {"ios": "https://dc.lft.to/lastmile_qr_scan", "android": "https://dc.lft.to/lastmile_qr_scan"}, "type": "electric_scooter", "name": "9ac55fea54fe54cfd5860443eb17df7b", "is_reserved": 0, "lon": -77.03839383333333, "is_disabled": 0, "fusion_lat": 0.0, "lat": 38.91002533333333, "bike_id": "9ac55fea54fe54cfd5860443eb17df7b", "fusion_lon": 0.0}, {"rental_uris": {"ios": "https://dc.lft.to/lastmile_qr_scan", "android": "https://dc.lft.to/lastmile_qr_scan"}, "type": "electric_scooter", "name": "b32cf0b59ee8deeba52f82c4e9c9937a", "is_reserved": 0, "lon": -77.04153383333333, "is_disabled": 0, "fusion_lat": 0.0, "lat": 38.906157666666665, "bike_id": "b32cf0b59ee8deeba52f82c4e9c9937a", "fusion_lon": 0.0}, {"rental_uris": {"ios": "https://dc.lft.to/lastmile_qr_scan", "android": "https://dc.lft.to/lastmile_qr_scan"}, "type": "electric_scooter", "name": "310762f6833e720994e5babb1a6ec7f3", "is_reserved": 0, "lon": -76.9471375, "is_disabled": 0, "fusion_lat": 0.0, "lat": 38.890821333333335, "bike_id": "310762f6833e720994e5babb1a6ec7f3", "fusion_lon": 0.0}, {"rental_uris": {"ios": "https://dc.lft.to/lastmile_qr_scan", "android": "https://dc.lft.to/lastmile_qr_scan"}, "type": "electric_scooter", "name": "af228f84a6e8e67e4016e95de3981933", "is_reserved": 0, "lon": -76.98356016666666, "is_disabled": 0, "fusion_lat": 0.0, "lat": 38.88732133333333, "bike_id": "af228f84a6e8e67e4016e95de3981933", "fusion_lon": 0.0}, {"rental_uris": {"ios": "https://dc.lft.to/lastmile_qr_scan", "android": "https://dc.lft.to/lastmile_qr_scan"}, "type": "electric_scooter", "name": "0e5c2d84b35c0f59793ddc35a5dab9d7", "is_reserved": 0, "lon": -77.0021165, "is_disabled": 0, "fusion_lat": 0.0, "lat": 38.90803966666667, "bike_id": "0e5c2d84b35c0f59793ddc35a5dab9d7", "fusion_lon": 0.0}, {"rental_uris": {"ios": "https://dc.lft.to/lastmile_qr_scan", "android": "https://dc.lft.to/lastmile_qr_scan"}, "type": "electric_scooter", "name": "57e34d34bb4bca6d0aa72fb05d588583", "is_reserved": 0, "lon": -77.02073733333333, "is_disabled": 0, "fusion_lat": 0.0, "lat": 38.93023016666667, "bike_id": "57e34d34bb4bca6d0aa72fb05d588583", "fusion_lon": 0.0}, {"rental_uris": {"ios": "https://dc.lft.to/lastmile_qr_scan", "android": "https://dc.lft.to/lastmile_qr_scan"}, "type": "electric_scooter", "name": "bcf8119b1314b7c2289d085aeae9b3c3", "is_reserved": 0, "lon": -77.05974566666667, "is_disabled": 0, "fusion_lat": 0.0, "lat": 38.902317333333336, "bike_id": "bcf8119b1314b7c2289d085aeae9b3c3", "fusion_lon": 0.0}, {"rental_uris": {"ios": "https://dc.lft.to/lastmile_qr_scan", "android": "https://dc.lft.to/lastmile_qr_scan"}, "type": "electric_bike", "name": "e132a8aa3075192017e7db9164b782f4", "is_reserved": 0, "lon": -76.96332833333334, "is_disabled": 0, "fusion_lat": 0.0, "lat": 38.938930666666664, "bike_id": "e132a8aa3075192017e7db9164b782f4", "fusion_lon": 0.0}, {"rental_uris": {"ios": "https://dc.lft.to/lastmile_qr_scan", "android": "https://dc.lft.to/lastmile_qr_scan"}, "type": "electric_scooter", "name": "b47467d13eae3782db8ee17b4685c49e", "is_reserved": 0, "lon": -77.04240233333333, "is_disabled": 0, "fusion_lat": 0.0, "lat": 38.903739333333334, "bike_id": "b47467d13eae3782db8ee17b4685c49e", "fusion_lon": 0.0}, {"rental_uris": {"ios": "https://dc.lft.to/lastmile_qr_scan", "android": "https://dc.lft.to/lastmile_qr_scan"}, "type": "electric_scooter", "name": "22820f05f3027498f2b5bac16e5d3814", "is_reserved": 0, "lon": -76.99615333333334, "is_disabled": 0, "fusion_lat": 0.0, "lat": 38.887167833333336, "bike_id": "22820f05f3027498f2b5bac16e5d3814", "fusion_lon": 0.0}, {"rental_uris": {"ios": "https://dc.lft.to/lastmile_qr_scan", "android": "https://dc.lft.to/lastmile_qr_scan"}, "type": "electric_scooter", "name": "dbe96280af8cb18bc5402fd90dfa9123", "is_reserved": 0, "lon": -77.01852133333334, "is_disabled": 0, "fusion_lat": 0.0, "lat": 38.91504533333333, "bike_id": "dbe96280af8cb18bc5402fd90dfa9123", "fusion_lon": 0.0}, {"rental_uris": {"ios": "https://dc.lft.to/lastmile_qr_scan", "android": "https://dc.lft.to/lastmile_qr_scan"}, "type": "electric_scooter", "name": "33344072072c7e161adc0ea3c76eb22e", "is_reserved": 0, "lon": -77.002085, "is_disabled": 0, "fusion_lat": 0.0, "lat": 38.90755716666666, "bike_id": "33344072072c7e161adc0ea3c76eb22e", "fusion_lon": 0.0}, {"rental_uris": {"ios": "https://dc.lft.to/lastmile_qr_scan", "android": "https://dc.lft.to/lastmile_qr_scan"}, "type": "electric_scooter", "name": "f7fe4ea39bd398977f53f4e2fc477be2", "is_reserved": 0, "lon": -77.05131083333333, "is_disabled": 0, "fusion_lat": 0.0, "lat": 38.902368, "bike_id": "f7fe4ea39bd398977f53f4e2fc477be2", "fusion_lon": 0.0}, {"rental_uris": {"ios": "https://dc.lft.to/lastmile_qr_scan", "android": "https://dc.lft.to/lastmile_qr_scan"}, "type": "electric_scooter", "name": "49689ef7d7f90ca970f3efa48253bcde", "is_reserved": 0, "lon": -77.0441525, "is_disabled": 0, "fusion_lat": 0.0, "lat": 38.911317333333336, "bike_id": "49689ef7d7f90ca970f3efa48253bcde", "fusion_lon": 0.0}, {"rental_uris": {"ios": "https://dc.lft.to/lastmile_qr_scan", "android": "https://dc.lft.to/lastmile_qr_scan"}, "type": "electric_scooter", "name": "0f7b04a6f9a046cf724b1d2182b3b244", "is_reserved": 0, "lon": -76.99347066666667, "is_disabled": 0, "fusion_lat": 0.0, "lat": 38.9001425, "bike_id": "0f7b04a6f9a046cf724b1d2182b3b244", "fusion_lon": 0.0}, {"rental_uris": {"ios": "https://dc.lft.to/lastmile_qr_scan", "android": "https://dc.lft.to/lastmile_qr_scan"}, "type": "electric_scooter", "name": "26dabeb388dae98e24dbd4f28c3d8044", "is_reserved": 0, "lon": -76.9956015, "is_disabled": 0, "fusion_lat": 0.0, "lat": 38.903677, "bike_id": "26dabeb388dae98e24dbd4f28c3d8044", "fusion_lon": 0.0}, {"rental_uris": {"ios": "https://dc.lft.to/lastmile_qr_scan", "android": "https://dc.lft.to/lastmile_qr_scan"},