{"data": {"bikes": [{"name": "a3d6b79fb97e8d92bbacd7cc2ac8bde1", "fusion_lat": 0.0, "type": "electric_scooter", "lat": 38.913939, "is_reserved": 0, "is_disabled": 0, "fusion_lon": 0.0, "bike_id": "a3d6b79fb97e8d92bbacd7cc2ac8bde1", "lon": -77.04168083333333, "rental_uris": {"ios": "https://dc.lft.to/lastmile_qr_scan", "android": "https://dc.lft.to/lastmile_qr_scan"}}, {"name": "8c88aff0efb66a92125774e351fbd852", "fusion_lat": 0.0, "type": "electric_scooter", "lat": 38.90045666666666, "is_reserved": 0, "is_disabled": 0, "fusion_lon": 0.0, "bike_id": "8c88aff0efb66a92125774e351fbd852", "lon": -76.98828383333333, "rental_uris": {"ios": "https://dc.lft.to/lastmile_qr_scan", "android": "https://dc.lft.to/lastmile_qr_scan"}}, {"name": "57b1ed00ab07d18b07911463976c74c7", "fusion_lat": 0.0, "type": "electric_scooter", "lat": 38.879155833333336, "is_reserved": 0, "is_disabled": 0, "fusion_lon": 0.0, "bike_id": "57b1ed00ab07d18b07911463976c74c7", "lon": -76.99507983333334, "rental_uris": {"ios": "https://dc.lft.to/lastmile_qr_scan", "android": "https://dc.lft.to/lastmile_qr_scan"}}, {"name": "c446521ddfa7dfc7e5b22a3dae79ddab", "fusion_lat": 0.0, "type": "electric_bike", "lat": 38.88401783333333, "is_reserved": 0, "is_disabled": 0, "fusion_lon": 0.0, "bike_id": "c446521ddfa7dfc7e5b22a3dae79ddab", "lon": -76.96063816666667, "rental_uris": {"ios": "https://dc.lft.to/lastmile_qr_scan", "android": "https://dc.lft.to/lastmile_qr_scan"}}, {"name": "ba6f4ac204420a097742c30885806d16", "fusion_lat": 0.0, "type": "electric_scooter", "lat": 38.937048833333336, "is_reserved": 0, "is_disabled": 0, "fusion_lon": 0.0, "bike_id": "ba6f4ac204420a097742c30885806d16", "lon": -77.06102483333333, "rental_uris": {"ios": "https://dc.lft.to/lastmile_qr_scan", "android": "https://dc.lft.to/lastmile_qr_scan"}}, {"name": "b7f95792b1d7d7deb9d5e86eeab5b79d", "fusion_lat": 0.0, "type": "electric_scooter", "lat": 38.91004266666667, "is_reserved": 0, "is_disabled": 0, "fusion_lon": 0.0, "bike_id": "b7f95792b1d7d7deb9d5e86eeab5b79d", "lon": -76.9968715, "rental_uris": {"ios": "https://dc.lft.to/lastmile_qr_scan", "android": "https://dc.lft.to/lastmile_qr_scan"}}, {"name": "4bd4736c60384e39a2a8347496cc460e", "fusion_lat": 0.0, "type": "electric_scooter", "lat": 38.900423333333336, "is_reserved": 0, "is_disabled": 0, "fusion_lon": 0.0, "bike_id": "4bd4736c60384e39a2a8347496cc460e", "lon": -77.04853516666667, "rental_uris": {"ios": "https://dc.lft.to/lastmile_qr_scan", "android": "https://dc.lft.to/lastmile_qr_scan"}}, {"name": "f8cd798b6f0fc41323a60efffd29c7d6", "fusion_lat": 0.0, "type": "electric_scooter", "lat": 38.90028016666667, "is_reserved": 0, "is_disabled": 0, "fusion_lon": 0.0, "bike_id": "f8cd798b6f0fc41323a60efffd29c7d6", "lon": -77.00206283333333, "rental_uris": {"ios": "https://dc.lft.to/lastmile_qr_scan", "android": "https://dc.lft.to/lastmile_qr_scan"}}, {"name": "c17826ca6ac60f045dadbfae7acc0655", "fusion_lat": 0.0, "type": "electric_bike", "lat": 38.87545883333333, "is_reserved": 0, "is_disabled": 0, "fusion_lon": 0.0, "bike_id": "c17826ca6ac60f045dadbfae7acc0655", "lon": -76.96756216666667, "rental_uris": {"ios": "https://dc.lft.to/lastmile_qr_scan", "android": "https://dc.lft.to/lastmile_qr_scan"}}, {"name": "ba3a434cbc68c38fd637b012c72c9179", "fusion_lat": 0.0, "type": "electric_scooter", "lat": 38.91807266666667, "is_reserved": 0, "is_disabled": 0, "fusion_lon": 0.0, "bike_id": "ba3a434cbc68c38fd637b012c72c9179", "lon": -77.031803, "rental_uris": {"ios": "https://dc.lft.to/lastmile_qr_scan", "android": "https://dc.lft.to/lastmile_qr_scan"}}, {"name": "fdfecb4ddf24d2aa9cef9f81deeba0bd", "fusion_lat": 0.0, "type": "electric_scooter", "lat": 38.909530833333335, "is_reserved": 0, "is_disabled": 0, "fusion_lon": 0.0, "bike_id": "fdfecb4ddf24d2aa9cef9f81deeba0bd", "lon": -77.04057666666667, "rental_uris": {"ios": "https://dc.lft.to/lastmile_qr_scan", "android": "https://dc.lft.to/lastmile_qr_scan"}}, {"name": "a8d9da203caa28a0c146cd0a7a386fae", "fusion_lat": 0.0, "type": "electric_scooter", "lat": 38.932532333333334, "is_reserved": 0, "is_disabled": 0, "fusion_lon": 0.0, "bike_id": "a8d9da203caa28a0c146cd0a7a386fae", "lon": -77.0401045, "rental_uris": {"ios": "https://dc.lft.to/lastmile_qr_scan", "android": "https://dc.lft.to/lastmile_qr_scan"}}, {"name": "ebae251b5b3d24928dcb4f4366452e4e", "fusion_lat": 0.0, "type": "electric_scooter", "lat": 38.90260883333333, "is_reserved": 0, "is_disabled": 0, "fusion_lon": 0.0, "bike_id": "ebae251b5b3d24928dcb4f4366452e4e", "lon": -77.01800883333334, "rental_uris": {"ios": "https://dc.lft.to/lastmile_qr_scan", "android": "https://dc.lft.to/lastmile_qr_scan"}}, {"name": "03ae3178a94f01139a9ec624ac5eea46", "fusion_lat": 0.0, "type": "electric_scooter", "lat": 38.900146666666664, "is_reserved": 0, "is_disabled": 0, "fusion_lon": 0.0, "bike_id": "03ae3178a94f01139a9ec624ac5eea46", "lon": -77.011087, "rental_uris": {"ios": "https://dc.lft.to/lastmile_qr_scan", "android": "https://dc.lft.to/lastmile_qr_scan"}}, {"name": "9535f05dabc0a2ba74160f931d52f681", "fusion_lat": 0.0, "type": "electric_bike", "lat": 38.9496755, "is_reserved": 0, "is_disabled": 0, "fusion_lon": 0.0, "bike_id": "9535f05dabc0a2ba74160f931d52f681", "lon": -76.9728735, "rental_uris": {"ios": "https://dc.lft.to/lastmile_qr_scan", "android": "https://dc.lft.to/lastmile_qr_scan"}}, {"name": "10e8e7d3ca93cfe69814dcb4c9ee4275", "fusion_lat": 0.0, "type": "electric_scooter", "lat": 38.9000105, "is_reserved": 0, "is_disabled": 0, "fusion_lon": 0.0, "bike_id": "10e8e7d3ca93cfe69814dcb4c9ee4275", "lon": -76.99686016666666, "rental_uris": {"ios": "https://dc.lft.to/lastmile_qr_scan", "android": "https://dc.lft.to/lastmile_qr_scan"}}, {"name": "ee5a361de6cfde0701c70e310ef4a8e3", "fusion_lat": 0.0, "type": "electric_scooter", "lat": 38.913449166666666, "is_reserved": 0, "is_disabled": 0, "fusion_lon": 0.0, "bike_id": "ee5a361de6cfde0701c70e310ef4a8e3", "lon": -77.00346133333333, "rental_uris": {"ios": "https://dc.lft.to/lastmile_qr_scan", "android": "https://dc.lft.to/lastmile_qr_scan"}}, {"name": "740f050031b6c7c13a0e8e07a425bd5a", "fusion_lat": 0.0, "type": "electric_scooter", "lat": 38.929663166666664, "is_reserved": 0, "is_disabled": 0, "fusion_lon": 0.0, "bike_id": "740f050031b6c7c13a0e8e07a425bd5a", "lon": -77.01969233333334, "rental_uris": {"ios": "https://dc.lft.to/lastmile_qr_scan", "android": "https://dc.lft.to/lastmile_qr_scan"}}, {"name": "55e3280ab2879cb6832eed24d0640920", "fusion_lat": 0.0, "type": "electric_scooter", "lat": 38.938202833333335, "is_reserved": 0, "is_disabled": 0, "fusion_lon": 0.0, "bike_id": "55e3280ab2879cb6832eed24d0640920", "lon": -77.024681, "rental_uris": {"ios": "https://dc.lft.to/lastmile_qr_scan", "android": "https://dc.lft.to/lastmile_qr_scan"}}, {"name": "2cd72cbe511d5228025ec23f6f794e56", "fusion_lat": 0.0, "type": "electric_scooter", "lat": 38.9063675, "is_reserved": 0, "is_disabled": 0, "fusion_lon": 0.0, "bike_id": "2cd72cbe511d5228025ec23f6f794e56", "lon": -77.00588683333334, "rental_uris": {"ios": "https://dc.lft.to/lastmile_qr_scan", "android": "https://dc.lft.to/lastmile_qr_scan"}}, {"name": "16a2b1fcb9da42d02491aeea75be1d60", "fusion_lat": 0.0, "type": "electric_scooter", "lat": 38.905756, "is_reserved": 0, "is_disabled": 0, "fusion_lon": 0.0, "bike_id": "16a2b1fcb9da42d02491aeea75be1d60", "lon": -77.02425966666667, "rental_uris": {"ios": "https://dc.lft.to/lastmile_qr_scan", "android": "https://dc.lft.to/lastmile_qr_scan"}}, {"name": "538ccac7905529bff0bdc1ffd251636a", "fusion_lat": 0.0, "type": "electric_scooter", "lat": 38.917131166666664, "is_reserved": 0, "is_disabled": 0, "fusion_lon": 0.0, "bike_id": "538ccac7905529bff0bdc1ffd251636a", "lon": -77.03558716666667, "rental_uris": {"ios": "https://dc.lft.to/lastmile_qr_scan", "android": "https://dc.lft.to/lastmile_qr_scan"}}, {"name": "602d3e03a0c997aeea8e8dda00078ba7", "fusion_lat": 0.0, "type": "electric_scooter", "lat": 38.917724, "is_reserved": 0, "is_disabled": 0, "fusion_lon": 0.0, "bike_id": "602d3e03a0c997aeea8e8dda00078ba7", "lon": -77.0475465, "rental_uris": {"ios": "https://dc.lft.to/lastmile_qr_scan", "android": "https://dc.lft.to/lastmile_qr_scan"}}, {"name": "285b8ac6e53b10455d9681b4b6441b25", "fusion_lat": 0.0, "type": "electric_scooter", "lat": 38.922375833333334, "is_reserved": 0, "is_disabled": 0, "fusion_lon": 0.0, "bike_id": "285b8ac6e53b10455d9681b4b6441b25", "lon": -77.0299015, "rental_uris": {"ios": "https://dc.lft.to/lastmile_qr_scan", "android": "https://dc.lft.to/lastmile_qr_scan"}}, {"name": "f81a239293d51890a77af767dedd02c0", "fusion_lat": 0.0, "type": "electric_scooter", "lat": 38.8922265, "is_reserved": 0, "is_disabled": 0, "fusion_lon": 0.0, "bike_id": "f81a239293d51890a77af767dedd02c0", "lon": -77.013754, "rental_uris": {"ios": "https://dc.lft.to/lastmile_qr_scan", "android": "https://dc.lft.to/lastmile_qr_scan"}}, {"name": "5be6b4a2e9bbcad8af0369e1ae0c7883", "fusion_lat": 0.0, "type": "electric_scooter", "lat": 38.878123, "is_reserved": 0, "is_disabled": 0, "fusion_lon": 0.0, "bike_id": "5be6b4a2e9bbcad8af0369e1ae0c7883", "lon": -77.0035165, "rental_uris": {"ios": "https://dc.lft.to/lastmile_qr_scan", "android": "https://dc.lft.to/lastmile_qr_scan"}}, {"name": "c33ac63bb79c2c33518525a8fc7b7fe8", "fusion_lat": 0.0, "type": "electric_scooter", "lat": 38.91271966666667, "is_reserved": 0, "is_disabled": 0, "fusion_lon": 0.0, "bike_id": "c33ac63bb79c2c33518525a8fc7b7fe8", "lon": -77.04159683333333, "rental_uris": {"ios": "https://dc.lft.to/lastmile_qr_scan", "android": "https://dc.lft.to/lastmile_qr_scan"}}, {"name": "1327570c8a7185e3b4a1dd54407ef041", "fusion_lat": 0.0, "type": "electric_scooter", "lat": 38.918183166666665, "is_reserved": 0, "is_disabled": 0, "fusion_lon": 0.0, "bike_id": "1327570c8a7185e3b4a1dd54407ef041", "lon": -77.03676683333333, "rental_uris": {"ios": "https://dc.lft.to/lastmile_qr_scan", "android": "https://dc.lft.to/lastmile_qr_scan"}}, {"name": "f08f72238623401e1b8b6410c7f1ed3e", "fusion_lat": 0.0, "type": "electric_scooter", "lat": 38.901983333333334, "is_reserved": 0, "is_disabled": 0, "fusion_lon": 0.0, "bike_id": "f08f72238623401e1b8b6410c7f1ed3e", "lon": -77.0218725, "rental_uris": {"ios": "https://dc.lft.to/lastmile_qr_scan", "android": "https://dc.lft.to/lastmile_qr_scan"}}, {"name": "ce9fd066ca4a98c58e5b3f5768f63427", "fusion_lat": 0.0, "type": "electric_scooter", "lat": 38.910192333333335, "is_reserved": 0, "is_disabled": 0, "fusion_lon": 0.0, "bike_id": "ce9fd066ca4a98c58e5b3f5768f63427", "lon": -77.04443416666666, "rental_uris": {"ios": "https://dc.lft.to/lastmile_qr_scan", "android": "https://dc.lft.to/lastmile_qr_scan"}}, {"name": "f7d91920f1d6dd7ee19ae4530784c5db", "fusion_lat": 0.0, "type": "electric_scooter", "lat": 38.9051795, "is_reserved": 0, "is_disabled": 0, "fusion_lon": 0.0, "bike_id": "f7d91920f1d6dd7ee19ae4530784c5db", "lon": -77.06890183333333, "rental_uris": {"ios": "https://dc.lft.to/lastmile_qr_scan", "android": "https://dc.lft.to/lastmile_qr_scan"}}, {"name": "3a13533458b9d92e48765f5512cc755c", "fusion_lat": 0.0, "type": "electric_scooter", "lat": 38.93663516666667, "is_reserved": 0, "is_disabled": 0, "fusion_lon": 0.0, "bike_id": "3a13533458b9d92e48765f5512cc755c", "lon": -77.03262783333334, "rental_uris": {"ios": "https://dc.lft.to/lastmile_qr_scan", "android": "https://dc.lft.to/lastmile_qr_scan"}}, {"name": "081c3296a4bcb7b12d9647002b5cb84e", "fusion_lat": 0.0, "type": "electric_bike", "lat": 38.853655333333336, "is_reserved": 0, "is_disabled": 0, "fusion_lon": 0.0, "bike_id": "081c3296a4bcb7b12d9647002b5cb84e", "lon": -77.09877516666667, "rental_uris": {"ios": "https://dc.lft.to/lastmile_qr_scan", "android": "https://dc.lft.to/lastmile_qr_scan"}}, {"name": "89a1f43224f286bc5dbe40acb3755744", "fusion_lat": 0.0, "type": "electric_scooter", "lat": 38.90739583333333, "is_reserved": 0, "is_disabled": 0, "fusion_lon": 0.0, "bike_id": "89a1f43224f286bc5dbe40acb3755744", "lon": -77.02692933333333, "rental_uris": {"ios": "https://dc.lft.to/lastmile_qr_scan", "android": "https://dc.lft.to/lastmile_qr_scan"}}, {"name": "894fc73b74f4542534ef669d39eabdff", "fusion_lat": 0.0, "type": "electric_scooter", "lat": 38.91106933333333, "is_reserved": 0, "is_disabled": 0, "fusion_lon": 0.0, "bike_id": "894fc73b74f4542534ef669d39eabdff", "lon": -77.0246225, "rental_uris": {"ios": "https://dc.lft.to/lastmile_qr_scan", "android": "https://dc.lft.to/lastmile_qr_scan"}}, {"name": "08709a12eae3946af59a769ee5feb664", "fusion_lat": 0.0, "type": "electric_scooter", "lat": 38.89631266666667, "is_reserved": 0, "is_disabled": 0, "fusion_lon": 0.0, "bike_id": "08709a12eae3946af59a769ee5feb664", "lon": -77.0445315, "rental_uris": {"ios": "https://dc.lft.to/lastmile_qr_scan", "android": "https://dc.lft.to/lastmile_qr_scan"}}, {"name": "90388176aa3fa3e484c9d67365694098", "fusion_lat": 0.0, "type": "electric_scooter", "lat": 38.9025105, "is_reserved": 0, "is_disabled": 0, "fusion_lon": 0.0, "bike_id": "90388176aa3fa3e484c9d67365694098", "lon": -76.9770235, "rental_uris": {"ios": "https://dc.lft.to/lastmile_qr_scan", "android": "https://dc.lft.to/lastmile_qr_scan"}}, {"name": "32460b3ed27c59e3d687417dd2118706", "fusion_lat": 0.0, "type": "electric_scooter", "lat": 38.907973166666665, "is_reserved": 0, "is_disabled": 0, "fusion_lon": 0.0, "bike_id": "32460b3ed27c59e3d687417dd2118706", "lon": -77.01817516666667, "rental_uris": {"ios": "https://dc.lft.to/lastmile_qr_scan", "android": "https://dc.lft.to/lastmile_qr_scan"}}, {"name": "76be6f5880622cfa117d85b4bd8067b5", "fusion_lat": 0.0, "type": "electric_scooter", "lat": 38.911461, "is_reserved": 0, "is_disabled": 0, "fusion_lon": 0.0, "bike_id": "76be6f5880622cfa117d85b4bd8067b5", "lon": -77.01687016666666, "rental_uris": {"ios": "https://dc.lft.to/lastmile_qr_scan", "android": "https://dc.lft.to/lastmile_qr_scan"}}, {"name": "e3c6fd8361e57bbee399659778035f14", "fusion_lat": 0.0, "type": "electric_scooter", "lat": 38.928215, "is_reserved": 0, "is_disabled": 0, "fusion_lon": 0.0, "bike_id": "e3c6fd8361e57bbee399659778035f14", "lon": -77.022562, "rental_uris": {"ios": "https://dc.lft.to/lastmile_qr_scan", "android": "https://dc.lft.to/lastmile_qr_scan"}}, {"name": "67bbbca01019731de5b0c86e8d047ca1", "fusion_lat": 0.0, "type": "electric_bike", "lat": 38.89345766666667, "is_reserved": 0, "is_disabled": 0, "fusion_lon": 0.0, "bike_id": "67bbbca01019731de5b0c86e8d047ca1", "lon": -76.99150983333334, "rental_uris": {"ios": "https://dc.lft.to/lastmile_qr_scan", "android": "https://dc.lft.to/lastmile_qr_scan"}}, {"name": "cfa709d8934670164a38af997ac29d32", "fusion_lat": 0.0, "type": "electric_scooter", "lat": 38.91292, "is_reserved": 0, "is_disabled": 0, "fusion_lon": 0.0, "bike_id": "cfa709d8934670164a38af997ac29d32", "lon": -76.93747116666667, "rental_uris": {"ios": "https://dc.lft.to/lastmile_qr_scan", "android": "https://dc.lft.to/lastmile_qr_scan"}}, {"name": "87b371bc7d025347ecd5c709ee4fd59f", "fusion_lat": 0.0, "type": "electric_scooter", "lat": 38.875758, "is_reserved": 0, "is_disabled": 0, "fusion_lon": 0.0, "bike_id": "87b371bc7d025347ecd5c709ee4fd59f", "lon": -77.0105855, "rental_uris": {"ios": "https://dc.lft.to/lastmile_qr_scan", "android": "https://dc.lft.to/lastmile_qr_scan"}}, {"name": "cebcef1c7225abb88949e0858bd873e4", "fusion_lat": 0.0, "type": "electric_scooter", "lat": 38.929654, "is_reserved": 0, "is_disabled": 0, "fusion_lon": 0.0, "bike_id": "cebcef1c7225abb88949e0858bd873e4", "lon": -77.04119816666666, "rental_uris": {"ios": "https://dc.lft.to/lastmile_qr_scan", "android": "https://dc.lft.to/lastmile_qr_scan"}}, {"name": "cd3d0840393b1525b75605ea343084f1", "fusion_lat": 0.0, "type": "electric_scooter", "lat": 38.914017, "is_reserved": 0, "is_disabled": 0, "fusion_lon": 0.0, "bike_id": "cd3d0840393b1525b75605ea343084f1", "lon": -77.03954016666667, "rental_uris": {"ios": "https://dc.lft.to/lastmile_qr_scan", "android": "https://dc.lft.to/lastmile_qr_scan"}}, {"name": "796729982d81226c74b794bbb27998de", "fusion_lat": 0.0, "type": "electric_scooter", "lat": 38.917701666666666, "is_reserved": 0, "is_disabled": 0, "fusion_lon": 0.0, "bike_id": "796729982d81226c74b794bbb27998de", "lon": -77.09673483333333, "rental_uris": {"ios": "https://dc.lft.to/lastmile_qr_scan", "android": "https://dc.lft.to/lastmile_qr_scan"}}, {"name": "042c205357d737b33ebfeb248571abc3", "fusion_lat": 0.0, "type": "electric_scooter", "lat": 38.86659783333333, "is_reserved": 0, "is_disabled": 0, "fusion_lon": 0.0, "bike_id": "042c205357d737b33ebfeb248571abc3", "lon": -76.98885616666666, "rental_uris": {"ios": "https://dc.lft.to/lastmile_qr_scan", "android": "https://dc.lft.to/lastmile_qr_scan"}}, {"name": "3a5d8cb42593e7fc6c97d5f04cc1a178", "fusion_lat": 0.0, "type": "electric_scooter", "lat": 38.91977166666667, "is_reserved": 0, "is_disabled": 0, "fusion_lon": 0.0, "bike_id": "3a5d8cb42593e7fc6c97d5f04cc1a178", "lon": -77.0239195, "rental_uris": {"ios": "https://dc.lft.to/lastmile_qr_scan", "android": "https://dc.lft.to/lastmile_qr_scan"}}, {"name": "29e6fdcf34862de5fbcbef3fcbdcde6c", "fusion_lat": 0.0, "type": "electric_scooter", "lat": 38.900440833333334, "is_reserved": 0, "is_disabled": 0, "fusion_lon": 0.0, "bike_id": "29e6fdcf34862de5fbcbef3fcbdcde6c", "lon": -76.991414, "rental_uris": {"ios": "https://dc.lft.to/lastmile_qr_scan", "android": "https://dc.lft.to/lastmile_qr_scan"}}, {"name": "dd924e72b98e0736d24e886afd118772", "fusion_lat": 0.0, "type": "electric_scooter", "lat": 38.923730666666664, "is_reserved": 0, "is_disabled": 0, "fusion_lon": 0.0, "bike_id": "dd924e72b98e0736d24e886afd118772", "lon": -77.041081, "rental_uris": {"ios": "https://dc.lft.to/lastmile_qr_scan", "android": "https://dc.lft.to/lastmile_qr_scan"}}, {"name": "144bd73233b7e32dc06c4e64758ce54e", "fusion_lat": 0.0, "type": "electric_scooter", "lat": 38.918358166666664, "is_reserved": 0, "is_disabled": 0, "fusion_lon": 0.0, "bike_id": "144bd73233b7e32dc06c4e64758ce54e", "lon": -77.02285133333334, "rental_uris": {"ios": "https://dc.lft.to/lastmile_qr_scan", "android": "https://dc.lft.to/lastmile_qr_scan"}}, {"name": "8ee32ce2ebcfff29e83b25b64683c37b", "fusion_lat": 0.0, "type": "electric_scooter", "lat": 38.86248966666667, "is_reserved": 0, "is_disabled": 0, "fusion_lon": 0.0, "bike_id": "8ee32ce2ebcfff29e83b25b64683c37b", "lon": -76.987196, "rental_uris": {"ios": "https://dc.lft.to/lastmile_qr_scan", "android": "https://dc.lft.to/lastmile_qr_scan"}}, {"name": "5739588893ade6a23246593ee00631fd", "fusion_lat": 0.0, "type": "electric_scooter", "lat": 38.909759333333334, "is_reserved": 0, "is_disabled": 0, "fusion_lon": 0.0, "bike_id": "5739588893ade6a23246593ee00631fd", "lon": -77.0467615, "rental_uris": {"ios": "https://dc.lft.to/lastmile_qr_scan", "android": "https://dc.lft.to/lastmile_qr_scan"}}, {"name": "d726a4e83029fc52045400b87894fc01", "fusion_lat": 0.0, "type": "electric_scooter", "lat": 38.92468566666667, "is_reserved": 0, "is_disabled": 0, "fusion_lon": 0.0, "bike_id": "d726a4e83029fc52045400b87894fc01", "lon": -77.03062116666666, "rental_uris": {"ios": "https://dc.lft.to/lastmile_qr_scan", "android": "https://dc.lft.to/lastmile_qr_scan"}}, {"name": "b5cecfd87dcef31c6ca4e9444f61a014", "fusion_lat": 0.0, "type": "electric_scooter", "lat": 38.917965, "is_reserved": 0, "is_disabled": 0, "fusion_lon": 0.0, "bike_id": "b5cecfd87dcef31c6ca4e9444f61a014", "lon": -77.027108, "rental_uris": {"ios": "https://dc.lft.to/lastmile_qr_scan", "android": "https://dc.lft.to/lastmile_qr_scan"}}, {"name": "e20bf7c3ef63604eb7b8d4b4cd907349", "fusion_lat": 0.0, "type": "electric_scooter", "lat": 38.921466833333334, "is_reserved": 0, "is_disabled": 0, "fusion_lon": 0.0, "bike_id": "e20bf7c3ef63604eb7b8d4b4cd907349", "lon": -77.045609, "rental_uris": {"ios": "https://dc.lft.to/lastmile_qr_scan", "android": "https://dc.lft.to/lastmile_qr_scan"}}, {"name": "7e091c78d060f560e944fc754fb8d238", "fusion_lat": 0.0, "type": "electric_scooter", "lat": 38.9120965, "is_reserved": 0, "is_disabled": 0, "fusion_lon": 0.0, "bike_id": "7e091c78d060f560e944fc754fb8d238", "lon": -77.03849133333334, "rental_uris": {"ios": "https://dc.lft.to/lastmile_qr_scan", "android": "https://dc.lft.to/lastmile_qr_scan"}}, {"name": "d8024d37f89a4e08bdf5e05b2b40c788", "fusion_lat": 0.0, "type": "electric_scooter", "lat": 38.921006166666665, "is_reserved": 0, "is_disabled": 0, "fusion_lon": 0.0, "bike_id": "d8024d37f89a4e08bdf5e05b2b40c788", "lon": -77.05473516666666, "rental_uris": {"ios": "https://dc.lft.to/lastmile_qr_scan", "android": "https://dc.lft.to/lastmile_qr_scan"}}, {"name": "59a372ee242ea8aeda35dc4fb6cfe5a3", "fusion_lat": 0.0, "type": "electric_scooter", "lat": 38.88218716666667, "is_reserved": 0, "is_disabled": 0, "fusion_lon": 0.0, "bike_id": "59a372ee242ea8aeda35dc4fb6cfe5a3", "lon": -76.94174, "rental_uris": {"ios": "https://dc.lft.to/lastmile_qr_scan", "android": "https://dc.lft.to/lastmile_qr_scan"}}, {"name": "89c511445fa60d3ae607dbff0f4b7712", "fusion_lat": 0.0, "type": "electric_scooter", "lat": 38.920234666666666, "is_reserved": 0, "is_disabled": 0, "fusion_lon": 0.0, "bike_id": "89c511445fa60d3ae607dbff0f4b7712", "lon": -77.0319635, "rental_uris": {"ios": "https://dc.lft.to/lastmile_qr_scan", "android": "https://dc.lft.to/lastmile_qr_scan"}}, {"name": "2375372ec0e6e58bec10fb9d3d1b3601", "fusion_lat": 0.0, "type": "electric_scooter", "lat": 38.90562166666667, "is_reserved": 0, "is_disabled": 0, "fusion_lon": 0.0, "bike_id": "2375372ec0e6e58bec10fb9d3d1b3601", "lon": -77.022186, "rental_uris": {"ios": "https://dc.lft.to/lastmile_qr_scan", "android": "https://dc.lft.to/lastmile_qr_scan"}}, {"name": "12a824aa8a8af1931dd164bcd9a18437", "fusion_lat": 0.0, "type": "electric_scooter", "lat": 38.873603833333334, "is_reserved": 0, "is_disabled": 0, "fusion_lon": 0.0, "bike_id": "12a824aa8a8af1931dd164bcd9a18437", "lon": -77.00096766666667, "rental_uris": {"ios": "https://dc.lft.to/lastmile_qr_scan", "android": "https://dc.lft.to/lastmile_qr_scan"}}, {"name": "806a1512b2df5d0ac1808aa4fe30681a", "fusion_lat": 0.0, "type": "electric_scooter", "lat": 38.90232366666667, "is_reserved": 0, "is_disabled": 0, "fusion_lon": 0.0, "bike_id": "806a1512b2df5d0ac1808aa4fe30681a", "lon": -77.05127983333334, "rental_uris": {"ios": "https://dc.lft.to/lastmile_qr_scan", "android": "https://dc.lft.to/lastmile_qr_scan"}}, {"name": "f6569cae6f248c0d784b3491290910e0", "fusion_lat": 0.0, "type": "electric_scooter", "lat": 38.910636833333335, "is_reserved": 0, "is_disabled": 0, "fusion_lon": 0.0, "bike_id": "f6569cae6f248c0d784b3491290910e0", "lon": -77.05328766666666, "rental_uris": {"ios": "https://dc.lft.to/lastmile_qr_scan", "android": "https://dc.lft.to/lastmile_qr_scan"}}, {"name": "ba26d2420177767c036286684e400505", "fusion_lat": 0.0, "type": "electric_scooter", "lat": 38.906757999999996, "is_reserved": 0, "is_disabled": 0, "fusion_lon": 0.0, "bike_id": "ba26d2420177767c036286684e400505", "lon": -76.97814766666667, "rental_uris": {"ios": "https://dc.lft.to/lastmile_qr_scan", "android": "https://dc.lft.to/lastmile_qr_scan"}}, {"name": "21f6cdd52a86e85e5036be0fc3ee695a", "fusion_lat": 0.0, "type": "electric_scooter", "lat": 38.912643, "is_reserved": 0, "is_disabled": 0, "fusion_lon": 0.0, "bike_id": "21f6cdd52a86e85e5036be0fc3ee695a", "lon": -77.0363855, "rental_uris": {"ios": "https://dc.lft.to/lastmile_qr_scan", "android": "https://dc.lft.to/lastmile_qr_scan"}}, {"name": "4ac1661615a8825b5e4aa27eb34bb968", "fusion_lat": 0.0, "type": "electric_scooter", "lat": 38.9206425, "is_reserved": 0, "is_disabled": 0, "fusion_lon": 0.0, "bike_id": "4ac1661615a8825b5e4aa27eb34bb968", "lon": -77.04388033333333, "rental_uris": {"ios": "https://dc.lft.to/lastmile_qr_scan", "android": "https://dc.lft.to/lastmile_qr_scan"}}, {"name": "d1993e4f6b44ac35ac08c40ba80a5bf8", "fusion_lat": 0.0, "type": "electric_bike", "lat": 38.831923333333336, "is_reserved": 0, "is_disabled": 0, "fusion_lon": 0.0, "bike_id": "d1993e4f6b44ac35ac08c40ba80a5bf8", "lon": -77.076851, "rental_uris": {"ios": "https://dc.lft.to/lastmile_qr_scan", "android": "https://dc.lft.to/lastmile_qr_scan"}}, {"name": "2a5e8b25f0fa0a225eb2461d9e01ac1b", "fusion_lat": 0.0, "type": "electric_scooter", "lat": 38.93361083333333, "is_reserved": 0, "is_disabled": 0, "fusion_lon": 0.0, "bike_id": "2a5e8b25f0fa0a225eb2461d9e01ac1b", "lon": -77.037256, "rental_uris": {"ios": "https://dc.lft.to/lastmile_qr_scan", "android": "https://dc.lft.to/lastmile_qr_scan"}}, {"name": "72c78a4f25d1ccb29dfbf40d721a57ca", "fusion_lat": 0.0, "type": "electric_scooter", "lat": 38.91702133333333, "is_reserved": 0, "is_disabled": 0, "fusion_lon": 0.0, "bike_id": "72c78a4f25d1ccb29dfbf40d721a57ca", "lon": -77.028932, "rental_uris": {"ios": "https://dc.lft.to/lastmile_qr_scan", "android": "https://dc.lft.to/lastmile_qr_scan"}}, {"name": "79eb7d89adc3bf8c83dfa1f4256aada1", "fusion_lat": 0.0, "type": "electric_scooter", "lat": 38.920734833333334, "is_reserved": 0, "is_disabled": 0, "fusion_lon": 0.0, "bike_id": "79eb7d89adc3bf8c83dfa1f4256aada1", "lon": -77.043853, "rental_uris": {"ios": "https://dc.lft.to/lastmile_qr_scan", "android": "https://dc.lft.to/lastmile_qr_scan"}}, {"name": "8d5aab4d73b8152a790e48ff3cfb0039", "fusion_lat": 0.0, "type": "electric_scooter", "lat": 38.92081183333333, "is_reserved": 0, "is_disabled": 0, "fusion_lon": 0.0, "bike_id": "8d5aab4d73b8152a790e48ff3cfb0039", "lon": -77.023962, "rental_uris": {"ios": "https://dc.lft.to/lastmile_qr_scan", "android": "https://dc.lft.to/lastmile_qr_scan"}}, {"name": "184f2a560275734f766a670ce5c6fbac", "fusion_lat": 0.0, "type": "electric_bike", "lat": 38.95555683333333, "is_reserved": 0, "is_disabled": 0, "fusion_lon": 0.0, "bike_id": "184f2a560275734f766a670ce5c6fbac", "lon": -76.93553516666667, "rental_uris": {"ios": "https://dc.lft.to/lastmile_qr_scan", "android": "https://dc.lft.to/lastmile_qr_scan"}}, {"name": "d1a0eacabfae077f06838c1f40ebac81", "fusion_lat": 0.0, "type": "electric_scooter", "lat": 38.892250833333335, "is_reserved": 0, "is_disabled": 0, "fusion_lon": 0.0, "bike_id": "d1a0eacabfae077f06838c1f40ebac81", "lon": -77.02413183333333, "rental_uris": {"ios": "https://dc.lft.to/lastmile_qr_scan", "android": "https://dc.lft.to/lastmile_qr_scan"}}, {"name": "2359dec1c51d7cd26519028e4f53a73b", "fusion_lat": 0.0, "type": "electric_scooter", "lat": 38.9174465, "is_reserved": 0, "is_disabled": 0, "fusion_lon": 0.0, "bike_id": "2359dec1c51d7cd26519028e4f53a73b", "lon": -77.03640033333333, "rental_uris": {"ios": "https://dc.lft.to/lastmile_qr_scan", "android": "https://dc.lft.to/lastmile_qr_scan"}}, {"name": "37474c63c4fc6c0823ca618773699346", "fusion_lat": 0.0, "type": "electric_scooter", "lat": 38.9147565, "is_reserved": 0, "is_disabled": 0, "fusion_lon": 0.0, "bike_id": "37474c63c4fc6c0823ca618773699346", "lon": -77.02200083333334, "rental_uris": {"ios": "https://dc.lft.to/lastmile_qr_scan", "android": "https://dc.lft.to/lastmile_qr_scan"}}, {"name": "ee9a2b8dc9625c7c5196221201c09f78", "fusion_lat": 0.0, "type": "electric_scooter", "lat": 38.90705466666667, "is_reserved": 0, "is_disabled": 0, "fusion_lon": 0.0, "bike_id": "ee9a2b8dc9625c7c5196221201c09f78", "lon": -77.04385933333333, "rental_uris": {"ios": "https://dc.lft.to/lastmile_qr_scan", "android": "https://dc.lft.to/lastmile_qr_scan"}}, {"name": "5cf678411380e72adf41d93e1db34be6", "fusion_lat": 0.0, "type": "electric_scooter", "lat": 38.89232033333333, "is_reserved": 0, "is_disabled": 0, "fusion_lon": 0.0, "bike_id": "5cf678411380e72adf41d93e1db34be6", "lon": -77.050037, "rental_uris": {"ios": "https://dc.lft.to/lastmile_qr_scan", "android": "https://dc.lft.to/lastmile_qr_scan"}}, {"name": "b4a350f6b7300f503fc8b4f397188809", "fusion_lat": 0.0, "type": "electric_scooter", "lat": 38.884328, "is_reserved": 0, "is_disabled": 0, "fusion_lon": 0.0, "bike_id": "b4a350f6b7300f503fc8b4f397188809", "lon": -76.99597566666667, "rental_uris": {"ios": "https://dc.lft.to/lastmile_qr_scan", "android": "https://dc.lft.to/lastmile_qr_scan"}}, {"name": "bb424d2159a2d8619e26d3108fefa355", "fusion_lat": 0.0, "type": "electric_bike", "lat": 38.89188633333333, "is_reserved": 0, "is_disabled": 0, "fusion_lon": 0.0, "bike_id": "bb424d2159a2d8619e26d3108fefa355", "lon": -77.12265133333334, "rental_uris": {"ios": "https://dc.lft.to/lastmile_qr_scan", "android": "https://dc.lft.to/lastmile_qr_scan"}}, {"name": "70e79f90692451116fbc10318b6cf0df", "fusion_lat": 0.0, "type": "electric_bike", "lat": 38.81306683333333, "is_reserved": 0, "is_disabled": 0, "fusion_lon": 0.0, "bike_id": "70e79f90692451116fbc10318b6cf0df", "lon": -77.112121, "rental_uris": {"ios": "https://dc.lft.to/lastmile_qr_scan", "android": "https://dc.lft.to/lastmile_qr_scan"}}, {"name": "0e176def9a172bc2ff580b0403efb103", "fusion_lat": 0.0, "type": "electric_scooter", "lat": 38.930936833333334, "is_reserved": 0, "is_disabled": 0, "fusion_lon": 0.0, "bike_id": "0e176def9a172bc2ff580b0403efb103", "lon": -77.034463, "rental_uris": {"ios": "https://dc.lft.to/lastmile_qr_scan", "android": "https://dc.lft.to/lastmile_qr_scan"}}, {"name": "15a309041ac704aa33e605528c31cfb2", "fusion_lat": 0.0, "type": "electric_scooter", "lat": 38.913928, "is_reserved": 0, "is_disabled": 0, "fusion_lon": 0.0, "bike_id": "15a309041ac704aa33e605528c31cfb2", "lon": -77.04180916666667, "rental_uris": {"ios": "https://dc.lft.to/lastmile_qr_scan", "android": "https://dc.lft.to/lastmile_qr_scan"}}, {"name": "6fcec71975aac310e92cc6fd1c05b2d5", "fusion_lat": 0.0, "type": "electric_scooter", "lat": 38.909624, "is_reserved": 0, "is_disabled": 0, "fusion_lon": 0.0, "bike_id": "6fcec71975aac310e92cc6fd1c05b2d5", "lon": -77.02749433333334, "rental_uris": {"ios": "https://dc.lft.to/lastmile_qr_scan", "android": "https://dc.lft.to/lastmile_qr_scan"}}, {"name": "9ed4cd0d13befe1894a783154aebf445", "fusion_lat": 0.0, "type": "electric_bike", "lat": 38.828679, "is_reserved": 0, "is_disabled": 0, "fusion_lon": 0.0, "bike_id": "9ed4cd0d13befe1894a783154aebf445", "lon": -77.11222033333334, "rental_uris": {"ios": "https://dc.lft.to/lastmile_qr_scan", "android": "https://dc.lft.to/lastmile_qr_scan"}}, {"name": "0f187e49300f48563193fb85cfb716d6", "fusion_lat": 0.0, "type": "electric_bike", "lat": 38.990894, "is_reserved": 0, "is_disabled": 0, "fusion_lon": 0.0, "bike_id": "0f187e49300f48563193fb85cfb716d6", "lon": -76.8749805, "rental_uris": {"ios": "https://dc.lft.to/lastmile_qr_scan", "android": "https://dc.lft.to/lastmile_qr_scan"}}, {"name": "3261f540e9126e0e72cbf50c4f8e32ef", "fusion_lat": 0.0, "type": "electric_scooter", "lat": 38.92507233333333, "is_reserved": 0, "is_disabled": 0, "fusion_lon": 0.0, "bike_id": "3261f540e9126e0e72cbf50c4f8e32ef", "lon": -77.021701, "rental_uris": {"ios": "https://dc.lft.to/lastmile_qr_scan", "android": "https://dc.lft.to/lastmile_qr_scan"}}, {"name": "a4f7b566cd82a87acff28cd7f72d4323", "fusion_lat": 0.0, "type": "electric_scooter", "lat": 38.8764845, "is_reserved": 0, "is_disabled": 0, "fusion_lon": 0.0, "bike_id": "a4f7b566cd82a87acff28cd7f72d4323", "lon": -77.00812733333333, "rental_uris": {"ios": "https://dc.lft.to/lastmile_qr_scan", "android": "https://dc.lft.to/lastmile_qr_scan"}}, {"name": "c64828b3c4538ccec124e4041db90d7a", "fusion_lat": 0.0, "type": "electric_scooter", "lat": 38.899708333333336, "is_reserved": 0, "is_disabled": 0, "fusion_lon": 0.0, "bike_id": "c64828b3c4538ccec124e4041db90d7a", "lon": -77.05706966666666, "rental_uris": {"ios": "https://dc.lft.to/lastmile_qr_scan", "android": "https://dc.lft.to/lastmile_qr_scan"}}, {"name": "4cd2331834a3097ee5daa4a5628de03b", "fusion_lat": 0.0, "type": "electric_scooter", "lat": 38.91800883333333, "is_reserved": 0, "is_disabled": 0, "fusion_lon": 0.0, "bike_id": "4cd2331834a3097ee5daa4a5628de03b", "lon": -77.03446233333334, "rental_uris": {"ios": "https://dc.lft.to/lastmile_qr_scan", "android": "https://dc.lft.to/lastmile_qr_scan"}}, {"name": "6b5113c8982a59586e7254ffd6505881", "fusion_lat": 0.0, "type": "electric_scooter", "lat": 38.883868, "is_reserved": 0, "is_disabled": 0, "fusion_lon": 0.0, "bike_id": "6b5113c8982a59586e7254ffd6505881", "lon": -77.01951083333333, "rental_uris": {"ios": "https://dc.lft.to/lastmile_qr_scan", "android": "https://dc.lft.to/lastmile_qr_scan"}}, {"name": "20d81e84fe3385a45e5084915a52d6bb", "fusion_lat": 0.0, "type": "electric_scooter", "lat": 38.89608283333333, "is_reserved": 0, "is_disabled": 0, "fusion_lon": 0.0, "bike_id": "20d81e84fe3385a45e5084915a52d6bb", "lon": -77.04768133333333, "rental_uris": {"ios": "https://dc.lft.to/lastmile_qr_scan", "android": "https://dc.lft.to/lastmile_qr_scan"}}, {"name": "8fa94aaaa9fb36fb8ff9a67587ae3bff", "fusion_lat": 0.0, "type": "electric_scooter", "lat": 38.918036, "is_reserved": 0, "is_disabled": 0, "fusion_lon": 0.0, "bike_id": "8fa94aaaa9fb36fb8ff9a67587ae3bff", "lon": -77.04003616666667, "rental_uris": {"ios": "https://dc.lft.to/lastmile_qr_scan", "android": "https://dc.lft.to/lastmile_qr_scan"}}, {"name": "630ae059168a1d698db36d7c78af842f", "fusion_lat": 0.0, "type": "electric_scooter", "lat": 38.92774416666666, "is_reserved": 0, "is_disabled": 0, "fusion_lon": 0.0, "bike_id": "630ae059168a1d698db36d7c78af842f", "lon": -77.02785116666666, "rental_uris": {"ios": "https://dc.lft.to/lastmile_qr_scan", "android": "https://dc.lft.to/lastmile_qr_scan"}}, {"name": "c047689c0e1a171b0b94da0817fecdc8", "fusion_lat": 0.0, "type": "electric_bike", "lat": 39.0038185, "is_reserved": 0, "is_disabled": 0, "fusion_lon": 0.0, "bike_id": "c047689c0e1a171b0b94da0817fecdc8", "lon": -77.01291566666667, "rental_uris": {"ios": "https://dc.lft.to/lastmile_qr_scan", "android": "https://dc.lft.to/lastmile_qr_scan"}}, {"name": "33456b79dfa3c74a0ff1a7a2e3539996", "fusion_lat": 0.0, "type": "electric_scooter", "lat": 38.9470055, "is_reserved": 0, "is_disabled": 0, "fusion_lon": 0.0, "bike_id": "33456b79dfa3c74a0ff1a7a2e3539996", "lon": -77.01945766666667, "rental_uris": {"ios": "https://dc.lft.to/lastmile_qr_scan", "android": "https://dc.lft.to/lastmile_qr_scan"}}, {"name": "08962066b857185b52846dc0f965e06b", "fusion_lat": 0.0, "type": "electric_scooter", "lat": 38.9305665, "is_reserved": 0, "is_disabled": 0, "fusion_lon": 0.0, "bike_id": "08962066b857185b52846dc0f965e06b", "lon": -77.02322583333333, "rental_uris": {"ios": "https://dc.lft.to/lastmile_qr_scan", "android": "https://dc.lft.to/lastmile_qr_scan"}}, {"name": "605277892c2ca317a9b148b72ac30e0c", "fusion_lat": 0.0, "type": "electric_scooter", "lat": 38.923579833333335, "is_reserved": 0, "is_disabled": 0, "fusion_lon": 0.0, "bike_id": "605277892c2ca317a9b148b72ac30e0c", "lon": -77.03161066666667, "rental_uris": {"ios": "https://dc.lft.to/lastmile_qr_scan", "android": "https://dc.lft.to/lastmile_qr_scan"}}, {"name": "628949cca602a8e7c63b081d0533e3af", "fusion_lat": 0.0, "type": "electric_scooter", "lat": 38.92349883333333, "is_reserved": 0, "is_disabled": 0, "fusion_lon": 0.0, "bike_id": "628949cca602a8e7c63b081d0533e3af", "lon": -77.05435616666666, "rental_uris": {"ios": "https://dc.lft.to/lastmile_qr_scan", "android": "https://dc.lft.to/lastmile_qr_scan"}}, {"name": "53fc72c142bbd781425a7f0a07b8106f", "fusion_lat": 0.0, "type": "electric_bike", "lat": 38.8078915, "is_reserved": 0, "is_disabled": 0, "fusion_lon": 0.0, "bike_id": "53fc72c142bbd781425a7f0a07b8106f", "lon": -77.1295705, "rental_uris": {"ios": "https://dc.lft.to/lastmile_qr_scan", "android": "https://dc.lft.to/lastmile_qr_scan"}}, {"name": "9a4df1bc4fce9a28da684e8e3601f6bd", "fusion_lat": 0.0, "type": "electric_scooter", "lat": 38.959046666666666, "is_reserved": 0, "is_disabled": 0, "fusion_lon": 0.0, "bike_id": "9a4df1bc4fce9a28da684e8e3601f6bd", "lon": -77.08075116666667, "rental_uris": {"ios": "https://dc.lft.to/lastmile_qr_scan", "android": "https://dc.lft.to/lastmile_qr_scan"}}, {"name": "59a2fd182e8ca6e51989d7d772183492", "fusion_lat": 0.0, "type": "electric_bike", "lat": 38.8520975, "is_reserved": 0, "is_disabled": 0, "fusion_lon": 0.0, "bike_id": "59a2fd182e8ca6e51989d7d772183492", "lon": -77.04650283333334, "rental_uris": {"ios": "https://dc.lft.to/lastmile_qr_scan", "android": "https://dc.lft.to/lastmile_qr_scan"}}, {"name": "d0468722a88fa0a84b95844df13b4bed", "fusion_lat": 0.0, "type": "electric_bike", "lat": 38.931216166666665, "is_reserved": 0, "is_disabled": 0, "fusion_lon": 0.0, "bike_id": "d0468722a88fa0a84b95844df13b4bed", "lon": -77.0202735, "rental_uris": {"ios": "https://dc.lft.to/lastmile_qr_scan", "android": "https://dc.lft.to/lastmile_qr_scan"}}, {"name": "ed3094fe25dd38f3605f97f6da2254d5", "fusion_lat": 0.0, "type": "electric_scooter", "lat": 38.894060333333336, "is_reserved": 0, "is_disabled": 0, "fusion_lon": 0.0, "bike_id": "ed3094fe25dd38f3605f97f6da2254d5", "lon": -76.93242483333333, "rental_uris": {"ios": "https://dc.lft.to/lastmile_qr_scan", "android": "https://dc.lft.to/lastmile_qr_scan"}}, {"name": "09685f0e2b4f1feeb4ee767f5beb482b", "fusion_lat": 0.0, "type": "electric_scooter", "lat": 38.93204133333333, "is_reserved": 0, "is_disabled": 0, "fusion_lon": 0.0, "bike_id": "09685f0e2b4f1feeb4ee767f5beb482b", "lon": -77.03663033333333, "rental_uris": {"ios": "https://dc.lft.to/lastmile_qr_scan", "android": "https://dc.lft.to/lastmile_qr_scan"}}, {"name": "55484aa740d85e5359d5808bf771600b", "fusion_lat": 0.0, "type": "electric_scooter", "lat": 38.90623216666667, "is_reserved": 0, "is_disabled": 0, "fusion_lon": 0.0, "bike_id": "55484aa740d85e5359d5808bf771600b", "lon": -77.006155, "rental_uris": {"ios": "https://dc.lft.to/lastmile_qr_scan", "android": "https://dc.lft.to/lastmile_qr_scan"}}, {"name": "1ff58d91b32fc4bb015597ba5eea1bed", "fusion_lat": 0.0, "type": "electric_scooter", "lat": 38.904139, "is_reserved": 0, "is_disabled": 0, "fusion_lon": 0.0, "bike_id": "1ff58d91b32fc4bb015597ba5eea1bed", "lon": -76.99076566666666, "rental_uris": {"ios": "https://dc.lft.to/lastmile_qr_scan", "android": "https://dc.lft.to/lastmile_qr_scan"}}, {"name": "f210ea6dbb12a96923e488e6038a44f5", "fusion_lat": 0.0, "type": "electric_scooter", "lat": 38.87796516666667, "is_reserved": 0, "is_disabled": 0, "fusion_lon": 0.0, "bike_id": "f210ea6dbb12a96923e488e6038a44f5", "lon": -77.005961, "rental_uris": {"ios": "https://dc.lft.to/lastmile_qr_scan", "android": "https://dc.lft.to/lastmile_qr_scan"}}, {"name": "f16d98b169ba9712e2112b7d44b43b5c", "fusion_lat": 0.0, "type": "electric_scooter", "lat": 38.856628, "is_reserved": 0, "is_disabled": 0, "fusion_lon": 0.0, "bike_id": "f16d98b169ba9712e2112b7d44b43b5c", "lon": -76.99092366666666, "rental_uris": {"ios": "https://dc.lft.to/lastmile_qr_scan", "android": "https://dc.lft.to/lastmile_qr_scan"}}, {"name": "8d95cd3fd4507fd6cf6692af95a08ea2", "fusion_lat": 0.0, "type": "electric_bike", "lat": 38.95709333333333, "is_reserved": 0, "is_disabled": 0, "fusion_lon": 0.0, "bike_id": "8d95cd3fd4507fd6cf6692af95a08ea2", "lon": -77.01476783333334, "rental_uris": {"ios": "https://dc.lft.to/lastmile_qr_scan", "android": "https://dc.lft.to/lastmile_qr_scan"}}, {"name": "bfebcc89c9b229cb37cbe449b653f343", "fusion_lat": 0.0, "type": "electric_scooter", "lat": 38.923872333333335, "is_reserved": 0, "is_disabled": 0, "fusion_lon": 0.0, "bike_id": "bfebcc89c9b229cb37cbe449b653f343", "lon": -77.02979433333333, "rental_uris": {"ios": "https://dc.lft.to/lastmile_qr_scan", "android": "https://dc.lft.to/lastmile_qr_scan"}}, {"name": "00af27fe914743e35b58e015ac4d6e94", "fusion_lat": 0.0, "type": "electric_scooter", "lat": 38.907484, "is_reserved": 0, "is_disabled": 0, "fusion_lon": 0.0, "bike_id": "00af27fe914743e35b58e015ac4d6e94", "lon": -76.98343183333333, "rental_uris": {"ios": "https://dc.lft.to/lastmile_qr_scan", "android": "https://dc.lft.to/lastmile_qr_scan"}}, {"name": "a9a06cbca4c8ab983536006ab381ab46", "fusion_lat": 0.0, "type": "electric_scooter", "lat": 38.885136333333335, "is_reserved": 0, "is_disabled": 0, "fusion_lon": 0.0, "bike_id": "a9a06cbca4c8ab983536006ab381ab46", "lon": -77.00338583333334, "rental_uris": {"ios": "https://dc.lft.to/lastmile_qr_scan", "android": "https://dc.lft.to/lastmile_qr_scan"}}, {"name": "2580dee8afdd2c11a874e24bb9c32aa9", "fusion_lat": 0.0, "type": "electric_scooter", "lat": 38.868182166666664, "is_reserved": 0, "is_disabled": 0, "fusion_lon": 0.0, "bike_id": "2580dee8afdd2c11a874e24bb9c32aa9", "lon": -76.98628683333334, "rental_uris": {"ios": "https://dc.lft.to/lastmile_qr_scan", "android": "https://dc.lft.to/lastmile_qr_scan"}}, {"name": "b8299ee48976a9ef3b276fff70e6ed2f", "fusion_lat": 0.0, "type": "electric_scooter", "lat": 38.93001783333333, "is_reserved": 0, "is_disabled": 0, "fusion_lon": 0.0, "bike_id": "b8299ee48976a9ef3b276fff70e6ed2f", "lon": -77.02306666666667, "rental_uris": {"ios": "https://dc.lft.to/lastmile_qr_scan", "android": "https://dc.lft.to/lastmile_qr_scan"}}, {"name": "799c30957e94c7d0d6967d8c2a96d25a", "fusion_lat": 0.0, "type": "electric_scooter", "lat": 38.900253166666666, "is_reserved": 0, "is_disabled": 0, "fusion_lon": 0.0, "bike_id": "799c30957e94c7d0d6967d8c2a96d25a", "lon": -77.0020535, "rental_uris": {"ios": "https://dc.lft.to/lastmile_qr_scan", "android": "https://dc.lft.to/lastmile_qr_scan"}}, {"name": "072869e5a233f9b2d6bf31d2b0be2178", "fusion_lat": 0.0, "type": "electric_scooter", "lat": 38.864110833333335, "is_reserved": 0, "is_disabled": 0, "fusion_lon": 0.0, "bike_id": "072869e5a233f9b2d6bf31d2b0be2178", "lon": -76.9805085, "rental_uris": {"ios": "https://dc.lft.to/lastmile_qr_scan", "android": "https://dc.lft.to/lastmile_qr_scan"}}, {"name": "b175e4d8a19ef5661ca84402a054cfce", "fusion_lat": 0.0, "type": "electric_scooter", "lat": 38.912116, "is_reserved": 0, "is_disabled": 0, "fusion_lon": 0.0, "bike_id": "b175e4d8a19ef5661ca84402a054cfce", "lon": -77.03846183333333, "rental_uris": {"ios": "https://dc.lft.to/lastmile_qr_scan", "android": "https://dc.lft.to/lastmile_qr_scan"}}, {"name": "b37d1f1c8f4ffb79a9ae1861c9eda29c", "fusion_lat": 0.0, "type": "electric_bike", "lat": 38.89637066666667, "is_reserved": 0, "is_disabled": 0, "fusion_lon": 0.0, "bike_id": "b37d1f1c8f4ffb79a9ae1861c9eda29c", "lon": -77.10457166666667, "rental_uris": {"ios": "https://dc.lft.to/lastmile_qr_scan", "android": "https://dc.lft.to/lastmile_qr_scan"}}, {"name": "5f977ff42776ab7a6c77c96699c571bb", "fusion_lat": 0.0, "type": "electric_scooter", "lat": 38.898277, "is_reserved": 0, "is_disabled": 0, "fusion_lon": 0.0, "bike_id": "5f977ff42776ab7a6c77c96699c571bb", "lon": -77.0292895, "rental_uris": {"ios": "https://dc.lft.to/lastmile_qr_scan", "android": "https://dc.lft.to/lastmile_qr_scan"}}, {"name": "2507289669da1525d6a4b74f6d07d351", "fusion_lat": 0.0, "type": "electric_scooter", "lat": 38.90960883333333, "is_reserved": 0, "is_disabled": 0, "fusion_lon": 0.0, "bike_id": "2507289669da1525d6a4b74f6d07d351", "lon": -77.02365066666667, "rental_uris": {"ios": "https://dc.lft.to/lastmile_qr_scan", "android": "https://dc.lft.to/lastmile_qr_scan"}}, {"name": "307829986d3cb558350f4615b24d0d70", "fusion_lat": 0.0, "type": "electric_scooter", "lat": 38.89046583333333, "is_reserved": 0, "is_disabled": 0, "fusion_lon": 0.0, "bike_id": "307829986d3cb558350f4615b24d0d70", "lon": -76.9375375, "rental_uris": {"ios": "https://dc.lft.to/lastmile_qr_scan", "android": "https://dc.lft.to/lastmile_qr_scan"}}, {"name": "3aebbd322af2b7d6a210f523197ed3aa", "fusion_lat": 0.0, "type": "electric_scooter", "lat": 38.9234185, "is_reserved": 0, "is_disabled": 0, "fusion_lon": 0.0, "bike_id": "3aebbd322af2b7d6a210f523197ed3aa", "lon": -77.0321235, "rental_uris": {"ios": "https://dc.lft.to/lastmile_qr_scan", "android": "https://dc.lft.to/lastmile_qr_scan"}}, {"name": "61b70e88adbaf5ae65e5635c661e106f", "fusion_lat": 0.0, "type": "electric_scooter", "lat": 38.94173033333333, "is_reserved": 0, "is_disabled": 0, "fusion_lon": 0.0, "bike_id": "61b70e88adbaf5ae65e5635c661e106f", "lon": -77.02515, "rental_uris": {"ios": "https://dc.lft.to/lastmile_qr_scan", "android": "https://dc.lft.to/lastmile_qr_scan"}}, {"name": "a22b179bb73b87480e7987b4326900db", "fusion_lat": 0.0, "type": "electric_bike", "lat": 38.89603566666667, "is_reserved": 0, "is_disabled": 0, "fusion_lon": 0.0, "bike_id": "a22b179bb73b87480e7987b4326900db", "lon": -76.9884485, "rental_uris": {"ios": "https://dc.lft.to/lastmile_qr_scan", "android": "https://dc.lft.to/lastmile_qr_scan"}}, {"name": "9514a0caf0adaca48f0df4d33aa2b444", "fusion_lat": 0.0, "type": "electric_scooter", "lat": 38.91686883333333, "is_reserved": 0, "is_disabled": 0, "fusion_lon": 0.0, "bike_id": "9514a0caf0adaca48f0df4d33aa2b444", "lon": -77.03936733333333, "rental_uris": {"ios": "https://dc.lft.to/lastmile_qr_scan", "android": "https://dc.lft.to/lastmile_qr_scan"}}, {"name": "877534863da385535ea15f5e5d13d64f", "fusion_lat": 0.0, "type": "electric_scooter", "lat": 38.91409083333333, "is_reserved": 0, "is_disabled": 0, "fusion_lon": 0.0, "bike_id": "877534863da385535ea15f5e5d13d64f", "lon": -77.0097145, "rental_uris": {"ios": "https://dc.lft.to/lastmile_qr_scan", "android": "https://dc.lft.to/lastmile_qr_scan"}}, {"name": "3dfc317c379b41884aafb57adb6f0b13", "fusion_lat": 0.0, "type": "electric_scooter", "lat": 38.918727833333335, "is_reserved": 0, "is_disabled": 0, "fusion_lon": 0.0, "bike_id": "3dfc317c379b41884aafb57adb6f0b13", "lon": -77.03502433333334, "rental_uris": {"ios": "https://dc.lft.to/lastmile_qr_scan", "android": "https://dc.lft.to/lastmile_qr_scan"}}, {"name": "74204ba30ba67e313ec4b9109c77f45f", "fusion_lat": 0.0, "type": "electric_scooter", "lat": 38.895903, "is_reserved": 0, "is_disabled": 0, "fusion_lon": 0.0, "bike_id": "74204ba30ba67e313ec4b9109c77f45f", "lon": -76.9485905, "rental_uris": {"ios": "https://dc.lft.to/lastmile_qr_scan", "android": "https://dc.lft.to/lastmile_qr_scan"}}, {"name": "4113d76317850d5fc7d49585780ef8e4", "fusion_lat": 0.0, "type": "electric_bike", "lat": 38.89647633333333, "is_reserved": 0, "is_disabled": 0, "fusion_lon": 0.0, "bike_id": "4113d76317850d5fc7d49585780ef8e4", "lon": -77.1045585, "rental_uris": {"ios": "https://dc.lft.to/lastmile_qr_scan", "android": "https://dc.lft.to/lastmile_qr_scan"}}, {"name": "6dd4423e6a59872a9464b514f23b733b", "fusion_lat": 0.0, "type": "electric_bike", "lat": 38.868662, "is_reserved": 0, "is_disabled": 0, "fusion_lon": 0.0, "bike_id": "6dd4423e6a59872a9464b514f23b733b", "lon": -76.91664883333334, "rental_uris": {"ios": "https://dc.lft.to/lastmile_qr_scan", "android": "https://dc.lft.to/lastmile_qr_scan"}}, {"name": "3c72e3ed9568306b3db2a04aebea7977", "fusion_lat": 0.0, "type": "electric_scooter", "lat": 38.923606, "is_reserved": 0, "is_disabled": 0, "fusion_lon": 0.0, "bike_id": "3c72e3ed9568306b3db2a04aebea7977", "lon": -77.05061433333333, "rental_uris": {"ios": "https://dc.lft.to/lastmile_qr_scan", "android": "https://dc.lft.to/lastmile_qr_scan"}}, {"name": "035d22250023cabfc8990a3422856f22", "fusion_lat": 0.0, "type": "electric_scooter", "lat": 38.91536983333334, "is_reserved": 0, "is_disabled": 0, "fusion_lon": 0.0, "bike_id": "035d22250023cabfc8990a3422856f22", "lon": -77.0385845, "rental_uris": {"ios": "https://dc.lft.to/lastmile_qr_scan", "android": "https://dc.lft.to/lastmile_qr_scan"}}, {"name": "e6325fca1b071243b5029b6745de5fec", "fusion_lat": 0.0, "type": "electric_scooter", "lat": 38.87476983333333, "is_reserved": 0, "is_disabled": 0, "fusion_lon": 0.0, "bike_id": "e6325fca1b071243b5029b6745de5fec", "lon": -77.01067016666667, "rental_uris": {"ios": "https://dc.lft.to/lastmile_qr_scan", "android": "https://dc.lft.to/lastmile_qr_scan"}}, {"name": "36a3286473b0045c433172868c423a75", "fusion_lat": 0.0, "type": "electric_scooter", "lat": 38.9217825, "is_reserved": 0, "is_disabled": 0, "fusion_lon": 0.0, "bike_id": "36a3286473b0045c433172868c423a75", "lon": -77.02413483333333, "rental_uris": {"ios": "https://dc.lft.to/lastmile_qr_scan", "android": "https://dc.lft.to/lastmile_qr_scan"}}, {"name": "a3082ce739a37d47e63551454a3926fc", "fusion_lat": 0.0, "type": "electric_scooter", "lat": 38.907958666666666, "is_reserved": 0, "is_disabled": 0, "fusion_lon": 0.0, "bike_id": "a3082ce739a37d47e63551454a3926fc", "lon": -77.03829933333333, "rental_uris": {"ios": "https://dc.lft.to/lastmile_qr_scan", "android": "https://dc.lft.to/lastmile_qr_scan"}}, {"name": "bab92e961caab1a17eac61b276a2c1ff", "fusion_lat": 0.0, "type": "electric_scooter", "lat": 38.90586116666667, "is_reserved": 0, "is_disabled": 0, "fusion_lon": 0.0, "bike_id": "bab92e961caab1a17eac61b276a2c1ff", "lon": -77.002619, "rental_uris": {"ios": "https://dc.lft.to/lastmile_qr_scan", "android": "https://dc.lft.to/lastmile_qr_scan"}}, {"name": "84db120f587d5da28df83d474110b24a", "fusion_lat": 0.0, "type": "electric_bike", "lat": 38.8461225, "is_reserved": 0, "is_disabled": 0, "fusion_lon": 0.0, "bike_id": "84db120f587d5da28df83d474110b24a", "lon": -76.97823033333333, "rental_uris": {"ios": "https://dc.lft.to/lastmile_qr_scan", "android": "https://dc.lft.to/lastmile_qr_scan"}}, {"name": "42fa6bd3c27b0242e55b6f376ebfd5c7", "fusion_lat": 0.0, "type": "electric_scooter", "lat": 38.901366, "is_reserved": 0, "is_disabled": 0, "fusion_lon": 0.0, "bike_id": "42fa6bd3c27b0242e55b6f376ebfd5c7", "lon": -77.01788233333333, "rental_uris": {"ios": "https://dc.lft.to/lastmile_qr_scan", "android": "https://dc.lft.to/lastmile_qr_scan"}}, {"name": "500216a22fd90513e2ead6135723b71a", "fusion_lat": 0.0, "type": "electric_scooter", "lat": 38.9193365, "is_reserved": 0, "is_disabled": 0, "fusion_lon": 0.0, "bike_id": "500216a22fd90513e2ead6135723b71a", "lon": -77.031792, "rental_uris": {"ios": "https://dc.lft.to/lastmile_qr_scan", "android": "https://dc.lft.to/lastmile_qr_scan"}}, {"name": "24d0c34e21619dadda7a4328d3cef706", "fusion_lat": 0.0, "type": "electric_bike", "lat": 38.9535715, "is_reserved": 0, "is_disabled": 0, "fusion_lon": 0.0, "bike_id": "24d0c34e21619dadda7a4328d3cef706", "lon": -76.98093683333333, "rental_uris": {"ios": "https://dc.lft.to/lastmile_qr_scan", "android": "https://dc.lft.to/lastmile_qr_scan"}}, {"name": "2d0d3c4b89a61a240f05d5a85d727529", "fusion_lat": 0.0, "type": "electric_bike", "lat": 39.05811766666667, "is_reserved": 0, "is_disabled": 0, "fusion_lon": 0.0, "bike_id": "2d0d3c4b89a61a240f05d5a85d727529", "lon": -77.126282, "rental_uris": {"ios": "https://dc.lft.to/lastmile_qr_scan", "android": "https://dc.lft.to/lastmile_qr_scan"}}, {"name": "206108d3282cdd9a49bfccc72304711b", "fusion_lat": 0.0, "type": "electric_scooter", "lat": 38.91422516666667, "is_reserved": 0, "is_disabled": 0, "fusion_lon": 0.0, "bike_id": "206108d3282cdd9a49bfccc72304711b", "lon": -77.0318495, "rental_uris": {"ios": "https://dc.lft.to/lastmile_qr_scan", "android": "https://dc.lft.to/lastmile_qr_scan"}}, {"name": "5fa3224705eb2b2dbefe3967c9d8164d", "fusion_lat": 0.0, "type": "electric_scooter", "lat": 38.9056105, "is_reserved": 0, "is_disabled": 0, "fusion_lon": 0.0, "bike_id": "5fa3224705eb2b2dbefe3967c9d8164d", "lon": -77.00525833333333, "rental_uris": {"ios": "https://dc.lft.to/lastmile_qr_scan", "android": "https://dc.lft.to/lastmile_qr_scan"}}, {"name": "6aec4420887e70938979a302df2a596b", "fusion_lat": 0.0, "type": "electric_scooter", "lat": 38.91988716666667, "is_reserved": 0, "is_disabled": 0, "fusion_lon": 0.0, "bike_id": "6aec4420887e70938979a302df2a596b", "lon": -77.02409166666666, "rental_uris": {"ios": "https://dc.lft.to/lastmile_qr_scan", "android": "https://dc.lft.to/lastmile_qr_scan"}}, {"name": "1e9d5a3902af37d279f5fd7a1524a737", "fusion_lat": 0.0, "type": "electric_scooter", "lat": 38.928777333333336, "is_reserved": 0, "is_disabled": 0, "fusion_lon": 0.0, "bike_id": "1e9d5a3902af37d279f5fd7a1524a737", "lon": -77.0140265, "rental_uris": {"ios": "https://dc.lft.to/lastmile_qr_scan", "android": "https://dc.lft.to/lastmile_qr_scan"}}, {"name": "a88b5985c6bdd431e3e195db10b5ce16", "fusion_lat": 0.0, "type": "electric_scooter", "lat": 38.91803783333334, "is_reserved": 0, "is_disabled": 0, "fusion_lon": 0.0, "bike_id": "a88b5985c6bdd431e3e195db10b5ce16", "lon": -77.040014, "rental_uris": {"ios": "https://dc.lft.to/lastmile_qr_scan", "android": "https://dc.lft.to/lastmile_qr_scan"}}, {"name": "e4b6cf09cb31aef2d7751de28c14b4a7", "fusion_lat": 0.0, "type": "electric_scooter", "lat": 38.8873015, "is_reserved": 0, "is_disabled": 0, "fusion_lon": 0.0, "bike_id": "e4b6cf09cb31aef2d7751de28c14b4a7", "lon": -77.01768766666666, "rental_uris": {"ios": "https://dc.lft.to/lastmile_qr_scan", "android": "https://dc.lft.to/lastmile_qr_scan"}}, {"name": "e1671de13ecd89cb79bbed5578fc02de", "fusion_lat": 0.0, "type": "electric_scooter", "lat": 38.90797933333333, "is_reserved": 0, "is_disabled": 0, "fusion_lon": 0.0, "bike_id": "e1671de13ecd89cb79bbed5578fc02de", "lon": -77.0382935, "rental_uris": {"ios": "https://dc.lft.to/lastmile_qr_scan", "android": "https://dc.lft.to/lastmile_qr_scan"}}, {"name": "a71511b979577924c78fa1a803a5acf4", "fusion_lat": 0.0, "type": "electric_bike", "lat": 39.088983, "is_reserved": 0, "is_disabled": 0, "fusion_lon": 0.0, "bike_id": "a71511b979577924c78fa1a803a5acf4", "lon": -77.17847116666667, "rental_uris": {"ios": "https://dc.lft.to/lastmile_qr_scan", "android": "https://dc.lft.to/lastmile_qr_scan"}}, {"name": "19e3bb2157570e70c5bb5fe036cdbb8a", "fusion_lat": 0.0, "type": "electric_scooter", "lat": 38.894131, "is_reserved": 0, "is_disabled": 0, "fusion_lon": 0.0, "bike_id": "19e3bb2157570e70c5bb5fe036cdbb8a", "lon": -76.93964116666666, "rental_uris": {"ios": "https://dc.lft.to/lastmile_qr_scan", "android": "https://dc.lft.to/lastmile_qr_scan"}}, {"name": "1b93cccab6b5b72decc4ccb4e6430bcd", "fusion_lat": 0.0, "type": "electric_scooter", "lat": 38.901633833333335, "is_reserved": 0, "is_disabled": 0, "fusion_lon": 0.0, "bike_id": "1b93cccab6b5b72decc4ccb4e6430bcd", "lon": -77.01600466666666, "rental_uris": {"ios": "https://dc.lft.to/lastmile_qr_scan", "android": "https://dc.lft.to/lastmile_qr_scan"}}, {"name": "91929209fb9a432c687b366b7675f166", "fusion_lat": 0.0, "type": "electric_scooter", "lat": 38.903358833333336, "is_reserved": 0, "is_disabled": 0, "fusion_lon": 0.0, "bike_id": "91929209fb9a432c687b366b7675f166", "lon": -77.02908433333333, "rental_uris": {"ios": "https://dc.lft.to/lastmile_qr_scan", "android": "https://dc.lft.to/lastmile_qr_scan"}}, {"name": "54f58eeea5e282ba6da17469eb638503", "fusion_lat": 0.0, "type": "electric_bike", "lat": 38.956838833333336, "is_reserved": 0, "is_disabled": 0, "fusion_lon": 0.0, "bike_id": "54f58eeea5e282ba6da17469eb638503", "lon": -77.02234166666666, "rental_uris": {"ios": "https://dc.lft.to/lastmile_qr_scan", "android": "https://dc.lft.to/lastmile_qr_scan"}}, {"name": "e4d24d941720bc2ed3415cc9ade2e100", "fusion_lat": 0.0, "type": "electric_scooter", "lat": 38.8965135, "is_reserved": 0, "is_disabled": 0, "fusion_lon": 0.0, "bike_id": "e4d24d941720bc2ed3415cc9ade2e100", "lon": -77.00931983333334, "rental_uris": {"ios": "https://dc.lft.to/lastmile_qr_scan", "android": "https://dc.lft.to/lastmile_qr_scan"}}, {"name": "72b7faf53c053c9bf1f604677bb4a643", "fusion_lat": 0.0, "type": "electric_scooter", "lat": 38.917843833333336, "is_reserved": 0, "is_disabled": 0, "fusion_lon": 0.0, "bike_id": "72b7faf53c053c9bf1f604677bb4a643", "lon": -77.02308533333333, "rental_uris": {"ios": "https://dc.lft.to/lastmile_qr_scan", "android": "https://dc.lft.to/lastmile_qr_scan"}}, {"name": "06717706519cf7424be8a746d05b428e", "fusion_lat": 0.0, "type": "electric_scooter", "lat": 38.91270133333333, "is_reserved": 0, "is_disabled": 0, "fusion_lon": 0.0, "bike_id": "06717706519cf7424be8a746d05b428e", "lon": -77.02214083333334, "rental_uris": {"ios": "https://dc.lft.to/lastmile_qr_scan", "android": "https://dc.lft.to/lastmile_qr_scan"}}, {"name": "5c439f9df957010655858c1d4d92f58e", "fusion_lat": 0.0, "type": "electric_scooter", "lat": 38.874763, "is_reserved": 0, "is_disabled": 0, "fusion_lon": 0.0, "bike_id": "5c439f9df957010655858c1d4d92f58e", "lon": -77.00625166666667, "rental_uris": {"ios": "https://dc.lft.to/lastmile_qr_scan", "android": "https://dc.lft.to/lastmile_qr_scan"}}, {"name": "b66ad4b1d099c7028311a0c64f176d9e", "fusion_lat": 0.0, "type": "electric_scooter", "lat": 38.87112583333333, "is_reserved": 0, "is_disabled": 0, "fusion_lon": 0.0, "bike_id": "b66ad4b1d099c7028311a0c64f176d9e", "lon": -76.96593566666667, "rental_uris": {"ios": "https://dc.lft.to/lastmile_qr_scan", "android": "https://dc.lft.to/lastmile_qr_scan"}}, {"name": "0217b072cd33f513bc19059223d8fcd3", "fusion_lat": 0.0, "type": "electric_scooter", "lat": 38.9154775, "is_reserved": 0, "is_disabled": 0, "fusion_lon": 0.0, "bike_id": "0217b072cd33f513bc19059223d8fcd3", "lon": -77.04158116666666, "rental_uris": {"ios": "https://dc.lft.to/lastmile_qr_scan", "android": "https://dc.lft.to/lastmile_qr_scan"}}, {"name": "7ca9f976e5a21447a5e52db35d2b5bc2", "fusion_lat": 0.0, "type": "electric_bike", "lat": 38.88795233333333, "is_reserved": 0, "is_disabled": 0, "fusion_lon": 0.0, "bike_id": "7ca9f976e5a21447a5e52db35d2b5bc2", "lon": -76.92999966666666, "rental_uris": {"ios": "https://dc.lft.to/lastmile_qr_scan", "android": "https://dc.lft.to/lastmile_qr_scan"}}, {"name": "6215f2c7909e47fdcad0681ba7ac1e78", "fusion_lat": 0.0, "type": "electric_bike", "lat": 38.93669533333333, "is_reserved": 0, "is_disabled": 0, "fusion_lon": 0.0, "bike_id": "6215f2c7909e47fdcad0681ba7ac1e78", "lon": -76.95211133333333, "rental_uris": {"ios": "https://dc.lft.to/lastmile_qr_scan", "android": "https://dc.lft.to/lastmile_qr_scan"}}, {"name": "1fa9e8836324405b0c63f4d488908e75", "fusion_lat": 0.0, "type": "electric_scooter", "lat": 38.897312666666664, "is_reserved": 0, "is_disabled": 0, "fusion_lon": 0.0, "bike_id": "1fa9e8836324405b0c63f4d488908e75", "lon": -77.0465465, "rental_uris": {"ios": "https://dc.lft.to/lastmile_qr_scan", "android": "https://dc.lft.to/lastmile_qr_scan"}}, {"name": "241cbd7787dabcc5f251682fc72fd8a0", "fusion_lat": 0.0, "type": "electric_scooter", "lat": 38.901986, "is_reserved": 0, "is_disabled": 0, "fusion_lon": 0.0, "bike_id": "241cbd7787dabcc5f251682fc72fd8a0", "lon": -77.05062266666667, "rental_uris": {"ios": "https://dc.lft.to/lastmile_qr_scan", "android": "https://dc.lft.to/lastmile_qr_scan"}}, {"name": "07f3aa9c83b2b663c268b1f9e86cfb97", "fusion_lat": 0.0, "type": "electric_scooter", "lat": 38.956434, "is_reserved": 0, "is_disabled": 0, "fusion_lon": 0.0, "bike_id": "07f3aa9c83b2b663c268b1f9e86cfb97", "lon": -77.02276966666666, "rental_uris": {"ios": "https://dc.lft.to/lastmile_qr_scan", "android": "https://dc.lft.to/lastmile_qr_scan"}}, {"name": "15d6b8f3b41d941c922ba10a1879e2de", "fusion_lat": 0.0, "type": "electric_scooter", "lat": 38.92337033333333, "is_reserved": 0, "is_disabled": 0, "fusion_lon": 0.0, "bike_id": "15d6b8f3b41d941c922ba10a1879e2de", "lon": -77.0352445, "rental_uris": {"ios": "https://dc.lft.to/lastmile_qr_scan", "android": "https://dc.lft.to/lastmile_qr_scan"}}, {"name": "a7a342457a1f027c53de55810b3b4b5d", "fusion_lat": 0.0, "type": "electric_bike", "lat": 38.946226, "is_reserved": 0, "is_disabled": 0, "fusion_lon": 0.0, "bike_id": "a7a342457a1f027c53de55810b3b4b5d", "lon": -77.0805335, "rental_uris": {"ios": "https://dc.lft.to/lastmile_qr_scan", "android": "https://dc.lft.to/lastmile_qr_scan"}}, {"name": "c20cee25a720a0aa73756f464b83b3e0", "fusion_lat": 0.0, "type": "electric_bike", "lat": 38.923312833333334, "is_reserved": 0, "is_disabled": 0, "fusion_lon": 0.0, "bike_id": "c20cee25a720a0aa73756f464b83b3e0", "lon": -77.02285616666667, "rental_uris": {"ios": "https://dc.lft.to/lastmile_qr_scan", "android": "https://dc.lft.to/lastmile_qr_scan"}}, {"name": "8192f271e9220a5e25f22f559fd769e5", "fusion_lat": 0.0, "type": "electric_scooter", "lat": 38.9016555, "is_reserved": 0, "is_disabled": 0, "fusion_lon": 0.0, "bike_id": "8192f271e9220a5e25f22f559fd769e5", "lon": -77.01905783333333, "rental_uris": {"ios": "https://dc.lft.to/lastmile_qr_scan", "android": "https://dc.lft.to/lastmile_qr_scan"}}, {"name": "73615ab0fb9257d952104660acab82b3", "fusion_lat": 0.0, "type": "electric_scooter", "lat": 38.903852, "is_reserved": 0, "is_disabled": 0, "fusion_lon": 0.0, "bike_id": "73615ab0fb9257d952104660acab82b3", "lon": -77.0483725, "rental_uris": {"ios": "https://dc.lft.to/lastmile_qr_scan", "android": "https://dc.lft.to/lastmile_qr_scan"}}, {"name": "dde3586a6078603c05f11c02c93f986b", "fusion_lat": 0.0, "type": "electric_scooter", "lat": 38.91248183333333, "is_reserved": 0, "is_disabled": 0, "fusion_lon": 0.0, "bike_id": "dde3586a6078603c05f11c02c93f986b", "lon": -77.0383915, "rental_uris": {"ios": "https://dc.lft.to/lastmile_qr_scan", "android": "https://dc.lft.to/lastmile_qr_scan"}}, {"name": "41e5c6d4bbed2b8b636c84fc07ca82e8", "fusion_lat": 0.0, "type": "electric_bike", "lat": 38.84478766666667, "is_reserved": 0, "is_disabled": 0, "fusion_lon": 0.0, "bike_id": "41e5c6d4bbed2b8b636c84fc07ca82e8", "lon": -76.972286, "rental_uris": {"ios": "https://dc.lft.to/lastmile_qr_scan", "android": "https://dc.lft.to/lastmile_qr_scan"}}, {"name": "7efe513ebc79ff9adedc668f61dd1733", "fusion_lat": 0.0, "type": "electric_scooter", "lat": 38.917584166666664, "is_reserved": 0, "is_disabled": 0, "fusion_lon": 0.0, "bike_id": "7efe513ebc79ff9adedc668f61dd1733", "lon": -77.025147, "rental_uris": {"ios": "https://dc.lft.to/lastmile_qr_scan", "android": "https://dc.lft.to/lastmile_qr_scan"}}, {"name": "1317af7dbf7cd9900ad03e195bcfc86c", "fusion_lat": 0.0, "type": "electric_scooter", "lat": 38.93717616666667, "is_reserved": 0, "is_disabled": 0, "fusion_lon": 0.0, "bike_id": "1317af7dbf7cd9900ad03e195bcfc86c", "lon": -77.03640166666666, "rental_uris": {"ios": "https://dc.lft.to/lastmile_qr_scan", "android": "https://dc.lft.to/lastmile_qr_scan"}}, {"name": "cfabe0b6ea5e797404fa51e61848c188", "fusion_lat": 0.0, "type": "electric_scooter", "lat": 38.917183666666666, "is_reserved": 0, "is_disabled": 0, "fusion_lon": 0.0, "bike_id": "cfabe0b6ea5e797404fa51e61848c188", "lon": -77.01865433333333, "rental_uris": {"ios": "https://dc.lft.to/lastmile_qr_scan", "android": "https://dc.lft.to/lastmile_qr_scan"}}, {"name": "07d774ef12cab28b4eb14f5a7034ecb5", "fusion_lat": 0.0, "type": "electric_bike", "lat": 38.882741833333334, "is_reserved": 0, "is_disabled": 0, "fusion_lon": 0.0, "bike_id": "07d774ef12cab28b4eb14f5a7034ecb5", "lon": -76.9323135, "rental_uris": {"ios": "https://dc.lft.to/lastmile_qr_scan", "android": "https://dc.lft.to/lastmile_qr_scan"}}, {"name": "70881c1ee5939141cef2050fb290d01f", "fusion_lat": 0.0, "type": "electric_scooter", "lat": 38.897458, "is_reserved": 0, "is_disabled": 0, "fusion_lon": 0.0, "bike_id": "70881c1ee5939141cef2050fb290d01f", "lon": -76.99610766666666, "rental_uris": {"ios": "https://dc.lft.to/lastmile_qr_scan", "android": "https://dc.lft.to/lastmile_qr_scan"}}, {"name": "7e3bcaef4aa89de9976fb2133b8abfb8", "fusion_lat": 0.0, "type": "electric_scooter", "lat": 38.87659, "is_reserved": 0, "is_disabled": 0, "fusion_lon": 0.0, "bike_id": "7e3bcaef4aa89de9976fb2133b8abfb8", "lon": -77.00426216666666, "rental_uris": {"ios": "https://dc.lft.to/lastmile_qr_scan", "android": "https://dc.lft.to/lastmile_qr_scan"}}, {"name": "6bfed2372fb5b6d55e688588822c8506", "fusion_lat": 0.0, "type": "electric_scooter", "lat": 38.91262666666667, "is_reserved": 0, "is_disabled": 0, "fusion_lon": 0.0, "bike_id": "6bfed2372fb5b6d55e688588822c8506", "lon": -77.03634283333334, "rental_uris": {"ios": "https://dc.lft.to/lastmile_qr_scan", "android": "https://dc.lft.to/lastmile_qr_scan"}}, {"name": "4c8ec0f23364605a748e938d6d843c19", "fusion_lat": 0.0, "type": "electric_scooter", "lat": 38.9206735, "is_reserved": 0, "is_disabled": 0, "fusion_lon": 0.0, "bike_id": "4c8ec0f23364605a748e938d6d843c19", "lon": -77.032133, "rental_uris": {"ios": "https://dc.lft.to/lastmile_qr_scan", "android": "https://dc.lft.to/lastmile_qr_scan"}}, {"name": "78c3bec29b25c5d3f5ae820f1313cb8d", "fusion_lat": 0.0, "type": "electric_scooter", "lat": 38.924660833333334, "is_reserved": 0, "is_disabled": 0, "fusion_lon": 0.0, "bike_id": "78c3bec29b25c5d3f5ae820f1313cb8d", "lon": -77.0523805, "rental_uris": {"ios": "https://dc.lft.to/lastmile_qr_scan", "android": "https://dc.lft.to/lastmile_qr_scan"}}, {"name": "b2b14d94629b3e36a2c5d4aed322edbc", "fusion_lat": 0.0, "type": "electric_scooter", "lat": 38.92467466666667, "is_reserved": 0, "is_disabled": 0, "fusion_lon": 0.0, "bike_id": "b2b14d94629b3e36a2c5d4aed322edbc", "lon": -77.02713383333334, "rental_uris": {"ios": "https://dc.lft.to/lastmile_qr_scan", "android": "https://dc.lft.to/lastmile_qr_scan"}}, {"name": "c14f683ebda47429bd5dd67751760e69", "fusion_lat": 0.0, "type": "electric_scooter", "lat": 38.91549533333333, "is_reserved": 0, "is_disabled": 0, "fusion_lon": 0.0, "bike_id": "c14f683ebda47429bd5dd67751760e69", "lon": -77.03836616666666, "rental_uris": {"ios": "https://dc.lft.to/lastmile_qr_scan", "android": "https://dc.lft.to/lastmile_qr_scan"}}, {"name": "de53862324565cb3565ed7be7af35f7b", "fusion_lat": 0.0, "type": "electric_scooter", "lat": 38.892204666666665, "is_reserved": 0, "is_disabled": 0, "fusion_lon": 0.0, "bike_id": "de53862324565cb3565ed7be7af35f7b", "lon": -77.03988333333334, "rental_uris": {"ios": "https://dc.lft.to/lastmile_qr_scan", "android": "https://dc.lft.to/lastmile_qr_scan"}}, {"name": "e7e0db8c9592d4d0fd617fee0c75fcdd", "fusion_lat": 0.0, "type": "electric_scooter", "lat": 38.90038466666667, "is_reserved": 0, "is_disabled": 0, "fusion_lon": 0.0, "bike_id": "e7e0db8c9592d4d0fd617fee0c75fcdd", "lon": -76.988311, "rental_uris": {"ios": "https://dc.lft.to/lastmile_qr_scan", "android": "https://dc.lft.to/lastmile_qr_scan"}}, {"name": "db4ab17fb22197b1e55e3e8686cad819", "fusion_lat": 0.0, "type": "electric_bike", "lat": 38.898950666666664, "is_reserved": 0, "is_disabled": 0, "fusion_lon": 0.0, "bike_id": "db4ab17fb22197b1e55e3e8686cad819", "lon": -76.98958666666667, "rental_uris": {"ios": "https://dc.lft.to/lastmile_qr_scan", "android": "https://dc.lft.to/lastmile_qr_scan"}}, {"name": "f523857acb54feae71d64b645673b2c4", "fusion_lat": 0.0, "type": "electric_scooter", "lat": 38.90725966666667, "is_reserved": 0, "is_disabled": 0, "fusion_lon": 0.0, "bike_id": "f523857acb54feae71d64b645673b2c4", "lon": -77.03210966666667, "rental_uris": {"ios": "https://dc.lft.to/lastmile_qr_scan", "android": "https://dc.lft.to/lastmile_qr_scan"}}, {"name": "c27cdc78287f4c1e06295636c66b4796", "fusion_lat": 0.0, "type": "electric_scooter", "lat": 38.931296, "is_reserved": 0, "is_disabled": 0, "fusion_lon": 0.0, "bike_id": "c27cdc78287f4c1e06295636c66b4796", "lon": -77.02202533333333, "rental_uris": {"ios": "https://dc.lft.to/lastmile_qr_scan", "android": "https://dc.lft.to/lastmile_qr_scan"}}, {"name": "ff6c689cd3ae3767bfe83e4277ded605", "fusion_lat": 0.0, "type": "electric_scooter", "lat": 38.909510833333336, "is_reserved": 0, "is_disabled": 0, "fusion_lon": 0.0, "bike_id": "ff6c689cd3ae3767bfe83e4277ded605", "lon": -77.02760616666667, "rental_uris": {"ios": "https://dc.lft.to/lastmile_qr_scan", "android": "https://dc.lft.to/lastmile_qr_scan"}}, {"name": "5c8cf468d165d19e93e1441b36f02188", "fusion_lat": 0.0, "type": "electric_scooter", "lat": 38.90356, "is_reserved": 0, "is_disabled": 0, "fusion_lon": 0.0, "bike_id": "5c8cf468d165d19e93e1441b36f02188", "lon": -77.0534115, "rental_uris": {"ios": "https://dc.lft.to/lastmile_qr_scan", "android": "https://dc.lft.to/lastmile_qr_scan"}}, {"name": "3fa11ac816aeff74e08baf650dfd143b", "fusion_lat": 0.0, "type": "electric_scooter", "lat": 38.9160085, "is_reserved": 0, "is_disabled": 0, "fusion_lon": 0.0, "bike_id": "3fa11ac816aeff74e08baf650dfd143b", "lon": -77.03211883333333, "rental_uris": {"ios": "https://dc.lft.to/lastmile_qr_scan", "android": "https://dc.lft.to/lastmile_qr_scan"}}, {"name": "df136dabf3824d6b855cfd21593b99bd", "fusion_lat": 0.0, "type": "electric_scooter", "lat": 38.90407783333333, "is_reserved": 0, "is_disabled": 0, "fusion_lon": 0.0, "bike_id": "df136dabf3824d6b855cfd21593b99bd", "lon": -77.034451, "rental_uris": {"ios": "https://dc.lft.to/lastmile_qr_scan", "android": "https://dc.lft.to/lastmile_qr_scan"}}, {"name": "f7c96dfedc8e51825c8b80b19701492f", "fusion_lat": 0.0, "type": "electric_bike", "lat": 39.03860366666667, "is_reserved": 0, "is_disabled": 0, "fusion_lon": 0.0, "bike_id": "f7c96dfedc8e51825c8b80b19701492f", "lon": -76.990298, "rental_uris": {"ios": "https://dc.lft.to/lastmile_qr_scan", "android": "https://dc.lft.to/lastmile_qr_scan"}}, {"name": "20ede0241bfcccbd2850f5d14645adcd", "fusion_lat": 0.0, "type": "electric_scooter", "lat": 38.91238716666667, "is_reserved": 0, "is_disabled": 0, "fusion_lon": 0.0, "bike_id": "20ede0241bfcccbd2850f5d14645adcd", "lon": -77.00921716666667, "rental_uris": {"ios": "https://dc.lft.to/lastmile_qr_scan", "android": "https://dc.lft.to/lastmile_qr_scan"}}, {"name": "ce35e124083eb7c0b7a7188e73a0f18f", "fusion_lat": 0.0, "type": "electric_scooter", "lat": 38.902753, "is_reserved": 0, "is_disabled": 0, "fusion_lon": 0.0, "bike_id": "ce35e124083eb7c0b7a7188e73a0f18f", "lon": -76.99863583333334, "rental_uris": {"ios": "https://dc.lft.to/lastmile_qr_scan", "android": "https://dc.lft.to/lastmile_qr_scan"}}, {"name": "34c1bbfda382af7cc304c02949547bf6", "fusion_lat": 0.0, "type": "electric_scooter", "lat": 38.92234633333333, "is_reserved": 0, "is_disabled": 0, "fusion_lon": 0.0, "bike_id": "34c1bbfda382af7cc304c02949547bf6", "lon": -77.02985566666666, "rental_uris": {"ios": "https://dc.lft.to/lastmile_qr_scan", "android": "https://dc.lft.to/lastmile_qr_scan"}}, {"name": "1feb8fba4d42f66069d13826aa8b15da", "fusion_lat": 0.0, "type": "electric_scooter", "lat": 38.90533683333334, "is_reserved": 0, "is_disabled": 0, "fusion_lon": 0.0, "bike_id": "1feb8fba4d42f66069d13826aa8b15da", "lon": -77.04994366666666, "rental_uris": {"ios": "https://dc.lft.to/lastmile_qr_scan", "android": "https://dc.lft.to/lastmile_qr_scan"}}, {"name": "31bb33f27aaaffdf143de507b630ac8f", "fusion_lat": 0.0, "type": "electric_scooter", "lat": 38.921308833333335, "is_reserved": 0, "is_disabled": 0, "fusion_lon": 0.0, "bike_id": "31bb33f27aaaffdf143de507b630ac8f", "lon": -77.0411135, "rental_uris": {"ios": "https://dc.lft.to/lastmile_qr_scan", "android": "https://dc.lft.to/lastmile_qr_scan"}}, {"name": "29b2b30feffb72ddc59685c63fa78633", "fusion_lat": 0.0, "type": "electric_bike", "lat": 38.964974166666664, "is_reserved": 0, "is_disabled": 0, "fusion_lon": 0.0, "bike_id": "29b2b30feffb72ddc59685c63fa78633", "lon": -77.064973, "rental_uris": {"ios": "https://dc.lft.to/lastmile_qr_scan", "android": "https://dc.lft.to/lastmile_qr_scan"}}, {"name": "573d5565ac9003b1b8754e7562ea421a", "fusion_lat": 0.0, "type": "electric_scooter", "lat": 38.9126805, "is_reserved": 0, "is_disabled": 0, "fusion_lon": 0.0, "bike_id": "573d5565ac9003b1b8754e7562ea421a", "lon": -77.0221605, "rental_uris": {"ios": "https://dc.lft.to/lastmile_qr_scan", "android": "https://dc.lft.to/lastmile_qr_scan"}}, {"name": "7d694f67ce7119c48cac7b5d49daedac", "fusion_lat": 0.0, "type": "electric_scooter", "lat": 38.9066275, "is_reserved": 0, "is_disabled": 0, "fusion_lon": 0.0, "bike_id": "7d694f67ce7119c48cac7b5d49daedac", "lon": -77.038573, "rental_uris": {"ios": "https://dc.lft.to/lastmile_qr_scan", "android": "https://dc.lft.to/lastmile_qr_scan"}}, {"name": "b26d36514162199a761ae57946cae3d6", "fusion_lat": 0.0, "type": "electric_scooter", "lat": 38.9370225, "is_reserved": 0, "is_disabled": 0, "fusion_lon": 0.0, "bike_id": "b26d36514162199a761ae57946cae3d6", "lon": -77.02398883333333, "rental_uris": {"ios": "https://dc.lft.to/lastmile_qr_scan", "android": "https://dc.lft.to/lastmile_qr_scan"}}, {"name": "f0cbe206e85e31fcf06beb7a60208e56", "fusion_lat": 0.0, "type": "electric_scooter", "lat": 38.9184895, "is_reserved": 0, "is_disabled": 0, "fusion_lon": 0.0, "bike_id": "f0cbe206e85e31fcf06beb7a60208e56", "lon": -77.0246745, "rental_uris": {"ios": "https://dc.lft.to/lastmile_qr_scan", "android": "https://dc.lft.to/lastmile_qr_scan"}}, {"name": "2fcf10b2b70b94beba057cac80918eb9", "fusion_lat": 0.0, "type": "electric_scooter", "lat": 38.935297, "is_reserved": 0, "is_disabled": 0, "fusion_lon": 0.0, "bike_id": "2fcf10b2b70b94beba057cac80918eb9", "lon": -77.03426266666666, "rental_uris": {"ios": "https://dc.lft.to/lastmile_qr_scan", "android": "https://dc.lft.to/lastmile_qr_scan"}}, {"name": "f356ef3d42cb38ec09242f03400acfa4", "fusion_lat": 0.0, "type": "electric_scooter", "lat": 38.906996166666666, "is_reserved": 0, "is_disabled": 0, "fusion_lon": 0.0, "bike_id": "f356ef3d42cb38ec09242f03400acfa4", "lon": -77.04171533333333, "rental_uris": {"ios": "https://dc.lft.to/lastmile_qr_scan", "android": "https://dc.lft.to/lastmile_qr_scan"}}, {"name": "f32b43129478a58494fea3255b26fb02", "fusion_lat": 0.0, "type": "electric_scooter", "lat": 38.89793916666667, "is_reserved": 0, "is_disabled": 0, "fusion_lon": 0.0, "bike_id": "f32b43129478a58494fea3255b26fb02", "lon": -76.94419633333334, "rental_uris": {"ios": "https://dc.lft.to/lastmile_qr_scan", "android": "https://dc.lft.to/lastmile_qr_scan"}}, {"name": "8d098327eef0a6363f4537afabc909d7", "fusion_lat": 0.0, "type": "electric_scooter", "lat": 38.923379833333335, "is_reserved": 0, "is_disabled": 0, "fusion_lon": 0.0, "bike_id": "8d098327eef0a6363f4537afabc909d7", "lon": -77.03656183333334, "rental_uris": {"ios": "https://dc.lft.to/lastmile_qr_scan", "android": "https://dc.lft.to/lastmile_qr_scan"}}, {"name": "401be9895a36177eae8e4d221d752c6b", "fusion_lat": 0.0, "type": "electric_scooter", "lat": 38.93425233333333, "is_reserved": 0, "is_disabled": 0, "fusion_lon": 0.0, "bike_id": "401be9895a36177eae8e4d221d752c6b", "lon": -77.04008, "rental_uris": {"ios": "https://dc.lft.to/lastmile_qr_scan", "android": "https://dc.lft.to/lastmile_qr_scan"}}, {"name": "7727fc4fed9c530f5a75a83c4dcf5906", "fusion_lat": 0.0, "type": "electric_scooter", "lat": 38.90365333333333, "is_reserved": 0, "is_disabled": 0, "fusion_lon": 0.0, "bike_id": "7727fc4fed9c530f5a75a83c4dcf5906", "lon": -77.00350016666667, "rental_uris": {"ios": "https://dc.lft.to/lastmile_qr_scan", "android": "https://dc.lft.to/lastmile_qr_scan"}}, {"name": "10cf20ea00bf0cd8fafb6471cdf16ae1", "fusion_lat": 0.0, "type": "electric_scooter", "lat": 38.91812983333333, "is_reserved": 0, "is_disabled": 0, "fusion_lon": 0.0, "bike_id": "10cf20ea00bf0cd8fafb6471cdf16ae1", "lon": -77.03214583333333, "rental_uris": {"ios": "https://dc.lft.to/lastmile_qr_scan", "android": "https://dc.lft.to/lastmile_qr_scan"}}, {"name": "8e7d801c47005df70585151bd2b06333", "fusion_lat": 0.0, "type": "electric_scooter", "lat": 38.91268983333333, "is_reserved": 0, "is_disabled": 0, "fusion_lon": 0.0, "bike_id": "8e7d801c47005df70585151bd2b06333", "lon": -77.03872366666667, "rental_uris": {"ios": "https://dc.lft.to/lastmile_qr_scan", "android": "https://dc.lft.to/lastmile_qr_scan"}}, {"name": "c98940d89abf6b65e8abb9d9d79c62eb", "fusion_lat": 0.0, "type": "electric_scooter", "lat": 38.904075666666664, "is_reserved": 0, "is_disabled": 0, "fusion_lon": 0.0, "bike_id": "c98940d89abf6b65e8abb9d9d79c62eb", "lon": -77.06426333333333, "rental_uris": {"ios": "https://dc.lft.to/lastmile_qr_scan", "android": "https://dc.lft.to/lastmile_qr_scan"}}, {"name": "f900f3141d5ff7393a26653c7b342a67", "fusion_lat": 0.0, "type": "electric_scooter", "lat": 38.93265383333333, "is_reserved": 0, "is_disabled": 0, "fusion_lon": 0.0, "bike_id": "f900f3141d5ff7393a26653c7b342a67", "lon": -77.03898433333333, "rental_uris": {"ios": "https://dc.lft.to/lastmile_qr_scan", "android": "https://dc.lft.to/lastmile_qr_scan"}}, {"name": "87d2e6c229b620c0019af7927996b116", "fusion_lat": 0.0, "type": "electric_scooter", "lat": 38.9361655, "is_reserved": 0, "is_disabled": 0, "fusion_lon": 0.0, "bike_id": "87d2e6c229b620c0019af7927996b116", "lon": -77.0321465, "rental_uris": {"ios": "https://dc.lft.to/lastmile_qr_scan", "android": "https://dc.lft.to/lastmile_qr_scan"}}, {"name": "3a28ae6e247bc7f887201abc90af72d2", "fusion_lat": 0.0, "type": "electric_scooter", "lat": 38.9069485, "is_reserved": 0, "is_disabled": 0, "fusion_lon": 0.0, "bike_id": "3a28ae6e247bc7f887201abc90af72d2", "lon": -77.023959, "rental_uris": {"ios": "https://dc.lft.to/lastmile_qr_scan", "android": "https://dc.lft.to/lastmile_qr_scan"}}, {"name": "3cce80664ce7f8a19546ab214a0a644f", "fusion_lat": 0.0, "type": "electric_scooter", "lat": 38.911733166666664, "is_reserved": 0, "is_disabled": 0, "fusion_lon": 0.0, "bike_id": "3cce80664ce7f8a19546ab214a0a644f", "lon": -77.01126016666667, "rental_uris": {"ios": "https://dc.lft.to/lastmile_qr_scan", "android": "https://dc.lft.to/lastmile_qr_scan"}}, {"name": "5982bbeb3c78e79b19172f9d1c4f8a7a", "fusion_lat": 0.0, "type": "electric_scooter", "lat": 38.887617166666665, "is_reserved": 0, "is_disabled": 0, "fusion_lon": 0.0, "bike_id": "5982bbeb3c78e79b19172f9d1c4f8a7a", "lon": -76.95602666666667, "rental_uris": {"ios": "https://dc.lft.to/lastmile_qr_scan", "android": "https://dc.lft.to/lastmile_qr_scan"}}, {"name": "05875bd4c04cab6b582bb701d041abcf", "fusion_lat": 0.0, "type": "electric_scooter", "lat": 38.922281166666664, "is_reserved": 0, "is_disabled": 0, "fusion_lon": 0.0, "bike_id": "05875bd4c04cab6b582bb701d041abcf", "lon": -77.04717033333333, "rental_uris": {"ios": "https://dc.lft.to/lastmile_qr_scan", "android": "https://dc.lft.to/lastmile_qr_scan"}}, {"name": "0b3f61f5d4cba0ba920e05c8a03bd6be", "fusion_lat": 0.0, "type": "electric_scooter", "lat": 38.929028833333334, "is_reserved": 0, "is_disabled": 0, "fusion_lon": 0.0, "bike_id": "0b3f61f5d4cba0ba920e05c8a03bd6be", "lon": -77.03284083333334, "rental_uris": {"ios": "https://dc.lft.to/lastmile_qr_scan", "android": "https://dc.lft.to/lastmile_qr_scan"}}, {"name": "51228bcb448cc6f5796c45b2155f0271", "fusion_lat": 0.0, "type": "electric_scooter", "lat": 38.896077166666664, "is_reserved": 0, "is_disabled": 0, "fusion_lon": 0.0, "bike_id": "51228bcb448cc6f5796c45b2155f0271", "lon": -77.026963, "rental_uris": {"ios": "https://dc.lft.to/lastmile_qr_scan", "android": "https://dc.lft.to/lastmile_qr_scan"}}, {"name": "d4435c40123530997e1936c47b201084", "fusion_lat": 0.0, "type": "electric_scooter", "lat": 38.914226666666664, "is_reserved": 0, "is_disabled": 0, "fusion_lon": 0.0, "bike_id": "d4435c40123530997e1936c47b201084", "lon": -77.02207566666667, "rental_uris": {"ios": "https://dc.lft.to/lastmile_qr_scan", "android": "https://dc.lft.to/lastmile_qr_scan"}}, {"name": "9c085eb1cf389f5b8585a556956ad872", "fusion_lat": 0.0, "type": "electric_scooter", "lat": 38.937041666666666, "is_reserved": 0, "is_disabled": 0, "fusion_lon": 0.0, "bike_id": "9c085eb1cf389f5b8585a556956ad872", "lon": -77.06100666666667, "rental_uris": {"ios": "https://dc.lft.to/lastmile_qr_scan", "android": "https://dc.lft.to/lastmile_qr_scan"}}, {"name": "50640a158398b5983062ae062c16cf0b", "fusion_lat": 0.0, "type": "electric_scooter", "lat": 38.876617833333334, "is_reserved": 0, "is_disabled": 0, "fusion_lon": 0.0, "bike_id": "50640a158398b5983062ae062c16cf0b", "lon": -77.00415583333333, "rental_uris": {"ios": "https://dc.lft.to/lastmile_qr_scan", "android": "https://dc.lft.to/lastmile_qr_scan"}}, {"name": "a3163ff7c1294845efa52c2fe3347973", "fusion_lat": 0.0, "type": "electric_scooter", "lat": 38.93389666666667, "is_reserved": 0, "is_disabled": 0, "fusion_lon": 0.0, "bike_id": "a3163ff7c1294845efa52c2fe3347973", "lon": -77.03582033333333, "rental_uris": {"ios": "https://dc.lft.to/lastmile_qr_scan", "android": "https://dc.lft.to/lastmile_qr_scan"}}, {"name": "7ad1b0cfe04761f51a9e9fad07b34233", "fusion_lat": 0.0, "type": "electric_bike", "lat": 38.99906216666667, "is_reserved": 0, "is_disabled": 0, "fusion_lon": 0.0, "bike_id": "7ad1b0cfe04761f51a9e9fad07b34233", "lon": -77.04631416666666, "rental_uris": {"ios": "https://dc.lft.to/lastmile_qr_scan", "android": "https://dc.lft.to/lastmile_qr_scan"}}, {"name": "d22b8661d12911f593e1e3f99ec38e7d", "fusion_lat": 0.0, "type": "electric_bike", "lat": 38.9738315, "is_reserved": 0, "is_disabled": 0, "fusion_lon": 0.0, "bike_id": "d22b8661d12911f593e1e3f99ec38e7d", "lon": -77.064762, "rental_uris": {"ios": "https://dc.lft.to/lastmile_qr_scan", "android": "https://dc.lft.to/lastmile_qr_scan"}}, {"name": "b9bc05be4e3c99a178e9b6808bfb1831", "fusion_lat": 0.0, "type": "electric_scooter", "lat": 38.878967, "is_reserved": 0, "is_disabled": 0, "fusion_lon": 0.0, "bike_id": "b9bc05be4e3c99a178e9b6808bfb1831", "lon": -77.005515, "rental_uris": {"ios": "https://dc.lft.to/lastmile_qr_scan", "android": "https://dc.lft.to/lastmile_qr_scan"}}, {"name": "a7d414861c98417dc57e09e4543a806b", "fusion_lat": 0.0, "type": "electric_scooter", "lat": 38.87664783333334, "is_reserved": 0, "is_disabled": 0, "fusion_lon": 0.0, "bike_id": "a7d414861c98417dc57e09e4543a806b", "lon": -77.00066416666667, "rental_uris": {"ios": "https://dc.lft.to/lastmile_qr_scan", "android": "https://dc.lft.to/lastmile_qr_scan"}}, {"name": "1b778fc62826dc0e68f50a899000dbac", "fusion_lat": 0.0, "type": "electric_scooter", "lat": 38.878006, "is_reserved": 0, "is_disabled": 0, "fusion_lon": 0.0, "bike_id": "1b778fc62826dc0e68f50a899000dbac", "lon": -77.00597433333333, "rental_uris": {"ios": "https://dc.lft.to/lastmile_qr_scan", "android": "https://dc.lft.to/lastmile_qr_scan"}}, {"name": "d34733c7e3478476676c8a858b7bcc32", "fusion_lat": 0.0, "type": "electric_scooter", "lat": 38.9090515, "is_reserved": 0, "is_disabled": 0, "fusion_lon": 0.0, "bike_id": "d34733c7e3478476676c8a858b7bcc32", "lon": -77.02713533333333, "rental_uris": {"ios": "https://dc.lft.to/lastmile_qr_scan", "android": "https://dc.lft.to/lastmile_qr_scan"}}, {"name": "a7de212537f1fbff008319f1de4180ac", "fusion_lat": 0.0, "type": "electric_bike", "lat": 38.9127005, "is_reserved": 0, "is_disabled": 0, "fusion_lon": 0.0, "bike_id": "a7de212537f1fbff008319f1de4180ac", "lon": -77.02263933333333, "rental_uris": {"ios": "https://dc.lft.to/lastmile_qr_scan", "android": "https://dc.lft.to/lastmile_qr_scan"}}, {"name": "024dac934af08ad19d7ac26e624f9ff2", "fusion_lat": 0.0, "type": "electric_scooter", "lat": 38.89447283333333, "is_reserved": 0, "is_disabled": 0, "fusion_lon": 0.0, "bike_id": "024dac934af08ad19d7ac26e624f9ff2", "lon": -77.0109845, "rental_uris": {"ios": "https://dc.lft.to/lastmile_qr_scan", "android": "https://dc.lft.to/lastmile_qr_scan"}}, {"name": "9d41bd0ba5ba7c502a01b81938e9ebf2", "fusion_lat": 0.0, "type": "electric_scooter", "lat": 38.938979333333336, "is_reserved": 0, "is_disabled": 0, "fusion_lon": 0.0, "bike_id": "9d41bd0ba5ba7c502a01b81938e9ebf2", "lon": -77.03262716666667, "rental_uris": {"ios": "https://dc.lft.to/lastmile_qr_scan", "android": "https://dc.lft.to/lastmile_qr_scan"}}, {"name": "0a5b16d9ac15844bd0a561af9e5be3f8", "fusion_lat": 0.0, "type": "electric_bike", "lat": 38.8193775, "is_reserved": 0, "is_disabled": 0, "fusion_lon": 0.0, "bike_id": "0a5b16d9ac15844bd0a561af9e5be3f8", "lon": -77.00209033333333, "rental_uris": {"ios": "https://dc.lft.to/lastmile_qr_scan", "android": "https://dc.lft.to/lastmile_qr_scan"}}, {"name": "78a4e5809d5c746164885e0e61cbec35", "fusion_lat": 0.0, "type": "electric_scooter", "lat": 38.90253383333334, "is_reserved": 0, "is_disabled": 0, "fusion_lon": 0.0, "bike_id": "78a4e5809d5c746164885e0e61cbec35", "lon": -77.04046533333333, "rental_uris": {"ios": "https://dc.lft.to/lastmile_qr_scan", "android": "https://dc.lft.to/lastmile_qr_scan"}}, {"name": "f449fd58c519810e05cf1614c3ace1a3", "fusion_lat": 0.0, "type": "electric_scooter", "lat": 38.926787, "is_reserved": 0, "is_disabled": 0, "fusion_lon": 0.0, "bike_id": "f449fd58c519810e05cf1614c3ace1a3", "lon": -77.01467783333334, "rental_uris": {"ios": "https://dc.lft.to/lastmile_qr_scan", "android": "https://dc.lft.to/lastmile_qr_scan"}}, {"name": "8d8f51145034666728e2ac6477977ec9", "fusion_lat": 0.0, "type": "electric_bike", "lat": 38.96533766666667, "is_reserved": 0, "is_disabled": 0, "fusion_lon": 0.0, "bike_id": "8d8f51145034666728e2ac6477977ec9", "lon": -77.03520983333334, "rental_uris": {"ios": "https://dc.lft.to/lastmile_qr_scan", "android": "https://dc.lft.to/lastmile_qr_scan"}}, {"name": "b4782d2c04d4e6e1d1ba0256100f2e45", "fusion_lat": 0.0, "type": "electric_scooter", "lat": 38.90321266666667, "is_reserved": 0, "is_disabled": 0, "fusion_lon": 0.0, "bike_id": "b4782d2c04d4e6e1d1ba0256100f2e45", "lon": -77.0532985, "rental_uris": {"ios": "https://dc.lft.to/lastmile_qr_scan", "android": "https://dc.lft.to/lastmile_qr_scan"}}, {"name": "73b9c2a76b0f63c7c45b34d2433ec1ac", "fusion_lat": 0.0, "type": "electric_scooter", "lat": 38.89492416666667, "is_reserved": 0, "is_disabled": 0, "fusion_lon": 0.0, "bike_id": "73b9c2a76b0f63c7c45b34d2433ec1ac", "lon": -77.01017416666667, "rental_uris": {"ios": "https://dc.lft.to/lastmile_qr_scan", "android": "https://dc.lft.to/lastmile_qr_scan"}}, {"name": "6e4582a6b86cbffa868d505a9f305e82", "fusion_lat": 0.0, "type": "electric_scooter", "lat": 38.9104175, "is_reserved": 0, "is_disabled": 0, "fusion_lon": 0.0, "bike_id": "6e4582a6b86cbffa868d505a9f305e82", "lon": -77.02813, "rental_uris": {"ios": "https://dc.lft.to/lastmile_qr_scan", "android": "https://dc.lft.to/lastmile_qr_scan"}}, {"name": "572f43952f5b165a42c30d9db7b6441a", "fusion_lat": 0.0, "type": "electric_bike", "lat": 38.9301275, "is_reserved": 0, "is_disabled": 0, "fusion_lon": 0.0, "bike_id": "572f43952f5b165a42c30d9db7b6441a", "lon": -77.0378935, "rental_uris": {"ios": "https://dc.lft.to/lastmile_qr_scan", "android": "https://dc.lft.to/lastmile_qr_scan"}}, {"name": "1fa63e030042791c50f0f4bbe129ec57", "fusion_lat": 0.0, "type": "electric_scooter", "lat": 38.9070595, "is_reserved": 0, "is_disabled": 0, "fusion_lon": 0.0, "bike_id": "1fa63e030042791c50f0f4bbe129ec57", "lon": -76.98701816666667, "rental_uris": {"ios": "https://dc.lft.to/lastmile_qr_scan", "android": "https://dc.lft.to/lastmile_qr_scan"}}, {"name": "9b49d48462be95c9d0ecdc7b12f9048f", "fusion_lat": 0.0, "type": "electric_scooter", "lat": 38.91562716666667, "is_reserved": 0, "is_disabled": 0, "fusion_lon": 0.0, "bike_id": "9b49d48462be95c9d0ecdc7b12f9048f", "lon": -77.0428535, "rental_uris": {"ios": "https://dc.lft.to/lastmile_qr_scan", "android": "https://dc.lft.to/lastmile_qr_scan"}}, {"name": "29ba5b1f21946b2b59dcd33e5cdf1163", "fusion_lat": 0.0, "type": "electric_scooter", "lat": 38.88740333333333, "is_reserved": 0, "is_disabled": 0, "fusion_lon": 0.0, "bike_id": "29ba5b1f21946b2b59dcd33e5cdf1163", "lon": -77.0153725, "rental_uris": {"ios": "https://dc.lft.to/lastmile_qr_scan", "android": "https://dc.lft.to/lastmile_qr_scan"}}, {"name": "93caa0e07d0b568dee9da4d88b057615", "fusion_lat": 0.0, "type": "electric_scooter", "lat": 38.91545766666667, "is_reserved": 0, "is_disabled": 0, "fusion_lon": 0.0, "bike_id": "93caa0e07d0b568dee9da4d88b057615", "lon": -77.03848033333334, "rental_uris": {"ios": "https://dc.lft.to/lastmile_qr_scan", "android": "https://dc.lft.to/lastmile_qr_scan"}}, {"name": "654decd4f7de68558155f93ffb52a583", "fusion_lat": 0.0, "type": "electric_scooter", "lat": 38.9184485, "is_reserved": 0, "is_disabled": 0, "fusion_lon": 0.0, "bike_id": "654decd4f7de68558155f93ffb52a583", "lon": -77.00173683333334, "rental_uris": {"ios": "https://dc.lft.to/lastmile_qr_scan", "android": "https://dc.lft.to/lastmile_qr_scan"}}, {"name": "2b50920b6707505576a51695b3ab1732", "fusion_lat": 0.0, "type": "electric_scooter", "lat": 38.905406666666664, "is_reserved": 0, "is_disabled": 0, "fusion_lon": 0.0, "bike_id": "2b50920b6707505576a51695b3ab1732", "lon": -77.06280766666667, "rental_uris": {"ios": "https://dc.lft.to/lastmile_qr_scan", "android": "https://dc.lft.to/lastmile_qr_scan"}}, {"name": "2f33da2d77f85aab1a03f5182f810559", "fusion_lat": 0.0, "type": "electric_scooter", "lat": 38.90802716666666, "is_reserved": 0, "is_disabled": 0, "fusion_lon": 0.0, "bike_id": "2f33da2d77f85aab1a03f5182f810559", "lon": -77.03196366666667, "rental_uris": {"ios": "https://dc.lft.to/lastmile_qr_scan", "android": "https://dc.lft.to/lastmile_qr_scan"}}, {"name": "360de3b61cf3d425dff9d616ffff91f0", "fusion_lat": 0.0, "type": "electric_scooter", "lat": 38.912633666666665, "is_reserved": 0, "is_disabled": 0, "fusion_lon": 0.0, "bike_id": "360de3b61cf3d425dff9d616ffff91f0", "lon": -77.03873633333333, "rental_uris": {"ios": "https://dc.lft.to/lastmile_qr_scan", "android": "https://dc.lft.to/lastmile_qr_scan"}}, {"name": "d2b123a5b9257284646f059f47c2f15a", "fusion_lat": 0.0, "type": "electric_scooter", "lat": 38.935443166666666, "is_reserved": 0, "is_disabled": 0, "fusion_lon": 0.0, "bike_id": "d2b123a5b9257284646f059f47c2f15a", "lon": -77.0597735, "rental_uris": {"ios": "https://dc.lft.to/lastmile_qr_scan", "android": "https://dc.lft.to/lastmile_qr_scan"}}, {"name": "01cdd69ae931ae5e4530e017539ebe97", "fusion_lat": 0.0, "type": "electric_scooter", "lat": 38.90029883333333, "is_reserved": 0, "is_disabled": 0, "fusion_lon": 0.0, "bike_id": "01cdd69ae931ae5e4530e017539ebe97", "lon": -76.98516383333333, "rental_uris": {"ios": "https://dc.lft.to/lastmile_qr_scan", "android": "https://dc.lft.to/lastmile_qr_scan"}}, {"name": "6eadf34d0ba7072369dd435dad67278f", "fusion_lat": 0.0, "type": "electric_scooter", "lat": 38.925650833333336, "is_reserved": 0, "is_disabled": 0, "fusion_lon": 0.0, "bike_id": "6eadf34d0ba7072369dd435dad67278f", "lon": -77.029645, "rental_uris": {"ios": "https://dc.lft.to/lastmile_qr_scan", "android": "https://dc.lft.to/lastmile_qr_scan"}}, {"name": "e676bcdf79270e45b287feaa83d50cb8", "fusion_lat": 0.0, "type": "electric_scooter", "lat": 38.93634866666667, "is_reserved": 0, "is_disabled": 0, "fusion_lon": 0.0, "bike_id": "e676bcdf79270e45b287feaa83d50cb8", "lon": -77.03456766666666, "rental_uris": {"ios": "https://dc.lft.to/lastmile_qr_scan", "android": "https://dc.lft.to/lastmile_qr_scan"}}, {"name": "85ef59733e8ca04b568f9686f49d2f44", "fusion_lat": 0.0, "type": "electric_bike", "lat": 38.898339, "is_reserved": 0, "is_disabled": 0, "fusion_lon": 0.0, "bike_id": "85ef59733e8ca04b568f9686f49d2f44", "lon": -77.11798566666667, "rental_uris": {"ios": "https://dc.lft.to/lastmile_qr_scan", "android": "https://dc.lft.to/lastmile_qr_scan"}}, {"name": "60d4e6a5b54f8e2b7614d9ea48ff185a", "fusion_lat": 0.0, "type": "electric_scooter", "lat": 38.92477316666667, "is_reserved": 0, "is_disabled": 0, "fusion_lon": 0.0, "bike_id": "60d4e6a5b54f8e2b7614d9ea48ff185a", "lon": -77.0275375, "rental_uris": {"ios": "https://dc.lft.to/lastmile_qr_scan", "android": "https://dc.lft.to/lastmile_qr_scan"}}, {"name": "312fff1d10acecefe3a361a6bddd2bb7", "fusion_lat": 0.0, "type": "electric_bike", "lat": 38.9041405, "is_reserved": 0, "is_disabled": 0, "fusion_lon": 0.0, "bike_id": "312fff1d10acecefe3a361a6bddd2bb7", "lon": -76.987955, "rental_uris": {"ios": "https://dc.lft.to/lastmile_qr_scan", "android": "https://dc.lft.to/lastmile_qr_scan"}}, {"name": "7764694f9e635aaa98316b7ccfbbc6c1", "fusion_lat": 0.0, "type": "electric_scooter", "lat": 38.907974833333334, "is_reserved": 0, "is_disabled": 0, "fusion_lon": 0.0, "bike_id": "7764694f9e635aaa98316b7ccfbbc6c1", "lon": -77.03833216666666, "rental_uris": {"ios": "https://dc.lft.to/lastmile_qr_scan", "android": "https://dc.lft.to/lastmile_qr_scan"}}, {"name": "7f2bce931d7163d361bbf3f7500292b4", "fusion_lat": 0.0, "type": "electric_scooter", "lat": 38.9162665, "is_reserved": 0, "is_disabled": 0, "fusion_lon": 0.0, "bike_id": "7f2bce931d7163d361bbf3f7500292b4", "lon": -77.03908616666666, "rental_uris": {"ios": "https://dc.lft.to/lastmile_qr_scan", "android": "https://dc.lft.to/lastmile_qr_scan"}}, {"name": "7a13adb5f43de5539af3d327b14c9375", "fusion_lat": 0.0, "type": "electric_scooter", "lat": 38.91706816666667, "is_reserved": 0, "is_disabled": 0, "fusion_lon": 0.0, "bike_id": "7a13adb5f43de5539af3d327b14c9375", "lon": -77.01247833333333, "rental_uris": {"ios": "https://dc.lft.to/lastmile_qr_scan", "android": "https://dc.lft.to/lastmile_qr_scan"}}, {"name": "df4e8a3bb50cbe92dfbbb936a5769914", "fusion_lat": 0.0, "type": "electric_scooter", "lat": 38.886126, "is_reserved": 0, "is_disabled": 0, "fusion_lon": 0.0, "bike_id": "df4e8a3bb50cbe92dfbbb936a5769914", "lon": -76.97820366666667, "rental_uris": {"ios": "https://dc.lft.to/lastmile_qr_scan", "android": "https://dc.lft.to/lastmile_qr_scan"}}, {"name": "bf8583c87e77c3ad98b089cdd21d830a", "fusion_lat": 0.0, "type": "electric_bike", "lat": 38.886366, "is_reserved": 0, "is_disabled": 0, "fusion_lon": 0.0, "bike_id": "bf8583c87e77c3ad98b089cdd21d830a", "lon": -76.954753, "rental_uris": {"ios": "https://dc.lft.to/lastmile_qr_scan", "android": "https://dc.lft.to/lastmile_qr_scan"}}, {"name": "911301af718e2354eb7a991582d80e93", "fusion_lat": 0.0, "type": "electric_scooter", "lat": 38.9003515, "is_reserved": 0, "is_disabled": 0, "fusion_lon": 0.0, "bike_id": "911301af718e2354eb7a991582d80e93", "lon": -77.02376233333334, "rental_uris": {"ios": "https://dc.lft.to/lastmile_qr_scan", "android": "https://dc.lft.to/lastmile_qr_scan"}}, {"name": "f56393d0f3cdb0c6f59dfa888a641a59", "fusion_lat": 0.0, "type": "electric_scooter", "lat": 38.88318733333333, "is_reserved": 0, "is_disabled": 0, "fusion_lon": 0.0, "bike_id": "f56393d0f3cdb0c6f59dfa888a641a59", "lon": -77.016553, "rental_uris": {"ios": "https://dc.lft.to/lastmile_qr_scan", "android": "https://dc.lft.to/lastmile_qr_scan"}}, {"name": "e4b96070ad527e4fc006f5f8f9a55899", "fusion_lat": 0.0, "type": "electric_scooter", "lat": 38.898518833333334, "is_reserved": 0, "is_disabled": 0, "fusion_lon": 0.0, "bike_id": "e4b96070ad527e4fc006f5f8f9a55899", "lon": -76.976595, "rental_uris": {"ios": "https://dc.lft.to/lastmile_qr_scan", "android": "https://dc.lft.to/lastmile_qr_scan"}}, {"name": "ee699b34b8b0bc6c9073ec903dd73870", "fusion_lat": 0.0, "type": "electric_scooter", "lat": 38.91915066666667, "is_reserved": 0, "is_disabled": 0, "fusion_lon": 0.0, "bike_id": "ee699b34b8b0bc6c9073ec903dd73870", "lon": -77.03426016666667, "rental_uris": {"ios": "https://dc.lft.to/lastmile_qr_scan", "android": "https://dc.lft.to/lastmile_qr_scan"}}, {"name": "fc136490dcf39c9ffa332093cec950c7", "fusion_lat": 0.0, "type": "electric_bike", "lat": 38.8815285, "is_reserved": 0, "is_disabled": 0, "fusion_lon": 0.0, "bike_id": "fc136490dcf39c9ffa332093cec950c7", "lon": -77.02752, "rental_uris": {"ios": "https://dc.lft.to/lastmile_qr_scan", "android": "https://dc.lft.to/lastmile_qr_scan"}}, {"name": "c63cdbfd59eff591c4fc6f78bf17ab10", "fusion_lat": 0.0, "type": "electric_scooter", "lat": 38.88504833333333, "is_reserved": 0, "is_disabled": 0, "fusion_lon": 0.0, "bike_id": "c63cdbfd59eff591c4fc6f78bf17ab10", "lon": -77.015754, "rental_uris": {"ios": "https://dc.lft.to/lastmile_qr_scan", "android": "https://dc.lft.to/lastmile_qr_scan"}}, {"name": "40480a75f8d5e6106994af4871fdb16a", "fusion_lat": 0.0, "type": "electric_scooter", "lat": 38.9059145, "is_reserved": 0, "is_disabled": 0, "fusion_lon": 0.0, "bike_id": "40480a75f8d5e6106994af4871fdb16a", "lon": -77.0161575, "rental_uris": {"ios": "https://dc.lft.to/lastmile_qr_scan", "android": "https://dc.lft.to/lastmile_qr_scan"}}, {"name": "616b8a0b3719d6f4fbb87049ab5affa0", "fusion_lat": 0.0, "type": "electric_scooter", "lat": 38.90267733333334, "is_reserved": 0, "is_disabled": 0, "fusion_lon": 0.0, "bike_id": "616b8a0b3719d6f4fbb87049ab5affa0", "lon": -77.03951833333333, "rental_uris": {"ios": "https://dc.lft.to/lastmile_qr_scan", "android": "https://dc.lft.to/lastmile_qr_scan"}}, {"name": "1c64fed04397f86468db97c487251e72", "fusion_lat": 0.0, "type": "electric_scooter", "lat": 38.9289085, "is_reserved": 0, "is_disabled": 0, "fusion_lon": 0.0, "bike_id": "1c64fed04397f86468db97c487251e72", "lon": -77.03251283333333, "rental_uris": {"ios": "https://dc.lft.to/lastmile_qr_scan", "android": "https://dc.lft.to/lastmile_qr_scan"}}, {"name": "86ca08ce532417a2a4d0e7b5e02f0cfe", "fusion_lat": 0.0, "type": "electric_scooter", "lat": 38.9326595, "is_reserved": 0, "is_disabled": 0, "fusion_lon": 0.0, "bike_id": "86ca08ce532417a2a4d0e7b5e02f0cfe", "lon": -77.03907233333334, "rental_uris": {"ios": "https://dc.lft.to/lastmile_qr_scan", "android": "https://dc.lft.to/lastmile_qr_scan"}}, {"name": "fc95dfcf8b8340f033f312665ea78aa7", "fusion_lat": 0.0, "type": "electric_scooter", "lat": 38.84681333333333, "is_reserved": 0, "is_disabled": 0, "fusion_lon": 0.0, "bike_id": "fc95dfcf8b8340f033f312665ea78aa7", "lon": -76.992052, "rental_uris": {"ios": "https://dc.lft.to/lastmile_qr_scan", "android": "https://dc.lft.to/lastmile_qr_scan"}}, {"name": "a705533710f942465a556a75463d6897", "fusion_lat": 0.0, "type": "electric_scooter", "lat": 38.8580615, "is_reserved": 0, "is_disabled": 0, "fusion_lon": 0.0, "bike_id": "a705533710f942465a556a75463d6897", "lon": -76.98655683333334, "rental_uris": {"ios": "https://dc.lft.to/lastmile_qr_scan", "android": "https://dc.lft.to/lastmile_qr_scan"}}, {"name": "112b7942f79067e850197c9c521dfcb3", "fusion_lat": 0.0, "type": "electric_scooter", "lat": 38.851589, "is_reserved": 0, "is_disabled": 0, "fusion_lon": 0.0, "bike_id": "112b7942f79067e850197c9c521dfcb3", "lon": -76.988043, "rental_uris": {"ios": "https://dc.lft.to/lastmile_qr_scan", "android": "https://dc.lft.to/lastmile_qr_scan"}}, {"name": "1d990cbe2824db35182706d3660d161c", "fusion_lat": 0.0, "type": "electric_scooter", "lat": 38.9382125, "is_reserved": 0, "is_disabled": 0, "fusion_lon": 0.0, "bike_id": "1d990cbe2824db35182706d3660d161c", "lon": -77.024657, "rental_uris": {"ios": "https://dc.lft.to/lastmile_qr_scan", "android": "https://dc.lft.to/lastmile_qr_scan"}}, {"name": "8ec8bac5deec57101224c547219bdfa3", "fusion_lat": 0.0, "type": "electric_bike", "lat": 38.99062583333333, "is_reserved": 0, "is_disabled": 0, "fusion_lon": 0.0, "bike_id": "8ec8bac5deec57101224c547219bdfa3", "lon": -77.1002975, "rental_uris": {"ios": "https://dc.lft.to/lastmile_qr_scan", "android": "https://dc.lft.to/lastmile_qr_scan"}}, {"name": "22ed50b7143218383fd41656f6d5a415", "fusion_lat": 0.0, "type": "electric_scooter", "lat": 38.857164833333336, "is_reserved": 0, "is_disabled": 0, "fusion_lon": 0.0, "bike_id": "22ed50b7143218383fd41656f6d5a415", "lon": -76.98093933333334, "rental_uris": {"ios": "https://dc.lft.to/lastmile_qr_scan", "android": "https://dc.lft.to/lastmile_qr_scan"}}, {"name": "8446cb399f6e92023269581f2a3d9cbd", "fusion_lat": 0.0, "type": "electric_scooter", "lat": 38.936665, "is_reserved": 0, "is_disabled": 0, "fusion_lon": 0.0, "bike_id": "8446cb399f6e92023269581f2a3d9cbd", "lon": -77.03642166666667, "rental_uris": {"ios": "https://dc.lft.to/lastmile_qr_scan", "android": "https://dc.lft.to/lastmile_qr_scan"}}, {"name": "518a2ded3182ebac9f9b58df29b25008", "fusion_lat": 0.0, "type": "electric_scooter", "lat": 38.924287666666665, "is_reserved": 0, "is_disabled": 0, "fusion_lon": 0.0, "bike_id": "518a2ded3182ebac9f9b58df29b25008", "lon": -77.04255233333333, "rental_uris": {"ios": "https://dc.lft.to/lastmile_qr_scan", "android": "https://dc.lft.to/lastmile_qr_scan"}}, {"name": "b460b54efd927983f781c078fc1d43e8", "fusion_lat": 0.0, "type": "electric_scooter", "lat": 38.9170055, "is_reserved": 0, "is_disabled": 0, "fusion_lon": 0.0, "bike_id": "b460b54efd927983f781c078fc1d43e8", "lon": -77.03094833333333, "rental_uris": {"ios": "https://dc.lft.to/lastmile_qr_scan", "android": "https://dc.lft.to/lastmile_qr_scan"}}, {"name": "074638d49802e0acc6c7bb17f5c83f5c", "fusion_lat": 0.0, "type": "electric_scooter", "lat": 38.91068033333333, "is_reserved": 0, "is_disabled": 0, "fusion_lon": 0.0, "bike_id": "074638d49802e0acc6c7bb17f5c83f5c", "lon": -77.0176565, "rental_uris": {"ios": "https://dc.lft.to/lastmile_qr_scan", "android": "https://dc.lft.to/lastmile_qr_scan"}}, {"name": "c115531e8c006c90abce386e37cad81f", "fusion_lat": 0.0, "type": "electric_scooter", "lat": 38.92441083333333, "is_reserved": 0, "is_disabled": 0, "fusion_lon": 0.0, "bike_id": "c115531e8c006c90abce386e37cad81f", "lon": -77.042221, "rental_uris": {"ios": "https://dc.lft.to/lastmile_qr_scan", "android": "https://dc.lft.to/lastmile_qr_scan"}}, {"name": "4b433cca44920a66f4a682cf580fb896", "fusion_lat": 0.0, "type": "electric_scooter", "lat": 38.900458, "is_reserved": 0, "is_disabled": 0, "fusion_lon": 0.0, "bike_id": "4b433cca44920a66f4a682cf580fb896", "lon": -77.001969, "rental_uris": {"ios": "https://dc.lft.to/lastmile_qr_scan", "android": "https://dc.lft.to/lastmile_qr_scan"}},