{"data": {"bikes": [{"lon": -77.00516916666666, "bike_id": "50dabb9f5dde405f66ce390a78068e3e", "lat": 38.879152166666664, "fusion_lon": 0.0, "fusion_lat": 0.0, "type": "electric_scooter", "name": "50dabb9f5dde405f66ce390a78068e3e", "is_disabled": 0, "rental_uris": {"ios": "https://dc.lft.to/lastmile_qr_scan", "android": "https://dc.lft.to/lastmile_qr_scan"}, "is_reserved": 0}, {"lon": -77.104925, "bike_id": "e9b77b4d6118bddbf76f82e2e1c0e423", "lat": 38.856075, "fusion_lon": 0.0, "fusion_lat": 0.0, "type": "electric_bike", "name": "e9b77b4d6118bddbf76f82e2e1c0e423", "is_disabled": 0, "rental_uris": {"ios": "https://dc.lft.to/lastmile_qr_scan", "android": "https://dc.lft.to/lastmile_qr_scan"}, "is_reserved": 0}, {"lon": -77.16624933333334, "bike_id": "8979d8efcd24fb45c293cb22f655e943", "lat": 38.888354666666665, "fusion_lon": 0.0, "fusion_lat": 0.0, "type": "electric_bike", "name": "8979d8efcd24fb45c293cb22f655e943", "is_disabled": 0, "rental_uris": {"ios": "https://dc.lft.to/lastmile_qr_scan", "android": "https://dc.lft.to/lastmile_qr_scan"}, "is_reserved": 0}, {"lon": -77.07296716666667, "bike_id": "660a1489a79337e0d74606472fa9109a", "lat": 38.924703666666666, "fusion_lon": 0.0, "fusion_lat": 0.0, "type": "electric_scooter", "name": "660a1489a79337e0d74606472fa9109a", "is_disabled": 0, "rental_uris": {"ios": "https://dc.lft.to/lastmile_qr_scan", "android": "https://dc.lft.to/lastmile_qr_scan"}, "is_reserved": 0}, {"lon": -77.01926266666666, "bike_id": "5009096d0d9b28898c65fe2cf52efda5", "lat": 38.934636, "fusion_lon": 0.0, "fusion_lat": 0.0, "type": "electric_scooter", "name": "5009096d0d9b28898c65fe2cf52efda5", "is_disabled": 0, "rental_uris": {"ios": "https://dc.lft.to/lastmile_qr_scan", "android": "https://dc.lft.to/lastmile_qr_scan"}, "is_reserved": 0}, {"lon": -77.03362616666666, "bike_id": "acf63d9e529204a72756cd26c0d39ef9", "lat": 38.902899166666664, "fusion_lon": 0.0, "fusion_lat": 0.0, "type": "electric_scooter", "name": "acf63d9e529204a72756cd26c0d39ef9", "is_disabled": 0, "rental_uris": {"ios": "https://dc.lft.to/lastmile_qr_scan", "android": "https://dc.lft.to/lastmile_qr_scan"}, "is_reserved": 0}, {"lon": -76.972534, "bike_id": "8f78f5493ecf5003aad6ec10714391b8", "lat": 38.8655995, "fusion_lon": 0.0, "fusion_lat": 0.0, "type": "electric_scooter", "name": "8f78f5493ecf5003aad6ec10714391b8", "is_disabled": 0, "rental_uris": {"ios": "https://dc.lft.to/lastmile_qr_scan", "android": "https://dc.lft.to/lastmile_qr_scan"}, "is_reserved": 0}, {"lon": -76.9823275, "bike_id": "3bb479e7fd820174d636442be03632d0", "lat": 38.8864445, "fusion_lon": 0.0, "fusion_lat": 0.0, "type": "electric_scooter", "name": "3bb479e7fd820174d636442be03632d0", "is_disabled": 0, "rental_uris": {"ios": "https://dc.lft.to/lastmile_qr_scan", "android": "https://dc.lft.to/lastmile_qr_scan"}, "is_reserved": 0}, {"lon": -77.01216283333333, "bike_id": "873e2e2d4b9f4ce181dc392d96a0b617", "lat": 38.8718955, "fusion_lon": 0.0, "fusion_lat": 0.0, "type": "electric_scooter", "name": "873e2e2d4b9f4ce181dc392d96a0b617", "is_disabled": 0, "rental_uris": {"ios": "https://dc.lft.to/lastmile_qr_scan", "android": "https://dc.lft.to/lastmile_qr_scan"}, "is_reserved": 0}, {"lon": -77.03207383333333, "bike_id": "127076ce40571e3462772b196158dea2", "lat": 38.913517166666665, "fusion_lon": 0.0, "fusion_lat": 0.0, "type": "electric_scooter", "name": "127076ce40571e3462772b196158dea2", "is_disabled": 0, "rental_uris": {"ios": "https://dc.lft.to/lastmile_qr_scan", "android": "https://dc.lft.to/lastmile_qr_scan"}, "is_reserved": 0}, {"lon": -77.02948833333333, "bike_id": "d8514ef652c9553c90f5a26a4a929223", "lat": 38.9107645, "fusion_lon": 0.0, "fusion_lat": 0.0, "type": "electric_scooter", "name": "d8514ef652c9553c90f5a26a4a929223", "is_disabled": 0, "rental_uris": {"ios": "https://dc.lft.to/lastmile_qr_scan", "android": "https://dc.lft.to/lastmile_qr_scan"}, "is_reserved": 0}, {"lon": -77.04373183333334, "bike_id": "85de25a4a48194e234855c2a0c9dac41", "lat": 38.902455833333335, "fusion_lon": 0.0, "fusion_lat": 0.0, "type": "electric_scooter", "name": "85de25a4a48194e234855c2a0c9dac41", "is_disabled": 0, "rental_uris": {"ios": "https://dc.lft.to/lastmile_qr_scan", "android": "https://dc.lft.to/lastmile_qr_scan"}, "is_reserved": 0}, {"lon": -77.0458595, "bike_id": "56846a9889b306131fecaee89342ba19", "lat": 38.921222, "fusion_lon": 0.0, "fusion_lat": 0.0, "type": "electric_scooter", "name": "56846a9889b306131fecaee89342ba19", "is_disabled": 0, "rental_uris": {"ios": "https://dc.lft.to/lastmile_qr_scan", "android": "https://dc.lft.to/lastmile_qr_scan"}, "is_reserved": 0}, {"lon": -77.03471383333333, "bike_id": "8e0551c345e13069a51a2a167ae931d6", "lat": 38.9087595, "fusion_lon": 0.0, "fusion_lat": 0.0, "type": "electric_scooter", "name": "8e0551c345e13069a51a2a167ae931d6", "is_disabled": 0, "rental_uris": {"ios": "https://dc.lft.to/lastmile_qr_scan", "android": "https://dc.lft.to/lastmile_qr_scan"}, "is_reserved": 0}, {"lon": -77.02453516666667, "bike_id": "866455bdfffd98abcaf01f324bf93ca0", "lat": 38.937959166666666, "fusion_lon": 0.0, "fusion_lat": 0.0, "type": "electric_scooter", "name": "866455bdfffd98abcaf01f324bf93ca0", "is_disabled": 0, "rental_uris": {"ios": "https://dc.lft.to/lastmile_qr_scan", "android": "https://dc.lft.to/lastmile_qr_scan"}, "is_reserved": 0}, {"lon": -77.03872383333334, "bike_id": "1af2a3e2542696facd022b3e78b00155", "lat": 38.90666983333333, "fusion_lon": 0.0, "fusion_lat": 0.0, "type": "electric_scooter", "name": "1af2a3e2542696facd022b3e78b00155", "is_disabled": 0, "rental_uris": {"ios": "https://dc.lft.to/lastmile_qr_scan", "android": "https://dc.lft.to/lastmile_qr_scan"}, "is_reserved": 0}, {"lon": -77.03313866666667, "bike_id": "31cba77a5377ced2aebb5cc2b1052096", "lat": 38.92865316666666, "fusion_lon": 0.0, "fusion_lat": 0.0, "type": "electric_scooter", "name": "31cba77a5377ced2aebb5cc2b1052096", "is_disabled": 0, "rental_uris": {"ios": "https://dc.lft.to/lastmile_qr_scan", "android": "https://dc.lft.to/lastmile_qr_scan"}, "is_reserved": 0}, {"lon": -77.02283916666667, "bike_id": "5062c8f4f29e00dd98a84c94410af8e0", "lat": 38.91656483333333, "fusion_lon": 0.0, "fusion_lat": 0.0, "type": "electric_scooter", "name": "5062c8f4f29e00dd98a84c94410af8e0", "is_disabled": 0, "rental_uris": {"ios": "https://dc.lft.to/lastmile_qr_scan", "android": "https://dc.lft.to/lastmile_qr_scan"}, "is_reserved": 0}, {"lon": -77.05720283333333, "bike_id": "5685c39b3e41bc600d868f8f069437fa", "lat": 38.93364916666667, "fusion_lon": 0.0, "fusion_lat": 0.0, "type": "electric_scooter", "name": "5685c39b3e41bc600d868f8f069437fa", "is_disabled": 0, "rental_uris": {"ios": "https://dc.lft.to/lastmile_qr_scan", "android": "https://dc.lft.to/lastmile_qr_scan"}, "is_reserved": 0}, {"lon": -77.05092133333333, "bike_id": "69e6511561cd49e743351b164cfce175", "lat": 38.9097255, "fusion_lon": 0.0, "fusion_lat": 0.0, "type": "electric_scooter", "name": "69e6511561cd49e743351b164cfce175", "is_disabled": 0, "rental_uris": {"ios": "https://dc.lft.to/lastmile_qr_scan", "android": "https://dc.lft.to/lastmile_qr_scan"}, "is_reserved": 0}, {"lon": -77.02795783333333, "bike_id": "46c3a481b4c162872d79d81007afabaf", "lat": 38.9342425, "fusion_lon": 0.0, "fusion_lat": 0.0, "type": "electric_scooter", "name": "46c3a481b4c162872d79d81007afabaf", "is_disabled": 0, "rental_uris": {"ios": "https://dc.lft.to/lastmile_qr_scan", "android": "https://dc.lft.to/lastmile_qr_scan"}, "is_reserved": 0}, {"lon": -77.03446433333333, "bike_id": "59bdbd576c159b208ff5deeb671a1123", "lat": 38.9054795, "fusion_lon": 0.0, "fusion_lat": 0.0, "type": "electric_scooter", "name": "59bdbd576c159b208ff5deeb671a1123", "is_disabled": 0, "rental_uris": {"ios": "https://dc.lft.to/lastmile_qr_scan", "android": "https://dc.lft.to/lastmile_qr_scan"}, "is_reserved": 0}, {"lon": -76.98231266666667, "bike_id": "f52b3a0e6255dac59380fc2643ad85b1", "lat": 38.9165075, "fusion_lon": 0.0, "fusion_lat": 0.0, "type": "electric_scooter", "name": "f52b3a0e6255dac59380fc2643ad85b1", "is_disabled": 0, "rental_uris": {"ios": "https://dc.lft.to/lastmile_qr_scan", "android": "https://dc.lft.to/lastmile_qr_scan"}, "is_reserved": 0}, {"lon": -76.99969566666667, "bike_id": "91f6bd0e23b883384109fd3d7ac70ae5", "lat": 38.908565333333335, "fusion_lon": 0.0, "fusion_lat": 0.0, "type": "electric_scooter", "name": "91f6bd0e23b883384109fd3d7ac70ae5", "is_disabled": 0, "rental_uris": {"ios": "https://dc.lft.to/lastmile_qr_scan", "android": "https://dc.lft.to/lastmile_qr_scan"}, "is_reserved": 0}, {"lon": -77.1116275, "bike_id": "f85d323f4dd065e867bc8dcf09320ca3", "lat": 38.855099, "fusion_lon": 0.0, "fusion_lat": 0.0, "type": "electric_bike", "name": "f85d323f4dd065e867bc8dcf09320ca3", "is_disabled": 0, "rental_uris": {"ios": "https://dc.lft.to/lastmile_qr_scan", "android": "https://dc.lft.to/lastmile_qr_scan"}, "is_reserved": 0}, {"lon": -77.03698783333333, "bike_id": "fba0b2e7bca3e3f2da84850d5e298cc0", "lat": 38.9328355, "fusion_lon": 0.0, "fusion_lat": 0.0, "type": "electric_scooter", "name": "fba0b2e7bca3e3f2da84850d5e298cc0", "is_disabled": 0, "rental_uris": {"ios": "https://dc.lft.to/lastmile_qr_scan", "android": "https://dc.lft.to/lastmile_qr_scan"}, "is_reserved": 0}, {"lon": -77.02791933333333, "bike_id": "30e335220097f9da3dbd1a0ede98350f", "lat": 38.892472, "fusion_lon": 0.0, "fusion_lat": 0.0, "type": "electric_scooter", "name": "30e335220097f9da3dbd1a0ede98350f", "is_disabled": 0, "rental_uris": {"ios": "https://dc.lft.to/lastmile_qr_scan", "android": "https://dc.lft.to/lastmile_qr_scan"}, "is_reserved": 0}, {"lon": -77.02238383333334, "bike_id": "ecb6d3f6865f886c54ce96377ed9ef56", "lat": 38.9224345, "fusion_lon": 0.0, "fusion_lat": 0.0, "type": "electric_scooter", "name": "ecb6d3f6865f886c54ce96377ed9ef56", "is_disabled": 0, "rental_uris": {"ios": "https://dc.lft.to/lastmile_qr_scan", "android": "https://dc.lft.to/lastmile_qr_scan"}, "is_reserved": 0}, {"lon": -77.052315, "bike_id": "82c5f61a876ea4f8eb3a16b27bf78083", "lat": 38.924578833333335, "fusion_lon": 0.0, "fusion_lat": 0.0, "type": "electric_scooter", "name": "82c5f61a876ea4f8eb3a16b27bf78083", "is_disabled": 0, "rental_uris": {"ios": "https://dc.lft.to/lastmile_qr_scan", "android": "https://dc.lft.to/lastmile_qr_scan"}, "is_reserved": 0}, {"lon": -77.02400533333333, "bike_id": "dfd0f78eda2ef0597edde0ff3249c830", "lat": 38.90676916666666, "fusion_lon": 0.0, "fusion_lat": 0.0, "type": "electric_scooter", "name": "dfd0f78eda2ef0597edde0ff3249c830", "is_disabled": 0, "rental_uris": {"ios": "https://dc.lft.to/lastmile_qr_scan", "android": "https://dc.lft.to/lastmile_qr_scan"}, "is_reserved": 0}, {"lon": -77.01535066666666, "bike_id": "96a40686aab55326c0781203674e77b0", "lat": 38.8873835, "fusion_lon": 0.0, "fusion_lat": 0.0, "type": "electric_scooter", "name": "96a40686aab55326c0781203674e77b0", "is_disabled": 0, "rental_uris": {"ios": "https://dc.lft.to/lastmile_qr_scan", "android": "https://dc.lft.to/lastmile_qr_scan"}, "is_reserved": 0}, {"lon": -77.0332275, "bike_id": "d9a141f749eace2f9d61fa634ebae228", "lat": 38.939017, "fusion_lon": 0.0, "fusion_lat": 0.0, "type": "electric_scooter", "name": "d9a141f749eace2f9d61fa634ebae228", "is_disabled": 0, "rental_uris": {"ios": "https://dc.lft.to/lastmile_qr_scan", "android": "https://dc.lft.to/lastmile_qr_scan"}, "is_reserved": 0}, {"lon": -77.020791, "bike_id": "eb184749f7aed6cda2d7f298c922a743", "lat": 38.9027285, "fusion_lon": 0.0, "fusion_lat": 0.0, "type": "electric_scooter", "name": "eb184749f7aed6cda2d7f298c922a743", "is_disabled": 0, "rental_uris": {"ios": "https://dc.lft.to/lastmile_qr_scan", "android": "https://dc.lft.to/lastmile_qr_scan"}, "is_reserved": 0}, {"lon": -77.02685183333334, "bike_id": "03cb279dd5cb793ccb488d5f1be74a72", "lat": 38.912588, "fusion_lon": 0.0, "fusion_lat": 0.0, "type": "electric_scooter", "name": "03cb279dd5cb793ccb488d5f1be74a72", "is_disabled": 0, "rental_uris": {"ios": "https://dc.lft.to/lastmile_qr_scan", "android": "https://dc.lft.to/lastmile_qr_scan"}, "is_reserved": 0}, {"lon": -76.9621885, "bike_id": "cc058899195942aa813c6332d4e95043", "lat": 38.8778845, "fusion_lon": 0.0, "fusion_lat": 0.0, "type": "electric_scooter", "name": "cc058899195942aa813c6332d4e95043", "is_disabled": 0, "rental_uris": {"ios": "https://dc.lft.to/lastmile_qr_scan", "android": "https://dc.lft.to/lastmile_qr_scan"}, "is_reserved": 0}, {"lon": -77.0335885, "bike_id": "1202370dbc97bd2e8256a087c0f84909", "lat": 38.9352065, "fusion_lon": 0.0, "fusion_lat": 0.0, "type": "electric_scooter", "name": "1202370dbc97bd2e8256a087c0f84909", "is_disabled": 0, "rental_uris": {"ios": "https://dc.lft.to/lastmile_qr_scan", "android": "https://dc.lft.to/lastmile_qr_scan"}, "is_reserved": 0}, {"lon": -77.02281883333333, "bike_id": "233e6e403474fadf1d66aeb65775a6f9", "lat": 38.92688783333333, "fusion_lon": 0.0, "fusion_lat": 0.0, "type": "electric_scooter", "name": "233e6e403474fadf1d66aeb65775a6f9", "is_disabled": 0, "rental_uris": {"ios": "https://dc.lft.to/lastmile_qr_scan", "android": "https://dc.lft.to/lastmile_qr_scan"}, "is_reserved": 0}, {"lon": -77.03986416666666, "bike_id": "df7eb12a997dc2797c93605e38c274d8", "lat": 38.913397333333336, "fusion_lon": 0.0, "fusion_lat": 0.0, "type": "electric_scooter", "name": "df7eb12a997dc2797c93605e38c274d8", "is_disabled": 0, "rental_uris": {"ios": "https://dc.lft.to/lastmile_qr_scan", "android": "https://dc.lft.to/lastmile_qr_scan"}, "is_reserved": 0}, {"lon": -77.03207833333333, "bike_id": "736f2d84fd7ebfe059f336958c8381cd", "lat": 38.91643083333334, "fusion_lon": 0.0, "fusion_lat": 0.0, "type": "electric_scooter", "name": "736f2d84fd7ebfe059f336958c8381cd", "is_disabled": 0, "rental_uris": {"ios": "https://dc.lft.to/lastmile_qr_scan", "android": "https://dc.lft.to/lastmile_qr_scan"}, "is_reserved": 0}, {"lon": -77.11708966666667, "bike_id": "13298e06219287d069b9e6dee6d5c36f", "lat": 38.867472166666666, "fusion_lon": 0.0, "fusion_lat": 0.0, "type": "electric_bike", "name": "13298e06219287d069b9e6dee6d5c36f", "is_disabled": 0, "rental_uris": {"ios": "https://dc.lft.to/lastmile_qr_scan", "android": "https://dc.lft.to/lastmile_qr_scan"}, "is_reserved": 0}, {"lon": -77.0134635, "bike_id": "b66dd43ecbe3cb8e7010a2c6abd5b772", "lat": 38.8781125, "fusion_lon": 0.0, "fusion_lat": 0.0, "type": "electric_scooter", "name": "b66dd43ecbe3cb8e7010a2c6abd5b772", "is_disabled": 0, "rental_uris": {"ios": "https://dc.lft.to/lastmile_qr_scan", "android": "https://dc.lft.to/lastmile_qr_scan"}, "is_reserved": 0}, {"lon": -77.03838916666666, "bike_id": "74461c15177c61c557468e174d34af72", "lat": 38.906882, "fusion_lon": 0.0, "fusion_lat": 0.0, "type": "electric_scooter", "name": "74461c15177c61c557468e174d34af72", "is_disabled": 0, "rental_uris": {"ios": "https://dc.lft.to/lastmile_qr_scan", "android": "https://dc.lft.to/lastmile_qr_scan"}, "is_reserved": 0}, {"lon": -76.98532666666667, "bike_id": "9f3cce2379e2cb2e617e17f7dd7dba2b", "lat": 38.904633833333335, "fusion_lon": 0.0, "fusion_lat": 0.0, "type": "electric_scooter", "name": "9f3cce2379e2cb2e617e17f7dd7dba2b", "is_disabled": 0, "rental_uris": {"ios": "https://dc.lft.to/lastmile_qr_scan", "android": "https://dc.lft.to/lastmile_qr_scan"}, "is_reserved": 0}, {"lon": -76.99810166666667, "bike_id": "133cd6eb72097756a5df2e921a1663fd", "lat": 38.8291395, "fusion_lon": 0.0, "fusion_lat": 0.0, "type": "electric_bike", "name": "133cd6eb72097756a5df2e921a1663fd", "is_disabled": 0, "rental_uris": {"ios": "https://dc.lft.to/lastmile_qr_scan", "android": "https://dc.lft.to/lastmile_qr_scan"}, "is_reserved": 0}, {"lon": -77.0122265, "bike_id": "e9ce9f3b0f7885b993a73c070e0b94e9", "lat": 38.900622, "fusion_lon": 0.0, "fusion_lat": 0.0, "type": "electric_scooter", "name": "e9ce9f3b0f7885b993a73c070e0b94e9", "is_disabled": 0, "rental_uris": {"ios": "https://dc.lft.to/lastmile_qr_scan", "android": "https://dc.lft.to/lastmile_qr_scan"}, "is_reserved": 0}, {"lon": -77.00097666666667, "bike_id": "dfcb240a49bcdfae04e2d3c00298f0b1", "lat": 38.916332833333335, "fusion_lon": 0.0, "fusion_lat": 0.0, "type": "electric_scooter", "name": "dfcb240a49bcdfae04e2d3c00298f0b1", "is_disabled": 0, "rental_uris": {"ios": "https://dc.lft.to/lastmile_qr_scan", "android": "https://dc.lft.to/lastmile_qr_scan"}, "is_reserved": 0}, {"lon": -77.04816116666667, "bike_id": "9ced332c27d23924db187e1d1d2e4fef", "lat": 38.90732166666667, "fusion_lon": 0.0, "fusion_lat": 0.0, "type": "electric_scooter", "name": "9ced332c27d23924db187e1d1d2e4fef", "is_disabled": 0, "rental_uris": {"ios": "https://dc.lft.to/lastmile_qr_scan", "android": "https://dc.lft.to/lastmile_qr_scan"}, "is_reserved": 0}, {"lon": -77.04332566666666, "bike_id": "98986692167d7c40ce418abb1e4cffba", "lat": 38.915864166666665, "fusion_lon": 0.0, "fusion_lat": 0.0, "type": "electric_scooter", "name": "98986692167d7c40ce418abb1e4cffba", "is_disabled": 0, "rental_uris": {"ios": "https://dc.lft.to/lastmile_qr_scan", "android": "https://dc.lft.to/lastmile_qr_scan"}, "is_reserved": 0}, {"lon": -77.04742716666667, "bike_id": "494e68d019b2ca0a91f29116694529c7", "lat": 38.9177505, "fusion_lon": 0.0, "fusion_lat": 0.0, "type": "electric_scooter", "name": "494e68d019b2ca0a91f29116694529c7", "is_disabled": 0, "rental_uris": {"ios": "https://dc.lft.to/lastmile_qr_scan", "android": "https://dc.lft.to/lastmile_qr_scan"}, "is_reserved": 0}, {"lon": -77.03449383333333, "bike_id": "3d18bd099c181526b4c6d837c488f43b", "lat": 38.9273855, "fusion_lon": 0.0, "fusion_lat": 0.0, "type": "electric_scooter", "name": "3d18bd099c181526b4c6d837c488f43b", "is_disabled": 0, "rental_uris": {"ios": "https://dc.lft.to/lastmile_qr_scan", "android": "https://dc.lft.to/lastmile_qr_scan"}, "is_reserved": 0}, {"lon": -77.0327975, "bike_id": "dd551dee43ee032b044f0c3e33321970", "lat": 38.928529833333336, "fusion_lon": 0.0, "fusion_lat": 0.0, "type": "electric_scooter", "name": "dd551dee43ee032b044f0c3e33321970", "is_disabled": 0, "rental_uris": {"ios": "https://dc.lft.to/lastmile_qr_scan", "android": "https://dc.lft.to/lastmile_qr_scan"}, "is_reserved": 0}, {"lon": -77.02082833333333, "bike_id": "82598e5aaa1442ff482c14342bac7bb7", "lat": 38.92706333333334, "fusion_lon": 0.0, "fusion_lat": 0.0, "type": "electric_scooter", "name": "82598e5aaa1442ff482c14342bac7bb7", "is_disabled": 0, "rental_uris": {"ios": "https://dc.lft.to/lastmile_qr_scan", "android": "https://dc.lft.to/lastmile_qr_scan"}, "is_reserved": 0}, {"lon": -77.12528233333333, "bike_id": "20dc2837bfdc39ff9452f4f92a92ec80", "lat": 39.056356, "fusion_lon": 0.0, "fusion_lat": 0.0, "type": "electric_bike", "name": "20dc2837bfdc39ff9452f4f92a92ec80", "is_disabled": 0, "rental_uris": {"ios": "https://dc.lft.to/lastmile_qr_scan", "android": "https://dc.lft.to/lastmile_qr_scan"}, "is_reserved": 0}, {"lon": -77.036441, "bike_id": "341804d2f9c8b0847abab93cd6ed6c3c", "lat": 38.90388566666667, "fusion_lon": 0.0, "fusion_lat": 0.0, "type": "electric_scooter", "name": "341804d2f9c8b0847abab93cd6ed6c3c", "is_disabled": 0, "rental_uris": {"ios": "https://dc.lft.to/lastmile_qr_scan", "android": "https://dc.lft.to/lastmile_qr_scan"}, "is_reserved": 0}, {"lon": -77.028298, "bike_id": "56f2b668ff7aaa841c8e765b1aa68b05", "lat": 38.932438, "fusion_lon": 0.0, "fusion_lat": 0.0, "type": "electric_scooter", "name": "56f2b668ff7aaa841c8e765b1aa68b05", "is_disabled": 0, "rental_uris": {"ios": "https://dc.lft.to/lastmile_qr_scan", "android": "https://dc.lft.to/lastmile_qr_scan"}, "is_reserved": 0}, {"lon": -76.99232383333333, "bike_id": "7de4021d7afb0b006566898d478f18b7", "lat": 38.904806, "fusion_lon": 0.0, "fusion_lat": 0.0, "type": "electric_scooter", "name": "7de4021d7afb0b006566898d478f18b7", "is_disabled": 0, "rental_uris": {"ios": "https://dc.lft.to/lastmile_qr_scan", "android": "https://dc.lft.to/lastmile_qr_scan"}, "is_reserved": 0}, {"lon": -77.036195, "bike_id": "78846df484ef56c86a35d0bda99a66fe", "lat": 38.93162933333333, "fusion_lon": 0.0, "fusion_lat": 0.0, "type": "electric_scooter", "name": "78846df484ef56c86a35d0bda99a66fe", "is_disabled": 0, "rental_uris": {"ios": "https://dc.lft.to/lastmile_qr_scan", "android": "https://dc.lft.to/lastmile_qr_scan"}, "is_reserved": 0}, {"lon": -77.00163683333334, "bike_id": "4c7771ef26a8eef08c98aaf92a6cee47", "lat": 38.875074833333336, "fusion_lon": 0.0, "fusion_lat": 0.0, "type": "electric_scooter", "name": "4c7771ef26a8eef08c98aaf92a6cee47", "is_disabled": 0, "rental_uris": {"ios": "https://dc.lft.to/lastmile_qr_scan", "android": "https://dc.lft.to/lastmile_qr_scan"}, "is_reserved": 0}, {"lon": -77.003152, "bike_id": "9136a41bc0a9193d01f118934a2cb260", "lat": 38.918966833333336, "fusion_lon": 0.0, "fusion_lat": 0.0, "type": "electric_scooter", "name": "9136a41bc0a9193d01f118934a2cb260", "is_disabled": 0, "rental_uris": {"ios": "https://dc.lft.to/lastmile_qr_scan", "android": "https://dc.lft.to/lastmile_qr_scan"}, "is_reserved": 0}, {"lon": -77.02741033333334, "bike_id": "f2843079215bd0ce436de59114480402", "lat": 38.88152133333333, "fusion_lon": 0.0, "fusion_lat": 0.0, "type": "electric_scooter", "name": "f2843079215bd0ce436de59114480402", "is_disabled": 0, "rental_uris": {"ios": "https://dc.lft.to/lastmile_qr_scan", "android": "https://dc.lft.to/lastmile_qr_scan"}, "is_reserved": 0}, {"lon": -77.031671, "bike_id": "01079f2dbd05570d8867c102715ee463", "lat": 38.896187833333336, "fusion_lon": 0.0, "fusion_lat": 0.0, "type": "electric_scooter", "name": "01079f2dbd05570d8867c102715ee463", "is_disabled": 0, "rental_uris": {"ios": "https://dc.lft.to/lastmile_qr_scan", "android": "https://dc.lft.to/lastmile_qr_scan"}, "is_reserved": 0}, {"lon": -77.02953283333333, "bike_id": "7b783bc562722da231f8592b69c381ec", "lat": 38.904988333333336, "fusion_lon": 0.0, "fusion_lat": 0.0, "type": "electric_scooter", "name": "7b783bc562722da231f8592b69c381ec", "is_disabled": 0, "rental_uris": {"ios": "https://dc.lft.to/lastmile_qr_scan", "android": "https://dc.lft.to/lastmile_qr_scan"}, "is_reserved": 0}, {"lon": -77.02390633333333, "bike_id": "8961733ccde64851c4034be456a4079e", "lat": 38.915206833333336, "fusion_lon": 0.0, "fusion_lat": 0.0, "type": "electric_scooter", "name": "8961733ccde64851c4034be456a4079e", "is_disabled": 0, "rental_uris": {"ios": "https://dc.lft.to/lastmile_qr_scan", "android": "https://dc.lft.to/lastmile_qr_scan"}, "is_reserved": 0}, {"lon": -76.97629366666666, "bike_id": "5e756973417cf71933ac032b0d06be36", "lat": 38.905755666666664, "fusion_lon": 0.0, "fusion_lat": 0.0, "type": "electric_scooter", "name": "5e756973417cf71933ac032b0d06be36", "is_disabled": 0, "rental_uris": {"ios": "https://dc.lft.to/lastmile_qr_scan", "android": "https://dc.lft.to/lastmile_qr_scan"}, "is_reserved": 0}, {"lon": -77.07449333333334, "bike_id": "540d939ed93ee1ae55fb429063e14d76", "lat": 38.9450985, "fusion_lon": 0.0, "fusion_lat": 0.0, "type": "electric_scooter", "name": "540d939ed93ee1ae55fb429063e14d76", "is_disabled": 0, "rental_uris": {"ios": "https://dc.lft.to/lastmile_qr_scan", "android": "https://dc.lft.to/lastmile_qr_scan"}, "is_reserved": 0}, {"lon": -77.02280833333333, "bike_id": "8653e4b9a45ed0fc8aac37551782b6c9", "lat": 38.916539666666665, "fusion_lon": 0.0, "fusion_lat": 0.0, "type": "electric_scooter", "name": "8653e4b9a45ed0fc8aac37551782b6c9", "is_disabled": 0, "rental_uris": {"ios": "https://dc.lft.to/lastmile_qr_scan", "android": "https://dc.lft.to/lastmile_qr_scan"}, "is_reserved": 0}, {"lon": -77.07768216666666, "bike_id": "71fef0267dee9c2d234a709ca9331628", "lat": 38.950534166666664, "fusion_lon": 0.0, "fusion_lat": 0.0, "type": "electric_scooter", "name": "71fef0267dee9c2d234a709ca9331628", "is_disabled": 0, "rental_uris": {"ios": "https://dc.lft.to/lastmile_qr_scan", "android": "https://dc.lft.to/lastmile_qr_scan"}, "is_reserved": 0}, {"lon": -77.0255115, "bike_id": "50be1ab55ded9a4ae3ecabe95493682c", "lat": 38.94140316666667, "fusion_lon": 0.0, "fusion_lat": 0.0, "type": "electric_scooter", "name": "50be1ab55ded9a4ae3ecabe95493682c", "is_disabled": 0, "rental_uris": {"ios": "https://dc.lft.to/lastmile_qr_scan", "android": "https://dc.lft.to/lastmile_qr_scan"}, "is_reserved": 0}, {"lon": -77.00674116666667, "bike_id": "0b60addeb98eccdf0e07df6d8b0ee927", "lat": 38.945127166666666, "fusion_lon": 0.0, "fusion_lat": 0.0, "type": "electric_bike", "name": "0b60addeb98eccdf0e07df6d8b0ee927", "is_disabled": 0, "rental_uris": {"ios": "https://dc.lft.to/lastmile_qr_scan", "android": "https://dc.lft.to/lastmile_qr_scan"}, "is_reserved": 0}, {"lon": -77.02379316666666, "bike_id": "7cd963556dd540c3ab2fd8204f5c1c7e", "lat": 38.89991416666667, "fusion_lon": 0.0, "fusion_lat": 0.0, "type": "electric_scooter", "name": "7cd963556dd540c3ab2fd8204f5c1c7e", "is_disabled": 0, "rental_uris": {"ios": "https://dc.lft.to/lastmile_qr_scan", "android": "https://dc.lft.to/lastmile_qr_scan"}, "is_reserved": 0}, {"lon": -77.03212916666666, "bike_id": "f425d56ba346d47e21606f5708f4369b", "lat": 38.9141715, "fusion_lon": 0.0, "fusion_lat": 0.0, "type": "electric_scooter", "name": "f425d56ba346d47e21606f5708f4369b", "is_disabled": 0, "rental_uris": {"ios": "https://dc.lft.to/lastmile_qr_scan", "android": "https://dc.lft.to/lastmile_qr_scan"}, "is_reserved": 0}, {"lon": -77.01505666666667, "bike_id": "076f1286961ac649beb5247ff77a9881", "lat": 38.899674166666664, "fusion_lon": 0.0, "fusion_lat": 0.0, "type": "electric_scooter", "name": "076f1286961ac649beb5247ff77a9881", "is_disabled": 0, "rental_uris": {"ios": "https://dc.lft.to/lastmile_qr_scan", "android": "https://dc.lft.to/lastmile_qr_scan"}, "is_reserved": 0}, {"lon": -77.0364305, "bike_id": "5def861c4b60265713e392991a89f203", "lat": 38.91864533333333, "fusion_lon": 0.0, "fusion_lat": 0.0, "type": "electric_scooter", "name": "5def861c4b60265713e392991a89f203", "is_disabled": 0, "rental_uris": {"ios": "https://dc.lft.to/lastmile_qr_scan", "android": "https://dc.lft.to/lastmile_qr_scan"}, "is_reserved": 0}, {"lon": -76.94201233333334, "bike_id": "33c8b3f771d1130bb8b188de6ad46800", "lat": 38.893145833333335, "fusion_lon": 0.0, "fusion_lat": 0.0, "type": "electric_bike", "name": "33c8b3f771d1130bb8b188de6ad46800", "is_disabled": 0, "rental_uris": {"ios": "https://dc.lft.to/lastmile_qr_scan", "android": "https://dc.lft.to/lastmile_qr_scan"}, "is_reserved": 0}, {"lon": -77.09168183333334, "bike_id": "6c68804b6dfd595b1bffc886a45669e9", "lat": 38.94561816666667, "fusion_lon": 0.0, "fusion_lat": 0.0, "type": "electric_scooter", "name": "6c68804b6dfd595b1bffc886a45669e9", "is_disabled": 0, "rental_uris": {"ios": "https://dc.lft.to/lastmile_qr_scan", "android": "https://dc.lft.to/lastmile_qr_scan"}, "is_reserved": 0}, {"lon": -76.99448716666667, "bike_id": "ab71dd428e9922776bf12be8e57daeb4", "lat": 38.90029416666667, "fusion_lon": 0.0, "fusion_lat": 0.0, "type": "electric_scooter", "name": "ab71dd428e9922776bf12be8e57daeb4", "is_disabled": 0, "rental_uris": {"ios": "https://dc.lft.to/lastmile_qr_scan", "android": "https://dc.lft.to/lastmile_qr_scan"}, "is_reserved": 0}, {"lon": -77.03491216666667, "bike_id": "6a04d276656e242bec277340fe00695a", "lat": 38.932784833333336, "fusion_lon": 0.0, "fusion_lat": 0.0, "type": "electric_scooter", "name": "6a04d276656e242bec277340fe00695a", "is_disabled": 0, "rental_uris": {"ios": "https://dc.lft.to/lastmile_qr_scan", "android": "https://dc.lft.to/lastmile_qr_scan"}, "is_reserved": 0}, {"lon": -76.98229516666666, "bike_id": "d3acbe7908e7038dfea7bce81ed33008", "lat": 38.916538833333334, "fusion_lon": 0.0, "fusion_lat": 0.0, "type": "electric_scooter", "name": "d3acbe7908e7038dfea7bce81ed33008", "is_disabled": 0, "rental_uris": {"ios": "https://dc.lft.to/lastmile_qr_scan", "android": "https://dc.lft.to/lastmile_qr_scan"}, "is_reserved": 0}, {"lon": -77.0510555, "bike_id": "03173ce421a8d6e9d292349c2caaab1d", "lat": 38.923091666666664, "fusion_lon": 0.0, "fusion_lat": 0.0, "type": "electric_scooter", "name": "03173ce421a8d6e9d292349c2caaab1d", "is_disabled": 0, "rental_uris": {"ios": "https://dc.lft.to/lastmile_qr_scan", "android": "https://dc.lft.to/lastmile_qr_scan"}, "is_reserved": 0}, {"lon": -77.03214316666667, "bike_id": "ba9ea5f1297d16f063a5c37fadb3b8eb", "lat": 38.914742333333336, "fusion_lon": 0.0, "fusion_lat": 0.0, "type": "electric_scooter", "name": "ba9ea5f1297d16f063a5c37fadb3b8eb", "is_disabled": 0, "rental_uris": {"ios": "https://dc.lft.to/lastmile_qr_scan", "android": "https://dc.lft.to/lastmile_qr_scan"}, "is_reserved": 0}, {"lon": -77.020804, "bike_id": "7e3ba71c771937e17afa5018d79f93f3", "lat": 38.92698, "fusion_lon": 0.0, "fusion_lat": 0.0, "type": "electric_scooter", "name": "7e3ba71c771937e17afa5018d79f93f3", "is_disabled": 0, "rental_uris": {"ios": "https://dc.lft.to/lastmile_qr_scan", "android": "https://dc.lft.to/lastmile_qr_scan"}, "is_reserved": 0}, {"lon": -77.025802, "bike_id": "510b408a103ba1b8b1a9a1f1237c221d", "lat": 38.914097166666664, "fusion_lon": 0.0, "fusion_lat": 0.0, "type": "electric_scooter", "name": "510b408a103ba1b8b1a9a1f1237c221d", "is_disabled": 0, "rental_uris": {"ios": "https://dc.lft.to/lastmile_qr_scan", "android": "https://dc.lft.to/lastmile_qr_scan"}, "is_reserved": 0}, {"lon": -77.00304966666667, "bike_id": "a9b80bf41e513d69a672d22dbfac557e", "lat": 38.894989833333334, "fusion_lon": 0.0, "fusion_lat": 0.0, "type": "electric_scooter", "name": "a9b80bf41e513d69a672d22dbfac557e", "is_disabled": 0, "rental_uris": {"ios": "https://dc.lft.to/lastmile_qr_scan", "android": "https://dc.lft.to/lastmile_qr_scan"}, "is_reserved": 0}, {"lon": -77.04719666666666, "bike_id": "c03469b773f77e928eea82ab02054143", "lat": 38.902376, "fusion_lon": 0.0, "fusion_lat": 0.0, "type": "electric_scooter", "name": "c03469b773f77e928eea82ab02054143", "is_disabled": 0, "rental_uris": {"ios": "https://dc.lft.to/lastmile_qr_scan", "android": "https://dc.lft.to/lastmile_qr_scan"}, "is_reserved": 0}, {"lon": -77.02104066666666, "bike_id": "03dcf7a9e63434f74135cd6d3a6317b1", "lat": 38.89748066666667, "fusion_lon": 0.0, "fusion_lat": 0.0, "type": "electric_scooter", "name": "03dcf7a9e63434f74135cd6d3a6317b1", "is_disabled": 0, "rental_uris": {"ios": "https://dc.lft.to/lastmile_qr_scan", "android": "https://dc.lft.to/lastmile_qr_scan"}, "is_reserved": 0}, {"lon": -77.02010216666666, "bike_id": "6087ffe2f43783bd15f608b1a0ee8a29", "lat": 38.92417566666666, "fusion_lon": 0.0, "fusion_lat": 0.0, "type": "electric_scooter", "name": "6087ffe2f43783bd15f608b1a0ee8a29", "is_disabled": 0, "rental_uris": {"ios": "https://dc.lft.to/lastmile_qr_scan", "android": "https://dc.lft.to/lastmile_qr_scan"}, "is_reserved": 0}, {"lon": -77.05227633333334, "bike_id": "895383d72fb7e1b4964bbd13aa74dc76", "lat": 38.92467283333333, "fusion_lon": 0.0, "fusion_lat": 0.0, "type": "electric_scooter", "name": "895383d72fb7e1b4964bbd13aa74dc76", "is_disabled": 0, "rental_uris": {"ios": "https://dc.lft.to/lastmile_qr_scan", "android": "https://dc.lft.to/lastmile_qr_scan"}, "is_reserved": 0}, {"lon": -77.0110935, "bike_id": "9aa8e0e8fdd769b01773298cc1d9facf", "lat": 38.903527833333335, "fusion_lon": 0.0, "fusion_lat": 0.0, "type": "electric_scooter", "name": "9aa8e0e8fdd769b01773298cc1d9facf", "is_disabled": 0, "rental_uris": {"ios": "https://dc.lft.to/lastmile_qr_scan", "android": "https://dc.lft.to/lastmile_qr_scan"}, "is_reserved": 0}, {"lon": -77.03039933333334, "bike_id": "5fb09062948262d4a8bbb54ebbb7b8e8", "lat": 38.87845216666667, "fusion_lon": 0.0, "fusion_lat": 0.0, "type": "electric_scooter", "name": "5fb09062948262d4a8bbb54ebbb7b8e8", "is_disabled": 0, "rental_uris": {"ios": "https://dc.lft.to/lastmile_qr_scan", "android": "https://dc.lft.to/lastmile_qr_scan"}, "is_reserved": 0}, {"lon": -77.04035266666666, "bike_id": "041ce9e1f69787c57f5d6b51eb6fba6c", "lat": 38.90018116666667, "fusion_lon": 0.0, "fusion_lat": 0.0, "type": "electric_scooter", "name": "041ce9e1f69787c57f5d6b51eb6fba6c", "is_disabled": 0, "rental_uris": {"ios": "https://dc.lft.to/lastmile_qr_scan", "android": "https://dc.lft.to/lastmile_qr_scan"}, "is_reserved": 0}, {"lon": -77.03181866666667, "bike_id": "b2382f04e2578f236e92f011b745f71a", "lat": 38.90983816666667, "fusion_lon": 0.0, "fusion_lat": 0.0, "type": "electric_scooter", "name": "b2382f04e2578f236e92f011b745f71a", "is_disabled": 0, "rental_uris": {"ios": "https://dc.lft.to/lastmile_qr_scan", "android": "https://dc.lft.to/lastmile_qr_scan"}, "is_reserved": 0}, {"lon": -77.00330383333333, "bike_id": "21b8d71293ea45c723d7dde196616646", "lat": 38.88502283333333, "fusion_lon": 0.0, "fusion_lat": 0.0, "type": "electric_scooter", "name": "21b8d71293ea45c723d7dde196616646", "is_disabled": 0, "rental_uris": {"ios": "https://dc.lft.to/lastmile_qr_scan", "android": "https://dc.lft.to/lastmile_qr_scan"}, "is_reserved": 0}, {"lon": -76.98838616666667, "bike_id": "aaeadf1c73d960e841cde6ee2f28e516", "lat": 38.90072383333333, "fusion_lon": 0.0, "fusion_lat": 0.0, "type": "electric_scooter", "name": "aaeadf1c73d960e841cde6ee2f28e516", "is_disabled": 0, "rental_uris": {"ios": "https://dc.lft.to/lastmile_qr_scan", "android": "https://dc.lft.to/lastmile_qr_scan"}, "is_reserved": 0}, {"lon": -77.0256715, "bike_id": "8f34ff66530feeed1dfccfb576767bd1", "lat": 38.94183366666667, "fusion_lon": 0.0, "fusion_lat": 0.0, "type": "electric_scooter", "name": "8f34ff66530feeed1dfccfb576767bd1", "is_disabled": 0, "rental_uris": {"ios": "https://dc.lft.to/lastmile_qr_scan", "android": "https://dc.lft.to/lastmile_qr_scan"}, "is_reserved": 0}, {"lon": -77.04028133333334, "bike_id": "dfe77fe5f161a847c03e14483f0a1a99", "lat": 38.9161625, "fusion_lon": 0.0, "fusion_lat": 0.0, "type": "electric_scooter", "name": "dfe77fe5f161a847c03e14483f0a1a99", "is_disabled": 0, "rental_uris": {"ios": "https://dc.lft.to/lastmile_qr_scan", "android": "https://dc.lft.to/lastmile_qr_scan"}, "is_reserved": 0}, {"lon": -77.02468366666666, "bike_id": "8f729b7c51fd818175e650ca1b4a82e8", "lat": 38.916942166666665, "fusion_lon": 0.0, "fusion_lat": 0.0, "type": "electric_scooter", "name": "8f729b7c51fd818175e650ca1b4a82e8", "is_disabled": 0, "rental_uris": {"ios": "https://dc.lft.to/lastmile_qr_scan", "android": "https://dc.lft.to/lastmile_qr_scan"}, "is_reserved": 0}, {"lon": -77.03377166666667, "bike_id": "081789fa5fcae7b4d3c28cb6c7ecbcf7", "lat": 38.899622, "fusion_lon": 0.0, "fusion_lat": 0.0, "type": "electric_scooter", "name": "081789fa5fcae7b4d3c28cb6c7ecbcf7", "is_disabled": 0, "rental_uris": {"ios": "https://dc.lft.to/lastmile_qr_scan", "android": "https://dc.lft.to/lastmile_qr_scan"}, "is_reserved": 0}, {"lon": -77.061119, "bike_id": "fcb95c60c7a83cec8acdc09145a4435e", "lat": 38.943648833333334, "fusion_lon": 0.0, "fusion_lat": 0.0, "type": "electric_scooter", "name": "fcb95c60c7a83cec8acdc09145a4435e", "is_disabled": 0, "rental_uris": {"ios": "https://dc.lft.to/lastmile_qr_scan", "android": "https://dc.lft.to/lastmile_qr_scan"}, "is_reserved": 0}, {"lon": -76.983736, "bike_id": "c47e578ab50c2e4c52382bf6b4f628fe", "lat": 38.891451333333336, "fusion_lon": 0.0, "fusion_lat": 0.0, "type": "electric_scooter", "name": "c47e578ab50c2e4c52382bf6b4f628fe", "is_disabled": 0, "rental_uris": {"ios": "https://dc.lft.to/lastmile_qr_scan", "android": "https://dc.lft.to/lastmile_qr_scan"}, "is_reserved": 0}, {"lon": -76.98570583333333, "bike_id": "622d68b4052adea4235d428db5a306ae", "lat": 38.896189, "fusion_lon": 0.0, "fusion_lat": 0.0, "type": "electric_scooter", "name": "622d68b4052adea4235d428db5a306ae", "is_disabled": 0, "rental_uris": {"ios": "https://dc.lft.to/lastmile_qr_scan", "android": "https://dc.lft.to/lastmile_qr_scan"}, "is_reserved": 0}, {"lon": -77.03187516666667, "bike_id": "8a3a48a641d211f7fc4ee858deff7876", "lat": 38.936088166666664, "fusion_lon": 0.0, "fusion_lat": 0.0, "type": "electric_scooter", "name": "8a3a48a641d211f7fc4ee858deff7876", "is_disabled": 0, "rental_uris": {"ios": "https://dc.lft.to/lastmile_qr_scan", "android": "https://dc.lft.to/lastmile_qr_scan"}, "is_reserved": 0}, {"lon": -77.0258455, "bike_id": "b3b69c292c497a3dcb50e5df98760372", "lat": 38.90183016666667, "fusion_lon": 0.0, "fusion_lat": 0.0, "type": "electric_scooter", "name": "b3b69c292c497a3dcb50e5df98760372", "is_disabled": 0, "rental_uris": {"ios": "https://dc.lft.to/lastmile_qr_scan", "android": "https://dc.lft.to/lastmile_qr_scan"}, "is_reserved": 0}, {"lon": -77.038713, "bike_id": "87413218cea9b8e4b7d8676955098cf5", "lat": 38.91716133333333, "fusion_lon": 0.0, "fusion_lat": 0.0, "type": "electric_scooter", "name": "87413218cea9b8e4b7d8676955098cf5", "is_disabled": 0, "rental_uris": {"ios": "https://dc.lft.to/lastmile_qr_scan", "android": "https://dc.lft.to/lastmile_qr_scan"}, "is_reserved": 0}, {"lon": -77.04175033333334, "bike_id": "dc0202f1dce5e18bfb17cf347ddf063a", "lat": 38.90823433333333, "fusion_lon": 0.0, "fusion_lat": 0.0, "type": "electric_scooter", "name": "dc0202f1dce5e18bfb17cf347ddf063a", "is_disabled": 0, "rental_uris": {"ios": "https://dc.lft.to/lastmile_qr_scan", "android": "https://dc.lft.to/lastmile_qr_scan"}, "is_reserved": 0}, {"lon": -77.02107966666667, "bike_id": "e6f775d2f7d999a14f0c1fff92a54a2a", "lat": 38.9216945, "fusion_lon": 0.0, "fusion_lat": 0.0, "type": "electric_scooter", "name": "e6f775d2f7d999a14f0c1fff92a54a2a", "is_disabled": 0, "rental_uris": {"ios": "https://dc.lft.to/lastmile_qr_scan", "android": "https://dc.lft.to/lastmile_qr_scan"}, "is_reserved": 0}, {"lon": -77.0223315, "bike_id": "f3e3c02c4f17c0c9a641c55ef9ac911f", "lat": 38.96203533333333, "fusion_lon": 0.0, "fusion_lat": 0.0, "type": "electric_scooter", "name": "f3e3c02c4f17c0c9a641c55ef9ac911f", "is_disabled": 0, "rental_uris": {"ios": "https://dc.lft.to/lastmile_qr_scan", "android": "https://dc.lft.to/lastmile_qr_scan"}, "is_reserved": 0}, {"lon": -77.02168516666667, "bike_id": "95c551b8c2505895df3af52addedac5b", "lat": 38.90414466666667, "fusion_lon": 0.0, "fusion_lat": 0.0, "type": "electric_scooter", "name": "95c551b8c2505895df3af52addedac5b", "is_disabled": 0, "rental_uris": {"ios": "https://dc.lft.to/lastmile_qr_scan", "android": "https://dc.lft.to/lastmile_qr_scan"}, "is_reserved": 0}, {"lon": -77.03634783333334, "bike_id": "08a24e9134c34ff07008784000b77dd9", "lat": 38.9233845, "fusion_lon": 0.0, "fusion_lat": 0.0, "type": "electric_scooter", "name": "08a24e9134c34ff07008784000b77dd9", "is_disabled": 0, "rental_uris": {"ios": "https://dc.lft.to/lastmile_qr_scan", "android": "https://dc.lft.to/lastmile_qr_scan"}, "is_reserved": 0}, {"lon": -76.98232333333333, "bike_id": "cdc81b617ef71f2d1b0af861830c61f2", "lat": 38.9165495, "fusion_lon": 0.0, "fusion_lat": 0.0, "type": "electric_scooter", "name": "cdc81b617ef71f2d1b0af861830c61f2", "is_disabled": 0, "rental_uris": {"ios": "https://dc.lft.to/lastmile_qr_scan", "android": "https://dc.lft.to/lastmile_qr_scan"}, "is_reserved": 0}, {"lon": -77.03867716666667, "bike_id": "a86d7d4766970d9e08d07b34e9d4a024", "lat": 38.906588, "fusion_lon": 0.0, "fusion_lat": 0.0, "type": "electric_scooter", "name": "a86d7d4766970d9e08d07b34e9d4a024", "is_disabled": 0, "rental_uris": {"ios": "https://dc.lft.to/lastmile_qr_scan", "android": "https://dc.lft.to/lastmile_qr_scan"}, "is_reserved": 0}, {"lon": -77.019095, "bike_id": "05d331cd7b975d689de0702fc5d219da", "lat": 38.88609366666667, "fusion_lon": 0.0, "fusion_lat": 0.0, "type": "electric_scooter", "name": "05d331cd7b975d689de0702fc5d219da", "is_disabled": 0, "rental_uris": {"ios": "https://dc.lft.to/lastmile_qr_scan", "android": "https://dc.lft.to/lastmile_qr_scan"}, "is_reserved": 0}, {"lon": -77.0364235, "bike_id": "524457845fe32d233b905dde65b02ed8", "lat": 38.924142, "fusion_lon": 0.0, "fusion_lat": 0.0, "type": "electric_scooter", "name": "524457845fe32d233b905dde65b02ed8", "is_disabled": 0, "rental_uris": {"ios": "https://dc.lft.to/lastmile_qr_scan", "android": "https://dc.lft.to/lastmile_qr_scan"}, "is_reserved": 0}, {"lon": -77.02202116666666, "bike_id": "ec1ec0a785b4cc9b071708fbe671e859", "lat": 38.916207, "fusion_lon": 0.0, "fusion_lat": 0.0, "type": "electric_scooter", "name": "ec1ec0a785b4cc9b071708fbe671e859", "is_disabled": 0, "rental_uris": {"ios": "https://dc.lft.to/lastmile_qr_scan", "android": "https://dc.lft.to/lastmile_qr_scan"}, "is_reserved": 0}, {"lon": -77.06334233333334, "bike_id": "561e3d2eff787b3520ffd7c50a1d2ef7", "lat": 38.905196333333336, "fusion_lon": 0.0, "fusion_lat": 0.0, "type": "electric_scooter", "name": "561e3d2eff787b3520ffd7c50a1d2ef7", "is_disabled": 0, "rental_uris": {"ios": "https://dc.lft.to/lastmile_qr_scan", "android": "https://dc.lft.to/lastmile_qr_scan"}, "is_reserved": 0}, {"lon": -77.0227195, "bike_id": "6d1efe4d6259cb7a8006fb7432f567eb", "lat": 38.887397166666666, "fusion_lon": 0.0, "fusion_lat": 0.0, "type": "electric_scooter", "name": "6d1efe4d6259cb7a8006fb7432f567eb", "is_disabled": 0, "rental_uris": {"ios": "https://dc.lft.to/lastmile_qr_scan", "android": "https://dc.lft.to/lastmile_qr_scan"}, "is_reserved": 0}, {"lon": -77.04332266666667, "bike_id": "e854fc05c21de743b5d9fa8add622154", "lat": 38.907276333333336, "fusion_lon": 0.0, "fusion_lat": 0.0, "type": "electric_scooter", "name": "e854fc05c21de743b5d9fa8add622154", "is_disabled": 0, "rental_uris": {"ios": "https://dc.lft.to/lastmile_qr_scan", "android": "https://dc.lft.to/lastmile_qr_scan"}, "is_reserved": 0}, {"lon": -77.04368016666666, "bike_id": "9fe03b9963aa45064b99eefcda820f60", "lat": 38.911167666666664, "fusion_lon": 0.0, "fusion_lat": 0.0, "type": "electric_scooter", "name": "9fe03b9963aa45064b99eefcda820f60", "is_disabled": 0, "rental_uris": {"ios": "https://dc.lft.to/lastmile_qr_scan", "android": "https://dc.lft.to/lastmile_qr_scan"}, "is_reserved": 0}, {"lon": -77.02628283333334, "bike_id": "e86f211b9fa57d2f34e68cbfeb5a6de1", "lat": 38.962161, "fusion_lon": 0.0, "fusion_lat": 0.0, "type": "electric_bike", "name": "e86f211b9fa57d2f34e68cbfeb5a6de1", "is_disabled": 0, "rental_uris": {"ios": "https://dc.lft.to/lastmile_qr_scan", "android": "https://dc.lft.to/lastmile_qr_scan"}, "is_reserved": 0}, {"lon": -77.021716, "bike_id": "bb18924337890acb88764eba22889e7c", "lat": 38.94294983333333, "fusion_lon": 0.0, "fusion_lat": 0.0, "type": "electric_scooter", "name": "bb18924337890acb88764eba22889e7c", "is_disabled": 0, "rental_uris": {"ios": "https://dc.lft.to/lastmile_qr_scan", "android": "https://dc.lft.to/lastmile_qr_scan"}, "is_reserved": 0}, {"lon": -77.01545233333333, "bike_id": "929bf42a56cd94d5d246db2bab223ae9", "lat": 38.88320516666667, "fusion_lon": 0.0, "fusion_lat": 0.0, "type": "electric_scooter", "name": "929bf42a56cd94d5d246db2bab223ae9", "is_disabled": 0, "rental_uris": {"ios": "https://dc.lft.to/lastmile_qr_scan", "android": "https://dc.lft.to/lastmile_qr_scan"}, "is_reserved": 0}, {"lon": -77.02697416666666, "bike_id": "43d2d6a6fb2a125e491e344217962239", "lat": 38.948890166666665, "fusion_lon": 0.0, "fusion_lat": 0.0, "type": "electric_scooter", "name": "43d2d6a6fb2a125e491e344217962239", "is_disabled": 0, "rental_uris": {"ios": "https://dc.lft.to/lastmile_qr_scan", "android": "https://dc.lft.to/lastmile_qr_scan"}, "is_reserved": 0}, {"lon": -76.985363, "bike_id": "40a32a8a6b9a492456c6929bf61dfdac", "lat": 38.910237333333335, "fusion_lon": 0.0, "fusion_lat": 0.0, "type": "electric_scooter", "name": "40a32a8a6b9a492456c6929bf61dfdac", "is_disabled": 0, "rental_uris": {"ios": "https://dc.lft.to/lastmile_qr_scan", "android": "https://dc.lft.to/lastmile_qr_scan"}, "is_reserved": 0}, {"lon": -77.02681366666667, "bike_id": "193100fa665915a3c378baa1a8bae0a7", "lat": 38.984867333333334, "fusion_lon": 0.0, "fusion_lat": 0.0, "type": "electric_scooter", "name": "193100fa665915a3c378baa1a8bae0a7", "is_disabled": 0, "rental_uris": {"ios": "https://dc.lft.to/lastmile_qr_scan", "android": "https://dc.lft.to/lastmile_qr_scan"}, "is_reserved": 0}, {"lon": -77.01532816666666, "bike_id": "6281f967e277d284242442c82da829c2", "lat": 38.92686333333333, "fusion_lon": 0.0, "fusion_lat": 0.0, "type": "electric_scooter", "name": "6281f967e277d284242442c82da829c2", "is_disabled": 0, "rental_uris": {"ios": "https://dc.lft.to/lastmile_qr_scan", "android": "https://dc.lft.to/lastmile_qr_scan"}, "is_reserved": 0}, {"lon": -76.98754733333334, "bike_id": "efdc11c0afc0fe6464866a14f29a8a37", "lat": 38.9038245, "fusion_lon": 0.0, "fusion_lat": 0.0, "type": "electric_scooter", "name": "efdc11c0afc0fe6464866a14f29a8a37", "is_disabled": 0, "rental_uris": {"ios": "https://dc.lft.to/lastmile_qr_scan", "android": "https://dc.lft.to/lastmile_qr_scan"}, "is_reserved": 0}, {"lon": -77.0687415, "bike_id": "1a045ac5ff682b9d56185c662310eff1", "lat": 38.952894666666666, "fusion_lon": 0.0, "fusion_lat": 0.0, "type": "electric_scooter", "name": "1a045ac5ff682b9d56185c662310eff1", "is_disabled": 0, "rental_uris": {"ios": "https://dc.lft.to/lastmile_qr_scan", "android": "https://dc.lft.to/lastmile_qr_scan"}, "is_reserved": 0}, {"lon": -77.021571, "bike_id": "f4e421df06a98fd54994ca6773d16a92", "lat": 38.92600916666667, "fusion_lon": 0.0, "fusion_lat": 0.0, "type": "electric_scooter", "name": "f4e421df06a98fd54994ca6773d16a92", "is_disabled": 0, "rental_uris": {"ios": "https://dc.lft.to/lastmile_qr_scan", "android": "https://dc.lft.to/lastmile_qr_scan"}, "is_reserved": 0}, {"lon": -77.00139766666666, "bike_id": "e6f768339120cc1017dcb9ccddb32a3c", "lat": 38.842830666666664, "fusion_lon": 0.0, "fusion_lat": 0.0, "type": "electric_scooter", "name": "e6f768339120cc1017dcb9ccddb32a3c", "is_disabled": 0, "rental_uris": {"ios": "https://dc.lft.to/lastmile_qr_scan", "android": "https://dc.lft.to/lastmile_qr_scan"}, "is_reserved": 0}, {"lon": -77.0322275, "bike_id": "bce220c158470120cfd89d09693d57d3", "lat": 38.914093, "fusion_lon": 0.0, "fusion_lat": 0.0, "type": "electric_scooter", "name": "bce220c158470120cfd89d09693d57d3", "is_disabled": 0, "rental_uris": {"ios": "https://dc.lft.to/lastmile_qr_scan", "android": "https://dc.lft.to/lastmile_qr_scan"}, "is_reserved": 0}, {"lon": -77.0432825, "bike_id": "93ac19ea51f66ffc79e2b225418bca5d", "lat": 38.9188145, "fusion_lon": 0.0, "fusion_lat": 0.0, "type": "electric_scooter", "name": "93ac19ea51f66ffc79e2b225418bca5d", "is_disabled": 0, "rental_uris": {"ios": "https://dc.lft.to/lastmile_qr_scan", "android": "https://dc.lft.to/lastmile_qr_scan"}, "is_reserved": 0}, {"lon": -76.93176083333333, "bike_id": "1160f2e3ea0d8827653f9e0ed3dc04d8", "lat": 38.89882433333333, "fusion_lon": 0.0, "fusion_lat": 0.0, "type": "electric_scooter", "name": "1160f2e3ea0d8827653f9e0ed3dc04d8", "is_disabled": 0, "rental_uris": {"ios": "https://dc.lft.to/lastmile_qr_scan", "android": "https://dc.lft.to/lastmile_qr_scan"}, "is_reserved": 0}, {"lon": -77.0327465, "bike_id": "acc293e1464350e254e4403475f69853", "lat": 38.934548166666666, "fusion_lon": 0.0, "fusion_lat": 0.0, "type": "electric_scooter", "name": "acc293e1464350e254e4403475f69853", "is_disabled": 0, "rental_uris": {"ios": "https://dc.lft.to/lastmile_qr_scan", "android": "https://dc.lft.to/lastmile_qr_scan"}, "is_reserved": 0}, {"lon": -76.95012416666667, "bike_id": "86925c40a5de6f6cfc1402806d7f9208", "lat": 38.89398116666667, "fusion_lon": 0.0, "fusion_lat": 0.0, "type": "electric_scooter", "name": "86925c40a5de6f6cfc1402806d7f9208", "is_disabled": 0, "rental_uris": {"ios": "https://dc.lft.to/lastmile_qr_scan", "android": "https://dc.lft.to/lastmile_qr_scan"}, "is_reserved": 0}, {"lon": -77.03214533333333, "bike_id": "d283c35dc3ed4d6864816c0488c39c30", "lat": 38.884134, "fusion_lon": 0.0, "fusion_lat": 0.0, "type": "electric_scooter", "name": "d283c35dc3ed4d6864816c0488c39c30", "is_disabled": 0, "rental_uris": {"ios": "https://dc.lft.to/lastmile_qr_scan", "android": "https://dc.lft.to/lastmile_qr_scan"}, "is_reserved": 0}, {"lon": -77.04481166666666, "bike_id": "2f5c8fae6c519b1744314347e863ee64", "lat": 38.900704833333336, "fusion_lon": 0.0, "fusion_lat": 0.0, "type": "electric_scooter", "name": "2f5c8fae6c519b1744314347e863ee64", "is_disabled": 0, "rental_uris": {"ios": "https://dc.lft.to/lastmile_qr_scan", "android": "https://dc.lft.to/lastmile_qr_scan"}, "is_reserved": 0}, {"lon": -77.01399266666667, "bike_id": "e84bec0c3522c5ec4fca742df3c7ad66", "lat": 38.92880483333333, "fusion_lon": 0.0, "fusion_lat": 0.0, "type": "electric_scooter", "name": "e84bec0c3522c5ec4fca742df3c7ad66", "is_disabled": 0, "rental_uris": {"ios": "https://dc.lft.to/lastmile_qr_scan", "android": "https://dc.lft.to/lastmile_qr_scan"}, "is_reserved": 0}, {"lon": -77.04314766666667, "bike_id": "1fa6a0dcf565b59d1e0b43d4f093c5bd", "lat": 38.908931833333334, "fusion_lon": 0.0, "fusion_lat": 0.0, "type": "electric_scooter", "name": "1fa6a0dcf565b59d1e0b43d4f093c5bd", "is_disabled": 0, "rental_uris": {"ios": "https://dc.lft.to/lastmile_qr_scan", "android": "https://dc.lft.to/lastmile_qr_scan"}, "is_reserved": 0}, {"lon": -77.038662, "bike_id": "4fed077e08ab2056e78ce37cafe69393", "lat": 38.90970566666667, "fusion_lon": 0.0, "fusion_lat": 0.0, "type": "electric_scooter", "name": "4fed077e08ab2056e78ce37cafe69393", "is_disabled": 0, "rental_uris": {"ios": "https://dc.lft.to/lastmile_qr_scan", "android": "https://dc.lft.to/lastmile_qr_scan"}, "is_reserved": 0}, {"lon": -77.13909333333334, "bike_id": "26726f96a1ee4d3b2651d2349541a5e3", "lat": 38.896749, "fusion_lon": 0.0, "fusion_lat": 0.0, "type": "electric_bike", "name": "26726f96a1ee4d3b2651d2349541a5e3", "is_disabled": 0, "rental_uris": {"ios": "https://dc.lft.to/lastmile_qr_scan", "android": "https://dc.lft.to/lastmile_qr_scan"}, "is_reserved": 0}, {"lon": -77.03209666666666, "bike_id": "605b0ddff8d5ef360336516ceedb6346", "lat": 38.9165235, "fusion_lon": 0.0, "fusion_lat": 0.0, "type": "electric_scooter", "name": "605b0ddff8d5ef360336516ceedb6346", "is_disabled": 0, "rental_uris": {"ios": "https://dc.lft.to/lastmile_qr_scan", "android": "https://dc.lft.to/lastmile_qr_scan"}, "is_reserved": 0}, {"lon": -77.03109116666667, "bike_id": "dc7cc562b14452831ef49af0aefd5d03", "lat": 38.9044945, "fusion_lon": 0.0, "fusion_lat": 0.0, "type": "electric_scooter", "name": "dc7cc562b14452831ef49af0aefd5d03", "is_disabled": 0, "rental_uris": {"ios": "https://dc.lft.to/lastmile_qr_scan", "android": "https://dc.lft.to/lastmile_qr_scan"}, "is_reserved": 0}, {"lon": -77.0228975, "bike_id": "47043ac7185e7b98312a15ce356134b1", "lat": 38.8970835, "fusion_lon": 0.0, "fusion_lat": 0.0, "type": "electric_scooter", "name": "47043ac7185e7b98312a15ce356134b1", "is_disabled": 0, "rental_uris": {"ios": "https://dc.lft.to/lastmile_qr_scan", "android": "https://dc.lft.to/lastmile_qr_scan"}, "is_reserved": 0}, {"lon": -77.02546416666667, "bike_id": "4e2683ba969582fbaad1407b5a83bcc5", "lat": 38.922568166666665, "fusion_lon": 0.0, "fusion_lat": 0.0, "type": "electric_scooter", "name": "4e2683ba969582fbaad1407b5a83bcc5", "is_disabled": 0, "rental_uris": {"ios": "https://dc.lft.to/lastmile_qr_scan", "android": "https://dc.lft.to/lastmile_qr_scan"}, "is_reserved": 0}, {"lon": -77.1157125, "bike_id": "4b7a888e95cfabf2e2d7e602971c3032", "lat": 38.99350716666667, "fusion_lon": 0.0, "fusion_lat": 0.0, "type": "electric_bike", "name": "4b7a888e95cfabf2e2d7e602971c3032", "is_disabled": 0, "rental_uris": {"ios": "https://dc.lft.to/lastmile_qr_scan", "android": "https://dc.lft.to/lastmile_qr_scan"}, "is_reserved": 0}, {"lon": -77.0148075, "bike_id": "b0de66ccb3c251a7a405741f37065727", "lat": 38.958701833333336, "fusion_lon": 0.0, "fusion_lat": 0.0, "type": "electric_scooter", "name": "b0de66ccb3c251a7a405741f37065727", "is_disabled": 0, "rental_uris": {"ios": "https://dc.lft.to/lastmile_qr_scan", "android": "https://dc.lft.to/lastmile_qr_scan"}, "is_reserved": 0}, {"lon": -77.03250083333333, "bike_id": "30d4fce9b9e812a1ee6ab7d07041c1da", "lat": 38.90960833333333, "fusion_lon": 0.0, "fusion_lat": 0.0, "type": "electric_scooter", "name": "30d4fce9b9e812a1ee6ab7d07041c1da", "is_disabled": 0, "rental_uris": {"ios": "https://dc.lft.to/lastmile_qr_scan", "android": "https://dc.lft.to/lastmile_qr_scan"}, "is_reserved": 0}, {"lon": -77.021915, "bike_id": "67533196d9f0452ebd25ab52573c93b9", "lat": 38.910530666666666, "fusion_lon": 0.0, "fusion_lat": 0.0, "type": "electric_scooter", "name": "67533196d9f0452ebd25ab52573c93b9", "is_disabled": 0, "rental_uris": {"ios": "https://dc.lft.to/lastmile_qr_scan", "android": "https://dc.lft.to/lastmile_qr_scan"}, "is_reserved": 0}, {"lon": -77.05909433333333, "bike_id": "54acc9af3910f412716b9c074ec7714a", "lat": 38.90539716666667, "fusion_lon": 0.0, "fusion_lat": 0.0, "type": "electric_scooter", "name": "54acc9af3910f412716b9c074ec7714a", "is_disabled": 0, "rental_uris": {"ios": "https://dc.lft.to/lastmile_qr_scan", "android": "https://dc.lft.to/lastmile_qr_scan"}, "is_reserved": 0}, {"lon": -77.03455916666667, "bike_id": "d614d9996e0778b3753876f9003cb6b7", "lat": 38.934430666666664, "fusion_lon": 0.0, "fusion_lat": 0.0, "type": "electric_scooter", "name": "d614d9996e0778b3753876f9003cb6b7", "is_disabled": 0, "rental_uris": {"ios": "https://dc.lft.to/lastmile_qr_scan", "android": "https://dc.lft.to/lastmile_qr_scan"}, "is_reserved": 0}, {"lon": -77.03445483333333, "bike_id": "e63870c687bd2636fa309ac2ec6c567e", "lat": 38.90949716666667, "fusion_lon": 0.0, "fusion_lat": 0.0, "type": "electric_scooter", "name": "e63870c687bd2636fa309ac2ec6c567e", "is_disabled": 0, "rental_uris": {"ios": "https://dc.lft.to/lastmile_qr_scan", "android": "https://dc.lft.to/lastmile_qr_scan"}, "is_reserved": 0}, {"lon": -77.0211775, "bike_id": "2f86e49edec6f897fee64a9dd5eae028", "lat": 38.89746683333333, "fusion_lon": 0.0, "fusion_lat": 0.0, "type": "electric_scooter", "name": "2f86e49edec6f897fee64a9dd5eae028", "is_disabled": 0, "rental_uris": {"ios": "https://dc.lft.to/lastmile_qr_scan", "android": "https://dc.lft.to/lastmile_qr_scan"}, "is_reserved": 0}, {"lon": -77.03460766666667, "bike_id": "646beed4cc0a6d2684f72883ea60e580", "lat": 38.908392666666664, "fusion_lon": 0.0, "fusion_lat": 0.0, "type": "electric_scooter", "name": "646beed4cc0a6d2684f72883ea60e580", "is_disabled": 0, "rental_uris": {"ios": "https://dc.lft.to/lastmile_qr_scan", "android": "https://dc.lft.to/lastmile_qr_scan"}, "is_reserved": 0}, {"lon": -76.9822945, "bike_id": "ccb41099e92ddc0323d7f75caa6c8244", "lat": 38.91653066666667, "fusion_lon": 0.0, "fusion_lat": 0.0, "type": "electric_scooter", "name": "ccb41099e92ddc0323d7f75caa6c8244", "is_disabled": 0, "rental_uris": {"ios": "https://dc.lft.to/lastmile_qr_scan", "android": "https://dc.lft.to/lastmile_qr_scan"}, "is_reserved": 0}, {"lon": -77.04831783333333, "bike_id": "7eae0fa2665364e0a27961f70d79f2a7", "lat": 38.89741316666667, "fusion_lon": 0.0, "fusion_lat": 0.0, "type": "electric_scooter", "name": "7eae0fa2665364e0a27961f70d79f2a7", "is_disabled": 0, "rental_uris": {"ios": "https://dc.lft.to/lastmile_qr_scan", "android": "https://dc.lft.to/lastmile_qr_scan"}, "is_reserved": 0}, {"lon": -77.031912, "bike_id": "926c5794a097621acb549fdd194223aa", "lat": 38.91690966666667, "fusion_lon": 0.0, "fusion_lat": 0.0, "type": "electric_scooter", "name": "926c5794a097621acb549fdd194223aa", "is_disabled": 0, "rental_uris": {"ios": "https://dc.lft.to/lastmile_qr_scan", "android": "https://dc.lft.to/lastmile_qr_scan"}, "is_reserved": 0}, {"lon": -77.06243516666666, "bike_id": "a982beb452570cbc99325cafb36b9bf9", "lat": 38.905235833333336, "fusion_lon": 0.0, "fusion_lat": 0.0, "type": "electric_scooter", "name": "a982beb452570cbc99325cafb36b9bf9", "is_disabled": 0, "rental_uris": {"ios": "https://dc.lft.to/lastmile_qr_scan", "android": "https://dc.lft.to/lastmile_qr_scan"}, "is_reserved": 0}, {"lon": -77.04500816666666, "bike_id": "cb02ba170ab9f5091034412598f86cde", "lat": 38.911104, "fusion_lon": 0.0, "fusion_lat": 0.0, "type": "electric_scooter", "name": "cb02ba170ab9f5091034412598f86cde", "is_disabled": 0, "rental_uris": {"ios": "https://dc.lft.to/lastmile_qr_scan", "android": "https://dc.lft.to/lastmile_qr_scan"}, "is_reserved": 0}, {"lon": -77.02196883333333, "bike_id": "8b47a5e4f4779326ffef7044adad0105", "lat": 38.90002283333333, "fusion_lon": 0.0, "fusion_lat": 0.0, "type": "electric_scooter", "name": "8b47a5e4f4779326ffef7044adad0105", "is_disabled": 0, "rental_uris": {"ios": "https://dc.lft.to/lastmile_qr_scan", "android": "https://dc.lft.to/lastmile_qr_scan"}, "is_reserved": 0}, {"lon": -77.03185583333334, "bike_id": "d1c66cef18f4a4eb22a85885a1049005", "lat": 38.9168515, "fusion_lon": 0.0, "fusion_lat": 0.0, "type": "electric_scooter", "name": "d1c66cef18f4a4eb22a85885a1049005", "is_disabled": 0, "rental_uris": {"ios": "https://dc.lft.to/lastmile_qr_scan", "android": "https://dc.lft.to/lastmile_qr_scan"}, "is_reserved": 0}, {"lon": -77.03886033333333, "bike_id": "db890728fb2040f05211ee6e268aa0a2", "lat": 38.910125, "fusion_lon": 0.0, "fusion_lat": 0.0, "type": "electric_scooter", "name": "db890728fb2040f05211ee6e268aa0a2", "is_disabled": 0, "rental_uris": {"ios": "https://dc.lft.to/lastmile_qr_scan", "android": "https://dc.lft.to/lastmile_qr_scan"}, "is_reserved": 0}, {"lon": -76.99863433333333, "bike_id": "ede73871d30748ba4e943d45d257e7af", "lat": 38.90026483333333, "fusion_lon": 0.0, "fusion_lat": 0.0, "type": "electric_scooter", "name": "ede73871d30748ba4e943d45d257e7af", "is_disabled": 0, "rental_uris": {"ios": "https://dc.lft.to/lastmile_qr_scan", "android": "https://dc.lft.to/lastmile_qr_scan"}, "is_reserved": 0}, {"lon": -76.95369883333333, "bike_id": "3bd3b4515a2c1b6f50af86a2e394dfc9", "lat": 38.89208433333334, "fusion_lon": 0.0, "fusion_lat": 0.0, "type": "electric_scooter", "name": "3bd3b4515a2c1b6f50af86a2e394dfc9", "is_disabled": 0, "rental_uris": {"ios": "https://dc.lft.to/lastmile_qr_scan", "android": "https://dc.lft.to/lastmile_qr_scan"}, "is_reserved": 0}, {"lon": -76.96152433333333, "bike_id": "f6fd42b595a986f92b58f5f97ffe80e7", "lat": 38.88357966666667, "fusion_lon": 0.0, "fusion_lat": 0.0, "type": "electric_scooter", "name": "f6fd42b595a986f92b58f5f97ffe80e7", "is_disabled": 0, "rental_uris": {"ios": "https://dc.lft.to/lastmile_qr_scan", "android": "https://dc.lft.to/lastmile_qr_scan"}, "is_reserved": 0}, {"lon": -77.04201916666666, "bike_id": "0785726aa342716a4dd65df9d9f83181", "lat": 38.912678166666666, "fusion_lon": 0.0, "fusion_lat": 0.0, "type": "electric_scooter", "name": "0785726aa342716a4dd65df9d9f83181", "is_disabled": 0, "rental_uris": {"ios": "https://dc.lft.to/lastmile_qr_scan", "android": "https://dc.lft.to/lastmile_qr_scan"}, "is_reserved": 0}, {"lon": -77.0458535, "bike_id": "a92fa5ad5bf3a8a7e3ff6e92c328b50c", "lat": 38.903819, "fusion_lon": 0.0, "fusion_lat": 0.0, "type": "electric_scooter", "name": "a92fa5ad5bf3a8a7e3ff6e92c328b50c", "is_disabled": 0, "rental_uris": {"ios": "https://dc.lft.to/lastmile_qr_scan", "android": "https://dc.lft.to/lastmile_qr_scan"}, "is_reserved": 0}, {"lon": -77.0386715, "bike_id": "a9bdbf356ad8d1e6ee2bd619eb55a7bf", "lat": 38.94502633333333, "fusion_lon": 0.0, "fusion_lat": 0.0, "type": "electric_scooter", "name": "a9bdbf356ad8d1e6ee2bd619eb55a7bf", "is_disabled": 0, "rental_uris": {"ios": "https://dc.lft.to/lastmile_qr_scan", "android": "https://dc.lft.to/lastmile_qr_scan"}, "is_reserved": 0}, {"lon": -77.00581566666666, "bike_id": "0bd03eebffa8fcd88e2ea09bf2a8ddc9", "lat": 38.884431166666666, "fusion_lon": 0.0, "fusion_lat": 0.0, "type": "electric_scooter", "name": "0bd03eebffa8fcd88e2ea09bf2a8ddc9", "is_disabled": 0, "rental_uris": {"ios": "https://dc.lft.to/lastmile_qr_scan", "android": "https://dc.lft.to/lastmile_qr_scan"}, "is_reserved": 0}, {"lon": -76.980967, "bike_id": "b5e925f9347aca609ec82c1d3c79fe9f", "lat": 38.895536166666666, "fusion_lon": 0.0, "fusion_lat": 0.0, "type": "electric_scooter", "name": "b5e925f9347aca609ec82c1d3c79fe9f", "is_disabled": 0, "rental_uris": {"ios": "https://dc.lft.to/lastmile_qr_scan", "android": "https://dc.lft.to/lastmile_qr_scan"}, "is_reserved": 0}, {"lon": -76.96787883333333, "bike_id": "6ee1b6c64484a695c764fed3d6c2f21b", "lat": 38.86852833333333, "fusion_lon": 0.0, "fusion_lat": 0.0, "type": "electric_scooter", "name": "6ee1b6c64484a695c764fed3d6c2f21b", "is_disabled": 0, "rental_uris": {"ios": "https://dc.lft.to/lastmile_qr_scan", "android": "https://dc.lft.to/lastmile_qr_scan"}, "is_reserved": 0}, {"lon": -76.998473, "bike_id": "613292cceb3ec0cdf984c937d98a09ba", "lat": 38.90213416666667, "fusion_lon": 0.0, "fusion_lat": 0.0, "type": "electric_scooter", "name": "613292cceb3ec0cdf984c937d98a09ba", "is_disabled": 0, "rental_uris": {"ios": "https://dc.lft.to/lastmile_qr_scan", "android": "https://dc.lft.to/lastmile_qr_scan"}, "is_reserved": 0}, {"lon": -77.034796, "bike_id": "82380e22da4602a613ded8062eadf56b", "lat": 38.92871133333333, "fusion_lon": 0.0, "fusion_lat": 0.0, "type": "electric_scooter", "name": "82380e22da4602a613ded8062eadf56b", "is_disabled": 0, "rental_uris": {"ios": "https://dc.lft.to/lastmile_qr_scan", "android": "https://dc.lft.to/lastmile_qr_scan"}, "is_reserved": 0}, {"lon": -77.00285016666666, "bike_id": "59a1cc251dd2c2bf032e96bf569e6e06", "lat": 38.9092595, "fusion_lon": 0.0, "fusion_lat": 0.0, "type": "electric_scooter", "name": "59a1cc251dd2c2bf032e96bf569e6e06", "is_disabled": 0, "rental_uris": {"ios": "https://dc.lft.to/lastmile_qr_scan", "android": "https://dc.lft.to/lastmile_qr_scan"}, "is_reserved": 0}, {"lon": -77.02162216666666, "bike_id": "049956937198aca1dcc4bde29b601527", "lat": 38.95079166666667, "fusion_lon": 0.0, "fusion_lat": 0.0, "type": "electric_scooter", "name": "049956937198aca1dcc4bde29b601527", "is_disabled": 0, "rental_uris": {"ios": "https://dc.lft.to/lastmile_qr_scan", "android": "https://dc.lft.to/lastmile_qr_scan"}, "is_reserved": 0}, {"lon": -77.02161266666667, "bike_id": "b33c6c969dcb0a5b8a7d735da501f026", "lat": 38.92618516666667, "fusion_lon": 0.0, "fusion_lat": 0.0, "type": "electric_scooter", "name": "b33c6c969dcb0a5b8a7d735da501f026", "is_disabled": 0, "rental_uris": {"ios": "https://dc.lft.to/lastmile_qr_scan", "android": "https://dc.lft.to/lastmile_qr_scan"}, "is_reserved": 0}, {"lon": -77.022416, "bike_id": "44b734b4a26a13fa44a1c3c97162f5fb", "lat": 38.92264683333333, "fusion_lon": 0.0, "fusion_lat": 0.0, "type": "electric_bike", "name": "44b734b4a26a13fa44a1c3c97162f5fb", "is_disabled": 0, "rental_uris": {"ios": "https://dc.lft.to/lastmile_qr_scan", "android": "https://dc.lft.to/lastmile_qr_scan"}, "is_reserved": 0}, {"lon": -77.01653066666667, "bike_id": "2cdf2893147e70bc708903cc29d704bc", "lat": 38.88070966666667, "fusion_lon": 0.0, "fusion_lat": 0.0, "type": "electric_bike", "name": "2cdf2893147e70bc708903cc29d704bc", "is_disabled": 0, "rental_uris": {"ios": "https://dc.lft.to/lastmile_qr_scan", "android": "https://dc.lft.to/lastmile_qr_scan"}, "is_reserved": 0}, {"lon": -76.98013433333334, "bike_id": "f88d0d85b67aad2c0928751048f9fa2d", "lat": 38.853232, "fusion_lon": 0.0, "fusion_lat": 0.0, "type": "electric_bike", "name": "f88d0d85b67aad2c0928751048f9fa2d", "is_disabled": 0, "rental_uris": {"ios": "https://dc.lft.to/lastmile_qr_scan", "android": "https://dc.lft.to/lastmile_qr_scan"}, "is_reserved": 0}, {"lon": -77.026124, "bike_id": "4ace6658f6a654e013ddce7c1e3fb6e6", "lat": 38.914074166666666, "fusion_lon": 0.0, "fusion_lat": 0.0, "type": "electric_scooter", "name": "4ace6658f6a654e013ddce7c1e3fb6e6", "is_disabled": 0, "rental_uris": {"ios": "https://dc.lft.to/lastmile_qr_scan", "android": "https://dc.lft.to/lastmile_qr_scan"}, "is_reserved": 0}, {"lon": -77.0231205, "bike_id": "41805dc795ad55793d16ded760a5e476", "lat": 38.91776333333333, "fusion_lon": 0.0, "fusion_lat": 0.0, "type": "electric_scooter", "name": "41805dc795ad55793d16ded760a5e476", "is_disabled": 0, "rental_uris": {"ios": "https://dc.lft.to/lastmile_qr_scan", "android": "https://dc.lft.to/lastmile_qr_scan"}, "is_reserved": 0}, {"lon": -77.019277, "bike_id": "5eaeac3c8e504c93903acc88c143ca1d", "lat": 38.892475166666664, "fusion_lon": 0.0, "fusion_lat": 0.0, "type": "electric_scooter", "name": "5eaeac3c8e504c93903acc88c143ca1d", "is_disabled": 0, "rental_uris": {"ios": "https://dc.lft.to/lastmile_qr_scan", "android": "https://dc.lft.to/lastmile_qr_scan"}, "is_reserved": 0}, {"lon": -77.04533333333333, "bike_id": "ba45fc1d8592bbb6a38bf19f8d5d1d2b", "lat": 38.9133165, "fusion_lon": 0.0, "fusion_lat": 0.0, "type": "electric_scooter", "name": "ba45fc1d8592bbb6a38bf19f8d5d1d2b", "is_disabled": 0, "rental_uris": {"ios": "https://dc.lft.to/lastmile_qr_scan", "android": "https://dc.lft.to/lastmile_qr_scan"}, "is_reserved": 0}, {"lon": -77.02010166666666, "bike_id": "b075f515a65f6113a4c31ad384e4451d", "lat": 38.9241665, "fusion_lon": 0.0, "fusion_lat": 0.0, "type": "electric_scooter", "name": "b075f515a65f6113a4c31ad384e4451d", "is_disabled": 0, "rental_uris": {"ios": "https://dc.lft.to/lastmile_qr_scan", "android": "https://dc.lft.to/lastmile_qr_scan"}, "is_reserved": 0}, {"lon": -77.0070985, "bike_id": "e7797f6174483fc5341fcf23876a502a", "lat": 38.899170166666664, "fusion_lon": 0.0, "fusion_lat": 0.0, "type": "electric_scooter", "name": "e7797f6174483fc5341fcf23876a502a", "is_disabled": 0, "rental_uris": {"ios": "https://dc.lft.to/lastmile_qr_scan", "android": "https://dc.lft.to/lastmile_qr_scan"}, "is_reserved": 0}, {"lon": -77.0297995, "bike_id": "79334e0073f962af693edcc319650c56", "lat": 38.90722933333333, "fusion_lon": 0.0, "fusion_lat": 0.0, "type": "electric_scooter", "name": "79334e0073f962af693edcc319650c56", "is_disabled": 0, "rental_uris": {"ios": "https://dc.lft.to/lastmile_qr_scan", "android": "https://dc.lft.to/lastmile_qr_scan"}, "is_reserved": 0}, {"lon": -77.02826416666667, "bike_id": "9b16d83d01a10ff622ef727897e36ec7", "lat": 38.887306833333334, "fusion_lon": 0.0, "fusion_lat": 0.0, "type": "electric_scooter", "name": "9b16d83d01a10ff622ef727897e36ec7", "is_disabled": 0, "rental_uris": {"ios": "https://dc.lft.to/lastmile_qr_scan", "android": "https://dc.lft.to/lastmile_qr_scan"}, "is_reserved": 0}, {"lon": -77.0328875, "bike_id": "649752a346fcc343179e8a538010f6b4", "lat": 38.90382066666667, "fusion_lon": 0.0, "fusion_lat": 0.0, "type": "electric_scooter", "name": "649752a346fcc343179e8a538010f6b4", "is_disabled": 0, "rental_uris": {"ios": "https://dc.lft.to/lastmile_qr_scan", "android": "https://dc.lft.to/lastmile_qr_scan"}, "is_reserved": 0}, {"lon": -77.05895633333333, "bike_id": "3e3b1fff63b2817994c0c188e6a35879", "lat": 38.936079166666666, "fusion_lon": 0.0, "fusion_lat": 0.0, "type": "electric_scooter", "name": "3e3b1fff63b2817994c0c188e6a35879", "is_disabled": 0, "rental_uris": {"ios": "https://dc.lft.to/lastmile_qr_scan", "android": "https://dc.lft.to/lastmile_qr_scan"}, "is_reserved": 0}, {"lon": -77.032001, "bike_id": "6a4443e60e539119a75ce2102bf933ab", "lat": 38.91261333333333, "fusion_lon": 0.0, "fusion_lat": 0.0, "type": "electric_scooter", "name": "6a4443e60e539119a75ce2102bf933ab", "is_disabled": 0, "rental_uris": {"ios": "https://dc.lft.to/lastmile_qr_scan", "android": "https://dc.lft.to/lastmile_qr_scan"}, "is_reserved": 0}, {"lon": -76.97297133333333, "bike_id": "d66247e52eff90b125e393b1c027fa52", "lat": 38.916461166666664, "fusion_lon": 0.0, "fusion_lat": 0.0, "type": "electric_bike", "name": "d66247e52eff90b125e393b1c027fa52", "is_disabled": 0, "rental_uris": {"ios": "https://dc.lft.to/lastmile_qr_scan", "android": "https://dc.lft.to/lastmile_qr_scan"}, "is_reserved": 0}, {"lon": -77.23331666666667, "bike_id": "31e8b3540815aadd8f4362e20dc1b9f1", "lat": 38.872802, "fusion_lon": 0.0, "fusion_lat": 0.0, "type": "electric_bike", "name": "31e8b3540815aadd8f4362e20dc1b9f1", "is_disabled": 0, "rental_uris": {"ios": "https://dc.lft.to/lastmile_qr_scan", "android": "https://dc.lft.to/lastmile_qr_scan"}, "is_reserved": 0}, {"lon": -76.9654665, "bike_id": "386be1752d51448dc9487df01ef61ebd", "lat": 38.91843133333333, "fusion_lon": 0.0, "fusion_lat": 0.0, "type": "electric_scooter", "name": "386be1752d51448dc9487df01ef61ebd", "is_disabled": 0, "rental_uris": {"ios": "https://dc.lft.to/lastmile_qr_scan", "android": "https://dc.lft.to/lastmile_qr_scan"}, "is_reserved": 0}, {"lon": -76.98875083333333, "bike_id": "93b5e196c3a521c03826e0ec2f50f3e3", "lat": 38.86659216666666, "fusion_lon": 0.0, "fusion_lat": 0.0, "type": "electric_scooter", "name": "93b5e196c3a521c03826e0ec2f50f3e3", "is_disabled": 0, "rental_uris": {"ios": "https://dc.lft.to/lastmile_qr_scan", "android": "https://dc.lft.to/lastmile_qr_scan"}, "is_reserved": 0}, {"lon": -77.04399816666667, "bike_id": "c5fb9904cf764b04a9955d5bfc003d0c", "lat": 38.91018666666667, "fusion_lon": 0.0, "fusion_lat": 0.0, "type": "electric_scooter", "name": "c5fb9904cf764b04a9955d5bfc003d0c", "is_disabled": 0, "rental_uris": {"ios": "https://dc.lft.to/lastmile_qr_scan", "android": "https://dc.lft.to/lastmile_qr_scan"}, "is_reserved": 0}, {"lon": -77.0215635, "bike_id": "1d2cf83d8e955d9b591a3a2b1ae95ed1", "lat": 38.92601483333333, "fusion_lon": 0.0, "fusion_lat": 0.0, "type": "electric_scooter", "name": "1d2cf83d8e955d9b591a3a2b1ae95ed1", "is_disabled": 0, "rental_uris": {"ios": "https://dc.lft.to/lastmile_qr_scan", "android": "https://dc.lft.to/lastmile_qr_scan"}, "is_reserved": 0}, {"lon": -77.00890533333333, "bike_id": "e1eed691a712e871aa2165ca2b7cc19e", "lat": 38.92280683333333, "fusion_lon": 0.0, "fusion_lat": 0.0, "type": "electric_scooter", "name": "e1eed691a712e871aa2165ca2b7cc19e", "is_disabled": 0, "rental_uris": {"ios": "https://dc.lft.to/lastmile_qr_scan", "android": "https://dc.lft.to/lastmile_qr_scan"}, "is_reserved": 0}, {"lon": -77.00209833333334, "bike_id": "569c372efa648355b189a271b931b53d", "lat": 38.92434633333333, "fusion_lon": 0.0, "fusion_lat": 0.0, "type": "electric_scooter", "name": "569c372efa648355b189a271b931b53d", "is_disabled": 0, "rental_uris": {"ios": "https://dc.lft.to/lastmile_qr_scan", "android": "https://dc.lft.to/lastmile_qr_scan"}, "is_reserved": 0}, {"lon": -77.23319566666666, "bike_id": "fe2702cad7359938856c99ff69f239ff", "lat": 38.872849, "fusion_lon": 0.0, "fusion_lat": 0.0, "type": "electric_bike", "name": "fe2702cad7359938856c99ff69f239ff", "is_disabled": 0, "rental_uris": {"ios": "https://dc.lft.to/lastmile_qr_scan", "android": "https://dc.lft.to/lastmile_qr_scan"}, "is_reserved": 0}, {"lon": -77.02882, "bike_id": "64189c74461fba93ad72761141078aae", "lat": 38.904235, "fusion_lon": 0.0, "fusion_lat": 0.0, "type": "electric_scooter", "name": "64189c74461fba93ad72761141078aae", "is_disabled": 0, "rental_uris": {"ios": "https://dc.lft.to/lastmile_qr_scan", "android": "https://dc.lft.to/lastmile_qr_scan"}, "is_reserved": 0}, {"lon": -76.9499635, "bike_id": "8f31676052169decab5b359b57a477a6", "lat": 38.893831, "fusion_lon": 0.0, "fusion_lat": 0.0, "type": "electric_scooter", "name": "8f31676052169decab5b359b57a477a6", "is_disabled": 0, "rental_uris": {"ios": "https://dc.lft.to/lastmile_qr_scan", "android": "https://dc.lft.to/lastmile_qr_scan"}, "is_reserved": 0}, {"lon": -76.94991333333333, "bike_id": "41df414a6a5398da0f54923ea6c73046", "lat": 38.893818333333336, "fusion_lon": 0.0, "fusion_lat": 0.0, "type": "electric_scooter", "name": "41df414a6a5398da0f54923ea6c73046", "is_disabled": 0, "rental_uris": {"ios": "https://dc.lft.to/lastmile_qr_scan", "android": "https://dc.lft.to/lastmile_qr_scan"}, "is_reserved": 0}, {"lon": -77.002156, "bike_id": "7919307c14333b6da2a06e7d5c48c627", "lat": 38.8851405, "fusion_lon": 0.0, "fusion_lat": 0.0, "type": "electric_scooter", "name": "7919307c14333b6da2a06e7d5c48c627", "is_disabled": 0, "rental_uris": {"ios": "https://dc.lft.to/lastmile_qr_scan", "android": "https://dc.lft.to/lastmile_qr_scan"}, "is_reserved": 0}, {"lon": -77.00742333333334, "bike_id": "6b371d0abe763cfa9e571e11356435ac", "lat": 38.898434, "fusion_lon": 0.0, "fusion_lat": 0.0, "type": "electric_scooter", "name": "6b371d0abe763cfa9e571e11356435ac", "is_disabled": 0, "rental_uris": {"ios": "https://dc.lft.to/lastmile_qr_scan", "android": "https://dc.lft.to/lastmile_qr_scan"}, "is_reserved": 0}, {"lon": -77.0759525, "bike_id": "9860c68ff743e7d852dfaf1907a5386d", "lat": 38.91217816666666, "fusion_lon": 0.0, "fusion_lat": 0.0, "type": "electric_scooter", "name": "9860c68ff743e7d852dfaf1907a5386d", "is_disabled": 0, "rental_uris": {"ios": "https://dc.lft.to/lastmile_qr_scan", "android": "https://dc.lft.to/lastmile_qr_scan"}, "is_reserved": 0}, {"lon": -77.0236245, "bike_id": "4167e1b43f00703ae7b2a483422dfef1", "lat": 38.9031305, "fusion_lon": 0.0, "fusion_lat": 0.0, "type": "electric_scooter", "name": "4167e1b43f00703ae7b2a483422dfef1", "is_disabled": 0, "rental_uris": {"ios": "https://dc.lft.to/lastmile_qr_scan", "android": "https://dc.lft.to/lastmile_qr_scan"}, "is_reserved": 0}, {"lon": -77.02254633333334, "bike_id": "2a5dd50e5800b2cbf05885d54275c167", "lat": 38.925275, "fusion_lon": 0.0, "fusion_lat": 0.0, "type": "electric_scooter", "name": "2a5dd50e5800b2cbf05885d54275c167", "is_disabled": 0, "rental_uris": {"ios": "https://dc.lft.to/lastmile_qr_scan", "android": "https://dc.lft.to/lastmile_qr_scan"}, "is_reserved": 0}, {"lon": -77.02483933333333, "bike_id": "3e8f20315d79a6681fbaadcbb378959b", "lat": 38.904089166666665, "fusion_lon": 0.0, "fusion_lat": 0.0, "type": "electric_scooter", "name": "3e8f20315d79a6681fbaadcbb378959b", "is_disabled": 0, "rental_uris": {"ios": "https://dc.lft.to/lastmile_qr_scan", "android": "https://dc.lft.to/lastmile_qr_scan"}, "is_reserved": 0}, {"lon": -76.98836666666666, "bike_id": "93f22a50f73d3a92947308c6bcb6a324", "lat": 38.900442, "fusion_lon": 0.0, "fusion_lat": 0.0, "type": "electric_scooter", "name": "93f22a50f73d3a92947308c6bcb6a324", "is_disabled": 0, "rental_uris": {"ios": "https://dc.lft.to/lastmile_qr_scan", "android": "https://dc.lft.to/lastmile_qr_scan"}, "is_reserved": 0}, {"lon": -77.01770416666666, "bike_id": "3c5e9d2ceac1d1907cd2f60812270ebf", "lat": 38.92113633333334, "fusion_lon": 0.0, "fusion_lat": 0.0, "type": "electric_scooter", "name": "3c5e9d2ceac1d1907cd2f60812270ebf", "is_disabled": 0, "rental_uris": {"ios": "https://dc.lft.to/lastmile_qr_scan", "android": "https://dc.lft.to/lastmile_qr_scan"}, "is_reserved": 0}, {"lon": -77.01546316666666, "bike_id": "5482283279675bcdea4f49c4fc6ea6c6", "lat": 38.88501333333333, "fusion_lon": 0.0, "fusion_lat": 0.0, "type": "electric_scooter", "name": "5482283279675bcdea4f49c4fc6ea6c6", "is_disabled": 0, "rental_uris": {"ios": "https://dc.lft.to/lastmile_qr_scan", "android": "https://dc.lft.to/lastmile_qr_scan"}, "is_reserved": 0}, {"lon": -77.03754966666666, "bike_id": "1d8aacefc16f92ad28d9ba0f6d92aade", "lat": 38.91193633333334, "fusion_lon": 0.0, "fusion_lat": 0.0, "type": "electric_scooter", "name": "1d8aacefc16f92ad28d9ba0f6d92aade", "is_disabled": 0, "rental_uris": {"ios": "https://dc.lft.to/lastmile_qr_scan", "android": "https://dc.lft.to/lastmile_qr_scan"}, "is_reserved": 0}, {"lon": -77.043584, "bike_id": "93c2466a585fdbdfd41418227c21a547", "lat": 38.9159065, "fusion_lon": 0.0, "fusion_lat": 0.0, "type": "electric_scooter", "name": "93c2466a585fdbdfd41418227c21a547", "is_disabled": 0, "rental_uris": {"ios": "https://dc.lft.to/lastmile_qr_scan", "android": "https://dc.lft.to/lastmile_qr_scan"}, "is_reserved": 0}, {"lon": -76.99755533333334, "bike_id": "f75961539ecfaeaa083f5293b8f3483a", "lat": 38.9501305, "fusion_lon": 0.0, "fusion_lat": 0.0, "type": "electric_bike", "name": "f75961539ecfaeaa083f5293b8f3483a", "is_disabled": 0, "rental_uris": {"ios": "https://dc.lft.to/lastmile_qr_scan", "android": "https://dc.lft.to/lastmile_qr_scan"}, "is_reserved": 0}, {"lon": -77.027472, "bike_id": "92bb378ceb1bebf3e34d145a579d296e", "lat": 38.965718333333335, "fusion_lon": 0.0, "fusion_lat": 0.0, "type": "electric_bike", "name": "92bb378ceb1bebf3e34d145a579d296e", "is_disabled": 0, "rental_uris": {"ios": "https://dc.lft.to/lastmile_qr_scan", "android": "https://dc.lft.to/lastmile_qr_scan"}, "is_reserved": 0}, {"lon": -76.988247, "bike_id": "44eddfb4446d55e00b793c1ad01ed52b", "lat": 38.89076433333334, "fusion_lon": 0.0, "fusion_lat": 0.0, "type": "electric_scooter", "name": "44eddfb4446d55e00b793c1ad01ed52b", "is_disabled": 0, "rental_uris": {"ios": "https://dc.lft.to/lastmile_qr_scan", "android": "https://dc.lft.to/lastmile_qr_scan"}, "is_reserved": 0}, {"lon": -77.055911, "bike_id": "292a96242dc8dd0f860456bc43eda785", "lat": 38.931444666666664, "fusion_lon": 0.0, "fusion_lat": 0.0, "type": "electric_scooter", "name": "292a96242dc8dd0f860456bc43eda785", "is_disabled": 0, "rental_uris": {"ios": "https://dc.lft.to/lastmile_qr_scan", "android": "https://dc.lft.to/lastmile_qr_scan"}, "is_reserved": 0}, {"lon": -76.96134883333333, "bike_id": "362c922925f69b1c74bc33945c60d5c0", "lat": 38.94216316666667, "fusion_lon": 0.0, "fusion_lat": 0.0, "type": "electric_bike", "name": "362c922925f69b1c74bc33945c60d5c0", "is_disabled": 0, "rental_uris": {"ios": "https://dc.lft.to/lastmile_qr_scan", "android": "https://dc.lft.to/lastmile_qr_scan"}, "is_reserved": 0}, {"lon": -77.04652483333334, "bike_id": "1e509b62267e57b642d2ca608e957b73", "lat": 39.055008666666666, "fusion_lon": 0.0, "fusion_lat": 0.0, "type": "electric_bike", "name": "1e509b62267e57b642d2ca608e957b73", "is_disabled": 0, "rental_uris": {"ios": "https://dc.lft.to/lastmile_qr_scan", "android": "https://dc.lft.to/lastmile_qr_scan"}, "is_reserved": 0}, {"lon": -76.95655783333333, "bike_id": "ba5f2574292d54be6b8064ad6d4abb2f", "lat": 38.8962675, "fusion_lon": 0.0, "fusion_lat": 0.0, "type": "electric_scooter", "name": "ba5f2574292d54be6b8064ad6d4abb2f", "is_disabled": 0, "rental_uris": {"ios": "https://dc.lft.to/lastmile_qr_scan", "android": "https://dc.lft.to/lastmile_qr_scan"}, "is_reserved": 0}, {"lon": -77.0513775, "bike_id": "7b0523fdeda05b57659cbb87743ce92b", "lat": 38.905213, "fusion_lon": 0.0, "fusion_lat": 0.0, "type": "electric_scooter", "name": "7b0523fdeda05b57659cbb87743ce92b", "is_disabled": 0, "rental_uris": {"ios": "https://dc.lft.to/lastmile_qr_scan", "android": "https://dc.lft.to/lastmile_qr_scan"}, "is_reserved": 0}, {"lon": -76.88401416666666, "bike_id": "271219c5c1b6276ea89b3c66e6c56a51", "lat": 38.93172533333333, "fusion_lon": 0.0, "fusion_lat": 0.0, "type": "electric_bike", "name": "271219c5c1b6276ea89b3c66e6c56a51", "is_disabled": 0, "rental_uris": {"ios": "https://dc.lft.to/lastmile_qr_scan", "android": "https://dc.lft.to/lastmile_qr_scan"}, "is_reserved": 0}, {"lon": -77.018117, "bike_id": "bf57cf9eedbb319f8d35cf9a0368abc0", "lat": 38.964816, "fusion_lon": 0.0, "fusion_lat": 0.0, "type": "electric_scooter", "name": "bf57cf9eedbb319f8d35cf9a0368abc0", "is_disabled": 0, "rental_uris": {"ios": "https://dc.lft.to/lastmile_qr_scan", "android": "https://dc.lft.to/lastmile_qr_scan"}, "is_reserved": 0}, {"lon": -77.127391, "bike_id": "73ce2d6e68405479fe8bff1b53046ede", "lat": 38.89562216666667, "fusion_lon": 0.0, "fusion_lat": 0.0, "type": "electric_bike", "name": "73ce2d6e68405479fe8bff1b53046ede", "is_disabled": 0, "rental_uris": {"ios": "https://dc.lft.to/lastmile_qr_scan", "android": "https://dc.lft.to/lastmile_qr_scan"}, "is_reserved": 0}, {"lon": -77.05743083333333, "bike_id": "c416ae4cec3e13169bcd4ec86aea02a2", "lat": 38.933934666666666, "fusion_lon": 0.0, "fusion_lat": 0.0, "type": "electric_scooter", "name": "c416ae4cec3e13169bcd4ec86aea02a2", "is_disabled": 0, "rental_uris": {"ios": "https://dc.lft.to/lastmile_qr_scan", "android": "https://dc.lft.to/lastmile_qr_scan"}, "is_reserved": 0}, {"lon": -77.03881816666667, "bike_id": "ef03eadecb5386d3292c95cf8eb42783", "lat": 38.948730166666664, "fusion_lon": 0.0, "fusion_lat": 0.0, "type": "electric_scooter", "name": "ef03eadecb5386d3292c95cf8eb42783", "is_disabled": 0, "rental_uris": {"ios": "https://dc.lft.to/lastmile_qr_scan", "android": "https://dc.lft.to/lastmile_qr_scan"}, "is_reserved": 0}, {"lon": -77.01749533333333, "bike_id": "5792f0a8d7f3fcb82f1e366b9e038de5", "lat": 38.876676333333336, "fusion_lon": 0.0, "fusion_lat": 0.0, "type": "electric_scooter", "name": "5792f0a8d7f3fcb82f1e366b9e038de5", "is_disabled": 0, "rental_uris": {"ios": "https://dc.lft.to/lastmile_qr_scan", "android": "https://dc.lft.to/lastmile_qr_scan"}, "is_reserved": 0}, {"lon": -76.99645783333334, "bike_id": "5c8cf1b1b1bcca2b4c002bc501a185a4", "lat": 38.88721133333333, "fusion_lon": 0.0, "fusion_lat": 0.0, "type": "electric_scooter", "name": "5c8cf1b1b1bcca2b4c002bc501a185a4", "is_disabled": 0, "rental_uris": {"ios": "https://dc.lft.to/lastmile_qr_scan", "android": "https://dc.lft.to/lastmile_qr_scan"}, "is_reserved": 0}, {"lon": -77.03859, "bike_id": "fb1ec476dbf23cb7e8ad8514614a7a1d", "lat": 38.912124166666665, "fusion_lon": 0.0, "fusion_lat": 0.0, "type": "electric_scooter", "name": "fb1ec476dbf23cb7e8ad8514614a7a1d", "is_disabled": 0, "rental_uris": {"ios": "https://dc.lft.to/lastmile_qr_scan", "android": "https://dc.lft.to/lastmile_qr_scan"}, "is_reserved": 0}, {"lon": -77.03870816666667, "bike_id": "d5896d0589992bf45527eeb5952ddf7c", "lat": 38.914138333333334, "fusion_lon": 0.0, "fusion_lat": 0.0, "type": "electric_scooter", "name": "d5896d0589992bf45527eeb5952ddf7c", "is_disabled": 0, "rental_uris": {"ios": "https://dc.lft.to/lastmile_qr_scan", "android": "https://dc.lft.to/lastmile_qr_scan"}, "is_reserved": 0}, {"lon": -77.0432765, "bike_id": "bba7fa1959b055471a1044147fc3ee52", "lat": 38.91880283333333, "fusion_lon": 0.0, "fusion_lat": 0.0, "type": "electric_scooter", "name": "bba7fa1959b055471a1044147fc3ee52", "is_disabled": 0, "rental_uris": {"ios": "https://dc.lft.to/lastmile_qr_scan", "android": "https://dc.lft.to/lastmile_qr_scan"}, "is_reserved": 0}, {"lon": -76.98536816666666, "bike_id": "48498c053b45b106ee649055e06786a9", "lat": 38.89945616666667, "fusion_lon": 0.0, "fusion_lat": 0.0, "type": "electric_scooter", "name": "48498c053b45b106ee649055e06786a9", "is_disabled": 0, "rental_uris": {"ios": "https://dc.lft.to/lastmile_qr_scan", "android": "https://dc.lft.to/lastmile_qr_scan"}, "is_reserved": 0}, {"lon": -76.94569366666667, "bike_id": "9134f9cdd5e7ecf23978c1919abad494", "lat": 38.93746766666667, "fusion_lon": 0.0, "fusion_lat": 0.0, "type": "electric_bike", "name": "9134f9cdd5e7ecf23978c1919abad494", "is_disabled": 0, "rental_uris": {"ios": "https://dc.lft.to/lastmile_qr_scan", "android": "https://dc.lft.to/lastmile_qr_scan"}, "is_reserved": 0}, {"lon": -77.02383933333333, "bike_id": "f52e0938951c4f265635edd19574f243", "lat": 38.90622183333333, "fusion_lon": 0.0, "fusion_lat": 0.0, "type": "electric_scooter", "name": "f52e0938951c4f265635edd19574f243", "is_disabled": 0, "rental_uris": {"ios": "https://dc.lft.to/lastmile_qr_scan", "android": "https://dc.lft.to/lastmile_qr_scan"}, "is_reserved": 0}, {"lon": -77.03226616666667, "bike_id": "56025ecde0f662fabbfd8436c3be69b1", "lat": 38.91405366666667, "fusion_lon": 0.0, "fusion_lat": 0.0, "type": "electric_scooter", "name": "56025ecde0f662fabbfd8436c3be69b1", "is_disabled": 0, "rental_uris": {"ios": "https://dc.lft.to/lastmile_qr_scan", "android": "https://dc.lft.to/lastmile_qr_scan"}, "is_reserved": 0}, {"lon": -77.03465216666666, "bike_id": "c57ace57e91da2096aa0f731f2c5c13f", "lat": 38.916749333333335, "fusion_lon": 0.0, "fusion_lat": 0.0, "type": "electric_scooter", "name": "c57ace57e91da2096aa0f731f2c5c13f", "is_disabled": 0, "rental_uris": {"ios": "https://dc.lft.to/lastmile_qr_scan", "android": "https://dc.lft.to/lastmile_qr_scan"}, "is_reserved": 0}, {"lon": -77.05045033333333, "bike_id": "c286cd6b1573865af73435e2912f9652", "lat": 38.92368466666667, "fusion_lon": 0.0, "fusion_lat": 0.0, "type": "electric_scooter", "name": "c286cd6b1573865af73435e2912f9652", "is_disabled": 0, "rental_uris": {"ios": "https://dc.lft.to/lastmile_qr_scan", "android": "https://dc.lft.to/lastmile_qr_scan"}, "is_reserved": 0}, {"lon": -77.01446683333333, "bike_id": "48518ab96acd23b0ede9c77b212b24c6", "lat": 38.9125635, "fusion_lon": 0.0, "fusion_lat": 0.0, "type": "electric_scooter", "name": "48518ab96acd23b0ede9c77b212b24c6", "is_disabled": 0, "rental_uris": {"ios": "https://dc.lft.to/lastmile_qr_scan", "android": "https://dc.lft.to/lastmile_qr_scan"}, "is_reserved": 0}, {"lon": -77.0052155, "bike_id": "986c75a78285a108a319c114bd9e30d9", "lat": 38.879179, "fusion_lon": 0.0, "fusion_lat": 0.0, "type": "electric_scooter", "name": "986c75a78285a108a319c114bd9e30d9", "is_disabled": 0, "rental_uris": {"ios": "https://dc.lft.to/lastmile_qr_scan", "android": "https://dc.lft.to/lastmile_qr_scan"}, "is_reserved": 0}, {"lon": -77.02474733333334, "bike_id": "eeacddd9acc1a3d9866d36811e9d5da2", "lat": 38.9024305, "fusion_lon": 0.0, "fusion_lat": 0.0, "type": "electric_scooter", "name": "eeacddd9acc1a3d9866d36811e9d5da2", "is_disabled": 0, "rental_uris": {"ios": "https://dc.lft.to/lastmile_qr_scan", "android": "https://dc.lft.to/lastmile_qr_scan"}, "is_reserved": 0}, {"lon": -77.03868983333334, "bike_id": "eec950cb34320ea21899e166d4a1edb4", "lat": 38.9097435, "fusion_lon": 0.0, "fusion_lat": 0.0, "type": "electric_scooter", "name": "eec950cb34320ea21899e166d4a1edb4", "is_disabled": 0, "rental_uris": {"ios": "https://dc.lft.to/lastmile_qr_scan", "android": "https://dc.lft.to/lastmile_qr_scan"}, "is_reserved": 0}, {"lon": -77.02317716666667, "bike_id": "9195960223dd182f7c40d74a311abdac", "lat": 38.955219666666665, "fusion_lon": 0.0, "fusion_lat": 0.0, "type": "electric_scooter", "name": "9195960223dd182f7c40d74a311abdac", "is_disabled": 0, "rental_uris": {"ios": "https://dc.lft.to/lastmile_qr_scan", "android": "https://dc.lft.to/lastmile_qr_scan"}, "is_reserved": 0}, {"lon": -77.01021433333334, "bike_id": "6d164703dc41e2b4f9b601cb0b198fec", "lat": 38.917129833333334, "fusion_lon": 0.0, "fusion_lat": 0.0, "type": "electric_scooter", "name": "6d164703dc41e2b4f9b601cb0b198fec", "is_disabled": 0, "rental_uris": {"ios": "https://dc.lft.to/lastmile_qr_scan", "android": "https://dc.lft.to/lastmile_qr_scan"}, "is_reserved": 0}, {"lon": -77.01432966666667, "bike_id": "d4818caee423cf942186a88367477696", "lat": 38.998005, "fusion_lon": 0.0, "fusion_lat": 0.0, "type": "electric_bike", "name": "d4818caee423cf942186a88367477696", "is_disabled": 0, "rental_uris": {"ios": "https://dc.lft.to/lastmile_qr_scan", "android": "https://dc.lft.to/lastmile_qr_scan"}, "is_reserved": 0}, {"lon": -76.9496225, "bike_id": "fbd395bc68f7871e816a962b6246706d", "lat": 38.904998166666665, "fusion_lon": 0.0, "fusion_lat": 0.0, "type": "electric_scooter", "name": "fbd395bc68f7871e816a962b6246706d", "is_disabled": 0, "rental_uris": {"ios": "https://dc.lft.to/lastmile_qr_scan", "android": "https://dc.lft.to/lastmile_qr_scan"}, "is_reserved": 0}, {"lon": -77.007369, "bike_id": "9bcff158f3237ae1efb9814a5048b40b", "lat": 38.925428, "fusion_lon": 0.0, "fusion_lat": 0.0, "type": "electric_scooter", "name": "9bcff158f3237ae1efb9814a5048b40b", "is_disabled": 0, "rental_uris": {"ios": "https://dc.lft.to/lastmile_qr_scan", "android": "https://dc.lft.to/lastmile_qr_scan"}, "is_reserved": 0}, {"lon": -77.04269933333333, "bike_id": "a308117ab95df55451ebc31fa3316e16", "lat": 38.910421, "fusion_lon": 0.0, "fusion_lat": 0.0, "type": "electric_scooter", "name": "a308117ab95df55451ebc31fa3316e16", "is_disabled": 0, "rental_uris": {"ios": "https://dc.lft.to/lastmile_qr_scan", "android": "https://dc.lft.to/lastmile_qr_scan"}, "is_reserved": 0}, {"lon": -76.95759316666667, "bike_id": "e7bea7f24878b13ac7f476e993454f60", "lat": 38.88433883333333, "fusion_lon": 0.0, "fusion_lat": 0.0, "type": "electric_scooter", "name": "e7bea7f24878b13ac7f476e993454f60", "is_disabled": 0, "rental_uris": {"ios": "https://dc.lft.to/lastmile_qr_scan", "android": "https://dc.lft.to/lastmile_qr_scan"}, "is_reserved": 0}, {"lon": -77.03226666666667, "bike_id": "be1df4055dca0a05d38fc1b20b82f958", "lat": 38.92863966666667, "fusion_lon": 0.0, "fusion_lat": 0.0, "type": "electric_scooter", "name": "be1df4055dca0a05d38fc1b20b82f958", "is_disabled": 0, "rental_uris": {"ios": "https://dc.lft.to/lastmile_qr_scan", "android": "https://dc.lft.to/lastmile_qr_scan"}, "is_reserved": 0}, {"lon": -77.03057483333333, "bike_id": "b1723901665c9afaa546b0b45ab8dc91", "lat": 38.930988666666664, "fusion_lon": 0.0, "fusion_lat": 0.0, "type": "electric_scooter", "name": "b1723901665c9afaa546b0b45ab8dc91", "is_disabled": 0, "rental_uris": {"ios": "https://dc.lft.to/lastmile_qr_scan", "android": "https://dc.lft.to/lastmile_qr_scan"}, "is_reserved": 0}, {"lon": -77.08956533333334, "bike_id": "2bb24e843ee8d923482a305719417d46", "lat": 38.842931666666665, "fusion_lon": 0.0, "fusion_lat": 0.0, "type": "electric_bike", "name": "2bb24e843ee8d923482a305719417d46", "is_disabled": 0, "rental_uris": {"ios": "https://dc.lft.to/lastmile_qr_scan", "android": "https://dc.lft.to/lastmile_qr_scan"}, "is_reserved": 0}, {"lon": -77.0014615, "bike_id": "622dee10e0d1625fe4fcf7e4483d6adc", "lat": 38.90757983333334, "fusion_lon": 0.0, "fusion_lat": 0.0, "type": "electric_scooter", "name": "622dee10e0d1625fe4fcf7e4483d6adc", "is_disabled": 0, "rental_uris": {"ios": "https://dc.lft.to/lastmile_qr_scan", "android": "https://dc.lft.to/lastmile_qr_scan"}, "is_reserved": 0}, {"lon": -77.02226416666667, "bike_id": "aefc3e352369ad64c98509d4d2bf22d1", "lat": 38.9210525, "fusion_lon": 0.0, "fusion_lat": 0.0, "type": "electric_scooter", "name": "aefc3e352369ad64c98509d4d2bf22d1", "is_disabled": 0, "rental_uris": {"ios": "https://dc.lft.to/lastmile_qr_scan", "android": "https://dc.lft.to/lastmile_qr_scan"}, "is_reserved": 0}, {"lon": -77.031227, "bike_id": "bc449b4855ab16ebdb8f030a2afa6866", "lat": 38.91499833333334, "fusion_lon": 0.0, "fusion_lat": 0.0, "type": "electric_scooter", "name": "bc449b4855ab16ebdb8f030a2afa6866", "is_disabled": 0, "rental_uris": {"ios": "https://dc.lft.to/lastmile_qr_scan", "android": "https://dc.lft.to/lastmile_qr_scan"}, "is_reserved": 0}, {"lon": -77.03660583333334, "bike_id": "c9e7d483e1684021705e66f19a0b4f89", "lat": 38.91753533333333, "fusion_lon": 0.0, "fusion_lat": 0.0, "type": "electric_scooter", "name": "c9e7d483e1684021705e66f19a0b4f89", "is_disabled": 0, "rental_uris": {"ios": "https://dc.lft.to/lastmile_qr_scan", "android": "https://dc.lft.to/lastmile_qr_scan"}, "is_reserved": 0}, {"lon": -77.02289966666666, "bike_id": "27d6ae9dcf5436508f09bd68d99e2b01", "lat": 38.91684716666666, "fusion_lon": 0.0, "fusion_lat": 0.0, "type": "electric_scooter", "name": "27d6ae9dcf5436508f09bd68d99e2b01", "is_disabled": 0, "rental_uris": {"ios": "https://dc.lft.to/lastmile_qr_scan", "android": "https://dc.lft.to/lastmile_qr_scan"}, "is_reserved": 0}, {"lon": -77.03284566666666, "bike_id": "90511bf28fb56df355317baaeb731d4f", "lat": 38.934582666666664, "fusion_lon": 0.0, "fusion_lat": 0.0, "type": "electric_scooter", "name": "90511bf28fb56df355317baaeb731d4f", "is_disabled": 0, "rental_uris": {"ios": "https://dc.lft.to/lastmile_qr_scan", "android": "https://dc.lft.to/lastmile_qr_scan"}, "is_reserved": 0}, {"lon": -77.00563633333333, "bike_id": "63ce0ab179af496e7dd0710a87efdb68", "lat": 38.87472116666667, "fusion_lon": 0.0, "fusion_lat": 0.0, "type": "electric_scooter", "name": "63ce0ab179af496e7dd0710a87efdb68", "is_disabled": 0, "rental_uris": {"ios": "https://dc.lft.to/lastmile_qr_scan", "android": "https://dc.lft.to/lastmile_qr_scan"}, "is_reserved": 0}, {"lon": -76.98666916666667, "bike_id": "7c984d9ee3dcff3487382183d7262372", "lat": 38.86730583333333, "fusion_lon": 0.0, "fusion_lat": 0.0, "type": "electric_scooter", "name": "7c984d9ee3dcff3487382183d7262372", "is_disabled": 0, "rental_uris": {"ios": "https://dc.lft.to/lastmile_qr_scan", "android": "https://dc.lft.to/lastmile_qr_scan"}, "is_reserved": 0}, {"lon": -76.99884366666667, "bike_id": "654abb72eb82eca10dee1e949e57aa5f", "lat": 38.9205785, "fusion_lon": 0.0, "fusion_lat": 0.0, "type": "electric_scooter", "name": "654abb72eb82eca10dee1e949e57aa5f", "is_disabled": 0, "rental_uris": {"ios": "https://dc.lft.to/lastmile_qr_scan", "android": "https://dc.lft.to/lastmile_qr_scan"}, "is_reserved": 0}, {"lon": -77.02503566666667, "bike_id": "00af37c22e85d55139e1cd107ccfa5d5", "lat": 38.92595883333333, "fusion_lon": 0.0, "fusion_lat": 0.0, "type": "electric_scooter", "name": "00af37c22e85d55139e1cd107ccfa5d5", "is_disabled": 0, "rental_uris": {"ios": "https://dc.lft.to/lastmile_qr_scan", "android": "https://dc.lft.to/lastmile_qr_scan"}, "is_reserved": 0}, {"lon": -76.9547635, "bike_id": "4e60c7862c11d60046920b365cc03f4d", "lat": 38.886601, "fusion_lon": 0.0, "fusion_lat": 0.0, "type": "electric_scooter", "name": "4e60c7862c11d60046920b365cc03f4d", "is_disabled": 0, "rental_uris": {"ios": "https://dc.lft.to/lastmile_qr_scan", "android": "https://dc.lft.to/lastmile_qr_scan"}, "is_reserved": 0}, {"lon": -77.02706083333334, "bike_id": "cf6adac125fa3880357a67b9d011d38d", "lat": 38.92881233333333, "fusion_lon": 0.0, "fusion_lat": 0.0, "type": "electric_scooter", "name": "cf6adac125fa3880357a67b9d011d38d", "is_disabled": 0, "rental_uris": {"ios": "https://dc.lft.to/lastmile_qr_scan", "android": "https://dc.lft.to/lastmile_qr_scan"}, "is_reserved": 0}, {"lon": -77.04848266666667, "bike_id": "8a8ee7f04c9e9f12ac741fcfe33d5ff8", "lat": 38.88835133333333, "fusion_lon": 0.0, "fusion_lat": 0.0, "type": "electric_scooter", "name": "8a8ee7f04c9e9f12ac741fcfe33d5ff8", "is_disabled": 0, "rental_uris": {"ios": "https://dc.lft.to/lastmile_qr_scan", "android": "https://dc.lft.to/lastmile_qr_scan"}, "is_reserved": 0}, {"lon": -77.01317266666666, "bike_id": "5fdf65f6b97f5cb3422ed336b1654968", "lat": 38.90738666666667, "fusion_lon": 0.0, "fusion_lat": 0.0, "type": "electric_scooter", "name": "5fdf65f6b97f5cb3422ed336b1654968", "is_disabled": 0, "rental_uris": {"ios": "https://dc.lft.to/lastmile_qr_scan", "android": "https://dc.lft.to/lastmile_qr_scan"}, "is_reserved": 0}, {"lon": -77.01153166666667, "bike_id": "a48065cdf3240fbdcdbda145b507433c", "lat": 38.896006166666666, "fusion_lon": 0.0, "fusion_lat": 0.0, "type": "electric_scooter", "name": "a48065cdf3240fbdcdbda145b507433c", "is_disabled": 0, "rental_uris": {"ios": "https://dc.lft.to/lastmile_qr_scan", "android": "https://dc.lft.to/lastmile_qr_scan"}, "is_reserved": 0}, {"lon": -77.03443, "bike_id": "86e3539f5c2c7da77299667b05682e9d", "lat": 38.934348, "fusion_lon": 0.0, "fusion_lat": 0.0, "type": "electric_scooter", "name": "86e3539f5c2c7da77299667b05682e9d", "is_disabled": 0, "rental_uris": {"ios": "https://dc.lft.to/lastmile_qr_scan", "android": "https://dc.lft.to/lastmile_qr_scan"}, "is_reserved": 0}, {"lon": -77.0460175, "bike_id": "c3714ff82c0cfe8cabf4474769c44eea", "lat": 38.90768, "fusion_lon": 0.0, "fusion_lat": 0.0, "type": "electric_scooter", "name": "c3714ff82c0cfe8cabf4474769c44eea", "is_disabled": 0, "rental_uris": {"ios": "https://dc.lft.to/lastmile_qr_scan", "android": "https://dc.lft.to/lastmile_qr_scan"}, "is_reserved": 0}, {"lon": -77.04023433333333, "bike_id": "23da7e206a672bd6534fe287c6faa1c9", "lat": 38.90446933333333, "fusion_lon": 0.0, "fusion_lat": 0.0, "type": "electric_scooter", "name": "23da7e206a672bd6534fe287c6faa1c9", "is_disabled": 0, "rental_uris": {"ios": "https://dc.lft.to/lastmile_qr_scan", "android": "https://dc.lft.to/lastmile_qr_scan"}, "is_reserved": 0}, {"lon": -77.05216983333334, "bike_id": "9cb71de14d3c6a632c9c92a7c7239160", "lat": 38.924794166666665, "fusion_lon": 0.0, "fusion_lat": 0.0, "type": "electric_scooter", "name": "9cb71de14d3c6a632c9c92a7c7239160", "is_disabled": 0, "rental_uris": {"ios": "https://dc.lft.to/lastmile_qr_scan", "android": "https://dc.lft.to/lastmile_qr_scan"}, "is_reserved": 0}, {"lon": -76.9981, "bike_id": "9913f6c1014c487b59c36f4cee59959a", "lat": 38.907567, "fusion_lon": 0.0, "fusion_lat": 0.0, "type": "electric_scooter", "name": "9913f6c1014c487b59c36f4cee59959a", "is_disabled": 0, "rental_uris": {"ios": "https://dc.lft.to/lastmile_qr_scan", "android": "https://dc.lft.to/lastmile_qr_scan"}, "is_reserved": 0}, {"lon": -77.04121733333334, "bike_id": "7622166ddf61cdd85adc73db5a7986d8", "lat": 38.944103, "fusion_lon": 0.0, "fusion_lat": 0.0, "type": "electric_bike", "name": "7622166ddf61cdd85adc73db5a7986d8", "is_disabled": 0, "rental_uris": {"ios": "https://dc.lft.to/lastmile_qr_scan", "android": "https://dc.lft.to/lastmile_qr_scan"}, "is_reserved": 0}, {"lon": -77.02406816666667, "bike_id": "2a55e107fb8df0c1bd2b6d90fa58bafe", "lat": 38.9031825, "fusion_lon": 0.0, "fusion_lat": 0.0, "type": "electric_scooter", "name": "2a55e107fb8df0c1bd2b6d90fa58bafe", "is_disabled": 0, "rental_uris": {"ios": "https://dc.lft.to/lastmile_qr_scan", "android": "https://dc.lft.to/lastmile_qr_scan"}, "is_reserved": 0}, {"lon": -77.0568635, "bike_id": "9f78e03e785ff0fe5524d1bad9a71d0c", "lat": 38.905009166666666, "fusion_lon": 0.0, "fusion_lat": 0.0, "type": "electric_scooter", "name": "9f78e03e785ff0fe5524d1bad9a71d0c", "is_disabled": 0, "rental_uris": {"ios": "https://dc.lft.to/lastmile_qr_scan", "android": "https://dc.lft.to/lastmile_qr_scan"}, "is_reserved": 0}, {"lon": -76.9957805, "bike_id": "7aabc7a5826d946e4888d100eebfa148", "lat": 38.852955, "fusion_lon": 0.0, "fusion_lat": 0.0, "type": "electric_scooter", "name": "7aabc7a5826d946e4888d100eebfa148", "is_disabled": 0, "rental_uris": {"ios": "https://dc.lft.to/lastmile_qr_scan", "android": "https://dc.lft.to/lastmile_qr_scan"}, "is_reserved": 0}, {"lon": -76.99353516666666, "bike_id": "3d381a645bb117cec4062007238e6865", "lat": 38.93713983333333, "fusion_lon": 0.0, "fusion_lat": 0.0, "type": "electric_bike", "name": "3d381a645bb117cec4062007238e6865", "is_disabled": 0, "rental_uris": {"ios": "https://dc.lft.to/lastmile_qr_scan", "android": "https://dc.lft.to/lastmile_qr_scan"}, "is_reserved": 0}, {"lon": -76.98559016666667, "bike_id": "f908b4c9873143de22cc3052d9f1bff3", "lat": 38.910364333333334, "fusion_lon": 0.0, "fusion_lat": 0.0, "type": "electric_scooter", "name": "f908b4c9873143de22cc3052d9f1bff3", "is_disabled": 0, "rental_uris": {"ios": "https://dc.lft.to/lastmile_qr_scan", "android": "https://dc.lft.to/lastmile_qr_scan"}, "is_reserved": 0}, {"lon": -76.92526766666667, "bike_id": "ec195989ce4bbf5a2639423a0af17aa1", "lat": 38.883414, "fusion_lon": 0.0, "fusion_lat": 0.0, "type": "electric_bike", "name": "ec195989ce4bbf5a2639423a0af17aa1", "is_disabled": 0, "rental_uris": {"ios": "https://dc.lft.to/lastmile_qr_scan", "android": "https://dc.lft.to/lastmile_qr_scan"}, "is_reserved": 0}, {"lon": -77.01999616666667, "bike_id": "4aff1c4dba934f21b750653de889b301", "lat": 38.9663065, "fusion_lon": 0.0, "fusion_lat": 0.0, "type": "electric_scooter", "name": "4aff1c4dba934f21b750653de889b301", "is_disabled": 0, "rental_uris": {"ios": "https://dc.lft.to/lastmile_qr_scan", "android": "https://dc.lft.to/lastmile_qr_scan"}, "is_reserved": 0}, {"lon": -77.01666666666667, "bike_id": "73532a3655b13e9e9e16060e6710403e", "lat": 38.87716283333334, "fusion_lon": 0.0, "fusion_lat": 0.0, "type": "electric_scooter", "name": "73532a3655b13e9e9e16060e6710403e", "is_disabled": 0, "rental_uris": {"ios": "https://dc.lft.to/lastmile_qr_scan", "android": "https://dc.lft.to/lastmile_qr_scan"}, "is_reserved": 0}, {"lon": -77.0213575, "bike_id": "92fc63693bb00f22a7de81fffe89fab9", "lat": 38.902038, "fusion_lon": 0.0, "fusion_lat": 0.0, "type": "electric_scooter", "name": "92fc63693bb00f22a7de81fffe89fab9", "is_disabled": 0, "rental_uris": {"ios": "https://dc.lft.to/lastmile_qr_scan", "android": "https://dc.lft.to/lastmile_qr_scan"}, "is_reserved": 0}, {"lon": -77.04862683333333, "bike_id": "2c33de09e630a095465cfbd371b4f7c5", "lat": 38.892238, "fusion_lon": 0.0, "fusion_lat": 0.0, "type": "electric_scooter", "name": "2c33de09e630a095465cfbd371b4f7c5", "is_disabled": 0, "rental_uris": {"ios": "https://dc.lft.to/lastmile_qr_scan", "android": "https://dc.lft.to/lastmile_qr_scan"}, "is_reserved": 0}, {"lon": -77.03626483333333, "bike_id": "70d27d13f1a8e1e9d915712679fc3cac", "lat": 38.91686133333333, "fusion_lon": 0.0, "fusion_lat": 0.0, "type": "electric_scooter", "name": "70d27d13f1a8e1e9d915712679fc3cac", "is_disabled": 0, "rental_uris": {"ios": "https://dc.lft.to/lastmile_qr_scan", "android": "https://dc.lft.to/lastmile_qr_scan"}, "is_reserved": 0}, {"lon": -77.036248, "bike_id": "f1c9807be77051fac07486a465034f5d", "lat": 38.936803833333336, "fusion_lon": 0.0, "fusion_lat": 0.0, "type": "electric_scooter", "name": "f1c9807be77051fac07486a465034f5d", "is_disabled": 0, "rental_uris": {"ios": "https://dc.lft.to/lastmile_qr_scan", "android": "https://dc.lft.to/lastmile_qr_scan"}, "is_reserved": 0},