{"data": {"bikes": [{"name": "41e2af04bab54459160ff0810d2941a7", "is_disabled": 0, "lat": 38.9214995, "rental_uris": {"ios": "https://dc.lft.to/lastmile_qr_scan", "android": "https://dc.lft.to/lastmile_qr_scan"}, "bike_id": "41e2af04bab54459160ff0810d2941a7", "type": "electric_scooter", "lon": -77.04359916666667, "is_reserved": 0, "fusion_lat": 0.0, "fusion_lon": 0.0}, {"name": "95a3281ddd3c61b2f84828571334f199", "is_disabled": 0, "lat": 38.908229166666665, "rental_uris": {"ios": "https://dc.lft.to/lastmile_qr_scan", "android": "https://dc.lft.to/lastmile_qr_scan"}, "bike_id": "95a3281ddd3c61b2f84828571334f199", "type": "electric_scooter", "lon": -77.041699, "is_reserved": 0, "fusion_lat": 0.0, "fusion_lon": 0.0}, {"name": "6afccaebb3974a983f818e6d04998225", "is_disabled": 0, "lat": 38.9076925, "rental_uris": {"ios": "https://dc.lft.to/lastmile_qr_scan", "android": "https://dc.lft.to/lastmile_qr_scan"}, "bike_id": "6afccaebb3974a983f818e6d04998225", "type": "electric_scooter", "lon": -77.035913, "is_reserved": 0, "fusion_lat": 0.0, "fusion_lon": 0.0}, {"name": "c5500e97f1d845155412e50247e1bcc6", "is_disabled": 0, "lat": 38.8767095, "rental_uris": {"ios": "https://dc.lft.to/lastmile_qr_scan", "android": "https://dc.lft.to/lastmile_qr_scan"}, "bike_id": "c5500e97f1d845155412e50247e1bcc6", "type": "electric_scooter", "lon": -77.00323833333333, "is_reserved": 0, "fusion_lat": 0.0, "fusion_lon": 0.0}, {"name": "5d79e2681813388f6dc19be565d242ac", "is_disabled": 0, "lat": 38.898032666666666, "rental_uris": {"ios": "https://dc.lft.to/lastmile_qr_scan", "android": "https://dc.lft.to/lastmile_qr_scan"}, "bike_id": "5d79e2681813388f6dc19be565d242ac", "type": "electric_scooter", "lon": -77.04612466666667, "is_reserved": 0, "fusion_lat": 0.0, "fusion_lon": 0.0}, {"name": "be487f2f3bdbe458d5aed5b63061ed78", "is_disabled": 0, "lat": 38.900102333333336, "rental_uris": {"ios": "https://dc.lft.to/lastmile_qr_scan", "android": "https://dc.lft.to/lastmile_qr_scan"}, "bike_id": "be487f2f3bdbe458d5aed5b63061ed78", "type": "electric_scooter", "lon": -76.99974816666666, "is_reserved": 0, "fusion_lat": 0.0, "fusion_lon": 0.0}, {"name": "cffd129ca8d088031ed50ad2b322d91f", "is_disabled": 0, "lat": 38.906559666666666, "rental_uris": {"ios": "https://dc.lft.to/lastmile_qr_scan", "android": "https://dc.lft.to/lastmile_qr_scan"}, "bike_id": "cffd129ca8d088031ed50ad2b322d91f", "type": "electric_scooter", "lon": -77.0432555, "is_reserved": 0, "fusion_lat": 0.0, "fusion_lon": 0.0}, {"name": "83cc201bb82a26b2101009286cd67386", "is_disabled": 0, "lat": 38.89738633333333, "rental_uris": {"ios": "https://dc.lft.to/lastmile_qr_scan", "android": "https://dc.lft.to/lastmile_qr_scan"}, "bike_id": "83cc201bb82a26b2101009286cd67386", "type": "electric_scooter", "lon": -77.03306583333334, "is_reserved": 0, "fusion_lat": 0.0, "fusion_lon": 0.0}, {"name": "4dae808e5014175cb57c59b59a4b284c", "is_disabled": 0, "lat": 38.9968285, "rental_uris": {"ios": "https://dc.lft.to/lastmile_qr_scan", "android": "https://dc.lft.to/lastmile_qr_scan"}, "bike_id": "4dae808e5014175cb57c59b59a4b284c", "type": "electric_bike", "lon": -77.02545866666667, "is_reserved": 0, "fusion_lat": 0.0, "fusion_lon": 0.0}, {"name": "1b51cf4c99f98bd87093839aa29e9db3", "is_disabled": 0, "lat": 38.8976545, "rental_uris": {"ios": "https://dc.lft.to/lastmile_qr_scan", "android": "https://dc.lft.to/lastmile_qr_scan"}, "bike_id": "1b51cf4c99f98bd87093839aa29e9db3", "type": "electric_scooter", "lon": -77.045008, "is_reserved": 0, "fusion_lat": 0.0, "fusion_lon": 0.0}, {"name": "46141b84779c59a480082067338c3509", "is_disabled": 0, "lat": 38.914828666666665, "rental_uris": {"ios": "https://dc.lft.to/lastmile_qr_scan", "android": "https://dc.lft.to/lastmile_qr_scan"}, "bike_id": "46141b84779c59a480082067338c3509", "type": "electric_scooter", "lon": -77.04260166666667, "is_reserved": 0, "fusion_lat": 0.0, "fusion_lon": 0.0}, {"name": "c6c63fb82cabf3bead86acaeeae7c019", "is_disabled": 0, "lat": 38.928464, "rental_uris": {"ios": "https://dc.lft.to/lastmile_qr_scan", "android": "https://dc.lft.to/lastmile_qr_scan"}, "bike_id": "c6c63fb82cabf3bead86acaeeae7c019", "type": "electric_bike", "lon": -77.02056716666667, "is_reserved": 0, "fusion_lat": 0.0, "fusion_lon": 0.0}, {"name": "9adf953fd62e28d051e050562d4ef1a0", "is_disabled": 0, "lat": 38.90571666666666, "rental_uris": {"ios": "https://dc.lft.to/lastmile_qr_scan", "android": "https://dc.lft.to/lastmile_qr_scan"}, "bike_id": "9adf953fd62e28d051e050562d4ef1a0", "type": "electric_scooter", "lon": -77.00808083333334, "is_reserved": 0, "fusion_lat": 0.0, "fusion_lon": 0.0}, {"name": "51f16a5614de99f4ec5787877935fc80", "is_disabled": 0, "lat": 38.912493, "rental_uris": {"ios": "https://dc.lft.to/lastmile_qr_scan", "android": "https://dc.lft.to/lastmile_qr_scan"}, "bike_id": "51f16a5614de99f4ec5787877935fc80", "type": "electric_scooter", "lon": -77.03656483333333, "is_reserved": 0, "fusion_lat": 0.0, "fusion_lon": 0.0}, {"name": "b15d8459b6580e449107bc7d0bcd7626", "is_disabled": 0, "lat": 38.924285166666664, "rental_uris": {"ios": "https://dc.lft.to/lastmile_qr_scan", "android": "https://dc.lft.to/lastmile_qr_scan"}, "bike_id": "b15d8459b6580e449107bc7d0bcd7626", "type": "electric_scooter", "lon": -77.02709366666667, "is_reserved": 0, "fusion_lat": 0.0, "fusion_lon": 0.0}, {"name": "15b9f0d161fc5bfc2131f2992a66fc67", "is_disabled": 0, "lat": 38.91623716666667, "rental_uris": {"ios": "https://dc.lft.to/lastmile_qr_scan", "android": "https://dc.lft.to/lastmile_qr_scan"}, "bike_id": "15b9f0d161fc5bfc2131f2992a66fc67", "type": "electric_scooter", "lon": -77.03201833333334, "is_reserved": 0, "fusion_lat": 0.0, "fusion_lon": 0.0}, {"name": "8b924af62402a2aed02e6d2f2b108af9", "is_disabled": 0, "lat": 38.904015666666666, "rental_uris": {"ios": "https://dc.lft.to/lastmile_qr_scan", "android": "https://dc.lft.to/lastmile_qr_scan"}, "bike_id": "8b924af62402a2aed02e6d2f2b108af9", "type": "electric_scooter", "lon": -77.068099, "is_reserved": 0, "fusion_lat": 0.0, "fusion_lon": 0.0}, {"name": "72d0e5b110d8a3a87ca609e496e3fdc2", "is_disabled": 0, "lat": 38.92233916666667, "rental_uris": {"ios": "https://dc.lft.to/lastmile_qr_scan", "android": "https://dc.lft.to/lastmile_qr_scan"}, "bike_id": "72d0e5b110d8a3a87ca609e496e3fdc2", "type": "electric_scooter", "lon": -77.04249633333333, "is_reserved": 0, "fusion_lat": 0.0, "fusion_lon": 0.0}, {"name": "fbcc40d6724017a306cf21f305d07285", "is_disabled": 0, "lat": 38.9267735, "rental_uris": {"ios": "https://dc.lft.to/lastmile_qr_scan", "android": "https://dc.lft.to/lastmile_qr_scan"}, "bike_id": "fbcc40d6724017a306cf21f305d07285", "type": "electric_scooter", "lon": -77.01471583333333, "is_reserved": 0, "fusion_lat": 0.0, "fusion_lon": 0.0}, {"name": "d56a888c065cd7753ea7699fbab41aa6", "is_disabled": 0, "lat": 38.812574, "rental_uris": {"ios": "https://dc.lft.to/lastmile_qr_scan", "android": "https://dc.lft.to/lastmile_qr_scan"}, "bike_id": "d56a888c065cd7753ea7699fbab41aa6", "type": "electric_bike", "lon": -77.1177655, "is_reserved": 0, "fusion_lat": 0.0, "fusion_lon": 0.0}, {"name": "4ae634d3079d1765e81b952d8a7ba03b", "is_disabled": 0, "lat": 38.90045533333333, "rental_uris": {"ios": "https://dc.lft.to/lastmile_qr_scan", "android": "https://dc.lft.to/lastmile_qr_scan"}, "bike_id": "4ae634d3079d1765e81b952d8a7ba03b", "type": "electric_scooter", "lon": -76.99149283333334, "is_reserved": 0, "fusion_lat": 0.0, "fusion_lon": 0.0}, {"name": "e53b8586a6ecf46c5020446eb90ef65d", "is_disabled": 0, "lat": 38.892228333333335, "rental_uris": {"ios": "https://dc.lft.to/lastmile_qr_scan", "android": "https://dc.lft.to/lastmile_qr_scan"}, "bike_id": "e53b8586a6ecf46c5020446eb90ef65d", "type": "electric_scooter", "lon": -77.0333685, "is_reserved": 0, "fusion_lat": 0.0, "fusion_lon": 0.0}, {"name": "a48e132a718cf38e9ebb070ac0e3a49c", "is_disabled": 0, "lat": 38.80758933333333, "rental_uris": {"ios": "https://dc.lft.to/lastmile_qr_scan", "android": "https://dc.lft.to/lastmile_qr_scan"}, "bike_id": "a48e132a718cf38e9ebb070ac0e3a49c", "type": "electric_bike", "lon": -77.09466933333333, "is_reserved": 0, "fusion_lat": 0.0, "fusion_lon": 0.0}, {"name": "24344c2dc31c5be3a5fe4a2ea473d7f8", "is_disabled": 0, "lat": 38.89283983333333, "rental_uris": {"ios": "https://dc.lft.to/lastmile_qr_scan", "android": "https://dc.lft.to/lastmile_qr_scan"}, "bike_id": "24344c2dc31c5be3a5fe4a2ea473d7f8", "type": "electric_scooter", "lon": -76.92998066666667, "is_reserved": 0, "fusion_lat": 0.0, "fusion_lon": 0.0}, {"name": "994e4d875710ab5447f68d124eefb67a", "is_disabled": 0, "lat": 38.8737235, "rental_uris": {"ios": "https://dc.lft.to/lastmile_qr_scan", "android": "https://dc.lft.to/lastmile_qr_scan"}, "bike_id": "994e4d875710ab5447f68d124eefb67a", "type": "electric_scooter", "lon": -77.001264, "is_reserved": 0, "fusion_lat": 0.0, "fusion_lon": 0.0}, {"name": "f27bbb3ccd3f20b1f3d91bd1698ea92a", "is_disabled": 0, "lat": 38.90131783333333, "rental_uris": {"ios": "https://dc.lft.to/lastmile_qr_scan", "android": "https://dc.lft.to/lastmile_qr_scan"}, "bike_id": "f27bbb3ccd3f20b1f3d91bd1698ea92a", "type": "electric_scooter", "lon": -77.049877, "is_reserved": 0, "fusion_lat": 0.0, "fusion_lon": 0.0}, {"name": "f59dba3a797d75b0bedfff08b8436455", "is_disabled": 0, "lat": 38.90747266666666, "rental_uris": {"ios": "https://dc.lft.to/lastmile_qr_scan", "android": "https://dc.lft.to/lastmile_qr_scan"}, "bike_id": "f59dba3a797d75b0bedfff08b8436455", "type": "electric_scooter", "lon": -76.935485, "is_reserved": 0, "fusion_lat": 0.0, "fusion_lon": 0.0}, {"name": "43facfb573b939991c524853136b4997", "is_disabled": 0, "lat": 38.90904283333333, "rental_uris": {"ios": "https://dc.lft.to/lastmile_qr_scan", "android": "https://dc.lft.to/lastmile_qr_scan"}, "bike_id": "43facfb573b939991c524853136b4997", "type": "electric_scooter", "lon": -77.03850033333333, "is_reserved": 0, "fusion_lat": 0.0, "fusion_lon": 0.0}, {"name": "d62080763f9b23ca6966bee0a1cc162f", "is_disabled": 0, "lat": 38.899095, "rental_uris": {"ios": "https://dc.lft.to/lastmile_qr_scan", "android": "https://dc.lft.to/lastmile_qr_scan"}, "bike_id": "d62080763f9b23ca6966bee0a1cc162f", "type": "electric_scooter", "lon": -76.99157133333334, "is_reserved": 0, "fusion_lat": 0.0, "fusion_lon": 0.0}, {"name": "c8dd050bff95667f19d52ee7fa37fa36", "is_disabled": 0, "lat": 38.90774183333333, "rental_uris": {"ios": "https://dc.lft.to/lastmile_qr_scan", "android": "https://dc.lft.to/lastmile_qr_scan"}, "bike_id": "c8dd050bff95667f19d52ee7fa37fa36", "type": "electric_scooter", "lon": -77.038614, "is_reserved": 0, "fusion_lat": 0.0, "fusion_lon": 0.0}, {"name": "b2486250026c401fd751c3942299cab8", "is_disabled": 0, "lat": 38.91709783333334, "rental_uris": {"ios": "https://dc.lft.to/lastmile_qr_scan", "android": "https://dc.lft.to/lastmile_qr_scan"}, "bike_id": "b2486250026c401fd751c3942299cab8", "type": "electric_scooter", "lon": -76.97663366666667, "is_reserved": 0, "fusion_lat": 0.0, "fusion_lon": 0.0}, {"name": "b8d7beef769cecb9038d5c909684bf1f", "is_disabled": 0, "lat": 38.919208833333336, "rental_uris": {"ios": "https://dc.lft.to/lastmile_qr_scan", "android": "https://dc.lft.to/lastmile_qr_scan"}, "bike_id": "b8d7beef769cecb9038d5c909684bf1f", "type": "electric_scooter", "lon": -77.0321855, "is_reserved": 0, "fusion_lat": 0.0, "fusion_lon": 0.0}, {"name": "a0bdc068cb5c1550fdef1b02950a4a39", "is_disabled": 0, "lat": 38.89972566666667, "rental_uris": {"ios": "https://dc.lft.to/lastmile_qr_scan", "android": "https://dc.lft.to/lastmile_qr_scan"}, "bike_id": "a0bdc068cb5c1550fdef1b02950a4a39", "type": "electric_scooter", "lon": -77.01629166666666, "is_reserved": 0, "fusion_lat": 0.0, "fusion_lon": 0.0}, {"name": "ccb4c54547dc429433e2e805a920f5b0", "is_disabled": 0, "lat": 38.956062833333334, "rental_uris": {"ios": "https://dc.lft.to/lastmile_qr_scan", "android": "https://dc.lft.to/lastmile_qr_scan"}, "bike_id": "ccb4c54547dc429433e2e805a920f5b0", "type": "electric_scooter", "lon": -77.03354116666667, "is_reserved": 0, "fusion_lat": 0.0, "fusion_lon": 0.0}, {"name": "974e854ccac9d18184cee5dfec6be27d", "is_disabled": 0, "lat": 38.927926166666666, "rental_uris": {"ios": "https://dc.lft.to/lastmile_qr_scan", "android": "https://dc.lft.to/lastmile_qr_scan"}, "bike_id": "974e854ccac9d18184cee5dfec6be27d", "type": "electric_scooter", "lon": -77.02459566666667, "is_reserved": 0, "fusion_lat": 0.0, "fusion_lon": 0.0}, {"name": "faf4731bafab817a26cf7127294d2eff", "is_disabled": 0, "lat": 38.88744483333333, "rental_uris": {"ios": "https://dc.lft.to/lastmile_qr_scan", "android": "https://dc.lft.to/lastmile_qr_scan"}, "bike_id": "faf4731bafab817a26cf7127294d2eff", "type": "electric_scooter", "lon": -77.03078333333333, "is_reserved": 0, "fusion_lat": 0.0, "fusion_lon": 0.0}, {"name": "102ea629c764084e45cc997666b3c44f", "is_disabled": 0, "lat": 38.879701833333336, "rental_uris": {"ios": "https://dc.lft.to/lastmile_qr_scan", "android": "https://dc.lft.to/lastmile_qr_scan"}, "bike_id": "102ea629c764084e45cc997666b3c44f", "type": "electric_bike", "lon": -76.91614483333333, "is_reserved": 0, "fusion_lat": 0.0, "fusion_lon": 0.0}, {"name": "128ee88662d3657c46e7f314815c6867", "is_disabled": 0, "lat": 38.88185, "rental_uris": {"ios": "https://dc.lft.to/lastmile_qr_scan", "android": "https://dc.lft.to/lastmile_qr_scan"}, "bike_id": "128ee88662d3657c46e7f314815c6867", "type": "electric_scooter", "lon": -76.99032533333333, "is_reserved": 0, "fusion_lat": 0.0, "fusion_lon": 0.0}, {"name": "a46fa4eb5d46073f21eb99c38f5672d1", "is_disabled": 0, "lat": 38.90820133333333, "rental_uris": {"ios": "https://dc.lft.to/lastmile_qr_scan", "android": "https://dc.lft.to/lastmile_qr_scan"}, "bike_id": "a46fa4eb5d46073f21eb99c38f5672d1", "type": "electric_scooter", "lon": -77.031744, "is_reserved": 0, "fusion_lat": 0.0, "fusion_lon": 0.0}, {"name": "29778bdeb22b97575cc6437926cce1fa", "is_disabled": 0, "lat": 38.905743333333334, "rental_uris": {"ios": "https://dc.lft.to/lastmile_qr_scan", "android": "https://dc.lft.to/lastmile_qr_scan"}, "bike_id": "29778bdeb22b97575cc6437926cce1fa", "type": "electric_scooter", "lon": -77.00579966666666, "is_reserved": 0, "fusion_lat": 0.0, "fusion_lon": 0.0}, {"name": "cc5f058f31998b4ad5e778b324948590", "is_disabled": 0, "lat": 38.899333, "rental_uris": {"ios": "https://dc.lft.to/lastmile_qr_scan", "android": "https://dc.lft.to/lastmile_qr_scan"}, "bike_id": "cc5f058f31998b4ad5e778b324948590", "type": "electric_scooter", "lon": -77.051256, "is_reserved": 0, "fusion_lat": 0.0, "fusion_lon": 0.0}, {"name": "689d1d598408bff1b521446d768e05a1", "is_disabled": 0, "lat": 38.877666, "rental_uris": {"ios": "https://dc.lft.to/lastmile_qr_scan", "android": "https://dc.lft.to/lastmile_qr_scan"}, "bike_id": "689d1d598408bff1b521446d768e05a1", "type": "electric_scooter", "lon": -77.00353366666667, "is_reserved": 0, "fusion_lat": 0.0, "fusion_lon": 0.0}, {"name": "752f4b1345172324e8c54d89a43faccd", "is_disabled": 0, "lat": 38.90346866666667, "rental_uris": {"ios": "https://dc.lft.to/lastmile_qr_scan", "android": "https://dc.lft.to/lastmile_qr_scan"}, "bike_id": "752f4b1345172324e8c54d89a43faccd", "type": "electric_scooter", "lon": -77.05292383333334, "is_reserved": 0, "fusion_lat": 0.0, "fusion_lon": 0.0}, {"name": "c1ff622cda50760fab0e8186a1b7b99e", "is_disabled": 0, "lat": 38.90007416666667, "rental_uris": {"ios": "https://dc.lft.to/lastmile_qr_scan", "android": "https://dc.lft.to/lastmile_qr_scan"}, "bike_id": "c1ff622cda50760fab0e8186a1b7b99e", "type": "electric_scooter", "lon": -77.046703, "is_reserved": 0, "fusion_lat": 0.0, "fusion_lon": 0.0}, {"name": "ab566f726bcfd9562931b4c447c9db02", "is_disabled": 0, "lat": 38.8958995, "rental_uris": {"ios": "https://dc.lft.to/lastmile_qr_scan", "android": "https://dc.lft.to/lastmile_qr_scan"}, "bike_id": "ab566f726bcfd9562931b4c447c9db02", "type": "electric_scooter", "lon": -77.02177833333333, "is_reserved": 0, "fusion_lat": 0.0, "fusion_lon": 0.0}, {"name": "571d2440a2d5371201e9a5c15a2fab74", "is_disabled": 0, "lat": 38.90554383333333, "rental_uris": {"ios": "https://dc.lft.to/lastmile_qr_scan", "android": "https://dc.lft.to/lastmile_qr_scan"}, "bike_id": "571d2440a2d5371201e9a5c15a2fab74", "type": "electric_scooter", "lon": -77.04651033333333, "is_reserved": 0, "fusion_lat": 0.0, "fusion_lon": 0.0}, {"name": "0a5f65dc819ffe9104bbca683939de42", "is_disabled": 0, "lat": 38.90066183333333, "rental_uris": {"ios": "https://dc.lft.to/lastmile_qr_scan", "android": "https://dc.lft.to/lastmile_qr_scan"}, "bike_id": "0a5f65dc819ffe9104bbca683939de42", "type": "electric_scooter", "lon": -77.02967516666666, "is_reserved": 0, "fusion_lat": 0.0, "fusion_lon": 0.0}, {"name": "dfea9c8fab31bb1946bb12a814780b1d", "is_disabled": 0, "lat": 38.909667666666664, "rental_uris": {"ios": "https://dc.lft.to/lastmile_qr_scan", "android": "https://dc.lft.to/lastmile_qr_scan"}, "bike_id": "dfea9c8fab31bb1946bb12a814780b1d", "type": "electric_scooter", "lon": -77.03347666666667, "is_reserved": 0, "fusion_lat": 0.0, "fusion_lon": 0.0}, {"name": "9210754aeb8ef005b68b8e3ab657051f", "is_disabled": 0, "lat": 38.920786, "rental_uris": {"ios": "https://dc.lft.to/lastmile_qr_scan", "android": "https://dc.lft.to/lastmile_qr_scan"}, "bike_id": "9210754aeb8ef005b68b8e3ab657051f", "type": "electric_bike", "lon": -76.98950033333334, "is_reserved": 0, "fusion_lat": 0.0, "fusion_lon": 0.0}, {"name": "1aad42dc472d4c5b289037a5a44a5861", "is_disabled": 0, "lat": 38.905794666666665, "rental_uris": {"ios": "https://dc.lft.to/lastmile_qr_scan", "android": "https://dc.lft.to/lastmile_qr_scan"}, "bike_id": "1aad42dc472d4c5b289037a5a44a5861", "type": "electric_scooter", "lon": -77.04601766666667, "is_reserved": 0, "fusion_lat": 0.0, "fusion_lon": 0.0}, {"name": "0812be942ceec1e0431233bf31ad0624", "is_disabled": 0, "lat": 38.88739616666667, "rental_uris": {"ios": "https://dc.lft.to/lastmile_qr_scan", "android": "https://dc.lft.to/lastmile_qr_scan"}, "bike_id": "0812be942ceec1e0431233bf31ad0624", "type": "electric_scooter", "lon": -77.00323716666666, "is_reserved": 0, "fusion_lat": 0.0, "fusion_lon": 0.0}, {"name": "a0f5b1ace79e255be26a58224aa20aab", "is_disabled": 0, "lat": 38.900273166666665, "rental_uris": {"ios": "https://dc.lft.to/lastmile_qr_scan", "android": "https://dc.lft.to/lastmile_qr_scan"}, "bike_id": "a0f5b1ace79e255be26a58224aa20aab", "type": "electric_scooter", "lon": -77.01192416666666, "is_reserved": 0, "fusion_lat": 0.0, "fusion_lon": 0.0}, {"name": "7488201bd9584a20b119138f16075f0a", "is_disabled": 0, "lat": 38.90972433333334, "rental_uris": {"ios": "https://dc.lft.to/lastmile_qr_scan", "android": "https://dc.lft.to/lastmile_qr_scan"}, "bike_id": "7488201bd9584a20b119138f16075f0a", "type": "electric_scooter", "lon": -77.026821, "is_reserved": 0, "fusion_lat": 0.0, "fusion_lon": 0.0}, {"name": "f2c44feaf75ee72c4888dd4561a94ff7", "is_disabled": 0, "lat": 38.88540066666667, "rental_uris": {"ios": "https://dc.lft.to/lastmile_qr_scan", "android": "https://dc.lft.to/lastmile_qr_scan"}, "bike_id": "f2c44feaf75ee72c4888dd4561a94ff7", "type": "electric_scooter", "lon": -76.97888, "is_reserved": 0, "fusion_lat": 0.0, "fusion_lon": 0.0}, {"name": "d8476e24c852bc7da27ee93afc4abcf4", "is_disabled": 0, "lat": 38.887468, "rental_uris": {"ios": "https://dc.lft.to/lastmile_qr_scan", "android": "https://dc.lft.to/lastmile_qr_scan"}, "bike_id": "d8476e24c852bc7da27ee93afc4abcf4", "type": "electric_scooter", "lon": -77.01783316666666, "is_reserved": 0, "fusion_lat": 0.0, "fusion_lon": 0.0}, {"name": "8cad0e523e977cf194037530d5662bb4", "is_disabled": 0, "lat": 38.903046333333336, "rental_uris": {"ios": "https://dc.lft.to/lastmile_qr_scan", "android": "https://dc.lft.to/lastmile_qr_scan"}, "bike_id": "8cad0e523e977cf194037530d5662bb4", "type": "electric_scooter", "lon": -77.00580183333334, "is_reserved": 0, "fusion_lat": 0.0, "fusion_lon": 0.0}, {"name": "b4b62b24c460c475118ed3baf4e22bec", "is_disabled": 0, "lat": 38.86046116666667, "rental_uris": {"ios": "https://dc.lft.to/lastmile_qr_scan", "android": "https://dc.lft.to/lastmile_qr_scan"}, "bike_id": "b4b62b24c460c475118ed3baf4e22bec", "type": "electric_scooter", "lon": -77.00348233333334, "is_reserved": 0, "fusion_lat": 0.0, "fusion_lon": 0.0}, {"name": "ccae158455b6bf27166f75fd39040c1d", "is_disabled": 0, "lat": 38.93771566666667, "rental_uris": {"ios": "https://dc.lft.to/lastmile_qr_scan", "android": "https://dc.lft.to/lastmile_qr_scan"}, "bike_id": "ccae158455b6bf27166f75fd39040c1d", "type": "electric_scooter", "lon": -77.03264183333333, "is_reserved": 0, "fusion_lat": 0.0, "fusion_lon": 0.0}, {"name": "6c6622b25b67b844ad8a47c55aeccdba", "is_disabled": 0, "lat": 38.92093, "rental_uris": {"ios": "https://dc.lft.to/lastmile_qr_scan", "android": "https://dc.lft.to/lastmile_qr_scan"}, "bike_id": "6c6622b25b67b844ad8a47c55aeccdba", "type": "electric_scooter", "lon": -77.02517916666666, "is_reserved": 0, "fusion_lat": 0.0, "fusion_lon": 0.0}, {"name": "4ad40e4323aa1faae5ea379dc164aeb8", "is_disabled": 0, "lat": 38.91550183333333, "rental_uris": {"ios": "https://dc.lft.to/lastmile_qr_scan", "android": "https://dc.lft.to/lastmile_qr_scan"}, "bike_id": "4ad40e4323aa1faae5ea379dc164aeb8", "type": "electric_scooter", "lon": -77.03856033333334, "is_reserved": 0, "fusion_lat": 0.0, "fusion_lon": 0.0}, {"name": "3ce381abb2f5714bc03f59bb244e5057", "is_disabled": 0, "lat": 38.915662833333336, "rental_uris": {"ios": "https://dc.lft.to/lastmile_qr_scan", "android": "https://dc.lft.to/lastmile_qr_scan"}, "bike_id": "3ce381abb2f5714bc03f59bb244e5057", "type": "electric_scooter", "lon": -77.01055583333333, "is_reserved": 0, "fusion_lat": 0.0, "fusion_lon": 0.0}, {"name": "4a493e676a1f63929c52e85321a56724", "is_disabled": 0, "lat": 38.919986, "rental_uris": {"ios": "https://dc.lft.to/lastmile_qr_scan", "android": "https://dc.lft.to/lastmile_qr_scan"}, "bike_id": "4a493e676a1f63929c52e85321a56724", "type": "electric_scooter", "lon": -77.03275016666667, "is_reserved": 0, "fusion_lat": 0.0, "fusion_lon": 0.0}, {"name": "2232a423dbcc5d4d7bc4a7f5c0cca894", "is_disabled": 0, "lat": 38.92681966666667, "rental_uris": {"ios": "https://dc.lft.to/lastmile_qr_scan", "android": "https://dc.lft.to/lastmile_qr_scan"}, "bike_id": "2232a423dbcc5d4d7bc4a7f5c0cca894", "type": "electric_scooter", "lon": -77.0299145, "is_reserved": 0, "fusion_lat": 0.0, "fusion_lon": 0.0}, {"name": "2db9cbf7ce5b1efb89cbc5bf6cbbffb9", "is_disabled": 0, "lat": 38.9985275, "rental_uris": {"ios": "https://dc.lft.to/lastmile_qr_scan", "android": "https://dc.lft.to/lastmile_qr_scan"}, "bike_id": "2db9cbf7ce5b1efb89cbc5bf6cbbffb9", "type": "electric_bike", "lon": -77.02679066666667, "is_reserved": 0, "fusion_lat": 0.0, "fusion_lon": 0.0}, {"name": "e54c5f7e9496e2ea749d103d995e2232", "is_disabled": 0, "lat": 38.90778783333333, "rental_uris": {"ios": "https://dc.lft.to/lastmile_qr_scan", "android": "https://dc.lft.to/lastmile_qr_scan"}, "bike_id": "e54c5f7e9496e2ea749d103d995e2232", "type": "electric_scooter", "lon": -77.03197766666666, "is_reserved": 0, "fusion_lat": 0.0, "fusion_lon": 0.0}, {"name": "cc43591dddb8c233464f23ea8d110450", "is_disabled": 0, "lat": 38.907429666666665, "rental_uris": {"ios": "https://dc.lft.to/lastmile_qr_scan", "android": "https://dc.lft.to/lastmile_qr_scan"}, "bike_id": "cc43591dddb8c233464f23ea8d110450", "type": "electric_scooter", "lon": -77.043478, "is_reserved": 0, "fusion_lat": 0.0, "fusion_lon": 0.0}, {"name": "3fedf2c9fc7e63d81f49b814c3544511", "is_disabled": 0, "lat": 38.910453333333336, "rental_uris": {"ios": "https://dc.lft.to/lastmile_qr_scan", "android": "https://dc.lft.to/lastmile_qr_scan"}, "bike_id": "3fedf2c9fc7e63d81f49b814c3544511", "type": "electric_scooter", "lon": -77.041468, "is_reserved": 0, "fusion_lat": 0.0, "fusion_lon": 0.0}, {"name": "cccf54796b48fe0c01ac11141db3e532", "is_disabled": 0, "lat": 38.89641016666667, "rental_uris": {"ios": "https://dc.lft.to/lastmile_qr_scan", "android": "https://dc.lft.to/lastmile_qr_scan"}, "bike_id": "cccf54796b48fe0c01ac11141db3e532", "type": "electric_scooter", "lon": -77.02587283333334, "is_reserved": 0, "fusion_lat": 0.0, "fusion_lon": 0.0}, {"name": "e28f61522678e9f6a0092055bbf861b2", "is_disabled": 0, "lat": 38.9038815, "rental_uris": {"ios": "https://dc.lft.to/lastmile_qr_scan", "android": "https://dc.lft.to/lastmile_qr_scan"}, "bike_id": "e28f61522678e9f6a0092055bbf861b2", "type": "electric_scooter", "lon": -77.04315183333334, "is_reserved": 0, "fusion_lat": 0.0, "fusion_lon": 0.0}, {"name": "6147db36a13419400512ae7fb2187424", "is_disabled": 0, "lat": 38.923787, "rental_uris": {"ios": "https://dc.lft.to/lastmile_qr_scan", "android": "https://dc.lft.to/lastmile_qr_scan"}, "bike_id": "6147db36a13419400512ae7fb2187424", "type": "electric_scooter", "lon": -77.03546966666667, "is_reserved": 0, "fusion_lat": 0.0, "fusion_lon": 0.0}, {"name": "d1c4fcbb41b9e38feef6acd8233a3b53", "is_disabled": 0, "lat": 38.8774845, "rental_uris": {"ios": "https://dc.lft.to/lastmile_qr_scan", "android": "https://dc.lft.to/lastmile_qr_scan"}, "bike_id": "d1c4fcbb41b9e38feef6acd8233a3b53", "type": "electric_scooter", "lon": -77.00593566666667, "is_reserved": 0, "fusion_lat": 0.0, "fusion_lon": 0.0}, {"name": "1bc3b419b48dec056cc4bb5cb6bebe09", "is_disabled": 0, "lat": 38.9215475, "rental_uris": {"ios": "https://dc.lft.to/lastmile_qr_scan", "android": "https://dc.lft.to/lastmile_qr_scan"}, "bike_id": "1bc3b419b48dec056cc4bb5cb6bebe09", "type": "electric_scooter", "lon": -76.99353983333333, "is_reserved": 0, "fusion_lat": 0.0, "fusion_lon": 0.0}, {"name": "a504773f0858d604736f5e9dd1490d4c", "is_disabled": 0, "lat": 38.889277666666665, "rental_uris": {"ios": "https://dc.lft.to/lastmile_qr_scan", "android": "https://dc.lft.to/lastmile_qr_scan"}, "bike_id": "a504773f0858d604736f5e9dd1490d4c", "type": "electric_bike", "lon": -76.99170583333333, "is_reserved": 0, "fusion_lat": 0.0, "fusion_lon": 0.0}, {"name": "3361d733940a462d6650130d86108a4d", "is_disabled": 0, "lat": 38.898325, "rental_uris": {"ios": "https://dc.lft.to/lastmile_qr_scan", "android": "https://dc.lft.to/lastmile_qr_scan"}, "bike_id": "3361d733940a462d6650130d86108a4d", "type": "electric_scooter", "lon": -76.94634083333334, "is_reserved": 0, "fusion_lat": 0.0, "fusion_lon": 0.0}, {"name": "e30dba1f892dba437b28354b29ab4e78", "is_disabled": 0, "lat": 38.922541833333334, "rental_uris": {"ios": "https://dc.lft.to/lastmile_qr_scan", "android": "https://dc.lft.to/lastmile_qr_scan"}, "bike_id": "e30dba1f892dba437b28354b29ab4e78", "type": "electric_scooter", "lon": -77.01949933333333, "is_reserved": 0, "fusion_lat": 0.0, "fusion_lon": 0.0}, {"name": "1728fbba00f2393edd9c09132b26dd9f", "is_disabled": 0, "lat": 38.9006635, "rental_uris": {"ios": "https://dc.lft.to/lastmile_qr_scan", "android": "https://dc.lft.to/lastmile_qr_scan"}, "bike_id": "1728fbba00f2393edd9c09132b26dd9f", "type": "electric_scooter", "lon": -76.93390616666667, "is_reserved": 0, "fusion_lat": 0.0, "fusion_lon": 0.0}, {"name": "d912bbc4990ea308a71f051ea603832c", "is_disabled": 0, "lat": 38.901878833333335, "rental_uris": {"ios": "https://dc.lft.to/lastmile_qr_scan", "android": "https://dc.lft.to/lastmile_qr_scan"}, "bike_id": "d912bbc4990ea308a71f051ea603832c", "type": "electric_scooter", "lon": -77.02499316666666, "is_reserved": 0, "fusion_lat": 0.0, "fusion_lon": 0.0}, {"name": "63ebdb8debbc77107b2cd006bad8e4ed", "is_disabled": 0, "lat": 38.8973525, "rental_uris": {"ios": "https://dc.lft.to/lastmile_qr_scan", "android": "https://dc.lft.to/lastmile_qr_scan"}, "bike_id": "63ebdb8debbc77107b2cd006bad8e4ed", "type": "electric_scooter", "lon": -77.0273285, "is_reserved": 0, "fusion_lat": 0.0, "fusion_lon": 0.0}, {"name": "c0cffdd627e9d74bf13bdaf54497fde3", "is_disabled": 0, "lat": 38.919224, "rental_uris": {"ios": "https://dc.lft.to/lastmile_qr_scan", "android": "https://dc.lft.to/lastmile_qr_scan"}, "bike_id": "c0cffdd627e9d74bf13bdaf54497fde3", "type": "electric_scooter", "lon": -77.034252, "is_reserved": 0, "fusion_lat": 0.0, "fusion_lon": 0.0}, {"name": "e6488423da1912f5d7b6867f11733b19", "is_disabled": 0, "lat": 38.90498316666667, "rental_uris": {"ios": "https://dc.lft.to/lastmile_qr_scan", "android": "https://dc.lft.to/lastmile_qr_scan"}, "bike_id": "e6488423da1912f5d7b6867f11733b19", "type": "electric_scooter", "lon": -77.04819266666667, "is_reserved": 0, "fusion_lat": 0.0, "fusion_lon": 0.0}, {"name": "c1779f05e965bb762e5c504d6612ccce", "is_disabled": 0, "lat": 38.902213833333334, "rental_uris": {"ios": "https://dc.lft.to/lastmile_qr_scan", "android": "https://dc.lft.to/lastmile_qr_scan"}, "bike_id": "c1779f05e965bb762e5c504d6612ccce", "type": "electric_scooter", "lon": -77.01612383333334, "is_reserved": 0, "fusion_lat": 0.0, "fusion_lon": 0.0}, {"name": "a51f33d3502e089916ce68a51c8a4756", "is_disabled": 0, "lat": 38.876617, "rental_uris": {"ios": "https://dc.lft.to/lastmile_qr_scan", "android": "https://dc.lft.to/lastmile_qr_scan"}, "bike_id": "a51f33d3502e089916ce68a51c8a4756", "type": "electric_scooter", "lon": -77.00078933333333, "is_reserved": 0, "fusion_lat": 0.0, "fusion_lon": 0.0}, {"name": "9e47931e58783cffbad9d689f9ed85a7", "is_disabled": 0, "lat": 38.903897, "rental_uris": {"ios": "https://dc.lft.to/lastmile_qr_scan", "android": "https://dc.lft.to/lastmile_qr_scan"}, "bike_id": "9e47931e58783cffbad9d689f9ed85a7", "type": "electric_scooter", "lon": -77.03187366666667, "is_reserved": 0, "fusion_lat": 0.0, "fusion_lon": 0.0}, {"name": "3fa1651e1f41c3f927e2ba7ee9d92c9b", "is_disabled": 0, "lat": 38.9072025, "rental_uris": {"ios": "https://dc.lft.to/lastmile_qr_scan", "android": "https://dc.lft.to/lastmile_qr_scan"}, "bike_id": "3fa1651e1f41c3f927e2ba7ee9d92c9b", "type": "electric_scooter", "lon": -77.04076766666667, "is_reserved": 0, "fusion_lat": 0.0, "fusion_lon": 0.0}, {"name": "3d67a861aca105bc3661462aa1d984cb", "is_disabled": 0, "lat": 38.91745016666667, "rental_uris": {"ios": "https://dc.lft.to/lastmile_qr_scan", "android": "https://dc.lft.to/lastmile_qr_scan"}, "bike_id": "3d67a861aca105bc3661462aa1d984cb", "type": "electric_scooter", "lon": -77.03472933333333, "is_reserved": 0, "fusion_lat": 0.0, "fusion_lon": 0.0}, {"name": "aa6e16ecaed329ffe8911c849f8fa916", "is_disabled": 0, "lat": 38.91637733333334, "rental_uris": {"ios": "https://dc.lft.to/lastmile_qr_scan", "android": "https://dc.lft.to/lastmile_qr_scan"}, "bike_id": "aa6e16ecaed329ffe8911c849f8fa916", "type": "electric_scooter", "lon": -77.0507115, "is_reserved": 0, "fusion_lat": 0.0, "fusion_lon": 0.0}, {"name": "8e2b7f9d993717fa8940a453ce2a58f1", "is_disabled": 0, "lat": 38.900059666666664, "rental_uris": {"ios": "https://dc.lft.to/lastmile_qr_scan", "android": "https://dc.lft.to/lastmile_qr_scan"}, "bike_id": "8e2b7f9d993717fa8940a453ce2a58f1", "type": "electric_scooter", "lon": -77.02707916666667, "is_reserved": 0, "fusion_lat": 0.0, "fusion_lon": 0.0}, {"name": "fb9a601952d1a778f3588ea56b5ffdb6", "is_disabled": 0, "lat": 38.902536, "rental_uris": {"ios": "https://dc.lft.to/lastmile_qr_scan", "android": "https://dc.lft.to/lastmile_qr_scan"}, "bike_id": "fb9a601952d1a778f3588ea56b5ffdb6", "type": "electric_scooter", "lon": -77.01098483333334, "is_reserved": 0, "fusion_lat": 0.0, "fusion_lon": 0.0}, {"name": "810abdcbf5905d980fb55f27f3ada94e", "is_disabled": 0, "lat": 38.88746533333333, "rental_uris": {"ios": "https://dc.lft.to/lastmile_qr_scan", "android": "https://dc.lft.to/lastmile_qr_scan"}, "bike_id": "810abdcbf5905d980fb55f27f3ada94e", "type": "electric_scooter", "lon": -77.02775716666666, "is_reserved": 0, "fusion_lat": 0.0, "fusion_lon": 0.0}, {"name": "2cc9f30de06f1c84ec9e091e50263d44", "is_disabled": 0, "lat": 38.93454533333333, "rental_uris": {"ios": "https://dc.lft.to/lastmile_qr_scan", "android": "https://dc.lft.to/lastmile_qr_scan"}, "bike_id": "2cc9f30de06f1c84ec9e091e50263d44", "type": "electric_scooter", "lon": -77.0327715, "is_reserved": 0, "fusion_lat": 0.0, "fusion_lon": 0.0}, {"name": "97f8d384805b471717e9f1b60ba58d92", "is_disabled": 0, "lat": 38.918098, "rental_uris": {"ios": "https://dc.lft.to/lastmile_qr_scan", "android": "https://dc.lft.to/lastmile_qr_scan"}, "bike_id": "97f8d384805b471717e9f1b60ba58d92", "type": "electric_scooter", "lon": -77.03176433333333, "is_reserved": 0, "fusion_lat": 0.0, "fusion_lon": 0.0}, {"name": "772e6af59b46fc9004d1161e6c2d30ad", "is_disabled": 0, "lat": 38.9287735, "rental_uris": {"ios": "https://dc.lft.to/lastmile_qr_scan", "android": "https://dc.lft.to/lastmile_qr_scan"}, "bike_id": "772e6af59b46fc9004d1161e6c2d30ad", "type": "electric_scooter", "lon": -77.0138075, "is_reserved": 0, "fusion_lat": 0.0, "fusion_lon": 0.0}, {"name": "73034807891add1f697cf87ead51a9a7", "is_disabled": 0, "lat": 38.920377333333334, "rental_uris": {"ios": "https://dc.lft.to/lastmile_qr_scan", "android": "https://dc.lft.to/lastmile_qr_scan"}, "bike_id": "73034807891add1f697cf87ead51a9a7", "type": "electric_scooter", "lon": -77.08198083333333, "is_reserved": 0, "fusion_lat": 0.0, "fusion_lon": 0.0}, {"name": "adea016c3332bc3c06c0685fa9283449", "is_disabled": 0, "lat": 38.93424866666667, "rental_uris": {"ios": "https://dc.lft.to/lastmile_qr_scan", "android": "https://dc.lft.to/lastmile_qr_scan"}, "bike_id": "adea016c3332bc3c06c0685fa9283449", "type": "electric_scooter", "lon": -77.042798, "is_reserved": 0, "fusion_lat": 0.0, "fusion_lon": 0.0}, {"name": "74106e69cc6bb019f545d8b232874209", "is_disabled": 0, "lat": 38.89722666666667, "rental_uris": {"ios": "https://dc.lft.to/lastmile_qr_scan", "android": "https://dc.lft.to/lastmile_qr_scan"}, "bike_id": "74106e69cc6bb019f545d8b232874209", "type": "electric_scooter", "lon": -77.0273935, "is_reserved": 0, "fusion_lat": 0.0, "fusion_lon": 0.0}, {"name": "d901e701be2ee669544c2474e8031969", "is_disabled": 0, "lat": 38.9212735, "rental_uris": {"ios": "https://dc.lft.to/lastmile_qr_scan", "android": "https://dc.lft.to/lastmile_qr_scan"}, "bike_id": "d901e701be2ee669544c2474e8031969", "type": "electric_scooter", "lon": -77.04586233333333, "is_reserved": 0, "fusion_lat": 0.0, "fusion_lon": 0.0}, {"name": "00210931931d9dce986f611cc5b40f68", "is_disabled": 0, "lat": 38.90979216666667, "rental_uris": {"ios": "https://dc.lft.to/lastmile_qr_scan", "android": "https://dc.lft.to/lastmile_qr_scan"}, "bike_id": "00210931931d9dce986f611cc5b40f68", "type": "electric_scooter", "lon": -77.03440466666666, "is_reserved": 0, "fusion_lat": 0.0, "fusion_lon": 0.0}, {"name": "ce638ab9f16833ad4707dbf2c5896078", "is_disabled": 0, "lat": 38.899786166666665, "rental_uris": {"ios": "https://dc.lft.to/lastmile_qr_scan", "android": "https://dc.lft.to/lastmile_qr_scan"}, "bike_id": "ce638ab9f16833ad4707dbf2c5896078", "type": "electric_scooter", "lon": -77.02455233333333, "is_reserved": 0, "fusion_lat": 0.0, "fusion_lon": 0.0}, {"name": "b359ce138f5fe3bb1d9c1966835a4ff5", "is_disabled": 0, "lat": 38.873846, "rental_uris": {"ios": "https://dc.lft.to/lastmile_qr_scan", "android": "https://dc.lft.to/lastmile_qr_scan"}, "bike_id": "b359ce138f5fe3bb1d9c1966835a4ff5", "type": "electric_scooter", "lon": -77.00038816666667, "is_reserved": 0, "fusion_lat": 0.0, "fusion_lon": 0.0}, {"name": "a57cab9c4f9b6b9b2d96938be9641a6d", "is_disabled": 0, "lat": 38.91263283333333, "rental_uris": {"ios": "https://dc.lft.to/lastmile_qr_scan", "android": "https://dc.lft.to/lastmile_qr_scan"}, "bike_id": "a57cab9c4f9b6b9b2d96938be9641a6d", "type": "electric_scooter", "lon": -77.03589083333334, "is_reserved": 0, "fusion_lat": 0.0, "fusion_lon": 0.0}, {"name": "4c72417e43614422c049307fc035ceb8", "is_disabled": 0, "lat": 38.87085716666667, "rental_uris": {"ios": "https://dc.lft.to/lastmile_qr_scan", "android": "https://dc.lft.to/lastmile_qr_scan"}, "bike_id": "4c72417e43614422c049307fc035ceb8", "type": "electric_scooter", "lon": -76.965683, "is_reserved": 0, "fusion_lat": 0.0, "fusion_lon": 0.0}, {"name": "33fbefa2b32f119c1df70a934f6b2137", "is_disabled": 0, "lat": 38.920615833333336, "rental_uris": {"ios": "https://dc.lft.to/lastmile_qr_scan", "android": "https://dc.lft.to/lastmile_qr_scan"}, "bike_id": "33fbefa2b32f119c1df70a934f6b2137", "type": "electric_scooter", "lon": -77.03392816666667, "is_reserved": 0, "fusion_lat": 0.0, "fusion_lon": 0.0}, {"name": "d65ff53de6dc45d275dc05a163715c86", "is_disabled": 0, "lat": 38.94187183333333, "rental_uris": {"ios": "https://dc.lft.to/lastmile_qr_scan", "android": "https://dc.lft.to/lastmile_qr_scan"}, "bike_id": "d65ff53de6dc45d275dc05a163715c86", "type": "electric_scooter", "lon": -77.02489733333333, "is_reserved": 0, "fusion_lat": 0.0, "fusion_lon": 0.0}, {"name": "7985fff5521f8b0c45f04a8a229a4a26", "is_disabled": 0, "lat": 38.930587833333334, "rental_uris": {"ios": "https://dc.lft.to/lastmile_qr_scan", "android": "https://dc.lft.to/lastmile_qr_scan"}, "bike_id": "7985fff5521f8b0c45f04a8a229a4a26", "type": "electric_scooter", "lon": -77.03212383333333, "is_reserved": 0, "fusion_lat": 0.0, "fusion_lon": 0.0}, {"name": "6b359b70b3668e46e449187e7e5af4ab", "is_disabled": 0, "lat": 38.91916116666667, "rental_uris": {"ios": "https://dc.lft.to/lastmile_qr_scan", "android": "https://dc.lft.to/lastmile_qr_scan"}, "bike_id": "6b359b70b3668e46e449187e7e5af4ab", "type": "electric_scooter", "lon": -77.0309445, "is_reserved": 0, "fusion_lat": 0.0, "fusion_lon": 0.0}, {"name": "c1225134687abc909a08b3069235e341", "is_disabled": 0, "lat": 38.902616, "rental_uris": {"ios": "https://dc.lft.to/lastmile_qr_scan", "android": "https://dc.lft.to/lastmile_qr_scan"}, "bike_id": "c1225134687abc909a08b3069235e341", "type": "electric_scooter", "lon": -77.03894833333334, "is_reserved": 0, "fusion_lat": 0.0, "fusion_lon": 0.0}, {"name": "65af7a393a4699b8b8d73d704daf4788", "is_disabled": 0, "lat": 38.907030166666665, "rental_uris": {"ios": "https://dc.lft.to/lastmile_qr_scan", "android": "https://dc.lft.to/lastmile_qr_scan"}, "bike_id": "65af7a393a4699b8b8d73d704daf4788", "type": "electric_scooter", "lon": -77.04198933333333, "is_reserved": 0, "fusion_lat": 0.0, "fusion_lon": 0.0}, {"name": "0f1c3e510a898c03b3e835e3b1de90dd", "is_disabled": 0, "lat": 38.8783305, "rental_uris": {"ios": "https://dc.lft.to/lastmile_qr_scan", "android": "https://dc.lft.to/lastmile_qr_scan"}, "bike_id": "0f1c3e510a898c03b3e835e3b1de90dd", "type": "electric_scooter", "lon": -76.96321533333334, "is_reserved": 0, "fusion_lat": 0.0, "fusion_lon": 0.0}, {"name": "6e0a65778d3bf9d0dd8ff1945b91dbc3", "is_disabled": 0, "lat": 38.940900166666665, "rental_uris": {"ios": "https://dc.lft.to/lastmile_qr_scan", "android": "https://dc.lft.to/lastmile_qr_scan"}, "bike_id": "6e0a65778d3bf9d0dd8ff1945b91dbc3", "type": "electric_scooter", "lon": -77.0263905, "is_reserved": 0, "fusion_lat": 0.0, "fusion_lon": 0.0}, {"name": "181794628dda444daa5fa3c46b1deaa1", "is_disabled": 0, "lat": 38.81862816666667, "rental_uris": {"ios": "https://dc.lft.to/lastmile_qr_scan", "android": "https://dc.lft.to/lastmile_qr_scan"}, "bike_id": "181794628dda444daa5fa3c46b1deaa1", "type": "electric_bike", "lon": -77.12707033333334, "is_reserved": 0, "fusion_lat": 0.0, "fusion_lon": 0.0}, {"name": "caa5efeec7e6790b1c61aa0f8e70bb19", "is_disabled": 0, "lat": 38.907446666666665, "rental_uris": {"ios": "https://dc.lft.to/lastmile_qr_scan", "android": "https://dc.lft.to/lastmile_qr_scan"}, "bike_id": "caa5efeec7e6790b1c61aa0f8e70bb19", "type": "electric_scooter", "lon": -77.02404666666666, "is_reserved": 0, "fusion_lat": 0.0, "fusion_lon": 0.0}, {"name": "55ac67e42366801f6c14e1905b182c7f", "is_disabled": 0, "lat": 38.9244595, "rental_uris": {"ios": "https://dc.lft.to/lastmile_qr_scan", "android": "https://dc.lft.to/lastmile_qr_scan"}, "bike_id": "55ac67e42366801f6c14e1905b182c7f", "type": "electric_scooter", "lon": -77.022607, "is_reserved": 0, "fusion_lat": 0.0, "fusion_lon": 0.0}, {"name": "cd61a0d4b539b75f18b31d0a61fc43fb", "is_disabled": 0, "lat": 38.91719616666666, "rental_uris": {"ios": "https://dc.lft.to/lastmile_qr_scan", "android": "https://dc.lft.to/lastmile_qr_scan"}, "bike_id": "cd61a0d4b539b75f18b31d0a61fc43fb", "type": "electric_scooter", "lon": -77.02407233333334, "is_reserved": 0, "fusion_lat": 0.0, "fusion_lon": 0.0}, {"name": "033ae0fc77bdec4f5b24308d92b790e1", "is_disabled": 0, "lat": 38.90824583333333, "rental_uris": {"ios": "https://dc.lft.to/lastmile_qr_scan", "android": "https://dc.lft.to/lastmile_qr_scan"}, "bike_id": "033ae0fc77bdec4f5b24308d92b790e1", "type": "electric_scooter", "lon": -77.04172366666667, "is_reserved": 0, "fusion_lat": 0.0, "fusion_lon": 0.0}, {"name": "eb7b0b6ed3e37a682a31332b342b7363", "is_disabled": 0, "lat": 38.932368, "rental_uris": {"ios": "https://dc.lft.to/lastmile_qr_scan", "android": "https://dc.lft.to/lastmile_qr_scan"}, "bike_id": "eb7b0b6ed3e37a682a31332b342b7363", "type": "electric_scooter", "lon": -77.03265066666667, "is_reserved": 0, "fusion_lat": 0.0, "fusion_lon": 0.0}, {"name": "09cdc8ac1da36797cde1ede72a42667b", "is_disabled": 0, "lat": 38.92152133333333, "rental_uris": {"ios": "https://dc.lft.to/lastmile_qr_scan", "android": "https://dc.lft.to/lastmile_qr_scan"}, "bike_id": "09cdc8ac1da36797cde1ede72a42667b", "type": "electric_scooter", "lon": -77.01925716666666, "is_reserved": 0, "fusion_lat": 0.0, "fusion_lon": 0.0}, {"name": "1c8420afe7912545d1d9fbb15742fba9", "is_disabled": 0, "lat": 38.929381, "rental_uris": {"ios": "https://dc.lft.to/lastmile_qr_scan", "android": "https://dc.lft.to/lastmile_qr_scan"}, "bike_id": "1c8420afe7912545d1d9fbb15742fba9", "type": "electric_scooter", "lon": -77.03253883333333, "is_reserved": 0, "fusion_lat": 0.0, "fusion_lon": 0.0}, {"name": "6f5a19193030d33c97eec68e015fb32b", "is_disabled": 0, "lat": 38.908693166666666, "rental_uris": {"ios": "https://dc.lft.to/lastmile_qr_scan", "android": "https://dc.lft.to/lastmile_qr_scan"}, "bike_id": "6f5a19193030d33c97eec68e015fb32b", "type": "electric_scooter", "lon": -77.02362383333333, "is_reserved": 0, "fusion_lat": 0.0, "fusion_lon": 0.0}, {"name": "5bc0c2a83f28f44161c8dddc6342d052", "is_disabled": 0, "lat": 38.891752, "rental_uris": {"ios": "https://dc.lft.to/lastmile_qr_scan", "android": "https://dc.lft.to/lastmile_qr_scan"}, "bike_id": "5bc0c2a83f28f44161c8dddc6342d052", "type": "electric_scooter", "lon": -76.92648316666667, "is_reserved": 0, "fusion_lat": 0.0, "fusion_lon": 0.0}, {"name": "b03bd78a52515cd82b9f2a472aefe7c2", "is_disabled": 0, "lat": 38.9279535, "rental_uris": {"ios": "https://dc.lft.to/lastmile_qr_scan", "android": "https://dc.lft.to/lastmile_qr_scan"}, "bike_id": "b03bd78a52515cd82b9f2a472aefe7c2", "type": "electric_scooter", "lon": -77.02108583333333, "is_reserved": 0, "fusion_lat": 0.0, "fusion_lon": 0.0}, {"name": "6a85628f468e4ea5df2076f227aba7ff", "is_disabled": 0, "lat": 38.90026016666667, "rental_uris": {"ios": "https://dc.lft.to/lastmile_qr_scan", "android": "https://dc.lft.to/lastmile_qr_scan"}, "bike_id": "6a85628f468e4ea5df2076f227aba7ff", "type": "electric_scooter", "lon": -77.04494066666666, "is_reserved": 0, "fusion_lat": 0.0, "fusion_lon": 0.0}, {"name": "153db8ad067f742ed3f351205520dc5c", "is_disabled": 0, "lat": 38.901218666666665, "rental_uris": {"ios": "https://dc.lft.to/lastmile_qr_scan", "android": "https://dc.lft.to/lastmile_qr_scan"}, "bike_id": "153db8ad067f742ed3f351205520dc5c", "type": "electric_scooter", "lon": -77.02614083333333, "is_reserved": 0, "fusion_lat": 0.0, "fusion_lon": 0.0}, {"name": "39234e3cb47750aa53fe0c9fe8ec224a", "is_disabled": 0, "lat": 38.921536833333334, "rental_uris": {"ios": "https://dc.lft.to/lastmile_qr_scan", "android": "https://dc.lft.to/lastmile_qr_scan"}, "bike_id": "39234e3cb47750aa53fe0c9fe8ec224a", "type": "electric_scooter", "lon": -76.99353733333334, "is_reserved": 0, "fusion_lat": 0.0, "fusion_lon": 0.0}, {"name": "93b1e6a1eebf58ad533fe70b4dfdbb55", "is_disabled": 0, "lat": 38.927628166666665, "rental_uris": {"ios": "https://dc.lft.to/lastmile_qr_scan", "android": "https://dc.lft.to/lastmile_qr_scan"}, "bike_id": "93b1e6a1eebf58ad533fe70b4dfdbb55", "type": "electric_scooter", "lon": -77.0526895, "is_reserved": 0, "fusion_lat": 0.0, "fusion_lon": 0.0}, {"name": "718574ef1b7d111701babcfa8c3a276e", "is_disabled": 0, "lat": 38.91971133333333, "rental_uris": {"ios": "https://dc.lft.to/lastmile_qr_scan", "android": "https://dc.lft.to/lastmile_qr_scan"}, "bike_id": "718574ef1b7d111701babcfa8c3a276e", "type": "electric_scooter", "lon": -77.02388066666667, "is_reserved": 0, "fusion_lat": 0.0, "fusion_lon": 0.0}, {"name": "3869ea333c1dc7ab0f4fbf795ed90ae1", "is_disabled": 0, "lat": 38.92791316666667, "rental_uris": {"ios": "https://dc.lft.to/lastmile_qr_scan", "android": "https://dc.lft.to/lastmile_qr_scan"}, "bike_id": "3869ea333c1dc7ab0f4fbf795ed90ae1", "type": "electric_scooter", "lon": -77.05315333333333, "is_reserved": 0, "fusion_lat": 0.0, "fusion_lon": 0.0}, {"name": "e7d6256711a65a00f099c42301fd67d1", "is_disabled": 0, "lat": 38.892258, "rental_uris": {"ios": "https://dc.lft.to/lastmile_qr_scan", "android": "https://dc.lft.to/lastmile_qr_scan"}, "bike_id": "e7d6256711a65a00f099c42301fd67d1", "type": "electric_scooter", "lon": -77.043264, "is_reserved": 0, "fusion_lat": 0.0, "fusion_lon": 0.0}, {"name": "5c87d7ea465c022aad4fb50fc7cc6fc0", "is_disabled": 0, "lat": 38.8887695, "rental_uris": {"ios": "https://dc.lft.to/lastmile_qr_scan", "android": "https://dc.lft.to/lastmile_qr_scan"}, "bike_id": "5c87d7ea465c022aad4fb50fc7cc6fc0", "type": "electric_scooter", "lon": -76.98456683333333, "is_reserved": 0, "fusion_lat": 0.0, "fusion_lon": 0.0}, {"name": "a8edfcb45a0ca5d47302899ccbdc81cf", "is_disabled": 0, "lat": 38.9038, "rental_uris": {"ios": "https://dc.lft.to/lastmile_qr_scan", "android": "https://dc.lft.to/lastmile_qr_scan"}, "bike_id": "a8edfcb45a0ca5d47302899ccbdc81cf", "type": "electric_scooter", "lon": -77.03923133333333, "is_reserved": 0, "fusion_lat": 0.0, "fusion_lon": 0.0}, {"name": "50f2fc890b4e33570b76be7c818354b0", "is_disabled": 0, "lat": 38.925222833333336, "rental_uris": {"ios": "https://dc.lft.to/lastmile_qr_scan", "android": "https://dc.lft.to/lastmile_qr_scan"}, "bike_id": "50f2fc890b4e33570b76be7c818354b0", "type": "electric_scooter", "lon": -77.05036233333334, "is_reserved": 0, "fusion_lat": 0.0, "fusion_lon": 0.0}, {"name": "824113287f94112fc0e719e705dd10d0", "is_disabled": 0, "lat": 38.903125, "rental_uris": {"ios": "https://dc.lft.to/lastmile_qr_scan", "android": "https://dc.lft.to/lastmile_qr_scan"}, "bike_id": "824113287f94112fc0e719e705dd10d0", "type": "electric_scooter", "lon": -77.00603033333333, "is_reserved": 0, "fusion_lat": 0.0, "fusion_lon": 0.0}, {"name": "08748dc14246f5659fb45619810d2ee8", "is_disabled": 0, "lat": 38.90686916666667, "rental_uris": {"ios": "https://dc.lft.to/lastmile_qr_scan", "android": "https://dc.lft.to/lastmile_qr_scan"}, "bike_id": "08748dc14246f5659fb45619810d2ee8", "type": "electric_scooter", "lon": -77.037535, "is_reserved": 0, "fusion_lat": 0.0, "fusion_lon": 0.0}, {"name": "436ececa6dfbbd4bea2f3d8f91129829", "is_disabled": 0, "lat": 38.898505666666665, "rental_uris": {"ios": "https://dc.lft.to/lastmile_qr_scan", "android": "https://dc.lft.to/lastmile_qr_scan"}, "bike_id": "436ececa6dfbbd4bea2f3d8f91129829", "type": "electric_scooter", "lon": -77.02182733333333, "is_reserved": 0, "fusion_lat": 0.0, "fusion_lon": 0.0}, {"name": "83cf38491fe35a2ee4e2b930853454f6", "is_disabled": 0, "lat": 38.887509, "rental_uris": {"ios": "https://dc.lft.to/lastmile_qr_scan", "android": "https://dc.lft.to/lastmile_qr_scan"}, "bike_id": "83cf38491fe35a2ee4e2b930853454f6", "type": "electric_scooter", "lon": -77.0213055, "is_reserved": 0, "fusion_lat": 0.0, "fusion_lon": 0.0}, {"name": "7725e73bbcaeefaf7ae3ec52c52e2d1a", "is_disabled": 0, "lat": 38.912276166666665, "rental_uris": {"ios": "https://dc.lft.to/lastmile_qr_scan", "android": "https://dc.lft.to/lastmile_qr_scan"}, "bike_id": "7725e73bbcaeefaf7ae3ec52c52e2d1a", "type": "electric_scooter", "lon": -77.0659765, "is_reserved": 0, "fusion_lat": 0.0, "fusion_lon": 0.0}, {"name": "4ba5d6378ba8f5a9199a99b1f402a84a", "is_disabled": 0, "lat": 38.934183166666664, "rental_uris": {"ios": "https://dc.lft.to/lastmile_qr_scan", "android": "https://dc.lft.to/lastmile_qr_scan"}, "bike_id": "4ba5d6378ba8f5a9199a99b1f402a84a", "type": "electric_bike", "lon": -77.043098, "is_reserved": 0, "fusion_lat": 0.0, "fusion_lon": 0.0}, {"name": "03b51f4944e520393323dc540116c5e9", "is_disabled": 0, "lat": 38.8572105, "rental_uris": {"ios": "https://dc.lft.to/lastmile_qr_scan", "android": "https://dc.lft.to/lastmile_qr_scan"}, "bike_id": "03b51f4944e520393323dc540116c5e9", "type": "electric_bike", "lon": -76.98098183333333, "is_reserved": 0, "fusion_lat": 0.0, "fusion_lon": 0.0}, {"name": "1c4ef03e7f6ba20d3b5cdba4248dc393", "is_disabled": 0, "lat": 38.906623, "rental_uris": {"ios": "https://dc.lft.to/lastmile_qr_scan", "android": "https://dc.lft.to/lastmile_qr_scan"}, "bike_id": "1c4ef03e7f6ba20d3b5cdba4248dc393", "type": "electric_scooter", "lon": -77.00659333333333, "is_reserved": 0, "fusion_lat": 0.0, "fusion_lon": 0.0}, {"name": "9c7842ee8851e108b7eebe5aec5133cc", "is_disabled": 0, "lat": 38.8769925, "rental_uris": {"ios": "https://dc.lft.to/lastmile_qr_scan", "android": "https://dc.lft.to/lastmile_qr_scan"}, "bike_id": "9c7842ee8851e108b7eebe5aec5133cc", "type": "electric_scooter", "lon": -77.01915983333333, "is_reserved": 0, "fusion_lat": 0.0, "fusion_lon": 0.0}, {"name": "7e15c6e5d9f237efa1217870b10b8076", "is_disabled": 0, "lat": 38.906022666666665, "rental_uris": {"ios": "https://dc.lft.to/lastmile_qr_scan", "android": "https://dc.lft.to/lastmile_qr_scan"}, "bike_id": "7e15c6e5d9f237efa1217870b10b8076", "type": "electric_scooter", "lon": -77.02599683333334, "is_reserved": 0, "fusion_lat": 0.0, "fusion_lon": 0.0}, {"name": "c335fdc78abd08837d7937bb975c3edc", "is_disabled": 0, "lat": 38.9016755, "rental_uris": {"ios": "https://dc.lft.to/lastmile_qr_scan", "android": "https://dc.lft.to/lastmile_qr_scan"}, "bike_id": "c335fdc78abd08837d7937bb975c3edc", "type": "electric_scooter", "lon": -77.041865, "is_reserved": 0, "fusion_lat": 0.0, "fusion_lon": 0.0}, {"name": "15261403b10f0de9e4ea370e6fc6ee88", "is_disabled": 0, "lat": 38.903795, "rental_uris": {"ios": "https://dc.lft.to/lastmile_qr_scan", "android": "https://dc.lft.to/lastmile_qr_scan"}, "bike_id": "15261403b10f0de9e4ea370e6fc6ee88", "type": "electric_scooter", "lon": -77.00748566666667, "is_reserved": 0, "fusion_lat": 0.0, "fusion_lon": 0.0}, {"name": "e09de7eb3e517af5d60f5f18f53019d1", "is_disabled": 0, "lat": 38.90816783333333, "rental_uris": {"ios": "https://dc.lft.to/lastmile_qr_scan", "android": "https://dc.lft.to/lastmile_qr_scan"}, "bike_id": "e09de7eb3e517af5d60f5f18f53019d1", "type": "electric_scooter", "lon": -77.03448066666667, "is_reserved": 0, "fusion_lat": 0.0, "fusion_lon": 0.0}, {"name": "9ea3b7f54c5e1bc55ba36c20760cac06", "is_disabled": 0, "lat": 38.90645883333333, "rental_uris": {"ios": "https://dc.lft.to/lastmile_qr_scan", "android": "https://dc.lft.to/lastmile_qr_scan"}, "bike_id": "9ea3b7f54c5e1bc55ba36c20760cac06", "type": "electric_scooter", "lon": -77.00957083333333, "is_reserved": 0, "fusion_lat": 0.0, "fusion_lon": 0.0}, {"name": "6ae50fc8b904755ff0bc60ebc6828302", "is_disabled": 0, "lat": 38.921302, "rental_uris": {"ios": "https://dc.lft.to/lastmile_qr_scan", "android": "https://dc.lft.to/lastmile_qr_scan"}, "bike_id": "6ae50fc8b904755ff0bc60ebc6828302", "type": "electric_scooter", "lon": -77.04230516666667, "is_reserved": 0, "fusion_lat": 0.0, "fusion_lon": 0.0}, {"name": "cf433a4c3982edca578ff56bba55258c", "is_disabled": 0, "lat": 38.90786583333333, "rental_uris": {"ios": "https://dc.lft.to/lastmile_qr_scan", "android": "https://dc.lft.to/lastmile_qr_scan"}, "bike_id": "cf433a4c3982edca578ff56bba55258c", "type": "electric_scooter", "lon": -77.0111395, "is_reserved": 0, "fusion_lat": 0.0, "fusion_lon": 0.0}, {"name": "b7c056fec30d6c02b903d862414e2065", "is_disabled": 0, "lat": 38.871831666666665, "rental_uris": {"ios": "https://dc.lft.to/lastmile_qr_scan", "android": "https://dc.lft.to/lastmile_qr_scan"}, "bike_id": "b7c056fec30d6c02b903d862414e2065", "type": "electric_scooter", "lon": -77.00570983333333, "is_reserved": 0, "fusion_lat": 0.0, "fusion_lon": 0.0}, {"name": "93a1b0e143117619ff9858822644da4a", "is_disabled": 0, "lat": 38.89729166666667, "rental_uris": {"ios": "https://dc.lft.to/lastmile_qr_scan", "android": "https://dc.lft.to/lastmile_qr_scan"}, "bike_id": "93a1b0e143117619ff9858822644da4a", "type": "electric_scooter", "lon": -77.04742416666667, "is_reserved": 0, "fusion_lat": 0.0, "fusion_lon": 0.0}, {"name": "a16b0aba19f7bbbb8a214d7ded6bcecc", "is_disabled": 0, "lat": 38.836298666666664, "rental_uris": {"ios": "https://dc.lft.to/lastmile_qr_scan", "android": "https://dc.lft.to/lastmile_qr_scan"}, "bike_id": "a16b0aba19f7bbbb8a214d7ded6bcecc", "type": "electric_bike", "lon": -77.06950683333334, "is_reserved": 0, "fusion_lat": 0.0, "fusion_lon": 0.0}, {"name": "4fade03dafbf6b0f8a31940fb1141b8d", "is_disabled": 0, "lat": 38.934877, "rental_uris": {"ios": "https://dc.lft.to/lastmile_qr_scan", "android": "https://dc.lft.to/lastmile_qr_scan"}, "bike_id": "4fade03dafbf6b0f8a31940fb1141b8d", "type": "electric_scooter", "lon": -77.07279683333333, "is_reserved": 0, "fusion_lat": 0.0, "fusion_lon": 0.0}, {"name": "e62a4bff94a6550ba0a545f196579f82", "is_disabled": 0, "lat": 38.90565616666667, "rental_uris": {"ios": "https://dc.lft.to/lastmile_qr_scan", "android": "https://dc.lft.to/lastmile_qr_scan"}, "bike_id": "e62a4bff94a6550ba0a545f196579f82", "type": "electric_scooter", "lon": -77.02098816666667, "is_reserved": 0, "fusion_lat": 0.0, "fusion_lon": 0.0}, {"name": "e2919013ce72d4b12e8f39c8b0507184", "is_disabled": 0, "lat": 38.899351333333335, "rental_uris": {"ios": "https://dc.lft.to/lastmile_qr_scan", "android": "https://dc.lft.to/lastmile_qr_scan"}, "bike_id": "e2919013ce72d4b12e8f39c8b0507184", "type": "electric_scooter", "lon": -77.01270816666667, "is_reserved": 0, "fusion_lat": 0.0, "fusion_lon": 0.0}, {"name": "d4ad9c0809cec025e0cc990bdef7fb4c", "is_disabled": 0, "lat": 38.918581833333334, "rental_uris": {"ios": "https://dc.lft.to/lastmile_qr_scan", "android": "https://dc.lft.to/lastmile_qr_scan"}, "bike_id": "d4ad9c0809cec025e0cc990bdef7fb4c", "type": "electric_bike", "lon": -76.9608735, "is_reserved": 0, "fusion_lat": 0.0, "fusion_lon": 0.0}, {"name": "686082a6ad9b4b2bf3a95b940d63bc84", "is_disabled": 0, "lat": 38.872187833333335, "rental_uris": {"ios": "https://dc.lft.to/lastmile_qr_scan", "android": "https://dc.lft.to/lastmile_qr_scan"}, "bike_id": "686082a6ad9b4b2bf3a95b940d63bc84", "type": "electric_scooter", "lon": -77.01768183333333, "is_reserved": 0, "fusion_lat": 0.0, "fusion_lon": 0.0}, {"name": "620234fa2c74942cf844fbe39d619067", "is_disabled": 0, "lat": 38.915467, "rental_uris": {"ios": "https://dc.lft.to/lastmile_qr_scan", "android": "https://dc.lft.to/lastmile_qr_scan"}, "bike_id": "620234fa2c74942cf844fbe39d619067", "type": "electric_scooter", "lon": -77.012235, "is_reserved": 0, "fusion_lat": 0.0, "fusion_lon": 0.0}, {"name": "666fa6056f38c70edc2310e92cf219e2", "is_disabled": 0, "lat": 38.899469, "rental_uris": {"ios": "https://dc.lft.to/lastmile_qr_scan", "android": "https://dc.lft.to/lastmile_qr_scan"}, "bike_id": "666fa6056f38c70edc2310e92cf219e2", "type": "electric_scooter", "lon": -77.01617733333333, "is_reserved": 0, "fusion_lat": 0.0, "fusion_lon": 0.0}, {"name": "57e2d5c509dba309d63582eb8ecef4c1", "is_disabled": 0, "lat": 38.88749833333333, "rental_uris": {"ios": "https://dc.lft.to/lastmile_qr_scan", "android": "https://dc.lft.to/lastmile_qr_scan"}, "bike_id": "57e2d5c509dba309d63582eb8ecef4c1", "type": "electric_scooter", "lon": -77.02572, "is_reserved": 0, "fusion_lat": 0.0, "fusion_lon": 0.0}, {"name": "f89814f68028c916db5d2f488cd9806e", "is_disabled": 0, "lat": 38.906882333333336, "rental_uris": {"ios": "https://dc.lft.to/lastmile_qr_scan", "android": "https://dc.lft.to/lastmile_qr_scan"}, "bike_id": "f89814f68028c916db5d2f488cd9806e", "type": "electric_scooter", "lon": -76.95194583333334, "is_reserved": 0, "fusion_lat": 0.0, "fusion_lon": 0.0}, {"name": "749164e660603dd0854dcfb49d35b71d", "is_disabled": 0, "lat": 38.9216465, "rental_uris": {"ios": "https://dc.lft.to/lastmile_qr_scan", "android": "https://dc.lft.to/lastmile_qr_scan"}, "bike_id": "749164e660603dd0854dcfb49d35b71d", "type": "electric_scooter", "lon": -77.02024283333333, "is_reserved": 0, "fusion_lat": 0.0, "fusion_lon": 0.0}, {"name": "10e95c50661b5d5a762aafdb185c82dc", "is_disabled": 0, "lat": 38.9040435, "rental_uris": {"ios": "https://dc.lft.to/lastmile_qr_scan", "android": "https://dc.lft.to/lastmile_qr_scan"}, "bike_id": "10e95c50661b5d5a762aafdb185c82dc", "type": "electric_scooter", "lon": -77.0386345, "is_reserved": 0, "fusion_lat": 0.0, "fusion_lon": 0.0}, {"name": "e575ce62eb0bea1e82ed4634fafb44f4", "is_disabled": 0, "lat": 38.90717583333333, "rental_uris": {"ios": "https://dc.lft.to/lastmile_qr_scan", "android": "https://dc.lft.to/lastmile_qr_scan"}, "bike_id": "e575ce62eb0bea1e82ed4634fafb44f4", "type": "electric_scooter", "lon": -77.02715383333333, "is_reserved": 0, "fusion_lat": 0.0, "fusion_lon": 0.0}, {"name": "7f7df32a86275a649d61bf76c7d6b5f7", "is_disabled": 0, "lat": 38.92032833333333, "rental_uris": {"ios": "https://dc.lft.to/lastmile_qr_scan", "android": "https://dc.lft.to/lastmile_qr_scan"}, "bike_id": "7f7df32a86275a649d61bf76c7d6b5f7", "type": "electric_scooter", "lon": -77.04397733333333, "is_reserved": 0, "fusion_lat": 0.0, "fusion_lon": 0.0}, {"name": "7496654cee15c3ddb154ce7fc4944375", "is_disabled": 0, "lat": 38.866723666666665, "rental_uris": {"ios": "https://dc.lft.to/lastmile_qr_scan", "android": "https://dc.lft.to/lastmile_qr_scan"}, "bike_id": "7496654cee15c3ddb154ce7fc4944375", "type": "electric_scooter", "lon": -76.98904433333334, "is_reserved": 0, "fusion_lat": 0.0, "fusion_lon": 0.0}, {"name": "fc1ae6c983f700a085e7a973f5510567", "is_disabled": 0, "lat": 38.91688633333333, "rental_uris": {"ios": "https://dc.lft.to/lastmile_qr_scan", "android": "https://dc.lft.to/lastmile_qr_scan"}, "bike_id": "fc1ae6c983f700a085e7a973f5510567", "type": "electric_scooter", "lon": -77.02955633333333, "is_reserved": 0, "fusion_lat": 0.0, "fusion_lon": 0.0}, {"name": "324c9c64bd7619810daa91083663aa2d", "is_disabled": 0, "lat": 38.931809666666666, "rental_uris": {"ios": "https://dc.lft.to/lastmile_qr_scan", "android": "https://dc.lft.to/lastmile_qr_scan"}, "bike_id": "324c9c64bd7619810daa91083663aa2d", "type": "electric_scooter", "lon": -77.031541, "is_reserved": 0, "fusion_lat": 0.0, "fusion_lon": 0.0}, {"name": "3473361d599928ed91346a7bfd65c9b2", "is_disabled": 0, "lat": 38.920635, "rental_uris": {"ios": "https://dc.lft.to/lastmile_qr_scan", "android": "https://dc.lft.to/lastmile_qr_scan"}, "bike_id": "3473361d599928ed91346a7bfd65c9b2", "type": "electric_scooter", "lon": -77.03805983333334, "is_reserved": 0, "fusion_lat": 0.0, "fusion_lon": 0.0}, {"name": "7f2c3cdff81c8389381dff27fbe67efb", "is_disabled": 0, "lat": 38.8745185, "rental_uris": {"ios": "https://dc.lft.to/lastmile_qr_scan", "android": "https://dc.lft.to/lastmile_qr_scan"}, "bike_id": "7f2c3cdff81c8389381dff27fbe67efb", "type": "electric_scooter", "lon": -77.00287783333333, "is_reserved": 0, "fusion_lat": 0.0, "fusion_lon": 0.0}, {"name": "5cbb277b5f01fbbc97967c552f4a465d", "is_disabled": 0, "lat": 38.909511, "rental_uris": {"ios": "https://dc.lft.to/lastmile_qr_scan", "android": "https://dc.lft.to/lastmile_qr_scan"}, "bike_id": "5cbb277b5f01fbbc97967c552f4a465d", "type": "electric_scooter", "lon": -77.02719233333333, "is_reserved": 0, "fusion_lat": 0.0, "fusion_lon": 0.0}, {"name": "764136e509cbdee8d7873984c49769a5", "is_disabled": 0, "lat": 38.918005666666666, "rental_uris": {"ios": "https://dc.lft.to/lastmile_qr_scan", "android": "https://dc.lft.to/lastmile_qr_scan"}, "bike_id": "764136e509cbdee8d7873984c49769a5", "type": "electric_scooter", "lon": -77.03181483333333, "is_reserved": 0, "fusion_lat": 0.0, "fusion_lon": 0.0}, {"name": "f1c3ef81df519a66e9439d4df01779ab", "is_disabled": 0, "lat": 38.87656483333333, "rental_uris": {"ios": "https://dc.lft.to/lastmile_qr_scan", "android": "https://dc.lft.to/lastmile_qr_scan"}, "bike_id": "f1c3ef81df519a66e9439d4df01779ab", "type": "electric_scooter", "lon": -77.00080416666667, "is_reserved": 0, "fusion_lat": 0.0, "fusion_lon": 0.0}, {"name": "d7d6c1a151467cb1f42345577b137e1b", "is_disabled": 0, "lat": 38.860203, "rental_uris": {"ios": "https://dc.lft.to/lastmile_qr_scan", "android": "https://dc.lft.to/lastmile_qr_scan"}, "bike_id": "d7d6c1a151467cb1f42345577b137e1b", "type": "electric_bike", "lon": -77.128066, "is_reserved": 0, "fusion_lat": 0.0, "fusion_lon": 0.0}, {"name": "5dae02db047be779b2a476227208a04f", "is_disabled": 0, "lat": 38.9307835, "rental_uris": {"ios": "https://dc.lft.to/lastmile_qr_scan", "android": "https://dc.lft.to/lastmile_qr_scan"}, "bike_id": "5dae02db047be779b2a476227208a04f", "type": "electric_scooter", "lon": -77.07764416666667, "is_reserved": 0, "fusion_lat": 0.0, "fusion_lon": 0.0}, {"name": "5b9c6d30412adbd82d500c8310f73a52", "is_disabled": 0, "lat": 38.90605216666667, "rental_uris": {"ios": "https://dc.lft.to/lastmile_qr_scan", "android": "https://dc.lft.to/lastmile_qr_scan"}, "bike_id": "5b9c6d30412adbd82d500c8310f73a52", "type": "electric_bike", "lon": -77.07623033333333, "is_reserved": 0, "fusion_lat": 0.0, "fusion_lon": 0.0}, {"name": "83afde11f366f1b036f43101275fd528", "is_disabled": 0, "lat": 38.91729083333333, "rental_uris": {"ios": "https://dc.lft.to/lastmile_qr_scan", "android": "https://dc.lft.to/lastmile_qr_scan"}, "bike_id": "83afde11f366f1b036f43101275fd528", "type": "electric_scooter", "lon": -77.01927183333333, "is_reserved": 0, "fusion_lat": 0.0, "fusion_lon": 0.0}, {"name": "76d5f494d07c247e4a614c9738e38bc5", "is_disabled": 0, "lat": 38.91704333333333, "rental_uris": {"ios": "https://dc.lft.to/lastmile_qr_scan", "android": "https://dc.lft.to/lastmile_qr_scan"}, "bike_id": "76d5f494d07c247e4a614c9738e38bc5", "type": "electric_scooter", "lon": -77.02647666666667, "is_reserved": 0, "fusion_lat": 0.0, "fusion_lon": 0.0}, {"name": "f5a8f93db0948de442098a2c20a0044e", "is_disabled": 0, "lat": 38.928616833333336, "rental_uris": {"ios": "https://dc.lft.to/lastmile_qr_scan", "android": "https://dc.lft.to/lastmile_qr_scan"}, "bike_id": "f5a8f93db0948de442098a2c20a0044e", "type": "electric_scooter", "lon": -77.01412966666666, "is_reserved": 0, "fusion_lat": 0.0, "fusion_lon": 0.0}, {"name": "9879c812ad2c9f3cb386f2489fb5bc4e", "is_disabled": 0, "lat": 38.91487983333333, "rental_uris": {"ios": "https://dc.lft.to/lastmile_qr_scan", "android": "https://dc.lft.to/lastmile_qr_scan"}, "bike_id": "9879c812ad2c9f3cb386f2489fb5bc4e", "type": "electric_scooter", "lon": -77.0460385, "is_reserved": 0, "fusion_lat": 0.0, "fusion_lon": 0.0}, {"name": "cdbc21ee8d313d50174918d5f1a78f76", "is_disabled": 0, "lat": 38.88732, "rental_uris": {"ios": "https://dc.lft.to/lastmile_qr_scan", "android": "https://dc.lft.to/lastmile_qr_scan"}, "bike_id": "cdbc21ee8d313d50174918d5f1a78f76", "type": "electric_scooter", "lon": -77.03178266666667, "is_reserved": 0, "fusion_lat": 0.0, "fusion_lon": 0.0}, {"name": "1071f67e67418111ce178b284e410892", "is_disabled": 0, "lat": 38.918243, "rental_uris": {"ios": "https://dc.lft.to/lastmile_qr_scan", "android": "https://dc.lft.to/lastmile_qr_scan"}, "bike_id": "1071f67e67418111ce178b284e410892", "type": "electric_scooter", "lon": -77.03192666666666, "is_reserved": 0, "fusion_lat": 0.0, "fusion_lon": 0.0}, {"name": "55c8a5badf6c33a12cfef65fcb22f1a7", "is_disabled": 0, "lat": 38.954147666666664, "rental_uris": {"ios": "https://dc.lft.to/lastmile_qr_scan", "android": "https://dc.lft.to/lastmile_qr_scan"}, "bike_id": "55c8a5badf6c33a12cfef65fcb22f1a7", "type": "electric_scooter", "lon": -77.02790416666667, "is_reserved": 0, "fusion_lat": 0.0, "fusion_lon": 0.0}, {"name": "166d3f063c158009e988257446cd650a", "is_disabled": 0, "lat": 38.922256833333336, "rental_uris": {"ios": "https://dc.lft.to/lastmile_qr_scan", "android": "https://dc.lft.to/lastmile_qr_scan"}, "bike_id": "166d3f063c158009e988257446cd650a", "type": "electric_scooter", "lon": -77.04237566666667, "is_reserved": 0, "fusion_lat": 0.0, "fusion_lon": 0.0}, {"name": "342f76e426b7a7675fce9cf7cd77fa66", "is_disabled": 0, "lat": 38.90378716666667, "rental_uris": {"ios": "https://dc.lft.to/lastmile_qr_scan", "android": "https://dc.lft.to/lastmile_qr_scan"}, "bike_id": "342f76e426b7a7675fce9cf7cd77fa66", "type": "electric_scooter", "lon": -77.03829616666667, "is_reserved": 0, "fusion_lat": 0.0, "fusion_lon": 0.0}, {"name": "292125c4b65df80185630b11065d4b5e", "is_disabled": 0, "lat": 38.90494666666667, "rental_uris": {"ios": "https://dc.lft.to/lastmile_qr_scan", "android": "https://dc.lft.to/lastmile_qr_scan"}, "bike_id": "292125c4b65df80185630b11065d4b5e", "type": "electric_scooter", "lon": -77.00737383333333, "is_reserved": 0, "fusion_lat": 0.0, "fusion_lon": 0.0}, {"name": "757972bfd6d75cd43da142aa937b261d", "is_disabled": 0, "lat": 38.929932, "rental_uris": {"ios": "https://dc.lft.to/lastmile_qr_scan", "android": "https://dc.lft.to/lastmile_qr_scan"}, "bike_id": "757972bfd6d75cd43da142aa937b261d", "type": "electric_scooter", "lon": -77.0325985, "is_reserved": 0, "fusion_lat": 0.0, "fusion_lon": 0.0}, {"name": "5b8ea8cc0aa5ffa5cada5eeafe545771", "is_disabled": 0, "lat": 38.84301683333333, "rental_uris": {"ios": "https://dc.lft.to/lastmile_qr_scan", "android": "https://dc.lft.to/lastmile_qr_scan"}, "bike_id": "5b8ea8cc0aa5ffa5cada5eeafe545771", "type": "electric_bike", "lon": -77.1086775, "is_reserved": 0, "fusion_lat": 0.0, "fusion_lon": 0.0}, {"name": "def71f3982ed0f4f8d9fb6e1358f74e8", "is_disabled": 0, "lat": 38.822220333333334, "rental_uris": {"ios": "https://dc.lft.to/lastmile_qr_scan", "android": "https://dc.lft.to/lastmile_qr_scan"}, "bike_id": "def71f3982ed0f4f8d9fb6e1358f74e8", "type": "electric_bike", "lon": -77.00182533333333, "is_reserved": 0, "fusion_lat": 0.0, "fusion_lon": 0.0}, {"name": "9adcecf3ce54fe244ca5084e797b9935", "is_disabled": 0, "lat": 38.892384, "rental_uris": {"ios": "https://dc.lft.to/lastmile_qr_scan", "android": "https://dc.lft.to/lastmile_qr_scan"}, "bike_id": "9adcecf3ce54fe244ca5084e797b9935", "type": "electric_scooter", "lon": -77.02382816666666, "is_reserved": 0, "fusion_lat": 0.0, "fusion_lon": 0.0}, {"name": "3756f3a84a00c4afdd3747ef660707d8", "is_disabled": 0, "lat": 38.93487283333333, "rental_uris": {"ios": "https://dc.lft.to/lastmile_qr_scan", "android": "https://dc.lft.to/lastmile_qr_scan"}, "bike_id": "3756f3a84a00c4afdd3747ef660707d8", "type": "electric_scooter", "lon": -77.02714316666666, "is_reserved": 0, "fusion_lat": 0.0, "fusion_lon": 0.0}, {"name": "4323510444310e89a6ac2eaf4f358c89", "is_disabled": 0, "lat": 38.912966, "rental_uris": {"ios": "https://dc.lft.to/lastmile_qr_scan", "android": "https://dc.lft.to/lastmile_qr_scan"}, "bike_id": "4323510444310e89a6ac2eaf4f358c89", "type": "electric_scooter", "lon": -77.02220083333333, "is_reserved": 0, "fusion_lat": 0.0, "fusion_lon": 0.0}, {"name": "14dad85f49bfe9d30053aa67ebf9c6b9", "is_disabled": 0, "lat": 38.906851, "rental_uris": {"ios": "https://dc.lft.to/lastmile_qr_scan", "android": "https://dc.lft.to/lastmile_qr_scan"}, "bike_id": "14dad85f49bfe9d30053aa67ebf9c6b9", "type": "electric_scooter", "lon": -77.0386185, "is_reserved": 0, "fusion_lat": 0.0, "fusion_lon": 0.0}, {"name": "85dd02b5735d958d62f712b47cf7d157", "is_disabled": 0, "lat": 38.905249833333336, "rental_uris": {"ios": "https://dc.lft.to/lastmile_qr_scan", "android": "https://dc.lft.to/lastmile_qr_scan"}, "bike_id": "85dd02b5735d958d62f712b47cf7d157", "type": "electric_scooter", "lon": -77.06101166666667, "is_reserved": 0, "fusion_lat": 0.0, "fusion_lon": 0.0}, {"name": "9b4004dba675075700168e51b7fc6fe9", "is_disabled": 0, "lat": 38.923207833333336, "rental_uris": {"ios": "https://dc.lft.to/lastmile_qr_scan", "android": "https://dc.lft.to/lastmile_qr_scan"}, "bike_id": "9b4004dba675075700168e51b7fc6fe9", "type": "electric_scooter", "lon": -77.03409116666667, "is_reserved": 0, "fusion_lat": 0.0, "fusion_lon": 0.0}, {"name": "b0e8f4f6d7707e489195e74eff5ee077", "is_disabled": 0, "lat": 38.899127, "rental_uris": {"ios": "https://dc.lft.to/lastmile_qr_scan", "android": "https://dc.lft.to/lastmile_qr_scan"}, "bike_id": "b0e8f4f6d7707e489195e74eff5ee077", "type": "electric_scooter", "lon": -76.9455175, "is_reserved": 0, "fusion_lat": 0.0, "fusion_lon": 0.0}, {"name": "d9bf39b23f7c4799f68897fa25c27991", "is_disabled": 0, "lat": 38.89633366666666, "rental_uris": {"ios": "https://dc.lft.to/lastmile_qr_scan", "android": "https://dc.lft.to/lastmile_qr_scan"}, "bike_id": "d9bf39b23f7c4799f68897fa25c27991", "type": "electric_scooter", "lon": -77.02686533333333, "is_reserved": 0, "fusion_lat": 0.0, "fusion_lon": 0.0}, {"name": "cf3edaca588607c4d6621bdbd522c334", "is_disabled": 0, "lat": 38.902329, "rental_uris": {"ios": "https://dc.lft.to/lastmile_qr_scan", "android": "https://dc.lft.to/lastmile_qr_scan"}, "bike_id": "cf3edaca588607c4d6621bdbd522c334", "type": "electric_scooter", "lon": -77.0614545, "is_reserved": 0, "fusion_lat": 0.0, "fusion_lon": 0.0}, {"name": "06827998f4062db43ff03583b382151e", "is_disabled": 0, "lat": 38.914097, "rental_uris": {"ios": "https://dc.lft.to/lastmile_qr_scan", "android": "https://dc.lft.to/lastmile_qr_scan"}, "bike_id": "06827998f4062db43ff03583b382151e", "type": "electric_scooter", "lon": -77.008468, "is_reserved": 0, "fusion_lat": 0.0, "fusion_lon": 0.0}, {"name": "fa85b0223c8d87284432fb5fd9bc343b", "is_disabled": 0, "lat": 38.947417, "rental_uris": {"ios": "https://dc.lft.to/lastmile_qr_scan", "android": "https://dc.lft.to/lastmile_qr_scan"}, "bike_id": "fa85b0223c8d87284432fb5fd9bc343b", "type": "electric_scooter", "lon": -77.0162315, "is_reserved": 0, "fusion_lat": 0.0, "fusion_lon": 0.0}, {"name": "e6ca26232930c0f2e618303e87401be4", "is_disabled": 0, "lat": 38.89244016666667, "rental_uris": {"ios": "https://dc.lft.to/lastmile_qr_scan", "android": "https://dc.lft.to/lastmile_qr_scan"}, "bike_id": "e6ca26232930c0f2e618303e87401be4", "type": "electric_scooter", "lon": -77.03347516666666, "is_reserved": 0, "fusion_lat": 0.0, "fusion_lon": 0.0}, {"name": "2e15a1b8264008f16e4f1158acb839ee", "is_disabled": 0, "lat": 38.907394, "rental_uris": {"ios": "https://dc.lft.to/lastmile_qr_scan", "android": "https://dc.lft.to/lastmile_qr_scan"}, "bike_id": "2e15a1b8264008f16e4f1158acb839ee", "type": "electric_scooter", "lon": -77.04150283333334, "is_reserved": 0, "fusion_lat": 0.0, "fusion_lon": 0.0}, {"name": "7105ca5608b97084a76554c4cfe124b6", "is_disabled": 0, "lat": 38.909757166666665, "rental_uris": {"ios": "https://dc.lft.to/lastmile_qr_scan", "android": "https://dc.lft.to/lastmile_qr_scan"}, "bike_id": "7105ca5608b97084a76554c4cfe124b6", "type": "electric_scooter", "lon": -77.03207666666667, "is_reserved": 0, "fusion_lat": 0.0, "fusion_lon": 0.0}, {"name": "6fe7da4be9194945bef741bf85b0120e", "is_disabled": 0, "lat": 38.94217966666667, "rental_uris": {"ios": "https://dc.lft.to/lastmile_qr_scan", "android": "https://dc.lft.to/lastmile_qr_scan"}, "bike_id": "6fe7da4be9194945bef741bf85b0120e", "type": "electric_scooter", "lon": -76.985599, "is_reserved": 0, "fusion_lat": 0.0, "fusion_lon": 0.0}, {"name": "0f9a8c3a6797901982393619cecc9a5b", "is_disabled": 0, "lat": 38.892256333333336, "rental_uris": {"ios": "https://dc.lft.to/lastmile_qr_scan", "android": "https://dc.lft.to/lastmile_qr_scan"}, "bike_id": "0f9a8c3a6797901982393619cecc9a5b", "type": "electric_scooter", "lon": -77.04868883333333, "is_reserved": 0, "fusion_lat": 0.0, "fusion_lon": 0.0}, {"name": "9829eaa3d6ea23f0a8ed77f003a52e9e", "is_disabled": 0, "lat": 38.921539333333335, "rental_uris": {"ios": "https://dc.lft.to/lastmile_qr_scan", "android": "https://dc.lft.to/lastmile_qr_scan"}, "bike_id": "9829eaa3d6ea23f0a8ed77f003a52e9e", "type": "electric_scooter", "lon": -77.0386775, "is_reserved": 0, "fusion_lat": 0.0, "fusion_lon": 0.0}, {"name": "9a630dc69931fdf60de7ac5e2928e29f", "is_disabled": 0, "lat": 38.91132433333333, "rental_uris": {"ios": "https://dc.lft.to/lastmile_qr_scan", "android": "https://dc.lft.to/lastmile_qr_scan"}, "bike_id": "9a630dc69931fdf60de7ac5e2928e29f", "type": "electric_scooter", "lon": -77.0320275, "is_reserved": 0, "fusion_lat": 0.0, "fusion_lon": 0.0}, {"name": "31752fd95b37e9e76219e8bba93b94ac", "is_disabled": 0, "lat": 38.92151716666667, "rental_uris": {"ios": "https://dc.lft.to/lastmile_qr_scan", "android": "https://dc.lft.to/lastmile_qr_scan"}, "bike_id": "31752fd95b37e9e76219e8bba93b94ac", "type": "electric_scooter", "lon": -77.038685, "is_reserved": 0, "fusion_lat": 0.0, "fusion_lon": 0.0}, {"name": "edb7a00640f107f978acbc2da087a8af", "is_disabled": 0, "lat": 38.892298, "rental_uris": {"ios": "https://dc.lft.to/lastmile_qr_scan", "android": "https://dc.lft.to/lastmile_qr_scan"}, "bike_id": "edb7a00640f107f978acbc2da087a8af", "type": "electric_scooter", "lon": -77.04095516666666, "is_reserved": 0, "fusion_lat": 0.0, "fusion_lon": 0.0}, {"name": "c3615b054f118aaa5b45057a7865d64a", "is_disabled": 0, "lat": 38.90565683333333, "rental_uris": {"ios": "https://dc.lft.to/lastmile_qr_scan", "android": "https://dc.lft.to/lastmile_qr_scan"}, "bike_id": "c3615b054f118aaa5b45057a7865d64a", "type": "electric_scooter", "lon": -77.02428216666667, "is_reserved": 0, "fusion_lat": 0.0, "fusion_lon": 0.0}, {"name": "f9f556e417a57f1385c5121f2855335e", "is_disabled": 0, "lat": 38.91497, "rental_uris": {"ios": "https://dc.lft.to/lastmile_qr_scan", "android": "https://dc.lft.to/lastmile_qr_scan"}, "bike_id": "f9f556e417a57f1385c5121f2855335e", "type": "electric_scooter", "lon": -77.01220566666667, "is_reserved": 0, "fusion_lat": 0.0, "fusion_lon": 0.0}, {"name": "aa1177bb1efc3487b1ca9e25e99a10f5", "is_disabled": 0, "lat": 38.90643416666666, "rental_uris": {"ios": "https://dc.lft.to/lastmile_qr_scan", "android": "https://dc.lft.to/lastmile_qr_scan"}, "bike_id": "aa1177bb1efc3487b1ca9e25e99a10f5", "type": "electric_scooter", "lon": -77.00589783333334, "is_reserved": 0, "fusion_lat": 0.0, "fusion_lon": 0.0}, {"name": "fb130ac881deb73d5f5d47b57dfcf097", "is_disabled": 0, "lat": 38.9026555, "rental_uris": {"ios": "https://dc.lft.to/lastmile_qr_scan", "android": "https://dc.lft.to/lastmile_qr_scan"}, "bike_id": "fb130ac881deb73d5f5d47b57dfcf097", "type": "electric_scooter", "lon": -77.03258783333334, "is_reserved": 0, "fusion_lat": 0.0, "fusion_lon": 0.0}, {"name": "19b3e8111e57c56605e8195aaf4fd209", "is_disabled": 0, "lat": 38.88623616666667, "rental_uris": {"ios": "https://dc.lft.to/lastmile_qr_scan", "android": "https://dc.lft.to/lastmile_qr_scan"}, "bike_id": "19b3e8111e57c56605e8195aaf4fd209", "type": "electric_scooter", "lon": -77.02837316666667, "is_reserved": 0, "fusion_lat": 0.0, "fusion_lon": 0.0}, {"name": "b21a2b55b917eb06b835606cf0d2ff89", "is_disabled": 0, "lat": 38.8922405, "rental_uris": {"ios": "https://dc.lft.to/lastmile_qr_scan", "android": "https://dc.lft.to/lastmile_qr_scan"}, "bike_id": "b21a2b55b917eb06b835606cf0d2ff89", "type": "electric_scooter", "lon": -77.02225266666666, "is_reserved": 0, "fusion_lat": 0.0, "fusion_lon": 0.0}, {"name": "8442001d0b286a1dabaa56e2db1d5cfa", "is_disabled": 0, "lat": 38.916886833333336, "rental_uris": {"ios": "https://dc.lft.to/lastmile_qr_scan", "android": "https://dc.lft.to/lastmile_qr_scan"}, "bike_id": "8442001d0b286a1dabaa56e2db1d5cfa", "type": "electric_scooter", "lon": -77.02289033333334, "is_reserved": 0, "fusion_lat": 0.0, "fusion_lon": 0.0}, {"name": "efd1f450c4396aebda477e6cdc86f907", "is_disabled": 0, "lat": 38.898907, "rental_uris": {"ios": "https://dc.lft.to/lastmile_qr_scan", "android": "https://dc.lft.to/lastmile_qr_scan"}, "bike_id": "efd1f450c4396aebda477e6cdc86f907", "type": "electric_scooter", "lon": -76.9317765, "is_reserved": 0, "fusion_lat": 0.0, "fusion_lon": 0.0}, {"name": "e129ed15c2239f584ccaf7ef8deb66bc", "is_disabled": 0, "lat": 38.92420166666667, "rental_uris": {"ios": "https://dc.lft.to/lastmile_qr_scan", "android": "https://dc.lft.to/lastmile_qr_scan"}, "bike_id": "e129ed15c2239f584ccaf7ef8deb66bc", "type": "electric_scooter", "lon": -77.01942316666667, "is_reserved": 0, "fusion_lat": 0.0, "fusion_lon": 0.0}, {"name": "5ac90a572aed2efee3b985138643c2f1", "is_disabled": 0, "lat": 39.036153, "rental_uris": {"ios": "https://dc.lft.to/lastmile_qr_scan", "android": "https://dc.lft.to/lastmile_qr_scan"}, "bike_id": "5ac90a572aed2efee3b985138643c2f1", "type": "electric_bike", "lon": -77.05547716666666, "is_reserved": 0, "fusion_lat": 0.0, "fusion_lon": 0.0}, {"name": "4b688c31b47d1ffccd76c9f745cc6224", "is_disabled": 0, "lat": 38.915767833333334, "rental_uris": {"ios": "https://dc.lft.to/lastmile_qr_scan", "android": "https://dc.lft.to/lastmile_qr_scan"}, "bike_id": "4b688c31b47d1ffccd76c9f745cc6224", "type": "electric_scooter", "lon": -77.01228716666667, "is_reserved": 0, "fusion_lat": 0.0, "fusion_lon": 0.0}, {"name": "99641c5b767108fe30e04ecb8a961158", "is_disabled": 0, "lat": 38.914059, "rental_uris": {"ios": "https://dc.lft.to/lastmile_qr_scan", "android": "https://dc.lft.to/lastmile_qr_scan"}, "bike_id": "99641c5b767108fe30e04ecb8a961158", "type": "electric_scooter", "lon": -77.02207333333334, "is_reserved": 0, "fusion_lat": 0.0, "fusion_lon": 0.0}, {"name": "5cc65fd45136d058902a0c721d58c120", "is_disabled": 0, "lat": 38.919738833333334, "rental_uris": {"ios": "https://dc.lft.to/lastmile_qr_scan", "android": "https://dc.lft.to/lastmile_qr_scan"}, "bike_id": "5cc65fd45136d058902a0c721d58c120", "type": "electric_scooter", "lon": -77.01214833333333, "is_reserved": 0, "fusion_lat": 0.0, "fusion_lon": 0.0}, {"name": "e0a0f79536382c2f8ccfaed336ae1df8", "is_disabled": 0, "lat": 38.90532433333333, "rental_uris": {"ios": "https://dc.lft.to/lastmile_qr_scan", "android": "https://dc.lft.to/lastmile_qr_scan"}, "bike_id": "e0a0f79536382c2f8ccfaed336ae1df8", "type": "electric_scooter", "lon": -77.05636883333334, "is_reserved": 0, "fusion_lat": 0.0, "fusion_lon": 0.0}, {"name": "399d044cada40bfc3c96967134fae736", "is_disabled": 0, "lat": 38.918463333333335, "rental_uris": {"ios": "https://dc.lft.to/lastmile_qr_scan", "android": "https://dc.lft.to/lastmile_qr_scan"}, "bike_id": "399d044cada40bfc3c96967134fae736", "type": "electric_scooter", "lon": -77.04834983333333, "is_reserved": 0, "fusion_lat": 0.0, "fusion_lon": 0.0}, {"name": "451f8bde947228fb764ff09c720d5269", "is_disabled": 0, "lat": 38.90574816666667, "rental_uris": {"ios": "https://dc.lft.to/lastmile_qr_scan", "android": "https://dc.lft.to/lastmile_qr_scan"}, "bike_id": "451f8bde947228fb764ff09c720d5269", "type": "electric_scooter", "lon": -77.04458966666667, "is_reserved": 0, "fusion_lat": 0.0, "fusion_lon": 0.0}, {"name": "bc3a369b84efacf2a0949ba1c05586b8", "is_disabled": 0, "lat": 38.90595716666667, "rental_uris": {"ios": "https://dc.lft.to/lastmile_qr_scan", "android": "https://dc.lft.to/lastmile_qr_scan"}, "bike_id": "bc3a369b84efacf2a0949ba1c05586b8", "type": "electric_bike", "lon": -77.00276833333334, "is_reserved": 0, "fusion_lat": 0.0, "fusion_lon": 0.0}, {"name": "02aeadfa00489ca9dd8c078e2d8cb905", "is_disabled": 0, "lat": 38.90379933333333, "rental_uris": {"ios": "https://dc.lft.to/lastmile_qr_scan", "android": "https://dc.lft.to/lastmile_qr_scan"}, "bike_id": "02aeadfa00489ca9dd8c078e2d8cb905", "type": "electric_bike", "lon": -77.029587, "is_reserved": 0, "fusion_lat": 0.0, "fusion_lon": 0.0}, {"name": "f29be17d61419f3e9864c643fdf1bc06", "is_disabled": 0, "lat": 38.906258, "rental_uris": {"ios": "https://dc.lft.to/lastmile_qr_scan", "android": "https://dc.lft.to/lastmile_qr_scan"}, "bike_id": "f29be17d61419f3e9864c643fdf1bc06", "type": "electric_scooter", "lon": -77.0436005, "is_reserved": 0, "fusion_lat": 0.0, "fusion_lon": 0.0}, {"name": "cd4cc73d5a50b7b5e7a9d5193105276c", "is_disabled": 0, "lat": 38.92322033333333, "rental_uris": {"ios": "https://dc.lft.to/lastmile_qr_scan", "android": "https://dc.lft.to/lastmile_qr_scan"}, "bike_id": "cd4cc73d5a50b7b5e7a9d5193105276c", "type": "electric_scooter", "lon": -77.040332, "is_reserved": 0, "fusion_lat": 0.0, "fusion_lon": 0.0}, {"name": "c89af51350ba5ad3a0c35a1d8e18e815", "is_disabled": 0, "lat": 38.900822166666664, "rental_uris": {"ios": "https://dc.lft.to/lastmile_qr_scan", "android": "https://dc.lft.to/lastmile_qr_scan"}, "bike_id": "c89af51350ba5ad3a0c35a1d8e18e815", "type": "electric_scooter", "lon": -77.04906933333334, "is_reserved": 0, "fusion_lat": 0.0, "fusion_lon": 0.0}, {"name": "c390dc49a7c1933144d1cfd90bc1dec6", "is_disabled": 0, "lat": 38.8766015, "rental_uris": {"ios": "https://dc.lft.to/lastmile_qr_scan", "android": "https://dc.lft.to/lastmile_qr_scan"}, "bike_id": "c390dc49a7c1933144d1cfd90bc1dec6", "type": "electric_scooter", "lon": -77.00112216666666, "is_reserved": 0, "fusion_lat": 0.0, "fusion_lon": 0.0}, {"name": "f8c014abf9734af72fda6895175d2f8c", "is_disabled": 0, "lat": 38.9056815, "rental_uris": {"ios": "https://dc.lft.to/lastmile_qr_scan", "android": "https://dc.lft.to/lastmile_qr_scan"}, "bike_id": "f8c014abf9734af72fda6895175d2f8c", "type": "electric_scooter", "lon": -77.02417533333333, "is_reserved": 0, "fusion_lat": 0.0, "fusion_lon": 0.0}, {"name": "67062dce0d8608a283ba3f3deadff47a", "is_disabled": 0, "lat": 38.877662666666666, "rental_uris": {"ios": "https://dc.lft.to/lastmile_qr_scan", "android": "https://dc.lft.to/lastmile_qr_scan"}, "bike_id": "67062dce0d8608a283ba3f3deadff47a", "type": "electric_scooter", "lon": -77.007583, "is_reserved": 0, "fusion_lat": 0.0, "fusion_lon": 0.0}, {"name": "5d1eeb00c3c3adfd3cbd1540260051a2", "is_disabled": 0, "lat": 38.91763783333333, "rental_uris": {"ios": "https://dc.lft.to/lastmile_qr_scan", "android": "https://dc.lft.to/lastmile_qr_scan"}, "bike_id": "5d1eeb00c3c3adfd3cbd1540260051a2", "type": "electric_scooter", "lon": -77.02806916666667, "is_reserved": 0, "fusion_lat": 0.0, "fusion_lon": 0.0}, {"name": "7e5714896ee548429037cfca16ee27c0", "is_disabled": 0, "lat": 38.91809466666667, "rental_uris": {"ios": "https://dc.lft.to/lastmile_qr_scan", "android": "https://dc.lft.to/lastmile_qr_scan"}, "bike_id": "7e5714896ee548429037cfca16ee27c0", "type": "electric_scooter", "lon": -77.02681666666666, "is_reserved": 0, "fusion_lat": 0.0, "fusion_lon": 0.0}, {"name": "406d7531cc415178cca81ef820207bce", "is_disabled": 0, "lat": 38.918202666666666, "rental_uris": {"ios": "https://dc.lft.to/lastmile_qr_scan", "android": "https://dc.lft.to/lastmile_qr_scan"}, "bike_id": "406d7531cc415178cca81ef820207bce", "type": "electric_scooter", "lon": -77.037492, "is_reserved": 0, "fusion_lat": 0.0, "fusion_lon": 0.0}, {"name": "19a4f9f669facacee4883de2e54c55d6", "is_disabled": 0, "lat": 38.91292416666667, "rental_uris": {"ios": "https://dc.lft.to/lastmile_qr_scan", "android": "https://dc.lft.to/lastmile_qr_scan"}, "bike_id": "19a4f9f669facacee4883de2e54c55d6", "type": "electric_scooter", "lon": -77.02385216666667, "is_reserved": 0, "fusion_lat": 0.0, "fusion_lon": 0.0}, {"name": "9fb62cdc19fd4203ddcb201e887b9080", "is_disabled": 0, "lat": 38.886973166666664, "rental_uris": {"ios": "https://dc.lft.to/lastmile_qr_scan", "android": "https://dc.lft.to/lastmile_qr_scan"}, "bike_id": "9fb62cdc19fd4203ddcb201e887b9080", "type": "electric_scooter", "lon": -76.9763905, "is_reserved": 0, "fusion_lat": 0.0, "fusion_lon": 0.0}, {"name": "400200feea6d003b53dd4087a0e9d4ff", "is_disabled": 0, "lat": 38.89734133333333, "rental_uris": {"ios": "https://dc.lft.to/lastmile_qr_scan", "android": "https://dc.lft.to/lastmile_qr_scan"}, "bike_id": "400200feea6d003b53dd4087a0e9d4ff", "type": "electric_scooter", "lon": -77.02742766666667, "is_reserved": 0, "fusion_lat": 0.0, "fusion_lon": 0.0}, {"name": "26ea0cbb74d1951dcf1069b797ff91a2", "is_disabled": 0, "lat": 38.916864, "rental_uris": {"ios": "https://dc.lft.to/lastmile_qr_scan", "android": "https://dc.lft.to/lastmile_qr_scan"}, "bike_id": "26ea0cbb74d1951dcf1069b797ff91a2", "type": "electric_scooter", "lon": -77.0228855, "is_reserved": 0, "fusion_lat": 0.0, "fusion_lon": 0.0}, {"name": "4ce7f2370df37b33bd4396ddf852d5e1", "is_disabled": 0, "lat": 38.917189, "rental_uris": {"ios": "https://dc.lft.to/lastmile_qr_scan", "android": "https://dc.lft.to/lastmile_qr_scan"}, "bike_id": "4ce7f2370df37b33bd4396ddf852d5e1", "type": "electric_scooter", "lon": -77.02795516666667, "is_reserved": 0, "fusion_lat": 0.0, "fusion_lon": 0.0}, {"name": "f0e747a19f2e27b0fdf2c9489a96f129", "is_disabled": 0, "lat": 38.92654983333333, "rental_uris": {"ios": "https://dc.lft.to/lastmile_qr_scan", "android": "https://dc.lft.to/lastmile_qr_scan"}, "bike_id": "f0e747a19f2e27b0fdf2c9489a96f129", "type": "electric_scooter", "lon": -77.04315683333333, "is_reserved": 0, "fusion_lat": 0.0, "fusion_lon": 0.0}, {"name": "21447cec7bf3d1c83bbfe70865be6149", "is_disabled": 0, "lat": 38.89732766666667, "rental_uris": {"ios": "https://dc.lft.to/lastmile_qr_scan", "android": "https://dc.lft.to/lastmile_qr_scan"}, "bike_id": "21447cec7bf3d1c83bbfe70865be6149", "type": "electric_scooter", "lon": -77.05522616666667, "is_reserved": 0, "fusion_lat": 0.0, "fusion_lon": 0.0}, {"name": "542ec321345a4687919879de611e7fe1", "is_disabled": 0, "lat": 38.90729733333333, "rental_uris": {"ios": "https://dc.lft.to/lastmile_qr_scan", "android": "https://dc.lft.to/lastmile_qr_scan"}, "bike_id": "542ec321345a4687919879de611e7fe1", "type": "electric_scooter", "lon": -77.032932, "is_reserved": 0, "fusion_lat": 0.0, "fusion_lon": 0.0}, {"name": "c922592faa8130c0dc14451f8a96b580", "is_disabled": 0, "lat": 38.898552, "rental_uris": {"ios": "https://dc.lft.to/lastmile_qr_scan", "android": "https://dc.lft.to/lastmile_qr_scan"}, "bike_id": "c922592faa8130c0dc14451f8a96b580", "type": "electric_bike", "lon": -76.93188916666666, "is_reserved": 0, "fusion_lat": 0.0, "fusion_lon": 0.0}, {"name": "aa50dd248578a28577c74f7c1161d041", "is_disabled": 0, "lat": 38.906891, "rental_uris": {"ios": "https://dc.lft.to/lastmile_qr_scan", "android": "https://dc.lft.to/lastmile_qr_scan"}, "bike_id": "aa50dd248578a28577c74f7c1161d041", "type": "electric_scooter", "lon": -77.0365965, "is_reserved": 0, "fusion_lat": 0.0, "fusion_lon": 0.0}, {"name": "6cf45a683c9f0e1db107f9856bb34154", "is_disabled": 0, "lat": 38.869914, "rental_uris": {"ios": "https://dc.lft.to/lastmile_qr_scan", "android": "https://dc.lft.to/lastmile_qr_scan"}, "bike_id": "6cf45a683c9f0e1db107f9856bb34154", "type": "electric_scooter", "lon": -76.977271, "is_reserved": 0, "fusion_lat": 0.0, "fusion_lon": 0.0}, {"name": "b8bd962ed7c303a449d7dbace32c008b", "is_disabled": 0, "lat": 38.84757533333333, "rental_uris": {"ios": "https://dc.lft.to/lastmile_qr_scan", "android": "https://dc.lft.to/lastmile_qr_scan"}, "bike_id": "b8bd962ed7c303a449d7dbace32c008b", "type": "electric_scooter", "lon": -76.99502416666667, "is_reserved": 0, "fusion_lat": 0.0, "fusion_lon": 0.0}, {"name": "0396cce3f30b31d9204535be8c9e079d", "is_disabled": 0, "lat": 38.9159915, "rental_uris": {"ios": "https://dc.lft.to/lastmile_qr_scan", "android": "https://dc.lft.to/lastmile_qr_scan"}, "bike_id": "0396cce3f30b31d9204535be8c9e079d", "type": "electric_scooter", "lon": -76.9936315, "is_reserved": 0, "fusion_lat": 0.0, "fusion_lon": 0.0}, {"name": "b2e918b274e274e7b1ed1755b94841ef", "is_disabled": 0, "lat": 38.954254, "rental_uris": {"ios": "https://dc.lft.to/lastmile_qr_scan", "android": "https://dc.lft.to/lastmile_qr_scan"}, "bike_id": "b2e918b274e274e7b1ed1755b94841ef", "type": "electric_scooter", "lon": -77.02763866666666, "is_reserved": 0, "fusion_lat": 0.0, "fusion_lon": 0.0}, {"name": "939bfbb97a5297e6888aec212333c894", "is_disabled": 0, "lat": 38.875295666666666, "rental_uris": {"ios": "https://dc.lft.to/lastmile_qr_scan", "android": "https://dc.lft.to/lastmile_qr_scan"}, "bike_id": "939bfbb97a5297e6888aec212333c894", "type": "electric_scooter", "lon": -77.0005845, "is_reserved": 0, "fusion_lat": 0.0, "fusion_lon": 0.0}, {"name": "76d8070643d46184bd5e233ab1d99c5e", "is_disabled": 0, "lat": 38.8536205, "rental_uris": {"ios": "https://dc.lft.to/lastmile_qr_scan", "android": "https://dc.lft.to/lastmile_qr_scan"}, "bike_id": "76d8070643d46184bd5e233ab1d99c5e", "type": "electric_bike", "lon": -77.13466383333333, "is_reserved": 0, "fusion_lat": 0.0, "fusion_lon": 0.0}, {"name": "63969681a7cc49be2caef69cd7342467", "is_disabled": 0, "lat": 38.916809666666666, "rental_uris": {"ios": "https://dc.lft.to/lastmile_qr_scan", "android": "https://dc.lft.to/lastmile_qr_scan"}, "bike_id": "63969681a7cc49be2caef69cd7342467", "type": "electric_scooter", "lon": -77.02976116666666, "is_reserved": 0, "fusion_lat": 0.0, "fusion_lon": 0.0}, {"name": "3ead24575c55cb94135fe7a4ef47e7f9", "is_disabled": 0, "lat": 38.89235383333333, "rental_uris": {"ios": "https://dc.lft.to/lastmile_qr_scan", "android": "https://dc.lft.to/lastmile_qr_scan"}, "bike_id": "3ead24575c55cb94135fe7a4ef47e7f9", "type": "electric_scooter", "lon": -77.0281005, "is_reserved": 0, "fusion_lat": 0.0, "fusion_lon": 0.0}, {"name": "fb93789f57e379aa056be11e610402c2", "is_disabled": 0, "lat": 38.914160833333334, "rental_uris": {"ios": "https://dc.lft.to/lastmile_qr_scan", "android": "https://dc.lft.to/lastmile_qr_scan"}, "bike_id": "fb93789f57e379aa056be11e610402c2", "type": "electric_scooter", "lon": -77.021158, "is_reserved": 0, "fusion_lat": 0.0, "fusion_lon": 0.0}, {"name": "9a3b2002f8d6ec2f01fd3903417a637c", "is_disabled": 0, "lat": 38.92657833333333, "rental_uris": {"ios": "https://dc.lft.to/lastmile_qr_scan", "android": "https://dc.lft.to/lastmile_qr_scan"}, "bike_id": "9a3b2002f8d6ec2f01fd3903417a637c", "type": "electric_scooter", "lon": -77.03840116666667, "is_reserved": 0, "fusion_lat": 0.0, "fusion_lon": 0.0}, {"name": "ba2d85a82b8f729a2c982d0e55783a7d", "is_disabled": 0, "lat": 38.8331705, "rental_uris": {"ios": "https://dc.lft.to/lastmile_qr_scan", "android": "https://dc.lft.to/lastmile_qr_scan"}, "bike_id": "ba2d85a82b8f729a2c982d0e55783a7d", "type": "electric_bike", "lon": -77.0417455, "is_reserved": 0, "fusion_lat": 0.0, "fusion_lon": 0.0}, {"name": "86db978ae1a6443c93fd3bc45e3d6192", "is_disabled": 0, "lat": 38.91069483333333, "rental_uris": {"ios": "https://dc.lft.to/lastmile_qr_scan", "android": "https://dc.lft.to/lastmile_qr_scan"}, "bike_id": "86db978ae1a6443c93fd3bc45e3d6192", "type": "electric_scooter", "lon": -77.032023, "is_reserved": 0, "fusion_lat": 0.0, "fusion_lon": 0.0}, {"name": "bf242de45f6778fc66f5e027a800d59c", "is_disabled": 0, "lat": 38.91772683333333, "rental_uris": {"ios": "https://dc.lft.to/lastmile_qr_scan", "android": "https://dc.lft.to/lastmile_qr_scan"}, "bike_id": "bf242de45f6778fc66f5e027a800d59c", "type": "electric_scooter", "lon": -77.02270033333333, "is_reserved": 0, "fusion_lat": 0.0, "fusion_lon": 0.0}, {"name": "ce050c9de1a92fe9ee173e29ea025c32", "is_disabled": 0, "lat": 38.90235033333333, "rental_uris": {"ios": "https://dc.lft.to/lastmile_qr_scan", "android": "https://dc.lft.to/lastmile_qr_scan"}, "bike_id": "ce050c9de1a92fe9ee173e29ea025c32", "type": "electric_scooter", "lon": -77.03771216666667, "is_reserved": 0, "fusion_lat": 0.0, "fusion_lon": 0.0}, {"name": "82c90ab1eea2751859abe543a01ce85b", "is_disabled": 0, "lat": 38.945457, "rental_uris": {"ios": "https://dc.lft.to/lastmile_qr_scan", "android": "https://dc.lft.to/lastmile_qr_scan"}, "bike_id": "82c90ab1eea2751859abe543a01ce85b", "type": "electric_scooter", "lon": -77.01688766666666, "is_reserved": 0, "fusion_lat": 0.0, "fusion_lon": 0.0}, {"name": "b5ad8e4c7a851659fb3b2c2a153462c5", "is_disabled": 0, "lat": 39.099643666666665, "rental_uris": {"ios": "https://dc.lft.to/lastmile_qr_scan", "android": "https://dc.lft.to/lastmile_qr_scan"}, "bike_id": "b5ad8e4c7a851659fb3b2c2a153462c5", "type": "electric_bike", "lon": -77.18310483333333, "is_reserved": 0, "fusion_lat": 0.0, "fusion_lon": 0.0}, {"name": "c6178173a43321917820a0af91934404", "is_disabled": 0, "lat": 38.899469, "rental_uris": {"ios": "https://dc.lft.to/lastmile_qr_scan", "android": "https://dc.lft.to/lastmile_qr_scan"}, "bike_id": "c6178173a43321917820a0af91934404", "type": "electric_scooter", "lon": -77.02962366666667, "is_reserved": 0, "fusion_lat": 0.0, "fusion_lon": 0.0}, {"name": "4a54047186ea58ac2f905299f8b935b8", "is_disabled": 0, "lat": 38.90850616666667, "rental_uris": {"ios": "https://dc.lft.to/lastmile_qr_scan", "android": "https://dc.lft.to/lastmile_qr_scan"}, "bike_id": "4a54047186ea58ac2f905299f8b935b8", "type": "electric_scooter", "lon": -77.03452816666666, "is_reserved": 0, "fusion_lat": 0.0, "fusion_lon": 0.0}, {"name": "14eab3ed660344fec82e070f8ec08453", "is_disabled": 0, "lat": 38.9250995, "rental_uris": {"ios": "https://dc.lft.to/lastmile_qr_scan", "android": "https://dc.lft.to/lastmile_qr_scan"}, "bike_id": "14eab3ed660344fec82e070f8ec08453", "type": "electric_scooter", "lon": -77.03788733333333, "is_reserved": 0, "fusion_lat": 0.0, "fusion_lon": 0.0}, {"name": "2f021ae32bfec023907c18e3bb368a5b", "is_disabled": 0, "lat": 38.910222166666664, "rental_uris": {"ios": "https://dc.lft.to/lastmile_qr_scan", "android": "https://dc.lft.to/lastmile_qr_scan"}, "bike_id": "2f021ae32bfec023907c18e3bb368a5b", "type": "electric_scooter", "lon": -76.9972515, "is_reserved": 0, "fusion_lat": 0.0, "fusion_lon": 0.0}, {"name": "4b364a360564a47e92c0b46328c78637", "is_disabled": 0, "lat": 38.895595666666665, "rental_uris": {"ios": "https://dc.lft.to/lastmile_qr_scan", "android": "https://dc.lft.to/lastmile_qr_scan"}, "bike_id": "4b364a360564a47e92c0b46328c78637", "type": "electric_scooter", "lon": -76.94878266666667, "is_reserved": 0, "fusion_lat": 0.0, "fusion_lon": 0.0}, {"name": "194eda9bdc8179615e987b425772ba7c", "is_disabled": 0, "lat": 38.915505333333336, "rental_uris": {"ios": "https://dc.lft.to/lastmile_qr_scan", "android": "https://dc.lft.to/lastmile_qr_scan"}, "bike_id": "194eda9bdc8179615e987b425772ba7c", "type": "electric_scooter", "lon": -77.03856383333333, "is_reserved": 0, "fusion_lat": 0.0, "fusion_lon": 0.0}, {"name": "c4eac722e57bdf72bd483d48a664c0ff", "is_disabled": 0, "lat": 38.897536833333334, "rental_uris": {"ios": "https://dc.lft.to/lastmile_qr_scan", "android": "https://dc.lft.to/lastmile_qr_scan"}, "bike_id": "c4eac722e57bdf72bd483d48a664c0ff", "type": "electric_scooter", "lon": -77.03000316666666, "is_reserved": 0, "fusion_lat": 0.0, "fusion_lon": 0.0}, {"name": "692a20f9515a7b41f0f32ae933a8e47c", "is_disabled": 0, "lat": 38.892864, "rental_uris": {"ios": "https://dc.lft.to/lastmile_qr_scan", "android": "https://dc.lft.to/lastmile_qr_scan"}, "bike_id": "692a20f9515a7b41f0f32ae933a8e47c", "type": "electric_scooter", "lon": -77.032217, "is_reserved": 0, "fusion_lat": 0.0, "fusion_lon": 0.0}, {"name": "d7eb174b762a58cf87ee575439b055c0", "is_disabled": 0, "lat": 38.89478233333333, "rental_uris": {"ios": "https://dc.lft.to/lastmile_qr_scan", "android": "https://dc.lft.to/lastmile_qr_scan"}, "bike_id": "d7eb174b762a58cf87ee575439b055c0", "type": "electric_scooter", "lon": -77.00309316666667, "is_reserved": 0, "fusion_lat": 0.0, "fusion_lon": 0.0}, {"name": "6a57ff85e54b887575a7beee6ccf5a3a", "is_disabled": 0, "lat": 38.910398, "rental_uris": {"ios": "https://dc.lft.to/lastmile_qr_scan", "android": "https://dc.lft.to/lastmile_qr_scan"}, "bike_id": "6a57ff85e54b887575a7beee6ccf5a3a", "type": "electric_scooter", "lon": -77.0427545, "is_reserved": 0, "fusion_lat": 0.0, "fusion_lon": 0.0}, {"name": "cfc602c61e034b1d59f79d29e4255175", "is_disabled": 0, "lat": 38.931180166666664, "rental_uris": {"ios": "https://dc.lft.to/lastmile_qr_scan", "android": "https://dc.lft.to/lastmile_qr_scan"}, "bike_id": "cfc602c61e034b1d59f79d29e4255175", "type": "electric_scooter", "lon": -77.02098266666667, "is_reserved": 0, "fusion_lat": 0.0, "fusion_lon": 0.0}, {"name": "2c67d69f2ec7f93e2b3549039ee8cdb4", "is_disabled": 0, "lat": 38.917654666666664, "rental_uris": {"ios": "https://dc.lft.to/lastmile_qr_scan", "android": "https://dc.lft.to/lastmile_qr_scan"}, "bike_id": "2c67d69f2ec7f93e2b3549039ee8cdb4", "type": "electric_scooter", "lon": -77.06952433333333, "is_reserved": 0, "fusion_lat": 0.0, "fusion_lon": 0.0}, {"name": "713e3939586f141187b9f0cf85bb409b", "is_disabled": 0, "lat": 38.89471983333333, "rental_uris": {"ios": "https://dc.lft.to/lastmile_qr_scan", "android": "https://dc.lft.to/lastmile_qr_scan"}, "bike_id": "713e3939586f141187b9f0cf85bb409b", "type": "electric_scooter", "lon": -77.017648, "is_reserved": 0, "fusion_lat": 0.0, "fusion_lon": 0.0}, {"name": "c1da4bce695471bb6e8f39e795fcfca7", "is_disabled": 0, "lat": 38.923561166666666, "rental_uris": {"ios": "https://dc.lft.to/lastmile_qr_scan", "android": "https://dc.lft.to/lastmile_qr_scan"}, "bike_id": "c1da4bce695471bb6e8f39e795fcfca7", "type": "electric_scooter", "lon": -77.033171, "is_reserved": 0, "fusion_lat": 0.0, "fusion_lon": 0.0}, {"name": "35a052237a1c75a854557456d30128d1", "is_disabled": 0, "lat": 38.92648583333333, "rental_uris": {"ios": "https://dc.lft.to/lastmile_qr_scan", "android": "https://dc.lft.to/lastmile_qr_scan"}, "bike_id": "35a052237a1c75a854557456d30128d1", "type": "electric_scooter", "lon": -77.0413315, "is_reserved": 0, "fusion_lat": 0.0, "fusion_lon": 0.0}, {"name": "7eefc49409cabe9c758358635faea147", "is_disabled": 0, "lat": 38.874693, "rental_uris": {"ios": "https://dc.lft.to/lastmile_qr_scan", "android": "https://dc.lft.to/lastmile_qr_scan"}, "bike_id": "7eefc49409cabe9c758358635faea147", "type": "electric_scooter", "lon": -77.00476183333333, "is_reserved": 0, "fusion_lat": 0.0, "fusion_lon": 0.0}, {"name": "becf0137208b7f5feb6a21749bda1d96", "is_disabled": 0, "lat": 38.873886666666664, "rental_uris": {"ios": "https://dc.lft.to/lastmile_qr_scan", "android": "https://dc.lft.to/lastmile_qr_scan"}, "bike_id": "becf0137208b7f5feb6a21749bda1d96", "type": "electric_scooter", "lon": -77.00065816666667, "is_reserved": 0, "fusion_lat": 0.0, "fusion_lon": 0.0}, {"name": "737b484828fd5f18f3ee33207303d4d5", "is_disabled": 0, "lat": 38.93240383333333, "rental_uris": {"ios": "https://dc.lft.to/lastmile_qr_scan", "android": "https://dc.lft.to/lastmile_qr_scan"}, "bike_id": "737b484828fd5f18f3ee33207303d4d5", "type": "electric_scooter", "lon": -76.99528833333333, "is_reserved": 0, "fusion_lat": 0.0, "fusion_lon": 0.0}, {"name": "399500fccf0b2c5b6ea7784f6e8c56e1", "is_disabled": 0, "lat": 38.927601333333335, "rental_uris": {"ios": "https://dc.lft.to/lastmile_qr_scan", "android": "https://dc.lft.to/lastmile_qr_scan"}, "bike_id": "399500fccf0b2c5b6ea7784f6e8c56e1", "type": "electric_scooter", "lon": -77.0296035, "is_reserved": 0, "fusion_lat": 0.0, "fusion_lon": 0.0}, {"name": "fe93322acc2392b26f07c319286a788d", "is_disabled": 0, "lat": 38.903876333333336, "rental_uris": {"ios": "https://dc.lft.to/lastmile_qr_scan", "android": "https://dc.lft.to/lastmile_qr_scan"}, "bike_id": "fe93322acc2392b26f07c319286a788d", "type": "electric_scooter", "lon": -77.033285, "is_reserved": 0, "fusion_lat": 0.0, "fusion_lon": 0.0}, {"name": "2b9e8dfd299e181b2643d0c2798d8d15", "is_disabled": 0, "lat": 38.89527116666667, "rental_uris": {"ios": "https://dc.lft.to/lastmile_qr_scan", "android": "https://dc.lft.to/lastmile_qr_scan"}, "bike_id": "2b9e8dfd299e181b2643d0c2798d8d15", "type": "electric_scooter", "lon": -77.0021, "is_reserved": 0, "fusion_lat": 0.0, "fusion_lon": 0.0}, {"name": "338c3f064da3f90fd43def80e1961024", "is_disabled": 0, "lat": 38.902876, "rental_uris": {"ios": "https://dc.lft.to/lastmile_qr_scan", "android": "https://dc.lft.to/lastmile_qr_scan"}, "bike_id": "338c3f064da3f90fd43def80e1961024", "type": "electric_scooter", "lon": -77.03640683333333, "is_reserved": 0, "fusion_lat": 0.0, "fusion_lon": 0.0}, {"name": "8a273a0aa8d8c3a94b33fcb052064713", "is_disabled": 0, "lat": 38.91071316666667, "rental_uris": {"ios": "https://dc.lft.to/lastmile_qr_scan", "android": "https://dc.lft.to/lastmile_qr_scan"}, "bike_id": "8a273a0aa8d8c3a94b33fcb052064713", "type": "electric_scooter", "lon": -77.04262866666667, "is_reserved": 0, "fusion_lat": 0.0, "fusion_lon": 0.0},