{"data": {"bikes": [{"rental_uris": {"ios": "https://dc.lft.to/lastmile_qr_scan", "android": "https://dc.lft.to/lastmile_qr_scan"}, "lon": -77.0428935, "type": "electric_scooter", "fusion_lat": 0.0, "lat": 38.907933166666666, "name": "59c01bb6433ca2a4a1a37389a0834ecc", "fusion_lon": 0.0, "bike_id": "59c01bb6433ca2a4a1a37389a0834ecc", "is_disabled": 0, "is_reserved": 0}, {"rental_uris": {"ios": "https://dc.lft.to/lastmile_qr_scan", "android": "https://dc.lft.to/lastmile_qr_scan"}, "lon": -77.02958966666667, "type": "electric_scooter", "fusion_lat": 0.0, "lat": 38.9242715, "name": "2d1baa6780235a0fbffec7edeb51819b", "fusion_lon": 0.0, "bike_id": "2d1baa6780235a0fbffec7edeb51819b", "is_disabled": 0, "is_reserved": 0}, {"rental_uris": {"ios": "https://dc.lft.to/lastmile_qr_scan", "android": "https://dc.lft.to/lastmile_qr_scan"}, "lon": -77.06317083333333, "type": "electric_scooter", "fusion_lat": 0.0, "lat": 38.9051715, "name": "5530766412a7eaa873a93b1f5f91627d", "fusion_lon": 0.0, "bike_id": "5530766412a7eaa873a93b1f5f91627d", "is_disabled": 0, "is_reserved": 0}, {"rental_uris": {"ios": "https://dc.lft.to/lastmile_qr_scan", "android": "https://dc.lft.to/lastmile_qr_scan"}, "lon": -77.00883783333333, "type": "electric_scooter", "fusion_lat": 0.0, "lat": 38.9051835, "name": "6125eee7435f9f6cc57b7cda83a683f5", "fusion_lon": 0.0, "bike_id": "6125eee7435f9f6cc57b7cda83a683f5", "is_disabled": 0, "is_reserved": 0}, {"rental_uris": {"ios": "https://dc.lft.to/lastmile_qr_scan", "android": "https://dc.lft.to/lastmile_qr_scan"}, "lon": -77.00031733333333, "type": "electric_scooter", "fusion_lat": 0.0, "lat": 38.908667666666666, "name": "1d892fd712c3970f9af98e1c4c4ed274", "fusion_lon": 0.0, "bike_id": "1d892fd712c3970f9af98e1c4c4ed274", "is_disabled": 0, "is_reserved": 0}, {"rental_uris": {"ios": "https://dc.lft.to/lastmile_qr_scan", "android": "https://dc.lft.to/lastmile_qr_scan"}, "lon": -76.9518215, "type": "electric_scooter", "fusion_lat": 0.0, "lat": 38.89133316666667, "name": "d34df22dc4ef92e8d21aae328e3b2714", "fusion_lon": 0.0, "bike_id": "d34df22dc4ef92e8d21aae328e3b2714", "is_disabled": 0, "is_reserved": 0}, {"rental_uris": {"ios": "https://dc.lft.to/lastmile_qr_scan", "android": "https://dc.lft.to/lastmile_qr_scan"}, "lon": -77.0431555, "type": "electric_scooter", "fusion_lat": 0.0, "lat": 38.923781166666664, "name": "83457527edf3834f1e64e64c85384ffc", "fusion_lon": 0.0, "bike_id": "83457527edf3834f1e64e64c85384ffc", "is_disabled": 0, "is_reserved": 0}, {"rental_uris": {"ios": "https://dc.lft.to/lastmile_qr_scan", "android": "https://dc.lft.to/lastmile_qr_scan"}, "lon": -77.02696983333334, "type": "electric_scooter", "fusion_lat": 0.0, "lat": 38.9068245, "name": "7cb258d2c47e0b3d8854adc6b6f0a5c1", "fusion_lon": 0.0, "bike_id": "7cb258d2c47e0b3d8854adc6b6f0a5c1", "is_disabled": 0, "is_reserved": 0}, {"rental_uris": {"ios": "https://dc.lft.to/lastmile_qr_scan", "android": "https://dc.lft.to/lastmile_qr_scan"}, "lon": -77.016357, "type": "electric_scooter", "fusion_lat": 0.0, "lat": 38.929421166666664, "name": "88e2c2df5c8992a71a0d2a2cf4acb6f1", "fusion_lon": 0.0, "bike_id": "88e2c2df5c8992a71a0d2a2cf4acb6f1", "is_disabled": 0, "is_reserved": 0}, {"rental_uris": {"ios": "https://dc.lft.to/lastmile_qr_scan", "android": "https://dc.lft.to/lastmile_qr_scan"}, "lon": -77.03520433333334, "type": "electric_scooter", "fusion_lat": 0.0, "lat": 38.90700833333333, "name": "e55fa9a0b053049ebbbbcb330f88e295", "fusion_lon": 0.0, "bike_id": "e55fa9a0b053049ebbbbcb330f88e295", "is_disabled": 0, "is_reserved": 0}, {"rental_uris": {"ios": "https://dc.lft.to/lastmile_qr_scan", "android": "https://dc.lft.to/lastmile_qr_scan"}, "lon": -77.06035166666666, "type": "electric_scooter", "fusion_lat": 0.0, "lat": 38.9052985, "name": "cbcda5e21a6279cb21dbfd9de3c22ac0", "fusion_lon": 0.0, "bike_id": "cbcda5e21a6279cb21dbfd9de3c22ac0", "is_disabled": 0, "is_reserved": 0}, {"rental_uris": {"ios": "https://dc.lft.to/lastmile_qr_scan", "android": "https://dc.lft.to/lastmile_qr_scan"}, "lon": -77.02793283333334, "type": "electric_scooter", "fusion_lat": 0.0, "lat": 38.89722166666667, "name": "fbe3303965569604dd4dd32efa7e316e", "fusion_lon": 0.0, "bike_id": "fbe3303965569604dd4dd32efa7e316e", "is_disabled": 0, "is_reserved": 0}, {"rental_uris": {"ios": "https://dc.lft.to/lastmile_qr_scan", "android": "https://dc.lft.to/lastmile_qr_scan"}, "lon": -77.02238683333333, "type": "electric_scooter", "fusion_lat": 0.0, "lat": 38.916453833333335, "name": "57bec19eee2ad3d0c9c40017f365d686", "fusion_lon": 0.0, "bike_id": "57bec19eee2ad3d0c9c40017f365d686", "is_disabled": 0, "is_reserved": 0}, {"rental_uris": {"ios": "https://dc.lft.to/lastmile_qr_scan", "android": "https://dc.lft.to/lastmile_qr_scan"}, "lon": -77.0467335, "type": "electric_scooter", "fusion_lat": 0.0, "lat": 38.90099633333333, "name": "8c5025d07af3faf555eb65fecda8e21d", "fusion_lon": 0.0, "bike_id": "8c5025d07af3faf555eb65fecda8e21d", "is_disabled": 0, "is_reserved": 0}, {"rental_uris": {"ios": "https://dc.lft.to/lastmile_qr_scan", "android": "https://dc.lft.to/lastmile_qr_scan"}, "lon": -76.96844283333333, "type": "electric_scooter", "fusion_lat": 0.0, "lat": 38.8746925, "name": "5768c79500261881dfe2d9876b0cc290", "fusion_lon": 0.0, "bike_id": "5768c79500261881dfe2d9876b0cc290", "is_disabled": 0, "is_reserved": 0}, {"rental_uris": {"ios": "https://dc.lft.to/lastmile_qr_scan", "android": "https://dc.lft.to/lastmile_qr_scan"}, "lon": -76.99545133333334, "type": "electric_scooter", "fusion_lat": 0.0, "lat": 38.901281166666664, "name": "5c9f0b3d5970d548e1b062785c39df63", "fusion_lon": 0.0, "bike_id": "5c9f0b3d5970d548e1b062785c39df63", "is_disabled": 0, "is_reserved": 0}, {"rental_uris": {"ios": "https://dc.lft.to/lastmile_qr_scan", "android": "https://dc.lft.to/lastmile_qr_scan"}, "lon": -76.99693833333333, "type": "electric_scooter", "fusion_lat": 0.0, "lat": 38.900737666666664, "name": "0611cca63ed348799a4ec2cc2ab63759", "fusion_lon": 0.0, "bike_id": "0611cca63ed348799a4ec2cc2ab63759", "is_disabled": 0, "is_reserved": 0}, {"rental_uris": {"ios": "https://dc.lft.to/lastmile_qr_scan", "android": "https://dc.lft.to/lastmile_qr_scan"}, "lon": -77.029675, "type": "electric_scooter", "fusion_lat": 0.0, "lat": 38.922712833333335, "name": "e98059f07e6714082c0320df30070dfb", "fusion_lon": 0.0, "bike_id": "e98059f07e6714082c0320df30070dfb", "is_disabled": 0, "is_reserved": 0}, {"rental_uris": {"ios": "https://dc.lft.to/lastmile_qr_scan", "android": "https://dc.lft.to/lastmile_qr_scan"}, "lon": -77.02596133333333, "type": "electric_bike", "fusion_lat": 0.0, "lat": 38.962633333333336, "name": "17a07c3d7b81898f3274ec41f2b74cc2", "fusion_lon": 0.0, "bike_id": "17a07c3d7b81898f3274ec41f2b74cc2", "is_disabled": 0, "is_reserved": 0}, {"rental_uris": {"ios": "https://dc.lft.to/lastmile_qr_scan", "android": "https://dc.lft.to/lastmile_qr_scan"}, "lon": -76.94212766666666, "type": "electric_scooter", "fusion_lat": 0.0, "lat": 38.89675483333333, "name": "a3be2f389f015e7d3295ac8f8cb1dc60", "fusion_lon": 0.0, "bike_id": "a3be2f389f015e7d3295ac8f8cb1dc60", "is_disabled": 0, "is_reserved": 0}, {"rental_uris": {"ios": "https://dc.lft.to/lastmile_qr_scan", "android": "https://dc.lft.to/lastmile_qr_scan"}, "lon": -76.94996783333333, "type": "electric_scooter", "fusion_lat": 0.0, "lat": 38.893719, "name": "77cb53005faf493f06fa43ce081653a2", "fusion_lon": 0.0, "bike_id": "77cb53005faf493f06fa43ce081653a2", "is_disabled": 0, "is_reserved": 0}, {"rental_uris": {"ios": "https://dc.lft.to/lastmile_qr_scan", "android": "https://dc.lft.to/lastmile_qr_scan"}, "lon": -77.0212465, "type": "electric_scooter", "fusion_lat": 0.0, "lat": 38.89714333333333, "name": "b9d829520319ca16423f5d0b1e8af8c5", "fusion_lon": 0.0, "bike_id": "b9d829520319ca16423f5d0b1e8af8c5", "is_disabled": 0, "is_reserved": 0}, {"rental_uris": {"ios": "https://dc.lft.to/lastmile_qr_scan", "android": "https://dc.lft.to/lastmile_qr_scan"}, "lon": -77.03276033333333, "type": "electric_scooter", "fusion_lat": 0.0, "lat": 38.93332633333333, "name": "641f24075461258fcaa290f8719d7911", "fusion_lon": 0.0, "bike_id": "641f24075461258fcaa290f8719d7911", "is_disabled": 0, "is_reserved": 0}, {"rental_uris": {"ios": "https://dc.lft.to/lastmile_qr_scan", "android": "https://dc.lft.to/lastmile_qr_scan"}, "lon": -76.9322805, "type": "electric_bike", "fusion_lat": 0.0, "lat": 38.865939166666664, "name": "ef37dfae19f16e31706f749b7ef91d9d", "fusion_lon": 0.0, "bike_id": "ef37dfae19f16e31706f749b7ef91d9d", "is_disabled": 0, "is_reserved": 0}, {"rental_uris": {"ios": "https://dc.lft.to/lastmile_qr_scan", "android": "https://dc.lft.to/lastmile_qr_scan"}, "lon": -76.97288166666667, "type": "electric_scooter", "fusion_lat": 0.0, "lat": 38.903406833333335, "name": "81b4bff8e92c96e44c8656bee4125069", "fusion_lon": 0.0, "bike_id": "81b4bff8e92c96e44c8656bee4125069", "is_disabled": 0, "is_reserved": 0}, {"rental_uris": {"ios": "https://dc.lft.to/lastmile_qr_scan", "android": "https://dc.lft.to/lastmile_qr_scan"}, "lon": -77.05473483333333, "type": "electric_scooter", "fusion_lat": 0.0, "lat": 38.893913166666664, "name": "dc09801a2db9dac1c53bffaae64dd636", "fusion_lon": 0.0, "bike_id": "dc09801a2db9dac1c53bffaae64dd636", "is_disabled": 0, "is_reserved": 0}, {"rental_uris": {"ios": "https://dc.lft.to/lastmile_qr_scan", "android": "https://dc.lft.to/lastmile_qr_scan"}, "lon": -77.091997, "type": "electric_scooter", "fusion_lat": 0.0, "lat": 38.941364166666666, "name": "ad759a9b7fb7953b42c6032b0245038f", "fusion_lon": 0.0, "bike_id": "ad759a9b7fb7953b42c6032b0245038f", "is_disabled": 0, "is_reserved": 0}, {"rental_uris": {"ios": "https://dc.lft.to/lastmile_qr_scan", "android": "https://dc.lft.to/lastmile_qr_scan"}, "lon": -77.1295695, "type": "electric_bike", "fusion_lat": 0.0, "lat": 38.852189, "name": "b03803fa347e18442869626f29bbb80b", "fusion_lon": 0.0, "bike_id": "b03803fa347e18442869626f29bbb80b", "is_disabled": 0, "is_reserved": 0}, {"rental_uris": {"ios": "https://dc.lft.to/lastmile_qr_scan", "android": "https://dc.lft.to/lastmile_qr_scan"}, "lon": -76.99506966666667, "type": "electric_scooter", "fusion_lat": 0.0, "lat": 38.88604316666667, "name": "5a7d133d9b5bbe9ed5519d5cef8c87bf", "fusion_lon": 0.0, "bike_id": "5a7d133d9b5bbe9ed5519d5cef8c87bf", "is_disabled": 0, "is_reserved": 0}, {"rental_uris": {"ios": "https://dc.lft.to/lastmile_qr_scan", "android": "https://dc.lft.to/lastmile_qr_scan"}, "lon": -77.00732983333333, "type": "electric_scooter", "fusion_lat": 0.0, "lat": 38.8794315, "name": "59ed422749c8d9a1558d893f8a87c987", "fusion_lon": 0.0, "bike_id": "59ed422749c8d9a1558d893f8a87c987", "is_disabled": 0, "is_reserved": 0}, {"rental_uris": {"ios": "https://dc.lft.to/lastmile_qr_scan", "android": "https://dc.lft.to/lastmile_qr_scan"}, "lon": -76.96501883333333, "type": "electric_scooter", "fusion_lat": 0.0, "lat": 38.876483666666665, "name": "121101aa32dba012f964aa9edd44cbf6", "fusion_lon": 0.0, "bike_id": "121101aa32dba012f964aa9edd44cbf6", "is_disabled": 0, "is_reserved": 0}, {"rental_uris": {"ios": "https://dc.lft.to/lastmile_qr_scan", "android": "https://dc.lft.to/lastmile_qr_scan"}, "lon": -77.15263566666667, "type": "electric_bike", "fusion_lat": 0.0, "lat": 39.10566566666667, "name": "1ce0043beeacab5c6f60edbd0dcd6c0b", "fusion_lon": 0.0, "bike_id": "1ce0043beeacab5c6f60edbd0dcd6c0b", "is_disabled": 0, "is_reserved": 0}, {"rental_uris": {"ios": "https://dc.lft.to/lastmile_qr_scan", "android": "https://dc.lft.to/lastmile_qr_scan"}, "lon": -76.98328083333334, "type": "electric_scooter", "fusion_lat": 0.0, "lat": 38.861738833333334, "name": "0287a45d16961c65b3f29ebe688e379e", "fusion_lon": 0.0, "bike_id": "0287a45d16961c65b3f29ebe688e379e", "is_disabled": 0, "is_reserved": 0}, {"rental_uris": {"ios": "https://dc.lft.to/lastmile_qr_scan", "android": "https://dc.lft.to/lastmile_qr_scan"}, "lon": -76.996198, "type": "electric_scooter", "fusion_lat": 0.0, "lat": 38.88441816666667, "name": "b90217d85ea532d49f764c85fc56394f", "fusion_lon": 0.0, "bike_id": "b90217d85ea532d49f764c85fc56394f", "is_disabled": 0, "is_reserved": 0}, {"rental_uris": {"ios": "https://dc.lft.to/lastmile_qr_scan", "android": "https://dc.lft.to/lastmile_qr_scan"}, "lon": -76.95755483333333, "type": "electric_scooter", "fusion_lat": 0.0, "lat": 38.88434383333333, "name": "edba39afb5a67f1ffbed3c8b5caaf51c", "fusion_lon": 0.0, "bike_id": "edba39afb5a67f1ffbed3c8b5caaf51c", "is_disabled": 0, "is_reserved": 0}, {"rental_uris": {"ios": "https://dc.lft.to/lastmile_qr_scan", "android": "https://dc.lft.to/lastmile_qr_scan"}, "lon": -76.93792216666667, "type": "electric_scooter", "fusion_lat": 0.0, "lat": 38.890871, "name": "9f5264c26522a125d764262d4154ebe6", "fusion_lon": 0.0, "bike_id": "9f5264c26522a125d764262d4154ebe6", "is_disabled": 0, "is_reserved": 0}, {"rental_uris": {"ios": "https://dc.lft.to/lastmile_qr_scan", "android": "https://dc.lft.to/lastmile_qr_scan"}, "lon": -77.03521233333333, "type": "electric_scooter", "fusion_lat": 0.0, "lat": 38.914897333333336, "name": "5bb95d5d59cb7bd204f137870305ff3c", "fusion_lon": 0.0, "bike_id": "5bb95d5d59cb7bd204f137870305ff3c", "is_disabled": 0, "is_reserved": 0}, {"rental_uris": {"ios": "https://dc.lft.to/lastmile_qr_scan", "android": "https://dc.lft.to/lastmile_qr_scan"}, "lon": -77.0382925, "type": "electric_scooter", "fusion_lat": 0.0, "lat": 38.921750833333334, "name": "5d68e5a5f185056c4dd8efa30c471dbc", "fusion_lon": 0.0, "bike_id": "5d68e5a5f185056c4dd8efa30c471dbc", "is_disabled": 0, "is_reserved": 0}, {"rental_uris": {"ios": "https://dc.lft.to/lastmile_qr_scan", "android": "https://dc.lft.to/lastmile_qr_scan"}, "lon": -77.015717, "type": "electric_scooter", "fusion_lat": 0.0, "lat": 38.89062116666667, "name": "21abdb62b0cb9e36bee36deab025ad44", "fusion_lon": 0.0, "bike_id": "21abdb62b0cb9e36bee36deab025ad44", "is_disabled": 0, "is_reserved": 0}, {"rental_uris": {"ios": "https://dc.lft.to/lastmile_qr_scan", "android": "https://dc.lft.to/lastmile_qr_scan"}, "lon": -76.94864666666666, "type": "electric_scooter", "fusion_lat": 0.0, "lat": 38.895960333333335, "name": "b271b5c1c05137c49381d9796f234c43", "fusion_lon": 0.0, "bike_id": "b271b5c1c05137c49381d9796f234c43", "is_disabled": 0, "is_reserved": 0}, {"rental_uris": {"ios": "https://dc.lft.to/lastmile_qr_scan", "android": "https://dc.lft.to/lastmile_qr_scan"}, "lon": -77.07019766666667, "type": "electric_bike", "fusion_lat": 0.0, "lat": 38.906342, "name": "a6c0f7b8958f74bcf6578d0a2cc24aa9", "fusion_lon": 0.0, "bike_id": "a6c0f7b8958f74bcf6578d0a2cc24aa9", "is_disabled": 0, "is_reserved": 0}, {"rental_uris": {"ios": "https://dc.lft.to/lastmile_qr_scan", "android": "https://dc.lft.to/lastmile_qr_scan"}, "lon": -76.91650833333334, "type": "electric_bike", "fusion_lat": 0.0, "lat": 38.8685945, "name": "77d5344784958e2995e5e23d16849702", "fusion_lon": 0.0, "bike_id": "77d5344784958e2995e5e23d16849702", "is_disabled": 0, "is_reserved": 0}, {"rental_uris": {"ios": "https://dc.lft.to/lastmile_qr_scan", "android": "https://dc.lft.to/lastmile_qr_scan"}, "lon": -77.07149666666666, "type": "electric_bike", "fusion_lat": 0.0, "lat": 38.92994483333333, "name": "685099db30bddf5cb79ccc608f030d4b", "fusion_lon": 0.0, "bike_id": "685099db30bddf5cb79ccc608f030d4b", "is_disabled": 0, "is_reserved": 0}, {"rental_uris": {"ios": "https://dc.lft.to/lastmile_qr_scan", "android": "https://dc.lft.to/lastmile_qr_scan"}, "lon": -77.0324535, "type": "electric_scooter", "fusion_lat": 0.0, "lat": 38.93242766666667, "name": "405bdbe5da45ce6bf3caff27327e1756", "fusion_lon": 0.0, "bike_id": "405bdbe5da45ce6bf3caff27327e1756", "is_disabled": 0, "is_reserved": 0}, {"rental_uris": {"ios": "https://dc.lft.to/lastmile_qr_scan", "android": "https://dc.lft.to/lastmile_qr_scan"}, "lon": -77.162244, "type": "electric_bike", "fusion_lat": 0.0, "lat": 38.8866075, "name": "3df232fd960cf24816bf0dac34d820aa", "fusion_lon": 0.0, "bike_id": "3df232fd960cf24816bf0dac34d820aa", "is_disabled": 0, "is_reserved": 0}, {"rental_uris": {"ios": "https://dc.lft.to/lastmile_qr_scan", "android": "https://dc.lft.to/lastmile_qr_scan"}, "lon": -77.0415865, "type": "electric_scooter", "fusion_lat": 0.0, "lat": 38.913434, "name": "252fab7ac61e9ae57ac7872db785609d", "fusion_lon": 0.0, "bike_id": "252fab7ac61e9ae57ac7872db785609d", "is_disabled": 0, "is_reserved": 0}, {"rental_uris": {"ios": "https://dc.lft.to/lastmile_qr_scan", "android": "https://dc.lft.to/lastmile_qr_scan"}, "lon": -77.06513916666667, "type": "electric_scooter", "fusion_lat": 0.0, "lat": 38.905294166666664, "name": "bda55b02f4ca5e3fd4248d9da2111859", "fusion_lon": 0.0, "bike_id": "bda55b02f4ca5e3fd4248d9da2111859", "is_disabled": 0, "is_reserved": 0}, {"rental_uris": {"ios": "https://dc.lft.to/lastmile_qr_scan", "android": "https://dc.lft.to/lastmile_qr_scan"}, "lon": -77.044786, "type": "electric_scooter", "fusion_lat": 0.0, "lat": 38.91917516666667, "name": "519ea41cba1f70e9ad7ef9f4b0d0be6c", "fusion_lon": 0.0, "bike_id": "519ea41cba1f70e9ad7ef9f4b0d0be6c", "is_disabled": 0, "is_reserved": 0}, {"rental_uris": {"ios": "https://dc.lft.to/lastmile_qr_scan", "android": "https://dc.lft.to/lastmile_qr_scan"}, "lon": -77.025126, "type": "electric_scooter", "fusion_lat": 0.0, "lat": 38.90188933333334, "name": "1335d52f1c0ed0341ac6d145ebcfb182", "fusion_lon": 0.0, "bike_id": "1335d52f1c0ed0341ac6d145ebcfb182", "is_disabled": 0, "is_reserved": 0}, {"rental_uris": {"ios": "https://dc.lft.to/lastmile_qr_scan", "android": "https://dc.lft.to/lastmile_qr_scan"}, "lon": -77.00973566666667, "type": "electric_scooter", "fusion_lat": 0.0, "lat": 38.914174, "name": "143d970826cc4d04edaf72bd05f4caad", "fusion_lon": 0.0, "bike_id": "143d970826cc4d04edaf72bd05f4caad", "is_disabled": 0, "is_reserved": 0}, {"rental_uris": {"ios": "https://dc.lft.to/lastmile_qr_scan", "android": "https://dc.lft.to/lastmile_qr_scan"}, "lon": -77.007142, "type": "electric_scooter", "fusion_lat": 0.0, "lat": 38.87199433333333, "name": "1242820836e1b32a2f00c5674da9bea2", "fusion_lon": 0.0, "bike_id": "1242820836e1b32a2f00c5674da9bea2", "is_disabled": 0, "is_reserved": 0}, {"rental_uris": {"ios": "https://dc.lft.to/lastmile_qr_scan", "android": "https://dc.lft.to/lastmile_qr_scan"}, "lon": -77.03967, "type": "electric_scooter", "fusion_lat": 0.0, "lat": 38.9027935, "name": "73e6ab649c565432331eb8ad4d588586", "fusion_lon": 0.0, "bike_id": "73e6ab649c565432331eb8ad4d588586", "is_disabled": 0, "is_reserved": 0}, {"rental_uris": {"ios": "https://dc.lft.to/lastmile_qr_scan", "android": "https://dc.lft.to/lastmile_qr_scan"}, "lon": -77.03759216666667, "type": "electric_scooter", "fusion_lat": 0.0, "lat": 38.916941666666666, "name": "b2c1b4f5ecdd4ab7eb88c4a905191185", "fusion_lon": 0.0, "bike_id": "b2c1b4f5ecdd4ab7eb88c4a905191185", "is_disabled": 0, "is_reserved": 0}, {"rental_uris": {"ios": "https://dc.lft.to/lastmile_qr_scan", "android": "https://dc.lft.to/lastmile_qr_scan"}, "lon": -77.040509, "type": "electric_scooter", "fusion_lat": 0.0, "lat": 38.9264925, "name": "29055b6f45110d2a9b685510fa55e031", "fusion_lon": 0.0, "bike_id": "29055b6f45110d2a9b685510fa55e031", "is_disabled": 0, "is_reserved": 0}, {"rental_uris": {"ios": "https://dc.lft.to/lastmile_qr_scan", "android": "https://dc.lft.to/lastmile_qr_scan"}, "lon": -77.032052, "type": "electric_scooter", "fusion_lat": 0.0, "lat": 38.9172735, "name": "070f42de79f20a9e1b30ad4d26aa5b15", "fusion_lon": 0.0, "bike_id": "070f42de79f20a9e1b30ad4d26aa5b15", "is_disabled": 0, "is_reserved": 0}, {"rental_uris": {"ios": "https://dc.lft.to/lastmile_qr_scan", "android": "https://dc.lft.to/lastmile_qr_scan"}, "lon": -77.04126266666667, "type": "electric_scooter", "fusion_lat": 0.0, "lat": 38.92209066666667, "name": "525b44604e17d6c91d275bd4c16aca2e", "fusion_lon": 0.0, "bike_id": "525b44604e17d6c91d275bd4c16aca2e", "is_disabled": 0, "is_reserved": 0}, {"rental_uris": {"ios": "https://dc.lft.to/lastmile_qr_scan", "android": "https://dc.lft.to/lastmile_qr_scan"}, "lon": -77.02448133333333, "type": "electric_bike", "fusion_lat": 0.0, "lat": 38.9941965, "name": "29763d27d7292c8e8d317e76e1d8a71e", "fusion_lon": 0.0, "bike_id": "29763d27d7292c8e8d317e76e1d8a71e", "is_disabled": 0, "is_reserved": 0}, {"rental_uris": {"ios": "https://dc.lft.to/lastmile_qr_scan", "android": "https://dc.lft.to/lastmile_qr_scan"}, "lon": -77.02242816666667, "type": "electric_scooter", "fusion_lat": 0.0, "lat": 38.91655566666667, "name": "424bc215e27cb6951ef5fd9833537b13", "fusion_lon": 0.0, "bike_id": "424bc215e27cb6951ef5fd9833537b13", "is_disabled": 0, "is_reserved": 0}, {"rental_uris": {"ios": "https://dc.lft.to/lastmile_qr_scan", "android": "https://dc.lft.to/lastmile_qr_scan"}, "lon": -77.04017183333333, "type": "electric_scooter", "fusion_lat": 0.0, "lat": 38.917990333333336, "name": "e6418bb3df79bd76f377651f6336f265", "fusion_lon": 0.0, "bike_id": "e6418bb3df79bd76f377651f6336f265", "is_disabled": 0, "is_reserved": 0}, {"rental_uris": {"ios": "https://dc.lft.to/lastmile_qr_scan", "android": "https://dc.lft.to/lastmile_qr_scan"}, "lon": -76.91598283333333, "type": "electric_bike", "fusion_lat": 0.0, "lat": 38.87982066666667, "name": "e71b3720438fd433fafc0200258a0149", "fusion_lon": 0.0, "bike_id": "e71b3720438fd433fafc0200258a0149", "is_disabled": 0, "is_reserved": 0}, {"rental_uris": {"ios": "https://dc.lft.to/lastmile_qr_scan", "android": "https://dc.lft.to/lastmile_qr_scan"}, "lon": -77.06889116666666, "type": "electric_scooter", "fusion_lat": 0.0, "lat": 38.940272666666665, "name": "7f613237483d535bb89c2665a357e5e3", "fusion_lon": 0.0, "bike_id": "7f613237483d535bb89c2665a357e5e3", "is_disabled": 0, "is_reserved": 0}, {"rental_uris": {"ios": "https://dc.lft.to/lastmile_qr_scan", "android": "https://dc.lft.to/lastmile_qr_scan"}, "lon": -77.01998433333333, "type": "electric_scooter", "fusion_lat": 0.0, "lat": 38.909501166666665, "name": "b38a0e751c64b682f19f20a272951bad", "fusion_lon": 0.0, "bike_id": "b38a0e751c64b682f19f20a272951bad", "is_disabled": 0, "is_reserved": 0}, {"rental_uris": {"ios": "https://dc.lft.to/lastmile_qr_scan", "android": "https://dc.lft.to/lastmile_qr_scan"}, "lon": -76.999439, "type": "electric_scooter", "fusion_lat": 0.0, "lat": 38.84293516666666, "name": "1f1c74222df0af1b2d69be60ff384024", "fusion_lon": 0.0, "bike_id": "1f1c74222df0af1b2d69be60ff384024", "is_disabled": 0, "is_reserved": 0}, {"rental_uris": {"ios": "https://dc.lft.to/lastmile_qr_scan", "android": "https://dc.lft.to/lastmile_qr_scan"}, "lon": -77.06392016666666, "type": "electric_scooter", "fusion_lat": 0.0, "lat": 38.92907116666667, "name": "faa9d0e8e9f552418d3e494d94416b9c", "fusion_lon": 0.0, "bike_id": "faa9d0e8e9f552418d3e494d94416b9c", "is_disabled": 0, "is_reserved": 0}, {"rental_uris": {"ios": "https://dc.lft.to/lastmile_qr_scan", "android": "https://dc.lft.to/lastmile_qr_scan"}, "lon": -77.0503895, "type": "electric_bike", "fusion_lat": 0.0, "lat": 38.924226166666664, "name": "dd0689622cf6dacb0e9fb19cab2e6350", "fusion_lon": 0.0, "bike_id": "dd0689622cf6dacb0e9fb19cab2e6350", "is_disabled": 0, "is_reserved": 0}, {"rental_uris": {"ios": "https://dc.lft.to/lastmile_qr_scan", "android": "https://dc.lft.to/lastmile_qr_scan"}, "lon": -77.063646, "type": "electric_scooter", "fusion_lat": 0.0, "lat": 38.909309666666665, "name": "fdc64c01bb8ebfff60425490e5c0bc65", "fusion_lon": 0.0, "bike_id": "fdc64c01bb8ebfff60425490e5c0bc65", "is_disabled": 0, "is_reserved": 0}, {"rental_uris": {"ios": "https://dc.lft.to/lastmile_qr_scan", "android": "https://dc.lft.to/lastmile_qr_scan"}, "lon": -77.0704215, "type": "electric_bike", "fusion_lat": 0.0, "lat": 38.824487166666664, "name": "f994d91b330b4e7847c02c970c63c18a", "fusion_lon": 0.0, "bike_id": "f994d91b330b4e7847c02c970c63c18a", "is_disabled": 0, "is_reserved": 0}, {"rental_uris": {"ios": "https://dc.lft.to/lastmile_qr_scan", "android": "https://dc.lft.to/lastmile_qr_scan"}, "lon": -77.01989333333333, "type": "electric_scooter", "fusion_lat": 0.0, "lat": 38.88359333333333, "name": "c101deb026c215db5c0b32b5ba640621", "fusion_lon": 0.0, "bike_id": "c101deb026c215db5c0b32b5ba640621", "is_disabled": 0, "is_reserved": 0}, {"rental_uris": {"ios": "https://dc.lft.to/lastmile_qr_scan", "android": "https://dc.lft.to/lastmile_qr_scan"}, "lon": -77.36096, "type": "electric_bike", "fusion_lat": 0.0, "lat": 38.939535666666664, "name": "9de879678e1054a286699cd224c1dde1", "fusion_lon": 0.0, "bike_id": "9de879678e1054a286699cd224c1dde1", "is_disabled": 0, "is_reserved": 0}, {"rental_uris": {"ios": "https://dc.lft.to/lastmile_qr_scan", "android": "https://dc.lft.to/lastmile_qr_scan"}, "lon": -77.0259295, "type": "electric_scooter", "fusion_lat": 0.0, "lat": 38.90182, "name": "9faea4e5b9cf0eaa389fc52d26172922", "fusion_lon": 0.0, "bike_id": "9faea4e5b9cf0eaa389fc52d26172922", "is_disabled": 0, "is_reserved": 0}, {"rental_uris": {"ios": "https://dc.lft.to/lastmile_qr_scan", "android": "https://dc.lft.to/lastmile_qr_scan"}, "lon": -77.03284566666666, "type": "electric_scooter", "fusion_lat": 0.0, "lat": 38.9222155, "name": "eac33227473cf1515942b604db3aeef0", "fusion_lon": 0.0, "bike_id": "eac33227473cf1515942b604db3aeef0", "is_disabled": 0, "is_reserved": 0}, {"rental_uris": {"ios": "https://dc.lft.to/lastmile_qr_scan", "android": "https://dc.lft.to/lastmile_qr_scan"}, "lon": -77.020884, "type": "electric_scooter", "fusion_lat": 0.0, "lat": 38.91005233333333, "name": "7017b183b760d8f1520b3f1027a2f128", "fusion_lon": 0.0, "bike_id": "7017b183b760d8f1520b3f1027a2f128", "is_disabled": 0, "is_reserved": 0}, {"rental_uris": {"ios": "https://dc.lft.to/lastmile_qr_scan", "android": "https://dc.lft.to/lastmile_qr_scan"}, "lon": -77.04997766666666, "type": "electric_scooter", "fusion_lat": 0.0, "lat": 38.892305, "name": "4351f81a517de692297e5cdb4a3b8a75", "fusion_lon": 0.0, "bike_id": "4351f81a517de692297e5cdb4a3b8a75", "is_disabled": 0, "is_reserved": 0}, {"rental_uris": {"ios": "https://dc.lft.to/lastmile_qr_scan", "android": "https://dc.lft.to/lastmile_qr_scan"}, "lon": -77.0408, "type": "electric_scooter", "fusion_lat": 0.0, "lat": 38.907335, "name": "afb3ceab29c0ceaadc824797fd6c1cae", "fusion_lon": 0.0, "bike_id": "afb3ceab29c0ceaadc824797fd6c1cae", "is_disabled": 0, "is_reserved": 0}, {"rental_uris": {"ios": "https://dc.lft.to/lastmile_qr_scan", "android": "https://dc.lft.to/lastmile_qr_scan"}, "lon": -77.03355716666667, "type": "electric_scooter", "fusion_lat": 0.0, "lat": 38.90001733333333, "name": "d8b557aa30428d4abd00378aefc1c47e", "fusion_lon": 0.0, "bike_id": "d8b557aa30428d4abd00378aefc1c47e", "is_disabled": 0, "is_reserved": 0}, {"rental_uris": {"ios": "https://dc.lft.to/lastmile_qr_scan", "android": "https://dc.lft.to/lastmile_qr_scan"}, "lon": -76.97981466666667, "type": "electric_bike", "fusion_lat": 0.0, "lat": 38.877530666666665, "name": "5a547974491ba50383a54882165e5037", "fusion_lon": 0.0, "bike_id": "5a547974491ba50383a54882165e5037", "is_disabled": 0, "is_reserved": 0}, {"rental_uris": {"ios": "https://dc.lft.to/lastmile_qr_scan", "android": "https://dc.lft.to/lastmile_qr_scan"}, "lon": -77.03228966666667, "type": "electric_scooter", "fusion_lat": 0.0, "lat": 38.9140695, "name": "2337fb9e3e6a88068c168a86cf3ba91a", "fusion_lon": 0.0, "bike_id": "2337fb9e3e6a88068c168a86cf3ba91a", "is_disabled": 0, "is_reserved": 0}, {"rental_uris": {"ios": "https://dc.lft.to/lastmile_qr_scan", "android": "https://dc.lft.to/lastmile_qr_scan"}, "lon": -77.03649933333334, "type": "electric_scooter", "fusion_lat": 0.0, "lat": 38.956397833333334, "name": "2bbd5ded975fd2a61fbe438bef585824", "fusion_lon": 0.0, "bike_id": "2bbd5ded975fd2a61fbe438bef585824", "is_disabled": 0, "is_reserved": 0}, {"rental_uris": {"ios": "https://dc.lft.to/lastmile_qr_scan", "android": "https://dc.lft.to/lastmile_qr_scan"}, "lon": -76.94629633333334, "type": "electric_scooter", "fusion_lat": 0.0, "lat": 38.898448, "name": "1f2a61291af415582cbc894956a282bc", "fusion_lon": 0.0, "bike_id": "1f2a61291af415582cbc894956a282bc", "is_disabled": 0, "is_reserved": 0}, {"rental_uris": {"ios": "https://dc.lft.to/lastmile_qr_scan", "android": "https://dc.lft.to/lastmile_qr_scan"}, "lon": -76.9991545, "type": "electric_scooter", "fusion_lat": 0.0, "lat": 38.900246, "name": "74ffe99fefd4f2fad2ce1aac14e81d4a", "fusion_lon": 0.0, "bike_id": "74ffe99fefd4f2fad2ce1aac14e81d4a", "is_disabled": 0, "is_reserved": 0}, {"rental_uris": {"ios": "https://dc.lft.to/lastmile_qr_scan", "android": "https://dc.lft.to/lastmile_qr_scan"}, "lon": -76.9833745, "type": "electric_scooter", "fusion_lat": 0.0, "lat": 38.915396, "name": "59bd75a15e974d1eaf4ebd4d66a86811", "fusion_lon": 0.0, "bike_id": "59bd75a15e974d1eaf4ebd4d66a86811", "is_disabled": 0, "is_reserved": 0}, {"rental_uris": {"ios": "https://dc.lft.to/lastmile_qr_scan", "android": "https://dc.lft.to/lastmile_qr_scan"}, "lon": -77.00950766666666, "type": "electric_scooter", "fusion_lat": 0.0, "lat": 38.87342483333333, "name": "5ebdf4f309748e76fd5d8c10daa236a9", "fusion_lon": 0.0, "bike_id": "5ebdf4f309748e76fd5d8c10daa236a9", "is_disabled": 0, "is_reserved": 0}, {"rental_uris": {"ios": "https://dc.lft.to/lastmile_qr_scan", "android": "https://dc.lft.to/lastmile_qr_scan"}, "lon": -77.02420966666666, "type": "electric_scooter", "fusion_lat": 0.0, "lat": 38.89223, "name": "b1fef93baf694b1e569390c9a9466dc3", "fusion_lon": 0.0, "bike_id": "b1fef93baf694b1e569390c9a9466dc3", "is_disabled": 0, "is_reserved": 0}, {"rental_uris": {"ios": "https://dc.lft.to/lastmile_qr_scan", "android": "https://dc.lft.to/lastmile_qr_scan"}, "lon": -77.03216616666667, "type": "electric_scooter", "fusion_lat": 0.0, "lat": 38.916960833333334, "name": "cebe48c7b707b15835330eb73d519f30", "fusion_lon": 0.0, "bike_id": "cebe48c7b707b15835330eb73d519f30", "is_disabled": 0, "is_reserved": 0}, {"rental_uris": {"ios": "https://dc.lft.to/lastmile_qr_scan", "android": "https://dc.lft.to/lastmile_qr_scan"}, "lon": -77.04157016666667, "type": "electric_scooter", "fusion_lat": 0.0, "lat": 38.915231166666665, "name": "4a8737e7c35f1433a44b940c534d4054", "fusion_lon": 0.0, "bike_id": "4a8737e7c35f1433a44b940c534d4054", "is_disabled": 0, "is_reserved": 0}, {"rental_uris": {"ios": "https://dc.lft.to/lastmile_qr_scan", "android": "https://dc.lft.to/lastmile_qr_scan"}, "lon": -77.0334085, "type": "electric_scooter", "fusion_lat": 0.0, "lat": 38.91919166666667, "name": "3e1e16cb397c1a9f10031dff474ec92e", "fusion_lon": 0.0, "bike_id": "3e1e16cb397c1a9f10031dff474ec92e", "is_disabled": 0, "is_reserved": 0}, {"rental_uris": {"ios": "https://dc.lft.to/lastmile_qr_scan", "android": "https://dc.lft.to/lastmile_qr_scan"}, "lon": -77.05253033333334, "type": "electric_scooter", "fusion_lat": 0.0, "lat": 38.92377916666667, "name": "cf3eaebb21499296057da872c52e2a23", "fusion_lon": 0.0, "bike_id": "cf3eaebb21499296057da872c52e2a23", "is_disabled": 0, "is_reserved": 0}, {"rental_uris": {"ios": "https://dc.lft.to/lastmile_qr_scan", "android": "https://dc.lft.to/lastmile_qr_scan"}, "lon": -77.01258183333333, "type": "electric_scooter", "fusion_lat": 0.0, "lat": 38.899669, "name": "193aeefa64fd1fc8234896fa263db1c6", "fusion_lon": 0.0, "bike_id": "193aeefa64fd1fc8234896fa263db1c6", "is_disabled": 0, "is_reserved": 0}, {"rental_uris": {"ios": "https://dc.lft.to/lastmile_qr_scan", "android": "https://dc.lft.to/lastmile_qr_scan"}, "lon": -76.99002016666667, "type": "electric_scooter", "fusion_lat": 0.0, "lat": 38.8650665, "name": "14ed52a880c96516ec3d12a4dfe6c5b4", "fusion_lon": 0.0, "bike_id": "14ed52a880c96516ec3d12a4dfe6c5b4", "is_disabled": 0, "is_reserved": 0}, {"rental_uris": {"ios": "https://dc.lft.to/lastmile_qr_scan", "android": "https://dc.lft.to/lastmile_qr_scan"}, "lon": -77.00603816666667, "type": "electric_scooter", "fusion_lat": 0.0, "lat": 38.90579116666667, "name": "5d6f1759a28c39ed551e0032e69e28c7", "fusion_lon": 0.0, "bike_id": "5d6f1759a28c39ed551e0032e69e28c7", "is_disabled": 0, "is_reserved": 0}, {"rental_uris": {"ios": "https://dc.lft.to/lastmile_qr_scan", "android": "https://dc.lft.to/lastmile_qr_scan"}, "lon": -77.03538283333333, "type": "electric_scooter", "fusion_lat": 0.0, "lat": 38.92683016666667, "name": "72fdecdaa1f69a29d5f2edeb9abf5203", "fusion_lon": 0.0, "bike_id": "72fdecdaa1f69a29d5f2edeb9abf5203", "is_disabled": 0, "is_reserved": 0}, {"rental_uris": {"ios": "https://dc.lft.to/lastmile_qr_scan", "android": "https://dc.lft.to/lastmile_qr_scan"}, "lon": -76.9863305, "type": "electric_scooter", "fusion_lat": 0.0, "lat": 38.86821033333333, "name": "8222ff79f3fba1e54200c622e0d8a71b", "fusion_lon": 0.0, "bike_id": "8222ff79f3fba1e54200c622e0d8a71b", "is_disabled": 0, "is_reserved": 0}, {"rental_uris": {"ios": "https://dc.lft.to/lastmile_qr_scan", "android": "https://dc.lft.to/lastmile_qr_scan"}, "lon": -77.13593166666666, "type": "electric_bike", "fusion_lat": 0.0, "lat": 39.05348566666667, "name": "f1733b6961bdaf42e580ddb90012e990", "fusion_lon": 0.0, "bike_id": "f1733b6961bdaf42e580ddb90012e990", "is_disabled": 0, "is_reserved": 0}, {"rental_uris": {"ios": "https://dc.lft.to/lastmile_qr_scan", "android": "https://dc.lft.to/lastmile_qr_scan"}, "lon": -77.06616533333333, "type": "electric_scooter", "fusion_lat": 0.0, "lat": 38.90538466666667, "name": "3d63832f4d760f7fdab56ce1f449d391", "fusion_lon": 0.0, "bike_id": "3d63832f4d760f7fdab56ce1f449d391", "is_disabled": 0, "is_reserved": 0}, {"rental_uris": {"ios": "https://dc.lft.to/lastmile_qr_scan", "android": "https://dc.lft.to/lastmile_qr_scan"}, "lon": -77.01794316666667, "type": "electric_bike", "fusion_lat": 0.0, "lat": 38.90279683333333, "name": "b274f040b04912d3f864707a864564d5", "fusion_lon": 0.0, "bike_id": "b274f040b04912d3f864707a864564d5", "is_disabled": 0, "is_reserved": 0}, {"rental_uris": {"ios": "https://dc.lft.to/lastmile_qr_scan", "android": "https://dc.lft.to/lastmile_qr_scan"}, "lon": -77.02925266666666, "type": "electric_scooter", "fusion_lat": 0.0, "lat": 38.88218466666667, "name": "6944025bb1671b6388af7e83452a77ef", "fusion_lon": 0.0, "bike_id": "6944025bb1671b6388af7e83452a77ef", "is_disabled": 0, "is_reserved": 0}, {"rental_uris": {"ios": "https://dc.lft.to/lastmile_qr_scan", "android": "https://dc.lft.to/lastmile_qr_scan"}, "lon": -77.02180566666667, "type": "electric_scooter", "fusion_lat": 0.0, "lat": 38.91485816666667, "name": "4a0f3d8de79197f93c540686d2c98307", "fusion_lon": 0.0, "bike_id": "4a0f3d8de79197f93c540686d2c98307", "is_disabled": 0, "is_reserved": 0}, {"rental_uris": {"ios": "https://dc.lft.to/lastmile_qr_scan", "android": "https://dc.lft.to/lastmile_qr_scan"}, "lon": -76.99734433333333, "type": "electric_scooter", "fusion_lat": 0.0, "lat": 38.90942016666666, "name": "616dff6d74c92d68594500fe1904996b", "fusion_lon": 0.0, "bike_id": "616dff6d74c92d68594500fe1904996b", "is_disabled": 0, "is_reserved": 0}, {"rental_uris": {"ios": "https://dc.lft.to/lastmile_qr_scan", "android": "https://dc.lft.to/lastmile_qr_scan"}, "lon": -77.018698, "type": "electric_scooter", "fusion_lat": 0.0, "lat": 38.94895833333333, "name": "8e37d3134b07c261372070b4b527c9ea", "fusion_lon": 0.0, "bike_id": "8e37d3134b07c261372070b4b527c9ea", "is_disabled": 0, "is_reserved": 0}, {"rental_uris": {"ios": "https://dc.lft.to/lastmile_qr_scan", "android": "https://dc.lft.to/lastmile_qr_scan"}, "lon": -77.04793233333334, "type": "electric_scooter", "fusion_lat": 0.0, "lat": 38.897658666666665, "name": "020e5ce779340c24145cd9b11d114dba", "fusion_lon": 0.0, "bike_id": "020e5ce779340c24145cd9b11d114dba", "is_disabled": 0, "is_reserved": 0}, {"rental_uris": {"ios": "https://dc.lft.to/lastmile_qr_scan", "android": "https://dc.lft.to/lastmile_qr_scan"}, "lon": -77.04610516666666, "type": "electric_scooter", "fusion_lat": 0.0, "lat": 38.90268966666667, "name": "553cd9c9da2db17c9f08032c66bc3553", "fusion_lon": 0.0, "bike_id": "553cd9c9da2db17c9f08032c66bc3553", "is_disabled": 0, "is_reserved": 0}, {"rental_uris": {"ios": "https://dc.lft.to/lastmile_qr_scan", "android": "https://dc.lft.to/lastmile_qr_scan"}, "lon": -77.001015, "type": "electric_scooter", "fusion_lat": 0.0, "lat": 38.894321, "name": "3d9a956ab8a793dec18c70ddc9e29608", "fusion_lon": 0.0, "bike_id": "3d9a956ab8a793dec18c70ddc9e29608", "is_disabled": 0, "is_reserved": 0}, {"rental_uris": {"ios": "https://dc.lft.to/lastmile_qr_scan", "android": "https://dc.lft.to/lastmile_qr_scan"}, "lon": -77.073582, "type": "electric_scooter", "fusion_lat": 0.0, "lat": 38.93736883333333, "name": "1e02d878c0c1f29b84f32349e47fa48e", "fusion_lon": 0.0, "bike_id": "1e02d878c0c1f29b84f32349e47fa48e", "is_disabled": 0, "is_reserved": 0}, {"rental_uris": {"ios": "https://dc.lft.to/lastmile_qr_scan", "android": "https://dc.lft.to/lastmile_qr_scan"}, "lon": -76.96523833333333, "type": "electric_scooter", "fusion_lat": 0.0, "lat": 38.87632333333333, "name": "248f902bb2ee51a5e7ccf1e403113191", "fusion_lon": 0.0, "bike_id": "248f902bb2ee51a5e7ccf1e403113191", "is_disabled": 0, "is_reserved": 0}, {"rental_uris": {"ios": "https://dc.lft.to/lastmile_qr_scan", "android": "https://dc.lft.to/lastmile_qr_scan"}, "lon": -77.1122065, "type": "electric_bike", "fusion_lat": 0.0, "lat": 38.828726, "name": "a361bfc2c88794a1c1607d53151fdc2c", "fusion_lon": 0.0, "bike_id": "a361bfc2c88794a1c1607d53151fdc2c", "is_disabled": 0, "is_reserved": 0}, {"rental_uris": {"ios": "https://dc.lft.to/lastmile_qr_scan", "android": "https://dc.lft.to/lastmile_qr_scan"}, "lon": -77.04735833333334, "type": "electric_scooter", "fusion_lat": 0.0, "lat": 38.90226883333333, "name": "fa4ba9f18e82ff780124cf5ce5ac8c54", "fusion_lon": 0.0, "bike_id": "fa4ba9f18e82ff780124cf5ce5ac8c54", "is_disabled": 0, "is_reserved": 0}, {"rental_uris": {"ios": "https://dc.lft.to/lastmile_qr_scan", "android": "https://dc.lft.to/lastmile_qr_scan"}, "lon": -77.0271355, "type": "electric_scooter", "fusion_lat": 0.0, "lat": 38.918231, "name": "5e5dcc367d398699b07fdbeedf00d9fd", "fusion_lon": 0.0, "bike_id": "5e5dcc367d398699b07fdbeedf00d9fd", "is_disabled": 0, "is_reserved": 0}, {"rental_uris": {"ios": "https://dc.lft.to/lastmile_qr_scan", "android": "https://dc.lft.to/lastmile_qr_scan"}, "lon": -77.037001, "type": "electric_scooter", "fusion_lat": 0.0, "lat": 38.93656983333333, "name": "3593d3b31028fe244d169c4ca1f64236", "fusion_lon": 0.0, "bike_id": "3593d3b31028fe244d169c4ca1f64236", "is_disabled": 0, "is_reserved": 0}, {"rental_uris": {"ios": "https://dc.lft.to/lastmile_qr_scan", "android": "https://dc.lft.to/lastmile_qr_scan"}, "lon": -77.112011, "type": "electric_bike", "fusion_lat": 0.0, "lat": 38.813070333333336, "name": "3375d0a92f825ddbcf0c872159491c9b", "fusion_lon": 0.0, "bike_id": "3375d0a92f825ddbcf0c872159491c9b", "is_disabled": 0, "is_reserved": 0}, {"rental_uris": {"ios": "https://dc.lft.to/lastmile_qr_scan", "android": "https://dc.lft.to/lastmile_qr_scan"}, "lon": -77.04803066666666, "type": "electric_scooter", "fusion_lat": 0.0, "lat": 38.89616816666667, "name": "a38b236a69bc6c53341bf85f412b6335", "fusion_lon": 0.0, "bike_id": "a38b236a69bc6c53341bf85f412b6335", "is_disabled": 0, "is_reserved": 0}, {"rental_uris": {"ios": "https://dc.lft.to/lastmile_qr_scan", "android": "https://dc.lft.to/lastmile_qr_scan"}, "lon": -76.95756216666666, "type": "electric_scooter", "fusion_lat": 0.0, "lat": 38.884326333333334, "name": "c85b01beadecb19ec5fda58152fdf41e", "fusion_lon": 0.0, "bike_id": "c85b01beadecb19ec5fda58152fdf41e", "is_disabled": 0, "is_reserved": 0}, {"rental_uris": {"ios": "https://dc.lft.to/lastmile_qr_scan", "android": "https://dc.lft.to/lastmile_qr_scan"}, "lon": -76.99508866666666, "type": "electric_scooter", "fusion_lat": 0.0, "lat": 38.884963, "name": "c00d90e818aa3132a2b2192e30efc8c9", "fusion_lon": 0.0, "bike_id": "c00d90e818aa3132a2b2192e30efc8c9", "is_disabled": 0, "is_reserved": 0}, {"rental_uris": {"ios": "https://dc.lft.to/lastmile_qr_scan", "android": "https://dc.lft.to/lastmile_qr_scan"}, "lon": -76.935405, "type": "electric_bike", "fusion_lat": 0.0, "lat": 38.95556666666667, "name": "664a26f6e504dce0fe12828cd0c08650", "fusion_lon": 0.0, "bike_id": "664a26f6e504dce0fe12828cd0c08650", "is_disabled": 0, "is_reserved": 0}, {"rental_uris": {"ios": "https://dc.lft.to/lastmile_qr_scan", "android": "https://dc.lft.to/lastmile_qr_scan"}, "lon": -77.12260433333333, "type": "electric_bike", "fusion_lat": 0.0, "lat": 38.891878, "name": "a89273057706c11625e54e223ff8c24b", "fusion_lon": 0.0, "bike_id": "a89273057706c11625e54e223ff8c24b", "is_disabled": 0, "is_reserved": 0}, {"rental_uris": {"ios": "https://dc.lft.to/lastmile_qr_scan", "android": "https://dc.lft.to/lastmile_qr_scan"}, "lon": -77.023928, "type": "electric_scooter", "fusion_lat": 0.0, "lat": 38.915976666666666, "name": "afd8b06bf1a73a10440e8f547b3f6641", "fusion_lon": 0.0, "bike_id": "afd8b06bf1a73a10440e8f547b3f6641", "is_disabled": 0, "is_reserved": 0}, {"rental_uris": {"ios": "https://dc.lft.to/lastmile_qr_scan", "android": "https://dc.lft.to/lastmile_qr_scan"}, "lon": -77.0325745, "type": "electric_scooter", "fusion_lat": 0.0, "lat": 38.929407499999996, "name": "e2c8cef77bb7a992195244c23c347480", "fusion_lon": 0.0, "bike_id": "e2c8cef77bb7a992195244c23c347480", "is_disabled": 0, "is_reserved": 0}, {"rental_uris": {"ios": "https://dc.lft.to/lastmile_qr_scan", "android": "https://dc.lft.to/lastmile_qr_scan"}, "lon": -77.04996516666667, "type": "electric_scooter", "fusion_lat": 0.0, "lat": 38.898980333333334, "name": "2b5059b08f8042659a1f19729f08e199", "fusion_lon": 0.0, "bike_id": "2b5059b08f8042659a1f19729f08e199", "is_disabled": 0, "is_reserved": 0}, {"rental_uris": {"ios": "https://dc.lft.to/lastmile_qr_scan", "android": "https://dc.lft.to/lastmile_qr_scan"}, "lon": -77.076802, "type": "electric_bike", "fusion_lat": 0.0, "lat": 38.831954, "name": "affb2211cdc7c3f2ad6ecca50fe6f746", "fusion_lon": 0.0, "bike_id": "affb2211cdc7c3f2ad6ecca50fe6f746", "is_disabled": 0, "is_reserved": 0}, {"rental_uris": {"ios": "https://dc.lft.to/lastmile_qr_scan", "android": "https://dc.lft.to/lastmile_qr_scan"}, "lon": -77.0290505, "type": "electric_scooter", "fusion_lat": 0.0, "lat": 38.898633333333336, "name": "b5a0476c418d55e5bb5825cfaea6a349", "fusion_lon": 0.0, "bike_id": "b5a0476c418d55e5bb5825cfaea6a349", "is_disabled": 0, "is_reserved": 0}, {"rental_uris": {"ios": "https://dc.lft.to/lastmile_qr_scan", "android": "https://dc.lft.to/lastmile_qr_scan"}, "lon": -77.03667483333334, "type": "electric_bike", "fusion_lat": 0.0, "lat": 38.95496883333333, "name": "b4cd71a6fd2049f1845e3460ceed1a6c", "fusion_lon": 0.0, "bike_id": "b4cd71a6fd2049f1845e3460ceed1a6c", "is_disabled": 0, "is_reserved": 0}, {"rental_uris": {"ios": "https://dc.lft.to/lastmile_qr_scan", "android": "https://dc.lft.to/lastmile_qr_scan"}, "lon": -77.01772716666666, "type": "electric_scooter", "fusion_lat": 0.0, "lat": 38.903752833333336, "name": "e1d63e8fde143e108e6c261dc79c813c", "fusion_lon": 0.0, "bike_id": "e1d63e8fde143e108e6c261dc79c813c", "is_disabled": 0, "is_reserved": 0}, {"rental_uris": {"ios": "https://dc.lft.to/lastmile_qr_scan", "android": "https://dc.lft.to/lastmile_qr_scan"}, "lon": -77.04193766666667, "type": "electric_scooter", "fusion_lat": 0.0, "lat": 38.89223416666667, "name": "7d208298b03e8b3367ba1a3ace7b39c4", "fusion_lon": 0.0, "bike_id": "7d208298b03e8b3367ba1a3ace7b39c4", "is_disabled": 0, "is_reserved": 0}, {"rental_uris": {"ios": "https://dc.lft.to/lastmile_qr_scan", "android": "https://dc.lft.to/lastmile_qr_scan"}, "lon": -77.04488383333333, "type": "electric_scooter", "fusion_lat": 0.0, "lat": 38.9143875, "name": "9359f34b242da5b3f7dab0013922d137", "fusion_lon": 0.0, "bike_id": "9359f34b242da5b3f7dab0013922d137", "is_disabled": 0, "is_reserved": 0}, {"rental_uris": {"ios": "https://dc.lft.to/lastmile_qr_scan", "android": "https://dc.lft.to/lastmile_qr_scan"}, "lon": -77.0237855, "type": "electric_scooter", "fusion_lat": 0.0, "lat": 38.93230116666667, "name": "d99a8bc3dbf497dd88391252e61ab0d0", "fusion_lon": 0.0, "bike_id": "d99a8bc3dbf497dd88391252e61ab0d0", "is_disabled": 0, "is_reserved": 0}, {"rental_uris": {"ios": "https://dc.lft.to/lastmile_qr_scan", "android": "https://dc.lft.to/lastmile_qr_scan"}, "lon": -77.0426375, "type": "electric_scooter", "fusion_lat": 0.0, "lat": 38.934132166666664, "name": "76e24e2d4be33f3a67c0e78228b0d531", "fusion_lon": 0.0, "bike_id": "76e24e2d4be33f3a67c0e78228b0d531", "is_disabled": 0, "is_reserved": 0}, {"rental_uris": {"ios": "https://dc.lft.to/lastmile_qr_scan", "android": "https://dc.lft.to/lastmile_qr_scan"}, "lon": -76.94623633333333, "type": "electric_bike", "fusion_lat": 0.0, "lat": 38.94624266666667, "name": "03ef951b3739cd0925a394b1625a27e8", "fusion_lon": 0.0, "bike_id": "03ef951b3739cd0925a394b1625a27e8", "is_disabled": 0, "is_reserved": 0}, {"rental_uris": {"ios": "https://dc.lft.to/lastmile_qr_scan", "android": "https://dc.lft.to/lastmile_qr_scan"}, "lon": -77.0629435, "type": "electric_scooter", "fusion_lat": 0.0, "lat": 38.9039465, "name": "df6e040bd8b0cc979ff5816e085d4025", "fusion_lon": 0.0, "bike_id": "df6e040bd8b0cc979ff5816e085d4025", "is_disabled": 0, "is_reserved": 0}, {"rental_uris": {"ios": "https://dc.lft.to/lastmile_qr_scan", "android": "https://dc.lft.to/lastmile_qr_scan"}, "lon": -77.02410416666666, "type": "electric_scooter", "fusion_lat": 0.0, "lat": 38.892290333333335, "name": "60518b7fd4443ef5b24d960fc967851a", "fusion_lon": 0.0, "bike_id": "60518b7fd4443ef5b24d960fc967851a", "is_disabled": 0, "is_reserved": 0}, {"rental_uris": {"ios": "https://dc.lft.to/lastmile_qr_scan", "android": "https://dc.lft.to/lastmile_qr_scan"}, "lon": -77.03812516666666, "type": "electric_scooter", "fusion_lat": 0.0, "lat": 38.904879666666666, "name": "362877ccbee05af985e644618dac2d00", "fusion_lon": 0.0, "bike_id": "362877ccbee05af985e644618dac2d00", "is_disabled": 0, "is_reserved": 0}, {"rental_uris": {"ios": "https://dc.lft.to/lastmile_qr_scan", "android": "https://dc.lft.to/lastmile_qr_scan"}, "lon": -76.97210616666666, "type": "electric_scooter", "fusion_lat": 0.0, "lat": 38.854955833333335, "name": "2a4037668a694343e9aad1733e9f0bad", "fusion_lon": 0.0, "bike_id": "2a4037668a694343e9aad1733e9f0bad", "is_disabled": 0, "is_reserved": 0}, {"rental_uris": {"ios": "https://dc.lft.to/lastmile_qr_scan", "android": "https://dc.lft.to/lastmile_qr_scan"}, "lon": -76.998789, "type": "electric_scooter", "fusion_lat": 0.0, "lat": 38.90749016666667, "name": "cebd823df5f1799c16703d86fef9728b", "fusion_lon": 0.0, "bike_id": "cebd823df5f1799c16703d86fef9728b", "is_disabled": 0, "is_reserved": 0}, {"rental_uris": {"ios": "https://dc.lft.to/lastmile_qr_scan", "android": "https://dc.lft.to/lastmile_qr_scan"}, "lon": -77.036321, "type": "electric_scooter", "fusion_lat": 0.0, "lat": 38.9371695, "name": "907f90e1fa9d9cafc4933affc8c4d082", "fusion_lon": 0.0, "bike_id": "907f90e1fa9d9cafc4933affc8c4d082", "is_disabled": 0, "is_reserved": 0}, {"rental_uris": {"ios": "https://dc.lft.to/lastmile_qr_scan", "android": "https://dc.lft.to/lastmile_qr_scan"}, "lon": -77.07477116666666, "type": "electric_scooter", "fusion_lat": 0.0, "lat": 38.90665166666667, "name": "68ec9b4eee5f9e0286245f61e8097392", "fusion_lon": 0.0, "bike_id": "68ec9b4eee5f9e0286245f61e8097392", "is_disabled": 0, "is_reserved": 0}, {"rental_uris": {"ios": "https://dc.lft.to/lastmile_qr_scan", "android": "https://dc.lft.to/lastmile_qr_scan"}, "lon": -77.045459, "type": "electric_scooter", "fusion_lat": 0.0, "lat": 38.9340565, "name": "378367fd9553720a8f14ed3347ecff61", "fusion_lon": 0.0, "bike_id": "378367fd9553720a8f14ed3347ecff61", "is_disabled": 0, "is_reserved": 0}, {"rental_uris": {"ios": "https://dc.lft.to/lastmile_qr_scan", "android": "https://dc.lft.to/lastmile_qr_scan"}, "lon": -76.982453, "type": "electric_scooter", "fusion_lat": 0.0, "lat": 38.904570666666665, "name": "ee40ac7a9588c395bfbbc57ae907da40", "fusion_lon": 0.0, "bike_id": "ee40ac7a9588c395bfbbc57ae907da40", "is_disabled": 0, "is_reserved": 0}, {"rental_uris": {"ios": "https://dc.lft.to/lastmile_qr_scan", "android": "https://dc.lft.to/lastmile_qr_scan"}, "lon": -77.03912233333334, "type": "electric_scooter", "fusion_lat": 0.0, "lat": 38.9183755, "name": "19cdf4e100488d8a3e2a05e42957497b", "fusion_lon": 0.0, "bike_id": "19cdf4e100488d8a3e2a05e42957497b", "is_disabled": 0, "is_reserved": 0}, {"rental_uris": {"ios": "https://dc.lft.to/lastmile_qr_scan", "android": "https://dc.lft.to/lastmile_qr_scan"}, "lon": -76.98903766666666, "type": "electric_scooter", "fusion_lat": 0.0, "lat": 38.90013033333334, "name": "dd2b8904b30edcf2e1f8e0a09f051532", "fusion_lon": 0.0, "bike_id": "dd2b8904b30edcf2e1f8e0a09f051532", "is_disabled": 0, "is_reserved": 0}, {"rental_uris": {"ios": "https://dc.lft.to/lastmile_qr_scan", "android": "https://dc.lft.to/lastmile_qr_scan"}, "lon": -77.02380383333333, "type": "electric_scooter", "fusion_lat": 0.0, "lat": 38.9322835, "name": "896049b0943852ba3e2a527d446311b1", "fusion_lon": 0.0, "bike_id": "896049b0943852ba3e2a527d446311b1", "is_disabled": 0, "is_reserved": 0}, {"rental_uris": {"ios": "https://dc.lft.to/lastmile_qr_scan", "android": "https://dc.lft.to/lastmile_qr_scan"}, "lon": -77.0200775, "type": "electric_scooter", "fusion_lat": 0.0, "lat": 38.913107, "name": "68f32cce19d826834c30425fd0f945a3", "fusion_lon": 0.0, "bike_id": "68f32cce19d826834c30425fd0f945a3", "is_disabled": 0, "is_reserved": 0}, {"rental_uris": {"ios": "https://dc.lft.to/lastmile_qr_scan", "android": "https://dc.lft.to/lastmile_qr_scan"}, "lon": -77.0270545, "type": "electric_scooter", "fusion_lat": 0.0, "lat": 38.94999116666666, "name": "b750d8fcee1ab8bad93a02e17c5a5c6f", "fusion_lon": 0.0, "bike_id": "b750d8fcee1ab8bad93a02e17c5a5c6f", "is_disabled": 0, "is_reserved": 0}, {"rental_uris": {"ios": "https://dc.lft.to/lastmile_qr_scan", "android": "https://dc.lft.to/lastmile_qr_scan"}, "lon": -77.10454583333333, "type": "electric_bike", "fusion_lat": 0.0, "lat": 38.89640683333333, "name": "9a6b7f1c35e651406e2628797484dd12", "fusion_lon": 0.0, "bike_id": "9a6b7f1c35e651406e2628797484dd12", "is_disabled": 0, "is_reserved": 0}, {"rental_uris": {"ios": "https://dc.lft.to/lastmile_qr_scan", "android": "https://dc.lft.to/lastmile_qr_scan"}, "lon": -76.94632583333333, "type": "electric_scooter", "fusion_lat": 0.0, "lat": 38.89833683333333, "name": "bcd0d0c1ca2e6f392ce2cdad8cc93a0d", "fusion_lon": 0.0, "bike_id": "bcd0d0c1ca2e6f392ce2cdad8cc93a0d", "is_disabled": 0, "is_reserved": 0}, {"rental_uris": {"ios": "https://dc.lft.to/lastmile_qr_scan", "android": "https://dc.lft.to/lastmile_qr_scan"}, "lon": -77.03462616666667, "type": "electric_scooter", "fusion_lat": 0.0, "lat": 38.91885383333333, "name": "b8a9a59afad518b5f0454fe829806b56", "fusion_lon": 0.0, "bike_id": "b8a9a59afad518b5f0454fe829806b56", "is_disabled": 0, "is_reserved": 0}, {"rental_uris": {"ios": "https://dc.lft.to/lastmile_qr_scan", "android": "https://dc.lft.to/lastmile_qr_scan"}, "lon": -77.05470733333334, "type": "electric_scooter", "fusion_lat": 0.0, "lat": 38.92102666666667, "name": "d1d44b87493b67b10882a955d5280396", "fusion_lon": 0.0, "bike_id": "d1d44b87493b67b10882a955d5280396", "is_disabled": 0, "is_reserved": 0}, {"rental_uris": {"ios": "https://dc.lft.to/lastmile_qr_scan", "android": "https://dc.lft.to/lastmile_qr_scan"}, "lon": -77.02017433333333, "type": "electric_scooter", "fusion_lat": 0.0, "lat": 38.94977516666667, "name": "97cf118d60b10ccf640cfc92b61be9b6", "fusion_lon": 0.0, "bike_id": "97cf118d60b10ccf640cfc92b61be9b6", "is_disabled": 0, "is_reserved": 0}, {"rental_uris": {"ios": "https://dc.lft.to/lastmile_qr_scan", "android": "https://dc.lft.to/lastmile_qr_scan"}, "lon": -76.94176683333333, "type": "electric_scooter", "fusion_lat": 0.0, "lat": 38.882211, "name": "fa87551fa440e3f93bca328f0cf94c74", "fusion_lon": 0.0, "bike_id": "fa87551fa440e3f93bca328f0cf94c74", "is_disabled": 0, "is_reserved": 0}, {"rental_uris": {"ios": "https://dc.lft.to/lastmile_qr_scan", "android": "https://dc.lft.to/lastmile_qr_scan"}, "lon": -77.06108633333334, "type": "electric_scooter", "fusion_lat": 0.0, "lat": 38.912823833333334, "name": "c7da6335245c1076402c9bcf3fcd0321", "fusion_lon": 0.0, "bike_id": "c7da6335245c1076402c9bcf3fcd0321", "is_disabled": 0, "is_reserved": 0}, {"rental_uris": {"ios": "https://dc.lft.to/lastmile_qr_scan", "android": "https://dc.lft.to/lastmile_qr_scan"}, "lon": -76.98714916666667, "type": "electric_scooter", "fusion_lat": 0.0, "lat": 38.86258316666667, "name": "bf1cc81e5d952c1f419c15d8709b82f6", "fusion_lon": 0.0, "bike_id": "bf1cc81e5d952c1f419c15d8709b82f6", "is_disabled": 0, "is_reserved": 0}, {"rental_uris": {"ios": "https://dc.lft.to/lastmile_qr_scan", "android": "https://dc.lft.to/lastmile_qr_scan"}, "lon": -76.9474145, "type": "electric_scooter", "fusion_lat": 0.0, "lat": 38.897109, "name": "6a9d63704620e958c0137336c0aeb174", "fusion_lon": 0.0, "bike_id": "6a9d63704620e958c0137336c0aeb174", "is_disabled": 0, "is_reserved": 0}, {"rental_uris": {"ios": "https://dc.lft.to/lastmile_qr_scan", "android": "https://dc.lft.to/lastmile_qr_scan"}, "lon": -77.04657116666667, "type": "electric_scooter", "fusion_lat": 0.0, "lat": 38.919078, "name": "491dca9b2e25c1bb0e544af00053ffb2", "fusion_lon": 0.0, "bike_id": "491dca9b2e25c1bb0e544af00053ffb2", "is_disabled": 0, "is_reserved": 0}, {"rental_uris": {"ios": "https://dc.lft.to/lastmile_qr_scan", "android": "https://dc.lft.to/lastmile_qr_scan"}, "lon": -77.00332733333333, "type": "electric_scooter", "fusion_lat": 0.0, "lat": 38.87494866666667, "name": "324c258c63e209b68ec93e9d097cfc87", "fusion_lon": 0.0, "bike_id": "324c258c63e209b68ec93e9d097cfc87", "is_disabled": 0, "is_reserved": 0}, {"rental_uris": {"ios": "https://dc.lft.to/lastmile_qr_scan", "android": "https://dc.lft.to/lastmile_qr_scan"}, "lon": -76.99039783333333, "type": "electric_bike", "fusion_lat": 0.0, "lat": 38.92482916666667, "name": "10a7d67f15ef0eca161bf5ecd72f499b", "fusion_lon": 0.0, "bike_id": "10a7d67f15ef0eca161bf5ecd72f499b", "is_disabled": 0, "is_reserved": 0}, {"rental_uris": {"ios": "https://dc.lft.to/lastmile_qr_scan", "android": "https://dc.lft.to/lastmile_qr_scan"}, "lon": -77.02154216666666, "type": "electric_scooter", "fusion_lat": 0.0, "lat": 38.926051666666666, "name": "a0f59475be45d1e9dfed1788cbbdf66a", "fusion_lon": 0.0, "bike_id": "a0f59475be45d1e9dfed1788cbbdf66a", "is_disabled": 0, "is_reserved": 0}, {"rental_uris": {"ios": "https://dc.lft.to/lastmile_qr_scan", "android": "https://dc.lft.to/lastmile_qr_scan"}, "lon": -77.06275516666666, "type": "electric_scooter", "fusion_lat": 0.0, "lat": 38.905486833333335, "name": "83aca9f18278a667c8c713a7e50b736b", "fusion_lon": 0.0, "bike_id": "83aca9f18278a667c8c713a7e50b736b", "is_disabled": 0, "is_reserved": 0}, {"rental_uris": {"ios": "https://dc.lft.to/lastmile_qr_scan", "android": "https://dc.lft.to/lastmile_qr_scan"}, "lon": -77.070827, "type": "electric_bike", "fusion_lat": 0.0, "lat": 38.95558316666666, "name": "a8f0e77ce399980cb71e8c532076d510", "fusion_lon": 0.0, "bike_id": "a8f0e77ce399980cb71e8c532076d510", "is_disabled": 0, "is_reserved": 0}, {"rental_uris": {"ios": "https://dc.lft.to/lastmile_qr_scan", "android": "https://dc.lft.to/lastmile_qr_scan"}, "lon": -77.03082216666667, "type": "electric_scooter", "fusion_lat": 0.0, "lat": 38.92244433333333, "name": "95dd6d8aa59e856b9303df2df5c64acc", "fusion_lon": 0.0, "bike_id": "95dd6d8aa59e856b9303df2df5c64acc", "is_disabled": 0, "is_reserved": 0}, {"rental_uris": {"ios": "https://dc.lft.to/lastmile_qr_scan", "android": "https://dc.lft.to/lastmile_qr_scan"}, "lon": -77.02367183333334, "type": "electric_scooter", "fusion_lat": 0.0, "lat": 38.92049266666667, "name": "8fd0298c1281037238aae718b77ce912", "fusion_lon": 0.0, "bike_id": "8fd0298c1281037238aae718b77ce912", "is_disabled": 0, "is_reserved": 0}, {"rental_uris": {"ios": "https://dc.lft.to/lastmile_qr_scan", "android": "https://dc.lft.to/lastmile_qr_scan"}, "lon": -77.02235716666667, "type": "electric_scooter", "fusion_lat": 0.0, "lat": 38.90224416666667, "name": "fc649bf0b9ce8279b48d8171a8ce542f", "fusion_lon": 0.0, "bike_id": "fc649bf0b9ce8279b48d8171a8ce542f", "is_disabled": 0, "is_reserved": 0}, {"rental_uris": {"ios": "https://dc.lft.to/lastmile_qr_scan", "android": "https://dc.lft.to/lastmile_qr_scan"}, "lon": -77.03195366666667, "type": "electric_scooter", "fusion_lat": 0.0, "lat": 38.905077, "name": "dc67d1783962e64fd072ee1f513bb0bb", "fusion_lon": 0.0, "bike_id": "dc67d1783962e64fd072ee1f513bb0bb", "is_disabled": 0, "is_reserved": 0}, {"rental_uris": {"ios": "https://dc.lft.to/lastmile_qr_scan", "android": "https://dc.lft.to/lastmile_qr_scan"}, "lon": -77.05169133333334, "type": "electric_scooter", "fusion_lat": 0.0, "lat": 38.92376516666667, "name": "c60eefaf2ef7d517f5a566190f1e3c60", "fusion_lon": 0.0, "bike_id": "c60eefaf2ef7d517f5a566190f1e3c60", "is_disabled": 0, "is_reserved": 0}, {"rental_uris": {"ios": "https://dc.lft.to/lastmile_qr_scan", "android": "https://dc.lft.to/lastmile_qr_scan"}, "lon": -77.03476966666666, "type": "electric_scooter", "fusion_lat": 0.0, "lat": 38.90284533333333, "name": "6dcc1e80e286a91e1ba6abcafbbc5dc5", "fusion_lon": 0.0, "bike_id": "6dcc1e80e286a91e1ba6abcafbbc5dc5", "is_disabled": 0, "is_reserved": 0}, {"rental_uris": {"ios": "https://dc.lft.to/lastmile_qr_scan", "android": "https://dc.lft.to/lastmile_qr_scan"}, "lon": -77.0227655, "type": "electric_scooter", "fusion_lat": 0.0, "lat": 38.898431333333335, "name": "e0ffa5cc455dfbf1252b70ad71bfd6a5", "fusion_lon": 0.0, "bike_id": "e0ffa5cc455dfbf1252b70ad71bfd6a5", "is_disabled": 0, "is_reserved": 0}, {"rental_uris": {"ios": "https://dc.lft.to/lastmile_qr_scan", "android": "https://dc.lft.to/lastmile_qr_scan"}, "lon": -76.93173816666666, "type": "electric_scooter", "fusion_lat": 0.0, "lat": 38.898865666666666, "name": "d5685dfdc5d8e63457e23a0024e74598", "fusion_lon": 0.0, "bike_id": "d5685dfdc5d8e63457e23a0024e74598", "is_disabled": 0, "is_reserved": 0}, {"rental_uris": {"ios": "https://dc.lft.to/lastmile_qr_scan", "android": "https://dc.lft.to/lastmile_qr_scan"}, "lon": -77.03309966666667, "type": "electric_scooter", "fusion_lat": 0.0, "lat": 38.90150166666667, "name": "b934ca19d4fccd782e031e180bd140ac", "fusion_lon": 0.0, "bike_id": "b934ca19d4fccd782e031e180bd140ac", "is_disabled": 0, "is_reserved": 0}, {"rental_uris": {"ios": "https://dc.lft.to/lastmile_qr_scan", "android": "https://dc.lft.to/lastmile_qr_scan"}, "lon": -76.92371883333334, "type": "electric_bike", "fusion_lat": 0.0, "lat": 38.883768333333336, "name": "6c63de32163405e0566933e811938244", "fusion_lon": 0.0, "bike_id": "6c63de32163405e0566933e811938244", "is_disabled": 0, "is_reserved": 0}, {"rental_uris": {"ios": "https://dc.lft.to/lastmile_qr_scan", "android": "https://dc.lft.to/lastmile_qr_scan"}, "lon": -77.01539766666667, "type": "electric_scooter", "fusion_lat": 0.0, "lat": 38.90261866666667, "name": "e2ac399407369f9ee91336159b108bd8", "fusion_lon": 0.0, "bike_id": "e2ac399407369f9ee91336159b108bd8", "is_disabled": 0, "is_reserved": 0}, {"rental_uris": {"ios": "https://dc.lft.to/lastmile_qr_scan", "android": "https://dc.lft.to/lastmile_qr_scan"}, "lon": -76.97616566666667, "type": "electric_bike", "fusion_lat": 0.0, "lat": 38.892914, "name": "22e7044e7cbe9d7da8208c3e355cecc8", "fusion_lon": 0.0, "bike_id": "22e7044e7cbe9d7da8208c3e355cecc8", "is_disabled": 0, "is_reserved": 0}, {"rental_uris": {"ios": "https://dc.lft.to/lastmile_qr_scan", "android": "https://dc.lft.to/lastmile_qr_scan"}, "lon": -77.0987465, "type": "electric_bike", "fusion_lat": 0.0, "lat": 38.94785816666667, "name": "aa3075703a012b25c57c9d35d52c1758", "fusion_lon": 0.0, "bike_id": "aa3075703a012b25c57c9d35d52c1758", "is_disabled": 0, "is_reserved": 0}, {"rental_uris": {"ios": "https://dc.lft.to/lastmile_qr_scan", "android": "https://dc.lft.to/lastmile_qr_scan"}, "lon": -77.01996816666667, "type": "electric_scooter", "fusion_lat": 0.0, "lat": 38.914182333333336, "name": "31fae1dfd7624df740f279fa269643cd", "fusion_lon": 0.0, "bike_id": "31fae1dfd7624df740f279fa269643cd", "is_disabled": 0, "is_reserved": 0}, {"rental_uris": {"ios": "https://dc.lft.to/lastmile_qr_scan", "android": "https://dc.lft.to/lastmile_qr_scan"}, "lon": -76.92710883333334, "type": "electric_scooter", "fusion_lat": 0.0, "lat": 38.887649, "name": "f87888851a9704bcdc080575fc0e2a02", "fusion_lon": 0.0, "bike_id": "f87888851a9704bcdc080575fc0e2a02", "is_disabled": 0, "is_reserved": 0}, {"rental_uris": {"ios": "https://dc.lft.to/lastmile_qr_scan", "android": "https://dc.lft.to/lastmile_qr_scan"}, "lon": -77.10777433333334, "type": "electric_bike", "fusion_lat": 0.0, "lat": 38.892194, "name": "146962a58078ce4d1b07644dd39dcbbf", "fusion_lon": 0.0, "bike_id": "146962a58078ce4d1b07644dd39dcbbf", "is_disabled": 0, "is_reserved": 0}, {"rental_uris": {"ios": "https://dc.lft.to/lastmile_qr_scan", "android": "https://dc.lft.to/lastmile_qr_scan"}, "lon": -77.06628266666667, "type": "electric_scooter", "fusion_lat": 0.0, "lat": 38.92803216666667, "name": "1c676f6b403d7410f9e68078a6d230ed", "fusion_lon": 0.0, "bike_id": "1c676f6b403d7410f9e68078a6d230ed", "is_disabled": 0, "is_reserved": 0}, {"rental_uris": {"ios": "https://dc.lft.to/lastmile_qr_scan", "android": "https://dc.lft.to/lastmile_qr_scan"}, "lon": -76.98903666666666, "type": "electric_scooter", "fusion_lat": 0.0, "lat": 38.86692766666667, "name": "2b5cc3d1011682d71d3927b73a839a3c", "fusion_lon": 0.0, "bike_id": "2b5cc3d1011682d71d3927b73a839a3c", "is_disabled": 0, "is_reserved": 0}, {"rental_uris": {"ios": "https://dc.lft.to/lastmile_qr_scan", "android": "https://dc.lft.to/lastmile_qr_scan"}, "lon": -77.00079316666667, "type": "electric_bike", "fusion_lat": 0.0, "lat": 38.875190833333335, "name": "4abbd922b9efedc84f79224867eab7bf", "fusion_lon": 0.0, "bike_id": "4abbd922b9efedc84f79224867eab7bf", "is_disabled": 0, "is_reserved": 0}, {"rental_uris": {"ios": "https://dc.lft.to/lastmile_qr_scan", "android": "https://dc.lft.to/lastmile_qr_scan"}, "lon": -76.998481, "type": "electric_scooter", "fusion_lat": 0.0, "lat": 38.894905666666666, "name": "0c61effe4a8006aa9a8d187859e6e67d", "fusion_lon": 0.0, "bike_id": "0c61effe4a8006aa9a8d187859e6e67d", "is_disabled": 0, "is_reserved": 0}, {"rental_uris": {"ios": "https://dc.lft.to/lastmile_qr_scan", "android": "https://dc.lft.to/lastmile_qr_scan"}, "lon": -77.0445535, "type": "electric_scooter", "fusion_lat": 0.0, "lat": 38.909671333333335, "name": "e313ec81271913edd37378edf3020f67", "fusion_lon": 0.0, "bike_id": "e313ec81271913edd37378edf3020f67", "is_disabled": 0, "is_reserved": 0}, {"rental_uris": {"ios": "https://dc.lft.to/lastmile_qr_scan", "android": "https://dc.lft.to/lastmile_qr_scan"}, "lon": -77.02392366666666, "type": "electric_scooter", "fusion_lat": 0.0, "lat": 38.90942283333333, "name": "757f06c6f3e945eb9c330b38368bb767", "fusion_lon": 0.0, "bike_id": "757f06c6f3e945eb9c330b38368bb767", "is_disabled": 0, "is_reserved": 0}, {"rental_uris": {"ios": "https://dc.lft.to/lastmile_qr_scan", "android": "https://dc.lft.to/lastmile_qr_scan"}, "lon": -76.98803366666667, "type": "electric_bike", "fusion_lat": 0.0, "lat": 38.8637495, "name": "f89715173a109b9d72e18423dce6da7f", "fusion_lon": 0.0, "bike_id": "f89715173a109b9d72e18423dce6da7f", "is_disabled": 0, "is_reserved": 0}, {"rental_uris": {"ios": "https://dc.lft.to/lastmile_qr_scan", "android": "https://dc.lft.to/lastmile_qr_scan"}, "lon": -77.02822316666666, "type": "electric_scooter", "fusion_lat": 0.0, "lat": 38.892302, "name": "3f74fc90cc98c1d61ba6e21ecaf48983", "fusion_lon": 0.0, "bike_id": "3f74fc90cc98c1d61ba6e21ecaf48983", "is_disabled": 0, "is_reserved": 0}, {"rental_uris": {"ios": "https://dc.lft.to/lastmile_qr_scan", "android": "https://dc.lft.to/lastmile_qr_scan"}, "lon": -77.0379295, "type": "electric_scooter", "fusion_lat": 0.0, "lat": 38.926403666666666, "name": "412a1adac28d2e6b378875dfd66f83e6", "fusion_lon": 0.0, "bike_id": "412a1adac28d2e6b378875dfd66f83e6", "is_disabled": 0, "is_reserved": 0}, {"rental_uris": {"ios": "https://dc.lft.to/lastmile_qr_scan", "android": "https://dc.lft.to/lastmile_qr_scan"}, "lon": -77.05586133333334, "type": "electric_scooter", "fusion_lat": 0.0, "lat": 38.936065, "name": "c1177a4afb13809d7d9fe1bb3dab0cdb", "fusion_lon": 0.0, "bike_id": "c1177a4afb13809d7d9fe1bb3dab0cdb", "is_disabled": 0, "is_reserved": 0}, {"rental_uris": {"ios": "https://dc.lft.to/lastmile_qr_scan", "android": "https://dc.lft.to/lastmile_qr_scan"}, "lon": -77.024557, "type": "electric_scooter", "fusion_lat": 0.0, "lat": 38.9170485, "name": "4c8ccd4557e957ff9472066f2dfd3276", "fusion_lon": 0.0, "bike_id": "4c8ccd4557e957ff9472066f2dfd3276", "is_disabled": 0, "is_reserved": 0}, {"rental_uris": {"ios": "https://dc.lft.to/lastmile_qr_scan", "android": "https://dc.lft.to/lastmile_qr_scan"}, "lon": -77.0445785, "type": "electric_scooter", "fusion_lat": 0.0, "lat": 38.919617833333334, "name": "3aebb6ddcd9db8895b404516ecd24495", "fusion_lon": 0.0, "bike_id": "3aebb6ddcd9db8895b404516ecd24495", "is_disabled": 0, "is_reserved": 0}, {"rental_uris": {"ios": "https://dc.lft.to/lastmile_qr_scan", "android": "https://dc.lft.to/lastmile_qr_scan"}, "lon": -77.03356766666667, "type": "electric_scooter", "fusion_lat": 0.0, "lat": 38.88751516666667, "name": "8daada42cb98784a8baa02d14773f75c", "fusion_lon": 0.0, "bike_id": "8daada42cb98784a8baa02d14773f75c", "is_disabled": 0, "is_reserved": 0}, {"rental_uris": {"ios": "https://dc.lft.to/lastmile_qr_scan", "android": "https://dc.lft.to/lastmile_qr_scan"}, "lon": -77.044047, "type": "electric_bike", "fusion_lat": 0.0, "lat": 38.88408316666667, "name": "17ab7309dbda8a958fdc959f071bda16", "fusion_lon": 0.0, "bike_id": "17ab7309dbda8a958fdc959f071bda16", "is_disabled": 0, "is_reserved": 0}, {"rental_uris": {"ios": "https://dc.lft.to/lastmile_qr_scan", "android": "https://dc.lft.to/lastmile_qr_scan"}, "lon": -77.01993483333334, "type": "electric_scooter", "fusion_lat": 0.0, "lat": 38.87752316666667, "name": "dfb9484fa79070e1fd209f89344962cb", "fusion_lon": 0.0, "bike_id": "dfb9484fa79070e1fd209f89344962cb", "is_disabled": 0, "is_reserved": 0}, {"rental_uris": {"ios": "https://dc.lft.to/lastmile_qr_scan", "android": "https://dc.lft.to/lastmile_qr_scan"}, "lon": -77.0026015, "type": "electric_scooter", "fusion_lat": 0.0, "lat": 38.898945499999996, "name": "aba44e405c5ed82afc2e7f4f94abc728", "fusion_lon": 0.0, "bike_id": "aba44e405c5ed82afc2e7f4f94abc728", "is_disabled": 0, "is_reserved": 0}, {"rental_uris": {"ios": "https://dc.lft.to/lastmile_qr_scan", "android": "https://dc.lft.to/lastmile_qr_scan"}, "lon": -77.02355516666667, "type": "electric_scooter", "fusion_lat": 0.0, "lat": 38.908641833333334, "name": "ffe90178b3869ce4d03ffdfabb591c50", "fusion_lon": 0.0, "bike_id": "ffe90178b3869ce4d03ffdfabb591c50", "is_disabled": 0, "is_reserved": 0}, {"rental_uris": {"ios": "https://dc.lft.to/lastmile_qr_scan", "android": "https://dc.lft.to/lastmile_qr_scan"}, "lon": -77.01075916666667, "type": "electric_bike", "fusion_lat": 0.0, "lat": 38.956541333333334, "name": "43aafea1c97c04cf63054ab815daf08b", "fusion_lon": 0.0, "bike_id": "43aafea1c97c04cf63054ab815daf08b", "is_disabled": 0, "is_reserved": 0}, {"rental_uris": {"ios": "https://dc.lft.to/lastmile_qr_scan", "android": "https://dc.lft.to/lastmile_qr_scan"}, "lon": -77.041621, "type": "electric_scooter", "fusion_lat": 0.0, "lat": 38.90983583333333, "name": "7068b4731b46c3b04bf8be4b3ed2881b", "fusion_lon": 0.0, "bike_id": "7068b4731b46c3b04bf8be4b3ed2881b", "is_disabled": 0, "is_reserved": 0}, {"rental_uris": {"ios": "https://dc.lft.to/lastmile_qr_scan", "android": "https://dc.lft.to/lastmile_qr_scan"}, "lon": -76.98882133333333, "type": "electric_scooter", "fusion_lat": 0.0, "lat": 38.86659133333333, "name": "96525a74e3cce1f6a89d9ff9d62b5de9", "fusion_lon": 0.0, "bike_id": "96525a74e3cce1f6a89d9ff9d62b5de9", "is_disabled": 0, "is_reserved": 0}, {"rental_uris": {"ios": "https://dc.lft.to/lastmile_qr_scan", "android": "https://dc.lft.to/lastmile_qr_scan"}, "lon": -77.031936, "type": "electric_scooter", "fusion_lat": 0.0, "lat": 38.8935545, "name": "ae5ab1265d56f04213ecd672751f98b9", "fusion_lon": 0.0, "bike_id": "ae5ab1265d56f04213ecd672751f98b9", "is_disabled": 0, "is_reserved": 0}, {"rental_uris": {"ios": "https://dc.lft.to/lastmile_qr_scan", "android": "https://dc.lft.to/lastmile_qr_scan"}, "lon": -77.05115833333333, "type": "electric_bike", "fusion_lat": 0.0, "lat": 38.999675, "name": "737aa21e794c43d32f0290a0520d6e3e", "fusion_lon": 0.0, "bike_id": "737aa21e794c43d32f0290a0520d6e3e", "is_disabled": 0, "is_reserved": 0}, {"rental_uris": {"ios": "https://dc.lft.to/lastmile_qr_scan", "android": "https://dc.lft.to/lastmile_qr_scan"}, "lon": -76.93101783333333, "type": "electric_scooter", "fusion_lat": 0.0, "lat": 38.9014265, "name": "7cbae6d2aa8ece83867fddcd7588f6fb", "fusion_lon": 0.0, "bike_id": "7cbae6d2aa8ece83867fddcd7588f6fb", "is_disabled": 0, "is_reserved": 0}, {"rental_uris": {"ios": "https://dc.lft.to/lastmile_qr_scan", "android": "https://dc.lft.to/lastmile_qr_scan"}, "lon": -77.050025, "type": "electric_scooter", "fusion_lat": 0.0, "lat": 38.8923105, "name": "8ea18577ed6f68133f8f87550ccfd256", "fusion_lon": 0.0, "bike_id": "8ea18577ed6f68133f8f87550ccfd256", "is_disabled": 0, "is_reserved": 0}, {"rental_uris": {"ios": "https://dc.lft.to/lastmile_qr_scan", "android": "https://dc.lft.to/lastmile_qr_scan"}, "lon": -77.05350433333334, "type": "electric_scooter", "fusion_lat": 0.0, "lat": 38.90272316666667, "name": "8b0af232eefa3fcf5733acba39ec938d", "fusion_lon": 0.0, "bike_id": "8b0af232eefa3fcf5733acba39ec938d", "is_disabled": 0, "is_reserved": 0}, {"rental_uris": {"ios": "https://dc.lft.to/lastmile_qr_scan", "android": "https://dc.lft.to/lastmile_qr_scan"}, "lon": -76.99366883333333, "type": "electric_scooter", "fusion_lat": 0.0, "lat": 38.879771, "name": "1b8067acb1af41e9201d8bb005d43c73", "fusion_lon": 0.0, "bike_id": "1b8067acb1af41e9201d8bb005d43c73", "is_disabled": 0, "is_reserved": 0}, {"rental_uris": {"ios": "https://dc.lft.to/lastmile_qr_scan", "android": "https://dc.lft.to/lastmile_qr_scan"}, "lon": -77.01182216666666, "type": "electric_scooter", "fusion_lat": 0.0, "lat": 38.900296, "name": "ada05dc9e567480ad89cef35939c322f", "fusion_lon": 0.0, "bike_id": "ada05dc9e567480ad89cef35939c322f", "is_disabled": 0, "is_reserved": 0}, {"rental_uris": {"ios": "https://dc.lft.to/lastmile_qr_scan", "android": "https://dc.lft.to/lastmile_qr_scan"}, "lon": -76.9996435, "type": "electric_scooter", "fusion_lat": 0.0, "lat": 38.906962666666665, "name": "0b508517634aa13cfc5b1af4fa4cb3d3", "fusion_lon": 0.0, "bike_id": "0b508517634aa13cfc5b1af4fa4cb3d3", "is_disabled": 0, "is_reserved": 0}, {"rental_uris": {"ios": "https://dc.lft.to/lastmile_qr_scan", "android": "https://dc.lft.to/lastmile_qr_scan"}, "lon": -77.010684, "type": "electric_scooter", "fusion_lat": 0.0, "lat": 38.90368083333333, "name": "2f091c7d8860fb8f1174cf28aa4a5b95", "fusion_lon": 0.0, "bike_id": "2f091c7d8860fb8f1174cf28aa4a5b95", "is_disabled": 0, "is_reserved": 0}, {"rental_uris": {"ios": "https://dc.lft.to/lastmile_qr_scan", "android": "https://dc.lft.to/lastmile_qr_scan"}, "lon": -77.04366, "type": "electric_bike", "fusion_lat": 0.0, "lat": 38.9280585, "name": "69e1524802e938efc1eeabf7d5f4fe6e", "fusion_lon": 0.0, "bike_id": "69e1524802e938efc1eeabf7d5f4fe6e", "is_disabled": 0, "is_reserved": 0}, {"rental_uris": {"ios": "https://dc.lft.to/lastmile_qr_scan", "android": "https://dc.lft.to/lastmile_qr_scan"}, "lon": -76.96524916666667, "type": "electric_scooter", "fusion_lat": 0.0, "lat": 38.876287, "name": "9a0896579419f4819aae66119a260eba", "fusion_lon": 0.0, "bike_id": "9a0896579419f4819aae66119a260eba", "is_disabled": 0, "is_reserved": 0}, {"rental_uris": {"ios": "https://dc.lft.to/lastmile_qr_scan", "android": "https://dc.lft.to/lastmile_qr_scan"}, "lon": -77.03298983333333, "type": "electric_scooter", "fusion_lat": 0.0, "lat": 38.9111825, "name": "0515c7a3e313ddfffa72d5e397425f0c", "fusion_lon": 0.0, "bike_id": "0515c7a3e313ddfffa72d5e397425f0c", "is_disabled": 0, "is_reserved": 0}, {"rental_uris": {"ios": "https://dc.lft.to/lastmile_qr_scan", "android": "https://dc.lft.to/lastmile_qr_scan"}, "lon": -77.0434125, "type": "electric_scooter", "fusion_lat": 0.0, "lat": 38.906602666666664, "name": "5a824cbb22ab8e2fe262a4e45e7de33c", "fusion_lon": 0.0, "bike_id": "5a824cbb22ab8e2fe262a4e45e7de33c", "is_disabled": 0, "is_reserved": 0}, {"rental_uris": {"ios": "https://dc.lft.to/lastmile_qr_scan", "android": "https://dc.lft.to/lastmile_qr_scan"}, "lon": -76.93169733333333, "type": "electric_scooter", "fusion_lat": 0.0, "lat": 38.89887016666667, "name": "68d94f3bbf38f732ec7f7704a29ce068", "fusion_lon": 0.0, "bike_id": "68d94f3bbf38f732ec7f7704a29ce068", "is_disabled": 0, "is_reserved": 0}, {"rental_uris": {"ios": "https://dc.lft.to/lastmile_qr_scan", "android": "https://dc.lft.to/lastmile_qr_scan"}, "lon": -77.0333695, "type": "electric_scooter", "fusion_lat": 0.0, "lat": 38.887514, "name": "d4311abbc39cf0440f1985190173b444", "fusion_lon": 0.0, "bike_id": "d4311abbc39cf0440f1985190173b444", "is_disabled": 0, "is_reserved": 0}, {"rental_uris": {"ios": "https://dc.lft.to/lastmile_qr_scan", "android": "https://dc.lft.to/lastmile_qr_scan"}, "lon": -76.92711916666667, "type": "electric_scooter", "fusion_lat": 0.0, "lat": 38.887693, "name": "b00a07c0b48cdb951e588578aa6f18ae", "fusion_lon": 0.0, "bike_id": "b00a07c0b48cdb951e588578aa6f18ae", "is_disabled": 0, "is_reserved": 0}, {"rental_uris": {"ios": "https://dc.lft.to/lastmile_qr_scan", "android": "https://dc.lft.to/lastmile_qr_scan"}, "lon": -77.04553133333333, "type": "electric_scooter", "fusion_lat": 0.0, "lat": 38.91271183333333, "name": "db64a318e855f49fe0d0b207e189a020", "fusion_lon": 0.0, "bike_id": "db64a318e855f49fe0d0b207e189a020", "is_disabled": 0, "is_reserved": 0}, {"rental_uris": {"ios": "https://dc.lft.to/lastmile_qr_scan", "android": "https://dc.lft.to/lastmile_qr_scan"}, "lon": -77.00890166666667, "type": "electric_scooter", "fusion_lat": 0.0, "lat": 38.91234466666667, "name": "55a3c078c170c1016f013a5ec2927b1e", "fusion_lon": 0.0, "bike_id": "55a3c078c170c1016f013a5ec2927b1e", "is_disabled": 0, "is_reserved": 0}, {"rental_uris": {"ios": "https://dc.lft.to/lastmile_qr_scan", "android": "https://dc.lft.to/lastmile_qr_scan"}, "lon": -77.03201283333334, "type": "electric_scooter", "fusion_lat": 0.0, "lat": 38.924831833333336, "name": "8020c23cf7df264de065c4172b7883f9", "fusion_lon": 0.0, "bike_id": "8020c23cf7df264de065c4172b7883f9", "is_disabled": 0, "is_reserved": 0}, {"rental_uris": {"ios": "https://dc.lft.to/lastmile_qr_scan", "android": "https://dc.lft.to/lastmile_qr_scan"}, "lon": -77.01608116666667, "type": "electric_scooter", "fusion_lat": 0.0, "lat": 38.91132566666667, "name": "7d5744e0ad9517f16a962a8c5d860131", "fusion_lon": 0.0, "bike_id": "7d5744e0ad9517f16a962a8c5d860131", "is_disabled": 0, "is_reserved": 0}, {"rental_uris": {"ios": "https://dc.lft.to/lastmile_qr_scan", "android": "https://dc.lft.to/lastmile_qr_scan"}, "lon": -77.063779, "type": "electric_scooter", "fusion_lat": 0.0, "lat": 38.905211333333334, "name": "dd085066ea228dbd720bd49b27ffae12", "fusion_lon": 0.0, "bike_id": "dd085066ea228dbd720bd49b27ffae12", "is_disabled": 0, "is_reserved": 0}, {"rental_uris": {"ios": "https://dc.lft.to/lastmile_qr_scan", "android": "https://dc.lft.to/lastmile_qr_scan"}, "lon": -77.023545, "type": "electric_scooter", "fusion_lat": 0.0, "lat": 38.931701833333335, "name": "20238a611c6a76f431dfe4ac56f529dd", "fusion_lon": 0.0, "bike_id": "20238a611c6a76f431dfe4ac56f529dd", "is_disabled": 0, "is_reserved": 0}, {"rental_uris": {"ios": "https://dc.lft.to/lastmile_qr_scan", "android": "https://dc.lft.to/lastmile_qr_scan"}, "lon": -76.96849533333334, "type": "electric_scooter", "fusion_lat": 0.0, "lat": 38.8746745, "name": "620fcea91c2f98c359c67cea92be2843", "fusion_lon": 0.0, "bike_id": "620fcea91c2f98c359c67cea92be2843", "is_disabled": 0, "is_reserved": 0}, {"rental_uris": {"ios": "https://dc.lft.to/lastmile_qr_scan", "android": "https://dc.lft.to/lastmile_qr_scan"}, "lon": -77.0241255, "type": "electric_scooter", "fusion_lat": 0.0, "lat": 38.90591466666667, "name": "b95383d57a8e8a2b743029e276b757c4", "fusion_lon": 0.0, "bike_id": "b95383d57a8e8a2b743029e276b757c4", "is_disabled": 0, "is_reserved": 0}, {"rental_uris": {"ios": "https://dc.lft.to/lastmile_qr_scan", "android": "https://dc.lft.to/lastmile_qr_scan"}, "lon": -77.06915333333333, "type": "electric_bike", "fusion_lat": 0.0, "lat": 38.90983266666667, "name": "a60f89f9f98ec7b32bb97a23a1e30d42", "fusion_lon": 0.0, "bike_id": "a60f89f9f98ec7b32bb97a23a1e30d42", "is_disabled": 0, "is_reserved": 0}, {"rental_uris": {"ios": "https://dc.lft.to/lastmile_qr_scan", "android": "https://dc.lft.to/lastmile_qr_scan"}, "lon": -77.02607416666666, "type": "electric_scooter", "fusion_lat": 0.0, "lat": 38.90157466666667, "name": "de921c91968ef07fceb9e974032ab22f", "fusion_lon": 0.0, "bike_id": "de921c91968ef07fceb9e974032ab22f", "is_disabled": 0, "is_reserved": 0}, {"rental_uris": {"ios": "https://dc.lft.to/lastmile_qr_scan", "android": "https://dc.lft.to/lastmile_qr_scan"}, "lon": -77.03652833333334, "type": "electric_scooter", "fusion_lat": 0.0, "lat": 38.907980333333334, "name": "df193bab4a76c08bb3f9b64b0b246400", "fusion_lon": 0.0, "bike_id": "df193bab4a76c08bb3f9b64b0b246400", "is_disabled": 0, "is_reserved": 0}, {"rental_uris": {"ios": "https://dc.lft.to/lastmile_qr_scan", "android": "https://dc.lft.to/lastmile_qr_scan"}, "lon": -77.07573183333334, "type": "electric_bike", "fusion_lat": 0.0, "lat": 38.90679166666666, "name": "40e70b0c73c99aaa7ec48fa77371dc48", "fusion_lon": 0.0, "bike_id": "40e70b0c73c99aaa7ec48fa77371dc48", "is_disabled": 0, "is_reserved": 0}, {"rental_uris": {"ios": "https://dc.lft.to/lastmile_qr_scan", "android": "https://dc.lft.to/lastmile_qr_scan"}, "lon": -77.03199316666667, "type": "electric_scooter", "fusion_lat": 0.0, "lat": 38.911568, "name": "fd333d8f186d125ba369810f9f5cd674", "fusion_lon": 0.0, "bike_id": "fd333d8f186d125ba369810f9f5cd674", "is_disabled": 0, "is_reserved": 0}, {"rental_uris": {"ios": "https://dc.lft.to/lastmile_qr_scan", "android": "https://dc.lft.to/lastmile_qr_scan"}, "lon": -77.10710983333334, "type": "electric_bike", "fusion_lat": 0.0, "lat": 38.8554715, "name": "cb61998674e24354be6a7bafb80b367d", "fusion_lon": 0.0, "bike_id": "cb61998674e24354be6a7bafb80b367d", "is_disabled": 0, "is_reserved": 0}, {"rental_uris": {"ios": "https://dc.lft.to/lastmile_qr_scan", "android": "https://dc.lft.to/lastmile_qr_scan"}, "lon": -76.99736566666667, "type": "electric_scooter", "fusion_lat": 0.0, "lat": 38.900443833333334, "name": "8fc2e83af13ebf9f356bcdf07e6762c2", "fusion_lon": 0.0, "bike_id": "8fc2e83af13ebf9f356bcdf07e6762c2", "is_disabled": 0, "is_reserved": 0}, {"rental_uris": {"ios": "https://dc.lft.to/lastmile_qr_scan", "android": "https://dc.lft.to/lastmile_qr_scan"}, "lon": -76.98835583333333, "type": "electric_scooter", "fusion_lat": 0.0, "lat": 38.89296383333333, "name": "4529ed3c257c5e4e80499015e582e1b0", "fusion_lon": 0.0, "bike_id": "4529ed3c257c5e4e80499015e582e1b0", "is_disabled": 0, "is_reserved": 0}, {"rental_uris": {"ios": "https://dc.lft.to/lastmile_qr_scan", "android": "https://dc.lft.to/lastmile_qr_scan"}, "lon": -76.96846033333334, "type": "electric_scooter", "fusion_lat": 0.0, "lat": 38.874667333333335, "name": "a075ec3a0e1d9edc7afcf1d450556cc2", "fusion_lon": 0.0, "bike_id": "a075ec3a0e1d9edc7afcf1d450556cc2", "is_disabled": 0, "is_reserved": 0}, {"rental_uris": {"ios": "https://dc.lft.to/lastmile_qr_scan", "android": "https://dc.lft.to/lastmile_qr_scan"}, "lon": -77.03171733333333, "type": "electric_scooter", "fusion_lat": 0.0, "lat": 38.9044535, "name": "2c8ad8665481dbe424889f5dfd47817b", "fusion_lon": 0.0, "bike_id": "2c8ad8665481dbe424889f5dfd47817b", "is_disabled": 0, "is_reserved": 0}, {"rental_uris": {"ios": "https://dc.lft.to/lastmile_qr_scan", "android": "https://dc.lft.to/lastmile_qr_scan"}, "lon": -77.1990615, "type": "electric_bike", "fusion_lat": 0.0, "lat": 38.875269333333335, "name": "dd21d84595f43079e3a0ff3b52b39428", "fusion_lon": 0.0, "bike_id": "dd21d84595f43079e3a0ff3b52b39428", "is_disabled": 0, "is_reserved": 0}, {"rental_uris": {"ios": "https://dc.lft.to/lastmile_qr_scan", "android": "https://dc.lft.to/lastmile_qr_scan"}, "lon": -76.99795883333333, "type": "electric_bike", "fusion_lat": 0.0, "lat": 38.908599, "name": "cddc917826e210d72aa0184b6395e86c", "fusion_lon": 0.0, "bike_id": "cddc917826e210d72aa0184b6395e86c", "is_disabled": 0, "is_reserved": 0}, {"rental_uris": {"ios": "https://dc.lft.to/lastmile_qr_scan", "android": "https://dc.lft.to/lastmile_qr_scan"}, "lon": -77.00649083333333, "type": "electric_scooter", "fusion_lat": 0.0, "lat": 38.90864583333333, "name": "0376e3a6096fffb528492d1acd9ce22b", "fusion_lon": 0.0, "bike_id": "0376e3a6096fffb528492d1acd9ce22b", "is_disabled": 0, "is_reserved": 0}, {"rental_uris": {"ios": "https://dc.lft.to/lastmile_qr_scan", "android": "https://dc.lft.to/lastmile_qr_scan"}, "lon": -77.03567666666666, "type": "electric_scooter", "fusion_lat": 0.0, "lat": 38.916338333333336, "name": "a797e2d42d1290fc52ddb87bd2daecbf", "fusion_lon": 0.0, "bike_id": "a797e2d42d1290fc52ddb87bd2daecbf", "is_disabled": 0, "is_reserved": 0}, {"rental_uris": {"ios": "https://dc.lft.to/lastmile_qr_scan", "android": "https://dc.lft.to/lastmile_qr_scan"}, "lon": -77.14994716666666, "type": "electric_bike", "fusion_lat": 0.0, "lat": 39.094609, "name": "6037f428bb8de01e40352d92e46290e2", "fusion_lon": 0.0, "bike_id": "6037f428bb8de01e40352d92e46290e2", "is_disabled": 0, "is_reserved": 0}, {"rental_uris": {"ios": "https://dc.lft.to/lastmile_qr_scan", "android": "https://dc.lft.to/lastmile_qr_scan"}, "lon": -76.93361483333334, "type": "electric_scooter", "fusion_lat": 0.0, "lat": 38.899178166666665, "name": "5b8a7bbcd0a949ae17ac107898211397", "fusion_lon": 0.0, "bike_id": "5b8a7bbcd0a949ae17ac107898211397", "is_disabled": 0, "is_reserved": 0}, {"rental_uris": {"ios": "https://dc.lft.to/lastmile_qr_scan", "android": "https://dc.lft.to/lastmile_qr_scan"}, "lon": -77.02950416666667, "type": "electric_scooter", "fusion_lat": 0.0, "lat": 38.90392216666667, "name": "a06b8048849dbd5bccabddff00bac8cc", "fusion_lon": 0.0, "bike_id": "a06b8048849dbd5bccabddff00bac8cc", "is_disabled": 0, "is_reserved": 0}, {"rental_uris": {"ios": "https://dc.lft.to/lastmile_qr_scan", "android": "https://dc.lft.to/lastmile_qr_scan"}, "lon": -77.02347083333333, "type": "electric_scooter", "fusion_lat": 0.0, "lat": 38.935310333333334, "name": "a925178c9a1acc95f9927c79df2c91c0", "fusion_lon": 0.0, "bike_id": "a925178c9a1acc95f9927c79df2c91c0", "is_disabled": 0, "is_reserved": 0}, {"rental_uris": {"ios": "https://dc.lft.to/lastmile_qr_scan", "android": "https://dc.lft.to/lastmile_qr_scan"}, "lon": -76.98490883333334, "type": "electric_scooter", "fusion_lat": 0.0, "lat": 38.86046866666667, "name": "996562cd2f00932e8a6c9665c898f5dd", "fusion_lon": 0.0, "bike_id": "996562cd2f00932e8a6c9665c898f5dd", "is_disabled": 0, "is_reserved": 0}, {"rental_uris": {"ios": "https://dc.lft.to/lastmile_qr_scan", "android": "https://dc.lft.to/lastmile_qr_scan"}, "lon": -77.0517165, "type": "electric_scooter", "fusion_lat": 0.0, "lat": 38.9242285, "name": "139c25c491a3b40eca956041af3ce58f", "fusion_lon": 0.0, "bike_id": "139c25c491a3b40eca956041af3ce58f", "is_disabled": 0, "is_reserved": 0}, {"rental_uris": {"ios": "https://dc.lft.to/lastmile_qr_scan", "android": "https://dc.lft.to/lastmile_qr_scan"}, "lon": -77.04508816666667, "type": "electric_scooter", "fusion_lat": 0.0, "lat": 38.88608466666667, "name": "b472d6da0090cf573b2fc3fb1da67ff1", "fusion_lon": 0.0, "bike_id": "b472d6da0090cf573b2fc3fb1da67ff1", "is_disabled": 0, "is_reserved": 0}, {"rental_uris": {"ios": "https://dc.lft.to/lastmile_qr_scan", "android": "https://dc.lft.to/lastmile_qr_scan"}, "lon": -77.050023, "type": "electric_scooter", "fusion_lat": 0.0, "lat": 38.89235016666667, "name": "11337be925bdf8b565fd163adb5b233d", "fusion_lon": 0.0, "bike_id": "11337be925bdf8b565fd163adb5b233d", "is_disabled": 0, "is_reserved": 0}, {"rental_uris": {"ios": "https://dc.lft.to/lastmile_qr_scan", "android": "https://dc.lft.to/lastmile_qr_scan"}, "lon": -76.98840666666666, "type": "electric_bike", "fusion_lat": 0.0, "lat": 38.84269966666667, "name": "ba770ff61400c766c8eb1148f2e6344c", "fusion_lon": 0.0, "bike_id": "ba770ff61400c766c8eb1148f2e6344c", "is_disabled": 0, "is_reserved": 0}, {"rental_uris": {"ios": "https://dc.lft.to/lastmile_qr_scan", "android": "https://dc.lft.to/lastmile_qr_scan"}, "lon": -76.9856455, "type": "electric_scooter", "fusion_lat": 0.0, "lat": 38.89206183333334, "name": "bf7b7941e197f942bd8d1a106924125a", "fusion_lon": 0.0, "bike_id": "bf7b7941e197f942bd8d1a106924125a", "is_disabled": 0, "is_reserved": 0}, {"rental_uris": {"ios": "https://dc.lft.to/lastmile_qr_scan", "android": "https://dc.lft.to/lastmile_qr_scan"}, "lon": -76.97881233333334, "type": "electric_scooter", "fusion_lat": 0.0, "lat": 38.90423066666666, "name": "0aaa5278789fb4daa2d6d7ab8374ea37", "fusion_lon": 0.0, "bike_id": "0aaa5278789fb4daa2d6d7ab8374ea37", "is_disabled": 0, "is_reserved": 0}, {"rental_uris": {"ios": "https://dc.lft.to/lastmile_qr_scan", "android": "https://dc.lft.to/lastmile_qr_scan"}, "lon": -77.03324483333333, "type": "electric_scooter", "fusion_lat": 0.0, "lat": 38.89751616666667, "name": "ac1bc1348c252ff16f8fb833275aa93a", "fusion_lon": 0.0, "bike_id": "ac1bc1348c252ff16f8fb833275aa93a", "is_disabled": 0, "is_reserved": 0}, {"rental_uris": {"ios": "https://dc.lft.to/lastmile_qr_scan", "android": "https://dc.lft.to/lastmile_qr_scan"}, "lon": -77.02373766666666, "type": "electric_scooter", "fusion_lat": 0.0, "lat": 38.892223666666666, "name": "91df6813a0440c0855680025747536b2", "fusion_lon": 0.0, "bike_id": "91df6813a0440c0855680025747536b2", "is_disabled": 0, "is_reserved": 0}, {"rental_uris": {"ios": "https://dc.lft.to/lastmile_qr_scan", "android": "https://dc.lft.to/lastmile_qr_scan"}, "lon": -77.01390116666667, "type": "electric_scooter", "fusion_lat": 0.0, "lat": 38.97012933333333, "name": "7e892522e181e80883b16fb34a54bcfc", "fusion_lon": 0.0, "bike_id": "7e892522e181e80883b16fb34a54bcfc", "is_disabled": 0, "is_reserved": 0}, {"rental_uris": {"ios": "https://dc.lft.to/lastmile_qr_scan", "android": "https://dc.lft.to/lastmile_qr_scan"}, "lon": -76.99510616666667, "type": "electric_scooter", "fusion_lat": 0.0, "lat": 38.8447085, "name": "266dda87a550d7f6bb0dc3a47123c021", "fusion_lon": 0.0, "bike_id": "266dda87a550d7f6bb0dc3a47123c021", "is_disabled": 0, "is_reserved": 0}, {"rental_uris": {"ios": "https://dc.lft.to/lastmile_qr_scan", "android": "https://dc.lft.to/lastmile_qr_scan"}, "lon": -77.10087983333334, "type": "electric_bike", "fusion_lat": 0.0, "lat": 38.95955716666667, "name": "e62d7cb2bd27dc92915da34735e39d47", "fusion_lon": 0.0, "bike_id": "e62d7cb2bd27dc92915da34735e39d47", "is_disabled": 0, "is_reserved": 0}, {"rental_uris": {"ios": "https://dc.lft.to/lastmile_qr_scan", "android": "https://dc.lft.to/lastmile_qr_scan"}, "lon": -77.02210183333334, "type": "electric_scooter", "fusion_lat": 0.0, "lat": 38.91548516666667, "name": "fb3b3a27f96338fb29676d8d3568fa64", "fusion_lon": 0.0, "bike_id": "fb3b3a27f96338fb29676d8d3568fa64", "is_disabled": 0, "is_reserved": 0}, {"rental_uris": {"ios": "https://dc.lft.to/lastmile_qr_scan", "android": "https://dc.lft.to/lastmile_qr_scan"}, "lon": -76.9917925, "type": "electric_scooter", "fusion_lat": 0.0, "lat": 38.904556, "name": "9ee3737290a999c14798783ef07d8027", "fusion_lon": 0.0, "bike_id": "9ee3737290a999c14798783ef07d8027", "is_disabled": 0, "is_reserved": 0}, {"rental_uris": {"ios": "https://dc.lft.to/lastmile_qr_scan", "android": "https://dc.lft.to/lastmile_qr_scan"}, "lon": -76.99942933333334, "type": "electric_scooter", "fusion_lat": 0.0, "lat": 38.8429045, "name": "163c28652bfbff163ebc73d1398dc15d", "fusion_lon": 0.0, "bike_id": "163c28652bfbff163ebc73d1398dc15d", "is_disabled": 0, "is_reserved": 0}, {"rental_uris": {"ios": "https://dc.lft.to/lastmile_qr_scan", "android": "https://dc.lft.to/lastmile_qr_scan"}, "lon": -76.90821666666666, "type": "electric_bike", "fusion_lat": 0.0, "lat": 39.002553166666665, "name": "1095dcbe701b13e4665272fe14014366", "fusion_lon": 0.0, "bike_id": "1095dcbe701b13e4665272fe14014366", "is_disabled": 0, "is_reserved": 0}, {"rental_uris": {"ios": "https://dc.lft.to/lastmile_qr_scan", "android": "https://dc.lft.to/lastmile_qr_scan"}, "lon": -77.11217616666667, "type": "electric_bike", "fusion_lat": 0.0, "lat": 38.8287465, "name": "6f30a788b1829e241b09162f334c2b74", "fusion_lon": 0.0, "bike_id": "6f30a788b1829e241b09162f334c2b74", "is_disabled": 0, "is_reserved": 0}, {"rental_uris": {"ios": "https://dc.lft.to/lastmile_qr_scan", "android": "https://dc.lft.to/lastmile_qr_scan"}, "lon": -77.020739, "type": "electric_scooter", "fusion_lat": 0.0, "lat": 38.881875666666666, "name": "cf08479323f4735d8a33202c8474ba9a", "fusion_lon": 0.0, "bike_id": "cf08479323f4735d8a33202c8474ba9a", "is_disabled": 0, "is_reserved": 0}, {"rental_uris": {"ios": "https://dc.lft.to/lastmile_qr_scan", "android": "https://dc.lft.to/lastmile_qr_scan"}, "lon": -77.023982, "type": "electric_scooter", "fusion_lat": 0.0, "lat": 38.91572816666667, "name": "10c90f84f219f27f69ba37b2ea4ce0b4", "fusion_lon": 0.0, "bike_id": "10c90f84f219f27f69ba37b2ea4ce0b4", "is_disabled": 0, "is_reserved": 0}, {"rental_uris": {"ios": "https://dc.lft.to/lastmile_qr_scan", "android": "https://dc.lft.to/lastmile_qr_scan"}, "lon": -77.0515765, "type": "electric_scooter", "fusion_lat": 0.0, "lat": 38.897778833333334, "name": "a44217beea99e74dc1a2a00775df5e00", "fusion_lon": 0.0, "bike_id": "a44217beea99e74dc1a2a00775df5e00", "is_disabled": 0, "is_reserved": 0}, {"rental_uris": {"ios": "https://dc.lft.to/lastmile_qr_scan", "android": "https://dc.lft.to/lastmile_qr_scan"}, "lon": -77.03856916666666, "type": "electric_scooter", "fusion_lat": 0.0, "lat": 38.90408866666667, "name": "23d33013ab8d633c690d911a277ccd54", "fusion_lon": 0.0, "bike_id": "23d33013ab8d633c690d911a277ccd54", "is_disabled": 0, "is_reserved": 0}, {"rental_uris": {"ios": "https://dc.lft.to/lastmile_qr_scan", "android": "https://dc.lft.to/lastmile_qr_scan"}, "lon": -77.01433833333333, "type": "electric_scooter", "fusion_lat": 0.0, "lat": 38.929907, "name": "32f28c07752cdd2b379bc967c192b2c2", "fusion_lon": 0.0, "bike_id": "32f28c07752cdd2b379bc967c192b2c2", "is_disabled": 0, "is_reserved": 0}, {"rental_uris": {"ios": "https://dc.lft.to/lastmile_qr_scan", "android": "https://dc.lft.to/lastmile_qr_scan"}, "lon": -77.01756316666666, "type": "electric_scooter", "fusion_lat": 0.0, "lat": 38.877343, "name": "cf23771d8177cfe32475f7d804f8c88d", "fusion_lon": 0.0, "bike_id": "cf23771d8177cfe32475f7d804f8c88d", "is_disabled": 0, "is_reserved": 0}, {"rental_uris": {"ios": "https://dc.lft.to/lastmile_qr_scan", "android": "https://dc.lft.to/lastmile_qr_scan"}, "lon": -76.99543233333333, "type": "electric_scooter", "fusion_lat": 0.0, "lat": 38.88609666666667, "name": "3bece8ac61b7e42fbb9c6e60f13a4192", "fusion_lon": 0.0, "bike_id": "3bece8ac61b7e42fbb9c6e60f13a4192", "is_disabled": 0, "is_reserved": 0}, {"rental_uris": {"ios": "https://dc.lft.to/lastmile_qr_scan", "android": "https://dc.lft.to/lastmile_qr_scan"}, "lon": -77.03168966666667, "type": "electric_scooter", "fusion_lat": 0.0, "lat": 38.893347166666665, "name": "7961df9148149cf184972648c300d49e", "fusion_lon": 0.0, "bike_id": "7961df9148149cf184972648c300d49e", "is_disabled": 0, "is_reserved": 0}, {"rental_uris": {"ios": "https://dc.lft.to/lastmile_qr_scan", "android": "https://dc.lft.to/lastmile_qr_scan"}, "lon": -77.001329, "type": "electric_bike", "fusion_lat": 0.0, "lat": 38.9587055, "name": "c6f6faa7f84d56a81952dd43c65e47b0", "fusion_lon": 0.0, "bike_id": "c6f6faa7f84d56a81952dd43c65e47b0", "is_disabled": 0, "is_reserved": 0}, {"rental_uris": {"ios": "https://dc.lft.to/lastmile_qr_scan", "android": "https://dc.lft.to/lastmile_qr_scan"}, "lon": -77.0170095, "type": "electric_scooter", "fusion_lat": 0.0, "lat": 38.92025133333333, "name": "d523f91de0f6c432069b88eb83601a65", "fusion_lon": 0.0, "bike_id": "d523f91de0f6c432069b88eb83601a65", "is_disabled": 0, "is_reserved": 0}, {"rental_uris": {"ios": "https://dc.lft.to/lastmile_qr_scan", "android": "https://dc.lft.to/lastmile_qr_scan"}, "lon": -77.0312725, "type": "electric_scooter", "fusion_lat": 0.0, "lat": 38.92375783333333, "name": "8f996e478e0aae7db6f3d827369d9fb8", "fusion_lon": 0.0, "bike_id": "8f996e478e0aae7db6f3d827369d9fb8", "is_disabled": 0, "is_reserved": 0}, {"rental_uris": {"ios": "https://dc.lft.to/lastmile_qr_scan", "android": "https://dc.lft.to/lastmile_qr_scan"}, "lon": -77.0264925, "type": "electric_scooter", "fusion_lat": 0.0, "lat": 38.938643166666665, "name": "6fb2235d37afda8bac88b1d4e7ba972c", "fusion_lon": 0.0, "bike_id": "6fb2235d37afda8bac88b1d4e7ba972c", "is_disabled": 0, "is_reserved": 0}, {"rental_uris": {"ios": "https://dc.lft.to/lastmile_qr_scan", "android": "https://dc.lft.to/lastmile_qr_scan"}, "lon": -77.012851, "type": "electric_scooter", "fusion_lat": 0.0, "lat": 38.90053666666667, "name": "8c56e04f768bac900724ce4808489950", "fusion_lon": 0.0, "bike_id": "8c56e04f768bac900724ce4808489950", "is_disabled": 0, "is_reserved": 0}, {"rental_uris": {"ios": "https://dc.lft.to/lastmile_qr_scan", "android": "https://dc.lft.to/lastmile_qr_scan"}, "lon": -77.0454685, "type": "electric_scooter", "fusion_lat": 0.0, "lat": 38.91793216666667, "name": "767ccb137842a2a9aa45672883c0ac96", "fusion_lon": 0.0, "bike_id": "767ccb137842a2a9aa45672883c0ac96", "is_disabled": 0, "is_reserved": 0}, {"rental_uris": {"ios": "https://dc.lft.to/lastmile_qr_scan", "android": "https://dc.lft.to/lastmile_qr_scan"}, "lon": -77.03636816666666, "type": "electric_scooter", "fusion_lat": 0.0, "lat": 38.92462666666667, "name": "b1e5929e11dbcdc42967301e67d84924", "fusion_lon": 0.0, "bike_id": "b1e5929e11dbcdc42967301e67d84924", "is_disabled": 0, "is_reserved": 0}, {"rental_uris": {"ios": "https://dc.lft.to/lastmile_qr_scan", "android": "https://dc.lft.to/lastmile_qr_scan"}, "lon": -77.02238966666667, "type": "electric_scooter", "fusion_lat": 0.0, "lat": 38.902204166666664, "name": "53a61380e23d299782b4736562cb4ff2", "fusion_lon": 0.0, "bike_id": "53a61380e23d299782b4736562cb4ff2", "is_disabled": 0, "is_reserved": 0}, {"rental_uris": {"ios": "https://dc.lft.to/lastmile_qr_scan", "android": "https://dc.lft.to/lastmile_qr_scan"}, "lon": -77.03216083333334, "type": "electric_scooter", "fusion_lat": 0.0, "lat": 38.9140715, "name": "0c1b837d38e3b4ab2c8b351ed620311a", "fusion_lon": 0.0, "bike_id": "0c1b837d38e3b4ab2c8b351ed620311a", "is_disabled": 0, "is_reserved": 0}, {"rental_uris": {"ios": "https://dc.lft.to/lastmile_qr_scan", "android": "https://dc.lft.to/lastmile_qr_scan"}, "lon": -77.0262255, "type": "electric_scooter", "fusion_lat": 0.0, "lat": 38.89706916666667, "name": "78f51548b15fba05e047fa3b5433f9cd", "fusion_lon": 0.0, "bike_id": "78f51548b15fba05e047fa3b5433f9cd", "is_disabled": 0, "is_reserved": 0}, {"rental_uris": {"ios": "https://dc.lft.to/lastmile_qr_scan", "android": "https://dc.lft.to/lastmile_qr_scan"}, "lon": -77.040978, "type": "electric_scooter", "fusion_lat": 0.0, "lat": 38.91778033333333, "name": "bde60f68868f437c06830a08f8c8ce33", "fusion_lon": 0.0, "bike_id": "bde60f68868f437c06830a08f8c8ce33", "is_disabled": 0, "is_reserved": 0}, {"rental_uris": {"ios": "https://dc.lft.to/lastmile_qr_scan", "android": "https://dc.lft.to/lastmile_qr_scan"}, "lon": -76.98832716666666, "type": "electric_scooter", "fusion_lat": 0.0, "lat": 38.8946715, "name": "b649c4b326c0fcb185c578b10787ea70", "fusion_lon": 0.0, "bike_id": "b649c4b326c0fcb185c578b10787ea70", "is_disabled": 0, "is_reserved": 0}, {"rental_uris": {"ios": "https://dc.lft.to/lastmile_qr_scan", "android": "https://dc.lft.to/lastmile_qr_scan"}, "lon": -77.03207366666666, "type": "electric_scooter", "fusion_lat": 0.0, "lat": 38.917631166666666, "name": "1e238ddba75376e91ac5125a565fdcac", "fusion_lon": 0.0, "bike_id": "1e238ddba75376e91ac5125a565fdcac", "is_disabled": 0, "is_reserved": 0}, {"rental_uris": {"ios": "https://dc.lft.to/lastmile_qr_scan", "android": "https://dc.lft.to/lastmile_qr_scan"}, "lon": -77.0629875, "type": "electric_scooter", "fusion_lat": 0.0, "lat": 38.913332, "name": "1ddd93c4bf854253277c6b0a4b89f5ab", "fusion_lon": 0.0, "bike_id": "1ddd93c4bf854253277c6b0a4b89f5ab", "is_disabled": 0, "is_reserved": 0}, {"rental_uris": {"ios": "https://dc.lft.to/lastmile_qr_scan", "android": "https://dc.lft.to/lastmile_qr_scan"}, "lon": -76.9795185, "type": "electric_scooter", "fusion_lat": 0.0, "lat": 38.903813166666666, "name": "796e6ad84c4f4beb7209b6a52df61c5c", "fusion_lon": 0.0, "bike_id": "796e6ad84c4f4beb7209b6a52df61c5c", "is_disabled": 0, "is_reserved": 0}, {"rental_uris": {"ios": "https://dc.lft.to/lastmile_qr_scan", "android": "https://dc.lft.to/lastmile_qr_scan"}, "lon": -77.002865, "type": "electric_scooter", "fusion_lat": 0.0, "lat": 38.89487533333333, "name": "25cae990bee181a584f809b559cba52e", "fusion_lon": 0.0, "bike_id": "25cae990bee181a584f809b559cba52e", "is_disabled": 0, "is_reserved": 0}, {"rental_uris": {"ios": "https://dc.lft.to/lastmile_qr_scan", "android": "https://dc.lft.to/lastmile_qr_scan"}, "lon": -77.0295895, "type": "electric_scooter", "fusion_lat": 0.0, "lat": 38.916033, "name": "53ad4d17774b955b9a8b9c275e4d8291", "fusion_lon": 0.0, "bike_id": "53ad4d17774b955b9a8b9c275e4d8291", "is_disabled": 0, "is_reserved": 0}, {"rental_uris": {"ios": "https://dc.lft.to/lastmile_qr_scan", "android": "https://dc.lft.to/lastmile_qr_scan"}, "lon": -77.03261216666667, "type": "electric_scooter", "fusion_lat": 0.0, "lat": 38.94786166666667, "name": "ca0c26b59dad9b590aa7a5e0998a1104", "fusion_lon": 0.0, "bike_id": "ca0c26b59dad9b590aa7a5e0998a1104", "is_disabled": 0, "is_reserved": 0}, {"rental_uris": {"ios": "https://dc.lft.to/lastmile_qr_scan", "android": "https://dc.lft.to/lastmile_qr_scan"}, "lon": -77.0312735, "type": "electric_scooter", "fusion_lat": 0.0, "lat": 38.913356666666665, "name": "ffee3965a3121ced5af71f8c30859ea6", "fusion_lon": 0.0, "bike_id": "ffee3965a3121ced5af71f8c30859ea6", "is_disabled": 0, "is_reserved": 0}, {"rental_uris": {"ios": "https://dc.lft.to/lastmile_qr_scan", "android": "https://dc.lft.to/lastmile_qr_scan"}, "lon": -77.021297, "type": "electric_scooter", "fusion_lat": 0.0, "lat": 38.93110383333333, "name": "b209cd43f8ebc005deffab8179299ad6", "fusion_lon": 0.0, "bike_id": "b209cd43f8ebc005deffab8179299ad6", "is_disabled": 0, "is_reserved": 0}, {"rental_uris": {"ios": "https://dc.lft.to/lastmile_qr_scan", "android": "https://dc.lft.to/lastmile_qr_scan"}, "lon": -77.05882366666667, "type": "electric_scooter", "fusion_lat": 0.0, "lat": 38.936373833333334, "name": "95169dea4748dca40333b83351752438", "fusion_lon": 0.0, "bike_id": "95169dea4748dca40333b83351752438", "is_disabled": 0, "is_reserved": 0}, {"rental_uris": {"ios": "https://dc.lft.to/lastmile_qr_scan", "android": "https://dc.lft.to/lastmile_qr_scan"}, "lon": -76.9867915, "type": "electric_scooter", "fusion_lat": 0.0, "lat": 38.882169833333336, "name": "2ec37098e83a0d6414c990559872487d", "fusion_lon": 0.0, "bike_id": "2ec37098e83a0d6414c990559872487d", "is_disabled": 0, "is_reserved": 0}, {"rental_uris": {"ios": "https://dc.lft.to/lastmile_qr_scan", "android": "https://dc.lft.to/lastmile_qr_scan"}, "lon": -77.04736466666667, "type": "electric_scooter", "fusion_lat": 0.0, "lat": 38.912889166666666, "name": "02bb09b59d1b9317c138182cb993a4d8", "fusion_lon": 0.0, "bike_id": "02bb09b59d1b9317c138182cb993a4d8", "is_disabled": 0, "is_reserved": 0}, {"rental_uris": {"ios": "https://dc.lft.to/lastmile_qr_scan", "android": "https://dc.lft.to/lastmile_qr_scan"}, "lon": -77.03777883333333, "type": "electric_scooter", "fusion_lat": 0.0, "lat": 38.905657, "name": "1a447d1e723991b81f108f7b4b631a5c", "fusion_lon": 0.0, "bike_id": "1a447d1e723991b81f108f7b4b631a5c", "is_disabled": 0, "is_reserved": 0}, {"rental_uris": {"ios": "https://dc.lft.to/lastmile_qr_scan", "android": "https://dc.lft.to/lastmile_qr_scan"},