{"data": {"bikes": [{"is_disabled": 0, "lat": 38.8834445, "bike_id": "6f5bbf22a3328f5654d460d86cfc9c07", "fusion_lon": 0.0, "is_reserved": 0, "type": "electric_scooter", "name": "6f5bbf22a3328f5654d460d86cfc9c07", "lon": -77.01615783333334, "rental_uris": {"android": "https://dc.lft.to/lastmile_qr_scan", "ios": "https://dc.lft.to/lastmile_qr_scan"}, "fusion_lat": 0.0}, {"is_disabled": 0, "lat": 38.90564033333333, "bike_id": "79e9f7eeac3da48cecaa6765c75dfc6b", "fusion_lon": 0.0, "is_reserved": 0, "type": "electric_scooter", "name": "79e9f7eeac3da48cecaa6765c75dfc6b", "lon": -76.98143583333334, "rental_uris": {"android": "https://dc.lft.to/lastmile_qr_scan", "ios": "https://dc.lft.to/lastmile_qr_scan"}, "fusion_lat": 0.0}, {"is_disabled": 0, "lat": 38.919685, "bike_id": "cb82176b9c3bdbef06072910af129266", "fusion_lon": 0.0, "is_reserved": 0, "type": "electric_scooter", "name": "cb82176b9c3bdbef06072910af129266", "lon": -77.04209566666667, "rental_uris": {"android": "https://dc.lft.to/lastmile_qr_scan", "ios": "https://dc.lft.to/lastmile_qr_scan"}, "fusion_lat": 0.0}, {"is_disabled": 0, "lat": 38.90576, "bike_id": "6650028848cc80af7f346a80e1a2c28a", "fusion_lon": 0.0, "is_reserved": 0, "type": "electric_scooter", "name": "6650028848cc80af7f346a80e1a2c28a", "lon": -77.04314366666667, "rental_uris": {"android": "https://dc.lft.to/lastmile_qr_scan", "ios": "https://dc.lft.to/lastmile_qr_scan"}, "fusion_lat": 0.0}, {"is_disabled": 0, "lat": 38.86615, "bike_id": "5a69c2219128ded868bac4fc2042b462", "fusion_lon": 0.0, "is_reserved": 0, "type": "electric_scooter", "name": "5a69c2219128ded868bac4fc2042b462", "lon": -76.982079, "rental_uris": {"android": "https://dc.lft.to/lastmile_qr_scan", "ios": "https://dc.lft.to/lastmile_qr_scan"}, "fusion_lat": 0.0}, {"is_disabled": 0, "lat": 38.940910333333335, "bike_id": "b7f277e32399fc7fc2362b80add29025", "fusion_lon": 0.0, "is_reserved": 0, "type": "electric_scooter", "name": "b7f277e32399fc7fc2362b80add29025", "lon": -77.06136716666667, "rental_uris": {"android": "https://dc.lft.to/lastmile_qr_scan", "ios": "https://dc.lft.to/lastmile_qr_scan"}, "fusion_lat": 0.0}, {"is_disabled": 0, "lat": 38.9084185, "bike_id": "83261f856f4e5e47d6bb554361d9232b", "fusion_lon": 0.0, "is_reserved": 0, "type": "electric_scooter", "name": "83261f856f4e5e47d6bb554361d9232b", "lon": -77.02693, "rental_uris": {"android": "https://dc.lft.to/lastmile_qr_scan", "ios": "https://dc.lft.to/lastmile_qr_scan"}, "fusion_lat": 0.0}, {"is_disabled": 0, "lat": 38.92684333333333, "bike_id": "6ba7a2d46d14a10a51c0b371712dcd27", "fusion_lon": 0.0, "is_reserved": 0, "type": "electric_scooter", "name": "6ba7a2d46d14a10a51c0b371712dcd27", "lon": -77.02784666666666, "rental_uris": {"android": "https://dc.lft.to/lastmile_qr_scan", "ios": "https://dc.lft.to/lastmile_qr_scan"}, "fusion_lat": 0.0}, {"is_disabled": 0, "lat": 38.93206566666667, "bike_id": "b516a789802faef8afc7c3e99d5a6a5c", "fusion_lon": 0.0, "is_reserved": 0, "type": "electric_scooter", "name": "b516a789802faef8afc7c3e99d5a6a5c", "lon": -77.03280183333334, "rental_uris": {"android": "https://dc.lft.to/lastmile_qr_scan", "ios": "https://dc.lft.to/lastmile_qr_scan"}, "fusion_lat": 0.0}, {"is_disabled": 0, "lat": 38.87854516666667, "bike_id": "8560a0a94ccf6b6fadc46c6dcbfe0916", "fusion_lon": 0.0, "is_reserved": 0, "type": "electric_scooter", "name": "8560a0a94ccf6b6fadc46c6dcbfe0916", "lon": -77.00740166666667, "rental_uris": {"android": "https://dc.lft.to/lastmile_qr_scan", "ios": "https://dc.lft.to/lastmile_qr_scan"}, "fusion_lat": 0.0}, {"is_disabled": 0, "lat": 38.91747733333333, "bike_id": "5fd9576eb759be0f92e2f97e58b5b4a8", "fusion_lon": 0.0, "is_reserved": 0, "type": "electric_scooter", "name": "5fd9576eb759be0f92e2f97e58b5b4a8", "lon": -77.0416065, "rental_uris": {"android": "https://dc.lft.to/lastmile_qr_scan", "ios": "https://dc.lft.to/lastmile_qr_scan"}, "fusion_lat": 0.0}, {"is_disabled": 0, "lat": 38.9425025, "bike_id": "4e89f2f037a9709feff34ebe26a999c9", "fusion_lon": 0.0, "is_reserved": 0, "type": "electric_scooter", "name": "4e89f2f037a9709feff34ebe26a999c9", "lon": -77.058846, "rental_uris": {"android": "https://dc.lft.to/lastmile_qr_scan", "ios": "https://dc.lft.to/lastmile_qr_scan"}, "fusion_lat": 0.0}, {"is_disabled": 0, "lat": 38.911055166666664, "bike_id": "7dff6f884c49a5a7729155bbf39bc0d4", "fusion_lon": 0.0, "is_reserved": 0, "type": "electric_scooter", "name": "7dff6f884c49a5a7729155bbf39bc0d4", "lon": -77.07345916666667, "rental_uris": {"android": "https://dc.lft.to/lastmile_qr_scan", "ios": "https://dc.lft.to/lastmile_qr_scan"}, "fusion_lat": 0.0}, {"is_disabled": 0, "lat": 38.9245475, "bike_id": "a447f5130ec2ee39ae03258ebe861835", "fusion_lon": 0.0, "is_reserved": 0, "type": "electric_scooter", "name": "a447f5130ec2ee39ae03258ebe861835", "lon": -77.040188, "rental_uris": {"android": "https://dc.lft.to/lastmile_qr_scan", "ios": "https://dc.lft.to/lastmile_qr_scan"}, "fusion_lat": 0.0}, {"is_disabled": 0, "lat": 38.872681166666666, "bike_id": "c0c290d527ae090cf989b834abad35a5", "fusion_lon": 0.0, "is_reserved": 0, "type": "electric_scooter", "name": "c0c290d527ae090cf989b834abad35a5", "lon": -77.01744333333333, "rental_uris": {"android": "https://dc.lft.to/lastmile_qr_scan", "ios": "https://dc.lft.to/lastmile_qr_scan"}, "fusion_lat": 0.0}, {"is_disabled": 0, "lat": 38.91052916666666, "bike_id": "17adc99479104f5a70fd90a44276b51f", "fusion_lon": 0.0, "is_reserved": 0, "type": "electric_scooter", "name": "17adc99479104f5a70fd90a44276b51f", "lon": -77.02975566666667, "rental_uris": {"android": "https://dc.lft.to/lastmile_qr_scan", "ios": "https://dc.lft.to/lastmile_qr_scan"}, "fusion_lat": 0.0}, {"is_disabled": 0, "lat": 38.95427, "bike_id": "fae99f7d03cebac368f73c37c6682207", "fusion_lon": 0.0, "is_reserved": 0, "type": "electric_scooter", "name": "fae99f7d03cebac368f73c37c6682207", "lon": -77.02767833333333, "rental_uris": {"android": "https://dc.lft.to/lastmile_qr_scan", "ios": "https://dc.lft.to/lastmile_qr_scan"}, "fusion_lat": 0.0}, {"is_disabled": 0, "lat": 38.921519833333335, "bike_id": "26304e8bc17ec150da7b7d54a47b0373", "fusion_lon": 0.0, "is_reserved": 0, "type": "electric_scooter", "name": "26304e8bc17ec150da7b7d54a47b0373", "lon": -77.03868716666666, "rental_uris": {"android": "https://dc.lft.to/lastmile_qr_scan", "ios": "https://dc.lft.to/lastmile_qr_scan"}, "fusion_lat": 0.0}, {"is_disabled": 0, "lat": 38.924220166666665, "bike_id": "c29cf4c9fce25db2f5ece65573343f32", "fusion_lon": 0.0, "is_reserved": 0, "type": "electric_scooter", "name": "c29cf4c9fce25db2f5ece65573343f32", "lon": -77.01957133333333, "rental_uris": {"android": "https://dc.lft.to/lastmile_qr_scan", "ios": "https://dc.lft.to/lastmile_qr_scan"}, "fusion_lat": 0.0}, {"is_disabled": 0, "lat": 38.917291, "bike_id": "67923fe52f30fecb82c24f9da3db61c4", "fusion_lon": 0.0, "is_reserved": 0, "type": "electric_scooter", "name": "67923fe52f30fecb82c24f9da3db61c4", "lon": -77.03617583333333, "rental_uris": {"android": "https://dc.lft.to/lastmile_qr_scan", "ios": "https://dc.lft.to/lastmile_qr_scan"}, "fusion_lat": 0.0}, {"is_disabled": 0, "lat": 38.9306695, "bike_id": "55ecd8990be66567dfeac8c4ec9a662d", "fusion_lon": 0.0, "is_reserved": 0, "type": "electric_scooter", "name": "55ecd8990be66567dfeac8c4ec9a662d", "lon": -77.07273533333333, "rental_uris": {"android": "https://dc.lft.to/lastmile_qr_scan", "ios": "https://dc.lft.to/lastmile_qr_scan"}, "fusion_lat": 0.0}, {"is_disabled": 0, "lat": 38.881058833333334, "bike_id": "2b27dc46129918a1a853f3424e2d1b46", "fusion_lon": 0.0, "is_reserved": 0, "type": "electric_scooter", "name": "2b27dc46129918a1a853f3424e2d1b46", "lon": -76.99508766666666, "rental_uris": {"android": "https://dc.lft.to/lastmile_qr_scan", "ios": "https://dc.lft.to/lastmile_qr_scan"}, "fusion_lat": 0.0}, {"is_disabled": 0, "lat": 38.910647833333336, "bike_id": "ef6c30e7597c21c9cf3727a4c67e5933", "fusion_lon": 0.0, "is_reserved": 0, "type": "electric_scooter", "name": "ef6c30e7597c21c9cf3727a4c67e5933", "lon": -77.05478016666666, "rental_uris": {"android": "https://dc.lft.to/lastmile_qr_scan", "ios": "https://dc.lft.to/lastmile_qr_scan"}, "fusion_lat": 0.0}, {"is_disabled": 0, "lat": 38.9622895, "bike_id": "fc59528cc16866428f4c39b4837cb3c3", "fusion_lon": 0.0, "is_reserved": 0, "type": "electric_bike", "name": "fc59528cc16866428f4c39b4837cb3c3", "lon": -77.026324, "rental_uris": {"android": "https://dc.lft.to/lastmile_qr_scan", "ios": "https://dc.lft.to/lastmile_qr_scan"}, "fusion_lat": 0.0}, {"is_disabled": 0, "lat": 38.917085666666665, "bike_id": "3b068a1e7115d30489241362c2d17711", "fusion_lon": 0.0, "is_reserved": 0, "type": "electric_scooter", "name": "3b068a1e7115d30489241362c2d17711", "lon": -77.02420633333334, "rental_uris": {"android": "https://dc.lft.to/lastmile_qr_scan", "ios": "https://dc.lft.to/lastmile_qr_scan"}, "fusion_lat": 0.0}, {"is_disabled": 0, "lat": 38.91675866666667, "bike_id": "dd54cab0aecf366da9fa04567c0499c1", "fusion_lon": 0.0, "is_reserved": 0, "type": "electric_scooter", "name": "dd54cab0aecf366da9fa04567c0499c1", "lon": -77.02958866666667, "rental_uris": {"android": "https://dc.lft.to/lastmile_qr_scan", "ios": "https://dc.lft.to/lastmile_qr_scan"}, "fusion_lat": 0.0}, {"is_disabled": 0, "lat": 38.8927515, "bike_id": "b5c31719a1e113d0ca2caf6d2e2581aa", "fusion_lon": 0.0, "is_reserved": 0, "type": "electric_bike", "name": "b5c31719a1e113d0ca2caf6d2e2581aa", "lon": -77.00192233333334, "rental_uris": {"android": "https://dc.lft.to/lastmile_qr_scan", "ios": "https://dc.lft.to/lastmile_qr_scan"}, "fusion_lat": 0.0}, {"is_disabled": 0, "lat": 38.87108216666667, "bike_id": "05670957898fd5a94272bf8a97deb761", "fusion_lon": 0.0, "is_reserved": 0, "type": "electric_scooter", "name": "05670957898fd5a94272bf8a97deb761", "lon": -76.96602616666667, "rental_uris": {"android": "https://dc.lft.to/lastmile_qr_scan", "ios": "https://dc.lft.to/lastmile_qr_scan"}, "fusion_lat": 0.0}, {"is_disabled": 0, "lat": 38.938711833333336, "bike_id": "2e62f7216b94ad184303b8e262d0f984", "fusion_lon": 0.0, "is_reserved": 0, "type": "electric_scooter", "name": "2e62f7216b94ad184303b8e262d0f984", "lon": -77.02491483333333, "rental_uris": {"android": "https://dc.lft.to/lastmile_qr_scan", "ios": "https://dc.lft.to/lastmile_qr_scan"}, "fusion_lat": 0.0}, {"is_disabled": 0, "lat": 38.8985425, "bike_id": "3f14ccbcc9150f39d30b1ff563129c78", "fusion_lon": 0.0, "is_reserved": 0, "type": "electric_scooter", "name": "3f14ccbcc9150f39d30b1ff563129c78", "lon": -76.99032766666667, "rental_uris": {"android": "https://dc.lft.to/lastmile_qr_scan", "ios": "https://dc.lft.to/lastmile_qr_scan"}, "fusion_lat": 0.0}, {"is_disabled": 0, "lat": 38.92274183333333, "bike_id": "38b5bc7614dd3f958519b565e97cf67e", "fusion_lon": 0.0, "is_reserved": 0, "type": "electric_bike", "name": "38b5bc7614dd3f958519b565e97cf67e", "lon": -77.01987066666666, "rental_uris": {"android": "https://dc.lft.to/lastmile_qr_scan", "ios": "https://dc.lft.to/lastmile_qr_scan"}, "fusion_lat": 0.0}, {"is_disabled": 0, "lat": 38.903712, "bike_id": "d6280032d36f081918b792057f5c2fa2", "fusion_lon": 0.0, "is_reserved": 0, "type": "electric_scooter", "name": "d6280032d36f081918b792057f5c2fa2", "lon": -77.03833333333333, "rental_uris": {"android": "https://dc.lft.to/lastmile_qr_scan", "ios": "https://dc.lft.to/lastmile_qr_scan"}, "fusion_lat": 0.0}, {"is_disabled": 0, "lat": 38.98264233333333, "bike_id": "45c494b78e2b518f0f4c4bdc9222c901", "fusion_lon": 0.0, "is_reserved": 0, "type": "electric_bike", "name": "45c494b78e2b518f0f4c4bdc9222c901", "lon": -77.02601533333333, "rental_uris": {"android": "https://dc.lft.to/lastmile_qr_scan", "ios": "https://dc.lft.to/lastmile_qr_scan"}, "fusion_lat": 0.0}, {"is_disabled": 0, "lat": 38.90662233333333, "bike_id": "9c9741695220cc634c6ff05a5041f03b", "fusion_lon": 0.0, "is_reserved": 0, "type": "electric_scooter", "name": "9c9741695220cc634c6ff05a5041f03b", "lon": -77.04149333333334, "rental_uris": {"android": "https://dc.lft.to/lastmile_qr_scan", "ios": "https://dc.lft.to/lastmile_qr_scan"}, "fusion_lat": 0.0}, {"is_disabled": 0, "lat": 38.92610616666666, "bike_id": "a18a19e07aac531daa05f54c93199e7c", "fusion_lon": 0.0, "is_reserved": 0, "type": "electric_scooter", "name": "a18a19e07aac531daa05f54c93199e7c", "lon": -77.02226483333334, "rental_uris": {"android": "https://dc.lft.to/lastmile_qr_scan", "ios": "https://dc.lft.to/lastmile_qr_scan"}, "fusion_lat": 0.0}, {"is_disabled": 0, "lat": 38.858094, "bike_id": "cb8b28abd4ba9a9144bc8b9479d92a01", "fusion_lon": 0.0, "is_reserved": 0, "type": "electric_scooter", "name": "cb8b28abd4ba9a9144bc8b9479d92a01", "lon": -76.9892445, "rental_uris": {"android": "https://dc.lft.to/lastmile_qr_scan", "ios": "https://dc.lft.to/lastmile_qr_scan"}, "fusion_lat": 0.0}, {"is_disabled": 0, "lat": 38.952551666666665, "bike_id": "e8ba45415a14a0cac046319c12d1a0b0", "fusion_lon": 0.0, "is_reserved": 0, "type": "electric_scooter", "name": "e8ba45415a14a0cac046319c12d1a0b0", "lon": -77.069819, "rental_uris": {"android": "https://dc.lft.to/lastmile_qr_scan", "ios": "https://dc.lft.to/lastmile_qr_scan"}, "fusion_lat": 0.0}, {"is_disabled": 0, "lat": 38.890540333333334, "bike_id": "3b496587192d2936a46963934827565d", "fusion_lon": 0.0, "is_reserved": 0, "type": "electric_bike", "name": "3b496587192d2936a46963934827565d", "lon": -76.94235566666667, "rental_uris": {"android": "https://dc.lft.to/lastmile_qr_scan", "ios": "https://dc.lft.to/lastmile_qr_scan"}, "fusion_lat": 0.0}, {"is_disabled": 0, "lat": 38.9288495, "bike_id": "f0d009d530ee4945c27cc6b93fe0a149", "fusion_lon": 0.0, "is_reserved": 0, "type": "electric_scooter", "name": "f0d009d530ee4945c27cc6b93fe0a149", "lon": -77.03334733333334, "rental_uris": {"android": "https://dc.lft.to/lastmile_qr_scan", "ios": "https://dc.lft.to/lastmile_qr_scan"}, "fusion_lat": 0.0}, {"is_disabled": 0, "lat": 38.9244485, "bike_id": "4dab4faef13974c272eb9c3ee6980e02", "fusion_lon": 0.0, "is_reserved": 0, "type": "electric_scooter", "name": "4dab4faef13974c272eb9c3ee6980e02", "lon": -77.04389233333333, "rental_uris": {"android": "https://dc.lft.to/lastmile_qr_scan", "ios": "https://dc.lft.to/lastmile_qr_scan"}, "fusion_lat": 0.0}, {"is_disabled": 0, "lat": 38.90022416666667, "bike_id": "a1b6f3c46eb574e48385d7110e15e75c", "fusion_lon": 0.0, "is_reserved": 0, "type": "electric_scooter", "name": "a1b6f3c46eb574e48385d7110e15e75c", "lon": -76.99859366666666, "rental_uris": {"android": "https://dc.lft.to/lastmile_qr_scan", "ios": "https://dc.lft.to/lastmile_qr_scan"}, "fusion_lat": 0.0}, {"is_disabled": 0, "lat": 38.90577116666667, "bike_id": "a5ee7420d1321678b23ef13b5816514f", "fusion_lon": 0.0, "is_reserved": 0, "type": "electric_scooter", "name": "a5ee7420d1321678b23ef13b5816514f", "lon": -77.02119433333333, "rental_uris": {"android": "https://dc.lft.to/lastmile_qr_scan", "ios": "https://dc.lft.to/lastmile_qr_scan"}, "fusion_lat": 0.0}, {"is_disabled": 0, "lat": 38.93446933333333, "bike_id": "97c285fe6e9456493ed3819ec6df41fc", "fusion_lon": 0.0, "is_reserved": 0, "type": "electric_scooter", "name": "97c285fe6e9456493ed3819ec6df41fc", "lon": -76.96466583333333, "rental_uris": {"android": "https://dc.lft.to/lastmile_qr_scan", "ios": "https://dc.lft.to/lastmile_qr_scan"}, "fusion_lat": 0.0}, {"is_disabled": 0, "lat": 38.89312566666667, "bike_id": "2dacca163f73137c6aa6804f8bfc77f0", "fusion_lon": 0.0, "is_reserved": 0, "type": "electric_scooter", "name": "2dacca163f73137c6aa6804f8bfc77f0", "lon": -77.01784933333333, "rental_uris": {"android": "https://dc.lft.to/lastmile_qr_scan", "ios": "https://dc.lft.to/lastmile_qr_scan"}, "fusion_lat": 0.0}, {"is_disabled": 0, "lat": 38.98491883333333, "bike_id": "72dd2b4aa0b6b437baa6696ee3c8be7b", "fusion_lon": 0.0, "is_reserved": 0, "type": "electric_scooter", "name": "72dd2b4aa0b6b437baa6696ee3c8be7b", "lon": -77.02683916666666, "rental_uris": {"android": "https://dc.lft.to/lastmile_qr_scan", "ios": "https://dc.lft.to/lastmile_qr_scan"}, "fusion_lat": 0.0}, {"is_disabled": 0, "lat": 38.926923333333335, "bike_id": "dffa589bf90ba20fdae15ddc6e42d864", "fusion_lon": 0.0, "is_reserved": 0, "type": "electric_scooter", "name": "dffa589bf90ba20fdae15ddc6e42d864", "lon": -77.01490333333334, "rental_uris": {"android": "https://dc.lft.to/lastmile_qr_scan", "ios": "https://dc.lft.to/lastmile_qr_scan"}, "fusion_lat": 0.0}, {"is_disabled": 0, "lat": 38.917548833333335, "bike_id": "2ed23fdcadd30b8c18c88827fd5d2c5e", "fusion_lon": 0.0, "is_reserved": 0, "type": "electric_scooter", "name": "2ed23fdcadd30b8c18c88827fd5d2c5e", "lon": -77.027044, "rental_uris": {"android": "https://dc.lft.to/lastmile_qr_scan", "ios": "https://dc.lft.to/lastmile_qr_scan"}, "fusion_lat": 0.0}, {"is_disabled": 0, "lat": 38.891992333333334, "bike_id": "d22e5e3ef502e6de369b837e5771b3e7", "fusion_lon": 0.0, "is_reserved": 0, "type": "electric_scooter", "name": "d22e5e3ef502e6de369b837e5771b3e7", "lon": -77.00228466666667, "rental_uris": {"android": "https://dc.lft.to/lastmile_qr_scan", "ios": "https://dc.lft.to/lastmile_qr_scan"}, "fusion_lat": 0.0}, {"is_disabled": 0, "lat": 38.905207833333336, "bike_id": "188aa812ca5066d646f136d12a0b1633", "fusion_lon": 0.0, "is_reserved": 0, "type": "electric_scooter", "name": "188aa812ca5066d646f136d12a0b1633", "lon": -77.054441, "rental_uris": {"android": "https://dc.lft.to/lastmile_qr_scan", "ios": "https://dc.lft.to/lastmile_qr_scan"}, "fusion_lat": 0.0}, {"is_disabled": 0, "lat": 38.90667966666667, "bike_id": "a4e177314348d39ffe0e0923b8d5aa70", "fusion_lon": 0.0, "is_reserved": 0, "type": "electric_scooter", "name": "a4e177314348d39ffe0e0923b8d5aa70", "lon": -77.0271085, "rental_uris": {"android": "https://dc.lft.to/lastmile_qr_scan", "ios": "https://dc.lft.to/lastmile_qr_scan"}, "fusion_lat": 0.0}, {"is_disabled": 0, "lat": 38.92268333333333, "bike_id": "ad35e387bc98aef66f354f86d9035605", "fusion_lon": 0.0, "is_reserved": 0, "type": "electric_scooter", "name": "ad35e387bc98aef66f354f86d9035605", "lon": -77.018679, "rental_uris": {"android": "https://dc.lft.to/lastmile_qr_scan", "ios": "https://dc.lft.to/lastmile_qr_scan"}, "fusion_lat": 0.0}, {"is_disabled": 0, "lat": 38.88402416666667, "bike_id": "a3d1c7d8eee86ebe9f963bc5f6bfc011", "fusion_lon": 0.0, "is_reserved": 0, "type": "electric_scooter", "name": "a3d1c7d8eee86ebe9f963bc5f6bfc011", "lon": -77.03204166666667, "rental_uris": {"android": "https://dc.lft.to/lastmile_qr_scan", "ios": "https://dc.lft.to/lastmile_qr_scan"}, "fusion_lat": 0.0}, {"is_disabled": 0, "lat": 38.94887, "bike_id": "05c88a120ba21212aaae45d37cacb3bb", "fusion_lon": 0.0, "is_reserved": 0, "type": "electric_scooter", "name": "05c88a120ba21212aaae45d37cacb3bb", "lon": -77.02694666666666, "rental_uris": {"android": "https://dc.lft.to/lastmile_qr_scan", "ios": "https://dc.lft.to/lastmile_qr_scan"}, "fusion_lat": 0.0}, {"is_disabled": 0, "lat": 38.905853, "bike_id": "d79083be3ce00946fdf1c99921ceba99", "fusion_lon": 0.0, "is_reserved": 0, "type": "electric_scooter", "name": "d79083be3ce00946fdf1c99921ceba99", "lon": -76.986186, "rental_uris": {"android": "https://dc.lft.to/lastmile_qr_scan", "ios": "https://dc.lft.to/lastmile_qr_scan"}, "fusion_lat": 0.0}, {"is_disabled": 0, "lat": 38.842811833333336, "bike_id": "01fa60d7b4f06f8c288d28ce58f85f1c", "fusion_lon": 0.0, "is_reserved": 0, "type": "electric_scooter", "name": "01fa60d7b4f06f8c288d28ce58f85f1c", "lon": -77.00136533333334, "rental_uris": {"android": "https://dc.lft.to/lastmile_qr_scan", "ios": "https://dc.lft.to/lastmile_qr_scan"}, "fusion_lat": 0.0}, {"is_disabled": 0, "lat": 38.883311166666665, "bike_id": "acf9fc147f3cf20e866836b4dd01eb98", "fusion_lon": 0.0, "is_reserved": 0, "type": "electric_scooter", "name": "acf9fc147f3cf20e866836b4dd01eb98", "lon": -77.015449, "rental_uris": {"android": "https://dc.lft.to/lastmile_qr_scan", "ios": "https://dc.lft.to/lastmile_qr_scan"}, "fusion_lat": 0.0}, {"is_disabled": 0, "lat": 38.90816183333333, "bike_id": "28fb89d9922188aa5977c09edc47fe64", "fusion_lon": 0.0, "is_reserved": 0, "type": "electric_scooter", "name": "28fb89d9922188aa5977c09edc47fe64", "lon": -77.06365916666667, "rental_uris": {"android": "https://dc.lft.to/lastmile_qr_scan", "ios": "https://dc.lft.to/lastmile_qr_scan"}, "fusion_lat": 0.0}, {"is_disabled": 0, "lat": 38.893883, "bike_id": "4809d1733b913faeb032b2f40f9c3932", "fusion_lon": 0.0, "is_reserved": 0, "type": "electric_scooter", "name": "4809d1733b913faeb032b2f40f9c3932", "lon": -76.95018816666666, "rental_uris": {"android": "https://dc.lft.to/lastmile_qr_scan", "ios": "https://dc.lft.to/lastmile_qr_scan"}, "fusion_lat": 0.0}, {"is_disabled": 0, "lat": 38.915519833333335, "bike_id": "01e316b14f76d806f55c78412141f269", "fusion_lon": 0.0, "is_reserved": 0, "type": "electric_scooter", "name": "01e316b14f76d806f55c78412141f269", "lon": -77.03757916666666, "rental_uris": {"android": "https://dc.lft.to/lastmile_qr_scan", "ios": "https://dc.lft.to/lastmile_qr_scan"}, "fusion_lat": 0.0}, {"is_disabled": 0, "lat": 38.9094945, "bike_id": "251827e92e07bb1abc904e399226dad1", "fusion_lon": 0.0, "is_reserved": 0, "type": "electric_bike", "name": "251827e92e07bb1abc904e399226dad1", "lon": -76.98409033333333, "rental_uris": {"android": "https://dc.lft.to/lastmile_qr_scan", "ios": "https://dc.lft.to/lastmile_qr_scan"}, "fusion_lat": 0.0}, {"is_disabled": 0, "lat": 38.91020783333333, "bike_id": "eafecedb0d0a3948a6461e68c606dcac", "fusion_lon": 0.0, "is_reserved": 0, "type": "electric_scooter", "name": "eafecedb0d0a3948a6461e68c606dcac", "lon": -76.9854115, "rental_uris": {"android": "https://dc.lft.to/lastmile_qr_scan", "ios": "https://dc.lft.to/lastmile_qr_scan"}, "fusion_lat": 0.0}, {"is_disabled": 0, "lat": 38.866437, "bike_id": "343b36c079bd8b2a2d7ec5de70e94a89", "fusion_lon": 0.0, "is_reserved": 0, "type": "electric_scooter", "name": "343b36c079bd8b2a2d7ec5de70e94a89", "lon": -76.99019433333333, "rental_uris": {"android": "https://dc.lft.to/lastmile_qr_scan", "ios": "https://dc.lft.to/lastmile_qr_scan"}, "fusion_lat": 0.0}, {"is_disabled": 0, "lat": 38.938619833333334, "bike_id": "5949232dc091de729d0fdbf7afb900df", "fusion_lon": 0.0, "is_reserved": 0, "type": "electric_scooter", "name": "5949232dc091de729d0fdbf7afb900df", "lon": -77.0248885, "rental_uris": {"android": "https://dc.lft.to/lastmile_qr_scan", "ios": "https://dc.lft.to/lastmile_qr_scan"}, "fusion_lat": 0.0}, {"is_disabled": 0, "lat": 38.92477383333333, "bike_id": "cc807d03af45b90a70f163c35b2f5b96", "fusion_lon": 0.0, "is_reserved": 0, "type": "electric_scooter", "name": "cc807d03af45b90a70f163c35b2f5b96", "lon": -77.02335033333334, "rental_uris": {"android": "https://dc.lft.to/lastmile_qr_scan", "ios": "https://dc.lft.to/lastmile_qr_scan"}, "fusion_lat": 0.0}, {"is_disabled": 0, "lat": 38.90645216666667, "bike_id": "5c6400f9bed4d0a45ec64fd17367d905", "fusion_lon": 0.0, "is_reserved": 0, "type": "electric_scooter", "name": "5c6400f9bed4d0a45ec64fd17367d905", "lon": -77.04184016666666, "rental_uris": {"android": "https://dc.lft.to/lastmile_qr_scan", "ios": "https://dc.lft.to/lastmile_qr_scan"}, "fusion_lat": 0.0}, {"is_disabled": 0, "lat": 38.915556, "bike_id": "c3f2fd79939411f5bec67eb75e79dba2", "fusion_lon": 0.0, "is_reserved": 0, "type": "electric_scooter", "name": "c3f2fd79939411f5bec67eb75e79dba2", "lon": -77.04877866666666, "rental_uris": {"android": "https://dc.lft.to/lastmile_qr_scan", "ios": "https://dc.lft.to/lastmile_qr_scan"}, "fusion_lat": 0.0}, {"is_disabled": 0, "lat": 39.05277683333333, "bike_id": "a06de8873715606dc4a7cb9a49afdd0b", "fusion_lon": 0.0, "is_reserved": 0, "type": "electric_bike", "name": "a06de8873715606dc4a7cb9a49afdd0b", "lon": -77.080732, "rental_uris": {"android": "https://dc.lft.to/lastmile_qr_scan", "ios": "https://dc.lft.to/lastmile_qr_scan"}, "fusion_lat": 0.0}, {"is_disabled": 0, "lat": 38.909762, "bike_id": "33ceb08407fc652b3b3dea5bf09ea282", "fusion_lon": 0.0, "is_reserved": 0, "type": "electric_scooter", "name": "33ceb08407fc652b3b3dea5bf09ea282", "lon": -77.0487525, "rental_uris": {"android": "https://dc.lft.to/lastmile_qr_scan", "ios": "https://dc.lft.to/lastmile_qr_scan"}, "fusion_lat": 0.0}, {"is_disabled": 0, "lat": 38.93229866666667, "bike_id": "ff99bf5cff1b6eef6aa12432c89027c7", "fusion_lon": 0.0, "is_reserved": 0, "type": "electric_scooter", "name": "ff99bf5cff1b6eef6aa12432c89027c7", "lon": -77.02826533333334, "rental_uris": {"android": "https://dc.lft.to/lastmile_qr_scan", "ios": "https://dc.lft.to/lastmile_qr_scan"}, "fusion_lat": 0.0}, {"is_disabled": 0, "lat": 38.9035505, "bike_id": "52d402dc50b2bfb5203acfe8ff0b92ac", "fusion_lon": 0.0, "is_reserved": 0, "type": "electric_scooter", "name": "52d402dc50b2bfb5203acfe8ff0b92ac", "lon": -76.97480066666667, "rental_uris": {"android": "https://dc.lft.to/lastmile_qr_scan", "ios": "https://dc.lft.to/lastmile_qr_scan"}, "fusion_lat": 0.0}, {"is_disabled": 0, "lat": 38.8577165, "bike_id": "9d6cc7b78d072ec345e9919b8e6f4848", "fusion_lon": 0.0, "is_reserved": 0, "type": "electric_bike", "name": "9d6cc7b78d072ec345e9919b8e6f4848", "lon": -76.98759083333333, "rental_uris": {"android": "https://dc.lft.to/lastmile_qr_scan", "ios": "https://dc.lft.to/lastmile_qr_scan"}, "fusion_lat": 0.0}, {"is_disabled": 0, "lat": 38.9062805, "bike_id": "6d4fa14049153a2e1dda4b2b2b532fa3", "fusion_lon": 0.0, "is_reserved": 0, "type": "electric_scooter", "name": "6d4fa14049153a2e1dda4b2b2b532fa3", "lon": -77.03695366666666, "rental_uris": {"android": "https://dc.lft.to/lastmile_qr_scan", "ios": "https://dc.lft.to/lastmile_qr_scan"}, "fusion_lat": 0.0}, {"is_disabled": 0, "lat": 38.918267666666665, "bike_id": "a2d774309061b0a9f5e3a48a088347c1", "fusion_lon": 0.0, "is_reserved": 0, "type": "electric_scooter", "name": "a2d774309061b0a9f5e3a48a088347c1", "lon": -77.06884483333333, "rental_uris": {"android": "https://dc.lft.to/lastmile_qr_scan", "ios": "https://dc.lft.to/lastmile_qr_scan"}, "fusion_lat": 0.0}, {"is_disabled": 0, "lat": 38.918654, "bike_id": "8f5f12d44043d498cd63bd640fa63861", "fusion_lon": 0.0, "is_reserved": 0, "type": "electric_scooter", "name": "8f5f12d44043d498cd63bd640fa63861", "lon": -77.04036933333333, "rental_uris": {"android": "https://dc.lft.to/lastmile_qr_scan", "ios": "https://dc.lft.to/lastmile_qr_scan"}, "fusion_lat": 0.0}, {"is_disabled": 0, "lat": 38.895223333333334, "bike_id": "9dda6df972a4358c806fc7ef15cf7c50", "fusion_lon": 0.0, "is_reserved": 0, "type": "electric_scooter", "name": "9dda6df972a4358c806fc7ef15cf7c50", "lon": -77.028069, "rental_uris": {"android": "https://dc.lft.to/lastmile_qr_scan", "ios": "https://dc.lft.to/lastmile_qr_scan"}, "fusion_lat": 0.0}, {"is_disabled": 0, "lat": 38.932128166666665, "bike_id": "c39d6bc9056391c5d4e015dd6748e617", "fusion_lon": 0.0, "is_reserved": 0, "type": "electric_scooter", "name": "c39d6bc9056391c5d4e015dd6748e617", "lon": -77.03282183333333, "rental_uris": {"android": "https://dc.lft.to/lastmile_qr_scan", "ios": "https://dc.lft.to/lastmile_qr_scan"}, "fusion_lat": 0.0}, {"is_disabled": 0, "lat": 38.90010683333333, "bike_id": "fe66c7d9d17aa327715606ee7b1ca459", "fusion_lon": 0.0, "is_reserved": 0, "type": "electric_scooter", "name": "fe66c7d9d17aa327715606ee7b1ca459", "lon": -77.00678816666667, "rental_uris": {"android": "https://dc.lft.to/lastmile_qr_scan", "ios": "https://dc.lft.to/lastmile_qr_scan"}, "fusion_lat": 0.0}, {"is_disabled": 0, "lat": 38.89841666666667, "bike_id": "929b93092b0b4dd12acd46451d3a8e18", "fusion_lon": 0.0, "is_reserved": 0, "type": "electric_scooter", "name": "929b93092b0b4dd12acd46451d3a8e18", "lon": -77.02962583333333, "rental_uris": {"android": "https://dc.lft.to/lastmile_qr_scan", "ios": "https://dc.lft.to/lastmile_qr_scan"}, "fusion_lat": 0.0}, {"is_disabled": 0, "lat": 38.90562516666667, "bike_id": "d383276b02d788ac94ebe55fac134578", "fusion_lon": 0.0, "is_reserved": 0, "type": "electric_scooter", "name": "d383276b02d788ac94ebe55fac134578", "lon": -77.02617166666667, "rental_uris": {"android": "https://dc.lft.to/lastmile_qr_scan", "ios": "https://dc.lft.to/lastmile_qr_scan"}, "fusion_lat": 0.0}, {"is_disabled": 0, "lat": 38.903894666666666, "bike_id": "b6c7dc3746b15b2795e4c5893c57ad04", "fusion_lon": 0.0, "is_reserved": 0, "type": "electric_scooter", "name": "b6c7dc3746b15b2795e4c5893c57ad04", "lon": -77.04490883333334, "rental_uris": {"android": "https://dc.lft.to/lastmile_qr_scan", "ios": "https://dc.lft.to/lastmile_qr_scan"}, "fusion_lat": 0.0}, {"is_disabled": 0, "lat": 38.917252500000004, "bike_id": "1042778ceeb33aba74b62600a856c514", "fusion_lon": 0.0, "is_reserved": 0, "type": "electric_scooter", "name": "1042778ceeb33aba74b62600a856c514", "lon": -77.03617033333333, "rental_uris": {"android": "https://dc.lft.to/lastmile_qr_scan", "ios": "https://dc.lft.to/lastmile_qr_scan"}, "fusion_lat": 0.0}, {"is_disabled": 0, "lat": 38.9258435, "bike_id": "4a66030a2a9c68a867bd6c7e09dcd923", "fusion_lon": 0.0, "is_reserved": 0, "type": "electric_scooter", "name": "4a66030a2a9c68a867bd6c7e09dcd923", "lon": -77.03992066666666, "rental_uris": {"android": "https://dc.lft.to/lastmile_qr_scan", "ios": "https://dc.lft.to/lastmile_qr_scan"}, "fusion_lat": 0.0}, {"is_disabled": 0, "lat": 38.9097355, "bike_id": "e8b1af335c4838e0bc1d700a3663318c", "fusion_lon": 0.0, "is_reserved": 0, "type": "electric_scooter", "name": "e8b1af335c4838e0bc1d700a3663318c", "lon": -77.03300683333333, "rental_uris": {"android": "https://dc.lft.to/lastmile_qr_scan", "ios": "https://dc.lft.to/lastmile_qr_scan"}, "fusion_lat": 0.0}, {"is_disabled": 0, "lat": 38.90012616666667, "bike_id": "3d0b675512fc665324b7332ae33d0eae", "fusion_lon": 0.0, "is_reserved": 0, "type": "electric_bike", "name": "3d0b675512fc665324b7332ae33d0eae", "lon": -77.0238635, "rental_uris": {"android": "https://dc.lft.to/lastmile_qr_scan", "ios": "https://dc.lft.to/lastmile_qr_scan"}, "fusion_lat": 0.0}, {"is_disabled": 0, "lat": 38.907625, "bike_id": "754e607f609dffb1cddd34bce687861d", "fusion_lon": 0.0, "is_reserved": 0, "type": "electric_scooter", "name": "754e607f609dffb1cddd34bce687861d", "lon": -77.0319405, "rental_uris": {"android": "https://dc.lft.to/lastmile_qr_scan", "ios": "https://dc.lft.to/lastmile_qr_scan"}, "fusion_lat": 0.0}, {"is_disabled": 0, "lat": 38.9003745, "bike_id": "b829d8468b4b060e9459a45c9b8e1e63", "fusion_lon": 0.0, "is_reserved": 0, "type": "electric_scooter", "name": "b829d8468b4b060e9459a45c9b8e1e63", "lon": -76.98830433333333, "rental_uris": {"android": "https://dc.lft.to/lastmile_qr_scan", "ios": "https://dc.lft.to/lastmile_qr_scan"}, "fusion_lat": 0.0}, {"is_disabled": 0, "lat": 38.91731016666667, "bike_id": "e2a410ffc007839e037ec95a7a37ce9a", "fusion_lon": 0.0, "is_reserved": 0, "type": "electric_scooter", "name": "e2a410ffc007839e037ec95a7a37ce9a", "lon": -77.04167483333333, "rental_uris": {"android": "https://dc.lft.to/lastmile_qr_scan", "ios": "https://dc.lft.to/lastmile_qr_scan"}, "fusion_lat": 0.0}, {"is_disabled": 0, "lat": 38.905227, "bike_id": "4a801aa472051a0a2057db3443c2bbd4", "fusion_lon": 0.0, "is_reserved": 0, "type": "electric_scooter", "name": "4a801aa472051a0a2057db3443c2bbd4", "lon": -77.04177633333333, "rental_uris": {"android": "https://dc.lft.to/lastmile_qr_scan", "ios": "https://dc.lft.to/lastmile_qr_scan"}, "fusion_lat": 0.0}, {"is_disabled": 0, "lat": 38.876896333333335, "bike_id": "cb1ca583d9695a6a1d1863ff940985a3", "fusion_lon": 0.0, "is_reserved": 0, "type": "electric_scooter", "name": "cb1ca583d9695a6a1d1863ff940985a3", "lon": -77.01765, "rental_uris": {"android": "https://dc.lft.to/lastmile_qr_scan", "ios": "https://dc.lft.to/lastmile_qr_scan"}, "fusion_lat": 0.0}, {"is_disabled": 0, "lat": 38.90625283333333, "bike_id": "688d0a668fa025668f31c2f7992b5f6f", "fusion_lon": 0.0, "is_reserved": 0, "type": "electric_scooter", "name": "688d0a668fa025668f31c2f7992b5f6f", "lon": -77.0486125, "rental_uris": {"android": "https://dc.lft.to/lastmile_qr_scan", "ios": "https://dc.lft.to/lastmile_qr_scan"}, "fusion_lat": 0.0}, {"is_disabled": 0, "lat": 38.9182645, "bike_id": "47a7c5df21e069dab6f4692cb458a780", "fusion_lon": 0.0, "is_reserved": 0, "type": "electric_scooter", "name": "47a7c5df21e069dab6f4692cb458a780", "lon": -77.05884283333333, "rental_uris": {"android": "https://dc.lft.to/lastmile_qr_scan", "ios": "https://dc.lft.to/lastmile_qr_scan"}, "fusion_lat": 0.0}, {"is_disabled": 0, "lat": 38.91668, "bike_id": "948bd6bbf213aed34466309ccbf7f385", "fusion_lon": 0.0, "is_reserved": 0, "type": "electric_scooter", "name": "948bd6bbf213aed34466309ccbf7f385", "lon": -77.02952966666666, "rental_uris": {"android": "https://dc.lft.to/lastmile_qr_scan", "ios": "https://dc.lft.to/lastmile_qr_scan"}, "fusion_lat": 0.0}, {"is_disabled": 0, "lat": 38.917003333333334, "bike_id": "6fbc7ebc2aa52c5a9a6e75ce920bc179", "fusion_lon": 0.0, "is_reserved": 0, "type": "electric_scooter", "name": "6fbc7ebc2aa52c5a9a6e75ce920bc179", "lon": -77.00964683333333, "rental_uris": {"android": "https://dc.lft.to/lastmile_qr_scan", "ios": "https://dc.lft.to/lastmile_qr_scan"}, "fusion_lat": 0.0}, {"is_disabled": 0, "lat": 38.975008833333334, "bike_id": "763f622e1893ec9f18aefa0c0b9ffbc2", "fusion_lon": 0.0, "is_reserved": 0, "type": "electric_scooter", "name": "763f622e1893ec9f18aefa0c0b9ffbc2", "lon": -77.0172205, "rental_uris": {"android": "https://dc.lft.to/lastmile_qr_scan", "ios": "https://dc.lft.to/lastmile_qr_scan"}, "fusion_lat": 0.0}, {"is_disabled": 0, "lat": 38.92127883333333, "bike_id": "09e2ab235dd4e46fa5e8fa3e524614f6", "fusion_lon": 0.0, "is_reserved": 0, "type": "electric_scooter", "name": "09e2ab235dd4e46fa5e8fa3e524614f6", "lon": -77.0469005, "rental_uris": {"android": "https://dc.lft.to/lastmile_qr_scan", "ios": "https://dc.lft.to/lastmile_qr_scan"}, "fusion_lat": 0.0}, {"is_disabled": 0, "lat": 38.93286916666667, "bike_id": "bc3fe512a9949e908f7cef7352e98d13", "fusion_lon": 0.0, "is_reserved": 0, "type": "electric_scooter", "name": "bc3fe512a9949e908f7cef7352e98d13", "lon": -77.03721983333334, "rental_uris": {"android": "https://dc.lft.to/lastmile_qr_scan", "ios": "https://dc.lft.to/lastmile_qr_scan"}, "fusion_lat": 0.0}, {"is_disabled": 0, "lat": 38.923793833333335, "bike_id": "33ec63fe2dde59b62e3705d1063e6210", "fusion_lon": 0.0, "is_reserved": 0, "type": "electric_scooter", "name": "33ec63fe2dde59b62e3705d1063e6210", "lon": -77.0504685, "rental_uris": {"android": "https://dc.lft.to/lastmile_qr_scan", "ios": "https://dc.lft.to/lastmile_qr_scan"}, "fusion_lat": 0.0}, {"is_disabled": 0, "lat": 38.89220733333333, "bike_id": "8f2bf79efd3fda094cc18fdce5d2e923", "fusion_lon": 0.0, "is_reserved": 0, "type": "electric_scooter", "name": "8f2bf79efd3fda094cc18fdce5d2e923", "lon": -77.0437315, "rental_uris": {"android": "https://dc.lft.to/lastmile_qr_scan", "ios": "https://dc.lft.to/lastmile_qr_scan"}, "fusion_lat": 0.0}, {"is_disabled": 0, "lat": 38.916990166666665, "bike_id": "05021ae0357fe4fe73f98804b2a998dc", "fusion_lon": 0.0, "is_reserved": 0, "type": "electric_scooter", "name": "05021ae0357fe4fe73f98804b2a998dc", "lon": -77.03588, "rental_uris": {"android": "https://dc.lft.to/lastmile_qr_scan", "ios": "https://dc.lft.to/lastmile_qr_scan"}, "fusion_lat": 0.0}, {"is_disabled": 0, "lat": 38.90406483333334, "bike_id": "33d3f42283a01ce7f29fb804ae24751e", "fusion_lon": 0.0, "is_reserved": 0, "type": "electric_scooter", "name": "33d3f42283a01ce7f29fb804ae24751e", "lon": -76.98109016666666, "rental_uris": {"android": "https://dc.lft.to/lastmile_qr_scan", "ios": "https://dc.lft.to/lastmile_qr_scan"}, "fusion_lat": 0.0}, {"is_disabled": 0, "lat": 39.024374333333334, "bike_id": "1441ab08f4515fb4234f98b7c356b67e", "fusion_lon": 0.0, "is_reserved": 0, "type": "electric_bike", "name": "1441ab08f4515fb4234f98b7c356b67e", "lon": -77.13104466666667, "rental_uris": {"android": "https://dc.lft.to/lastmile_qr_scan", "ios": "https://dc.lft.to/lastmile_qr_scan"}, "fusion_lat": 0.0}, {"is_disabled": 0, "lat": 38.948326, "bike_id": "cecba499301c99ae26064f515f77c512", "fusion_lon": 0.0, "is_reserved": 0, "type": "electric_scooter", "name": "cecba499301c99ae26064f515f77c512", "lon": -77.02681066666666, "rental_uris": {"android": "https://dc.lft.to/lastmile_qr_scan", "ios": "https://dc.lft.to/lastmile_qr_scan"}, "fusion_lat": 0.0}, {"is_disabled": 0, "lat": 38.91705316666667, "bike_id": "172ccb8f9638d3ba7c53f7ae49458a2a", "fusion_lon": 0.0, "is_reserved": 0, "type": "electric_scooter", "name": "172ccb8f9638d3ba7c53f7ae49458a2a", "lon": -77.03318733333333, "rental_uris": {"android": "https://dc.lft.to/lastmile_qr_scan", "ios": "https://dc.lft.to/lastmile_qr_scan"}, "fusion_lat": 0.0}, {"is_disabled": 0, "lat": 38.90068516666667, "bike_id": "672354ae4dfe7e0543506c7f1e040f13", "fusion_lon": 0.0, "is_reserved": 0, "type": "electric_scooter", "name": "672354ae4dfe7e0543506c7f1e040f13", "lon": -77.045345, "rental_uris": {"android": "https://dc.lft.to/lastmile_qr_scan", "ios": "https://dc.lft.to/lastmile_qr_scan"}, "fusion_lat": 0.0}, {"is_disabled": 0, "lat": 38.8776075, "bike_id": "7ae47d1ad7e858238d2dc17e4c6baf9e", "fusion_lon": 0.0, "is_reserved": 0, "type": "electric_scooter", "name": "7ae47d1ad7e858238d2dc17e4c6baf9e", "lon": -76.99528316666667, "rental_uris": {"android": "https://dc.lft.to/lastmile_qr_scan", "ios": "https://dc.lft.to/lastmile_qr_scan"}, "fusion_lat": 0.0}, {"is_disabled": 0, "lat": 38.921318166666666, "bike_id": "b1efe1f87bd050088a55444115aac15f", "fusion_lon": 0.0, "is_reserved": 0, "type": "electric_scooter", "name": "b1efe1f87bd050088a55444115aac15f", "lon": -77.04347966666667, "rental_uris": {"android": "https://dc.lft.to/lastmile_qr_scan", "ios": "https://dc.lft.to/lastmile_qr_scan"}, "fusion_lat": 0.0}, {"is_disabled": 0, "lat": 38.921171666666666, "bike_id": "ce5ac34a8a8a8890aa10ed8e37c3cc9b", "fusion_lon": 0.0, "is_reserved": 0, "type": "electric_scooter", "name": "ce5ac34a8a8a8890aa10ed8e37c3cc9b", "lon": -77.0392875, "rental_uris": {"android": "https://dc.lft.to/lastmile_qr_scan", "ios": "https://dc.lft.to/lastmile_qr_scan"}, "fusion_lat": 0.0}, {"is_disabled": 0, "lat": 38.88551283333334, "bike_id": "368eedbc5ecd54994e1892bc839e5ae7", "fusion_lon": 0.0, "is_reserved": 0, "type": "electric_scooter", "name": "368eedbc5ecd54994e1892bc839e5ae7", "lon": -77.01118583333333, "rental_uris": {"android": "https://dc.lft.to/lastmile_qr_scan", "ios": "https://dc.lft.to/lastmile_qr_scan"}, "fusion_lat": 0.0}, {"is_disabled": 0, "lat": 38.926675, "bike_id": "d64d5e163ed4eeb97baa581a5361cd01", "fusion_lon": 0.0, "is_reserved": 0, "type": "electric_scooter", "name": "d64d5e163ed4eeb97baa581a5361cd01", "lon": -77.02625566666667, "rental_uris": {"android": "https://dc.lft.to/lastmile_qr_scan", "ios": "https://dc.lft.to/lastmile_qr_scan"}, "fusion_lat": 0.0}, {"is_disabled": 0, "lat": 39.02889033333334, "bike_id": "f80ccbbabfa3ee148b0afacbeb07fcf8", "fusion_lon": 0.0, "is_reserved": 0, "type": "electric_bike", "name": "f80ccbbabfa3ee148b0afacbeb07fcf8", "lon": -77.0959815, "rental_uris": {"android": "https://dc.lft.to/lastmile_qr_scan", "ios": "https://dc.lft.to/lastmile_qr_scan"}, "fusion_lat": 0.0}, {"is_disabled": 0, "lat": 38.90661633333333, "bike_id": "7023c8e9eec3eb133c551bdf0b174763", "fusion_lon": 0.0, "is_reserved": 0, "type": "electric_scooter", "name": "7023c8e9eec3eb133c551bdf0b174763", "lon": -77.03869266666666, "rental_uris": {"android": "https://dc.lft.to/lastmile_qr_scan", "ios": "https://dc.lft.to/lastmile_qr_scan"}, "fusion_lat": 0.0}, {"is_disabled": 0, "lat": 38.89912733333333, "bike_id": "d1d169dd7695402ffb1e9286ac79801b", "fusion_lon": 0.0, "is_reserved": 0, "type": "electric_scooter", "name": "d1d169dd7695402ffb1e9286ac79801b", "lon": -77.03991166666667, "rental_uris": {"android": "https://dc.lft.to/lastmile_qr_scan", "ios": "https://dc.lft.to/lastmile_qr_scan"}, "fusion_lat": 0.0}, {"is_disabled": 0, "lat": 38.949939666666666, "bike_id": "4967019e0159368193dc0f80e7b1abe5", "fusion_lon": 0.0, "is_reserved": 0, "type": "electric_scooter", "name": "4967019e0159368193dc0f80e7b1abe5", "lon": -77.01841083333333, "rental_uris": {"android": "https://dc.lft.to/lastmile_qr_scan", "ios": "https://dc.lft.to/lastmile_qr_scan"}, "fusion_lat": 0.0}, {"is_disabled": 0, "lat": 38.90821283333333, "bike_id": "ebeca8b2c543f14d954afdc9e5fb786d", "fusion_lon": 0.0, "is_reserved": 0, "type": "electric_scooter", "name": "ebeca8b2c543f14d954afdc9e5fb786d", "lon": -77.00619933333333, "rental_uris": {"android": "https://dc.lft.to/lastmile_qr_scan", "ios": "https://dc.lft.to/lastmile_qr_scan"}, "fusion_lat": 0.0}, {"is_disabled": 0, "lat": 38.960742333333336, "bike_id": "4a19e0a5ade538c5e0193b270588070e", "fusion_lon": 0.0, "is_reserved": 0, "type": "electric_scooter", "name": "4a19e0a5ade538c5e0193b270588070e", "lon": -77.05628333333334, "rental_uris": {"android": "https://dc.lft.to/lastmile_qr_scan", "ios": "https://dc.lft.to/lastmile_qr_scan"}, "fusion_lat": 0.0}, {"is_disabled": 0, "lat": 38.929038166666665, "bike_id": "0d5207ad02e97059894c914338bdf308", "fusion_lon": 0.0, "is_reserved": 0, "type": "electric_scooter", "name": "0d5207ad02e97059894c914338bdf308", "lon": -77.021605, "rental_uris": {"android": "https://dc.lft.to/lastmile_qr_scan", "ios": "https://dc.lft.to/lastmile_qr_scan"}, "fusion_lat": 0.0}, {"is_disabled": 0, "lat": 38.928846666666665, "bike_id": "9ecf062ff807c507904ded4be0dddca6", "fusion_lon": 0.0, "is_reserved": 0, "type": "electric_scooter", "name": "9ecf062ff807c507904ded4be0dddca6", "lon": -77.03335966666667, "rental_uris": {"android": "https://dc.lft.to/lastmile_qr_scan", "ios": "https://dc.lft.to/lastmile_qr_scan"}, "fusion_lat": 0.0}, {"is_disabled": 0, "lat": 38.90542683333334, "bike_id": "97caa9656f6a00f0a0e8a8a51fa69baf", "fusion_lon": 0.0, "is_reserved": 0, "type": "electric_scooter", "name": "97caa9656f6a00f0a0e8a8a51fa69baf", "lon": -77.04756266666666, "rental_uris": {"android": "https://dc.lft.to/lastmile_qr_scan", "ios": "https://dc.lft.to/lastmile_qr_scan"}, "fusion_lat": 0.0}, {"is_disabled": 0, "lat": 38.887138, "bike_id": "134d1385037b2a8e61979dc2550f43b4", "fusion_lon": 0.0, "is_reserved": 0, "type": "electric_scooter", "name": "134d1385037b2a8e61979dc2550f43b4", "lon": -77.01775666666667, "rental_uris": {"android": "https://dc.lft.to/lastmile_qr_scan", "ios": "https://dc.lft.to/lastmile_qr_scan"}, "fusion_lat": 0.0}, {"is_disabled": 0, "lat": 38.91687433333333, "bike_id": "16033b1a361a32f72116dd711b59db9b", "fusion_lon": 0.0, "is_reserved": 0, "type": "electric_scooter", "name": "16033b1a361a32f72116dd711b59db9b", "lon": -77.03772133333334, "rental_uris": {"android": "https://dc.lft.to/lastmile_qr_scan", "ios": "https://dc.lft.to/lastmile_qr_scan"}, "fusion_lat": 0.0}, {"is_disabled": 0, "lat": 38.89792883333333, "bike_id": "05b4d1630294ee11dc07f721919f21b6", "fusion_lon": 0.0, "is_reserved": 0, "type": "electric_scooter", "name": "05b4d1630294ee11dc07f721919f21b6", "lon": -77.05476183333333, "rental_uris": {"android": "https://dc.lft.to/lastmile_qr_scan", "ios": "https://dc.lft.to/lastmile_qr_scan"}, "fusion_lat": 0.0}, {"is_disabled": 0, "lat": 38.90811733333334, "bike_id": "1e72515a2bf2432ec763c32e91e8aa2b", "fusion_lon": 0.0, "is_reserved": 0, "type": "electric_scooter", "name": "1e72515a2bf2432ec763c32e91e8aa2b", "lon": -77.03838016666667, "rental_uris": {"android": "https://dc.lft.to/lastmile_qr_scan", "ios": "https://dc.lft.to/lastmile_qr_scan"}, "fusion_lat": 0.0}, {"is_disabled": 0, "lat": 38.90061516666667, "bike_id": "b89733d4d77bf1066876a3ef51d71a29", "fusion_lon": 0.0, "is_reserved": 0, "type": "electric_scooter", "name": "b89733d4d77bf1066876a3ef51d71a29", "lon": -77.0075655, "rental_uris": {"android": "https://dc.lft.to/lastmile_qr_scan", "ios": "https://dc.lft.to/lastmile_qr_scan"}, "fusion_lat": 0.0}, {"is_disabled": 0, "lat": 38.9068505, "bike_id": "5104ea7210708ec1d44faf0becd4c843", "fusion_lon": 0.0, "is_reserved": 0, "type": "electric_scooter", "name": "5104ea7210708ec1d44faf0becd4c843", "lon": -77.0673875, "rental_uris": {"android": "https://dc.lft.to/lastmile_qr_scan", "ios": "https://dc.lft.to/lastmile_qr_scan"}, "fusion_lat": 0.0}, {"is_disabled": 0, "lat": 38.889904, "bike_id": "56d487aca447ccba00c39f6007c5db52", "fusion_lon": 0.0, "is_reserved": 0, "type": "electric_scooter", "name": "56d487aca447ccba00c39f6007c5db52", "lon": -76.99177133333333, "rental_uris": {"android": "https://dc.lft.to/lastmile_qr_scan", "ios": "https://dc.lft.to/lastmile_qr_scan"}, "fusion_lat": 0.0}, {"is_disabled": 0, "lat": 38.89612233333333, "bike_id": "1800a0acd2d9caffabe664bbed8add4d", "fusion_lon": 0.0, "is_reserved": 0, "type": "electric_scooter", "name": "1800a0acd2d9caffabe664bbed8add4d", "lon": -77.04989433333333, "rental_uris": {"android": "https://dc.lft.to/lastmile_qr_scan", "ios": "https://dc.lft.to/lastmile_qr_scan"}, "fusion_lat": 0.0}, {"is_disabled": 0, "lat": 38.9882525, "bike_id": "cb2ffb1499fcfdf684b7cdcec5680f40", "fusion_lon": 0.0, "is_reserved": 0, "type": "electric_bike", "name": "cb2ffb1499fcfdf684b7cdcec5680f40", "lon": -76.99649966666667, "rental_uris": {"android": "https://dc.lft.to/lastmile_qr_scan", "ios": "https://dc.lft.to/lastmile_qr_scan"}, "fusion_lat": 0.0}, {"is_disabled": 0, "lat": 38.9270495, "bike_id": "2b7c89a45c7aa399b3b760dbd9598b06", "fusion_lon": 0.0, "is_reserved": 0, "type": "electric_scooter", "name": "2b7c89a45c7aa399b3b760dbd9598b06", "lon": -77.02323833333334, "rental_uris": {"android": "https://dc.lft.to/lastmile_qr_scan", "ios": "https://dc.lft.to/lastmile_qr_scan"}, "fusion_lat": 0.0}, {"is_disabled": 0, "lat": 38.920896666666664, "bike_id": "fd4a7cfd959eed080596f4d466225c76", "fusion_lon": 0.0, "is_reserved": 0, "type": "electric_scooter", "name": "fd4a7cfd959eed080596f4d466225c76", "lon": -77.03173483333333, "rental_uris": {"android": "https://dc.lft.to/lastmile_qr_scan", "ios": "https://dc.lft.to/lastmile_qr_scan"}, "fusion_lat": 0.0}, {"is_disabled": 0, "lat": 38.90478, "bike_id": "cc5ac8a9c657c03e50ce3f9049ce27cc", "fusion_lon": 0.0, "is_reserved": 0, "type": "electric_scooter", "name": "cc5ac8a9c657c03e50ce3f9049ce27cc", "lon": -77.04816433333333, "rental_uris": {"android": "https://dc.lft.to/lastmile_qr_scan", "ios": "https://dc.lft.to/lastmile_qr_scan"}, "fusion_lat": 0.0}, {"is_disabled": 0, "lat": 38.921097833333334, "bike_id": "1344a69e64d4e4663ccbed23abd0df37", "fusion_lon": 0.0, "is_reserved": 0, "type": "electric_scooter", "name": "1344a69e64d4e4663ccbed23abd0df37", "lon": -77.0439215, "rental_uris": {"android": "https://dc.lft.to/lastmile_qr_scan", "ios": "https://dc.lft.to/lastmile_qr_scan"}, "fusion_lat": 0.0}, {"is_disabled": 0, "lat": 38.91065916666667, "bike_id": "c9f24910dcf1cc0f4e5a281258a3caa8", "fusion_lon": 0.0, "is_reserved": 0, "type": "electric_scooter", "name": "c9f24910dcf1cc0f4e5a281258a3caa8", "lon": -77.04352866666666, "rental_uris": {"android": "https://dc.lft.to/lastmile_qr_scan", "ios": "https://dc.lft.to/lastmile_qr_scan"}, "fusion_lat": 0.0}, {"is_disabled": 0, "lat": 38.903523666666665, "bike_id": "01990a298cf4ab54de428a053c965578", "fusion_lon": 0.0, "is_reserved": 0, "type": "electric_scooter", "name": "01990a298cf4ab54de428a053c965578", "lon": -77.0661885, "rental_uris": {"android": "https://dc.lft.to/lastmile_qr_scan", "ios": "https://dc.lft.to/lastmile_qr_scan"}, "fusion_lat": 0.0}, {"is_disabled": 0, "lat": 38.88589183333333, "bike_id": "5d98faf48a4cb18058dbe783d7d0e1ea", "fusion_lon": 0.0, "is_reserved": 0, "type": "electric_scooter", "name": "5d98faf48a4cb18058dbe783d7d0e1ea", "lon": -77.0174285, "rental_uris": {"android": "https://dc.lft.to/lastmile_qr_scan", "ios": "https://dc.lft.to/lastmile_qr_scan"}, "fusion_lat": 0.0}, {"is_disabled": 0, "lat": 38.88736166666666, "bike_id": "38e9d641a1b1c8844437fc2bfaad8f01", "fusion_lon": 0.0, "is_reserved": 0, "type": "electric_scooter", "name": "38e9d641a1b1c8844437fc2bfaad8f01", "lon": -77.01531133333333, "rental_uris": {"android": "https://dc.lft.to/lastmile_qr_scan", "ios": "https://dc.lft.to/lastmile_qr_scan"}, "fusion_lat": 0.0}, {"is_disabled": 0, "lat": 38.8851985, "bike_id": "f0dad5d921053f9b12d4a45d6d6ad60e", "fusion_lon": 0.0, "is_reserved": 0, "type": "electric_scooter", "name": "f0dad5d921053f9b12d4a45d6d6ad60e", "lon": -77.00599116666666, "rental_uris": {"android": "https://dc.lft.to/lastmile_qr_scan", "ios": "https://dc.lft.to/lastmile_qr_scan"}, "fusion_lat": 0.0}, {"is_disabled": 0, "lat": 38.892359666666664, "bike_id": "5859dd1bdc5ec611aa5d3d67186f0c7b", "fusion_lon": 0.0, "is_reserved": 0, "type": "electric_scooter", "name": "5859dd1bdc5ec611aa5d3d67186f0c7b", "lon": -77.01521183333334, "rental_uris": {"android": "https://dc.lft.to/lastmile_qr_scan", "ios": "https://dc.lft.to/lastmile_qr_scan"}, "fusion_lat": 0.0}, {"is_disabled": 0, "lat": 38.948072333333336, "bike_id": "c8c98673c10d8741fb8cf35f852d4e58", "fusion_lon": 0.0, "is_reserved": 0, "type": "electric_scooter", "name": "c8c98673c10d8741fb8cf35f852d4e58", "lon": -77.079087, "rental_uris": {"android": "https://dc.lft.to/lastmile_qr_scan", "ios": "https://dc.lft.to/lastmile_qr_scan"}, "fusion_lat": 0.0}, {"is_disabled": 0, "lat": 38.91095633333333, "bike_id": "689fcac314dc7511e500c7cb0cf0f612", "fusion_lon": 0.0, "is_reserved": 0, "type": "electric_scooter", "name": "689fcac314dc7511e500c7cb0cf0f612", "lon": -77.04484566666666, "rental_uris": {"android": "https://dc.lft.to/lastmile_qr_scan", "ios": "https://dc.lft.to/lastmile_qr_scan"}, "fusion_lat": 0.0}, {"is_disabled": 0, "lat": 38.9509345, "bike_id": "2253eb971de86de6ff9880d4b050a13a", "fusion_lon": 0.0, "is_reserved": 0, "type": "electric_bike", "name": "2253eb971de86de6ff9880d4b050a13a", "lon": -76.99792716666667, "rental_uris": {"android": "https://dc.lft.to/lastmile_qr_scan", "ios": "https://dc.lft.to/lastmile_qr_scan"}, "fusion_lat": 0.0}, {"is_disabled": 0, "lat": 38.93290283333333, "bike_id": "69e03eb977c5b3a32e88bbf5bd42c613", "fusion_lon": 0.0, "is_reserved": 0, "type": "electric_scooter", "name": "69e03eb977c5b3a32e88bbf5bd42c613", "lon": -77.02527966666666, "rental_uris": {"android": "https://dc.lft.to/lastmile_qr_scan", "ios": "https://dc.lft.to/lastmile_qr_scan"}, "fusion_lat": 0.0}, {"is_disabled": 0, "lat": 38.89407966666667, "bike_id": "76ee1b183fc2f35065fb957f973690e0", "fusion_lon": 0.0, "is_reserved": 0, "type": "electric_scooter", "name": "76ee1b183fc2f35065fb957f973690e0", "lon": -77.02983866666666, "rental_uris": {"android": "https://dc.lft.to/lastmile_qr_scan", "ios": "https://dc.lft.to/lastmile_qr_scan"}, "fusion_lat": 0.0}, {"is_disabled": 0, "lat": 38.92213516666666, "bike_id": "7c96665ece5133a24d1c741abb908fb5", "fusion_lon": 0.0, "is_reserved": 0, "type": "electric_scooter", "name": "7c96665ece5133a24d1c741abb908fb5", "lon": -77.0375195, "rental_uris": {"android": "https://dc.lft.to/lastmile_qr_scan", "ios": "https://dc.lft.to/lastmile_qr_scan"}, "fusion_lat": 0.0}, {"is_disabled": 0, "lat": 38.923722, "bike_id": "0829163b69a44674efaa4b8461eb5f13", "fusion_lon": 0.0, "is_reserved": 0, "type": "electric_scooter", "name": "0829163b69a44674efaa4b8461eb5f13", "lon": -76.993829, "rental_uris": {"android": "https://dc.lft.to/lastmile_qr_scan", "ios": "https://dc.lft.to/lastmile_qr_scan"}, "fusion_lat": 0.0}, {"is_disabled": 0, "lat": 38.9371205, "bike_id": "37c26e983efcd7205112459c0f6c8eb1", "fusion_lon": 0.0, "is_reserved": 0, "type": "electric_bike", "name": "37c26e983efcd7205112459c0f6c8eb1", "lon": -77.032653, "rental_uris": {"android": "https://dc.lft.to/lastmile_qr_scan", "ios": "https://dc.lft.to/lastmile_qr_scan"}, "fusion_lat": 0.0}, {"is_disabled": 0, "lat": 38.88744666666667, "bike_id": "0263ca5924d0a73f433a8c96980a1337", "fusion_lon": 0.0, "is_reserved": 0, "type": "electric_scooter", "name": "0263ca5924d0a73f433a8c96980a1337", "lon": -76.98360016666666, "rental_uris": {"android": "https://dc.lft.to/lastmile_qr_scan", "ios": "https://dc.lft.to/lastmile_qr_scan"}, "fusion_lat": 0.0}, {"is_disabled": 0, "lat": 38.90959683333333, "bike_id": "14dd108a3794c361b520cc81e4e7dfb0", "fusion_lon": 0.0, "is_reserved": 0, "type": "electric_scooter", "name": "14dd108a3794c361b520cc81e4e7dfb0", "lon": -77.0200265, "rental_uris": {"android": "https://dc.lft.to/lastmile_qr_scan", "ios": "https://dc.lft.to/lastmile_qr_scan"}, "fusion_lat": 0.0}, {"is_disabled": 0, "lat": 38.900336, "bike_id": "234e11b0ba65c311c7b153eed25afe8a", "fusion_lon": 0.0, "is_reserved": 0, "type": "electric_scooter", "name": "234e11b0ba65c311c7b153eed25afe8a", "lon": -77.05034533333334, "rental_uris": {"android": "https://dc.lft.to/lastmile_qr_scan", "ios": "https://dc.lft.to/lastmile_qr_scan"}, "fusion_lat": 0.0}, {"is_disabled": 0, "lat": 38.88531716666667, "bike_id": "b628e8e667b24a77f435824c1d858ba2", "fusion_lon": 0.0, "is_reserved": 0, "type": "electric_scooter", "name": "b628e8e667b24a77f435824c1d858ba2", "lon": -76.982746, "rental_uris": {"android": "https://dc.lft.to/lastmile_qr_scan", "ios": "https://dc.lft.to/lastmile_qr_scan"}, "fusion_lat": 0.0}, {"is_disabled": 0, "lat": 38.93635716666667, "bike_id": "78c73fc5979daab03f95da735fc05056", "fusion_lon": 0.0, "is_reserved": 0, "type": "electric_scooter", "name": "78c73fc5979daab03f95da735fc05056", "lon": -77.058834, "rental_uris": {"android": "https://dc.lft.to/lastmile_qr_scan", "ios": "https://dc.lft.to/lastmile_qr_scan"}, "fusion_lat": 0.0}, {"is_disabled": 0, "lat": 38.90392716666667, "bike_id": "693f38bb2964a144b0a4e835b565d5a4", "fusion_lon": 0.0, "is_reserved": 0, "type": "electric_scooter", "name": "693f38bb2964a144b0a4e835b565d5a4", "lon": -76.98102233333333, "rental_uris": {"android": "https://dc.lft.to/lastmile_qr_scan", "ios": "https://dc.lft.to/lastmile_qr_scan"}, "fusion_lat": 0.0}, {"is_disabled": 0, "lat": 38.890853666666665, "bike_id": "4497205b492863eb025d283c46440292", "fusion_lon": 0.0, "is_reserved": 0, "type": "electric_scooter", "name": "4497205b492863eb025d283c46440292", "lon": -76.99842733333334, "rental_uris": {"android": "https://dc.lft.to/lastmile_qr_scan", "ios": "https://dc.lft.to/lastmile_qr_scan"}, "fusion_lat": 0.0}, {"is_disabled": 0, "lat": 38.92402716666667, "bike_id": "e3017c3e03e48679374742971cc4af2a", "fusion_lon": 0.0, "is_reserved": 0, "type": "electric_scooter", "name": "e3017c3e03e48679374742971cc4af2a", "lon": -77.02540233333333, "rental_uris": {"android": "https://dc.lft.to/lastmile_qr_scan", "ios": "https://dc.lft.to/lastmile_qr_scan"}, "fusion_lat": 0.0}, {"is_disabled": 0, "lat": 38.9397075, "bike_id": "b22a29c4152e3e31818867aaab38f9ab", "fusion_lon": 0.0, "is_reserved": 0, "type": "electric_scooter", "name": "b22a29c4152e3e31818867aaab38f9ab", "lon": -77.03256733333333, "rental_uris": {"android": "https://dc.lft.to/lastmile_qr_scan", "ios": "https://dc.lft.to/lastmile_qr_scan"}, "fusion_lat": 0.0}, {"is_disabled": 0, "lat": 38.90363633333333, "bike_id": "854dec3ff6542e656016d4a06a6ed593", "fusion_lon": 0.0, "is_reserved": 0, "type": "electric_scooter", "name": "854dec3ff6542e656016d4a06a6ed593", "lon": -77.033152, "rental_uris": {"android": "https://dc.lft.to/lastmile_qr_scan", "ios": "https://dc.lft.to/lastmile_qr_scan"}, "fusion_lat": 0.0}, {"is_disabled": 0, "lat": 38.90843816666667, "bike_id": "5960975dbf5612a45889005fb3bf1629", "fusion_lon": 0.0, "is_reserved": 0, "type": "electric_scooter", "name": "5960975dbf5612a45889005fb3bf1629", "lon": -77.02698266666667, "rental_uris": {"android": "https://dc.lft.to/lastmile_qr_scan", "ios": "https://dc.lft.to/lastmile_qr_scan"}, "fusion_lat": 0.0}, {"is_disabled": 0, "lat": 38.844305, "bike_id": "9191c6fc01f5766346f56fd3c7a1c0ab", "fusion_lon": 0.0, "is_reserved": 0, "type": "electric_scooter", "name": "9191c6fc01f5766346f56fd3c7a1c0ab", "lon": -76.99780516666667, "rental_uris": {"android": "https://dc.lft.to/lastmile_qr_scan", "ios": "https://dc.lft.to/lastmile_qr_scan"}, "fusion_lat": 0.0}, {"is_disabled": 0, "lat": 38.92088366666667, "bike_id": "956968b8ef73a27eaaa43cee647dbb67", "fusion_lon": 0.0, "is_reserved": 0, "type": "electric_scooter", "name": "956968b8ef73a27eaaa43cee647dbb67", "lon": -77.02259766666667, "rental_uris": {"android": "https://dc.lft.to/lastmile_qr_scan", "ios": "https://dc.lft.to/lastmile_qr_scan"}, "fusion_lat": 0.0}, {"is_disabled": 0, "lat": 38.903312166666666, "bike_id": "303e059636209a0991ef933be7a7d254", "fusion_lon": 0.0, "is_reserved": 0, "type": "electric_bike", "name": "303e059636209a0991ef933be7a7d254", "lon": -76.97532433333333, "rental_uris": {"android": "https://dc.lft.to/lastmile_qr_scan", "ios": "https://dc.lft.to/lastmile_qr_scan"}, "fusion_lat": 0.0}, {"is_disabled": 0, "lat": 38.895887, "bike_id": "cd1e8c9cf697cb53c3a027278875c177", "fusion_lon": 0.0, "is_reserved": 0, "type": "electric_scooter", "name": "cd1e8c9cf697cb53c3a027278875c177", "lon": -77.02698366666667, "rental_uris": {"android": "https://dc.lft.to/lastmile_qr_scan", "ios": "https://dc.lft.to/lastmile_qr_scan"}, "fusion_lat": 0.0}, {"is_disabled": 0, "lat": 38.916770666666665, "bike_id": "e8b1becad53069b81a6190026fec6abe", "fusion_lon": 0.0, "is_reserved": 0, "type": "electric_scooter", "name": "e8b1becad53069b81a6190026fec6abe", "lon": -77.02967633333333, "rental_uris": {"android": "https://dc.lft.to/lastmile_qr_scan", "ios": "https://dc.lft.to/lastmile_qr_scan"}, "fusion_lat": 0.0}, {"is_disabled": 0, "lat": 38.90833416666667, "bike_id": "e9ac0cf6806f375ca6a5d1b5edc063e0", "fusion_lon": 0.0, "is_reserved": 0, "type": "electric_scooter", "name": "e9ac0cf6806f375ca6a5d1b5edc063e0", "lon": -77.04457566666666, "rental_uris": {"android": "https://dc.lft.to/lastmile_qr_scan", "ios": "https://dc.lft.to/lastmile_qr_scan"}, "fusion_lat": 0.0}, {"is_disabled": 0, "lat": 38.899906333333334, "bike_id": "6c036c7c2f2f47c624372bd07120eac0", "fusion_lon": 0.0, "is_reserved": 0, "type": "electric_scooter", "name": "6c036c7c2f2f47c624372bd07120eac0", "lon": -76.99485316666667, "rental_uris": {"android": "https://dc.lft.to/lastmile_qr_scan", "ios": "https://dc.lft.to/lastmile_qr_scan"}, "fusion_lat": 0.0}, {"is_disabled": 0, "lat": 38.91368083333333, "bike_id": "38a0b07a7049fda10e8180c9e0e8370b", "fusion_lon": 0.0, "is_reserved": 0, "type": "electric_scooter", "name": "38a0b07a7049fda10e8180c9e0e8370b", "lon": -77.04653883333333, "rental_uris": {"android": "https://dc.lft.to/lastmile_qr_scan", "ios": "https://dc.lft.to/lastmile_qr_scan"}, "fusion_lat": 0.0}, {"is_disabled": 0, "lat": 38.8665395, "bike_id": "192630f91174e3c530d3fbfe4a492e9e", "fusion_lon": 0.0, "is_reserved": 0, "type": "electric_scooter", "name": "192630f91174e3c530d3fbfe4a492e9e", "lon": -76.98503416666667, "rental_uris": {"android": "https://dc.lft.to/lastmile_qr_scan", "ios": "https://dc.lft.to/lastmile_qr_scan"}, "fusion_lat": 0.0}, {"is_disabled": 0, "lat": 38.8983025, "bike_id": "d2371581a5db051041a213e8fd3e1afa", "fusion_lon": 0.0, "is_reserved": 0, "type": "electric_scooter", "name": "d2371581a5db051041a213e8fd3e1afa", "lon": -77.04351433333333, "rental_uris": {"android": "https://dc.lft.to/lastmile_qr_scan", "ios": "https://dc.lft.to/lastmile_qr_scan"}, "fusion_lat": 0.0}, {"is_disabled": 0, "lat": 38.91038233333333, "bike_id": "4a1c352d87b91b5db186e024bdbc6fe4", "fusion_lon": 0.0, "is_reserved": 0, "type": "electric_scooter", "name": "4a1c352d87b91b5db186e024bdbc6fe4", "lon": -76.9855545, "rental_uris": {"android": "https://dc.lft.to/lastmile_qr_scan", "ios": "https://dc.lft.to/lastmile_qr_scan"}, "fusion_lat": 0.0}, {"is_disabled": 0, "lat": 38.901686, "bike_id": "8805238c10f7c06cd421b54ff92e1152", "fusion_lon": 0.0, "is_reserved": 0, "type": "electric_scooter", "name": "8805238c10f7c06cd421b54ff92e1152", "lon": -76.93022666666667, "rental_uris": {"android": "https://dc.lft.to/lastmile_qr_scan", "ios": "https://dc.lft.to/lastmile_qr_scan"}, "fusion_lat": 0.0}, {"is_disabled": 0, "lat": 38.897070166666666, "bike_id": "63fdf59711b412f67b3035b63942a004", "fusion_lon": 0.0, "is_reserved": 0, "type": "electric_scooter", "name": "63fdf59711b412f67b3035b63942a004", "lon": -77.03930266666667, "rental_uris": {"android": "https://dc.lft.to/lastmile_qr_scan", "ios": "https://dc.lft.to/lastmile_qr_scan"}, "fusion_lat": 0.0}, {"is_disabled": 0, "lat": 38.923829, "bike_id": "6e0f48ce0a94955770d339c3ab8894fd", "fusion_lon": 0.0, "is_reserved": 0, "type": "electric_scooter", "name": "6e0f48ce0a94955770d339c3ab8894fd", "lon": -77.05045383333334, "rental_uris": {"android": "https://dc.lft.to/lastmile_qr_scan", "ios": "https://dc.lft.to/lastmile_qr_scan"}, "fusion_lat": 0.0}, {"is_disabled": 0, "lat": 38.95550333333333, "bike_id": "37a21cd35729569c5e55be9b5ec39a5d", "fusion_lon": 0.0, "is_reserved": 0, "type": "electric_bike", "name": "37a21cd35729569c5e55be9b5ec39a5d", "lon": -76.93538833333334, "rental_uris": {"android": "https://dc.lft.to/lastmile_qr_scan", "ios": "https://dc.lft.to/lastmile_qr_scan"}, "fusion_lat": 0.0}, {"is_disabled": 0, "lat": 38.90806083333333, "bike_id": "54ad233b5e90e9f9e44d5ed66c5f192f", "fusion_lon": 0.0, "is_reserved": 0, "type": "electric_scooter", "name": "54ad233b5e90e9f9e44d5ed66c5f192f", "lon": -77.03446866666667, "rental_uris": {"android": "https://dc.lft.to/lastmile_qr_scan", "ios": "https://dc.lft.to/lastmile_qr_scan"}, "fusion_lat": 0.0}, {"is_disabled": 0, "lat": 38.904283166666666, "bike_id": "09fddc33a3a442f13b4ef8177b839af7", "fusion_lon": 0.0, "is_reserved": 0, "type": "electric_scooter", "name": "09fddc33a3a442f13b4ef8177b839af7", "lon": -77.0382865, "rental_uris": {"android": "https://dc.lft.to/lastmile_qr_scan", "ios": "https://dc.lft.to/lastmile_qr_scan"}, "fusion_lat": 0.0}, {"is_disabled": 0, "lat": 38.902402, "bike_id": "2d3c6e9cbdbaefe805c153188ff37c13", "fusion_lon": 0.0, "is_reserved": 0, "type": "electric_scooter", "name": "2d3c6e9cbdbaefe805c153188ff37c13", "lon": -77.001931, "rental_uris": {"android": "https://dc.lft.to/lastmile_qr_scan", "ios": "https://dc.lft.to/lastmile_qr_scan"}, "fusion_lat": 0.0}, {"is_disabled": 0, "lat": 38.906706166666666, "bike_id": "53f6cde15dd44e58474935bd25d246a6", "fusion_lon": 0.0, "is_reserved": 0, "type": "electric_scooter", "name": "53f6cde15dd44e58474935bd25d246a6", "lon": -77.03516216666667, "rental_uris": {"android": "https://dc.lft.to/lastmile_qr_scan", "ios": "https://dc.lft.to/lastmile_qr_scan"}, "fusion_lat": 0.0}, {"is_disabled": 0, "lat": 38.90743, "bike_id": "2a0365a9c7691365949858d965976cb0", "fusion_lon": 0.0, "is_reserved": 0, "type": "electric_scooter", "name": "2a0365a9c7691365949858d965976cb0", "lon": -77.04199366666667, "rental_uris": {"android": "https://dc.lft.to/lastmile_qr_scan", "ios": "https://dc.lft.to/lastmile_qr_scan"}, "fusion_lat": 0.0}, {"is_disabled": 0, "lat": 38.896566, "bike_id": "b7b9e8ec1bd76f16ac61bd6f0c9958e8", "fusion_lon": 0.0, "is_reserved": 0, "type": "electric_bike", "name": "b7b9e8ec1bd76f16ac61bd6f0c9958e8", "lon": -76.93012516666667, "rental_uris": {"android": "https://dc.lft.to/lastmile_qr_scan", "ios": "https://dc.lft.to/lastmile_qr_scan"}, "fusion_lat": 0.0}, {"is_disabled": 0, "lat": 38.907416833333336, "bike_id": "2f389a6133d274b5ad2eda5b870ba691", "fusion_lon": 0.0, "is_reserved": 0, "type": "electric_scooter", "name": "2f389a6133d274b5ad2eda5b870ba691", "lon": -77.00266866666666, "rental_uris": {"android": "https://dc.lft.to/lastmile_qr_scan", "ios": "https://dc.lft.to/lastmile_qr_scan"}, "fusion_lat": 0.0}, {"is_disabled": 0, "lat": 38.89349583333333, "bike_id": "a979f8d1ec9ac4e3f9b4dc4cad331d83", "fusion_lon": 0.0, "is_reserved": 0, "type": "electric_scooter", "name": "a979f8d1ec9ac4e3f9b4dc4cad331d83", "lon": -76.94933416666667, "rental_uris": {"android": "https://dc.lft.to/lastmile_qr_scan", "ios": "https://dc.lft.to/lastmile_qr_scan"}, "fusion_lat": 0.0}, {"is_disabled": 0, "lat": 38.97568783333333, "bike_id": "2bc0f0a921a0643bb38f5fc9ea3d83ab", "fusion_lon": 0.0, "is_reserved": 0, "type": "electric_scooter", "name": "2bc0f0a921a0643bb38f5fc9ea3d83ab", "lon": -77.02655266666666, "rental_uris": {"android": "https://dc.lft.to/lastmile_qr_scan", "ios": "https://dc.lft.to/lastmile_qr_scan"}, "fusion_lat": 0.0}, {"is_disabled": 0, "lat": 38.91259866666667, "bike_id": "be7986be62241b25cac8c8573ae270cc", "fusion_lon": 0.0, "is_reserved": 0, "type": "electric_scooter", "name": "be7986be62241b25cac8c8573ae270cc", "lon": -77.03947883333333, "rental_uris": {"android": "https://dc.lft.to/lastmile_qr_scan", "ios": "https://dc.lft.to/lastmile_qr_scan"}, "fusion_lat": 0.0}, {"is_disabled": 0, "lat": 38.88009483333333, "bike_id": "f85f6dd0a361a2ceb928d687a04ff82e", "fusion_lon": 0.0, "is_reserved": 0, "type": "electric_scooter", "name": "f85f6dd0a361a2ceb928d687a04ff82e", "lon": -76.9950175, "rental_uris": {"android": "https://dc.lft.to/lastmile_qr_scan", "ios": "https://dc.lft.to/lastmile_qr_scan"}, "fusion_lat": 0.0}, {"is_disabled": 0, "lat": 38.900683666666666, "bike_id": "2f5f72a8523ba842e810be5ac0ddb1b3", "fusion_lon": 0.0, "is_reserved": 0, "type": "electric_scooter", "name": "2f5f72a8523ba842e810be5ac0ddb1b3", "lon": -76.93640583333334, "rental_uris": {"android": "https://dc.lft.to/lastmile_qr_scan", "ios": "https://dc.lft.to/lastmile_qr_scan"}, "fusion_lat": 0.0}, {"is_disabled": 0, "lat": 38.90733083333333, "bike_id": "324bca2e16b1aa3fe77d273f85c581b2", "fusion_lon": 0.0, "is_reserved": 0, "type": "electric_scooter", "name": "324bca2e16b1aa3fe77d273f85c581b2", "lon": -77.046712, "rental_uris": {"android": "https://dc.lft.to/lastmile_qr_scan", "ios": "https://dc.lft.to/lastmile_qr_scan"}, "fusion_lat": 0.0}, {"is_disabled": 0, "lat": 38.863498666666665, "bike_id": "43fcb593ae348a89dbe999d3eca2887b", "fusion_lon": 0.0, "is_reserved": 0, "type": "electric_scooter", "name": "43fcb593ae348a89dbe999d3eca2887b", "lon": -76.97906733333333, "rental_uris": {"android": "https://dc.lft.to/lastmile_qr_scan", "ios": "https://dc.lft.to/lastmile_qr_scan"}, "fusion_lat": 0.0}, {"is_disabled": 0, "lat": 38.88308466666667, "bike_id": "81b146d8993d8ae3e208e742dce4347e", "fusion_lon": 0.0, "is_reserved": 0, "type": "electric_scooter", "name": "81b146d8993d8ae3e208e742dce4347e", "lon": -76.99369733333333, "rental_uris": {"android": "https://dc.lft.to/lastmile_qr_scan", "ios": "https://dc.lft.to/lastmile_qr_scan"}, "fusion_lat": 0.0}, {"is_disabled": 0, "lat": 38.92837466666667, "bike_id": "5adb91797919a4d4bb4cae54c481e694", "fusion_lon": 0.0, "is_reserved": 0, "type": "electric_scooter", "name": "5adb91797919a4d4bb4cae54c481e694", "lon": -77.0329015, "rental_uris": {"android": "https://dc.lft.to/lastmile_qr_scan", "ios": "https://dc.lft.to/lastmile_qr_scan"}, "fusion_lat": 0.0}, {"is_disabled": 0, "lat": 38.89223, "bike_id": "d8e67e0b0f58786b798caa0de8ff171a", "fusion_lon": 0.0, "is_reserved": 0, "type": "electric_scooter", "name": "d8e67e0b0f58786b798caa0de8ff171a", "lon": -76.99594366666666, "rental_uris": {"android": "https://dc.lft.to/lastmile_qr_scan", "ios": "https://dc.lft.to/lastmile_qr_scan"}, "fusion_lat": 0.0}, {"is_disabled": 0, "lat": 38.9542705, "bike_id": "0335453978a8deb51d82393e61227e4a", "fusion_lon": 0.0, "is_reserved": 0, "type": "electric_scooter", "name": "0335453978a8deb51d82393e61227e4a", "lon": -77.02765433333333, "rental_uris": {"android": "https://dc.lft.to/lastmile_qr_scan", "ios": "https://dc.lft.to/lastmile_qr_scan"}, "fusion_lat": 0.0}, {"is_disabled": 0, "lat": 38.9004105, "bike_id": "02ceb0c4840e62efe008d8667392cf52", "fusion_lon": 0.0, "is_reserved": 0, "type": "electric_scooter", "name": "02ceb0c4840e62efe008d8667392cf52", "lon": -77.00552616666667, "rental_uris": {"android": "https://dc.lft.to/lastmile_qr_scan", "ios": "https://dc.lft.to/lastmile_qr_scan"}, "fusion_lat": 0.0}, {"is_disabled": 0, "lat": 38.892197833333334, "bike_id": "67be3f0e4e3a55fcff7099ff93356494", "fusion_lon": 0.0, "is_reserved": 0, "type": "electric_scooter", "name": "67be3f0e4e3a55fcff7099ff93356494", "lon": -77.02226133333333, "rental_uris": {"android": "https://dc.lft.to/lastmile_qr_scan", "ios": "https://dc.lft.to/lastmile_qr_scan"}, "fusion_lat": 0.0}, {"is_disabled": 0, "lat": 38.938699666666665, "bike_id": "1529539d1dea93fbd20fd23a42e2999b", "fusion_lon": 0.0, "is_reserved": 0, "type": "electric_scooter", "name": "1529539d1dea93fbd20fd23a42e2999b", "lon": -77.02493816666667, "rental_uris": {"android": "https://dc.lft.to/lastmile_qr_scan", "ios": "https://dc.lft.to/lastmile_qr_scan"}, "fusion_lat": 0.0}, {"is_disabled": 0, "lat": 38.87704166666666, "bike_id": "eac7f7173ab11c95f031db8290e7e279", "fusion_lon": 0.0, "is_reserved": 0, "type": "electric_scooter", "name": "eac7f7173ab11c95f031db8290e7e279", "lon": -77.01768116666666, "rental_uris": {"android": "https://dc.lft.to/lastmile_qr_scan", "ios": "https://dc.lft.to/lastmile_qr_scan"}, "fusion_lat": 0.0}, {"is_disabled": 0, "lat": 38.881791666666665, "bike_id": "39c51379abea064924c5a1e5c6c6b7bb", "fusion_lon": 0.0, "is_reserved": 0, "type": "electric_scooter", "name": "39c51379abea064924c5a1e5c6c6b7bb", "lon": -77.02810433333333, "rental_uris": {"android": "https://dc.lft.to/lastmile_qr_scan", "ios": "https://dc.lft.to/lastmile_qr_scan"}, "fusion_lat": 0.0}, {"is_disabled": 0, "lat": 38.92684283333333, "bike_id": "84cb75e7bd225d17f9699c9d41be1b53", "fusion_lon": 0.0, "is_reserved": 0, "type": "electric_scooter", "name": "84cb75e7bd225d17f9699c9d41be1b53", "lon": -77.01483416666666, "rental_uris": {"android": "https://dc.lft.to/lastmile_qr_scan", "ios": "https://dc.lft.to/lastmile_qr_scan"}, "fusion_lat": 0.0}, {"is_disabled": 0, "lat": 38.96628483333333, "bike_id": "c5b053735d476f9b6c3c43a860badbb0", "fusion_lon": 0.0, "is_reserved": 0, "type": "electric_scooter", "name": "c5b053735d476f9b6c3c43a860badbb0", "lon": -77.01997883333334, "rental_uris": {"android": "https://dc.lft.to/lastmile_qr_scan", "ios": "https://dc.lft.to/lastmile_qr_scan"}, "fusion_lat": 0.0}, {"is_disabled": 0, "lat": 39.03669883333333, "bike_id": "46ad337d6313a3b3f2a05f3b03f737d7", "fusion_lon": 0.0, "is_reserved": 0, "type": "electric_bike", "name": "46ad337d6313a3b3f2a05f3b03f737d7", "lon": -77.051103, "rental_uris": {"android": "https://dc.lft.to/lastmile_qr_scan", "ios": "https://dc.lft.to/lastmile_qr_scan"}, "fusion_lat": 0.0}, {"is_disabled": 0, "lat": 38.8924215, "bike_id": "18e3496c05eb63ec1603dccf29e4b537", "fusion_lon": 0.0, "is_reserved": 0, "type": "electric_scooter", "name": "18e3496c05eb63ec1603dccf29e4b537", "lon": -77.04507333333333, "rental_uris": {"android": "https://dc.lft.to/lastmile_qr_scan", "ios": "https://dc.lft.to/lastmile_qr_scan"}, "fusion_lat": 0.0}, {"is_disabled": 0, "lat": 38.8863525, "bike_id": "625302be329c2dac22e615a332087488", "fusion_lon": 0.0, "is_reserved": 0, "type": "electric_scooter", "name": "625302be329c2dac22e615a332087488", "lon": -76.99857366666667, "rental_uris": {"android": "https://dc.lft.to/lastmile_qr_scan", "ios": "https://dc.lft.to/lastmile_qr_scan"}, "fusion_lat": 0.0}, {"is_disabled": 0, "lat": 38.89198733333333, "bike_id": "a616c3d2cc6fc9e81174f6186ffe76c8", "fusion_lon": 0.0, "is_reserved": 0, "type": "electric_scooter", "name": "a616c3d2cc6fc9e81174f6186ffe76c8", "lon": -77.03881366666667, "rental_uris": {"android": "https://dc.lft.to/lastmile_qr_scan", "ios": "https://dc.lft.to/lastmile_qr_scan"}, "fusion_lat": 0.0}, {"is_disabled": 0, "lat": 38.90710383333333, "bike_id": "c59a717a0a198a1e6a376003d07be7ce", "fusion_lon": 0.0, "is_reserved": 0, "type": "electric_scooter", "name": "c59a717a0a198a1e6a376003d07be7ce", "lon": -76.99833166666667, "rental_uris": {"android": "https://dc.lft.to/lastmile_qr_scan", "ios": "https://dc.lft.to/lastmile_qr_scan"}, "fusion_lat": 0.0}, {"is_disabled": 0, "lat": 38.909143, "bike_id": "357b4aa4f0e6c3e7c6d2897c97af1968", "fusion_lon": 0.0, "is_reserved": 0, "type": "electric_scooter", "name": "357b4aa4f0e6c3e7c6d2897c97af1968", "lon": -77.043942, "rental_uris": {"android": "https://dc.lft.to/lastmile_qr_scan", "ios": "https://dc.lft.to/lastmile_qr_scan"}, "fusion_lat": 0.0}, {"is_disabled": 0, "lat": 38.9335965, "bike_id": "d34fda99ab4ec211b33af3f5b2f7ab1f", "fusion_lon": 0.0, "is_reserved": 0, "type": "electric_scooter", "name": "d34fda99ab4ec211b33af3f5b2f7ab1f", "lon": -76.99116, "rental_uris": {"android": "https://dc.lft.to/lastmile_qr_scan", "ios": "https://dc.lft.to/lastmile_qr_scan"}, "fusion_lat": 0.0}, {"is_disabled": 0, "lat": 38.90117083333333, "bike_id": "dd60a025650395b1780a61ce20adfde2", "fusion_lon": 0.0, "is_reserved": 0, "type": "electric_scooter", "name": "dd60a025650395b1780a61ce20adfde2", "lon": -77.050278, "rental_uris": {"android": "https://dc.lft.to/lastmile_qr_scan", "ios": "https://dc.lft.to/lastmile_qr_scan"}, "fusion_lat": 0.0}, {"is_disabled": 0, "lat": 38.930935, "bike_id": "153d686f1e25f260160fae4a3dd1f09c", "fusion_lon": 0.0, "is_reserved": 0, "type": "electric_scooter", "name": "153d686f1e25f260160fae4a3dd1f09c", "lon": -77.0381725, "rental_uris": {"android": "https://dc.lft.to/lastmile_qr_scan", "ios": "https://dc.lft.to/lastmile_qr_scan"}, "fusion_lat": 0.0}, {"is_disabled": 0, "lat": 38.8733885, "bike_id": "b090cc6f5cb60ff1162779edb3eb431e", "fusion_lon": 0.0, "is_reserved": 0, "type": "electric_scooter", "name": "b090cc6f5cb60ff1162779edb3eb431e", "lon": -76.96778083333334, "rental_uris": {"android": "https://dc.lft.to/lastmile_qr_scan", "ios": "https://dc.lft.to/lastmile_qr_scan"}, "fusion_lat": 0.0}, {"is_disabled": 0, "lat": 38.9126215, "bike_id": "20f7f9bf5ac4c1066c5ab232cbe9ad48", "fusion_lon": 0.0, "is_reserved": 0, "type": "electric_scooter", "name": "20f7f9bf5ac4c1066c5ab232cbe9ad48", "lon": -77.02948116666667, "rental_uris": {"android": "https://dc.lft.to/lastmile_qr_scan", "ios": "https://dc.lft.to/lastmile_qr_scan"}, "fusion_lat": 0.0}, {"is_disabled": 0, "lat": 38.916851, "bike_id": "e452465223e03fa0ad31e5633f7bfd1b", "fusion_lon": 0.0, "is_reserved": 0, "type": "electric_scooter", "name": "e452465223e03fa0ad31e5633f7bfd1b", "lon": -77.02299316666667, "rental_uris": {"android": "https://dc.lft.to/lastmile_qr_scan", "ios": "https://dc.lft.to/lastmile_qr_scan"}, "fusion_lat": 0.0}, {"is_disabled": 0, "lat": 38.91045316666667, "bike_id": "0ab6fa3c327240d4c46f3a6d15392394", "fusion_lon": 0.0, "is_reserved": 0, "type": "electric_scooter", "name": "0ab6fa3c327240d4c46f3a6d15392394", "lon": -77.06457516666667, "rental_uris": {"android": "https://dc.lft.to/lastmile_qr_scan", "ios": "https://dc.lft.to/lastmile_qr_scan"}, "fusion_lat": 0.0}, {"is_disabled": 0, "lat": 38.91677683333333, "bike_id": "68aeedf26b4b42d2e33e8be9e59076bc", "fusion_lon": 0.0, "is_reserved": 0, "type": "electric_scooter", "name": "68aeedf26b4b42d2e33e8be9e59076bc", "lon": -77.02971566666666, "rental_uris": {"android": "https://dc.lft.to/lastmile_qr_scan", "ios": "https://dc.lft.to/lastmile_qr_scan"}, "fusion_lat": 0.0}, {"is_disabled": 0, "lat": 38.914955, "bike_id": "b54062d44a7f45dbea27d54854d8beb5", "fusion_lon": 0.0, "is_reserved": 0, "type": "electric_scooter", "name": "b54062d44a7f45dbea27d54854d8beb5", "lon": -77.031233, "rental_uris": {"android": "https://dc.lft.to/lastmile_qr_scan", "ios": "https://dc.lft.to/lastmile_qr_scan"}, "fusion_lat": 0.0}, {"is_disabled": 0, "lat": 38.902887166666666, "bike_id": "7b73aee0c65c9dd7faad7c2168e4633e", "fusion_lon": 0.0, "is_reserved": 0, "type": "electric_scooter", "name": "7b73aee0c65c9dd7faad7c2168e4633e", "lon": -77.05017066666667, "rental_uris": {"android": "https://dc.lft.to/lastmile_qr_scan", "ios": "https://dc.lft.to/lastmile_qr_scan"}, "fusion_lat": 0.0}, {"is_disabled": 0, "lat": 38.9254315, "bike_id": "915725de5ce35986b87be6ec9fff0c2a", "fusion_lon": 0.0, "is_reserved": 0, "type": "electric_scooter", "name": "915725de5ce35986b87be6ec9fff0c2a", "lon": -77.00736983333333, "rental_uris": {"android": "https://dc.lft.to/lastmile_qr_scan", "ios": "https://dc.lft.to/lastmile_qr_scan"}, "fusion_lat": 0.0}, {"is_disabled": 0, "lat": 38.923448666666665, "bike_id": "dda43dfdc03fd7ec130fb857327f3b9d", "fusion_lon": 0.0, "is_reserved": 0, "type": "electric_scooter", "name": "dda43dfdc03fd7ec130fb857327f3b9d", "lon": -77.051695, "rental_uris": {"android": "https://dc.lft.to/lastmile_qr_scan", "ios": "https://dc.lft.to/lastmile_qr_scan"}, "fusion_lat": 0.0}, {"is_disabled": 0, "lat": 38.9226585, "bike_id": "00f5f0543ae88c6702b413afdf193421", "fusion_lon": 0.0, "is_reserved": 0, "type": "electric_scooter", "name": "00f5f0543ae88c6702b413afdf193421", "lon": -77.03639566666666, "rental_uris": {"android": "https://dc.lft.to/lastmile_qr_scan", "ios": "https://dc.lft.to/lastmile_qr_scan"}, "fusion_lat": 0.0}, {"is_disabled": 0, "lat": 38.88430816666666, "bike_id": "158e911dfa57a63b79c80c6adae61af1", "fusion_lon": 0.0, "is_reserved": 0, "type": "electric_scooter", "name": "158e911dfa57a63b79c80c6adae61af1", "lon": -76.95758333333333, "rental_uris": {"android": "https://dc.lft.to/lastmile_qr_scan", "ios": "https://dc.lft.to/lastmile_qr_scan"}, "fusion_lat": 0.0}, {"is_disabled": 0, "lat": 38.90493633333333, "bike_id": "019d2b0a61daf0d7057b4d5b6f957e08", "fusion_lon": 0.0, "is_reserved": 0, "type": "electric_scooter", "name": "019d2b0a61daf0d7057b4d5b6f957e08", "lon": -76.94962733333334, "rental_uris": {"android": "https://dc.lft.to/lastmile_qr_scan", "ios": "https://dc.lft.to/lastmile_qr_scan"}, "fusion_lat": 0.0}, {"is_disabled": 0, "lat": 38.921515166666666, "bike_id": "6526eaa4ad9c9545176de5f330934134", "fusion_lon": 0.0, "is_reserved": 0, "type": "electric_scooter", "name": "6526eaa4ad9c9545176de5f330934134", "lon": -77.02424166666667, "rental_uris": {"android": "https://dc.lft.to/lastmile_qr_scan", "ios": "https://dc.lft.to/lastmile_qr_scan"}, "fusion_lat": 0.0}, {"is_disabled": 0, "lat": 38.892292, "bike_id": "1c48630a9fbea3d7d26d93e55b931a21", "fusion_lon": 0.0, "is_reserved": 0, "type": "electric_scooter", "name": "1c48630a9fbea3d7d26d93e55b931a21", "lon": -77.04999383333333, "rental_uris": {"android": "https://dc.lft.to/lastmile_qr_scan", "ios": "https://dc.lft.to/lastmile_qr_scan"}, "fusion_lat": 0.0}, {"is_disabled": 0, "lat": 38.90379316666667, "bike_id": "c89cd8d3c2dc820091ef558977fc24f4", "fusion_lon": 0.0, "is_reserved": 0, "type": "electric_scooter", "name": "c89cd8d3c2dc820091ef558977fc24f4", "lon": -77.00188216666666, "rental_uris": {"android": "https://dc.lft.to/lastmile_qr_scan", "ios": "https://dc.lft.to/lastmile_qr_scan"}, "fusion_lat": 0.0}, {"is_disabled": 0, "lat": 38.928133333333335, "bike_id": "e47ced3cf81c54db52b4fe5fb14e52b4", "fusion_lon": 0.0, "is_reserved": 0, "type": "electric_scooter", "name": "e47ced3cf81c54db52b4fe5fb14e52b4", "lon": -77.02903583333334, "rental_uris": {"android": "https://dc.lft.to/lastmile_qr_scan", "ios": "https://dc.lft.to/lastmile_qr_scan"}, "fusion_lat": 0.0}, {"is_disabled": 0, "lat": 38.920353, "bike_id": "6ec5bf52304623461a12c741fbddd69d", "fusion_lon": 0.0, "is_reserved": 0, "type": "electric_scooter", "name": "6ec5bf52304623461a12c741fbddd69d", "lon": -77.0258455, "rental_uris": {"android": "https://dc.lft.to/lastmile_qr_scan", "ios": "https://dc.lft.to/lastmile_qr_scan"}, "fusion_lat": 0.0}, {"is_disabled": 0, "lat": 38.90131133333333, "bike_id": "b0ae7f53fe0cfbe51ed933511d0dd0e5", "fusion_lon": 0.0, "is_reserved": 0, "type": "electric_scooter", "name": "b0ae7f53fe0cfbe51ed933511d0dd0e5", "lon": -76.998778, "rental_uris": {"android": "https://dc.lft.to/lastmile_qr_scan", "ios": "https://dc.lft.to/lastmile_qr_scan"}, "fusion_lat": 0.0}, {"is_disabled": 0, "lat": 38.92389466666667, "bike_id": "5b87ef3b60dda4d738d48b8cad68bc0c", "fusion_lon": 0.0, "is_reserved": 0, "type": "electric_scooter", "name": "5b87ef3b60dda4d738d48b8cad68bc0c", "lon": -77.08035866666667, "rental_uris": {"android": "https://dc.lft.to/lastmile_qr_scan", "ios": "https://dc.lft.to/lastmile_qr_scan"}, "fusion_lat": 0.0}, {"is_disabled": 0, "lat": 38.9029165, "bike_id": "10647041d6b184452eb2eb53941ad392", "fusion_lon": 0.0, "is_reserved": 0, "type": "electric_scooter", "name": "10647041d6b184452eb2eb53941ad392", "lon": -76.98017116666666, "rental_uris": {"android": "https://dc.lft.to/lastmile_qr_scan", "ios": "https://dc.lft.to/lastmile_qr_scan"}, "fusion_lat": 0.0}, {"is_disabled": 0, "lat": 38.9324495, "bike_id": "1d48f1ce88907f0e99e27430af367e10", "fusion_lon": 0.0, "is_reserved": 0, "type": "electric_scooter", "name": "1d48f1ce88907f0e99e27430af367e10", "lon": -77.03262916666667, "rental_uris": {"android": "https://dc.lft.to/lastmile_qr_scan", "ios": "https://dc.lft.to/lastmile_qr_scan"}, "fusion_lat": 0.0}, {"is_disabled": 0, "lat": 38.920775, "bike_id": "21c470e7420cd026d91b03e7a24ca41a", "fusion_lon": 0.0, "is_reserved": 0, "type": "electric_scooter", "name": "21c470e7420cd026d91b03e7a24ca41a", "lon": -77.02389333333333, "rental_uris": {"android": "https://dc.lft.to/lastmile_qr_scan", "ios": "https://dc.lft.to/lastmile_qr_scan"}, "fusion_lat": 0.0}, {"is_disabled": 0, "lat": 38.9024045, "bike_id": "05a488c9ee0019801230caa95da210e2", "fusion_lon": 0.0, "is_reserved": 0, "type": "electric_scooter", "name": "05a488c9ee0019801230caa95da210e2", "lon": -77.0019815, "rental_uris": {"android": "https://dc.lft.to/lastmile_qr_scan", "ios": "https://dc.lft.to/lastmile_qr_scan"}, "fusion_lat": 0.0}, {"is_disabled": 0, "lat": 38.914181166666665, "bike_id": "b6941a0bb134d3f4d3cb96b4e783e965", "fusion_lon": 0.0, "is_reserved": 0, "type": "electric_scooter", "name": "b6941a0bb134d3f4d3cb96b4e783e965", "lon": -77.026205, "rental_uris": {"android": "https://dc.lft.to/lastmile_qr_scan", "ios": "https://dc.lft.to/lastmile_qr_scan"}, "fusion_lat": 0.0}, {"is_disabled": 0, "lat": 38.9051, "bike_id": "83dd9214c50f831a3324bf34619dc4db", "fusion_lon": 0.0, "is_reserved": 0, "type": "electric_scooter", "name": "83dd9214c50f831a3324bf34619dc4db", "lon": -77.04488433333333, "rental_uris": {"android": "https://dc.lft.to/lastmile_qr_scan", "ios": "https://dc.lft.to/lastmile_qr_scan"}, "fusion_lat": 0.0}, {"is_disabled": 0, "lat": 38.92156116666666, "bike_id": "49e0040106502f2aff6e30d251219104", "fusion_lon": 0.0, "is_reserved": 0, "type": "electric_scooter", "name": "49e0040106502f2aff6e30d251219104", "lon": -77.04225883333334, "rental_uris": {"android": "https://dc.lft.to/lastmile_qr_scan", "ios": "https://dc.lft.to/lastmile_qr_scan"}, "fusion_lat": 0.0}, {"is_disabled": 0, "lat": 38.900040833333335, "bike_id": "5e0e5bd732ec82b06541699c1ef07beb", "fusion_lon": 0.0, "is_reserved": 0, "type": "electric_scooter", "name": "5e0e5bd732ec82b06541699c1ef07beb", "lon": -77.046432, "rental_uris": {"android": "https://dc.lft.to/lastmile_qr_scan", "ios": "https://dc.lft.to/lastmile_qr_scan"}, "fusion_lat": 0.0}, {"is_disabled": 0, "lat": 38.92330833333333, "bike_id": "04f653e0516edc5b2ac7ed1d8023e00c", "fusion_lon": 0.0, "is_reserved": 0, "type": "electric_scooter", "name": "04f653e0516edc5b2ac7ed1d8023e00c", "lon": -77.043037, "rental_uris": {"android": "https://dc.lft.to/lastmile_qr_scan", "ios": "https://dc.lft.to/lastmile_qr_scan"}, "fusion_lat": 0.0}, {"is_disabled": 0, "lat": 38.923861333333335, "bike_id": "66c1b20221ebd50f32ca664e819bdb7e", "fusion_lon": 0.0, "is_reserved": 0, "type": "electric_scooter", "name": "66c1b20221ebd50f32ca664e819bdb7e", "lon": -77.03081666666667, "rental_uris": {"android": "https://dc.lft.to/lastmile_qr_scan", "ios": "https://dc.lft.to/lastmile_qr_scan"}, "fusion_lat": 0.0}, {"is_disabled": 0, "lat": 38.906342, "bike_id": "05c5fcbeb00611936196b085e99815f4", "fusion_lon": 0.0, "is_reserved": 0, "type": "electric_scooter", "name": "05c5fcbeb00611936196b085e99815f4", "lon": -77.00858716666667, "rental_uris": {"android": "https://dc.lft.to/lastmile_qr_scan", "ios": "https://dc.lft.to/lastmile_qr_scan"}, "fusion_lat": 0.0}, {"is_disabled": 0, "lat": 38.90026016666667, "bike_id": "73f9ac716422626b8f7cc37dcc31dc0a", "fusion_lon": 0.0, "is_reserved": 0, "type": "electric_scooter", "name": "73f9ac716422626b8f7cc37dcc31dc0a", "lon": -76.9911465, "rental_uris": {"android": "https://dc.lft.to/lastmile_qr_scan", "ios": "https://dc.lft.to/lastmile_qr_scan"}, "fusion_lat": 0.0}, {"is_disabled": 0, "lat": 38.876301166666664, "bike_id": "64fc67b468934dbeaecfa700fbb5b321", "fusion_lon": 0.0, "is_reserved": 0, "type": "electric_scooter", "name": "64fc67b468934dbeaecfa700fbb5b321", "lon": -77.0196605, "rental_uris": {"android": "https://dc.lft.to/lastmile_qr_scan", "ios": "https://dc.lft.to/lastmile_qr_scan"}, "fusion_lat": 0.0}, {"is_disabled": 0, "lat": 38.8964095, "bike_id": "8136d41b1fb895bda3e86e78bb96ab16", "fusion_lon": 0.0, "is_reserved": 0, "type": "electric_scooter", "name": "8136d41b1fb895bda3e86e78bb96ab16", "lon": -77.0006085, "rental_uris": {"android": "https://dc.lft.to/lastmile_qr_scan", "ios": "https://dc.lft.to/lastmile_qr_scan"}, "fusion_lat": 0.0}, {"is_disabled": 0, "lat": 38.88336983333333, "bike_id": "b3b25d5c0dc1e83acb5d28dbbc35c711", "fusion_lon": 0.0, "is_reserved": 0, "type": "electric_scooter", "name": "b3b25d5c0dc1e83acb5d28dbbc35c711", "lon": -77.01755516666667, "rental_uris": {"android": "https://dc.lft.to/lastmile_qr_scan", "ios": "https://dc.lft.to/lastmile_qr_scan"}, "fusion_lat": 0.0}, {"is_disabled": 0, "lat": 38.902540333333334, "bike_id": "9eade6e3a9df65793f365493bd6500fb", "fusion_lon": 0.0, "is_reserved": 0, "type": "electric_scooter", "name": "9eade6e3a9df65793f365493bd6500fb", "lon": -77.03845616666666, "rental_uris": {"android": "https://dc.lft.to/lastmile_qr_scan", "ios": "https://dc.lft.to/lastmile_qr_scan"}, "fusion_lat": 0.0}, {"is_disabled": 0, "lat": 38.899975166666664, "bike_id": "6583240062e7241e5bbe3caca82d42f8", "fusion_lon": 0.0, "is_reserved": 0, "type": "electric_scooter", "name": "6583240062e7241e5bbe3caca82d42f8", "lon": -77.0245915, "rental_uris": {"android": "https://dc.lft.to/lastmile_qr_scan", "ios": "https://dc.lft.to/lastmile_qr_scan"}, "fusion_lat": 0.0}, {"is_disabled": 0, "lat": 38.9170255, "bike_id": "96b1ce9c89a9d9d3003751b3b2b4de7d", "fusion_lon": 0.0, "is_reserved": 0, "type": "electric_scooter", "name": "96b1ce9c89a9d9d3003751b3b2b4de7d", "lon": -77.02898916666666, "rental_uris": {"android": "https://dc.lft.to/lastmile_qr_scan", "ios": "https://dc.lft.to/lastmile_qr_scan"}, "fusion_lat": 0.0}, {"is_disabled": 0, "lat": 38.88411816666667, "bike_id": "4066d5af68a7610003a2c5d964b134ea", "fusion_lon": 0.0, "is_reserved": 0, "type": "electric_scooter", "name": "4066d5af68a7610003a2c5d964b134ea", "lon": -77.03046566666667, "rental_uris": {"android": "https://dc.lft.to/lastmile_qr_scan", "ios": "https://dc.lft.to/lastmile_qr_scan"}, "fusion_lat": 0.0}, {"is_disabled": 0, "lat": 38.920505, "bike_id": "9aa10cbd218dfc156efc56e3640ca1c0", "fusion_lon": 0.0, "is_reserved": 0, "type": "electric_scooter", "name": "9aa10cbd218dfc156efc56e3640ca1c0", "lon": -77.02428416666666, "rental_uris": {"android": "https://dc.lft.to/lastmile_qr_scan", "ios": "https://dc.lft.to/lastmile_qr_scan"}, "fusion_lat": 0.0}, {"is_disabled": 0, "lat": 38.921556333333335, "bike_id": "d83788685ab8b071c3f6931110abcca1", "fusion_lon": 0.0, "is_reserved": 0, "type": "electric_scooter", "name": "d83788685ab8b071c3f6931110abcca1", "lon": -77.0469205, "rental_uris": {"android": "https://dc.lft.to/lastmile_qr_scan", "ios": "https://dc.lft.to/lastmile_qr_scan"}, "fusion_lat": 0.0}, {"is_disabled": 0, "lat": 38.91706816666667, "bike_id": "9d621918ee3086f0eab0cb525edf6126", "fusion_lon": 0.0, "is_reserved": 0, "type": "electric_scooter", "name": "9d621918ee3086f0eab0cb525edf6126", "lon": -77.0355125, "rental_uris": {"android": "https://dc.lft.to/lastmile_qr_scan", "ios": "https://dc.lft.to/lastmile_qr_scan"}, "fusion_lat": 0.0}, {"is_disabled": 0, "lat": 38.86261966666667, "bike_id": "f17184de46657874e833ddf9fb8427a6", "fusion_lon": 0.0, "is_reserved": 0, "type": "electric_scooter", "name": "f17184de46657874e833ddf9fb8427a6", "lon": -76.9954945, "rental_uris": {"android": "https://dc.lft.to/lastmile_qr_scan", "ios": "https://dc.lft.to/lastmile_qr_scan"}, "fusion_lat": 0.0}, {"is_disabled": 0, "lat": 38.89734083333333, "bike_id": "9ea170d3f35acfd8ad630337ff1217b2", "fusion_lon": 0.0, "is_reserved": 0, "type": "electric_scooter", "name": "9ea170d3f35acfd8ad630337ff1217b2", "lon": -77.00376216666666, "rental_uris": {"android": "https://dc.lft.to/lastmile_qr_scan", "ios": "https://dc.lft.to/lastmile_qr_scan"}, "fusion_lat": 0.0}, {"is_disabled": 0, "lat": 38.8624975, "bike_id": "c0dd7a1c2e3f0703e38b3ab855249566", "fusion_lon": 0.0, "is_reserved": 0, "type": "electric_bike", "name": "c0dd7a1c2e3f0703e38b3ab855249566", "lon": -77.08658933333334, "rental_uris": {"android": "https://dc.lft.to/lastmile_qr_scan", "ios": "https://dc.lft.to/lastmile_qr_scan"}, "fusion_lat": 0.0}, {"is_disabled": 0, "lat": 38.966234166666666, "bike_id": "2b39cccfbd37aa00eec7e59d1f0d1757", "fusion_lon": 0.0, "is_reserved": 0, "type": "electric_bike", "name": "2b39cccfbd37aa00eec7e59d1f0d1757", "lon": -76.99455133333333, "rental_uris": {"android": "https://dc.lft.to/lastmile_qr_scan", "ios": "https://dc.lft.to/lastmile_qr_scan"}, "fusion_lat": 0.0}, {"is_disabled": 0, "lat": 38.91064683333333, "bike_id": "b3b556696579b129155eeab1ff33ad3c", "fusion_lon": 0.0, "is_reserved": 0, "type": "electric_scooter", "name": "b3b556696579b129155eeab1ff33ad3c", "lon": -77.04485466666667, "rental_uris": {"android": "https://dc.lft.to/lastmile_qr_scan", "ios": "https://dc.lft.to/lastmile_qr_scan"}, "fusion_lat": 0.0}, {"is_disabled": 0, "lat": 38.919844166666664, "bike_id": "eddc00e06cc268c13a08f7e8b1c0566b", "fusion_lon": 0.0, "is_reserved": 0, "type": "electric_scooter", "name": "eddc00e06cc268c13a08f7e8b1c0566b", "lon": -77.02360683333333, "rental_uris": {"android": "https://dc.lft.to/lastmile_qr_scan", "ios": "https://dc.lft.to/lastmile_qr_scan"}, "fusion_lat": 0.0}, {"is_disabled": 0, "lat": 38.871429, "bike_id": "7c6c635fdd1fdd85b4a0570e0b9e40d9", "fusion_lon": 0.0, "is_reserved": 0, "type": "electric_scooter", "name": "7c6c635fdd1fdd85b4a0570e0b9e40d9", "lon": -77.01317716666667, "rental_uris": {"android": "https://dc.lft.to/lastmile_qr_scan", "ios": "https://dc.lft.to/lastmile_qr_scan"}, "fusion_lat": 0.0}, {"is_disabled": 0, "lat": 38.86696116666667, "bike_id": "58d5daf1640e1c1a22c43cc30c9d711c", "fusion_lon": 0.0, "is_reserved": 0, "type": "electric_bike", "name": "58d5daf1640e1c1a22c43cc30c9d711c", "lon": -76.98969016666666, "rental_uris": {"android": "https://dc.lft.to/lastmile_qr_scan", "ios": "https://dc.lft.to/lastmile_qr_scan"}, "fusion_lat": 0.0}, {"is_disabled": 0, "lat": 38.84438883333333, "bike_id": "acc998c2dc15b3b16326f8312c5bfbe8", "fusion_lon": 0.0, "is_reserved": 0, "type": "electric_bike", "name": "acc998c2dc15b3b16326f8312c5bfbe8", "lon": -77.08584716666667, "rental_uris": {"android": "https://dc.lft.to/lastmile_qr_scan", "ios": "https://dc.lft.to/lastmile_qr_scan"}, "fusion_lat": 0.0}, {"is_disabled": 0, "lat": 38.917736, "bike_id": "647f6cdb48ac5ae60b7b37f63bc29b1b", "fusion_lon": 0.0, "is_reserved": 0, "type": "electric_scooter", "name": "647f6cdb48ac5ae60b7b37f63bc29b1b", "lon": -76.9732305, "rental_uris": {"android": "https://dc.lft.to/lastmile_qr_scan", "ios": "https://dc.lft.to/lastmile_qr_scan"}, "fusion_lat": 0.0}, {"is_disabled": 0, "lat": 38.88505416666667, "bike_id": "3686248dcdce394c263e8dae370ecbb8", "fusion_lon": 0.0, "is_reserved": 0, "type": "electric_scooter", "name": "3686248dcdce394c263e8dae370ecbb8", "lon": -77.0287425, "rental_uris": {"android": "https://dc.lft.to/lastmile_qr_scan", "ios": "https://dc.lft.to/lastmile_qr_scan"}, "fusion_lat": 0.0}, {"is_disabled": 0, "lat": 38.949170333333335, "bike_id": "1484b75da310fade43ee3fdfcbed0a1b", "fusion_lon": 0.0, "is_reserved": 0, "type": "electric_bike", "name": "1484b75da310fade43ee3fdfcbed0a1b", "lon": -77.007894, "rental_uris": {"android": "https://dc.lft.to/lastmile_qr_scan", "ios": "https://dc.lft.to/lastmile_qr_scan"}, "fusion_lat": 0.0}, {"is_disabled": 0, "lat": 38.9001355, "bike_id": "4176e352aa0ef25bac669585038c39f1", "fusion_lon": 0.0, "is_reserved": 0, "type": "electric_scooter", "name": "4176e352aa0ef25bac669585038c39f1", "lon": -77.00676083333333, "rental_uris": {"android": "https://dc.lft.to/lastmile_qr_scan", "ios": "https://dc.lft.to/lastmile_qr_scan"}, "fusion_lat": 0.0}, {"is_disabled": 0, "lat": 38.933580166666665, "bike_id": "f5e634b4e71385286acc0aa7f94ecf1b", "fusion_lon": 0.0, "is_reserved": 0, "type": "electric_scooter", "name": "f5e634b4e71385286acc0aa7f94ecf1b", "lon": -77.08576633333334, "rental_uris": {"android": "https://dc.lft.to/lastmile_qr_scan", "ios": "https://dc.lft.to/lastmile_qr_scan"}, "fusion_lat": 0.0}, {"is_disabled": 0, "lat": 38.913616, "bike_id": "81946b9e567f6aca3aafcfa294187ebb", "fusion_lon": 0.0, "is_reserved": 0, "type": "electric_scooter", "name": "81946b9e567f6aca3aafcfa294187ebb", "lon": -77.039719, "rental_uris": {"android": "https://dc.lft.to/lastmile_qr_scan", "ios": "https://dc.lft.to/lastmile_qr_scan"}, "fusion_lat": 0.0}, {"is_disabled": 0, "lat": 38.921522333333336, "bike_id": "123823100cb8eff9508683c2f55b1ef3", "fusion_lon": 0.0, "is_reserved": 0, "type": "electric_scooter", "name": "123823100cb8eff9508683c2f55b1ef3", "lon": -77.03486483333333, "rental_uris": {"android": "https://dc.lft.to/lastmile_qr_scan", "ios": "https://dc.lft.to/lastmile_qr_scan"}, "fusion_lat": 0.0}, {"is_disabled": 0, "lat": 38.919389333333335, "bike_id": "667f9e3673facba53e03b9ca03d6f256", "fusion_lon": 0.0, "is_reserved": 0, "type": "electric_scooter", "name": "667f9e3673facba53e03b9ca03d6f256", "lon": -77.03431616666667, "rental_uris": {"android": "https://dc.lft.to/lastmile_qr_scan", "ios": "https://dc.lft.to/lastmile_qr_scan"}, "fusion_lat": 0.0}, {"is_disabled": 0, "lat": 38.949048, "bike_id": "43d16b6799580d536387273db01a2402", "fusion_lon": 0.0, "is_reserved": 0, "type": "electric_bike", "name": "43d16b6799580d536387273db01a2402", "lon": -76.97237783333334, "rental_uris": {"android": "https://dc.lft.to/lastmile_qr_scan", "ios": "https://dc.lft.to/lastmile_qr_scan"}, "fusion_lat": 0.0}, {"is_disabled": 0, "lat": 38.85650233333333, "bike_id": "538b13545ea9efe3f5e9024b3acf1777", "fusion_lon": 0.0, "is_reserved": 0, "type": "electric_bike", "name": "538b13545ea9efe3f5e9024b3acf1777", "lon": -77.11258283333333, "rental_uris": {"android": "https://dc.lft.to/lastmile_qr_scan", "ios": "https://dc.lft.to/lastmile_qr_scan"}, "fusion_lat": 0.0}, {"is_disabled": 0, "lat": 38.884778833333336, "bike_id": "515e0ab7da93a2ffb65d2ada517f0e84", "fusion_lon": 0.0, "is_reserved": 0, "type": "electric_bike", "name": "515e0ab7da93a2ffb65d2ada517f0e84", "lon": -77.01509133333333, "rental_uris": {"android": "https://dc.lft.to/lastmile_qr_scan", "ios": "https://dc.lft.to/lastmile_qr_scan"}, "fusion_lat": 0.0}, {"is_disabled": 0, "lat": 38.9026525, "bike_id": "7af6b1e01007dee240bd6fe6b27f270b", "fusion_lon": 0.0, "is_reserved": 0, "type": "electric_scooter", "name": "7af6b1e01007dee240bd6fe6b27f270b", "lon": -77.06158483333333, "rental_uris": {"android": "https://dc.lft.to/lastmile_qr_scan", "ios": "https://dc.lft.to/lastmile_qr_scan"}, "fusion_lat": 0.0}, {"is_disabled": 0, "lat": 38.928305333333334, "bike_id": "b23e64133e36a530f95d5f058517e46d", "fusion_lon": 0.0, "is_reserved": 0, "type": "electric_scooter", "name": "b23e64133e36a530f95d5f058517e46d", "lon": -77.032923, "rental_uris": {"android": "https://dc.lft.to/lastmile_qr_scan", "ios": "https://dc.lft.to/lastmile_qr_scan"}, "fusion_lat": 0.0}, {"is_disabled": 0, "lat": 38.902000666666666, "bike_id": "cf78b253eb6d19427a8219e29bae3fc9", "fusion_lon": 0.0, "is_reserved": 0, "type": "electric_scooter", "name": "cf78b253eb6d19427a8219e29bae3fc9", "lon": -77.020118, "rental_uris": {"android": "https://dc.lft.to/lastmile_qr_scan", "ios": "https://dc.lft.to/lastmile_qr_scan"}, "fusion_lat": 0.0}, {"is_disabled": 0, "lat": 38.9431375, "bike_id": "25e6cf7e50c3fb29b03ae78bdab9582c", "fusion_lon": 0.0, "is_reserved": 0, "type": "electric_scooter", "name": "25e6cf7e50c3fb29b03ae78bdab9582c", "lon": -77.06175166666667, "rental_uris": {"android": "https://dc.lft.to/lastmile_qr_scan", "ios": "https://dc.lft.to/lastmile_qr_scan"}, "fusion_lat": 0.0}, {"is_disabled": 0, "lat": 38.928346166666664, "bike_id": "bddfd054b7626510c893a59ce9d0e9b9", "fusion_lon": 0.0, "is_reserved": 0, "type": "electric_scooter", "name": "bddfd054b7626510c893a59ce9d0e9b9", "lon": -77.03288916666666, "rental_uris": {"android": "https://dc.lft.to/lastmile_qr_scan", "ios": "https://dc.lft.to/lastmile_qr_scan"}, "fusion_lat": 0.0}, {"is_disabled": 0, "lat": 38.87968633333333, "bike_id": "08669f5f379ae40c5c36729df0f819c9", "fusion_lon": 0.0, "is_reserved": 0, "type": "electric_bike", "name": "08669f5f379ae40c5c36729df0f819c9", "lon": -76.9851445, "rental_uris": {"android": "https://dc.lft.to/lastmile_qr_scan", "ios": "https://dc.lft.to/lastmile_qr_scan"}, "fusion_lat": 0.0}, {"is_disabled": 0, "lat": 38.876896333333335, "bike_id": "ecc046f28adebbea48585e9a2f4409cf", "fusion_lon": 0.0, "is_reserved": 0, "type": "electric_scooter", "name": "ecc046f28adebbea48585e9a2f4409cf", "lon": -77.0175845, "rental_uris": {"android": "https://dc.lft.to/lastmile_qr_scan", "ios": "https://dc.lft.to/lastmile_qr_scan"}, "fusion_lat": 0.0}, {"is_disabled": 0, "lat": 38.90039516666667, "bike_id": "f0a12b769cab1b6f5742096a555d1c74", "fusion_lon": 0.0, "is_reserved": 0, "type": "electric_scooter", "name": "f0a12b769cab1b6f5742096a555d1c74", "lon": -76.9883045, "rental_uris": {"android": "https://dc.lft.to/lastmile_qr_scan", "ios": "https://dc.lft.to/lastmile_qr_scan"}, "fusion_lat": 0.0}, {"is_disabled": 0, "lat": 38.867455666666665, "bike_id": "1291f5ecdf1999694cf065d8a00bdc84", "fusion_lon": 0.0, "is_reserved": 0, "type": "electric_bike", "name": "1291f5ecdf1999694cf065d8a00bdc84", "lon": -77.11708183333333, "rental_uris": {"android": "https://dc.lft.to/lastmile_qr_scan", "ios": "https://dc.lft.to/lastmile_qr_scan"}, "fusion_lat": 0.0}, {"is_disabled": 0, "lat": 38.87936766666667, "bike_id": "832956acdd4b652c810dc5ee28f7cb6a", "fusion_lon": 0.0, "is_reserved": 0, "type": "electric_scooter", "name": "832956acdd4b652c810dc5ee28f7cb6a", "lon": -77.005271, "rental_uris": {"android": "https://dc.lft.to/lastmile_qr_scan", "ios": "https://dc.lft.to/lastmile_qr_scan"}, "fusion_lat": 0.0}, {"is_disabled": 0, "lat": 38.905858333333335, "bike_id": "86a25d3643e6e519c3ccd76326a5e101", "fusion_lon": 0.0, "is_reserved": 0, "type": "electric_scooter", "name": "86a25d3643e6e519c3ccd76326a5e101", "lon": -77.05115416666666, "rental_uris": {"android": "https://dc.lft.to/lastmile_qr_scan", "ios": "https://dc.lft.to/lastmile_qr_scan"}, "fusion_lat": 0.0}, {"is_disabled": 0, "lat": 38.917051666666666, "bike_id": "87286da8308aa7277f90a09f9ef9ee6d", "fusion_lon": 0.0, "is_reserved": 0, "type": "electric_scooter", "name": "87286da8308aa7277f90a09f9ef9ee6d", "lon": -77.02411166666667, "rental_uris": {"android": "https://dc.lft.to/lastmile_qr_scan", "ios": "https://dc.lft.to/lastmile_qr_scan"}, "fusion_lat": 0.0}, {"is_disabled": 0, "lat": 38.898241, "bike_id": "1544809af896ec7725456e62664e510c", "fusion_lon": 0.0, "is_reserved": 0, "type": "electric_scooter", "name": "1544809af896ec7725456e62664e510c", "lon": -77.00739266666666, "rental_uris": {"android": "https://dc.lft.to/lastmile_qr_scan", "ios": "https://dc.lft.to/lastmile_qr_scan"}, "fusion_lat": 0.0}, {"is_disabled": 0, "lat": 38.88268383333333, "bike_id": "00311d5560f0dfd42763a6e54e0231d7", "fusion_lon": 0.0, "is_reserved": 0, "type": "electric_scooter", "name": "00311d5560f0dfd42763a6e54e0231d7", "lon": -77.00369383333333, "rental_uris": {"android": "https://dc.lft.to/lastmile_qr_scan", "ios": "https://dc.lft.to/lastmile_qr_scan"}, "fusion_lat": 0.0}, {"is_disabled": 0, "lat": 38.898527666666666, "bike_id": "dbc31d94b03cd8cfc125d7cbe92130bf", "fusion_lon": 0.0, "is_reserved": 0, "type": "electric_scooter", "name": "dbc31d94b03cd8cfc125d7cbe92130bf", "lon": -77.0258655, "rental_uris": {"android": "https://dc.lft.to/lastmile_qr_scan", "ios": "https://dc.lft.to/lastmile_qr_scan"}, "fusion_lat": 0.0}, {"is_disabled": 0, "lat": 38.903677, "bike_id": "5275304c0cefe1b68e4a96ed0400479e", "fusion_lon": 0.0, "is_reserved": 0, "type": "electric_scooter", "name": "5275304c0cefe1b68e4a96ed0400479e", "lon": -77.038654, "rental_uris": {"android": "https://dc.lft.to/lastmile_qr_scan", "ios": "https://dc.lft.to/lastmile_qr_scan"}, "fusion_lat": 0.0},