{"data": {"bikes": [{"name": "a20e27c525140d39ae276731efbbb918", "fusion_lat": 0.0, "type": "electric_scooter", "lat": 38.919155333333336, "is_reserved": 0, "is_disabled": 0, "fusion_lon": 0.0, "bike_id": "a20e27c525140d39ae276731efbbb918", "lon": -77.036263, "rental_uris": {"ios": "https://dc.lft.to/lastmile_qr_scan", "android": "https://dc.lft.to/lastmile_qr_scan"}}, {"name": "30129db9b48e38b75665bd94cece4404", "fusion_lat": 0.0, "type": "electric_bike", "lat": 38.90627516666667, "is_reserved": 0, "is_disabled": 0, "fusion_lon": 0.0, "bike_id": "30129db9b48e38b75665bd94cece4404", "lon": -76.98606366666667, "rental_uris": {"ios": "https://dc.lft.to/lastmile_qr_scan", "android": "https://dc.lft.to/lastmile_qr_scan"}}, {"name": "9cc4af4b924d4c793723df0d2c7750a8", "fusion_lat": 0.0, "type": "electric_bike", "lat": 38.9601125, "is_reserved": 0, "is_disabled": 0, "fusion_lon": 0.0, "bike_id": "9cc4af4b924d4c793723df0d2c7750a8", "lon": -76.99873183333334, "rental_uris": {"ios": "https://dc.lft.to/lastmile_qr_scan", "android": "https://dc.lft.to/lastmile_qr_scan"}}, {"name": "59f547a4f53317effdbf1ca00ecaae00", "fusion_lat": 0.0, "type": "electric_scooter", "lat": 38.9346945, "is_reserved": 0, "is_disabled": 0, "fusion_lon": 0.0, "bike_id": "59f547a4f53317effdbf1ca00ecaae00", "lon": -77.03516966666666, "rental_uris": {"ios": "https://dc.lft.to/lastmile_qr_scan", "android": "https://dc.lft.to/lastmile_qr_scan"}}, {"name": "d8b510a733a9340c641fe44c0976d796", "fusion_lat": 0.0, "type": "electric_scooter", "lat": 38.92829183333333, "is_reserved": 0, "is_disabled": 0, "fusion_lon": 0.0, "bike_id": "d8b510a733a9340c641fe44c0976d796", "lon": -77.02253283333333, "rental_uris": {"ios": "https://dc.lft.to/lastmile_qr_scan", "android": "https://dc.lft.to/lastmile_qr_scan"}}, {"name": "6c0335144ed355ec200997134a585053", "fusion_lat": 0.0, "type": "electric_scooter", "lat": 38.90974333333333, "is_reserved": 0, "is_disabled": 0, "fusion_lon": 0.0, "bike_id": "6c0335144ed355ec200997134a585053", "lon": -77.04872683333333, "rental_uris": {"ios": "https://dc.lft.to/lastmile_qr_scan", "android": "https://dc.lft.to/lastmile_qr_scan"}}, {"name": "bddf53333bd470ac51f916b29a2e8fb1", "fusion_lat": 0.0, "type": "electric_scooter", "lat": 38.96228516666667, "is_reserved": 0, "is_disabled": 0, "fusion_lon": 0.0, "bike_id": "bddf53333bd470ac51f916b29a2e8fb1", "lon": -77.02977283333334, "rental_uris": {"ios": "https://dc.lft.to/lastmile_qr_scan", "android": "https://dc.lft.to/lastmile_qr_scan"}}, {"name": "1ffbca98f56e40a9ed03e4078b5989bb", "fusion_lat": 0.0, "type": "electric_scooter", "lat": 38.922341833333334, "is_reserved": 0, "is_disabled": 0, "fusion_lon": 0.0, "bike_id": "1ffbca98f56e40a9ed03e4078b5989bb", "lon": -77.04718516666667, "rental_uris": {"ios": "https://dc.lft.to/lastmile_qr_scan", "android": "https://dc.lft.to/lastmile_qr_scan"}}, {"name": "98ba550cc96b757d39f3b2207df3e7b8", "fusion_lat": 0.0, "type": "electric_scooter", "lat": 38.8823175, "is_reserved": 0, "is_disabled": 0, "fusion_lon": 0.0, "bike_id": "98ba550cc96b757d39f3b2207df3e7b8", "lon": -77.02580766666667, "rental_uris": {"ios": "https://dc.lft.to/lastmile_qr_scan", "android": "https://dc.lft.to/lastmile_qr_scan"}}, {"name": "c0b0fe31f541beb6cc3c4116734f12c6", "fusion_lat": 0.0, "type": "electric_scooter", "lat": 38.92579833333333, "is_reserved": 0, "is_disabled": 0, "fusion_lon": 0.0, "bike_id": "c0b0fe31f541beb6cc3c4116734f12c6", "lon": -76.994909, "rental_uris": {"ios": "https://dc.lft.to/lastmile_qr_scan", "android": "https://dc.lft.to/lastmile_qr_scan"}}, {"name": "4f3c0beddfe495f7c190ba13345f5035", "fusion_lat": 0.0, "type": "electric_scooter", "lat": 38.899664333333334, "is_reserved": 0, "is_disabled": 0, "fusion_lon": 0.0, "bike_id": "4f3c0beddfe495f7c190ba13345f5035", "lon": -77.0160855, "rental_uris": {"ios": "https://dc.lft.to/lastmile_qr_scan", "android": "https://dc.lft.to/lastmile_qr_scan"}}, {"name": "fd23e93e30e878c6451909ad32f72a32", "fusion_lat": 0.0, "type": "electric_scooter", "lat": 38.925492166666665, "is_reserved": 0, "is_disabled": 0, "fusion_lon": 0.0, "bike_id": "fd23e93e30e878c6451909ad32f72a32", "lon": -77.03223516666667, "rental_uris": {"ios": "https://dc.lft.to/lastmile_qr_scan", "android": "https://dc.lft.to/lastmile_qr_scan"}}, {"name": "a8278a1e25bcbd5dc4245c93c9f33836", "fusion_lat": 0.0, "type": "electric_scooter", "lat": 38.90589666666666, "is_reserved": 0, "is_disabled": 0, "fusion_lon": 0.0, "bike_id": "a8278a1e25bcbd5dc4245c93c9f33836", "lon": -77.04872316666666, "rental_uris": {"ios": "https://dc.lft.to/lastmile_qr_scan", "android": "https://dc.lft.to/lastmile_qr_scan"}}, {"name": "314bc50c07e794023dabc2776fea944f", "fusion_lat": 0.0, "type": "electric_scooter", "lat": 38.9113705, "is_reserved": 0, "is_disabled": 0, "fusion_lon": 0.0, "bike_id": "314bc50c07e794023dabc2776fea944f", "lon": -77.04197683333334, "rental_uris": {"ios": "https://dc.lft.to/lastmile_qr_scan", "android": "https://dc.lft.to/lastmile_qr_scan"}}, {"name": "f550f393d25a10e4023f22c2b98afb3c", "fusion_lat": 0.0, "type": "electric_scooter", "lat": 38.861125666666666, "is_reserved": 0, "is_disabled": 0, "fusion_lon": 0.0, "bike_id": "f550f393d25a10e4023f22c2b98afb3c", "lon": -76.98891233333333, "rental_uris": {"ios": "https://dc.lft.to/lastmile_qr_scan", "android": "https://dc.lft.to/lastmile_qr_scan"}}, {"name": "bc8672b53c37337d08f5e4bafce373a3", "fusion_lat": 0.0, "type": "electric_scooter", "lat": 38.93876366666667, "is_reserved": 0, "is_disabled": 0, "fusion_lon": 0.0, "bike_id": "bc8672b53c37337d08f5e4bafce373a3", "lon": -77.03259933333334, "rental_uris": {"ios": "https://dc.lft.to/lastmile_qr_scan", "android": "https://dc.lft.to/lastmile_qr_scan"}}, {"name": "e57f85fc185e2b7e2cf35a6533fa8618", "fusion_lat": 0.0, "type": "electric_scooter", "lat": 38.880370166666665, "is_reserved": 0, "is_disabled": 0, "fusion_lon": 0.0, "bike_id": "e57f85fc185e2b7e2cf35a6533fa8618", "lon": -77.0308125, "rental_uris": {"ios": "https://dc.lft.to/lastmile_qr_scan", "android": "https://dc.lft.to/lastmile_qr_scan"}}, {"name": "5147d1e591e83ad53ca165b207ebe8bc", "fusion_lat": 0.0, "type": "electric_scooter", "lat": 38.900448833333336, "is_reserved": 0, "is_disabled": 0, "fusion_lon": 0.0, "bike_id": "5147d1e591e83ad53ca165b207ebe8bc", "lon": -77.02600233333334, "rental_uris": {"ios": "https://dc.lft.to/lastmile_qr_scan", "android": "https://dc.lft.to/lastmile_qr_scan"}}, {"name": "e430ed3e421d658c07b963b5883aa8b0", "fusion_lat": 0.0, "type": "electric_scooter", "lat": 38.912471833333335, "is_reserved": 0, "is_disabled": 0, "fusion_lon": 0.0, "bike_id": "e430ed3e421d658c07b963b5883aa8b0", "lon": -77.04526033333333, "rental_uris": {"ios": "https://dc.lft.to/lastmile_qr_scan", "android": "https://dc.lft.to/lastmile_qr_scan"}}, {"name": "51a56e41f4c72b65d7cc0e014fdfd263", "fusion_lat": 0.0, "type": "electric_bike", "lat": 39.024233333333335, "is_reserved": 0, "is_disabled": 0, "fusion_lon": 0.0, "bike_id": "51a56e41f4c72b65d7cc0e014fdfd263", "lon": -77.1250585, "rental_uris": {"ios": "https://dc.lft.to/lastmile_qr_scan", "android": "https://dc.lft.to/lastmile_qr_scan"}}, {"name": "f2ec42517ef7a1eb549f0e9d85cfaa6e", "fusion_lat": 0.0, "type": "electric_bike", "lat": 38.96621283333333, "is_reserved": 0, "is_disabled": 0, "fusion_lon": 0.0, "bike_id": "f2ec42517ef7a1eb549f0e9d85cfaa6e", "lon": -76.94423016666667, "rental_uris": {"ios": "https://dc.lft.to/lastmile_qr_scan", "android": "https://dc.lft.to/lastmile_qr_scan"}}, {"name": "8f4594b27817a791fb7b42e04949f547", "fusion_lat": 0.0, "type": "electric_scooter", "lat": 38.90010566666667, "is_reserved": 0, "is_disabled": 0, "fusion_lon": 0.0, "bike_id": "8f4594b27817a791fb7b42e04949f547", "lon": -77.04121183333334, "rental_uris": {"ios": "https://dc.lft.to/lastmile_qr_scan", "android": "https://dc.lft.to/lastmile_qr_scan"}}, {"name": "0468ad2023c0d57fcbd7c5cc2e5527ea", "fusion_lat": 0.0, "type": "electric_scooter", "lat": 38.922699, "is_reserved": 0, "is_disabled": 0, "fusion_lon": 0.0, "bike_id": "0468ad2023c0d57fcbd7c5cc2e5527ea", "lon": -77.03409483333333, "rental_uris": {"ios": "https://dc.lft.to/lastmile_qr_scan", "android": "https://dc.lft.to/lastmile_qr_scan"}}, {"name": "f10ad9e3492a2d6c4a99c935e094cb9e", "fusion_lat": 0.0, "type": "electric_scooter", "lat": 38.90615533333333, "is_reserved": 0, "is_disabled": 0, "fusion_lon": 0.0, "bike_id": "f10ad9e3492a2d6c4a99c935e094cb9e", "lon": -77.05633083333333, "rental_uris": {"ios": "https://dc.lft.to/lastmile_qr_scan", "android": "https://dc.lft.to/lastmile_qr_scan"}}, {"name": "ca04990923921b0a64223ef5e22ce612", "fusion_lat": 0.0, "type": "electric_scooter", "lat": 38.96178033333333, "is_reserved": 0, "is_disabled": 0, "fusion_lon": 0.0, "bike_id": "ca04990923921b0a64223ef5e22ce612", "lon": -77.03228783333333, "rental_uris": {"ios": "https://dc.lft.to/lastmile_qr_scan", "android": "https://dc.lft.to/lastmile_qr_scan"}}, {"name": "70da9f664e70f324fa3aa90aa03ffade", "fusion_lat": 0.0, "type": "electric_scooter", "lat": 38.915564, "is_reserved": 0, "is_disabled": 0, "fusion_lon": 0.0, "bike_id": "70da9f664e70f324fa3aa90aa03ffade", "lon": -77.03831416666667, "rental_uris": {"ios": "https://dc.lft.to/lastmile_qr_scan", "android": "https://dc.lft.to/lastmile_qr_scan"}}, {"name": "c0c0519ce09b55116756131d0e68098f", "fusion_lat": 0.0, "type": "electric_scooter", "lat": 38.91746766666667, "is_reserved": 0, "is_disabled": 0, "fusion_lon": 0.0, "bike_id": "c0c0519ce09b55116756131d0e68098f", "lon": -77.03642516666666, "rental_uris": {"ios": "https://dc.lft.to/lastmile_qr_scan", "android": "https://dc.lft.to/lastmile_qr_scan"}}, {"name": "be16734fad05959f4015e3f6638cd837", "fusion_lat": 0.0, "type": "electric_scooter", "lat": 38.914961166666664, "is_reserved": 0, "is_disabled": 0, "fusion_lon": 0.0, "bike_id": "be16734fad05959f4015e3f6638cd837", "lon": -77.02208083333333, "rental_uris": {"ios": "https://dc.lft.to/lastmile_qr_scan", "android": "https://dc.lft.to/lastmile_qr_scan"}}, {"name": "72c3d7fe8d0baf9601f5ae0093f42196", "fusion_lat": 0.0, "type": "electric_bike", "lat": 38.8918785, "is_reserved": 0, "is_disabled": 0, "fusion_lon": 0.0, "bike_id": "72c3d7fe8d0baf9601f5ae0093f42196", "lon": -77.1226485, "rental_uris": {"ios": "https://dc.lft.to/lastmile_qr_scan", "android": "https://dc.lft.to/lastmile_qr_scan"}}, {"name": "ff4f002a93d371fe8259d0a662b4e6d4", "fusion_lat": 0.0, "type": "electric_bike", "lat": 38.813068, "is_reserved": 0, "is_disabled": 0, "fusion_lon": 0.0, "bike_id": "ff4f002a93d371fe8259d0a662b4e6d4", "lon": -77.1121215, "rental_uris": {"ios": "https://dc.lft.to/lastmile_qr_scan", "android": "https://dc.lft.to/lastmile_qr_scan"}}, {"name": "ef593a2f9012e4539be9655333381035", "fusion_lat": 0.0, "type": "electric_scooter", "lat": 38.888749833333335, "is_reserved": 0, "is_disabled": 0, "fusion_lon": 0.0, "bike_id": "ef593a2f9012e4539be9655333381035", "lon": -76.99030616666667, "rental_uris": {"ios": "https://dc.lft.to/lastmile_qr_scan", "android": "https://dc.lft.to/lastmile_qr_scan"}}, {"name": "91b58862689c21b074fa0c07e48921ea", "fusion_lat": 0.0, "type": "electric_scooter", "lat": 38.92110516666666, "is_reserved": 0, "is_disabled": 0, "fusion_lon": 0.0, "bike_id": "91b58862689c21b074fa0c07e48921ea", "lon": -77.0176315, "rental_uris": {"ios": "https://dc.lft.to/lastmile_qr_scan", "android": "https://dc.lft.to/lastmile_qr_scan"}}, {"name": "e1b0b33ee70112401c07ff97ce80157e", "fusion_lat": 0.0, "type": "electric_scooter", "lat": 38.89233216666667, "is_reserved": 0, "is_disabled": 0, "fusion_lon": 0.0, "bike_id": "e1b0b33ee70112401c07ff97ce80157e", "lon": -77.05003766666667, "rental_uris": {"ios": "https://dc.lft.to/lastmile_qr_scan", "android": "https://dc.lft.to/lastmile_qr_scan"}}, {"name": "35329cfe331fde19753aaa276f22103f", "fusion_lat": 0.0, "type": "electric_bike", "lat": 38.83195633333333, "is_reserved": 0, "is_disabled": 0, "fusion_lon": 0.0, "bike_id": "35329cfe331fde19753aaa276f22103f", "lon": -77.07685683333334, "rental_uris": {"ios": "https://dc.lft.to/lastmile_qr_scan", "android": "https://dc.lft.to/lastmile_qr_scan"}}, {"name": "8b299681b77aac233760405eaa1ac8ba", "fusion_lat": 0.0, "type": "electric_scooter", "lat": 38.902321, "is_reserved": 0, "is_disabled": 0, "fusion_lon": 0.0, "bike_id": "8b299681b77aac233760405eaa1ac8ba", "lon": -77.05129316666667, "rental_uris": {"ios": "https://dc.lft.to/lastmile_qr_scan", "android": "https://dc.lft.to/lastmile_qr_scan"}}, {"name": "808a1cd837378ba89cbfe74d425988a7", "fusion_lat": 0.0, "type": "electric_scooter", "lat": 38.91065233333333, "is_reserved": 0, "is_disabled": 0, "fusion_lon": 0.0, "bike_id": "808a1cd837378ba89cbfe74d425988a7", "lon": -77.05329033333334, "rental_uris": {"ios": "https://dc.lft.to/lastmile_qr_scan", "android": "https://dc.lft.to/lastmile_qr_scan"}}, {"name": "f239158d054b6cf18a1c913ea0a1f7c1", "fusion_lat": 0.0, "type": "electric_scooter", "lat": 38.90677066666667, "is_reserved": 0, "is_disabled": 0, "fusion_lon": 0.0, "bike_id": "f239158d054b6cf18a1c913ea0a1f7c1", "lon": -76.97811566666667, "rental_uris": {"ios": "https://dc.lft.to/lastmile_qr_scan", "android": "https://dc.lft.to/lastmile_qr_scan"}}, {"name": "98f77e16b56330c7fdc759f978926057", "fusion_lat": 0.0, "type": "electric_scooter", "lat": 38.92071, "is_reserved": 0, "is_disabled": 0, "fusion_lon": 0.0, "bike_id": "98f77e16b56330c7fdc759f978926057", "lon": -77.043797, "rental_uris": {"ios": "https://dc.lft.to/lastmile_qr_scan", "android": "https://dc.lft.to/lastmile_qr_scan"}}, {"name": "e0eab7f7bd8364be56e49da90fa3fd8c", "fusion_lat": 0.0, "type": "electric_bike", "lat": 38.955402, "is_reserved": 0, "is_disabled": 0, "fusion_lon": 0.0, "bike_id": "e0eab7f7bd8364be56e49da90fa3fd8c", "lon": -76.935318, "rental_uris": {"ios": "https://dc.lft.to/lastmile_qr_scan", "android": "https://dc.lft.to/lastmile_qr_scan"}}, {"name": "53e919a0b4d45053191423e5aadffd11", "fusion_lat": 0.0, "type": "electric_scooter", "lat": 38.9169915, "is_reserved": 0, "is_disabled": 0, "fusion_lon": 0.0, "bike_id": "53e919a0b4d45053191423e5aadffd11", "lon": -77.02893966666667, "rental_uris": {"ios": "https://dc.lft.to/lastmile_qr_scan", "android": "https://dc.lft.to/lastmile_qr_scan"}}, {"name": "fe9351864a346215095476bae15b8427", "fusion_lat": 0.0, "type": "electric_scooter", "lat": 38.92071, "is_reserved": 0, "is_disabled": 0, "fusion_lon": 0.0, "bike_id": "fe9351864a346215095476bae15b8427", "lon": -77.04377083333334, "rental_uris": {"ios": "https://dc.lft.to/lastmile_qr_scan", "android": "https://dc.lft.to/lastmile_qr_scan"}}, {"name": "ee724a92329efe216e2146338119f0f7", "fusion_lat": 0.0, "type": "electric_scooter", "lat": 38.933579, "is_reserved": 0, "is_disabled": 0, "fusion_lon": 0.0, "bike_id": "ee724a92329efe216e2146338119f0f7", "lon": -77.03726966666666, "rental_uris": {"ios": "https://dc.lft.to/lastmile_qr_scan", "android": "https://dc.lft.to/lastmile_qr_scan"}}, {"name": "9df55ba2feed9196ef7429e429418cb2", "fusion_lat": 0.0, "type": "electric_scooter", "lat": 38.91606083333333, "is_reserved": 0, "is_disabled": 0, "fusion_lon": 0.0, "bike_id": "9df55ba2feed9196ef7429e429418cb2", "lon": -77.044672, "rental_uris": {"ios": "https://dc.lft.to/lastmile_qr_scan", "android": "https://dc.lft.to/lastmile_qr_scan"}}, {"name": "caf993d17fe6fe9df84f07360c427566", "fusion_lat": 0.0, "type": "electric_scooter", "lat": 38.892273333333335, "is_reserved": 0, "is_disabled": 0, "fusion_lon": 0.0, "bike_id": "caf993d17fe6fe9df84f07360c427566", "lon": -77.02416533333333, "rental_uris": {"ios": "https://dc.lft.to/lastmile_qr_scan", "android": "https://dc.lft.to/lastmile_qr_scan"}}, {"name": "c752d0dcf7edde8371c3f674bea8fc1e", "fusion_lat": 0.0, "type": "electric_scooter", "lat": 38.91805033333333, "is_reserved": 0, "is_disabled": 0, "fusion_lon": 0.0, "bike_id": "c752d0dcf7edde8371c3f674bea8fc1e", "lon": -77.04002916666667, "rental_uris": {"ios": "https://dc.lft.to/lastmile_qr_scan", "android": "https://dc.lft.to/lastmile_qr_scan"}}, {"name": "21ffc57ca2b05bbcd7d00b28026d97b8", "fusion_lat": 0.0, "type": "electric_bike", "lat": 39.08900533333333, "is_reserved": 0, "is_disabled": 0, "fusion_lon": 0.0, "bike_id": "21ffc57ca2b05bbcd7d00b28026d97b8", "lon": -77.1784235, "rental_uris": {"ios": "https://dc.lft.to/lastmile_qr_scan", "android": "https://dc.lft.to/lastmile_qr_scan"}}, {"name": "1da63bb4580e95904229e4536b86138c", "fusion_lat": 0.0, "type": "electric_bike", "lat": 38.84611816666666, "is_reserved": 0, "is_disabled": 0, "fusion_lon": 0.0, "bike_id": "1da63bb4580e95904229e4536b86138c", "lon": -76.97828216666667, "rental_uris": {"ios": "https://dc.lft.to/lastmile_qr_scan", "android": "https://dc.lft.to/lastmile_qr_scan"}}, {"name": "fe15bead08c2a29ffda8e535fd859a2a", "fusion_lat": 0.0, "type": "electric_scooter", "lat": 38.8873355, "is_reserved": 0, "is_disabled": 0, "fusion_lon": 0.0, "bike_id": "fe15bead08c2a29ffda8e535fd859a2a", "lon": -77.01763933333334, "rental_uris": {"ios": "https://dc.lft.to/lastmile_qr_scan", "android": "https://dc.lft.to/lastmile_qr_scan"}}, {"name": "9122d60b65213091af61034f67b1f068", "fusion_lat": 0.0, "type": "electric_scooter", "lat": 38.907973166666665, "is_reserved": 0, "is_disabled": 0, "fusion_lon": 0.0, "bike_id": "9122d60b65213091af61034f67b1f068", "lon": -77.0382845, "rental_uris": {"ios": "https://dc.lft.to/lastmile_qr_scan", "android": "https://dc.lft.to/lastmile_qr_scan"}}, {"name": "333cb57aa9de339cdb7dbb748ed1b079", "fusion_lat": 0.0, "type": "electric_scooter", "lat": 38.9285, "is_reserved": 0, "is_disabled": 0, "fusion_lon": 0.0, "bike_id": "333cb57aa9de339cdb7dbb748ed1b079", "lon": -77.014187, "rental_uris": {"ios": "https://dc.lft.to/lastmile_qr_scan", "android": "https://dc.lft.to/lastmile_qr_scan"}}, {"name": "f0546d03af862fe154cc228043fad295", "fusion_lat": 0.0, "type": "electric_bike", "lat": 38.9535705, "is_reserved": 0, "is_disabled": 0, "fusion_lon": 0.0, "bike_id": "f0546d03af862fe154cc228043fad295", "lon": -76.98089, "rental_uris": {"ios": "https://dc.lft.to/lastmile_qr_scan", "android": "https://dc.lft.to/lastmile_qr_scan"}}, {"name": "614c9d6640367de43ddc3579f43d53e8", "fusion_lat": 0.0, "type": "electric_bike", "lat": 39.05815, "is_reserved": 0, "is_disabled": 0, "fusion_lon": 0.0, "bike_id": "614c9d6640367de43ddc3579f43d53e8", "lon": -77.12624033333333, "rental_uris": {"ios": "https://dc.lft.to/lastmile_qr_scan", "android": "https://dc.lft.to/lastmile_qr_scan"}}, {"name": "9f77fb2708ad55aaba995580a0fb10d7", "fusion_lat": 0.0, "type": "electric_scooter", "lat": 38.919333, "is_reserved": 0, "is_disabled": 0, "fusion_lon": 0.0, "bike_id": "9f77fb2708ad55aaba995580a0fb10d7", "lon": -77.03178416666667, "rental_uris": {"ios": "https://dc.lft.to/lastmile_qr_scan", "android": "https://dc.lft.to/lastmile_qr_scan"}}, {"name": "1b458761b2a17fe016bc275e78c8f28b", "fusion_lat": 0.0, "type": "electric_scooter", "lat": 38.9012765, "is_reserved": 0, "is_disabled": 0, "fusion_lon": 0.0, "bike_id": "1b458761b2a17fe016bc275e78c8f28b", "lon": -77.01805716666667, "rental_uris": {"ios": "https://dc.lft.to/lastmile_qr_scan", "android": "https://dc.lft.to/lastmile_qr_scan"}}, {"name": "78c6114fc03c76a908b3e3dc6183a4ed", "fusion_lat": 0.0, "type": "electric_scooter", "lat": 38.9057275, "is_reserved": 0, "is_disabled": 0, "fusion_lon": 0.0, "bike_id": "78c6114fc03c76a908b3e3dc6183a4ed", "lon": -77.00506316666667, "rental_uris": {"ios": "https://dc.lft.to/lastmile_qr_scan", "android": "https://dc.lft.to/lastmile_qr_scan"}}, {"name": "e7ce1c65c37a1eee9d6c61201e2c0595", "fusion_lat": 0.0, "type": "electric_scooter", "lat": 38.919902666666665, "is_reserved": 0, "is_disabled": 0, "fusion_lon": 0.0, "bike_id": "e7ce1c65c37a1eee9d6c61201e2c0595", "lon": -77.02381733333333, "rental_uris": {"ios": "https://dc.lft.to/lastmile_qr_scan", "android": "https://dc.lft.to/lastmile_qr_scan"}}, {"name": "8b3081fa98440797fb3e37783660ddf4", "fusion_lat": 0.0, "type": "electric_scooter", "lat": 38.88429516666667, "is_reserved": 0, "is_disabled": 0, "fusion_lon": 0.0, "bike_id": "8b3081fa98440797fb3e37783660ddf4", "lon": -77.03046133333334, "rental_uris": {"ios": "https://dc.lft.to/lastmile_qr_scan", "android": "https://dc.lft.to/lastmile_qr_scan"}}, {"name": "255cabc36c0648d3fc8184a2146c855a", "fusion_lat": 0.0, "type": "electric_scooter", "lat": 38.918092666666666, "is_reserved": 0, "is_disabled": 0, "fusion_lon": 0.0, "bike_id": "255cabc36c0648d3fc8184a2146c855a", "lon": -77.0343795, "rental_uris": {"ios": "https://dc.lft.to/lastmile_qr_scan", "android": "https://dc.lft.to/lastmile_qr_scan"}}, {"name": "5d55ad2da99ae0e5c2d2649eb86d93d1", "fusion_lat": 0.0, "type": "electric_scooter", "lat": 38.92209716666667, "is_reserved": 0, "is_disabled": 0, "fusion_lon": 0.0, "bike_id": "5d55ad2da99ae0e5c2d2649eb86d93d1", "lon": -77.04129633333334, "rental_uris": {"ios": "https://dc.lft.to/lastmile_qr_scan", "android": "https://dc.lft.to/lastmile_qr_scan"}}, {"name": "174a231e70a9e5470a91103fec26b821", "fusion_lat": 0.0, "type": "electric_bike", "lat": 38.82446783333333, "is_reserved": 0, "is_disabled": 0, "fusion_lon": 0.0, "bike_id": "174a231e70a9e5470a91103fec26b821", "lon": -77.0704865, "rental_uris": {"ios": "https://dc.lft.to/lastmile_qr_scan", "android": "https://dc.lft.to/lastmile_qr_scan"}}, {"name": "eb6915331e5895f865b267f84875c507", "fusion_lat": 0.0, "type": "electric_scooter", "lat": 38.9029625, "is_reserved": 0, "is_disabled": 0, "fusion_lon": 0.0, "bike_id": "eb6915331e5895f865b267f84875c507", "lon": -77.0581715, "rental_uris": {"ios": "https://dc.lft.to/lastmile_qr_scan", "android": "https://dc.lft.to/lastmile_qr_scan"}}, {"name": "3ae40d9400b65267a37b1c402bad1300", "fusion_lat": 0.0, "type": "electric_scooter", "lat": 38.90641383333333, "is_reserved": 0, "is_disabled": 0, "fusion_lon": 0.0, "bike_id": "3ae40d9400b65267a37b1c402bad1300", "lon": -76.9856865, "rental_uris": {"ios": "https://dc.lft.to/lastmile_qr_scan", "android": "https://dc.lft.to/lastmile_qr_scan"}}, {"name": "34422cdcced19eb54c4ae324524e0b42", "fusion_lat": 0.0, "type": "electric_scooter", "lat": 38.923121, "is_reserved": 0, "is_disabled": 0, "fusion_lon": 0.0, "bike_id": "34422cdcced19eb54c4ae324524e0b42", "lon": -77.02977266666667, "rental_uris": {"ios": "https://dc.lft.to/lastmile_qr_scan", "android": "https://dc.lft.to/lastmile_qr_scan"}}, {"name": "ce2334175c3f5d9c288a4205385792ef", "fusion_lat": 0.0, "type": "electric_scooter", "lat": 38.93190033333333, "is_reserved": 0, "is_disabled": 0, "fusion_lon": 0.0, "bike_id": "ce2334175c3f5d9c288a4205385792ef", "lon": -77.02579983333334, "rental_uris": {"ios": "https://dc.lft.to/lastmile_qr_scan", "android": "https://dc.lft.to/lastmile_qr_scan"}}, {"name": "2bfc00ab5eff4fa4919147764bc185f3", "fusion_lat": 0.0, "type": "electric_scooter", "lat": 38.8791665, "is_reserved": 0, "is_disabled": 0, "fusion_lon": 0.0, "bike_id": "2bfc00ab5eff4fa4919147764bc185f3", "lon": -77.02289766666667, "rental_uris": {"ios": "https://dc.lft.to/lastmile_qr_scan", "android": "https://dc.lft.to/lastmile_qr_scan"}}, {"name": "24fd2ba383b9456d3e183692bca50a7c", "fusion_lat": 0.0, "type": "electric_bike", "lat": 38.881319500000004, "is_reserved": 0, "is_disabled": 0, "fusion_lon": 0.0, "bike_id": "24fd2ba383b9456d3e183692bca50a7c", "lon": -76.98093883333334, "rental_uris": {"ios": "https://dc.lft.to/lastmile_qr_scan", "android": "https://dc.lft.to/lastmile_qr_scan"}}, {"name": "95180d3bd0accc5968696f2370a48b26", "fusion_lat": 0.0, "type": "electric_scooter", "lat": 38.91055866666667, "is_reserved": 0, "is_disabled": 0, "fusion_lon": 0.0, "bike_id": "95180d3bd0accc5968696f2370a48b26", "lon": -77.04352116666666, "rental_uris": {"ios": "https://dc.lft.to/lastmile_qr_scan", "android": "https://dc.lft.to/lastmile_qr_scan"}}, {"name": "5c6f2aabdd3d13d0cb05b168ca484553", "fusion_lat": 0.0, "type": "electric_scooter", "lat": 38.842944833333334, "is_reserved": 0, "is_disabled": 0, "fusion_lon": 0.0, "bike_id": "5c6f2aabdd3d13d0cb05b168ca484553", "lon": -76.99950766666667, "rental_uris": {"ios": "https://dc.lft.to/lastmile_qr_scan", "android": "https://dc.lft.to/lastmile_qr_scan"}}, {"name": "ec46aac7c48b9e6d8fee86f9f899fc37", "fusion_lat": 0.0, "type": "electric_scooter", "lat": 38.87664983333333, "is_reserved": 0, "is_disabled": 0, "fusion_lon": 0.0, "bike_id": "ec46aac7c48b9e6d8fee86f9f899fc37", "lon": -77.00067333333334, "rental_uris": {"ios": "https://dc.lft.to/lastmile_qr_scan", "android": "https://dc.lft.to/lastmile_qr_scan"}}, {"name": "589ffe657a764644ceb3325a94d243c2", "fusion_lat": 0.0, "type": "electric_scooter", "lat": 38.917658, "is_reserved": 0, "is_disabled": 0, "fusion_lon": 0.0, "bike_id": "589ffe657a764644ceb3325a94d243c2", "lon": -77.03186683333334, "rental_uris": {"ios": "https://dc.lft.to/lastmile_qr_scan", "android": "https://dc.lft.to/lastmile_qr_scan"}}, {"name": "6d7be6552a648f596d5875be78acd5ce", "fusion_lat": 0.0, "type": "electric_scooter", "lat": 38.892361333333334, "is_reserved": 0, "is_disabled": 0, "fusion_lon": 0.0, "bike_id": "6d7be6552a648f596d5875be78acd5ce", "lon": -77.04998483333334, "rental_uris": {"ios": "https://dc.lft.to/lastmile_qr_scan", "android": "https://dc.lft.to/lastmile_qr_scan"}}, {"name": "1162d42c813a2552a0a21508e40a02cf", "fusion_lat": 0.0, "type": "electric_scooter", "lat": 38.935425, "is_reserved": 0, "is_disabled": 0, "fusion_lon": 0.0, "bike_id": "1162d42c813a2552a0a21508e40a02cf", "lon": -77.03405766666667, "rental_uris": {"ios": "https://dc.lft.to/lastmile_qr_scan", "android": "https://dc.lft.to/lastmile_qr_scan"}}, {"name": "756903b6618716c5a00b5c8e3fcd5b29", "fusion_lat": 0.0, "type": "electric_scooter", "lat": 38.91261033333333, "is_reserved": 0, "is_disabled": 0, "fusion_lon": 0.0, "bike_id": "756903b6618716c5a00b5c8e3fcd5b29", "lon": -77.007743, "rental_uris": {"ios": "https://dc.lft.to/lastmile_qr_scan", "android": "https://dc.lft.to/lastmile_qr_scan"}}, {"name": "c98c7184d60af768c686f2c56e04baff", "fusion_lat": 0.0, "type": "electric_scooter", "lat": 38.895231833333334, "is_reserved": 0, "is_disabled": 0, "fusion_lon": 0.0, "bike_id": "c98c7184d60af768c686f2c56e04baff", "lon": -76.948887, "rental_uris": {"ios": "https://dc.lft.to/lastmile_qr_scan", "android": "https://dc.lft.to/lastmile_qr_scan"}}, {"name": "0656f3228d7207ae03b23b54d4fb8efe", "fusion_lat": 0.0, "type": "electric_bike", "lat": 38.81053216666667, "is_reserved": 0, "is_disabled": 0, "fusion_lon": 0.0, "bike_id": "0656f3228d7207ae03b23b54d4fb8efe", "lon": -77.0850775, "rental_uris": {"ios": "https://dc.lft.to/lastmile_qr_scan", "android": "https://dc.lft.to/lastmile_qr_scan"}}, {"name": "ebb403e72b9365f7f55dff38ed8f1b12", "fusion_lat": 0.0, "type": "electric_scooter", "lat": 38.9205195, "is_reserved": 0, "is_disabled": 0, "fusion_lon": 0.0, "bike_id": "ebb403e72b9365f7f55dff38ed8f1b12", "lon": -77.0245125, "rental_uris": {"ios": "https://dc.lft.to/lastmile_qr_scan", "android": "https://dc.lft.to/lastmile_qr_scan"}}, {"name": "6f30daa1a7c49f3e47fdda7a5cbbe173", "fusion_lat": 0.0, "type": "electric_scooter", "lat": 38.93929633333333, "is_reserved": 0, "is_disabled": 0, "fusion_lon": 0.0, "bike_id": "6f30daa1a7c49f3e47fdda7a5cbbe173", "lon": -77.036839, "rental_uris": {"ios": "https://dc.lft.to/lastmile_qr_scan", "android": "https://dc.lft.to/lastmile_qr_scan"}}, {"name": "6df0b0f4aad20a79b25900c53c0d337a", "fusion_lat": 0.0, "type": "electric_scooter", "lat": 38.921217666666664, "is_reserved": 0, "is_disabled": 0, "fusion_lon": 0.0, "bike_id": "6df0b0f4aad20a79b25900c53c0d337a", "lon": -77.013037, "rental_uris": {"ios": "https://dc.lft.to/lastmile_qr_scan", "android": "https://dc.lft.to/lastmile_qr_scan"}}, {"name": "230c904a053085dd40cd816eaf80b9cf", "fusion_lat": 0.0, "type": "electric_scooter", "lat": 38.900761333333335, "is_reserved": 0, "is_disabled": 0, "fusion_lon": 0.0, "bike_id": "230c904a053085dd40cd816eaf80b9cf", "lon": -77.051997, "rental_uris": {"ios": "https://dc.lft.to/lastmile_qr_scan", "android": "https://dc.lft.to/lastmile_qr_scan"}}, {"name": "edf6d4c09c694d93948f741a2abf9a6c", "fusion_lat": 0.0, "type": "electric_bike", "lat": 38.854275666666666, "is_reserved": 0, "is_disabled": 0, "fusion_lon": 0.0, "bike_id": "edf6d4c09c694d93948f741a2abf9a6c", "lon": -76.90967783333333, "rental_uris": {"ios": "https://dc.lft.to/lastmile_qr_scan", "android": "https://dc.lft.to/lastmile_qr_scan"}}, {"name": "1e8e30d32174a31ef261ca010cfa5395", "fusion_lat": 0.0, "type": "electric_scooter", "lat": 38.90671183333333, "is_reserved": 0, "is_disabled": 0, "fusion_lon": 0.0, "bike_id": "1e8e30d32174a31ef261ca010cfa5395", "lon": -77.02704733333333, "rental_uris": {"ios": "https://dc.lft.to/lastmile_qr_scan", "android": "https://dc.lft.to/lastmile_qr_scan"}}, {"name": "b4218d4cc9cf872c24bdb1762d28e7ff", "fusion_lat": 0.0, "type": "electric_scooter", "lat": 38.89575883333333, "is_reserved": 0, "is_disabled": 0, "fusion_lon": 0.0, "bike_id": "b4218d4cc9cf872c24bdb1762d28e7ff", "lon": -76.981801, "rental_uris": {"ios": "https://dc.lft.to/lastmile_qr_scan", "android": "https://dc.lft.to/lastmile_qr_scan"}}, {"name": "5039afed38c3a603e72bfccae72949f8", "fusion_lat": 0.0, "type": "electric_scooter", "lat": 38.937553333333334, "is_reserved": 0, "is_disabled": 0, "fusion_lon": 0.0, "bike_id": "5039afed38c3a603e72bfccae72949f8", "lon": -77.024883, "rental_uris": {"ios": "https://dc.lft.to/lastmile_qr_scan", "android": "https://dc.lft.to/lastmile_qr_scan"}}, {"name": "655d3480e999899b5a87bb0cf9dc76a9", "fusion_lat": 0.0, "type": "electric_scooter", "lat": 38.87479016666666, "is_reserved": 0, "is_disabled": 0, "fusion_lon": 0.0, "bike_id": "655d3480e999899b5a87bb0cf9dc76a9", "lon": -77.00188716666666, "rental_uris": {"ios": "https://dc.lft.to/lastmile_qr_scan", "android": "https://dc.lft.to/lastmile_qr_scan"}}, {"name": "7326afeba8aa4f954b9442a73a7f6474", "fusion_lat": 0.0, "type": "electric_bike", "lat": 38.973269, "is_reserved": 0, "is_disabled": 0, "fusion_lon": 0.0, "bike_id": "7326afeba8aa4f954b9442a73a7f6474", "lon": -77.02146383333333, "rental_uris": {"ios": "https://dc.lft.to/lastmile_qr_scan", "android": "https://dc.lft.to/lastmile_qr_scan"}}, {"name": "3c560f61d7d470e919fbc00eae174e22", "fusion_lat": 0.0, "type": "electric_bike", "lat": 38.83813133333334, "is_reserved": 0, "is_disabled": 0, "fusion_lon": 0.0, "bike_id": "3c560f61d7d470e919fbc00eae174e22", "lon": -77.09522966666667, "rental_uris": {"ios": "https://dc.lft.to/lastmile_qr_scan", "android": "https://dc.lft.to/lastmile_qr_scan"}}, {"name": "1819202a3109657e3c8c8e150b3ef019", "fusion_lat": 0.0, "type": "electric_scooter", "lat": 38.901413833333336, "is_reserved": 0, "is_disabled": 0, "fusion_lon": 0.0, "bike_id": "1819202a3109657e3c8c8e150b3ef019", "lon": -76.999706, "rental_uris": {"ios": "https://dc.lft.to/lastmile_qr_scan", "android": "https://dc.lft.to/lastmile_qr_scan"}}, {"name": "84cacc0832a05eaaf7a2b5c46379c052", "fusion_lat": 0.0, "type": "electric_bike", "lat": 38.9705315, "is_reserved": 0, "is_disabled": 0, "fusion_lon": 0.0, "bike_id": "84cacc0832a05eaaf7a2b5c46379c052", "lon": -76.9362115, "rental_uris": {"ios": "https://dc.lft.to/lastmile_qr_scan", "android": "https://dc.lft.to/lastmile_qr_scan"}}, {"name": "d675476369956ea666a9da34a1e32839", "fusion_lat": 0.0, "type": "electric_bike", "lat": 38.902892, "is_reserved": 0, "is_disabled": 0, "fusion_lon": 0.0, "bike_id": "d675476369956ea666a9da34a1e32839", "lon": -76.98082733333334, "rental_uris": {"ios": "https://dc.lft.to/lastmile_qr_scan", "android": "https://dc.lft.to/lastmile_qr_scan"}}, {"name": "e3ecf9319cffad33134d32ab32e27eb8", "fusion_lat": 0.0, "type": "electric_scooter", "lat": 38.9308225, "is_reserved": 0, "is_disabled": 0, "fusion_lon": 0.0, "bike_id": "e3ecf9319cffad33134d32ab32e27eb8", "lon": -77.02398916666667, "rental_uris": {"ios": "https://dc.lft.to/lastmile_qr_scan", "android": "https://dc.lft.to/lastmile_qr_scan"}}, {"name": "80c4adf5b38218ae73e694a043f29c97", "fusion_lat": 0.0, "type": "electric_scooter", "lat": 38.93428983333333, "is_reserved": 0, "is_disabled": 0, "fusion_lon": 0.0, "bike_id": "80c4adf5b38218ae73e694a043f29c97", "lon": -77.04004683333334, "rental_uris": {"ios": "https://dc.lft.to/lastmile_qr_scan", "android": "https://dc.lft.to/lastmile_qr_scan"}}, {"name": "8416b88cdca243542834ca7f4eaf7f10", "fusion_lat": 0.0, "type": "electric_scooter", "lat": 38.918237166666664, "is_reserved": 0, "is_disabled": 0, "fusion_lon": 0.0, "bike_id": "8416b88cdca243542834ca7f4eaf7f10", "lon": -77.04014016666666, "rental_uris": {"ios": "https://dc.lft.to/lastmile_qr_scan", "android": "https://dc.lft.to/lastmile_qr_scan"}}, {"name": "25eb24ad209a05644f2e9a401c9b5b84", "fusion_lat": 0.0, "type": "electric_scooter", "lat": 38.9179985, "is_reserved": 0, "is_disabled": 0, "fusion_lon": 0.0, "bike_id": "25eb24ad209a05644f2e9a401c9b5b84", "lon": -77.02818416666666, "rental_uris": {"ios": "https://dc.lft.to/lastmile_qr_scan", "android": "https://dc.lft.to/lastmile_qr_scan"}}, {"name": "da06e3537784946dca08ac50914c4426", "fusion_lat": 0.0, "type": "electric_scooter", "lat": 38.908588, "is_reserved": 0, "is_disabled": 0, "fusion_lon": 0.0, "bike_id": "da06e3537784946dca08ac50914c4426", "lon": -77.01102816666666, "rental_uris": {"ios": "https://dc.lft.to/lastmile_qr_scan", "android": "https://dc.lft.to/lastmile_qr_scan"}}, {"name": "13ea6fd174b90d55e32e670cd6b1ba60", "fusion_lat": 0.0, "type": "electric_scooter", "lat": 38.93543416666667, "is_reserved": 0, "is_disabled": 0, "fusion_lon": 0.0, "bike_id": "13ea6fd174b90d55e32e670cd6b1ba60", "lon": -77.0341485, "rental_uris": {"ios": "https://dc.lft.to/lastmile_qr_scan", "android": "https://dc.lft.to/lastmile_qr_scan"}}, {"name": "3ff792fa739e9c6252fc12664f683b5f", "fusion_lat": 0.0, "type": "electric_scooter", "lat": 38.9215575, "is_reserved": 0, "is_disabled": 0, "fusion_lon": 0.0, "bike_id": "3ff792fa739e9c6252fc12664f683b5f", "lon": -77.03386033333334, "rental_uris": {"ios": "https://dc.lft.to/lastmile_qr_scan", "android": "https://dc.lft.to/lastmile_qr_scan"}}, {"name": "e2caaa0d8b18937e12cf52c91fd02a12", "fusion_lat": 0.0, "type": "electric_scooter", "lat": 38.921359333333335, "is_reserved": 0, "is_disabled": 0, "fusion_lon": 0.0, "bike_id": "e2caaa0d8b18937e12cf52c91fd02a12", "lon": -77.0400455, "rental_uris": {"ios": "https://dc.lft.to/lastmile_qr_scan", "android": "https://dc.lft.to/lastmile_qr_scan"}}, {"name": "6641946f9672242255adc607c9924466", "fusion_lat": 0.0, "type": "electric_scooter", "lat": 38.90242666666666, "is_reserved": 0, "is_disabled": 0, "fusion_lon": 0.0, "bike_id": "6641946f9672242255adc607c9924466", "lon": -77.01942116666666, "rental_uris": {"ios": "https://dc.lft.to/lastmile_qr_scan", "android": "https://dc.lft.to/lastmile_qr_scan"}}, {"name": "dfd0396e80ffea6b6f69ce4fc37e074f", "fusion_lat": 0.0, "type": "electric_scooter", "lat": 38.90062666666667, "is_reserved": 0, "is_disabled": 0, "fusion_lon": 0.0, "bike_id": "dfd0396e80ffea6b6f69ce4fc37e074f", "lon": -77.01301766666667, "rental_uris": {"ios": "https://dc.lft.to/lastmile_qr_scan", "android": "https://dc.lft.to/lastmile_qr_scan"}}, {"name": "0e3474fa74f58f37b0018f74a92c1f51", "fusion_lat": 0.0, "type": "electric_scooter", "lat": 38.921633666666665, "is_reserved": 0, "is_disabled": 0, "fusion_lon": 0.0, "bike_id": "0e3474fa74f58f37b0018f74a92c1f51", "lon": -77.03375266666667, "rental_uris": {"ios": "https://dc.lft.to/lastmile_qr_scan", "android": "https://dc.lft.to/lastmile_qr_scan"}}, {"name": "7723b1d70fdbf546383cb010c88ede88", "fusion_lat": 0.0, "type": "electric_scooter", "lat": 38.900206833333336, "is_reserved": 0, "is_disabled": 0, "fusion_lon": 0.0, "bike_id": "7723b1d70fdbf546383cb010c88ede88", "lon": -77.00210333333334, "rental_uris": {"ios": "https://dc.lft.to/lastmile_qr_scan", "android": "https://dc.lft.to/lastmile_qr_scan"}}, {"name": "38f69bce2dfb12b9da653a4fd5456f40", "fusion_lat": 0.0, "type": "electric_scooter", "lat": 38.920403666666665, "is_reserved": 0, "is_disabled": 0, "fusion_lon": 0.0, "bike_id": "38f69bce2dfb12b9da653a4fd5456f40", "lon": -77.048097, "rental_uris": {"ios": "https://dc.lft.to/lastmile_qr_scan", "android": "https://dc.lft.to/lastmile_qr_scan"}}, {"name": "013473e72e6d7d9dc6fbb76a4c9fdb9d", "fusion_lat": 0.0, "type": "electric_scooter", "lat": 38.898542666666664, "is_reserved": 0, "is_disabled": 0, "fusion_lon": 0.0, "bike_id": "013473e72e6d7d9dc6fbb76a4c9fdb9d", "lon": -76.97651916666666, "rental_uris": {"ios": "https://dc.lft.to/lastmile_qr_scan", "android": "https://dc.lft.to/lastmile_qr_scan"}}, {"name": "35dde7d022388a661e1cc8d405352f51", "fusion_lat": 0.0, "type": "electric_scooter", "lat": 38.89730333333333, "is_reserved": 0, "is_disabled": 0, "fusion_lon": 0.0, "bike_id": "35dde7d022388a661e1cc8d405352f51", "lon": -77.02040366666667, "rental_uris": {"ios": "https://dc.lft.to/lastmile_qr_scan", "android": "https://dc.lft.to/lastmile_qr_scan"}}, {"name": "d5958db4b3a83fc62e1306ad4139df63", "fusion_lat": 0.0, "type": "electric_scooter", "lat": 38.95003333333333, "is_reserved": 0, "is_disabled": 0, "fusion_lon": 0.0, "bike_id": "d5958db4b3a83fc62e1306ad4139df63", "lon": -77.019506, "rental_uris": {"ios": "https://dc.lft.to/lastmile_qr_scan", "android": "https://dc.lft.to/lastmile_qr_scan"}}, {"name": "3c791312ef8b6a3505a2d64845f09c21", "fusion_lat": 0.0, "type": "electric_scooter", "lat": 38.92508133333333, "is_reserved": 0, "is_disabled": 0, "fusion_lon": 0.0, "bike_id": "3c791312ef8b6a3505a2d64845f09c21", "lon": -77.0235765, "rental_uris": {"ios": "https://dc.lft.to/lastmile_qr_scan", "android": "https://dc.lft.to/lastmile_qr_scan"}}, {"name": "a55f9dac608a9ad2cbacf268ec5e33a5", "fusion_lat": 0.0, "type": "electric_scooter", "lat": 38.90231216666667, "is_reserved": 0, "is_disabled": 0, "fusion_lon": 0.0, "bike_id": "a55f9dac608a9ad2cbacf268ec5e33a5", "lon": -77.0436495, "rental_uris": {"ios": "https://dc.lft.to/lastmile_qr_scan", "android": "https://dc.lft.to/lastmile_qr_scan"}}, {"name": "d95e975e454a8f1f56c75f9e96595f3c", "fusion_lat": 0.0, "type": "electric_scooter", "lat": 38.923667333333334, "is_reserved": 0, "is_disabled": 0, "fusion_lon": 0.0, "bike_id": "d95e975e454a8f1f56c75f9e96595f3c", "lon": -77.05127416666667, "rental_uris": {"ios": "https://dc.lft.to/lastmile_qr_scan", "android": "https://dc.lft.to/lastmile_qr_scan"}}, {"name": "a4be9314f9bac51a2cf0a7dc44549d24", "fusion_lat": 0.0, "type": "electric_scooter", "lat": 38.8607295, "is_reserved": 0, "is_disabled": 0, "fusion_lon": 0.0, "bike_id": "a4be9314f9bac51a2cf0a7dc44549d24", "lon": -76.96746833333333, "rental_uris": {"ios": "https://dc.lft.to/lastmile_qr_scan", "android": "https://dc.lft.to/lastmile_qr_scan"}}, {"name": "55c3de8788829ac8ef7d83d618b7b791", "fusion_lat": 0.0, "type": "electric_scooter", "lat": 38.91405016666667, "is_reserved": 0, "is_disabled": 0, "fusion_lon": 0.0, "bike_id": "55c3de8788829ac8ef7d83d618b7b791", "lon": -77.01323483333333, "rental_uris": {"ios": "https://dc.lft.to/lastmile_qr_scan", "android": "https://dc.lft.to/lastmile_qr_scan"}}, {"name": "033ee7bc88d0e3daf06baf891459608b", "fusion_lat": 0.0, "type": "electric_scooter", "lat": 38.922082, "is_reserved": 0, "is_disabled": 0, "fusion_lon": 0.0, "bike_id": "033ee7bc88d0e3daf06baf891459608b", "lon": -77.043176, "rental_uris": {"ios": "https://dc.lft.to/lastmile_qr_scan", "android": "https://dc.lft.to/lastmile_qr_scan"}}, {"name": "2c719a9a565d4aa613d37508bf36dd03", "fusion_lat": 0.0, "type": "electric_scooter", "lat": 38.91707066666667, "is_reserved": 0, "is_disabled": 0, "fusion_lon": 0.0, "bike_id": "2c719a9a565d4aa613d37508bf36dd03", "lon": -77.0314085, "rental_uris": {"ios": "https://dc.lft.to/lastmile_qr_scan", "android": "https://dc.lft.to/lastmile_qr_scan"}}, {"name": "8f5aa579688a141de56bdd0e2e458123", "fusion_lat": 0.0, "type": "electric_scooter", "lat": 38.932517833333335, "is_reserved": 0, "is_disabled": 0, "fusion_lon": 0.0, "bike_id": "8f5aa579688a141de56bdd0e2e458123", "lon": -77.02022216666667, "rental_uris": {"ios": "https://dc.lft.to/lastmile_qr_scan", "android": "https://dc.lft.to/lastmile_qr_scan"}}, {"name": "70dfb8217a74a4c9192fc10272cfb7e3", "fusion_lat": 0.0, "type": "electric_scooter", "lat": 38.886009333333334, "is_reserved": 0, "is_disabled": 0, "fusion_lon": 0.0, "bike_id": "70dfb8217a74a4c9192fc10272cfb7e3", "lon": -77.02199366666666, "rental_uris": {"ios": "https://dc.lft.to/lastmile_qr_scan", "android": "https://dc.lft.to/lastmile_qr_scan"}}, {"name": "d0ea459bdd93cc99fe4a6eac523e3617", "fusion_lat": 0.0, "type": "electric_scooter", "lat": 38.93455083333333, "is_reserved": 0, "is_disabled": 0, "fusion_lon": 0.0, "bike_id": "d0ea459bdd93cc99fe4a6eac523e3617", "lon": -77.02916816666666, "rental_uris": {"ios": "https://dc.lft.to/lastmile_qr_scan", "android": "https://dc.lft.to/lastmile_qr_scan"}}, {"name": "9c9021d11f2edae97987a6e717598790", "fusion_lat": 0.0, "type": "electric_scooter", "lat": 38.9038615, "is_reserved": 0, "is_disabled": 0, "fusion_lon": 0.0, "bike_id": "9c9021d11f2edae97987a6e717598790", "lon": -77.04901316666667, "rental_uris": {"ios": "https://dc.lft.to/lastmile_qr_scan", "android": "https://dc.lft.to/lastmile_qr_scan"}}, {"name": "a2cf6d54648dde5da2d1272f37d4aa19", "fusion_lat": 0.0, "type": "electric_scooter", "lat": 38.916789, "is_reserved": 0, "is_disabled": 0, "fusion_lon": 0.0, "bike_id": "a2cf6d54648dde5da2d1272f37d4aa19", "lon": -77.02948266666667, "rental_uris": {"ios": "https://dc.lft.to/lastmile_qr_scan", "android": "https://dc.lft.to/lastmile_qr_scan"}}, {"name": "f9cf8ea587ad0797f7ab90983375ef44", "fusion_lat": 0.0, "type": "electric_scooter", "lat": 38.9456345, "is_reserved": 0, "is_disabled": 0, "fusion_lon": 0.0, "bike_id": "f9cf8ea587ad0797f7ab90983375ef44", "lon": -77.077703, "rental_uris": {"ios": "https://dc.lft.to/lastmile_qr_scan", "android": "https://dc.lft.to/lastmile_qr_scan"}}, {"name": "2a74de2d92a1d645ec379aaa6c8358c7", "fusion_lat": 0.0, "type": "electric_scooter", "lat": 38.901449666666664, "is_reserved": 0, "is_disabled": 0, "fusion_lon": 0.0, "bike_id": "2a74de2d92a1d645ec379aaa6c8358c7", "lon": -76.9894625, "rental_uris": {"ios": "https://dc.lft.to/lastmile_qr_scan", "android": "https://dc.lft.to/lastmile_qr_scan"}}, {"name": "10747af897ffa04b62bab6f76983b17d", "fusion_lat": 0.0, "type": "electric_scooter", "lat": 38.89223283333333, "is_reserved": 0, "is_disabled": 0, "fusion_lon": 0.0, "bike_id": "10747af897ffa04b62bab6f76983b17d", "lon": -77.05009966666667, "rental_uris": {"ios": "https://dc.lft.to/lastmile_qr_scan", "android": "https://dc.lft.to/lastmile_qr_scan"}}, {"name": "72bea63c0cbd6e2b019de343e161a143", "fusion_lat": 0.0, "type": "electric_scooter", "lat": 38.90642316666667, "is_reserved": 0, "is_disabled": 0, "fusion_lon": 0.0, "bike_id": "72bea63c0cbd6e2b019de343e161a143", "lon": -77.04140366666667, "rental_uris": {"ios": "https://dc.lft.to/lastmile_qr_scan", "android": "https://dc.lft.to/lastmile_qr_scan"}}, {"name": "64cb9a275a09b0add6c5a5f7fcdd54f5", "fusion_lat": 0.0, "type": "electric_scooter", "lat": 38.87753816666667, "is_reserved": 0, "is_disabled": 0, "fusion_lon": 0.0, "bike_id": "64cb9a275a09b0add6c5a5f7fcdd54f5", "lon": -77.01979916666667, "rental_uris": {"ios": "https://dc.lft.to/lastmile_qr_scan", "android": "https://dc.lft.to/lastmile_qr_scan"}}, {"name": "e1ecf80cbac1b7757c2cd28403aefd98", "fusion_lat": 0.0, "type": "electric_scooter", "lat": 38.913937833333335, "is_reserved": 0, "is_disabled": 0, "fusion_lon": 0.0, "bike_id": "e1ecf80cbac1b7757c2cd28403aefd98", "lon": -77.04170883333333, "rental_uris": {"ios": "https://dc.lft.to/lastmile_qr_scan", "android": "https://dc.lft.to/lastmile_qr_scan"}}, {"name": "e2387f0b454234d69afad445f1d1751a", "fusion_lat": 0.0, "type": "electric_bike", "lat": 38.842736, "is_reserved": 0, "is_disabled": 0, "fusion_lon": 0.0, "bike_id": "e2387f0b454234d69afad445f1d1751a", "lon": -76.98843983333333, "rental_uris": {"ios": "https://dc.lft.to/lastmile_qr_scan", "android": "https://dc.lft.to/lastmile_qr_scan"}}, {"name": "5a1bb6d859dbfcf4a64a35cf0a845cce", "fusion_lat": 0.0, "type": "electric_scooter", "lat": 38.90277966666667, "is_reserved": 0, "is_disabled": 0, "fusion_lon": 0.0, "bike_id": "5a1bb6d859dbfcf4a64a35cf0a845cce", "lon": -77.06284016666666, "rental_uris": {"ios": "https://dc.lft.to/lastmile_qr_scan", "android": "https://dc.lft.to/lastmile_qr_scan"}}, {"name": "caa6fc59eadd45ad0161acb785636399", "fusion_lat": 0.0, "type": "electric_scooter", "lat": 38.906125, "is_reserved": 0, "is_disabled": 0, "fusion_lon": 0.0, "bike_id": "caa6fc59eadd45ad0161acb785636399", "lon": -77.00718583333334, "rental_uris": {"ios": "https://dc.lft.to/lastmile_qr_scan", "android": "https://dc.lft.to/lastmile_qr_scan"}}, {"name": "614f2289a4aa52fd96acf731004dd6a9", "fusion_lat": 0.0, "type": "electric_scooter", "lat": 38.91692716666667, "is_reserved": 0, "is_disabled": 0, "fusion_lon": 0.0, "bike_id": "614f2289a4aa52fd96acf731004dd6a9", "lon": -77.01259, "rental_uris": {"ios": "https://dc.lft.to/lastmile_qr_scan", "android": "https://dc.lft.to/lastmile_qr_scan"}}, {"name": "efdecc7c1b195c56eba5967d7b2de7b7", "fusion_lat": 0.0, "type": "electric_scooter", "lat": 38.87909533333333, "is_reserved": 0, "is_disabled": 0, "fusion_lon": 0.0, "bike_id": "efdecc7c1b195c56eba5967d7b2de7b7", "lon": -77.00575716666667, "rental_uris": {"ios": "https://dc.lft.to/lastmile_qr_scan", "android": "https://dc.lft.to/lastmile_qr_scan"}}, {"name": "285a8bbf3ebd0c9007c3ec817913a65b", "fusion_lat": 0.0, "type": "electric_scooter", "lat": 38.91420566666667, "is_reserved": 0, "is_disabled": 0, "fusion_lon": 0.0, "bike_id": "285a8bbf3ebd0c9007c3ec817913a65b", "lon": -77.022046, "rental_uris": {"ios": "https://dc.lft.to/lastmile_qr_scan", "android": "https://dc.lft.to/lastmile_qr_scan"}}, {"name": "e324f5e5804e02fb4ec5daddee0c01b1", "fusion_lat": 0.0, "type": "electric_bike", "lat": 38.990638, "is_reserved": 0, "is_disabled": 0, "fusion_lon": 0.0, "bike_id": "e324f5e5804e02fb4ec5daddee0c01b1", "lon": -77.10031533333333, "rental_uris": {"ios": "https://dc.lft.to/lastmile_qr_scan", "android": "https://dc.lft.to/lastmile_qr_scan"}}, {"name": "5ef30325551d7e19d8000d79609d31e0", "fusion_lat": 0.0, "type": "electric_scooter", "lat": 38.85160183333333, "is_reserved": 0, "is_disabled": 0, "fusion_lon": 0.0, "bike_id": "5ef30325551d7e19d8000d79609d31e0", "lon": -76.98799733333334, "rental_uris": {"ios": "https://dc.lft.to/lastmile_qr_scan", "android": "https://dc.lft.to/lastmile_qr_scan"}}, {"name": "04bb43108b2d69ab379b2f70195cec4a", "fusion_lat": 0.0, "type": "electric_scooter", "lat": 38.846877666666664, "is_reserved": 0, "is_disabled": 0, "fusion_lon": 0.0, "bike_id": "04bb43108b2d69ab379b2f70195cec4a", "lon": -76.99204566666667, "rental_uris": {"ios": "https://dc.lft.to/lastmile_qr_scan", "android": "https://dc.lft.to/lastmile_qr_scan"}}, {"name": "c60ec8e9c3b010f731e497a6ffe49604", "fusion_lat": 0.0, "type": "electric_scooter", "lat": 38.858072, "is_reserved": 0, "is_disabled": 0, "fusion_lon": 0.0, "bike_id": "c60ec8e9c3b010f731e497a6ffe49604", "lon": -76.98656266666667, "rental_uris": {"ios": "https://dc.lft.to/lastmile_qr_scan", "android": "https://dc.lft.to/lastmile_qr_scan"}}, {"name": "40422c2235110cb93a74bd81482a7bf6", "fusion_lat": 0.0, "type": "electric_scooter", "lat": 38.938091666666665, "is_reserved": 0, "is_disabled": 0, "fusion_lon": 0.0, "bike_id": "40422c2235110cb93a74bd81482a7bf6", "lon": -77.02473483333333, "rental_uris": {"ios": "https://dc.lft.to/lastmile_qr_scan", "android": "https://dc.lft.to/lastmile_qr_scan"}}, {"name": "193c71ffc0e3bf46ca3ddb55143b1fea", "fusion_lat": 0.0, "type": "electric_scooter", "lat": 38.857166666666664, "is_reserved": 0, "is_disabled": 0, "fusion_lon": 0.0, "bike_id": "193c71ffc0e3bf46ca3ddb55143b1fea", "lon": -76.980912, "rental_uris": {"ios": "https://dc.lft.to/lastmile_qr_scan", "android": "https://dc.lft.to/lastmile_qr_scan"}}, {"name": "a8975bb1833108c5c5f7fe7dcf0289d1", "fusion_lat": 0.0, "type": "electric_scooter", "lat": 38.936694833333334, "is_reserved": 0, "is_disabled": 0, "fusion_lon": 0.0, "bike_id": "a8975bb1833108c5c5f7fe7dcf0289d1", "lon": -77.03637283333333, "rental_uris": {"ios": "https://dc.lft.to/lastmile_qr_scan", "android": "https://dc.lft.to/lastmile_qr_scan"}}, {"name": "b1decb218780f100fd62d302dc3fc300", "fusion_lat": 0.0, "type": "electric_scooter", "lat": 38.90802, "is_reserved": 0, "is_disabled": 0, "fusion_lon": 0.0, "bike_id": "b1decb218780f100fd62d302dc3fc300", "lon": -77.042015, "rental_uris": {"ios": "https://dc.lft.to/lastmile_qr_scan", "android": "https://dc.lft.to/lastmile_qr_scan"}}, {"name": "a3d6a7e361cba6ff11062d4dffec1395", "fusion_lat": 0.0, "type": "electric_scooter", "lat": 38.900364833333335, "is_reserved": 0, "is_disabled": 0, "fusion_lon": 0.0, "bike_id": "a3d6a7e361cba6ff11062d4dffec1395", "lon": -77.02391066666667, "rental_uris": {"ios": "https://dc.lft.to/lastmile_qr_scan", "android": "https://dc.lft.to/lastmile_qr_scan"}}, {"name": "7320a344553d0cbad8b487999f70cb70", "fusion_lat": 0.0, "type": "electric_scooter", "lat": 38.8832875, "is_reserved": 0, "is_disabled": 0, "fusion_lon": 0.0, "bike_id": "7320a344553d0cbad8b487999f70cb70", "lon": -77.01638933333334, "rental_uris": {"ios": "https://dc.lft.to/lastmile_qr_scan", "android": "https://dc.lft.to/lastmile_qr_scan"}}, {"name": "28c7e9d7085e1b5b35149812e3b77d27", "fusion_lat": 0.0, "type": "electric_bike", "lat": 38.88157183333333, "is_reserved": 0, "is_disabled": 0, "fusion_lon": 0.0, "bike_id": "28c7e9d7085e1b5b35149812e3b77d27", "lon": -77.02749583333333, "rental_uris": {"ios": "https://dc.lft.to/lastmile_qr_scan", "android": "https://dc.lft.to/lastmile_qr_scan"}}, {"name": "235959c0241072034ff5c1e3e0b4fc9c", "fusion_lat": 0.0, "type": "electric_scooter", "lat": 38.89850716666667, "is_reserved": 0, "is_disabled": 0, "fusion_lon": 0.0, "bike_id": "235959c0241072034ff5c1e3e0b4fc9c", "lon": -76.976606, "rental_uris": {"ios": "https://dc.lft.to/lastmile_qr_scan", "android": "https://dc.lft.to/lastmile_qr_scan"}}, {"name": "5cd2741f65d02af137143ac97daa5097", "fusion_lat": 0.0, "type": "electric_scooter", "lat": 38.920189, "is_reserved": 0, "is_disabled": 0, "fusion_lon": 0.0, "bike_id": "5cd2741f65d02af137143ac97daa5097", "lon": -77.03175683333333, "rental_uris": {"ios": "https://dc.lft.to/lastmile_qr_scan", "android": "https://dc.lft.to/lastmile_qr_scan"}}, {"name": "c4ab8b41493ae6c3169a36e84ada8f10", "fusion_lat": 0.0, "type": "electric_scooter", "lat": 38.90589883333333, "is_reserved": 0, "is_disabled": 0, "fusion_lon": 0.0, "bike_id": "c4ab8b41493ae6c3169a36e84ada8f10", "lon": -77.01606783333334, "rental_uris": {"ios": "https://dc.lft.to/lastmile_qr_scan", "android": "https://dc.lft.to/lastmile_qr_scan"}}, {"name": "010d78a52436d24143fa3cea0b7ef0b6", "fusion_lat": 0.0, "type": "electric_scooter", "lat": 38.8850125, "is_reserved": 0, "is_disabled": 0, "fusion_lon": 0.0, "bike_id": "010d78a52436d24143fa3cea0b7ef0b6", "lon": -77.0158585, "rental_uris": {"ios": "https://dc.lft.to/lastmile_qr_scan", "android": "https://dc.lft.to/lastmile_qr_scan"}}, {"name": "f08a896bbb92970e5dfce3c5cc1af5b6", "fusion_lat": 0.0, "type": "electric_scooter", "lat": 38.93271566666667, "is_reserved": 0, "is_disabled": 0, "fusion_lon": 0.0, "bike_id": "f08a896bbb92970e5dfce3c5cc1af5b6", "lon": -77.038937, "rental_uris": {"ios": "https://dc.lft.to/lastmile_qr_scan", "android": "https://dc.lft.to/lastmile_qr_scan"}}, {"name": "1d8e1bfa1e4b9afa4154382a003d5cb1", "fusion_lat": 0.0, "type": "electric_scooter", "lat": 38.916964666666665, "is_reserved": 0, "is_disabled": 0, "fusion_lon": 0.0, "bike_id": "1d8e1bfa1e4b9afa4154382a003d5cb1", "lon": -77.030791, "rental_uris": {"ios": "https://dc.lft.to/lastmile_qr_scan", "android": "https://dc.lft.to/lastmile_qr_scan"}}, {"name": "0db1f6e75afc2fd7906c384e18d9ddfc", "fusion_lat": 0.0, "type": "electric_scooter", "lat": 38.91900166666667, "is_reserved": 0, "is_disabled": 0, "fusion_lon": 0.0, "bike_id": "0db1f6e75afc2fd7906c384e18d9ddfc", "lon": -77.0004655, "rental_uris": {"ios": "https://dc.lft.to/lastmile_qr_scan", "android": "https://dc.lft.to/lastmile_qr_scan"}}, {"name": "f81637ba1363cb05a2d71179a4a3e0c2", "fusion_lat": 0.0, "type": "electric_scooter", "lat": 38.90034416666667, "is_reserved": 0, "is_disabled": 0, "fusion_lon": 0.0, "bike_id": "f81637ba1363cb05a2d71179a4a3e0c2", "lon": -77.00206, "rental_uris": {"ios": "https://dc.lft.to/lastmile_qr_scan", "android": "https://dc.lft.to/lastmile_qr_scan"}}, {"name": "fa9650f316333a386d20c977c73010b2", "fusion_lat": 0.0, "type": "electric_scooter", "lat": 38.86661183333333, "is_reserved": 0, "is_disabled": 0, "fusion_lon": 0.0, "bike_id": "fa9650f316333a386d20c977c73010b2", "lon": -76.98883566666666, "rental_uris": {"ios": "https://dc.lft.to/lastmile_qr_scan", "android": "https://dc.lft.to/lastmile_qr_scan"}}, {"name": "9928ff4d70fd49a89fc12f1bb4380884", "fusion_lat": 0.0, "type": "electric_scooter", "lat": 38.91727866666667, "is_reserved": 0, "is_disabled": 0, "fusion_lon": 0.0, "bike_id": "9928ff4d70fd49a89fc12f1bb4380884", "lon": -77.02351416666667, "rental_uris": {"ios": "https://dc.lft.to/lastmile_qr_scan", "android": "https://dc.lft.to/lastmile_qr_scan"}}, {"name": "b0a01d794e0fc7dc413aaa94c176fa64", "fusion_lat": 0.0, "type": "electric_scooter", "lat": 38.924339, "is_reserved": 0, "is_disabled": 0, "fusion_lon": 0.0, "bike_id": "b0a01d794e0fc7dc413aaa94c176fa64", "lon": -77.0424765, "rental_uris": {"ios": "https://dc.lft.to/lastmile_qr_scan", "android": "https://dc.lft.to/lastmile_qr_scan"}}, {"name": "d2c81283aa9e3744300144a8f780f683", "fusion_lat": 0.0, "type": "electric_scooter", "lat": 38.924336, "is_reserved": 0, "is_disabled": 0, "fusion_lon": 0.0, "bike_id": "d2c81283aa9e3744300144a8f780f683", "lon": -77.042198, "rental_uris": {"ios": "https://dc.lft.to/lastmile_qr_scan", "android": "https://dc.lft.to/lastmile_qr_scan"}}, {"name": "f5b56ba9a61665c54c524491a3fbb863", "fusion_lat": 0.0, "type": "electric_bike", "lat": 38.91180383333333, "is_reserved": 0, "is_disabled": 0, "fusion_lon": 0.0, "bike_id": "f5b56ba9a61665c54c524491a3fbb863", "lon": -77.011504, "rental_uris": {"ios": "https://dc.lft.to/lastmile_qr_scan", "android": "https://dc.lft.to/lastmile_qr_scan"}}, {"name": "c25d423a12c460536a756eb011f6d588", "fusion_lat": 0.0, "type": "electric_scooter", "lat": 38.92901783333333, "is_reserved": 0, "is_disabled": 0, "fusion_lon": 0.0, "bike_id": "c25d423a12c460536a756eb011f6d588", "lon": -77.00517583333334, "rental_uris": {"ios": "https://dc.lft.to/lastmile_qr_scan", "android": "https://dc.lft.to/lastmile_qr_scan"}}, {"name": "b381477bdac82cd0e4d07e28d5cd0d54", "fusion_lat": 0.0, "type": "electric_scooter", "lat": 38.9192465, "is_reserved": 0, "is_disabled": 0, "fusion_lon": 0.0, "bike_id": "b381477bdac82cd0e4d07e28d5cd0d54", "lon": -77.0250885, "rental_uris": {"ios": "https://dc.lft.to/lastmile_qr_scan", "android": "https://dc.lft.to/lastmile_qr_scan"}}, {"name": "3910e545d42548859de5bc06e0b628be", "fusion_lat": 0.0, "type": "electric_scooter", "lat": 38.9350955, "is_reserved": 0, "is_disabled": 0, "fusion_lon": 0.0, "bike_id": "3910e545d42548859de5bc06e0b628be", "lon": -77.03297866666666, "rental_uris": {"ios": "https://dc.lft.to/lastmile_qr_scan", "android": "https://dc.lft.to/lastmile_qr_scan"}}, {"name": "0c717796e2c9e719cb964afc74237fe5", "fusion_lat": 0.0, "type": "electric_scooter", "lat": 38.911967833333335, "is_reserved": 0, "is_disabled": 0, "fusion_lon": 0.0, "bike_id": "0c717796e2c9e719cb964afc74237fe5", "lon": -77.03447066666666, "rental_uris": {"ios": "https://dc.lft.to/lastmile_qr_scan", "android": "https://dc.lft.to/lastmile_qr_scan"}}, {"name": "18aabdbb67a329358500c64ae083c8dd", "fusion_lat": 0.0, "type": "electric_scooter", "lat": 38.915428166666665, "is_reserved": 0, "is_disabled": 0, "fusion_lon": 0.0, "bike_id": "18aabdbb67a329358500c64ae083c8dd", "lon": -77.0385385, "rental_uris": {"ios": "https://dc.lft.to/lastmile_qr_scan", "android": "https://dc.lft.to/lastmile_qr_scan"}}, {"name": "166d2ea1cf508c5a0565b1cc92874329", "fusion_lat": 0.0, "type": "electric_scooter", "lat": 38.90259783333333, "is_reserved": 0, "is_disabled": 0, "fusion_lon": 0.0, "bike_id": "166d2ea1cf508c5a0565b1cc92874329", "lon": -77.02997416666666, "rental_uris": {"ios": "https://dc.lft.to/lastmile_qr_scan", "android": "https://dc.lft.to/lastmile_qr_scan"}}, {"name": "dbb33a4ddb5b6f7dd9575188d581be0a", "fusion_lat": 0.0, "type": "electric_scooter", "lat": 38.90029833333333, "is_reserved": 0, "is_disabled": 0, "fusion_lon": 0.0, "bike_id": "dbb33a4ddb5b6f7dd9575188d581be0a", "lon": -77.01186033333333, "rental_uris": {"ios": "https://dc.lft.to/lastmile_qr_scan", "android": "https://dc.lft.to/lastmile_qr_scan"}}, {"name": "c7ea98eab02ccbf5b5987f4fc3e45d5a", "fusion_lat": 0.0, "type": "electric_scooter", "lat": 38.91820716666667, "is_reserved": 0, "is_disabled": 0, "fusion_lon": 0.0, "bike_id": "c7ea98eab02ccbf5b5987f4fc3e45d5a", "lon": -77.03564816666666, "rental_uris": {"ios": "https://dc.lft.to/lastmile_qr_scan", "android": "https://dc.lft.to/lastmile_qr_scan"}}, {"name": "08568715cd7b65d20e0f7268de56442e", "fusion_lat": 0.0, "type": "electric_scooter", "lat": 38.86538633333333, "is_reserved": 0, "is_disabled": 0, "fusion_lon": 0.0, "bike_id": "08568715cd7b65d20e0f7268de56442e", "lon": -76.98710466666667, "rental_uris": {"ios": "https://dc.lft.to/lastmile_qr_scan", "android": "https://dc.lft.to/lastmile_qr_scan"}}, {"name": "95cd5f85ac8e6a9d75971d1d9a3a895a", "fusion_lat": 0.0, "type": "electric_scooter", "lat": 38.9202245, "is_reserved": 0, "is_disabled": 0, "fusion_lon": 0.0, "bike_id": "95cd5f85ac8e6a9d75971d1d9a3a895a", "lon": -77.03177916666667, "rental_uris": {"ios": "https://dc.lft.to/lastmile_qr_scan", "android": "https://dc.lft.to/lastmile_qr_scan"}}, {"name": "0c5c2e685b6f53d1369cf0563924e763", "fusion_lat": 0.0, "type": "electric_scooter", "lat": 38.900328, "is_reserved": 0, "is_disabled": 0, "fusion_lon": 0.0, "bike_id": "0c5c2e685b6f53d1369cf0563924e763", "lon": -76.99855283333333, "rental_uris": {"ios": "https://dc.lft.to/lastmile_qr_scan", "android": "https://dc.lft.to/lastmile_qr_scan"}}, {"name": "a5f1f08d0e149c373c867eb87521dd24", "fusion_lat": 0.0, "type": "electric_scooter", "lat": 38.92134733333333, "is_reserved": 0, "is_disabled": 0, "fusion_lon": 0.0, "bike_id": "a5f1f08d0e149c373c867eb87521dd24", "lon": -77.04555433333333, "rental_uris": {"ios": "https://dc.lft.to/lastmile_qr_scan", "android": "https://dc.lft.to/lastmile_qr_scan"}}, {"name": "1bd53f955f1a667df57a1d1b7af6785b", "fusion_lat": 0.0, "type": "electric_scooter", "lat": 38.882209, "is_reserved": 0, "is_disabled": 0, "fusion_lon": 0.0, "bike_id": "1bd53f955f1a667df57a1d1b7af6785b", "lon": -76.94176916666666, "rental_uris": {"ios": "https://dc.lft.to/lastmile_qr_scan", "android": "https://dc.lft.to/lastmile_qr_scan"}}, {"name": "6e11d28fb13b067f0f5603fbbabf0962", "fusion_lat": 0.0, "type": "electric_scooter", "lat": 38.920108666666664, "is_reserved": 0, "is_disabled": 0, "fusion_lon": 0.0, "bike_id": "6e11d28fb13b067f0f5603fbbabf0962", "lon": -77.03183333333334, "rental_uris": {"ios": "https://dc.lft.to/lastmile_qr_scan", "android": "https://dc.lft.to/lastmile_qr_scan"}}, {"name": "3d6fefd7db92ae034fc64a0ee5d4ebc5", "fusion_lat": 0.0, "type": "electric_scooter", "lat": 38.921041333333335, "is_reserved": 0, "is_disabled": 0, "fusion_lon": 0.0, "bike_id": "3d6fefd7db92ae034fc64a0ee5d4ebc5", "lon": -77.05474266666667, "rental_uris": {"ios": "https://dc.lft.to/lastmile_qr_scan", "android": "https://dc.lft.to/lastmile_qr_scan"}}, {"name": "9d308e9d38a88dc5dd1f828efc21e6e3", "fusion_lat": 0.0, "type": "electric_scooter", "lat": 38.905618833333335, "is_reserved": 0, "is_disabled": 0, "fusion_lon": 0.0, "bike_id": "9d308e9d38a88dc5dd1f828efc21e6e3", "lon": -77.02215166666667, "rental_uris": {"ios": "https://dc.lft.to/lastmile_qr_scan", "android": "https://dc.lft.to/lastmile_qr_scan"}}, {"name": "2d2d885d42ba1f7eccfca860501bb4eb", "fusion_lat": 0.0, "type": "electric_scooter", "lat": 38.87356533333333, "is_reserved": 0, "is_disabled": 0, "fusion_lon": 0.0, "bike_id": "2d2d885d42ba1f7eccfca860501bb4eb", "lon": -77.00090133333333, "rental_uris": {"ios": "https://dc.lft.to/lastmile_qr_scan", "android": "https://dc.lft.to/lastmile_qr_scan"}}, {"name": "af00d0c6bed3916747e40195dedd9387", "fusion_lat": 0.0, "type": "electric_scooter", "lat": 38.90052683333333, "is_reserved": 0, "is_disabled": 0, "fusion_lon": 0.0, "bike_id": "af00d0c6bed3916747e40195dedd9387", "lon": -76.99137883333333, "rental_uris": {"ios": "https://dc.lft.to/lastmile_qr_scan", "android": "https://dc.lft.to/lastmile_qr_scan"}}, {"name": "c54bd6f10686da617755387b24c14332", "fusion_lat": 0.0, "type": "electric_scooter", "lat": 38.923760333333334, "is_reserved": 0, "is_disabled": 0, "fusion_lon": 0.0, "bike_id": "c54bd6f10686da617755387b24c14332", "lon": -77.04101966666667, "rental_uris": {"ios": "https://dc.lft.to/lastmile_qr_scan", "android": "https://dc.lft.to/lastmile_qr_scan"}}, {"name": "2b3fec22700761056d7f1274627de6fc", "fusion_lat": 0.0, "type": "electric_scooter", "lat": 38.918374166666666, "is_reserved": 0, "is_disabled": 0, "fusion_lon": 0.0, "bike_id": "2b3fec22700761056d7f1274627de6fc", "lon": -77.02310983333334, "rental_uris": {"ios": "https://dc.lft.to/lastmile_qr_scan", "android": "https://dc.lft.to/lastmile_qr_scan"}}, {"name": "bd74b1f1fb077d00f6d68b48ecea2653", "fusion_lat": 0.0, "type": "electric_scooter", "lat": 38.86267483333334, "is_reserved": 0, "is_disabled": 0, "fusion_lon": 0.0, "bike_id": "bd74b1f1fb077d00f6d68b48ecea2653", "lon": -76.98707366666666, "rental_uris": {"ios": "https://dc.lft.to/lastmile_qr_scan", "android": "https://dc.lft.to/lastmile_qr_scan"}}, {"name": "b99d16544d748bf1cbdff96d6a0b932b", "fusion_lat": 0.0, "type": "electric_scooter", "lat": 38.889861, "is_reserved": 0, "is_disabled": 0, "fusion_lon": 0.0, "bike_id": "b99d16544d748bf1cbdff96d6a0b932b", "lon": -76.954195, "rental_uris": {"ios": "https://dc.lft.to/lastmile_qr_scan", "android": "https://dc.lft.to/lastmile_qr_scan"}}, {"name": "5863a7487401f73fe0c628fc6a2689ee", "fusion_lat": 0.0, "type": "electric_scooter", "lat": 38.92464833333333, "is_reserved": 0, "is_disabled": 0, "fusion_lon": 0.0, "bike_id": "5863a7487401f73fe0c628fc6a2689ee", "lon": -77.03056883333333, "rental_uris": {"ios": "https://dc.lft.to/lastmile_qr_scan", "android": "https://dc.lft.to/lastmile_qr_scan"}}, {"name": "9495766d389c9f2dbabfc6543bf67816", "fusion_lat": 0.0, "type": "electric_scooter", "lat": 38.909801333333334, "is_reserved": 0, "is_disabled": 0, "fusion_lon": 0.0, "bike_id": "9495766d389c9f2dbabfc6543bf67816", "lon": -77.04663166666667, "rental_uris": {"ios": "https://dc.lft.to/lastmile_qr_scan", "android": "https://dc.lft.to/lastmile_qr_scan"}}, {"name": "6896f2ee522fc3a4d4e97e30f187f0b3", "fusion_lat": 0.0, "type": "electric_scooter", "lat": 38.876501166666664, "is_reserved": 0, "is_disabled": 0, "fusion_lon": 0.0, "bike_id": "6896f2ee522fc3a4d4e97e30f187f0b3", "lon": -76.96506666666667, "rental_uris": {"ios": "https://dc.lft.to/lastmile_qr_scan", "android": "https://dc.lft.to/lastmile_qr_scan"}}, {"name": "72b323e5f9338e0c1f8d2a130004fb19", "fusion_lat": 0.0, "type": "electric_scooter", "lat": 38.8960265, "is_reserved": 0, "is_disabled": 0, "fusion_lon": 0.0, "bike_id": "72b323e5f9338e0c1f8d2a130004fb19", "lon": -77.041195, "rental_uris": {"ios": "https://dc.lft.to/lastmile_qr_scan", "android": "https://dc.lft.to/lastmile_qr_scan"}}, {"name": "118081cdc4cc56315acedcc7c9eac6b4", "fusion_lat": 0.0, "type": "electric_bike", "lat": 38.89564716666667, "is_reserved": 0, "is_disabled": 0, "fusion_lon": 0.0, "bike_id": "118081cdc4cc56315acedcc7c9eac6b4", "lon": -77.12730216666667, "rental_uris": {"ios": "https://dc.lft.to/lastmile_qr_scan", "android": "https://dc.lft.to/lastmile_qr_scan"}}, {"name": "daeebe027b45340b06b946e8764c2bea", "fusion_lat": 0.0, "type": "electric_bike", "lat": 39.1056725, "is_reserved": 0, "is_disabled": 0, "fusion_lon": 0.0, "bike_id": "daeebe027b45340b06b946e8764c2bea", "lon": -77.15268366666666, "rental_uris": {"ios": "https://dc.lft.to/lastmile_qr_scan", "android": "https://dc.lft.to/lastmile_qr_scan"}}, {"name": "e87b46cf7ea040837c275685ef3b2d64", "fusion_lat": 0.0, "type": "electric_scooter", "lat": 38.906695666666664, "is_reserved": 0, "is_disabled": 0, "fusion_lon": 0.0, "bike_id": "e87b46cf7ea040837c275685ef3b2d64", "lon": -77.02697583333334, "rental_uris": {"ios": "https://dc.lft.to/lastmile_qr_scan", "android": "https://dc.lft.to/lastmile_qr_scan"}}, {"name": "01cd59e30e2565eae8b444ae32f10726", "fusion_lat": 0.0, "type": "electric_scooter", "lat": 38.916881000000004, "is_reserved": 0, "is_disabled": 0, "fusion_lon": 0.0, "bike_id": "01cd59e30e2565eae8b444ae32f10726", "lon": -77.03195916666667, "rental_uris": {"ios": "https://dc.lft.to/lastmile_qr_scan", "android": "https://dc.lft.to/lastmile_qr_scan"}}, {"name": "e9d1a76b141050538274e5cc206d2aeb", "fusion_lat": 0.0, "type": "electric_bike", "lat": 38.923005833333335, "is_reserved": 0, "is_disabled": 0, "fusion_lon": 0.0, "bike_id": "e9d1a76b141050538274e5cc206d2aeb", "lon": -76.99383816666666, "rental_uris": {"ios": "https://dc.lft.to/lastmile_qr_scan", "android": "https://dc.lft.to/lastmile_qr_scan"}}, {"name": "50196db3161b310fa1a5bee7876d182d", "fusion_lat": 0.0, "type": "electric_scooter", "lat": 38.91674833333333, "is_reserved": 0, "is_disabled": 0, "fusion_lon": 0.0, "bike_id": "50196db3161b310fa1a5bee7876d182d", "lon": -77.02968216666666, "rental_uris": {"ios": "https://dc.lft.to/lastmile_qr_scan", "android": "https://dc.lft.to/lastmile_qr_scan"}}, {"name": "124c5e44d7874797d642985dfabb19d8", "fusion_lat": 0.0, "type": "electric_scooter", "lat": 38.896205333333334, "is_reserved": 0, "is_disabled": 0, "fusion_lon": 0.0, "bike_id": "124c5e44d7874797d642985dfabb19d8", "lon": -77.02384383333333, "rental_uris": {"ios": "https://dc.lft.to/lastmile_qr_scan", "android": "https://dc.lft.to/lastmile_qr_scan"}}, {"name": "7014de6ef11216a316b4015831b9c5ff", "fusion_lat": 0.0, "type": "electric_scooter", "lat": 38.89524616666667, "is_reserved": 0, "is_disabled": 0, "fusion_lon": 0.0, "bike_id": "7014de6ef11216a316b4015831b9c5ff", "lon": -76.94920916666666, "rental_uris": {"ios": "https://dc.lft.to/lastmile_qr_scan", "android": "https://dc.lft.to/lastmile_qr_scan"}}, {"name": "a28221343efcb794948efaf28f27bc32", "fusion_lat": 0.0, "type": "electric_scooter", "lat": 38.87292983333333, "is_reserved": 0, "is_disabled": 0, "fusion_lon": 0.0, "bike_id": "a28221343efcb794948efaf28f27bc32", "lon": -77.00152716666666, "rental_uris": {"ios": "https://dc.lft.to/lastmile_qr_scan", "android": "https://dc.lft.to/lastmile_qr_scan"}}, {"name": "1c2a97c5a45d3f541a601403cd8d2d70", "fusion_lat": 0.0, "type": "electric_scooter", "lat": 38.893457, "is_reserved": 0, "is_disabled": 0, "fusion_lon": 0.0, "bike_id": "1c2a97c5a45d3f541a601403cd8d2d70", "lon": -76.99141783333333, "rental_uris": {"ios": "https://dc.lft.to/lastmile_qr_scan", "android": "https://dc.lft.to/lastmile_qr_scan"}}, {"name": "0a57433918a0454754666796dd18fd7d", "fusion_lat": 0.0, "type": "electric_scooter", "lat": 38.894846, "is_reserved": 0, "is_disabled": 0, "fusion_lon": 0.0, "bike_id": "0a57433918a0454754666796dd18fd7d", "lon": -76.94871766666667, "rental_uris": {"ios": "https://dc.lft.to/lastmile_qr_scan", "android": "https://dc.lft.to/lastmile_qr_scan"}}, {"name": "893896ffc481d0dcf1903bfab1304a41", "fusion_lat": 0.0, "type": "electric_scooter", "lat": 38.90152916666667, "is_reserved": 0, "is_disabled": 0, "fusion_lon": 0.0, "bike_id": "893896ffc481d0dcf1903bfab1304a41", "lon": -77.04609566666667, "rental_uris": {"ios": "https://dc.lft.to/lastmile_qr_scan", "android": "https://dc.lft.to/lastmile_qr_scan"}}, {"name": "420a8f546854eaddc2767bd8d0bc6647", "fusion_lat": 0.0, "type": "electric_bike", "lat": 38.945556, "is_reserved": 0, "is_disabled": 0, "fusion_lon": 0.0, "bike_id": "420a8f546854eaddc2767bd8d0bc6647", "lon": -76.89542866666666, "rental_uris": {"ios": "https://dc.lft.to/lastmile_qr_scan", "android": "https://dc.lft.to/lastmile_qr_scan"}}, {"name": "f13cf2c1ae54df648d66eebbd42d7202", "fusion_lat": 0.0, "type": "electric_bike", "lat": 38.97328533333334, "is_reserved": 0, "is_disabled": 0, "fusion_lon": 0.0, "bike_id": "f13cf2c1ae54df648d66eebbd42d7202", "lon": -77.02149483333334, "rental_uris": {"ios": "https://dc.lft.to/lastmile_qr_scan", "android": "https://dc.lft.to/lastmile_qr_scan"}}, {"name": "c161fec19235d224904394538d2b1702", "fusion_lat": 0.0, "type": "electric_scooter", "lat": 38.90381933333333, "is_reserved": 0, "is_disabled": 0, "fusion_lon": 0.0, "bike_id": "c161fec19235d224904394538d2b1702", "lon": -77.04546733333333, "rental_uris": {"ios": "https://dc.lft.to/lastmile_qr_scan", "android": "https://dc.lft.to/lastmile_qr_scan"}}, {"name": "3edbbe22c392c37a30442bf2e7e3462e", "fusion_lat": 0.0, "type": "electric_scooter", "lat": 38.87568733333333, "is_reserved": 0, "is_disabled": 0, "fusion_lon": 0.0, "bike_id": "3edbbe22c392c37a30442bf2e7e3462e", "lon": -77.00602133333334, "rental_uris": {"ios": "https://dc.lft.to/lastmile_qr_scan", "android": "https://dc.lft.to/lastmile_qr_scan"}}, {"name": "14fb81137fb0f9adc6ea71c5dfa3185c", "fusion_lat": 0.0, "type": "electric_scooter", "lat": 38.91985733333333, "is_reserved": 0, "is_disabled": 0, "fusion_lon": 0.0, "bike_id": "14fb81137fb0f9adc6ea71c5dfa3185c", "lon": -77.03298766666667, "rental_uris": {"ios": "https://dc.lft.to/lastmile_qr_scan", "android": "https://dc.lft.to/lastmile_qr_scan"}}, {"name": "8438004fbc81f81ad5a1e537cd098d51", "fusion_lat": 0.0, "type": "electric_scooter", "lat": 38.8964455, "is_reserved": 0, "is_disabled": 0, "fusion_lon": 0.0, "bike_id": "8438004fbc81f81ad5a1e537cd098d51", "lon": -77.00930866666667, "rental_uris": {"ios": "https://dc.lft.to/lastmile_qr_scan", "android": "https://dc.lft.to/lastmile_qr_scan"}}, {"name": "de01ffaad328e3c128a6eec4dfd3fd9b", "fusion_lat": 0.0, "type": "electric_scooter", "lat": 38.91407366666667, "is_reserved": 0, "is_disabled": 0, "fusion_lon": 0.0, "bike_id": "de01ffaad328e3c128a6eec4dfd3fd9b", "lon": -77.0456475, "rental_uris": {"ios": "https://dc.lft.to/lastmile_qr_scan", "android": "https://dc.lft.to/lastmile_qr_scan"}}, {"name": "6e8cd1f316d93a6dbc2d1c163df05b7d", "fusion_lat": 0.0, "type": "electric_scooter", "lat": 38.917135, "is_reserved": 0, "is_disabled": 0, "fusion_lon": 0.0, "bike_id": "6e8cd1f316d93a6dbc2d1c163df05b7d", "lon": -77.03867583333333, "rental_uris": {"ios": "https://dc.lft.to/lastmile_qr_scan", "android": "https://dc.lft.to/lastmile_qr_scan"}}, {"name": "440874fc2fca01c13945438ceeccaa44", "fusion_lat": 0.0, "type": "electric_scooter", "lat": 38.90546916666667, "is_reserved": 0, "is_disabled": 0, "fusion_lon": 0.0, "bike_id": "440874fc2fca01c13945438ceeccaa44", "lon": -77.00721083333333, "rental_uris": {"ios": "https://dc.lft.to/lastmile_qr_scan", "android": "https://dc.lft.to/lastmile_qr_scan"}}, {"name": "da5e48b3a11e21694e5d0744e9b5f52b", "fusion_lat": 0.0, "type": "electric_scooter", "lat": 38.880217, "is_reserved": 0, "is_disabled": 0, "fusion_lon": 0.0, "bike_id": "da5e48b3a11e21694e5d0744e9b5f52b", "lon": -77.00525366666666, "rental_uris": {"ios": "https://dc.lft.to/lastmile_qr_scan", "android": "https://dc.lft.to/lastmile_qr_scan"}}, {"name": "77efa65db7c3ec4d433743b711bf073a", "fusion_lat": 0.0, "type": "electric_scooter", "lat": 38.93877916666667, "is_reserved": 0, "is_disabled": 0, "fusion_lon": 0.0, "bike_id": "77efa65db7c3ec4d433743b711bf073a", "lon": -77.02918866666667, "rental_uris": {"ios": "https://dc.lft.to/lastmile_qr_scan", "android": "https://dc.lft.to/lastmile_qr_scan"}}, {"name": "8aba8e1a1f956b573a925b89bf9d9e81", "fusion_lat": 0.0, "type": "electric_scooter", "lat": 38.902443833333336, "is_reserved": 0, "is_disabled": 0, "fusion_lon": 0.0, "bike_id": "8aba8e1a1f956b573a925b89bf9d9e81", "lon": -77.04364683333333, "rental_uris": {"ios": "https://dc.lft.to/lastmile_qr_scan", "android": "https://dc.lft.to/lastmile_qr_scan"}}, {"name": "4ca73014932c2833a61b6fe21a49fc6d", "fusion_lat": 0.0, "type": "electric_scooter", "lat": 38.905656, "is_reserved": 0, "is_disabled": 0, "fusion_lon": 0.0, "bike_id": "4ca73014932c2833a61b6fe21a49fc6d", "lon": -77.02195166666667, "rental_uris": {"ios": "https://dc.lft.to/lastmile_qr_scan", "android": "https://dc.lft.to/lastmile_qr_scan"}}, {"name": "3229fba164a6546133f21b551cd2714d", "fusion_lat": 0.0, "type": "electric_scooter", "lat": 38.910595, "is_reserved": 0, "is_disabled": 0, "fusion_lon": 0.0, "bike_id": "3229fba164a6546133f21b551cd2714d", "lon": -77.0528945, "rental_uris": {"ios": "https://dc.lft.to/lastmile_qr_scan", "android": "https://dc.lft.to/lastmile_qr_scan"}}, {"name": "dba3b98347627f0c1f3550e390d59f8d", "fusion_lat": 0.0, "type": "electric_scooter", "lat": 38.900097333333335, "is_reserved": 0, "is_disabled": 0, "fusion_lon": 0.0, "bike_id": "dba3b98347627f0c1f3550e390d59f8d", "lon": -76.995616, "rental_uris": {"ios": "https://dc.lft.to/lastmile_qr_scan", "android": "https://dc.lft.to/lastmile_qr_scan"}}, {"name": "67b02300eafbc8572f1e3aceb24e03e8", "fusion_lat": 0.0, "type": "electric_scooter", "lat": 38.916354, "is_reserved": 0, "is_disabled": 0, "fusion_lon": 0.0, "bike_id": "67b02300eafbc8572f1e3aceb24e03e8", "lon": -77.0010035, "rental_uris": {"ios": "https://dc.lft.to/lastmile_qr_scan", "android": "https://dc.lft.to/lastmile_qr_scan"}}, {"name": "58c3886068dce9cbfd9e32b7e33cb345", "fusion_lat": 0.0, "type": "electric_scooter", "lat": 38.91782666666667, "is_reserved": 0, "is_disabled": 0, "fusion_lon": 0.0, "bike_id": "58c3886068dce9cbfd9e32b7e33cb345", "lon": -77.02332966666667, "rental_uris": {"ios": "https://dc.lft.to/lastmile_qr_scan", "android": "https://dc.lft.to/lastmile_qr_scan"}}, {"name": "de2b0ebc772a3b747f8c1bef6710ea79", "fusion_lat": 0.0, "type": "electric_scooter", "lat": 38.892329333333336, "is_reserved": 0, "is_disabled": 0, "fusion_lon": 0.0, "bike_id": "de2b0ebc772a3b747f8c1bef6710ea79", "lon": -77.01506783333333, "rental_uris": {"ios": "https://dc.lft.to/lastmile_qr_scan", "android": "https://dc.lft.to/lastmile_qr_scan"}}, {"name": "a486f3e5929c041043880f9fade30e66", "fusion_lat": 0.0, "type": "electric_bike", "lat": 38.9492195, "is_reserved": 0, "is_disabled": 0, "fusion_lon": 0.0, "bike_id": "a486f3e5929c041043880f9fade30e66", "lon": -77.00790316666667, "rental_uris": {"ios": "https://dc.lft.to/lastmile_qr_scan", "android": "https://dc.lft.to/lastmile_qr_scan"}}, {"name": "1c275c62855cd387d460d98f2e37a6f0", "fusion_lat": 0.0, "type": "electric_scooter", "lat": 38.93961766666666, "is_reserved": 0, "is_disabled": 0, "fusion_lon": 0.0, "bike_id": "1c275c62855cd387d460d98f2e37a6f0", "lon": -77.02753516666667, "rental_uris": {"ios": "https://dc.lft.to/lastmile_qr_scan", "android": "https://dc.lft.to/lastmile_qr_scan"}}, {"name": "c6d3a7dd52c40d39bab8164186624ecf", "fusion_lat": 0.0, "type": "electric_bike", "lat": 39.00018266666667, "is_reserved": 0, "is_disabled": 0, "fusion_lon": 0.0, "bike_id": "c6d3a7dd52c40d39bab8164186624ecf", "lon": -77.0174585, "rental_uris": {"ios": "https://dc.lft.to/lastmile_qr_scan", "android": "https://dc.lft.to/lastmile_qr_scan"}}, {"name": "7be41ff8a4dd29b227afee31d278485b", "fusion_lat": 0.0, "type": "electric_scooter", "lat": 38.92758883333333, "is_reserved": 0, "is_disabled": 0, "fusion_lon": 0.0, "bike_id": "7be41ff8a4dd29b227afee31d278485b", "lon": -77.02298133333333, "rental_uris": {"ios": "https://dc.lft.to/lastmile_qr_scan", "android": "https://dc.lft.to/lastmile_qr_scan"}}, {"name": "e8bca71f7397e863b51dd43e1bff3a1e", "fusion_lat": 0.0, "type": "electric_scooter", "lat": 38.93066816666666, "is_reserved": 0, "is_disabled": 0, "fusion_lon": 0.0, "bike_id": "e8bca71f7397e863b51dd43e1bff3a1e", "lon": -77.02974016666667, "rental_uris": {"ios": "https://dc.lft.to/lastmile_qr_scan", "android": "https://dc.lft.to/lastmile_qr_scan"}}, {"name": "87c8c82091e8ce626ec721ebf3b157e8", "fusion_lat": 0.0, "type": "electric_scooter", "lat": 38.884926166666666, "is_reserved": 0, "is_disabled": 0, "fusion_lon": 0.0, "bike_id": "87c8c82091e8ce626ec721ebf3b157e8", "lon": -77.021978, "rental_uris": {"ios": "https://dc.lft.to/lastmile_qr_scan", "android": "https://dc.lft.to/lastmile_qr_scan"}}, {"name": "8338d60ef9a18325db44ed24486b1ead", "fusion_lat": 0.0, "type": "electric_bike", "lat": 38.8585205, "is_reserved": 0, "is_disabled": 0, "fusion_lon": 0.0, "bike_id": "8338d60ef9a18325db44ed24486b1ead", "lon": -77.09758566666666, "rental_uris": {"ios": "https://dc.lft.to/lastmile_qr_scan", "android": "https://dc.lft.to/lastmile_qr_scan"}}, {"name": "c062778751382d210f50d29e3b11bf2c", "fusion_lat": 0.0, "type": "electric_bike", "lat": 38.88083816666666, "is_reserved": 0, "is_disabled": 0, "fusion_lon": 0.0, "bike_id": "c062778751382d210f50d29e3b11bf2c", "lon": -76.98530733333334, "rental_uris": {"ios": "https://dc.lft.to/lastmile_qr_scan", "android": "https://dc.lft.to/lastmile_qr_scan"}}, {"name": "a7514897d4e4f515eb0238c0a399fa36", "fusion_lat": 0.0, "type": "electric_scooter", "lat": 38.909454833333335, "is_reserved": 0, "is_disabled": 0, "fusion_lon": 0.0, "bike_id": "a7514897d4e4f515eb0238c0a399fa36", "lon": -77.02764866666666, "rental_uris": {"ios": "https://dc.lft.to/lastmile_qr_scan", "android": "https://dc.lft.to/lastmile_qr_scan"}}, {"name": "f5a65743bba0924526a173ca1966f8ee", "fusion_lat": 0.0, "type": "electric_scooter", "lat": 38.90578083333333, "is_reserved": 0, "is_disabled": 0, "fusion_lon": 0.0, "bike_id": "f5a65743bba0924526a173ca1966f8ee", "lon": -77.02610666666666, "rental_uris": {"ios": "https://dc.lft.to/lastmile_qr_scan", "android": "https://dc.lft.to/lastmile_qr_scan"}}, {"name": "a684af15cf8ee527b56e0c7f73a3d8b2", "fusion_lat": 0.0, "type": "electric_bike", "lat": 39.03863233333333, "is_reserved": 0, "is_disabled": 0, "fusion_lon": 0.0, "bike_id": "a684af15cf8ee527b56e0c7f73a3d8b2", "lon": -76.99033066666667, "rental_uris": {"ios": "https://dc.lft.to/lastmile_qr_scan", "android": "https://dc.lft.to/lastmile_qr_scan"}}, {"name": "5829d7c2427f3b47e682890c7529a6ba", "fusion_lat": 0.0, "type": "electric_scooter", "lat": 38.90357016666667, "is_reserved": 0, "is_disabled": 0, "fusion_lon": 0.0, "bike_id": "5829d7c2427f3b47e682890c7529a6ba", "lon": -77.05345116666666, "rental_uris": {"ios": "https://dc.lft.to/lastmile_qr_scan", "android": "https://dc.lft.to/lastmile_qr_scan"}}, {"name": "05fef8f43ee20392b0142d01f2a6434a", "fusion_lat": 0.0, "type": "electric_scooter", "lat": 38.931479, "is_reserved": 0, "is_disabled": 0, "fusion_lon": 0.0, "bike_id": "05fef8f43ee20392b0142d01f2a6434a", "lon": -77.0387815, "rental_uris": {"ios": "https://dc.lft.to/lastmile_qr_scan", "android": "https://dc.lft.to/lastmile_qr_scan"}}, {"name": "14cf122dfa6006ac51ee05973d6e021a", "fusion_lat": 0.0, "type": "electric_scooter", "lat": 38.917841333333335, "is_reserved": 0, "is_disabled": 0, "fusion_lon": 0.0, "bike_id": "14cf122dfa6006ac51ee05973d6e021a", "lon": -77.0233435, "rental_uris": {"ios": "https://dc.lft.to/lastmile_qr_scan", "android": "https://dc.lft.to/lastmile_qr_scan"}}, {"name": "bf9b37c07e1e8ed08ad11e2290b1f3c0", "fusion_lat": 0.0, "type": "electric_scooter", "lat": 38.89223716666667, "is_reserved": 0, "is_disabled": 0, "fusion_lon": 0.0, "bike_id": "bf9b37c07e1e8ed08ad11e2290b1f3c0", "lon": -77.0222755, "rental_uris": {"ios": "https://dc.lft.to/lastmile_qr_scan", "android": "https://dc.lft.to/lastmile_qr_scan"}}, {"name": "14cb7606c2fd84b09d2cb4a38b9b0b61", "fusion_lat": 0.0, "type": "electric_scooter", "lat": 38.875798833333334, "is_reserved": 0, "is_disabled": 0, "fusion_lon": 0.0, "bike_id": "14cb7606c2fd84b09d2cb4a38b9b0b61", "lon": -77.01060516666666, "rental_uris": {"ios": "https://dc.lft.to/lastmile_qr_scan", "android": "https://dc.lft.to/lastmile_qr_scan"}}, {"name": "7d1c2802e1457b635f8e19661e5fc6d1", "fusion_lat": 0.0, "type": "electric_scooter", "lat": 38.8838935, "is_reserved": 0, "is_disabled": 0, "fusion_lon": 0.0, "bike_id": "7d1c2802e1457b635f8e19661e5fc6d1", "lon": -77.02617216666667, "rental_uris": {"ios": "https://dc.lft.to/lastmile_qr_scan", "android": "https://dc.lft.to/lastmile_qr_scan"}}, {"name": "043a0c2f7cfee50ceb18816323fd8b5a", "fusion_lat": 0.0, "type": "electric_scooter", "lat": 38.9180465, "is_reserved": 0, "is_disabled": 0, "fusion_lon": 0.0, "bike_id": "043a0c2f7cfee50ceb18816323fd8b5a", "lon": -77.02817666666667, "rental_uris": {"ios": "https://dc.lft.to/lastmile_qr_scan", "android": "https://dc.lft.to/lastmile_qr_scan"}}, {"name": "8d00f9f18e94c599176acfd4640b670b", "fusion_lat": 0.0, "type": "electric_scooter", "lat": 38.90703766666667, "is_reserved": 0, "is_disabled": 0, "fusion_lon": 0.0, "bike_id": "8d00f9f18e94c599176acfd4640b670b", "lon": -77.02388033333334, "rental_uris": {"ios": "https://dc.lft.to/lastmile_qr_scan", "android": "https://dc.lft.to/lastmile_qr_scan"}}, {"name": "e7cc1f39c9b7907255be1f6f328cd0ff", "fusion_lat": 0.0, "type": "electric_scooter", "lat": 38.90718416666667, "is_reserved": 0, "is_disabled": 0, "fusion_lon": 0.0, "bike_id": "e7cc1f39c9b7907255be1f6f328cd0ff", "lon": -77.03477916666667, "rental_uris": {"ios": "https://dc.lft.to/lastmile_qr_scan", "android": "https://dc.lft.to/lastmile_qr_scan"}}, {"name": "53a9b39a9ebf6a72cf92d300915f4106", "fusion_lat": 0.0, "type": "electric_scooter", "lat": 38.920658333333336, "is_reserved": 0, "is_disabled": 0, "fusion_lon": 0.0, "bike_id": "53a9b39a9ebf6a72cf92d300915f4106", "lon": -77.04251733333334, "rental_uris": {"ios": "https://dc.lft.to/lastmile_qr_scan", "android": "https://dc.lft.to/lastmile_qr_scan"}}, {"name": "617020fc7070e84b363dc95e16ce7c11", "fusion_lat": 0.0, "type": "electric_scooter", "lat": 38.898852166666664, "is_reserved": 0, "is_disabled": 0, "fusion_lon": 0.0, "bike_id": "617020fc7070e84b363dc95e16ce7c11", "lon": -76.93175866666667, "rental_uris": {"ios": "https://dc.lft.to/lastmile_qr_scan", "android": "https://dc.lft.to/lastmile_qr_scan"}}, {"name": "dbc149c0902c6029d5c02dbb77b73221", "fusion_lat": 0.0, "type": "electric_scooter", "lat": 38.942303, "is_reserved": 0, "is_disabled": 0, "fusion_lon": 0.0, "bike_id": "dbc149c0902c6029d5c02dbb77b73221", "lon": -77.02157466666667, "rental_uris": {"ios": "https://dc.lft.to/lastmile_qr_scan", "android": "https://dc.lft.to/lastmile_qr_scan"}}, {"name": "0038cc24500c0680928e22b5921b826d", "fusion_lat": 0.0, "type": "electric_scooter", "lat": 38.9274, "is_reserved": 0, "is_disabled": 0, "fusion_lon": 0.0, "bike_id": "0038cc24500c0680928e22b5921b826d", "lon": -77.03475216666666, "rental_uris": {"ios": "https://dc.lft.to/lastmile_qr_scan", "android": "https://dc.lft.to/lastmile_qr_scan"}}, {"name": "fa4942a0c0c8e9f43a80a0e32bf4ea9b", "fusion_lat": 0.0, "type": "electric_bike", "lat": 38.807517833333335, "is_reserved": 0, "is_disabled": 0, "fusion_lon": 0.0, "bike_id": "fa4942a0c0c8e9f43a80a0e32bf4ea9b", "lon": -77.09457016666667, "rental_uris": {"ios": "https://dc.lft.to/lastmile_qr_scan", "android": "https://dc.lft.to/lastmile_qr_scan"}}, {"name": "ffd00e8c9bef56ec63a19ecf41862448", "fusion_lat": 0.0, "type": "electric_scooter", "lat": 38.92055383333334, "is_reserved": 0, "is_disabled": 0, "fusion_lon": 0.0, "bike_id": "ffd00e8c9bef56ec63a19ecf41862448", "lon": -76.99884083333333, "rental_uris": {"ios": "https://dc.lft.to/lastmile_qr_scan", "android": "https://dc.lft.to/lastmile_qr_scan"}}, {"name": "511a70d8b795a54db125156dda0cef3d", "fusion_lat": 0.0, "type": "electric_bike", "lat": 38.955640833333334, "is_reserved": 0, "is_disabled": 0, "fusion_lon": 0.0, "bike_id": "511a70d8b795a54db125156dda0cef3d", "lon": -77.07088816666666, "rental_uris": {"ios": "https://dc.lft.to/lastmile_qr_scan", "android": "https://dc.lft.to/lastmile_qr_scan"}}, {"name": "6fe9979060fb9a23a780563b36f48fce", "fusion_lat": 0.0, "type": "electric_scooter", "lat": 38.86666066666667, "is_reserved": 0, "is_disabled": 0, "fusion_lon": 0.0, "bike_id": "6fe9979060fb9a23a780563b36f48fce", "lon": -76.98886983333334, "rental_uris": {"ios": "https://dc.lft.to/lastmile_qr_scan", "android": "https://dc.lft.to/lastmile_qr_scan"}}, {"name": "a8cb4efab05cb95c43441fae16d86eb0", "fusion_lat": 0.0, "type": "electric_scooter", "lat": 38.90569466666667, "is_reserved": 0, "is_disabled": 0, "fusion_lon": 0.0, "bike_id": "a8cb4efab05cb95c43441fae16d86eb0", "lon": -77.02200316666666, "rental_uris": {"ios": "https://dc.lft.to/lastmile_qr_scan", "android": "https://dc.lft.to/lastmile_qr_scan"}}, {"name": "3cf576079d31cb87c3ee3f92f59906b5", "fusion_lat": 0.0, "type": "electric_bike", "lat": 38.942731333333334, "is_reserved": 0, "is_disabled": 0, "fusion_lon": 0.0, "bike_id": "3cf576079d31cb87c3ee3f92f59906b5", "lon": -76.98072883333333, "rental_uris": {"ios": "https://dc.lft.to/lastmile_qr_scan", "android": "https://dc.lft.to/lastmile_qr_scan"}}, {"name": "24343bd5867e6fe959972db63147e0ca", "fusion_lat": 0.0, "type": "electric_scooter", "lat": 38.902239, "is_reserved": 0, "is_disabled": 0, "fusion_lon": 0.0, "bike_id": "24343bd5867e6fe959972db63147e0ca", "lon": -77.0150405, "rental_uris": {"ios": "https://dc.lft.to/lastmile_qr_scan", "android": "https://dc.lft.to/lastmile_qr_scan"}}, {"name": "e56c316413b83cb5095acd31ad387d9f", "fusion_lat": 0.0, "type": "electric_scooter", "lat": 38.886157, "is_reserved": 0, "is_disabled": 0, "fusion_lon": 0.0, "bike_id": "e56c316413b83cb5095acd31ad387d9f", "lon": -77.0197445, "rental_uris": {"ios": "https://dc.lft.to/lastmile_qr_scan", "android": "https://dc.lft.to/lastmile_qr_scan"}}, {"name": "a673519cf967d30f79d4fe21ba643474", "fusion_lat": 0.0, "type": "electric_bike", "lat": 38.87479866666666, "is_reserved": 0, "is_disabled": 0, "fusion_lon": 0.0, "bike_id": "a673519cf967d30f79d4fe21ba643474", "lon": -76.96529916666667, "rental_uris": {"ios": "https://dc.lft.to/lastmile_qr_scan", "android": "https://dc.lft.to/lastmile_qr_scan"}}, {"name": "d9f771a722b3daeb4c61d528a9726847", "fusion_lat": 0.0, "type": "electric_scooter", "lat": 38.921826, "is_reserved": 0, "is_disabled": 0, "fusion_lon": 0.0, "bike_id": "d9f771a722b3daeb4c61d528a9726847", "lon": -77.02659866666667, "rental_uris": {"ios": "https://dc.lft.to/lastmile_qr_scan", "android": "https://dc.lft.to/lastmile_qr_scan"}}, {"name": "dcd0fdac7a74b5ae65727d3c09354c48", "fusion_lat": 0.0, "type": "electric_scooter", "lat": 38.876482833333334, "is_reserved": 0, "is_disabled": 0, "fusion_lon": 0.0, "bike_id": "dcd0fdac7a74b5ae65727d3c09354c48", "lon": -76.96505433333333, "rental_uris": {"ios": "https://dc.lft.to/lastmile_qr_scan", "android": "https://dc.lft.to/lastmile_qr_scan"}}, {"name": "8cc894ceb2c45080092941af5a60a191", "fusion_lat": 0.0, "type": "electric_scooter", "lat": 38.933930333333336, "is_reserved": 0, "is_disabled": 0, "fusion_lon": 0.0, "bike_id": "8cc894ceb2c45080092941af5a60a191", "lon": -77.03155566666666, "rental_uris": {"ios": "https://dc.lft.to/lastmile_qr_scan", "android": "https://dc.lft.to/lastmile_qr_scan"}}, {"name": "3c1c71c81691c76d0d0fca7342e7ea5c", "fusion_lat": 0.0, "type": "electric_scooter", "lat": 38.92655383333334, "is_reserved": 0, "is_disabled": 0, "fusion_lon": 0.0, "bike_id": "3c1c71c81691c76d0d0fca7342e7ea5c", "lon": -77.02436, "rental_uris": {"ios": "https://dc.lft.to/lastmile_qr_scan", "android": "https://dc.lft.to/lastmile_qr_scan"}}, {"name": "82a34d60cda76b7e1d82f68699680a87", "fusion_lat": 0.0, "type": "electric_scooter", "lat": 38.920367666666664, "is_reserved": 0, "is_disabled": 0, "fusion_lon": 0.0, "bike_id": "82a34d60cda76b7e1d82f68699680a87", "lon": -77.02587916666667, "rental_uris": {"ios": "https://dc.lft.to/lastmile_qr_scan", "android": "https://dc.lft.to/lastmile_qr_scan"}}, {"name": "05ffa570b6567dff11a3e05f42f624b5", "fusion_lat": 0.0, "type": "electric_scooter", "lat": 38.91547633333333, "is_reserved": 0, "is_disabled": 0, "fusion_lon": 0.0, "bike_id": "05ffa570b6567dff11a3e05f42f624b5", "lon": -77.0197015, "rental_uris": {"ios": "https://dc.lft.to/lastmile_qr_scan", "android": "https://dc.lft.to/lastmile_qr_scan"}}, {"name": "c755f482595d21dc86a7b6cbfb29101c", "fusion_lat": 0.0, "type": "electric_scooter", "lat": 38.905725833333335, "is_reserved": 0, "is_disabled": 0, "fusion_lon": 0.0, "bike_id": "c755f482595d21dc86a7b6cbfb29101c", "lon": -77.022021, "rental_uris": {"ios": "https://dc.lft.to/lastmile_qr_scan", "android": "https://dc.lft.to/lastmile_qr_scan"}}, {"name": "ad331d4cb159820d21347007f1b8f0ac", "fusion_lat": 0.0, "type": "electric_scooter", "lat": 38.91805933333333, "is_reserved": 0, "is_disabled": 0, "fusion_lon": 0.0, "bike_id": "ad331d4cb159820d21347007f1b8f0ac", "lon": -77.0281495, "rental_uris": {"ios": "https://dc.lft.to/lastmile_qr_scan", "android": "https://dc.lft.to/lastmile_qr_scan"}}, {"name": "5266bf50ea9d1ab93a236d36df2b4638", "fusion_lat": 0.0, "type": "electric_scooter", "lat": 38.89888416666667, "is_reserved": 0, "is_disabled": 0, "fusion_lon": 0.0, "bike_id": "5266bf50ea9d1ab93a236d36df2b4638", "lon": -76.93171766666667, "rental_uris": {"ios": "https://dc.lft.to/lastmile_qr_scan", "android": "https://dc.lft.to/lastmile_qr_scan"}}, {"name": "899ecef0c03f96a11c384a7ca2b2088b", "fusion_lat": 0.0, "type": "electric_scooter", "lat": 38.90533933333333, "is_reserved": 0, "is_disabled": 0, "fusion_lon": 0.0, "bike_id": "899ecef0c03f96a11c384a7ca2b2088b", "lon": -77.05010133333333, "rental_uris": {"ios": "https://dc.lft.to/lastmile_qr_scan", "android": "https://dc.lft.to/lastmile_qr_scan"}}, {"name": "43ca84d658b4b4948542cb1019ec25b6", "fusion_lat": 0.0, "type": "electric_scooter", "lat": 38.900417, "is_reserved": 0, "is_disabled": 0, "fusion_lon": 0.0, "bike_id": "43ca84d658b4b4948542cb1019ec25b6", "lon": -76.9191705, "rental_uris": {"ios": "https://dc.lft.to/lastmile_qr_scan", "android": "https://dc.lft.to/lastmile_qr_scan"}}, {"name": "6be6bc4d7235d93a9e1190cfec0acf82", "fusion_lat": 0.0, "type": "electric_scooter", "lat": 38.92037833333333, "is_reserved": 0, "is_disabled": 0, "fusion_lon": 0.0, "bike_id": "6be6bc4d7235d93a9e1190cfec0acf82", "lon": -77.0258585, "rental_uris": {"ios": "https://dc.lft.to/lastmile_qr_scan", "android": "https://dc.lft.to/lastmile_qr_scan"}}, {"name": "f56ee2f08d2d2cccef5166a7179092b1", "fusion_lat": 0.0, "type": "electric_scooter", "lat": 38.914048, "is_reserved": 0, "is_disabled": 0, "fusion_lon": 0.0, "bike_id": "f56ee2f08d2d2cccef5166a7179092b1", "lon": -77.039589, "rental_uris": {"ios": "https://dc.lft.to/lastmile_qr_scan", "android": "https://dc.lft.to/lastmile_qr_scan"}}, {"name": "e6e1500c1262addf9b992f1d97808267", "fusion_lat": 0.0, "type": "electric_scooter", "lat": 38.88687266666667, "is_reserved": 0, "is_disabled": 0, "fusion_lon": 0.0, "bike_id": "e6e1500c1262addf9b992f1d97808267", "lon": -76.95759983333333, "rental_uris": {"ios": "https://dc.lft.to/lastmile_qr_scan", "android": "https://dc.lft.to/lastmile_qr_scan"}}, {"name": "dd44c7fc6a3a51a767954c85214cc00c", "fusion_lat": 0.0, "type": "electric_scooter", "lat": 38.8827925, "is_reserved": 0, "is_disabled": 0, "fusion_lon": 0.0, "bike_id": "dd44c7fc6a3a51a767954c85214cc00c", "lon": -76.99838, "rental_uris": {"ios": "https://dc.lft.to/lastmile_qr_scan", "android": "https://dc.lft.to/lastmile_qr_scan"}}, {"name": "9e604b86499f8492b51f86ec4567a0ba", "fusion_lat": 0.0, "type": "electric_scooter", "lat": 38.868906333333335, "is_reserved": 0, "is_disabled": 0, "fusion_lon": 0.0, "bike_id": "9e604b86499f8492b51f86ec4567a0ba", "lon": -76.9830885, "rental_uris": {"ios": "https://dc.lft.to/lastmile_qr_scan", "android": "https://dc.lft.to/lastmile_qr_scan"}}, {"name": "2a51aa34caa1d97e33cf803f54826004", "fusion_lat": 0.0, "type": "electric_scooter", "lat": 38.94176216666666, "is_reserved": 0, "is_disabled": 0, "fusion_lon": 0.0, "bike_id": "2a51aa34caa1d97e33cf803f54826004", "lon": -77.0251195, "rental_uris": {"ios": "https://dc.lft.to/lastmile_qr_scan", "android": "https://dc.lft.to/lastmile_qr_scan"}}, {"name": "21080edc99b9eeec4cd1c725eaf7cd2b", "fusion_lat": 0.0, "type": "electric_scooter", "lat": 38.91712866666667, "is_reserved": 0, "is_disabled": 0, "fusion_lon": 0.0, "bike_id": "21080edc99b9eeec4cd1c725eaf7cd2b", "lon": -77.02781916666666, "rental_uris": {"ios": "https://dc.lft.to/lastmile_qr_scan", "android": "https://dc.lft.to/lastmile_qr_scan"}}, {"name": "348b926e3e72948a579d884936752dc6", "fusion_lat": 0.0, "type": "electric_scooter", "lat": 38.858477666666666, "is_reserved": 0, "is_disabled": 0, "fusion_lon": 0.0, "bike_id": "348b926e3e72948a579d884936752dc6", "lon": -76.9588375, "rental_uris": {"ios": "https://dc.lft.to/lastmile_qr_scan", "android": "https://dc.lft.to/lastmile_qr_scan"}}, {"name": "b307706e5b50136fd80fd98aba5a6684", "fusion_lat": 0.0, "type": "electric_bike", "lat": 38.942002333333335, "is_reserved": 0, "is_disabled": 0, "fusion_lon": 0.0, "bike_id": "b307706e5b50136fd80fd98aba5a6684", "lon": -77.03279, "rental_uris": {"ios": "https://dc.lft.to/lastmile_qr_scan", "android": "https://dc.lft.to/lastmile_qr_scan"}}, {"name": "5f9926521d2cc990e1ae8b6a330429d7", "fusion_lat": 0.0, "type": "electric_scooter", "lat": 38.90490066666667, "is_reserved": 0, "is_disabled": 0, "fusion_lon": 0.0, "bike_id": "5f9926521d2cc990e1ae8b6a330429d7", "lon": -77.06538833333333, "rental_uris": {"ios": "https://dc.lft.to/lastmile_qr_scan", "android": "https://dc.lft.to/lastmile_qr_scan"}}, {"name": "c7c3c8779bea1ad311e27eae1aea78d4", "fusion_lat": 0.0, "type": "electric_scooter", "lat": 38.90963633333333, "is_reserved": 0, "is_disabled": 0, "fusion_lon": 0.0, "bike_id": "c7c3c8779bea1ad311e27eae1aea78d4", "lon": -77.04595533333334, "rental_uris": {"ios": "https://dc.lft.to/lastmile_qr_scan", "android": "https://dc.lft.to/lastmile_qr_scan"}}, {"name": "a61de3de3e9c1fc8c2db783b0e9fdb06", "fusion_lat": 0.0, "type": "electric_scooter", "lat": 38.9057615, "is_reserved": 0, "is_disabled": 0, "fusion_lon": 0.0, "bike_id": "a61de3de3e9c1fc8c2db783b0e9fdb06", "lon": -77.04886566666667, "rental_uris": {"ios": "https://dc.lft.to/lastmile_qr_scan", "android": "https://dc.lft.to/lastmile_qr_scan"}}, {"name": "bee4f75b0d12540e1bd00465b9908b63", "fusion_lat": 0.0, "type": "electric_scooter", "lat": 38.9613145, "is_reserved": 0, "is_disabled": 0, "fusion_lon": 0.0, "bike_id": "bee4f75b0d12540e1bd00465b9908b63", "lon": -77.02823133333334, "rental_uris": {"ios": "https://dc.lft.to/lastmile_qr_scan", "android": "https://dc.lft.to/lastmile_qr_scan"}}, {"name": "ccd3d1766a059922262bd61b07f08c11", "fusion_lat": 0.0, "type": "electric_scooter", "lat": 38.941235666666664, "is_reserved": 0, "is_disabled": 0, "fusion_lon": 0.0, "bike_id": "ccd3d1766a059922262bd61b07f08c11", "lon": -77.0205165, "rental_uris": {"ios": "https://dc.lft.to/lastmile_qr_scan", "android": "https://dc.lft.to/lastmile_qr_scan"}}, {"name": "6f04f48a4521f76cb2f1fd923232ec1d", "fusion_lat": 0.0, "type": "electric_scooter", "lat": 38.915572166666664, "is_reserved": 0, "is_disabled": 0, "fusion_lon": 0.0, "bike_id": "6f04f48a4521f76cb2f1fd923232ec1d", "lon": -77.03824233333333, "rental_uris": {"ios": "https://dc.lft.to/lastmile_qr_scan", "android": "https://dc.lft.to/lastmile_qr_scan"}}, {"name": "ccaa2b9df756f69d682e663184336ef7", "fusion_lat": 0.0, "type": "electric_scooter", "lat": 38.91040133333333, "is_reserved": 0, "is_disabled": 0, "fusion_lon": 0.0, "bike_id": "ccaa2b9df756f69d682e663184336ef7", "lon": -77.04825033333333, "rental_uris": {"ios": "https://dc.lft.to/lastmile_qr_scan", "android": "https://dc.lft.to/lastmile_qr_scan"}}, {"name": "31efa7250afa94bd686022cb210ebd0e", "fusion_lat": 0.0, "type": "electric_bike", "lat": 38.93977533333333, "is_reserved": 0, "is_disabled": 0, "fusion_lon": 0.0, "bike_id": "31efa7250afa94bd686022cb210ebd0e", "lon": -76.95490566666666, "rental_uris": {"ios": "https://dc.lft.to/lastmile_qr_scan", "android": "https://dc.lft.to/lastmile_qr_scan"}}, {"name": "864282a585325b3159e2f9d1e7a80d7d", "fusion_lat": 0.0, "type": "electric_scooter", "lat": 38.863748333333334, "is_reserved": 0, "is_disabled": 0, "fusion_lon": 0.0, "bike_id": "864282a585325b3159e2f9d1e7a80d7d", "lon": -76.99066066666667, "rental_uris": {"ios": "https://dc.lft.to/lastmile_qr_scan", "android": "https://dc.lft.to/lastmile_qr_scan"}}, {"name": "494e650aba205be3d82e0e58e3defcf9", "fusion_lat": 0.0, "type": "electric_scooter", "lat": 38.929640666666664, "is_reserved": 0, "is_disabled": 0, "fusion_lon": 0.0, "bike_id": "494e650aba205be3d82e0e58e3defcf9", "lon": -77.04111433333334, "rental_uris": {"ios": "https://dc.lft.to/lastmile_qr_scan", "android": "https://dc.lft.to/lastmile_qr_scan"}}, {"name": "6502676d8d035aee81ba3b9613fce19d", "fusion_lat": 0.0, "type": "electric_scooter", "lat": 38.90252866666667, "is_reserved": 0, "is_disabled": 0, "fusion_lon": 0.0, "bike_id": "6502676d8d035aee81ba3b9613fce19d", "lon": -76.97701783333333, "rental_uris": {"ios": "https://dc.lft.to/lastmile_qr_scan", "android": "https://dc.lft.to/lastmile_qr_scan"}}, {"name": "8bfc96edc606e13e48a55f93a313e46d", "fusion_lat": 0.0, "type": "electric_scooter", "lat": 38.914076, "is_reserved": 0, "is_disabled": 0, "fusion_lon": 0.0, "bike_id": "8bfc96edc606e13e48a55f93a313e46d", "lon": -77.03947733333334, "rental_uris": {"ios": "https://dc.lft.to/lastmile_qr_scan", "android": "https://dc.lft.to/lastmile_qr_scan"}}, {"name": "300bababc5cdbca5626bb449f8abddd5", "fusion_lat": 0.0, "type": "electric_scooter", "lat": 38.917721666666665, "is_reserved": 0, "is_disabled": 0, "fusion_lon": 0.0, "bike_id": "300bababc5cdbca5626bb449f8abddd5", "lon": -77.0967255, "rental_uris": {"ios": "https://dc.lft.to/lastmile_qr_scan", "android": "https://dc.lft.to/lastmile_qr_scan"}}, {"name": "2a023ab3ad15e1ed7c3f121feaf3f06f", "fusion_lat": 0.0, "type": "electric_scooter", "lat": 38.919963333333335, "is_reserved": 0, "is_disabled": 0, "fusion_lon": 0.0, "bike_id": "2a023ab3ad15e1ed7c3f121feaf3f06f", "lon": -77.02379766666667, "rental_uris": {"ios": "https://dc.lft.to/lastmile_qr_scan", "android": "https://dc.lft.to/lastmile_qr_scan"}}, {"name": "f1ed527f34ea659609847e53d0ebb046", "fusion_lat": 0.0, "type": "electric_scooter", "lat": 38.866572166666664, "is_reserved": 0, "is_disabled": 0, "fusion_lon": 0.0, "bike_id": "f1ed527f34ea659609847e53d0ebb046", "lon": -76.98883633333334, "rental_uris": {"ios": "https://dc.lft.to/lastmile_qr_scan", "android": "https://dc.lft.to/lastmile_qr_scan"}}, {"name": "6e972d327877fcee4627312dee3f78b7", "fusion_lat": 0.0, "type": "electric_scooter", "lat": 38.896142833333336, "is_reserved": 0, "is_disabled": 0, "fusion_lon": 0.0, "bike_id": "6e972d327877fcee4627312dee3f78b7", "lon": -77.04461616666667, "rental_uris": {"ios": "https://dc.lft.to/lastmile_qr_scan", "android": "https://dc.lft.to/lastmile_qr_scan"}}, {"name": "e7617068a50068e84d5c5ea0775b4d2b", "fusion_lat": 0.0, "type": "electric_scooter", "lat": 38.91109466666666, "is_reserved": 0, "is_disabled": 0, "fusion_lon": 0.0, "bike_id": "e7617068a50068e84d5c5ea0775b4d2b", "lon": -77.02463866666666, "rental_uris": {"ios": "https://dc.lft.to/lastmile_qr_scan", "android": "https://dc.lft.to/lastmile_qr_scan"}}, {"name": "00ef9d626156df9ad9786114be7ca588", "fusion_lat": 0.0, "type": "electric_scooter", "lat": 38.907990833333336, "is_reserved": 0, "is_disabled": 0, "fusion_lon": 0.0, "bike_id": "00ef9d626156df9ad9786114be7ca588", "lon": -77.01818466666667, "rental_uris": {"ios": "https://dc.lft.to/lastmile_qr_scan", "android": "https://dc.lft.to/lastmile_qr_scan"}}, {"name": "f1a7d2dff91ede57428175776b3cc104", "fusion_lat": 0.0, "type": "electric_scooter", "lat": 38.911492833333334, "is_reserved": 0, "is_disabled": 0, "fusion_lon": 0.0, "bike_id": "f1a7d2dff91ede57428175776b3cc104", "lon": -77.01684933333334, "rental_uris": {"ios": "https://dc.lft.to/lastmile_qr_scan", "android": "https://dc.lft.to/lastmile_qr_scan"}}, {"name": "ae04509b7ea6677f262383d698b2172b", "fusion_lat": 0.0, "type": "electric_bike", "lat": 38.89345333333333, "is_reserved": 0, "is_disabled": 0, "fusion_lon": 0.0, "bike_id": "ae04509b7ea6677f262383d698b2172b", "lon": -76.99147283333333, "rental_uris": {"ios": "https://dc.lft.to/lastmile_qr_scan", "android": "https://dc.lft.to/lastmile_qr_scan"}},