{"data": {"bikes": [{"lon": -77.00050433333334, "bike_id": "cbd2ecf036a69b4a0effb3455007a2b9", "lat": 38.9239355, "fusion_lon": 0.0, "fusion_lat": 0.0, "type": "electric_scooter", "name": "cbd2ecf036a69b4a0effb3455007a2b9", "is_disabled": 0, "rental_uris": {"ios": "https://dc.lft.to/lastmile_qr_scan", "android": "https://dc.lft.to/lastmile_qr_scan"}, "is_reserved": 0}, {"lon": -76.9705075, "bike_id": "7487f1f6f563d5641a864534e39f1cef", "lat": 38.897684166666664, "fusion_lon": 0.0, "fusion_lat": 0.0, "type": "electric_scooter", "name": "7487f1f6f563d5641a864534e39f1cef", "is_disabled": 0, "rental_uris": {"ios": "https://dc.lft.to/lastmile_qr_scan", "android": "https://dc.lft.to/lastmile_qr_scan"}, "is_reserved": 0}, {"lon": -77.0572885, "bike_id": "d11e4a11818aa88f2055008ce8c9d6bc", "lat": 38.933619, "fusion_lon": 0.0, "fusion_lat": 0.0, "type": "electric_scooter", "name": "d11e4a11818aa88f2055008ce8c9d6bc", "is_disabled": 0, "rental_uris": {"ios": "https://dc.lft.to/lastmile_qr_scan", "android": "https://dc.lft.to/lastmile_qr_scan"}, "is_reserved": 0}, {"lon": -77.00930016666666, "bike_id": "98682a3e0da22c0937415ee35047adba", "lat": 38.89648183333333, "fusion_lon": 0.0, "fusion_lat": 0.0, "type": "electric_scooter", "name": "98682a3e0da22c0937415ee35047adba", "is_disabled": 0, "rental_uris": {"ios": "https://dc.lft.to/lastmile_qr_scan", "android": "https://dc.lft.to/lastmile_qr_scan"}, "is_reserved": 0}, {"lon": -77.00150933333333, "bike_id": "b1d0b9950ca2d2afca18da6d28ae7117", "lat": 38.88986366666666, "fusion_lon": 0.0, "fusion_lat": 0.0, "type": "electric_scooter", "name": "b1d0b9950ca2d2afca18da6d28ae7117", "is_disabled": 0, "rental_uris": {"ios": "https://dc.lft.to/lastmile_qr_scan", "android": "https://dc.lft.to/lastmile_qr_scan"}, "is_reserved": 0}, {"lon": -77.0462735, "bike_id": "2a8e97bc0eb9464ed0fabff9c6c68796", "lat": 38.905516666666664, "fusion_lon": 0.0, "fusion_lat": 0.0, "type": "electric_scooter", "name": "2a8e97bc0eb9464ed0fabff9c6c68796", "is_disabled": 0, "rental_uris": {"ios": "https://dc.lft.to/lastmile_qr_scan", "android": "https://dc.lft.to/lastmile_qr_scan"}, "is_reserved": 0}, {"lon": -77.02748433333333, "bike_id": "a4c8414bdf4a9a34536a9994049cea49", "lat": 38.927715666666664, "fusion_lon": 0.0, "fusion_lat": 0.0, "type": "electric_scooter", "name": "a4c8414bdf4a9a34536a9994049cea49", "is_disabled": 0, "rental_uris": {"ios": "https://dc.lft.to/lastmile_qr_scan", "android": "https://dc.lft.to/lastmile_qr_scan"}, "is_reserved": 0}, {"lon": -77.02957033333334, "bike_id": "295d6972029b3ac3a75c4f780d3aa1c5", "lat": 38.912495666666665, "fusion_lon": 0.0, "fusion_lat": 0.0, "type": "electric_scooter", "name": "295d6972029b3ac3a75c4f780d3aa1c5", "is_disabled": 0, "rental_uris": {"ios": "https://dc.lft.to/lastmile_qr_scan", "android": "https://dc.lft.to/lastmile_qr_scan"}, "is_reserved": 0}, {"lon": -77.02404166666666, "bike_id": "b090eb7700cbcd47b786f35760ddc802", "lat": 38.917836333333334, "fusion_lon": 0.0, "fusion_lat": 0.0, "type": "electric_scooter", "name": "b090eb7700cbcd47b786f35760ddc802", "is_disabled": 0, "rental_uris": {"ios": "https://dc.lft.to/lastmile_qr_scan", "android": "https://dc.lft.to/lastmile_qr_scan"}, "is_reserved": 0}, {"lon": -77.0364565, "bike_id": "49187d37b3d8217247570795bc9ef289", "lat": 38.90284616666667, "fusion_lon": 0.0, "fusion_lat": 0.0, "type": "electric_scooter", "name": "49187d37b3d8217247570795bc9ef289", "is_disabled": 0, "rental_uris": {"ios": "https://dc.lft.to/lastmile_qr_scan", "android": "https://dc.lft.to/lastmile_qr_scan"}, "is_reserved": 0}, {"lon": -76.98843366666667, "bike_id": "d5b82d2ede032a164f8b9a362d28ee62", "lat": 38.84280366666667, "fusion_lon": 0.0, "fusion_lat": 0.0, "type": "electric_bike", "name": "d5b82d2ede032a164f8b9a362d28ee62", "is_disabled": 0, "rental_uris": {"ios": "https://dc.lft.to/lastmile_qr_scan", "android": "https://dc.lft.to/lastmile_qr_scan"}, "is_reserved": 0}, {"lon": -77.0227885, "bike_id": "6bbbec0e2e8c341b1a2c73f6d59998f6", "lat": 38.916429, "fusion_lon": 0.0, "fusion_lat": 0.0, "type": "electric_scooter", "name": "6bbbec0e2e8c341b1a2c73f6d59998f6", "is_disabled": 0, "rental_uris": {"ios": "https://dc.lft.to/lastmile_qr_scan", "android": "https://dc.lft.to/lastmile_qr_scan"}, "is_reserved": 0}, {"lon": -77.01764733333333, "bike_id": "13019b7836556c6ecb88156841b20049", "lat": 38.9025865, "fusion_lon": 0.0, "fusion_lat": 0.0, "type": "electric_scooter", "name": "13019b7836556c6ecb88156841b20049", "is_disabled": 0, "rental_uris": {"ios": "https://dc.lft.to/lastmile_qr_scan", "android": "https://dc.lft.to/lastmile_qr_scan"}, "is_reserved": 0}, {"lon": -77.02362716666667, "bike_id": "638272f91dd496802dea1deb30112dc5", "lat": 38.892208833333335, "fusion_lon": 0.0, "fusion_lat": 0.0, "type": "electric_scooter", "name": "638272f91dd496802dea1deb30112dc5", "is_disabled": 0, "rental_uris": {"ios": "https://dc.lft.to/lastmile_qr_scan", "android": "https://dc.lft.to/lastmile_qr_scan"}, "is_reserved": 0}, {"lon": -77.0152005, "bike_id": "79eeb792cabdb28af3141c02598b918d", "lat": 38.8865715, "fusion_lon": 0.0, "fusion_lat": 0.0, "type": "electric_scooter", "name": "79eeb792cabdb28af3141c02598b918d", "is_disabled": 0, "rental_uris": {"ios": "https://dc.lft.to/lastmile_qr_scan", "android": "https://dc.lft.to/lastmile_qr_scan"}, "is_reserved": 0}, {"lon": -77.02687733333333, "bike_id": "a87cbbcfc09b40379059dbe7d01f4aa8", "lat": 38.902361166666665, "fusion_lon": 0.0, "fusion_lat": 0.0, "type": "electric_scooter", "name": "a87cbbcfc09b40379059dbe7d01f4aa8", "is_disabled": 0, "rental_uris": {"ios": "https://dc.lft.to/lastmile_qr_scan", "android": "https://dc.lft.to/lastmile_qr_scan"}, "is_reserved": 0}, {"lon": -77.012211, "bike_id": "86b6c2ecaa3c07c7f4da266e8342504e", "lat": 38.91686, "fusion_lon": 0.0, "fusion_lat": 0.0, "type": "electric_scooter", "name": "86b6c2ecaa3c07c7f4da266e8342504e", "is_disabled": 0, "rental_uris": {"ios": "https://dc.lft.to/lastmile_qr_scan", "android": "https://dc.lft.to/lastmile_qr_scan"}, "is_reserved": 0}, {"lon": -77.03994333333333, "bike_id": "8f5de7b565ceb7480ece9e3b2101abf0", "lat": 38.92456133333334, "fusion_lon": 0.0, "fusion_lat": 0.0, "type": "electric_scooter", "name": "8f5de7b565ceb7480ece9e3b2101abf0", "is_disabled": 0, "rental_uris": {"ios": "https://dc.lft.to/lastmile_qr_scan", "android": "https://dc.lft.to/lastmile_qr_scan"}, "is_reserved": 0}, {"lon": -77.01471816666667, "bike_id": "1d806724a58c6ab8fc5c4438cc2e49b8", "lat": 38.89597766666667, "fusion_lon": 0.0, "fusion_lat": 0.0, "type": "electric_scooter", "name": "1d806724a58c6ab8fc5c4438cc2e49b8", "is_disabled": 0, "rental_uris": {"ios": "https://dc.lft.to/lastmile_qr_scan", "android": "https://dc.lft.to/lastmile_qr_scan"}, "is_reserved": 0}, {"lon": -77.059225, "bike_id": "d5a1f50f119dfd16a29b9a5c525756c0", "lat": 38.862437, "fusion_lon": 0.0, "fusion_lat": 0.0, "type": "electric_scooter", "name": "d5a1f50f119dfd16a29b9a5c525756c0", "is_disabled": 0, "rental_uris": {"ios": "https://dc.lft.to/lastmile_qr_scan", "android": "https://dc.lft.to/lastmile_qr_scan"}, "is_reserved": 0}, {"lon": -77.02192233333334, "bike_id": "022928f81d9ef2ac1d587237f80bb605", "lat": 38.894785166666665, "fusion_lon": 0.0, "fusion_lat": 0.0, "type": "electric_scooter", "name": "022928f81d9ef2ac1d587237f80bb605", "is_disabled": 0, "rental_uris": {"ios": "https://dc.lft.to/lastmile_qr_scan", "android": "https://dc.lft.to/lastmile_qr_scan"}, "is_reserved": 0}, {"lon": -77.0272565, "bike_id": "f02f4c2dde024f94fb44edf515022db7", "lat": 38.93376683333334, "fusion_lon": 0.0, "fusion_lat": 0.0, "type": "electric_scooter", "name": "f02f4c2dde024f94fb44edf515022db7", "is_disabled": 0, "rental_uris": {"ios": "https://dc.lft.to/lastmile_qr_scan", "android": "https://dc.lft.to/lastmile_qr_scan"}, "is_reserved": 0}, {"lon": -77.00840366666667, "bike_id": "ea7b1585305cde919c03f9499ccae297", "lat": 38.916235666666665, "fusion_lon": 0.0, "fusion_lat": 0.0, "type": "electric_scooter", "name": "ea7b1585305cde919c03f9499ccae297", "is_disabled": 0, "rental_uris": {"ios": "https://dc.lft.to/lastmile_qr_scan", "android": "https://dc.lft.to/lastmile_qr_scan"}, "is_reserved": 0}, {"lon": -77.03966116666666, "bike_id": "9302601715b5a2eb679a9bcd4a9de715", "lat": 38.923110666666666, "fusion_lon": 0.0, "fusion_lat": 0.0, "type": "electric_scooter", "name": "9302601715b5a2eb679a9bcd4a9de715", "is_disabled": 0, "rental_uris": {"ios": "https://dc.lft.to/lastmile_qr_scan", "android": "https://dc.lft.to/lastmile_qr_scan"}, "is_reserved": 0}, {"lon": -77.02544683333333, "bike_id": "857cbf8d3d644794aa8be1f3f6779a70", "lat": 38.90716533333333, "fusion_lon": 0.0, "fusion_lat": 0.0, "type": "electric_scooter", "name": "857cbf8d3d644794aa8be1f3f6779a70", "is_disabled": 0, "rental_uris": {"ios": "https://dc.lft.to/lastmile_qr_scan", "android": "https://dc.lft.to/lastmile_qr_scan"}, "is_reserved": 0}, {"lon": -77.0242605, "bike_id": "42a9b1fb1ffa8cc5d82c9d35fe70a858", "lat": 38.913985, "fusion_lon": 0.0, "fusion_lat": 0.0, "type": "electric_scooter", "name": "42a9b1fb1ffa8cc5d82c9d35fe70a858", "is_disabled": 0, "rental_uris": {"ios": "https://dc.lft.to/lastmile_qr_scan", "android": "https://dc.lft.to/lastmile_qr_scan"}, "is_reserved": 0}, {"lon": -77.03664216666667, "bike_id": "206e4c69442a18787c3fcb5301672234", "lat": 38.92100833333333, "fusion_lon": 0.0, "fusion_lat": 0.0, "type": "electric_scooter", "name": "206e4c69442a18787c3fcb5301672234", "is_disabled": 0, "rental_uris": {"ios": "https://dc.lft.to/lastmile_qr_scan", "android": "https://dc.lft.to/lastmile_qr_scan"}, "is_reserved": 0}, {"lon": -77.03444466666667, "bike_id": "f664c0cc8db91f3d9f53b4a530762dc1", "lat": 38.907339, "fusion_lon": 0.0, "fusion_lat": 0.0, "type": "electric_scooter", "name": "f664c0cc8db91f3d9f53b4a530762dc1", "is_disabled": 0, "rental_uris": {"ios": "https://dc.lft.to/lastmile_qr_scan", "android": "https://dc.lft.to/lastmile_qr_scan"}, "is_reserved": 0}, {"lon": -77.02645533333333, "bike_id": "a4b4d9d4bbbd1c8ab56207a45b8dd3fb", "lat": 38.97563316666667, "fusion_lon": 0.0, "fusion_lat": 0.0, "type": "electric_scooter", "name": "a4b4d9d4bbbd1c8ab56207a45b8dd3fb", "is_disabled": 0, "rental_uris": {"ios": "https://dc.lft.to/lastmile_qr_scan", "android": "https://dc.lft.to/lastmile_qr_scan"}, "is_reserved": 0}, {"lon": -76.97626666666666, "bike_id": "254c4c0d55b4fb260d9eaf1154f0744d", "lat": 38.905695, "fusion_lon": 0.0, "fusion_lat": 0.0, "type": "electric_scooter", "name": "254c4c0d55b4fb260d9eaf1154f0744d", "is_disabled": 0, "rental_uris": {"ios": "https://dc.lft.to/lastmile_qr_scan", "android": "https://dc.lft.to/lastmile_qr_scan"}, "is_reserved": 0}, {"lon": -77.05917333333333, "bike_id": "a17f617fa026a6c461b38f7a70e0945f", "lat": 38.90355983333333, "fusion_lon": 0.0, "fusion_lat": 0.0, "type": "electric_scooter", "name": "a17f617fa026a6c461b38f7a70e0945f", "is_disabled": 0, "rental_uris": {"ios": "https://dc.lft.to/lastmile_qr_scan", "android": "https://dc.lft.to/lastmile_qr_scan"}, "is_reserved": 0}, {"lon": -77.03844783333334, "bike_id": "b3f740cdbdbda325f2ed7637c957c002", "lat": 38.90119833333333, "fusion_lon": 0.0, "fusion_lat": 0.0, "type": "electric_scooter", "name": "b3f740cdbdbda325f2ed7637c957c002", "is_disabled": 0, "rental_uris": {"ios": "https://dc.lft.to/lastmile_qr_scan", "android": "https://dc.lft.to/lastmile_qr_scan"}, "is_reserved": 0}, {"lon": -77.04482733333333, "bike_id": "c0340b1f964df7cb058a4947ea240a54", "lat": 38.892622333333335, "fusion_lon": 0.0, "fusion_lat": 0.0, "type": "electric_scooter", "name": "c0340b1f964df7cb058a4947ea240a54", "is_disabled": 0, "rental_uris": {"ios": "https://dc.lft.to/lastmile_qr_scan", "android": "https://dc.lft.to/lastmile_qr_scan"}, "is_reserved": 0}, {"lon": -77.07546483333333, "bike_id": "65ebee59440e64aa445a903c0bbbd93d", "lat": 38.894570333333334, "fusion_lon": 0.0, "fusion_lat": 0.0, "type": "electric_scooter", "name": "65ebee59440e64aa445a903c0bbbd93d", "is_disabled": 0, "rental_uris": {"ios": "https://dc.lft.to/lastmile_qr_scan", "android": "https://dc.lft.to/lastmile_qr_scan"}, "is_reserved": 0}, {"lon": -77.03624016666667, "bike_id": "a775774c31c29154a87155ef83223865", "lat": 38.93157016666667, "fusion_lon": 0.0, "fusion_lat": 0.0, "type": "electric_scooter", "name": "a775774c31c29154a87155ef83223865", "is_disabled": 0, "rental_uris": {"ios": "https://dc.lft.to/lastmile_qr_scan", "android": "https://dc.lft.to/lastmile_qr_scan"}, "is_reserved": 0}, {"lon": -77.02569966666667, "bike_id": "08cb7b41ebc596e690c5404ed7bae0ab", "lat": 38.92455733333333, "fusion_lon": 0.0, "fusion_lat": 0.0, "type": "electric_scooter", "name": "08cb7b41ebc596e690c5404ed7bae0ab", "is_disabled": 0, "rental_uris": {"ios": "https://dc.lft.to/lastmile_qr_scan", "android": "https://dc.lft.to/lastmile_qr_scan"}, "is_reserved": 0}, {"lon": -77.001528, "bike_id": "771e3cef0215f0240f56e0956c6b2869", "lat": 38.874909833333334, "fusion_lon": 0.0, "fusion_lat": 0.0, "type": "electric_scooter", "name": "771e3cef0215f0240f56e0956c6b2869", "is_disabled": 0, "rental_uris": {"ios": "https://dc.lft.to/lastmile_qr_scan", "android": "https://dc.lft.to/lastmile_qr_scan"}, "is_reserved": 0}, {"lon": -76.99154916666667, "bike_id": "f1ac955ba769e4b61d307b957f66953f", "lat": 38.9011985, "fusion_lon": 0.0, "fusion_lat": 0.0, "type": "electric_scooter", "name": "f1ac955ba769e4b61d307b957f66953f", "is_disabled": 0, "rental_uris": {"ios": "https://dc.lft.to/lastmile_qr_scan", "android": "https://dc.lft.to/lastmile_qr_scan"}, "is_reserved": 0}, {"lon": -77.02404883333334, "bike_id": "f97364f80747f32cd21ab364fee9ee92", "lat": 38.915221833333334, "fusion_lon": 0.0, "fusion_lat": 0.0, "type": "electric_scooter", "name": "f97364f80747f32cd21ab364fee9ee92", "is_disabled": 0, "rental_uris": {"ios": "https://dc.lft.to/lastmile_qr_scan", "android": "https://dc.lft.to/lastmile_qr_scan"}, "is_reserved": 0}, {"lon": -77.03361533333333, "bike_id": "151ea8d8ecec3654dba5728935b63d69", "lat": 38.886956, "fusion_lon": 0.0, "fusion_lat": 0.0, "type": "electric_scooter", "name": "151ea8d8ecec3654dba5728935b63d69", "is_disabled": 0, "rental_uris": {"ios": "https://dc.lft.to/lastmile_qr_scan", "android": "https://dc.lft.to/lastmile_qr_scan"}, "is_reserved": 0}, {"lon": -77.12528166666667, "bike_id": "ea149e02b6625e5eb1225283287a9dc2", "lat": 39.056364, "fusion_lon": 0.0, "fusion_lat": 0.0, "type": "electric_bike", "name": "ea149e02b6625e5eb1225283287a9dc2", "is_disabled": 0, "rental_uris": {"ios": "https://dc.lft.to/lastmile_qr_scan", "android": "https://dc.lft.to/lastmile_qr_scan"}, "is_reserved": 0}, {"lon": -77.0744865, "bike_id": "9eba424f29fd6b34d740edad48dbf92c", "lat": 38.94511116666666, "fusion_lon": 0.0, "fusion_lat": 0.0, "type": "electric_scooter", "name": "9eba424f29fd6b34d740edad48dbf92c", "is_disabled": 0, "rental_uris": {"ios": "https://dc.lft.to/lastmile_qr_scan", "android": "https://dc.lft.to/lastmile_qr_scan"}, "is_reserved": 0}, {"lon": -77.0217015, "bike_id": "195ff150c86be9225b40988560133242", "lat": 38.887467, "fusion_lon": 0.0, "fusion_lat": 0.0, "type": "electric_scooter", "name": "195ff150c86be9225b40988560133242", "is_disabled": 0, "rental_uris": {"ios": "https://dc.lft.to/lastmile_qr_scan", "android": "https://dc.lft.to/lastmile_qr_scan"}, "is_reserved": 0}, {"lon": -76.9937605, "bike_id": "cf846233895bd57a936f13eeb1f760a1", "lat": 38.923964833333336, "fusion_lon": 0.0, "fusion_lat": 0.0, "type": "electric_scooter", "name": "cf846233895bd57a936f13eeb1f760a1", "is_disabled": 0, "rental_uris": {"ios": "https://dc.lft.to/lastmile_qr_scan", "android": "https://dc.lft.to/lastmile_qr_scan"}, "is_reserved": 0}, {"lon": -77.0297885, "bike_id": "f01783a67fa0a215286fea8be641a7f1", "lat": 38.90718566666666, "fusion_lon": 0.0, "fusion_lat": 0.0, "type": "electric_scooter", "name": "f01783a67fa0a215286fea8be641a7f1", "is_disabled": 0, "rental_uris": {"ios": "https://dc.lft.to/lastmile_qr_scan", "android": "https://dc.lft.to/lastmile_qr_scan"}, "is_reserved": 0}, {"lon": -77.031225, "bike_id": "b7e656763dc3220998658b00c8fd7905", "lat": 38.95927433333333, "fusion_lon": 0.0, "fusion_lat": 0.0, "type": "electric_bike", "name": "b7e656763dc3220998658b00c8fd7905", "is_disabled": 0, "rental_uris": {"ios": "https://dc.lft.to/lastmile_qr_scan", "android": "https://dc.lft.to/lastmile_qr_scan"}, "is_reserved": 0}, {"lon": -77.00889083333334, "bike_id": "169e896a6ea1840ad5073d6037ad8dc9", "lat": 38.924843833333334, "fusion_lon": 0.0, "fusion_lat": 0.0, "type": "electric_scooter", "name": "169e896a6ea1840ad5073d6037ad8dc9", "is_disabled": 0, "rental_uris": {"ios": "https://dc.lft.to/lastmile_qr_scan", "android": "https://dc.lft.to/lastmile_qr_scan"}, "is_reserved": 0}, {"lon": -77.004921, "bike_id": "3ad707d0e0155306530182df853599de", "lat": 38.896932166666666, "fusion_lon": 0.0, "fusion_lat": 0.0, "type": "electric_scooter", "name": "3ad707d0e0155306530182df853599de", "is_disabled": 0, "rental_uris": {"ios": "https://dc.lft.to/lastmile_qr_scan", "android": "https://dc.lft.to/lastmile_qr_scan"}, "is_reserved": 0}, {"lon": -77.0481455, "bike_id": "f8bf13db3275c68e99a33a6662212afb", "lat": 38.903695, "fusion_lon": 0.0, "fusion_lat": 0.0, "type": "electric_scooter", "name": "f8bf13db3275c68e99a33a6662212afb", "is_disabled": 0, "rental_uris": {"ios": "https://dc.lft.to/lastmile_qr_scan", "android": "https://dc.lft.to/lastmile_qr_scan"}, "is_reserved": 0}, {"lon": -77.0215775, "bike_id": "a9b5e4fd6938684ec590c5251170f37b", "lat": 38.931324000000004, "fusion_lon": 0.0, "fusion_lat": 0.0, "type": "electric_scooter", "name": "a9b5e4fd6938684ec590c5251170f37b", "is_disabled": 0, "rental_uris": {"ios": "https://dc.lft.to/lastmile_qr_scan", "android": "https://dc.lft.to/lastmile_qr_scan"}, "is_reserved": 0}, {"lon": -77.034092, "bike_id": "f252d1bd4803bec8d5817fbf9f0b8e4c", "lat": 38.91101866666666, "fusion_lon": 0.0, "fusion_lat": 0.0, "type": "electric_scooter", "name": "f252d1bd4803bec8d5817fbf9f0b8e4c", "is_disabled": 0, "rental_uris": {"ios": "https://dc.lft.to/lastmile_qr_scan", "android": "https://dc.lft.to/lastmile_qr_scan"}, "is_reserved": 0}, {"lon": -77.04351583333333, "bike_id": "6933cf4f88f4b18c905cbe9b96e48e5a", "lat": 38.90776283333334, "fusion_lon": 0.0, "fusion_lat": 0.0, "type": "electric_scooter", "name": "6933cf4f88f4b18c905cbe9b96e48e5a", "is_disabled": 0, "rental_uris": {"ios": "https://dc.lft.to/lastmile_qr_scan", "android": "https://dc.lft.to/lastmile_qr_scan"}, "is_reserved": 0}, {"lon": -77.06832333333334, "bike_id": "6e1576c56e66a2a5c5ad5f9e9a7b9de0", "lat": 38.805687, "fusion_lon": 0.0, "fusion_lat": 0.0, "type": "electric_bike", "name": "6e1576c56e66a2a5c5ad5f9e9a7b9de0", "is_disabled": 0, "rental_uris": {"ios": "https://dc.lft.to/lastmile_qr_scan", "android": "https://dc.lft.to/lastmile_qr_scan"}, "is_reserved": 0}, {"lon": -77.03257533333333, "bike_id": "4f57aedbfe17d10124b7063c7e92d4ad", "lat": 38.93722616666667, "fusion_lon": 0.0, "fusion_lat": 0.0, "type": "electric_scooter", "name": "4f57aedbfe17d10124b7063c7e92d4ad", "is_disabled": 0, "rental_uris": {"ios": "https://dc.lft.to/lastmile_qr_scan", "android": "https://dc.lft.to/lastmile_qr_scan"}, "is_reserved": 0}, {"lon": -77.04445366666667, "bike_id": "0e38d6e2515c9b148449a683762f8bad", "lat": 38.90571933333333, "fusion_lon": 0.0, "fusion_lat": 0.0, "type": "electric_scooter", "name": "0e38d6e2515c9b148449a683762f8bad", "is_disabled": 0, "rental_uris": {"ios": "https://dc.lft.to/lastmile_qr_scan", "android": "https://dc.lft.to/lastmile_qr_scan"}, "is_reserved": 0}, {"lon": -77.00328166666667, "bike_id": "55cfabfd40b80c77529357e9ce26a472", "lat": 38.897236, "fusion_lon": 0.0, "fusion_lat": 0.0, "type": "electric_scooter", "name": "55cfabfd40b80c77529357e9ce26a472", "is_disabled": 0, "rental_uris": {"ios": "https://dc.lft.to/lastmile_qr_scan", "android": "https://dc.lft.to/lastmile_qr_scan"}, "is_reserved": 0}, {"lon": -77.03327183333333, "bike_id": "b252e95f7f12e07ec1c63162987ca304", "lat": 38.9156925, "fusion_lon": 0.0, "fusion_lat": 0.0, "type": "electric_scooter", "name": "b252e95f7f12e07ec1c63162987ca304", "is_disabled": 0, "rental_uris": {"ios": "https://dc.lft.to/lastmile_qr_scan", "android": "https://dc.lft.to/lastmile_qr_scan"}, "is_reserved": 0}, {"lon": -77.02766166666666, "bike_id": "01a837e8c5a8cf1c1822a519ef732daf", "lat": 38.954196, "fusion_lon": 0.0, "fusion_lat": 0.0, "type": "electric_scooter", "name": "01a837e8c5a8cf1c1822a519ef732daf", "is_disabled": 0, "rental_uris": {"ios": "https://dc.lft.to/lastmile_qr_scan", "android": "https://dc.lft.to/lastmile_qr_scan"}, "is_reserved": 0}, {"lon": -77.01769666666667, "bike_id": "7c13c55960824ab7eca6380de3243924", "lat": 38.900819166666665, "fusion_lon": 0.0, "fusion_lat": 0.0, "type": "electric_scooter", "name": "7c13c55960824ab7eca6380de3243924", "is_disabled": 0, "rental_uris": {"ios": "https://dc.lft.to/lastmile_qr_scan", "android": "https://dc.lft.to/lastmile_qr_scan"}, "is_reserved": 0}, {"lon": -77.03284133333334, "bike_id": "99d959e14a77cc3fd098cc301cab1d0e", "lat": 38.941722666666664, "fusion_lon": 0.0, "fusion_lat": 0.0, "type": "electric_scooter", "name": "99d959e14a77cc3fd098cc301cab1d0e", "is_disabled": 0, "rental_uris": {"ios": "https://dc.lft.to/lastmile_qr_scan", "android": "https://dc.lft.to/lastmile_qr_scan"}, "is_reserved": 0}, {"lon": -76.98086716666667, "bike_id": "ede5a4b95d6a634b73f660a00a84db34", "lat": 38.907031333333336, "fusion_lon": 0.0, "fusion_lat": 0.0, "type": "electric_scooter", "name": "ede5a4b95d6a634b73f660a00a84db34", "is_disabled": 0, "rental_uris": {"ios": "https://dc.lft.to/lastmile_qr_scan", "android": "https://dc.lft.to/lastmile_qr_scan"}, "is_reserved": 0}, {"lon": -77.0773055, "bike_id": "dd2ba97728f7cfa8c7e95bf0d194202e", "lat": 38.9225785, "fusion_lon": 0.0, "fusion_lat": 0.0, "type": "electric_scooter", "name": "dd2ba97728f7cfa8c7e95bf0d194202e", "is_disabled": 0, "rental_uris": {"ios": "https://dc.lft.to/lastmile_qr_scan", "android": "https://dc.lft.to/lastmile_qr_scan"}, "is_reserved": 0}, {"lon": -76.98765716666666, "bike_id": "24b27678d5547f766914babe0d7f77ff", "lat": 38.857684666666664, "fusion_lon": 0.0, "fusion_lat": 0.0, "type": "electric_bike", "name": "24b27678d5547f766914babe0d7f77ff", "is_disabled": 0, "rental_uris": {"ios": "https://dc.lft.to/lastmile_qr_scan", "android": "https://dc.lft.to/lastmile_qr_scan"}, "is_reserved": 0}, {"lon": -77.04491333333333, "bike_id": "555164f0a1e6d26a05d6241bda9157c0", "lat": 38.9072235, "fusion_lon": 0.0, "fusion_lat": 0.0, "type": "electric_scooter", "name": "555164f0a1e6d26a05d6241bda9157c0", "is_disabled": 0, "rental_uris": {"ios": "https://dc.lft.to/lastmile_qr_scan", "android": "https://dc.lft.to/lastmile_qr_scan"}, "is_reserved": 0}, {"lon": -77.03776766666667, "bike_id": "26bd7cdbb7ef000ec0c084c11dd72489", "lat": 38.925793666666664, "fusion_lon": 0.0, "fusion_lat": 0.0, "type": "electric_scooter", "name": "26bd7cdbb7ef000ec0c084c11dd72489", "is_disabled": 0, "rental_uris": {"ios": "https://dc.lft.to/lastmile_qr_scan", "android": "https://dc.lft.to/lastmile_qr_scan"}, "is_reserved": 0}, {"lon": -77.0516135, "bike_id": "62d47a93951b939f72d0cce916b467b0", "lat": 38.90316283333333, "fusion_lon": 0.0, "fusion_lat": 0.0, "type": "electric_scooter", "name": "62d47a93951b939f72d0cce916b467b0", "is_disabled": 0, "rental_uris": {"ios": "https://dc.lft.to/lastmile_qr_scan", "android": "https://dc.lft.to/lastmile_qr_scan"}, "is_reserved": 0}, {"lon": -77.04020983333334, "bike_id": "011b42b0d7502f0dfd46fb50f321a266", "lat": 38.915999166666666, "fusion_lon": 0.0, "fusion_lat": 0.0, "type": "electric_scooter", "name": "011b42b0d7502f0dfd46fb50f321a266", "is_disabled": 0, "rental_uris": {"ios": "https://dc.lft.to/lastmile_qr_scan", "android": "https://dc.lft.to/lastmile_qr_scan"}, "is_reserved": 0}, {"lon": -76.98834783333334, "bike_id": "43fa99a93ee2d40449551cbb485ce878", "lat": 38.900684166666665, "fusion_lon": 0.0, "fusion_lat": 0.0, "type": "electric_scooter", "name": "43fa99a93ee2d40449551cbb485ce878", "is_disabled": 0, "rental_uris": {"ios": "https://dc.lft.to/lastmile_qr_scan", "android": "https://dc.lft.to/lastmile_qr_scan"}, "is_reserved": 0}, {"lon": -77.04474716666667, "bike_id": "c893a159a3092af180c371f1b705cf92", "lat": 38.9153515, "fusion_lon": 0.0, "fusion_lat": 0.0, "type": "electric_scooter", "name": "c893a159a3092af180c371f1b705cf92", "is_disabled": 0, "rental_uris": {"ios": "https://dc.lft.to/lastmile_qr_scan", "android": "https://dc.lft.to/lastmile_qr_scan"}, "is_reserved": 0}, {"lon": -77.03869016666667, "bike_id": "33d1820f8aad414906a8a9b95e38070d", "lat": 38.91712883333334, "fusion_lon": 0.0, "fusion_lat": 0.0, "type": "electric_scooter", "name": "33d1820f8aad414906a8a9b95e38070d", "is_disabled": 0, "rental_uris": {"ios": "https://dc.lft.to/lastmile_qr_scan", "android": "https://dc.lft.to/lastmile_qr_scan"}, "is_reserved": 0}, {"lon": -77.0611145, "bike_id": "e392ed4fd334515ac7161cd0ff767e9d", "lat": 38.94351916666667, "fusion_lon": 0.0, "fusion_lat": 0.0, "type": "electric_scooter", "name": "e392ed4fd334515ac7161cd0ff767e9d", "is_disabled": 0, "rental_uris": {"ios": "https://dc.lft.to/lastmile_qr_scan", "android": "https://dc.lft.to/lastmile_qr_scan"}, "is_reserved": 0}, {"lon": -77.021765, "bike_id": "2422f165b668570f9501e6cc5981d5a0", "lat": 38.90190466666667, "fusion_lon": 0.0, "fusion_lat": 0.0, "type": "electric_scooter", "name": "2422f165b668570f9501e6cc5981d5a0", "is_disabled": 0, "rental_uris": {"ios": "https://dc.lft.to/lastmile_qr_scan", "android": "https://dc.lft.to/lastmile_qr_scan"}, "is_reserved": 0}, {"lon": -76.983724, "bike_id": "b390f5a242268d65c48471eef36afc9c", "lat": 38.891436666666664, "fusion_lon": 0.0, "fusion_lat": 0.0, "type": "electric_scooter", "name": "b390f5a242268d65c48471eef36afc9c", "is_disabled": 0, "rental_uris": {"ios": "https://dc.lft.to/lastmile_qr_scan", "android": "https://dc.lft.to/lastmile_qr_scan"}, "is_reserved": 0}, {"lon": -77.031792, "bike_id": "49de5f08a1949341e0c358c69a615855", "lat": 38.93606533333333, "fusion_lon": 0.0, "fusion_lat": 0.0, "type": "electric_scooter", "name": "49de5f08a1949341e0c358c69a615855", "is_disabled": 0, "rental_uris": {"ios": "https://dc.lft.to/lastmile_qr_scan", "android": "https://dc.lft.to/lastmile_qr_scan"}, "is_reserved": 0}, {"lon": -76.98568933333334, "bike_id": "06578b6dd17ecc750002e1f3f7612eeb", "lat": 38.89617416666667, "fusion_lon": 0.0, "fusion_lat": 0.0, "type": "electric_scooter", "name": "06578b6dd17ecc750002e1f3f7612eeb", "is_disabled": 0, "rental_uris": {"ios": "https://dc.lft.to/lastmile_qr_scan", "android": "https://dc.lft.to/lastmile_qr_scan"}, "is_reserved": 0}, {"lon": -77.00922583333333, "bike_id": "eb0faba094917278c19ce365906a2f6a", "lat": 38.9106465, "fusion_lon": 0.0, "fusion_lat": 0.0, "type": "electric_scooter", "name": "eb0faba094917278c19ce365906a2f6a", "is_disabled": 0, "rental_uris": {"ios": "https://dc.lft.to/lastmile_qr_scan", "android": "https://dc.lft.to/lastmile_qr_scan"}, "is_reserved": 0}, {"lon": -77.025681, "bike_id": "c5b3ebf69a4a69e97322c2f7f015862a", "lat": 38.90150333333333, "fusion_lon": 0.0, "fusion_lat": 0.0, "type": "electric_scooter", "name": "c5b3ebf69a4a69e97322c2f7f015862a", "is_disabled": 0, "rental_uris": {"ios": "https://dc.lft.to/lastmile_qr_scan", "android": "https://dc.lft.to/lastmile_qr_scan"}, "is_reserved": 0}, {"lon": -77.01662883333333, "bike_id": "8d305f633f7dfff7410f152cb326cb14", "lat": 38.88106466666667, "fusion_lon": 0.0, "fusion_lat": 0.0, "type": "electric_scooter", "name": "8d305f633f7dfff7410f152cb326cb14", "is_disabled": 0, "rental_uris": {"ios": "https://dc.lft.to/lastmile_qr_scan", "android": "https://dc.lft.to/lastmile_qr_scan"}, "is_reserved": 0}, {"lon": -77.02408616666666, "bike_id": "775cf32eb5b4292382a15c9cab70b8dd", "lat": 38.917024, "fusion_lon": 0.0, "fusion_lat": 0.0, "type": "electric_scooter", "name": "775cf32eb5b4292382a15c9cab70b8dd", "is_disabled": 0, "rental_uris": {"ios": "https://dc.lft.to/lastmile_qr_scan", "android": "https://dc.lft.to/lastmile_qr_scan"}, "is_reserved": 0}, {"lon": -77.03319833333333, "bike_id": "31d829d61f33c53448e43499b092126f", "lat": 38.914008333333335, "fusion_lon": 0.0, "fusion_lat": 0.0, "type": "electric_scooter", "name": "31d829d61f33c53448e43499b092126f", "is_disabled": 0, "rental_uris": {"ios": "https://dc.lft.to/lastmile_qr_scan", "android": "https://dc.lft.to/lastmile_qr_scan"}, "is_reserved": 0}, {"lon": -76.97651416666666, "bike_id": "bf6906f81c66c3e56609057a370745d0", "lat": 38.887757666666666, "fusion_lon": 0.0, "fusion_lat": 0.0, "type": "electric_scooter", "name": "bf6906f81c66c3e56609057a370745d0", "is_disabled": 0, "rental_uris": {"ios": "https://dc.lft.to/lastmile_qr_scan", "android": "https://dc.lft.to/lastmile_qr_scan"}, "is_reserved": 0}, {"lon": -77.03216283333333, "bike_id": "42fc40fb899b818764df575a590b88c3", "lat": 38.896719, "fusion_lon": 0.0, "fusion_lat": 0.0, "type": "electric_scooter", "name": "42fc40fb899b818764df575a590b88c3", "is_disabled": 0, "rental_uris": {"ios": "https://dc.lft.to/lastmile_qr_scan", "android": "https://dc.lft.to/lastmile_qr_scan"}, "is_reserved": 0}, {"lon": -77.03842866666666, "bike_id": "b607d73e9a2b07f547f5cb612025fee6", "lat": 38.91095133333334, "fusion_lon": 0.0, "fusion_lat": 0.0, "type": "electric_scooter", "name": "b607d73e9a2b07f547f5cb612025fee6", "is_disabled": 0, "rental_uris": {"ios": "https://dc.lft.to/lastmile_qr_scan", "android": "https://dc.lft.to/lastmile_qr_scan"}, "is_reserved": 0}, {"lon": -77.046341, "bike_id": "4e84c808125fa1954613aa48fd387b3e", "lat": 38.919092, "fusion_lon": 0.0, "fusion_lat": 0.0, "type": "electric_scooter", "name": "4e84c808125fa1954613aa48fd387b3e", "is_disabled": 0, "rental_uris": {"ios": "https://dc.lft.to/lastmile_qr_scan", "android": "https://dc.lft.to/lastmile_qr_scan"}, "is_reserved": 0}, {"lon": -76.94400766666666, "bike_id": "5613386b5f866904e2ee7d72acc599b0", "lat": 38.88138516666667, "fusion_lon": 0.0, "fusion_lat": 0.0, "type": "electric_scooter", "name": "5613386b5f866904e2ee7d72acc599b0", "is_disabled": 0, "rental_uris": {"ios": "https://dc.lft.to/lastmile_qr_scan", "android": "https://dc.lft.to/lastmile_qr_scan"}, "is_reserved": 0}, {"lon": -76.99353083333334, "bike_id": "076f2eb8578cc4c35d4111019eaa86fe", "lat": 38.8450545, "fusion_lon": 0.0, "fusion_lat": 0.0, "type": "electric_bike", "name": "076f2eb8578cc4c35d4111019eaa86fe", "is_disabled": 0, "rental_uris": {"ios": "https://dc.lft.to/lastmile_qr_scan", "android": "https://dc.lft.to/lastmile_qr_scan"}, "is_reserved": 0}, {"lon": -76.9951115, "bike_id": "ad490dd9a517de8ef4b9e78fd401e0ea", "lat": 38.883455166666664, "fusion_lon": 0.0, "fusion_lat": 0.0, "type": "electric_scooter", "name": "ad490dd9a517de8ef4b9e78fd401e0ea", "is_disabled": 0, "rental_uris": {"ios": "https://dc.lft.to/lastmile_qr_scan", "android": "https://dc.lft.to/lastmile_qr_scan"}, "is_reserved": 0}, {"lon": -77.022731, "bike_id": "4c3c970c209472d93b3e19a1fa3b1ae0", "lat": 38.92726366666667, "fusion_lon": 0.0, "fusion_lat": 0.0, "type": "electric_scooter", "name": "4c3c970c209472d93b3e19a1fa3b1ae0", "is_disabled": 0, "rental_uris": {"ios": "https://dc.lft.to/lastmile_qr_scan", "android": "https://dc.lft.to/lastmile_qr_scan"}, "is_reserved": 0}, {"lon": -77.04576083333333, "bike_id": "642c8307c0e193191bb4292e33b66ad5", "lat": 38.921209833333336, "fusion_lon": 0.0, "fusion_lat": 0.0, "type": "electric_scooter", "name": "642c8307c0e193191bb4292e33b66ad5", "is_disabled": 0, "rental_uris": {"ios": "https://dc.lft.to/lastmile_qr_scan", "android": "https://dc.lft.to/lastmile_qr_scan"}, "is_reserved": 0}, {"lon": -77.02186716666667, "bike_id": "365cda39b6dcc33b003d113997fefe0d", "lat": 38.900023, "fusion_lon": 0.0, "fusion_lat": 0.0, "type": "electric_scooter", "name": "365cda39b6dcc33b003d113997fefe0d", "is_disabled": 0, "rental_uris": {"ios": "https://dc.lft.to/lastmile_qr_scan", "android": "https://dc.lft.to/lastmile_qr_scan"}, "is_reserved": 0}, {"lon": -77.05267683333334, "bike_id": "e79e07f2e6e62bdde009a1281646002f", "lat": 38.92771583333333, "fusion_lon": 0.0, "fusion_lat": 0.0, "type": "electric_scooter", "name": "e79e07f2e6e62bdde009a1281646002f", "is_disabled": 0, "rental_uris": {"ios": "https://dc.lft.to/lastmile_qr_scan", "android": "https://dc.lft.to/lastmile_qr_scan"}, "is_reserved": 0}, {"lon": -77.00659183333333, "bike_id": "c1bb2c53ae78bfec2d15ca5f79a60cde", "lat": 38.900310833333336, "fusion_lon": 0.0, "fusion_lat": 0.0, "type": "electric_scooter", "name": "c1bb2c53ae78bfec2d15ca5f79a60cde", "is_disabled": 0, "rental_uris": {"ios": "https://dc.lft.to/lastmile_qr_scan", "android": "https://dc.lft.to/lastmile_qr_scan"}, "is_reserved": 0}, {"lon": -77.0330035, "bike_id": "307b96b1a36537bbb02284da98f3665c", "lat": 38.923615, "fusion_lon": 0.0, "fusion_lat": 0.0, "type": "electric_scooter", "name": "307b96b1a36537bbb02284da98f3665c", "is_disabled": 0, "rental_uris": {"ios": "https://dc.lft.to/lastmile_qr_scan", "android": "https://dc.lft.to/lastmile_qr_scan"}, "is_reserved": 0}, {"lon": -77.03372883333333, "bike_id": "07f5afef0e0e1bb47ff47bbc67e7d10e", "lat": 38.9215695, "fusion_lon": 0.0, "fusion_lat": 0.0, "type": "electric_scooter", "name": "07f5afef0e0e1bb47ff47bbc67e7d10e", "is_disabled": 0, "rental_uris": {"ios": "https://dc.lft.to/lastmile_qr_scan", "android": "https://dc.lft.to/lastmile_qr_scan"}, "is_reserved": 0}, {"lon": -76.981051, "bike_id": "33a9e3be680e9c940ae0ce70f6a5a39c", "lat": 38.87730783333333, "fusion_lon": 0.0, "fusion_lat": 0.0, "type": "electric_bike", "name": "33a9e3be680e9c940ae0ce70f6a5a39c", "is_disabled": 0, "rental_uris": {"ios": "https://dc.lft.to/lastmile_qr_scan", "android": "https://dc.lft.to/lastmile_qr_scan"}, "is_reserved": 0}, {"lon": -76.9978605, "bike_id": "72bf59d5ef03e0a0f21d807a22f8bfa6", "lat": 38.89088016666667, "fusion_lon": 0.0, "fusion_lat": 0.0, "type": "electric_scooter", "name": "72bf59d5ef03e0a0f21d807a22f8bfa6", "is_disabled": 0, "rental_uris": {"ios": "https://dc.lft.to/lastmile_qr_scan", "android": "https://dc.lft.to/lastmile_qr_scan"}, "is_reserved": 0}, {"lon": -77.02609716666667, "bike_id": "5a1f7210c04d77eea5166d23d0c11eeb", "lat": 38.929894833333336, "fusion_lon": 0.0, "fusion_lat": 0.0, "type": "electric_scooter", "name": "5a1f7210c04d77eea5166d23d0c11eeb", "is_disabled": 0, "rental_uris": {"ios": "https://dc.lft.to/lastmile_qr_scan", "android": "https://dc.lft.to/lastmile_qr_scan"}, "is_reserved": 0}, {"lon": -77.02162566666667, "bike_id": "99093f7ddd90793fa407ad9316016a62", "lat": 38.90965833333333, "fusion_lon": 0.0, "fusion_lat": 0.0, "type": "electric_scooter", "name": "99093f7ddd90793fa407ad9316016a62", "is_disabled": 0, "rental_uris": {"ios": "https://dc.lft.to/lastmile_qr_scan", "android": "https://dc.lft.to/lastmile_qr_scan"}, "is_reserved": 0}, {"lon": -76.98243633333334, "bike_id": "f7801a48e7005310206b949b40bf11f8", "lat": 38.864553, "fusion_lon": 0.0, "fusion_lat": 0.0, "type": "electric_scooter", "name": "f7801a48e7005310206b949b40bf11f8", "is_disabled": 0, "rental_uris": {"ios": "https://dc.lft.to/lastmile_qr_scan", "android": "https://dc.lft.to/lastmile_qr_scan"}, "is_reserved": 0}, {"lon": -77.05860933333334, "bike_id": "b49e06393a49ef972fa5c4332dd9bd11", "lat": 38.93606466666667, "fusion_lon": 0.0, "fusion_lat": 0.0, "type": "electric_scooter", "name": "b49e06393a49ef972fa5c4332dd9bd11", "is_disabled": 0, "rental_uris": {"ios": "https://dc.lft.to/lastmile_qr_scan", "android": "https://dc.lft.to/lastmile_qr_scan"}, "is_reserved": 0}, {"lon": -77.00593216666667, "bike_id": "52e7df3c59869f1cf8d89eef9ce54fab", "lat": 38.900325333333335, "fusion_lon": 0.0, "fusion_lat": 0.0, "type": "electric_scooter", "name": "52e7df3c59869f1cf8d89eef9ce54fab", "is_disabled": 0, "rental_uris": {"ios": "https://dc.lft.to/lastmile_qr_scan", "android": "https://dc.lft.to/lastmile_qr_scan"}, "is_reserved": 0}, {"lon": -77.04690983333333, "bike_id": "be3673785b81d1a52026a0c19dcf222a", "lat": 38.91891733333333, "fusion_lon": 0.0, "fusion_lat": 0.0, "type": "electric_scooter", "name": "be3673785b81d1a52026a0c19dcf222a", "is_disabled": 0, "rental_uris": {"ios": "https://dc.lft.to/lastmile_qr_scan", "android": "https://dc.lft.to/lastmile_qr_scan"}, "is_reserved": 0}, {"lon": -77.03063016666667, "bike_id": "a749a76ae96b2c5013efe8adef7a1d7b", "lat": 38.924682833333335, "fusion_lon": 0.0, "fusion_lat": 0.0, "type": "electric_scooter", "name": "a749a76ae96b2c5013efe8adef7a1d7b", "is_disabled": 0, "rental_uris": {"ios": "https://dc.lft.to/lastmile_qr_scan", "android": "https://dc.lft.to/lastmile_qr_scan"}, "is_reserved": 0}, {"lon": -77.00188033333333, "bike_id": "2986a10b56a050b1bc49f689eac6bcf0", "lat": 38.89472816666667, "fusion_lon": 0.0, "fusion_lat": 0.0, "type": "electric_scooter", "name": "2986a10b56a050b1bc49f689eac6bcf0", "is_disabled": 0, "rental_uris": {"ios": "https://dc.lft.to/lastmile_qr_scan", "android": "https://dc.lft.to/lastmile_qr_scan"}, "is_reserved": 0}, {"lon": -76.94915983333334, "bike_id": "7fff24eddbe11cca2080e674a64a438d", "lat": 38.89530966666667, "fusion_lon": 0.0, "fusion_lat": 0.0, "type": "electric_scooter", "name": "7fff24eddbe11cca2080e674a64a438d", "is_disabled": 0, "rental_uris": {"ios": "https://dc.lft.to/lastmile_qr_scan", "android": "https://dc.lft.to/lastmile_qr_scan"}, "is_reserved": 0}, {"lon": -77.001132, "bike_id": "5db98121209b65538dd1733934dca295", "lat": 38.919719666666666, "fusion_lon": 0.0, "fusion_lat": 0.0, "type": "electric_scooter", "name": "5db98121209b65538dd1733934dca295", "is_disabled": 0, "rental_uris": {"ios": "https://dc.lft.to/lastmile_qr_scan", "android": "https://dc.lft.to/lastmile_qr_scan"}, "is_reserved": 0}, {"lon": -77.01501633333334, "bike_id": "dcb906df44eedf764c2ed604555a8b4c", "lat": 38.9453405, "fusion_lon": 0.0, "fusion_lat": 0.0, "type": "electric_scooter", "name": "dcb906df44eedf764c2ed604555a8b4c", "is_disabled": 0, "rental_uris": {"ios": "https://dc.lft.to/lastmile_qr_scan", "android": "https://dc.lft.to/lastmile_qr_scan"}, "is_reserved": 0}, {"lon": -76.9855735, "bike_id": "54665e6ac6c226032bbb89b060397055", "lat": 38.9103135, "fusion_lon": 0.0, "fusion_lat": 0.0, "type": "electric_scooter", "name": "54665e6ac6c226032bbb89b060397055", "is_disabled": 0, "rental_uris": {"ios": "https://dc.lft.to/lastmile_qr_scan", "android": "https://dc.lft.to/lastmile_qr_scan"}, "is_reserved": 0}, {"lon": -77.04007633333333, "bike_id": "6fcb297772ff313296c54aee4bc71e47", "lat": 38.90999866666667, "fusion_lon": 0.0, "fusion_lat": 0.0, "type": "electric_scooter", "name": "6fcb297772ff313296c54aee4bc71e47", "is_disabled": 0, "rental_uris": {"ios": "https://dc.lft.to/lastmile_qr_scan", "android": "https://dc.lft.to/lastmile_qr_scan"}, "is_reserved": 0}, {"lon": -77.06288666666667, "bike_id": "9a15da37a2f0ed84bcdbc11d3dd65fa3", "lat": 38.905492, "fusion_lon": 0.0, "fusion_lat": 0.0, "type": "electric_scooter", "name": "9a15da37a2f0ed84bcdbc11d3dd65fa3", "is_disabled": 0, "rental_uris": {"ios": "https://dc.lft.to/lastmile_qr_scan", "android": "https://dc.lft.to/lastmile_qr_scan"}, "is_reserved": 0}, {"lon": -77.03296233333333, "bike_id": "cd2ef24e2bb79fb7fb5723261a7bd078", "lat": 38.925495833333336, "fusion_lon": 0.0, "fusion_lat": 0.0, "type": "electric_scooter", "name": "cd2ef24e2bb79fb7fb5723261a7bd078", "is_disabled": 0, "rental_uris": {"ios": "https://dc.lft.to/lastmile_qr_scan", "android": "https://dc.lft.to/lastmile_qr_scan"}, "is_reserved": 0}, {"lon": -77.0444015, "bike_id": "f15757622c26d7dec6ed0607c31ceefb", "lat": 38.92167083333333, "fusion_lon": 0.0, "fusion_lat": 0.0, "type": "electric_scooter", "name": "f15757622c26d7dec6ed0607c31ceefb", "is_disabled": 0, "rental_uris": {"ios": "https://dc.lft.to/lastmile_qr_scan", "android": "https://dc.lft.to/lastmile_qr_scan"}, "is_reserved": 0}, {"lon": -76.977275, "bike_id": "52e8e3bb2bbc2fb0a85a184120f6fd49", "lat": 38.872892, "fusion_lon": 0.0, "fusion_lat": 0.0, "type": "electric_scooter", "name": "52e8e3bb2bbc2fb0a85a184120f6fd49", "is_disabled": 0, "rental_uris": {"ios": "https://dc.lft.to/lastmile_qr_scan", "android": "https://dc.lft.to/lastmile_qr_scan"}, "is_reserved": 0}, {"lon": -77.03057033333333, "bike_id": "352dff81d612b8472ff0410bcf39f904", "lat": 38.9125645, "fusion_lon": 0.0, "fusion_lat": 0.0, "type": "electric_scooter", "name": "352dff81d612b8472ff0410bcf39f904", "is_disabled": 0, "rental_uris": {"ios": "https://dc.lft.to/lastmile_qr_scan", "android": "https://dc.lft.to/lastmile_qr_scan"}, "is_reserved": 0}, {"lon": -77.02798983333334, "bike_id": "bf5fe152eb7084a742ba778505b6ecd2", "lat": 38.93537933333333, "fusion_lon": 0.0, "fusion_lat": 0.0, "type": "electric_scooter", "name": "bf5fe152eb7084a742ba778505b6ecd2", "is_disabled": 0, "rental_uris": {"ios": "https://dc.lft.to/lastmile_qr_scan", "android": "https://dc.lft.to/lastmile_qr_scan"}, "is_reserved": 0}, {"lon": -77.03202366666666, "bike_id": "119445d0a96341c0ecb205ebd368f107", "lat": 38.93967766666667, "fusion_lon": 0.0, "fusion_lat": 0.0, "type": "electric_scooter", "name": "119445d0a96341c0ecb205ebd368f107", "is_disabled": 0, "rental_uris": {"ios": "https://dc.lft.to/lastmile_qr_scan", "android": "https://dc.lft.to/lastmile_qr_scan"}, "is_reserved": 0}, {"lon": -76.99060633333333, "bike_id": "252bfbfe85aefb2387c948d77dee9baf", "lat": 38.863617166666664, "fusion_lon": 0.0, "fusion_lat": 0.0, "type": "electric_scooter", "name": "252bfbfe85aefb2387c948d77dee9baf", "is_disabled": 0, "rental_uris": {"ios": "https://dc.lft.to/lastmile_qr_scan", "android": "https://dc.lft.to/lastmile_qr_scan"}, "is_reserved": 0}, {"lon": -77.0291525, "bike_id": "0daae290c4c6b2a25227529d3d88c918", "lat": 38.92367333333333, "fusion_lon": 0.0, "fusion_lat": 0.0, "type": "electric_scooter", "name": "0daae290c4c6b2a25227529d3d88c918", "is_disabled": 0, "rental_uris": {"ios": "https://dc.lft.to/lastmile_qr_scan", "android": "https://dc.lft.to/lastmile_qr_scan"}, "is_reserved": 0}, {"lon": -77.04426916666667, "bike_id": "53575bd70440078c54400f6e7cf2f4c6", "lat": 38.92126866666667, "fusion_lon": 0.0, "fusion_lat": 0.0, "type": "electric_scooter", "name": "53575bd70440078c54400f6e7cf2f4c6", "is_disabled": 0, "rental_uris": {"ios": "https://dc.lft.to/lastmile_qr_scan", "android": "https://dc.lft.to/lastmile_qr_scan"}, "is_reserved": 0}, {"lon": -77.014094, "bike_id": "3b57ffbebb8cd1ec589fca5c31f069ca", "lat": 38.928237833333334, "fusion_lon": 0.0, "fusion_lat": 0.0, "type": "electric_scooter", "name": "3b57ffbebb8cd1ec589fca5c31f069ca", "is_disabled": 0, "rental_uris": {"ios": "https://dc.lft.to/lastmile_qr_scan", "android": "https://dc.lft.to/lastmile_qr_scan"}, "is_reserved": 0}, {"lon": -77.025133, "bike_id": "482087145bfa16299d83e9001323103d", "lat": 38.90413933333333, "fusion_lon": 0.0, "fusion_lat": 0.0, "type": "electric_scooter", "name": "482087145bfa16299d83e9001323103d", "is_disabled": 0, "rental_uris": {"ios": "https://dc.lft.to/lastmile_qr_scan", "android": "https://dc.lft.to/lastmile_qr_scan"}, "is_reserved": 0}, {"lon": -76.99540766666667, "bike_id": "43519daa0343c39767c2530ed2e3cfb5", "lat": 38.862608, "fusion_lon": 0.0, "fusion_lat": 0.0, "type": "electric_scooter", "name": "43519daa0343c39767c2530ed2e3cfb5", "is_disabled": 0, "rental_uris": {"ios": "https://dc.lft.to/lastmile_qr_scan", "android": "https://dc.lft.to/lastmile_qr_scan"}, "is_reserved": 0}, {"lon": -77.00057933333333, "bike_id": "38e0839c8d3b6540d1cd3979482072a3", "lat": 38.908738, "fusion_lon": 0.0, "fusion_lat": 0.0, "type": "electric_scooter", "name": "38e0839c8d3b6540d1cd3979482072a3", "is_disabled": 0, "rental_uris": {"ios": "https://dc.lft.to/lastmile_qr_scan", "android": "https://dc.lft.to/lastmile_qr_scan"}, "is_reserved": 0}, {"lon": -77.0482455, "bike_id": "4d1da804d668c08ebbb7f63d780ef5a5", "lat": 38.916266666666665, "fusion_lon": 0.0, "fusion_lat": 0.0, "type": "electric_scooter", "name": "4d1da804d668c08ebbb7f63d780ef5a5", "is_disabled": 0, "rental_uris": {"ios": "https://dc.lft.to/lastmile_qr_scan", "android": "https://dc.lft.to/lastmile_qr_scan"}, "is_reserved": 0}, {"lon": -76.99123216666666, "bike_id": "6aa504b09b446a82ca5a2c2183412961", "lat": 38.92268333333333, "fusion_lon": 0.0, "fusion_lat": 0.0, "type": "electric_scooter", "name": "6aa504b09b446a82ca5a2c2183412961", "is_disabled": 0, "rental_uris": {"ios": "https://dc.lft.to/lastmile_qr_scan", "android": "https://dc.lft.to/lastmile_qr_scan"}, "is_reserved": 0}, {"lon": -77.02668833333334, "bike_id": "4ad798f5daa9cdd79c2dcdcb6635bbff", "lat": 38.984515333333334, "fusion_lon": 0.0, "fusion_lat": 0.0, "type": "electric_scooter", "name": "4ad798f5daa9cdd79c2dcdcb6635bbff", "is_disabled": 0, "rental_uris": {"ios": "https://dc.lft.to/lastmile_qr_scan", "android": "https://dc.lft.to/lastmile_qr_scan"}, "is_reserved": 0}, {"lon": -77.0281295, "bike_id": "d52646af7daa17a1a098a2c05f6635b6", "lat": 38.8817245, "fusion_lon": 0.0, "fusion_lat": 0.0, "type": "electric_scooter", "name": "d52646af7daa17a1a098a2c05f6635b6", "is_disabled": 0, "rental_uris": {"ios": "https://dc.lft.to/lastmile_qr_scan", "android": "https://dc.lft.to/lastmile_qr_scan"}, "is_reserved": 0}, {"lon": -77.023613, "bike_id": "39a82146b3c7e0191b42fa494787335a", "lat": 38.9018885, "fusion_lon": 0.0, "fusion_lat": 0.0, "type": "electric_scooter", "name": "39a82146b3c7e0191b42fa494787335a", "is_disabled": 0, "rental_uris": {"ios": "https://dc.lft.to/lastmile_qr_scan", "android": "https://dc.lft.to/lastmile_qr_scan"}, "is_reserved": 0}, {"lon": -77.01999916666666, "bike_id": "ea22b266576f359d0c7eb6ab024a6e2f", "lat": 38.904467833333335, "fusion_lon": 0.0, "fusion_lat": 0.0, "type": "electric_scooter", "name": "ea22b266576f359d0c7eb6ab024a6e2f", "is_disabled": 0, "rental_uris": {"ios": "https://dc.lft.to/lastmile_qr_scan", "android": "https://dc.lft.to/lastmile_qr_scan"}, "is_reserved": 0}, {"lon": -77.03257983333333, "bike_id": "2470bd6a4c6fa85e8638b79886965f8b", "lat": 38.942704, "fusion_lon": 0.0, "fusion_lat": 0.0, "type": "electric_scooter", "name": "2470bd6a4c6fa85e8638b79886965f8b", "is_disabled": 0, "rental_uris": {"ios": "https://dc.lft.to/lastmile_qr_scan", "android": "https://dc.lft.to/lastmile_qr_scan"}, "is_reserved": 0}, {"lon": -77.03692633333333, "bike_id": "c6fa9e101cdd431eff84622934e88eec", "lat": 38.936368, "fusion_lon": 0.0, "fusion_lat": 0.0, "type": "electric_bike", "name": "c6fa9e101cdd431eff84622934e88eec", "is_disabled": 0, "rental_uris": {"ios": "https://dc.lft.to/lastmile_qr_scan", "android": "https://dc.lft.to/lastmile_qr_scan"}, "is_reserved": 0}, {"lon": -77.02980516666666, "bike_id": "9c6c24bd0d1266ce7d928c5406041d0f", "lat": 38.921982, "fusion_lon": 0.0, "fusion_lat": 0.0, "type": "electric_scooter", "name": "9c6c24bd0d1266ce7d928c5406041d0f", "is_disabled": 0, "rental_uris": {"ios": "https://dc.lft.to/lastmile_qr_scan", "android": "https://dc.lft.to/lastmile_qr_scan"}, "is_reserved": 0}, {"lon": -76.98708733333333, "bike_id": "92bdf06a0053d883adab061c3499c1ad", "lat": 38.9000635, "fusion_lon": 0.0, "fusion_lat": 0.0, "type": "electric_scooter", "name": "92bdf06a0053d883adab061c3499c1ad", "is_disabled": 0, "rental_uris": {"ios": "https://dc.lft.to/lastmile_qr_scan", "android": "https://dc.lft.to/lastmile_qr_scan"}, "is_reserved": 0}, {"lon": -77.012239, "bike_id": "36c863d115c6d206d3b05bc4ec8bdef0", "lat": 38.91437366666667, "fusion_lon": 0.0, "fusion_lat": 0.0, "type": "electric_scooter", "name": "36c863d115c6d206d3b05bc4ec8bdef0", "is_disabled": 0, "rental_uris": {"ios": "https://dc.lft.to/lastmile_qr_scan", "android": "https://dc.lft.to/lastmile_qr_scan"}, "is_reserved": 0}, {"lon": -76.963873, "bike_id": "3f12f63b4409846ee51e58ce5cf1ce33", "lat": 38.95178716666667, "fusion_lon": 0.0, "fusion_lat": 0.0, "type": "electric_bike", "name": "3f12f63b4409846ee51e58ce5cf1ce33", "is_disabled": 0, "rental_uris": {"ios": "https://dc.lft.to/lastmile_qr_scan", "android": "https://dc.lft.to/lastmile_qr_scan"}, "is_reserved": 0}, {"lon": -77.03436516666666, "bike_id": "4dab061e582af1aae61878f753315c7f", "lat": 38.902743, "fusion_lon": 0.0, "fusion_lat": 0.0, "type": "electric_scooter", "name": "4dab061e582af1aae61878f753315c7f", "is_disabled": 0, "rental_uris": {"ios": "https://dc.lft.to/lastmile_qr_scan", "android": "https://dc.lft.to/lastmile_qr_scan"}, "is_reserved": 0}, {"lon": -77.02442283333333, "bike_id": "41b418c3e6caf25bd259322b6736a8fd", "lat": 38.9249345, "fusion_lon": 0.0, "fusion_lat": 0.0, "type": "electric_scooter", "name": "41b418c3e6caf25bd259322b6736a8fd", "is_disabled": 0, "rental_uris": {"ios": "https://dc.lft.to/lastmile_qr_scan", "android": "https://dc.lft.to/lastmile_qr_scan"}, "is_reserved": 0}, {"lon": -77.03360033333334, "bike_id": "70adf3ebc47dfb2e6e7085d48205fdfb", "lat": 38.9357735, "fusion_lon": 0.0, "fusion_lat": 0.0, "type": "electric_scooter", "name": "70adf3ebc47dfb2e6e7085d48205fdfb", "is_disabled": 0, "rental_uris": {"ios": "https://dc.lft.to/lastmile_qr_scan", "android": "https://dc.lft.to/lastmile_qr_scan"}, "is_reserved": 0}, {"lon": -76.99613683333334, "bike_id": "8c1689628fae29655a743a3bcffce853", "lat": 38.89466616666667, "fusion_lon": 0.0, "fusion_lat": 0.0, "type": "electric_scooter", "name": "8c1689628fae29655a743a3bcffce853", "is_disabled": 0, "rental_uris": {"ios": "https://dc.lft.to/lastmile_qr_scan", "android": "https://dc.lft.to/lastmile_qr_scan"}, "is_reserved": 0}, {"lon": -77.04117683333334, "bike_id": "e76e6a68ba377d022a8b00a7de586d98", "lat": 38.93467533333333, "fusion_lon": 0.0, "fusion_lat": 0.0, "type": "electric_scooter", "name": "e76e6a68ba377d022a8b00a7de586d98", "is_disabled": 0, "rental_uris": {"ios": "https://dc.lft.to/lastmile_qr_scan", "android": "https://dc.lft.to/lastmile_qr_scan"}, "is_reserved": 0}, {"lon": -77.02653883333333, "bike_id": "1b61111105c95e848eb7f3ab4e8e3c8f", "lat": 38.97814783333333, "fusion_lon": 0.0, "fusion_lat": 0.0, "type": "electric_scooter", "name": "1b61111105c95e848eb7f3ab4e8e3c8f", "is_disabled": 0, "rental_uris": {"ios": "https://dc.lft.to/lastmile_qr_scan", "android": "https://dc.lft.to/lastmile_qr_scan"}, "is_reserved": 0}, {"lon": -76.97711166666667, "bike_id": "eff3d9a4ede44770f4cf5b952feb1144", "lat": 38.88774866666667, "fusion_lon": 0.0, "fusion_lat": 0.0, "type": "electric_scooter", "name": "eff3d9a4ede44770f4cf5b952feb1144", "is_disabled": 0, "rental_uris": {"ios": "https://dc.lft.to/lastmile_qr_scan", "android": "https://dc.lft.to/lastmile_qr_scan"}, "is_reserved": 0}, {"lon": -76.97873666666666, "bike_id": "55592426bdecec8b281c825f8fe181ec", "lat": 38.8830615, "fusion_lon": 0.0, "fusion_lat": 0.0, "type": "electric_scooter", "name": "55592426bdecec8b281c825f8fe181ec", "is_disabled": 0, "rental_uris": {"ios": "https://dc.lft.to/lastmile_qr_scan", "android": "https://dc.lft.to/lastmile_qr_scan"}, "is_reserved": 0}, {"lon": -77.04468433333334, "bike_id": "d6b81d03a3f9242394d0261c58c6421f", "lat": 38.918915166666665, "fusion_lon": 0.0, "fusion_lat": 0.0, "type": "electric_scooter", "name": "d6b81d03a3f9242394d0261c58c6421f", "is_disabled": 0, "rental_uris": {"ios": "https://dc.lft.to/lastmile_qr_scan", "android": "https://dc.lft.to/lastmile_qr_scan"}, "is_reserved": 0}, {"lon": -77.01353033333334, "bike_id": "1969078e38d2fd9de32d4c021b4d80a2", "lat": 38.8971575, "fusion_lon": 0.0, "fusion_lat": 0.0, "type": "electric_scooter", "name": "1969078e38d2fd9de32d4c021b4d80a2", "is_disabled": 0, "rental_uris": {"ios": "https://dc.lft.to/lastmile_qr_scan", "android": "https://dc.lft.to/lastmile_qr_scan"}, "is_reserved": 0}, {"lon": -77.08774116666666, "bike_id": "22406a3afbf2576f7de43242a2b389ab", "lat": 38.838952, "fusion_lon": 0.0, "fusion_lat": 0.0, "type": "electric_bike", "name": "22406a3afbf2576f7de43242a2b389ab", "is_disabled": 0, "rental_uris": {"ios": "https://dc.lft.to/lastmile_qr_scan", "android": "https://dc.lft.to/lastmile_qr_scan"}, "is_reserved": 0}, {"lon": -77.045068, "bike_id": "a5ef93224c83f7561393fd235bc3ecf8", "lat": 38.9034695, "fusion_lon": 0.0, "fusion_lat": 0.0, "type": "electric_scooter", "name": "a5ef93224c83f7561393fd235bc3ecf8", "is_disabled": 0, "rental_uris": {"ios": "https://dc.lft.to/lastmile_qr_scan", "android": "https://dc.lft.to/lastmile_qr_scan"}, "is_reserved": 0}, {"lon": -77.007955, "bike_id": "892741f102db7bb5508b503bfb346b52", "lat": 38.896444833333334, "fusion_lon": 0.0, "fusion_lat": 0.0, "type": "electric_scooter", "name": "892741f102db7bb5508b503bfb346b52", "is_disabled": 0, "rental_uris": {"ios": "https://dc.lft.to/lastmile_qr_scan", "android": "https://dc.lft.to/lastmile_qr_scan"}, "is_reserved": 0}, {"lon": -77.02848316666666, "bike_id": "5743c1032e7af2d0e25e4be4fed02adc", "lat": 38.92763633333333, "fusion_lon": 0.0, "fusion_lat": 0.0, "type": "electric_scooter", "name": "5743c1032e7af2d0e25e4be4fed02adc", "is_disabled": 0, "rental_uris": {"ios": "https://dc.lft.to/lastmile_qr_scan", "android": "https://dc.lft.to/lastmile_qr_scan"}, "is_reserved": 0}, {"lon": -76.98344516666667, "bike_id": "ff477278a2db50a053a22f4debaad443", "lat": 38.904553166666666, "fusion_lon": 0.0, "fusion_lat": 0.0, "type": "electric_scooter", "name": "ff477278a2db50a053a22f4debaad443", "is_disabled": 0, "rental_uris": {"ios": "https://dc.lft.to/lastmile_qr_scan", "android": "https://dc.lft.to/lastmile_qr_scan"}, "is_reserved": 0}, {"lon": -77.05105983333333, "bike_id": "1f32ff7c98a8863dcdc9ce755086f471", "lat": 38.923029666666665, "fusion_lon": 0.0, "fusion_lat": 0.0, "type": "electric_scooter", "name": "1f32ff7c98a8863dcdc9ce755086f471", "is_disabled": 0, "rental_uris": {"ios": "https://dc.lft.to/lastmile_qr_scan", "android": "https://dc.lft.to/lastmile_qr_scan"}, "is_reserved": 0}, {"lon": -77.0131295, "bike_id": "cb63e7408266ec1dcbaa20a449d716d2", "lat": 38.907362666666664, "fusion_lon": 0.0, "fusion_lat": 0.0, "type": "electric_scooter", "name": "cb63e7408266ec1dcbaa20a449d716d2", "is_disabled": 0, "rental_uris": {"ios": "https://dc.lft.to/lastmile_qr_scan", "android": "https://dc.lft.to/lastmile_qr_scan"}, "is_reserved": 0}, {"lon": -77.00555183333333, "bike_id": "c8da1cf603a37eaaa8b08c15e6fb30f4", "lat": 38.887554, "fusion_lon": 0.0, "fusion_lat": 0.0, "type": "electric_scooter", "name": "c8da1cf603a37eaaa8b08c15e6fb30f4", "is_disabled": 0, "rental_uris": {"ios": "https://dc.lft.to/lastmile_qr_scan", "android": "https://dc.lft.to/lastmile_qr_scan"}, "is_reserved": 0}, {"lon": -77.0258, "bike_id": "29c07f4b63ed39983da246727c7a2c5a", "lat": 38.9140735, "fusion_lon": 0.0, "fusion_lat": 0.0, "type": "electric_scooter", "name": "29c07f4b63ed39983da246727c7a2c5a", "is_disabled": 0, "rental_uris": {"ios": "https://dc.lft.to/lastmile_qr_scan", "android": "https://dc.lft.to/lastmile_qr_scan"}, "is_reserved": 0}, {"lon": -77.01083583333333, "bike_id": "84c2396a51c8e60e1ec55bf2ef7be595", "lat": 38.86668233333333, "fusion_lon": 0.0, "fusion_lat": 0.0, "type": "electric_scooter", "name": "84c2396a51c8e60e1ec55bf2ef7be595", "is_disabled": 0, "rental_uris": {"ios": "https://dc.lft.to/lastmile_qr_scan", "android": "https://dc.lft.to/lastmile_qr_scan"}, "is_reserved": 0}, {"lon": -77.03976, "bike_id": "922910f0e9e7daa1ecb2f74fed7e28d2", "lat": 38.920813833333334, "fusion_lon": 0.0, "fusion_lat": 0.0, "type": "electric_scooter", "name": "922910f0e9e7daa1ecb2f74fed7e28d2", "is_disabled": 0, "rental_uris": {"ios": "https://dc.lft.to/lastmile_qr_scan", "android": "https://dc.lft.to/lastmile_qr_scan"}, "is_reserved": 0}, {"lon": -77.026381, "bike_id": "67b7f4f31e79de1f9bfa5d5c22301be3", "lat": 38.904238666666664, "fusion_lon": 0.0, "fusion_lat": 0.0, "type": "electric_scooter", "name": "67b7f4f31e79de1f9bfa5d5c22301be3", "is_disabled": 0, "rental_uris": {"ios": "https://dc.lft.to/lastmile_qr_scan", "android": "https://dc.lft.to/lastmile_qr_scan"}, "is_reserved": 0}, {"lon": -77.00308883333334, "bike_id": "e4e1833da7e1ce2454b23c859f05f3b4", "lat": 38.89488816666667, "fusion_lon": 0.0, "fusion_lat": 0.0, "type": "electric_scooter", "name": "e4e1833da7e1ce2454b23c859f05f3b4", "is_disabled": 0, "rental_uris": {"ios": "https://dc.lft.to/lastmile_qr_scan", "android": "https://dc.lft.to/lastmile_qr_scan"}, "is_reserved": 0}, {"lon": -77.01113383333333, "bike_id": "605a0ebb83d849042f3ac84cf7ed4870", "lat": 38.90350566666667, "fusion_lon": 0.0, "fusion_lat": 0.0, "type": "electric_scooter", "name": "605a0ebb83d849042f3ac84cf7ed4870", "is_disabled": 0, "rental_uris": {"ios": "https://dc.lft.to/lastmile_qr_scan", "android": "https://dc.lft.to/lastmile_qr_scan"}, "is_reserved": 0}, {"lon": -77.03886783333333, "bike_id": "ee15e4adbe99eae60b576f2df5558d03", "lat": 38.9251905, "fusion_lon": 0.0, "fusion_lat": 0.0, "type": "electric_scooter", "name": "ee15e4adbe99eae60b576f2df5558d03", "is_disabled": 0, "rental_uris": {"ios": "https://dc.lft.to/lastmile_qr_scan", "android": "https://dc.lft.to/lastmile_qr_scan"}, "is_reserved": 0}, {"lon": -77.08509433333333, "bike_id": "643de483efb7c70e093c5f29ce4c0d4c", "lat": 38.95932033333333, "fusion_lon": 0.0, "fusion_lat": 0.0, "type": "electric_scooter", "name": "643de483efb7c70e093c5f29ce4c0d4c", "is_disabled": 0, "rental_uris": {"ios": "https://dc.lft.to/lastmile_qr_scan", "android": "https://dc.lft.to/lastmile_qr_scan"}, "is_reserved": 0}, {"lon": -77.02007983333333, "bike_id": "2d937e83604c2e2b397a89a7145a7187", "lat": 38.924149166666666, "fusion_lon": 0.0, "fusion_lat": 0.0, "type": "electric_scooter", "name": "2d937e83604c2e2b397a89a7145a7187", "is_disabled": 0, "rental_uris": {"ios": "https://dc.lft.to/lastmile_qr_scan", "android": "https://dc.lft.to/lastmile_qr_scan"}, "is_reserved": 0}, {"lon": -77.02488066666666, "bike_id": "597d94b045a0331e41f88ab3645a2381", "lat": 38.907287333333336, "fusion_lon": 0.0, "fusion_lat": 0.0, "type": "electric_scooter", "name": "597d94b045a0331e41f88ab3645a2381", "is_disabled": 0, "rental_uris": {"ios": "https://dc.lft.to/lastmile_qr_scan", "android": "https://dc.lft.to/lastmile_qr_scan"}, "is_reserved": 0}, {"lon": -77.0414525, "bike_id": "06773db530fc09c278055de463abd560", "lat": 38.9062295, "fusion_lon": 0.0, "fusion_lat": 0.0, "type": "electric_scooter", "name": "06773db530fc09c278055de463abd560", "is_disabled": 0, "rental_uris": {"ios": "https://dc.lft.to/lastmile_qr_scan", "android": "https://dc.lft.to/lastmile_qr_scan"}, "is_reserved": 0}, {"lon": -77.0303985, "bike_id": "e081f3ccfeb7dcd2c20e0af9d6382424", "lat": 38.878347833333336, "fusion_lon": 0.0, "fusion_lat": 0.0, "type": "electric_scooter", "name": "e081f3ccfeb7dcd2c20e0af9d6382424", "is_disabled": 0, "rental_uris": {"ios": "https://dc.lft.to/lastmile_qr_scan", "android": "https://dc.lft.to/lastmile_qr_scan"}, "is_reserved": 0}, {"lon": -77.01815933333333, "bike_id": "c204f13523d01b9b206e31dbae90ef06", "lat": 38.9236615, "fusion_lon": 0.0, "fusion_lat": 0.0, "type": "electric_scooter", "name": "c204f13523d01b9b206e31dbae90ef06", "is_disabled": 0, "rental_uris": {"ios": "https://dc.lft.to/lastmile_qr_scan", "android": "https://dc.lft.to/lastmile_qr_scan"}, "is_reserved": 0}, {"lon": -77.023258, "bike_id": "c5688f474eedf6ef7dcc687d2a96e222", "lat": 38.90733216666667, "fusion_lon": 0.0, "fusion_lat": 0.0, "type": "electric_scooter", "name": "c5688f474eedf6ef7dcc687d2a96e222", "is_disabled": 0, "rental_uris": {"ios": "https://dc.lft.to/lastmile_qr_scan", "android": "https://dc.lft.to/lastmile_qr_scan"}, "is_reserved": 0}, {"lon": -77.02172066666667, "bike_id": "2601c803919fea57b9a7d786e5199d84", "lat": 38.9429125, "fusion_lon": 0.0, "fusion_lat": 0.0, "type": "electric_scooter", "name": "2601c803919fea57b9a7d786e5199d84", "is_disabled": 0, "rental_uris": {"ios": "https://dc.lft.to/lastmile_qr_scan", "android": "https://dc.lft.to/lastmile_qr_scan"}, "is_reserved": 0}, {"lon": -76.94633466666667, "bike_id": "c6a2131cd9e64ff88a4cd3d71fddf1d6", "lat": 38.89834316666666, "fusion_lon": 0.0, "fusion_lat": 0.0, "type": "electric_scooter", "name": "c6a2131cd9e64ff88a4cd3d71fddf1d6", "is_disabled": 0, "rental_uris": {"ios": "https://dc.lft.to/lastmile_qr_scan", "android": "https://dc.lft.to/lastmile_qr_scan"}, "is_reserved": 0}, {"lon": -77.07669683333333, "bike_id": "d6a02bb32e17732c6085dcfeb51eaf1f", "lat": 38.943245166666664, "fusion_lon": 0.0, "fusion_lat": 0.0, "type": "electric_scooter", "name": "d6a02bb32e17732c6085dcfeb51eaf1f", "is_disabled": 0, "rental_uris": {"ios": "https://dc.lft.to/lastmile_qr_scan", "android": "https://dc.lft.to/lastmile_qr_scan"}, "is_reserved": 0}, {"lon": -77.03945816666666, "bike_id": "043df50d8733be7858e39f4e9e87eafc", "lat": 38.919439, "fusion_lon": 0.0, "fusion_lat": 0.0, "type": "electric_scooter", "name": "043df50d8733be7858e39f4e9e87eafc", "is_disabled": 0, "rental_uris": {"ios": "https://dc.lft.to/lastmile_qr_scan", "android": "https://dc.lft.to/lastmile_qr_scan"}, "is_reserved": 0}, {"lon": -76.99856183333333, "bike_id": "7b857e9b6bec4bbfb5828841bf1fca16", "lat": 38.90771983333333, "fusion_lon": 0.0, "fusion_lat": 0.0, "type": "electric_scooter", "name": "7b857e9b6bec4bbfb5828841bf1fca16", "is_disabled": 0, "rental_uris": {"ios": "https://dc.lft.to/lastmile_qr_scan", "android": "https://dc.lft.to/lastmile_qr_scan"}, "is_reserved": 0}, {"lon": -77.05623083333333, "bike_id": "a621698f4900d3d7aaf3dd22642d2be5", "lat": 38.923339666666664, "fusion_lon": 0.0, "fusion_lat": 0.0, "type": "electric_scooter", "name": "a621698f4900d3d7aaf3dd22642d2be5", "is_disabled": 0, "rental_uris": {"ios": "https://dc.lft.to/lastmile_qr_scan", "android": "https://dc.lft.to/lastmile_qr_scan"}, "is_reserved": 0}, {"lon": -77.0234515, "bike_id": "5037657257dd94a257ca4ddf339b42a5", "lat": 38.922500166666666, "fusion_lon": 0.0, "fusion_lat": 0.0, "type": "electric_scooter", "name": "5037657257dd94a257ca4ddf339b42a5", "is_disabled": 0, "rental_uris": {"ios": "https://dc.lft.to/lastmile_qr_scan", "android": "https://dc.lft.to/lastmile_qr_scan"}, "is_reserved": 0}, {"lon": -76.96530833333334, "bike_id": "0150a2a0d6cbd9987f2b24e873a1c074", "lat": 38.874770166666664, "fusion_lon": 0.0, "fusion_lat": 0.0, "type": "electric_scooter", "name": "0150a2a0d6cbd9987f2b24e873a1c074", "is_disabled": 0, "rental_uris": {"ios": "https://dc.lft.to/lastmile_qr_scan", "android": "https://dc.lft.to/lastmile_qr_scan"}, "is_reserved": 0}, {"lon": -77.042483, "bike_id": "30fb2c71d78f01ef13c59adbfca27c90", "lat": 38.906446333333335, "fusion_lon": 0.0, "fusion_lat": 0.0, "type": "electric_scooter", "name": "30fb2c71d78f01ef13c59adbfca27c90", "is_disabled": 0, "rental_uris": {"ios": "https://dc.lft.to/lastmile_qr_scan", "android": "https://dc.lft.to/lastmile_qr_scan"}, "is_reserved": 0}, {"lon": -77.00933083333334, "bike_id": "f108d02b5e7e854fb63d75412dc2d780", "lat": 38.89646783333333, "fusion_lon": 0.0, "fusion_lat": 0.0, "type": "electric_scooter", "name": "f108d02b5e7e854fb63d75412dc2d780", "is_disabled": 0, "rental_uris": {"ios": "https://dc.lft.to/lastmile_qr_scan", "android": "https://dc.lft.to/lastmile_qr_scan"}, "is_reserved": 0}, {"lon": -77.045565, "bike_id": "10aab3cad4d18993af92a897e7d1b606", "lat": 38.9192275, "fusion_lon": 0.0, "fusion_lat": 0.0, "type": "electric_scooter", "name": "10aab3cad4d18993af92a897e7d1b606", "is_disabled": 0, "rental_uris": {"ios": "https://dc.lft.to/lastmile_qr_scan", "android": "https://dc.lft.to/lastmile_qr_scan"}, "is_reserved": 0}, {"lon": -76.992031, "bike_id": "dce480b35452f73bf4522b39a5fcb08c", "lat": 38.89827583333334, "fusion_lon": 0.0, "fusion_lat": 0.0, "type": "electric_scooter", "name": "dce480b35452f73bf4522b39a5fcb08c", "is_disabled": 0, "rental_uris": {"ios": "https://dc.lft.to/lastmile_qr_scan", "android": "https://dc.lft.to/lastmile_qr_scan"}, "is_reserved": 0}, {"lon": -77.01811583333334, "bike_id": "006370e8e7d75bef07e79dd5b437f90c", "lat": 38.92026, "fusion_lon": 0.0, "fusion_lat": 0.0, "type": "electric_scooter", "name": "006370e8e7d75bef07e79dd5b437f90c", "is_disabled": 0, "rental_uris": {"ios": "https://dc.lft.to/lastmile_qr_scan", "android": "https://dc.lft.to/lastmile_qr_scan"}, "is_reserved": 0}, {"lon": -77.00473383333333, "bike_id": "bc4137668607058ed3da23761901987d", "lat": 38.911833, "fusion_lon": 0.0, "fusion_lat": 0.0, "type": "electric_scooter", "name": "bc4137668607058ed3da23761901987d", "is_disabled": 0, "rental_uris": {"ios": "https://dc.lft.to/lastmile_qr_scan", "android": "https://dc.lft.to/lastmile_qr_scan"}, "is_reserved": 0}, {"lon": -77.03201416666667, "bike_id": "0a3780e480f9a0fd71072eef8647b7ea", "lat": 38.920610333333336, "fusion_lon": 0.0, "fusion_lat": 0.0, "type": "electric_scooter", "name": "0a3780e480f9a0fd71072eef8647b7ea", "is_disabled": 0, "rental_uris": {"ios": "https://dc.lft.to/lastmile_qr_scan", "android": "https://dc.lft.to/lastmile_qr_scan"}, "is_reserved": 0}, {"lon": -77.02981133333333, "bike_id": "973306a03892bbcdf91c928d5c36e66f", "lat": 38.94739333333333, "fusion_lon": 0.0, "fusion_lat": 0.0, "type": "electric_scooter", "name": "973306a03892bbcdf91c928d5c36e66f", "is_disabled": 0, "rental_uris": {"ios": "https://dc.lft.to/lastmile_qr_scan", "android": "https://dc.lft.to/lastmile_qr_scan"}, "is_reserved": 0}, {"lon": -76.9859655, "bike_id": "0e8b8d16a9726022d5010eaa012affee", "lat": 38.860612833333334, "fusion_lon": 0.0, "fusion_lat": 0.0, "type": "electric_scooter", "name": "0e8b8d16a9726022d5010eaa012affee", "is_disabled": 0, "rental_uris": {"ios": "https://dc.lft.to/lastmile_qr_scan", "android": "https://dc.lft.to/lastmile_qr_scan"}, "is_reserved": 0}, {"lon": -77.04410316666667, "bike_id": "80721d014b1f0d814982da0047365e7f", "lat": 38.934205, "fusion_lon": 0.0, "fusion_lat": 0.0, "type": "electric_scooter", "name": "80721d014b1f0d814982da0047365e7f", "is_disabled": 0, "rental_uris": {"ios": "https://dc.lft.to/lastmile_qr_scan", "android": "https://dc.lft.to/lastmile_qr_scan"}, "is_reserved": 0}, {"lon": -77.04704366666667, "bike_id": "a2cbbf1b39ba4a24275de28e61ea96b0", "lat": 38.92119433333333, "fusion_lon": 0.0, "fusion_lat": 0.0, "type": "electric_scooter", "name": "a2cbbf1b39ba4a24275de28e61ea96b0", "is_disabled": 0, "rental_uris": {"ios": "https://dc.lft.to/lastmile_qr_scan", "android": "https://dc.lft.to/lastmile_qr_scan"}, "is_reserved": 0}, {"lon": -76.9615575, "bike_id": "ecf56fee7b49b645d3387b934289776d", "lat": 38.88358383333333, "fusion_lon": 0.0, "fusion_lat": 0.0, "type": "electric_scooter", "name": "ecf56fee7b49b645d3387b934289776d", "is_disabled": 0, "rental_uris": {"ios": "https://dc.lft.to/lastmile_qr_scan", "android": "https://dc.lft.to/lastmile_qr_scan"}, "is_reserved": 0}, {"lon": -76.98533666666667, "bike_id": "be5f938c586002e78228b2bf9a9075a5", "lat": 38.91025616666667, "fusion_lon": 0.0, "fusion_lat": 0.0, "type": "electric_scooter", "name": "be5f938c586002e78228b2bf9a9075a5", "is_disabled": 0, "rental_uris": {"ios": "https://dc.lft.to/lastmile_qr_scan", "android": "https://dc.lft.to/lastmile_qr_scan"}, "is_reserved": 0}, {"lon": -77.03406883333334, "bike_id": "e5e5b8fdbe078eaf56721470d4ba6b1a", "lat": 38.93422016666667, "fusion_lon": 0.0, "fusion_lat": 0.0, "type": "electric_scooter", "name": "e5e5b8fdbe078eaf56721470d4ba6b1a", "is_disabled": 0, "rental_uris": {"ios": "https://dc.lft.to/lastmile_qr_scan", "android": "https://dc.lft.to/lastmile_qr_scan"}, "is_reserved": 0}, {"lon": -77.029658, "bike_id": "76d01cdd08c1277f6838d04694009a57", "lat": 38.93190583333333, "fusion_lon": 0.0, "fusion_lat": 0.0, "type": "electric_scooter", "name": "76d01cdd08c1277f6838d04694009a57", "is_disabled": 0, "rental_uris": {"ios": "https://dc.lft.to/lastmile_qr_scan", "android": "https://dc.lft.to/lastmile_qr_scan"}, "is_reserved": 0}, {"lon": -76.9872375, "bike_id": "0ba6f4130bbb8e7717f7f876d2021431", "lat": 38.86709466666667, "fusion_lon": 0.0, "fusion_lat": 0.0, "type": "electric_scooter", "name": "0ba6f4130bbb8e7717f7f876d2021431", "is_disabled": 0, "rental_uris": {"ios": "https://dc.lft.to/lastmile_qr_scan", "android": "https://dc.lft.to/lastmile_qr_scan"}, "is_reserved": 0}, {"lon": -76.991768, "bike_id": "2e97d25afc43f8fd3890a50619bb533e", "lat": 38.90500866666667, "fusion_lon": 0.0, "fusion_lat": 0.0, "type": "electric_scooter", "name": "2e97d25afc43f8fd3890a50619bb533e", "is_disabled": 0, "rental_uris": {"ios": "https://dc.lft.to/lastmile_qr_scan", "android": "https://dc.lft.to/lastmile_qr_scan"}, "is_reserved": 0}, {"lon": -77.10598683333333, "bike_id": "4e71b683ecd2e702c31a3208c7f63442", "lat": 38.928960333333336, "fusion_lon": 0.0, "fusion_lat": 0.0, "type": "electric_bike", "name": "4e71b683ecd2e702c31a3208c7f63442", "is_disabled": 0, "rental_uris": {"ios": "https://dc.lft.to/lastmile_qr_scan", "android": "https://dc.lft.to/lastmile_qr_scan"}, "is_reserved": 0}, {"lon": -77.03122683333333, "bike_id": "05082adcf45ea1fefb4fdfa82f1cea40", "lat": 38.91713983333333, "fusion_lon": 0.0, "fusion_lat": 0.0, "type": "electric_scooter", "name": "05082adcf45ea1fefb4fdfa82f1cea40", "is_disabled": 0, "rental_uris": {"ios": "https://dc.lft.to/lastmile_qr_scan", "android": "https://dc.lft.to/lastmile_qr_scan"}, "is_reserved": 0}, {"lon": -76.99856983333333, "bike_id": "2ab8c2dee325e3aaa35a4fa187607010", "lat": 38.8908145, "fusion_lon": 0.0, "fusion_lat": 0.0, "type": "electric_scooter", "name": "2ab8c2dee325e3aaa35a4fa187607010", "is_disabled": 0, "rental_uris": {"ios": "https://dc.lft.to/lastmile_qr_scan", "android": "https://dc.lft.to/lastmile_qr_scan"}, "is_reserved": 0}, {"lon": -77.0436145, "bike_id": "cb82c7e2139385facb6b46608dd6e7b8", "lat": 38.90406883333333, "fusion_lon": 0.0, "fusion_lat": 0.0, "type": "electric_scooter", "name": "cb82c7e2139385facb6b46608dd6e7b8", "is_disabled": 0, "rental_uris": {"ios": "https://dc.lft.to/lastmile_qr_scan", "android": "https://dc.lft.to/lastmile_qr_scan"}, "is_reserved": 0}, {"lon": -77.04863083333333, "bike_id": "d02585373de3f733c9ba732a86032b04", "lat": 38.892224, "fusion_lon": 0.0, "fusion_lat": 0.0, "type": "electric_scooter", "name": "d02585373de3f733c9ba732a86032b04", "is_disabled": 0, "rental_uris": {"ios": "https://dc.lft.to/lastmile_qr_scan", "android": "https://dc.lft.to/lastmile_qr_scan"}, "is_reserved": 0}, {"lon": -77.02281233333333, "bike_id": "2994668c17f509c1d05c44183a1188f4", "lat": 38.87870683333333, "fusion_lon": 0.0, "fusion_lat": 0.0, "type": "electric_scooter", "name": "2994668c17f509c1d05c44183a1188f4", "is_disabled": 0, "rental_uris": {"ios": "https://dc.lft.to/lastmile_qr_scan", "android": "https://dc.lft.to/lastmile_qr_scan"}, "is_reserved": 0}, {"lon": -77.03037116666667, "bike_id": "123ecf744731e69ab34bb48c1ed23c5c", "lat": 38.88392183333333, "fusion_lon": 0.0, "fusion_lat": 0.0, "type": "electric_scooter", "name": "123ecf744731e69ab34bb48c1ed23c5c", "is_disabled": 0, "rental_uris": {"ios": "https://dc.lft.to/lastmile_qr_scan", "android": "https://dc.lft.to/lastmile_qr_scan"}, "is_reserved": 0}, {"lon": -77.00204583333333, "bike_id": "7c1baeece5cfb944bfed3db09fc97487", "lat": 38.902393000000004, "fusion_lon": 0.0, "fusion_lat": 0.0, "type": "electric_scooter", "name": "7c1baeece5cfb944bfed3db09fc97487", "is_disabled": 0, "rental_uris": {"ios": "https://dc.lft.to/lastmile_qr_scan", "android": "https://dc.lft.to/lastmile_qr_scan"}, "is_reserved": 0}, {"lon": -76.9766995, "bike_id": "696b45e5bee261723b91b016b96ad26d", "lat": 38.9524335, "fusion_lon": 0.0, "fusion_lat": 0.0, "type": "electric_bike", "name": "696b45e5bee261723b91b016b96ad26d", "is_disabled": 0, "rental_uris": {"ios": "https://dc.lft.to/lastmile_qr_scan", "android": "https://dc.lft.to/lastmile_qr_scan"}, "is_reserved": 0}, {"lon": -77.00257883333333, "bike_id": "59756ad79677a4e7ae6711dcb5cdab4f", "lat": 38.9117615, "fusion_lon": 0.0, "fusion_lat": 0.0, "type": "electric_bike", "name": "59756ad79677a4e7ae6711dcb5cdab4f", "is_disabled": 0, "rental_uris": {"ios": "https://dc.lft.to/lastmile_qr_scan", "android": "https://dc.lft.to/lastmile_qr_scan"}, "is_reserved": 0}, {"lon": -77.03086783333333, "bike_id": "4126834f6878b6f25289bca6ed25f2e4", "lat": 38.927255333333335, "fusion_lon": 0.0, "fusion_lat": 0.0, "type": "electric_scooter", "name": "4126834f6878b6f25289bca6ed25f2e4", "is_disabled": 0, "rental_uris": {"ios": "https://dc.lft.to/lastmile_qr_scan", "android": "https://dc.lft.to/lastmile_qr_scan"}, "is_reserved": 0}, {"lon": -77.03259316666667, "bike_id": "55113da3655d4ef25dcfc35e6217a921", "lat": 38.90591583333333, "fusion_lon": 0.0, "fusion_lat": 0.0, "type": "electric_scooter", "name": "55113da3655d4ef25dcfc35e6217a921", "is_disabled": 0, "rental_uris": {"ios": "https://dc.lft.to/lastmile_qr_scan", "android": "https://dc.lft.to/lastmile_qr_scan"}, "is_reserved": 0}, {"lon": -77.01495383333334, "bike_id": "d4982edc48174f7502e977a9ef14bd98", "lat": 38.91765483333333, "fusion_lon": 0.0, "fusion_lat": 0.0, "type": "electric_scooter", "name": "d4982edc48174f7502e977a9ef14bd98", "is_disabled": 0, "rental_uris": {"ios": "https://dc.lft.to/lastmile_qr_scan", "android": "https://dc.lft.to/lastmile_qr_scan"}, "is_reserved": 0}, {"lon": -77.02498683333333, "bike_id": "08bf4343c67623fc55d919305ffadb6c", "lat": 38.942037666666664, "fusion_lon": 0.0, "fusion_lat": 0.0, "type": "electric_scooter", "name": "08bf4343c67623fc55d919305ffadb6c", "is_disabled": 0, "rental_uris": {"ios": "https://dc.lft.to/lastmile_qr_scan", "android": "https://dc.lft.to/lastmile_qr_scan"}, "is_reserved": 0}, {"lon": -76.98801783333333, "bike_id": "c701354b05d7c658b2ab3e265611f340", "lat": 38.86728933333333, "fusion_lon": 0.0, "fusion_lat": 0.0, "type": "electric_scooter", "name": "c701354b05d7c658b2ab3e265611f340", "is_disabled": 0, "rental_uris": {"ios": "https://dc.lft.to/lastmile_qr_scan", "android": "https://dc.lft.to/lastmile_qr_scan"}, "is_reserved": 0}, {"lon": -77.07910066666666, "bike_id": "70c75331cd04a04254e8b7ee0742247a", "lat": 38.931137, "fusion_lon": 0.0, "fusion_lat": 0.0, "type": "electric_scooter", "name": "70c75331cd04a04254e8b7ee0742247a", "is_disabled": 0, "rental_uris": {"ios": "https://dc.lft.to/lastmile_qr_scan", "android": "https://dc.lft.to/lastmile_qr_scan"}, "is_reserved": 0}, {"lon": -77.02947683333333, "bike_id": "52bcd46ba261557445e6bd6eb4e620f1", "lat": 38.90453633333333, "fusion_lon": 0.0, "fusion_lat": 0.0, "type": "electric_scooter", "name": "52bcd46ba261557445e6bd6eb4e620f1", "is_disabled": 0, "rental_uris": {"ios": "https://dc.lft.to/lastmile_qr_scan", "android": "https://dc.lft.to/lastmile_qr_scan"}, "is_reserved": 0}, {"lon": -77.03597183333333, "bike_id": "53372b228502d6dd2307a9fc6bd5d68d", "lat": 38.939320333333335, "fusion_lon": 0.0, "fusion_lat": 0.0, "type": "electric_scooter", "name": "53372b228502d6dd2307a9fc6bd5d68d", "is_disabled": 0, "rental_uris": {"ios": "https://dc.lft.to/lastmile_qr_scan", "android": "https://dc.lft.to/lastmile_qr_scan"}, "is_reserved": 0}, {"lon": -76.99461866666667, "bike_id": "5d50d0e3232fd9596bdc6d5fccc5571b", "lat": 38.940636166666664, "fusion_lon": 0.0, "fusion_lat": 0.0, "type": "electric_scooter", "name": "5d50d0e3232fd9596bdc6d5fccc5571b", "is_disabled": 0, "rental_uris": {"ios": "https://dc.lft.to/lastmile_qr_scan", "android": "https://dc.lft.to/lastmile_qr_scan"}, "is_reserved": 0}, {"lon": -77.01842766666667, "bike_id": "bdc91c99cceaeab3d63ada6a23757962", "lat": 38.94627233333333, "fusion_lon": 0.0, "fusion_lat": 0.0, "type": "electric_scooter", "name": "bdc91c99cceaeab3d63ada6a23757962", "is_disabled": 0, "rental_uris": {"ios": "https://dc.lft.to/lastmile_qr_scan", "android": "https://dc.lft.to/lastmile_qr_scan"}, "is_reserved": 0}, {"lon": -76.98149466666666, "bike_id": "eb781a90ee9f5c277c820a2938896c44", "lat": 38.90321483333334, "fusion_lon": 0.0, "fusion_lat": 0.0, "type": "electric_scooter", "name": "eb781a90ee9f5c277c820a2938896c44", "is_disabled": 0, "rental_uris": {"ios": "https://dc.lft.to/lastmile_qr_scan", "android": "https://dc.lft.to/lastmile_qr_scan"}, "is_reserved": 0}, {"lon": -77.03426816666666, "bike_id": "ce1192757b2f6c52cf1317bc1ee1dcdd", "lat": 38.965310333333335, "fusion_lon": 0.0, "fusion_lat": 0.0, "type": "electric_bike", "name": "ce1192757b2f6c52cf1317bc1ee1dcdd", "is_disabled": 0, "rental_uris": {"ios": "https://dc.lft.to/lastmile_qr_scan", "android": "https://dc.lft.to/lastmile_qr_scan"}, "is_reserved": 0}, {"lon": -77.04908583333334, "bike_id": "df9ccf2ff4c21ca26e934697e9f00ff1", "lat": 38.91596966666667, "fusion_lon": 0.0, "fusion_lat": 0.0, "type": "electric_scooter", "name": "df9ccf2ff4c21ca26e934697e9f00ff1", "is_disabled": 0, "rental_uris": {"ios": "https://dc.lft.to/lastmile_qr_scan", "android": "https://dc.lft.to/lastmile_qr_scan"}, "is_reserved": 0}, {"lon": -77.02576866666666, "bike_id": "1e384d9108fa8a823f7500ae2a85f303", "lat": 38.9140445, "fusion_lon": 0.0, "fusion_lat": 0.0, "type": "electric_scooter", "name": "1e384d9108fa8a823f7500ae2a85f303", "is_disabled": 0, "rental_uris": {"ios": "https://dc.lft.to/lastmile_qr_scan", "android": "https://dc.lft.to/lastmile_qr_scan"}, "is_reserved": 0}, {"lon": -76.97205133333334, "bike_id": "fcc49deb8271c27a23d7cc7caa87e348", "lat": 38.89291516666667, "fusion_lon": 0.0, "fusion_lat": 0.0, "type": "electric_bike", "name": "fcc49deb8271c27a23d7cc7caa87e348", "is_disabled": 0, "rental_uris": {"ios": "https://dc.lft.to/lastmile_qr_scan", "android": "https://dc.lft.to/lastmile_qr_scan"}, "is_reserved": 0}, {"lon": -77.05310933333334, "bike_id": "815f68016f3be6e2d7f810dcb37dce63", "lat": 38.900747, "fusion_lon": 0.0, "fusion_lat": 0.0, "type": "electric_scooter", "name": "815f68016f3be6e2d7f810dcb37dce63", "is_disabled": 0, "rental_uris": {"ios": "https://dc.lft.to/lastmile_qr_scan", "android": "https://dc.lft.to/lastmile_qr_scan"}, "is_reserved": 0}, {"lon": -77.02805516666666, "bike_id": "ea71306bdb76066ca60c024370992792", "lat": 38.906658166666666, "fusion_lon": 0.0, "fusion_lat": 0.0, "type": "electric_scooter", "name": "ea71306bdb76066ca60c024370992792", "is_disabled": 0, "rental_uris": {"ios": "https://dc.lft.to/lastmile_qr_scan", "android": "https://dc.lft.to/lastmile_qr_scan"}, "is_reserved": 0}, {"lon": -77.05569683333333, "bike_id": "62c3f84a2fd8250e241070daeebce6ee", "lat": 38.897305333333335, "fusion_lon": 0.0, "fusion_lat": 0.0, "type": "electric_scooter", "name": "62c3f84a2fd8250e241070daeebce6ee", "is_disabled": 0, "rental_uris": {"ios": "https://dc.lft.to/lastmile_qr_scan", "android": "https://dc.lft.to/lastmile_qr_scan"}, "is_reserved": 0}, {"lon": -76.99554983333333, "bike_id": "9309ba77f597e4f2bbcc17dbd3899ff0", "lat": 38.862033, "fusion_lon": 0.0, "fusion_lat": 0.0, "type": "electric_scooter", "name": "9309ba77f597e4f2bbcc17dbd3899ff0", "is_disabled": 0, "rental_uris": {"ios": "https://dc.lft.to/lastmile_qr_scan", "android": "https://dc.lft.to/lastmile_qr_scan"}, "is_reserved": 0}, {"lon": -76.94653516666666, "bike_id": "ae7dcd485934e663da025d157e700689", "lat": 38.898255166666665, "fusion_lon": 0.0, "fusion_lat": 0.0, "type": "electric_scooter", "name": "ae7dcd485934e663da025d157e700689", "is_disabled": 0, "rental_uris": {"ios": "https://dc.lft.to/lastmile_qr_scan", "android": "https://dc.lft.to/lastmile_qr_scan"}, "is_reserved": 0}, {"lon": -77.1392035, "bike_id": "44d02a0cccb8fe6d3ec6db81bdec72c6", "lat": 38.87298666666667, "fusion_lon": 0.0, "fusion_lat": 0.0, "type": "electric_bike", "name": "44d02a0cccb8fe6d3ec6db81bdec72c6", "is_disabled": 0, "rental_uris": {"ios": "https://dc.lft.to/lastmile_qr_scan", "android": "https://dc.lft.to/lastmile_qr_scan"}, "is_reserved": 0}, {"lon": -76.98233216666667, "bike_id": "2d1eb8df5228cb10c41734114d9eaa06", "lat": 38.864728166666666, "fusion_lon": 0.0, "fusion_lat": 0.0, "type": "electric_scooter", "name": "2d1eb8df5228cb10c41734114d9eaa06", "is_disabled": 0, "rental_uris": {"ios": "https://dc.lft.to/lastmile_qr_scan", "android": "https://dc.lft.to/lastmile_qr_scan"}, "is_reserved": 0}, {"lon": -77.01760466666667, "bike_id": "9cecddcb8d446ec4c2ba8ab581f93170", "lat": 38.90028566666667, "fusion_lon": 0.0, "fusion_lat": 0.0, "type": "electric_scooter", "name": "9cecddcb8d446ec4c2ba8ab581f93170", "is_disabled": 0, "rental_uris": {"ios": "https://dc.lft.to/lastmile_qr_scan", "android": "https://dc.lft.to/lastmile_qr_scan"}, "is_reserved": 0}, {"lon": -76.99031, "bike_id": "2d869a0d055e1bf9c30e8b8593ac3bcd", "lat": 38.895990833333336, "fusion_lon": 0.0, "fusion_lat": 0.0, "type": "electric_scooter", "name": "2d869a0d055e1bf9c30e8b8593ac3bcd", "is_disabled": 0, "rental_uris": {"ios": "https://dc.lft.to/lastmile_qr_scan", "android": "https://dc.lft.to/lastmile_qr_scan"}, "is_reserved": 0}, {"lon": -77.0533295, "bike_id": "de84684a851167119485aa3b42ab17cc", "lat": 38.89874366666667, "fusion_lon": 0.0, "fusion_lat": 0.0, "type": "electric_scooter", "name": "de84684a851167119485aa3b42ab17cc", "is_disabled": 0, "rental_uris": {"ios": "https://dc.lft.to/lastmile_qr_scan", "android": "https://dc.lft.to/lastmile_qr_scan"}, "is_reserved": 0}, {"lon": -77.017637, "bike_id": "ebf0ea1b0c7ac0782d372d0e3a70b60a", "lat": 38.872134833333334, "fusion_lon": 0.0, "fusion_lat": 0.0, "type": "electric_scooter", "name": "ebf0ea1b0c7ac0782d372d0e3a70b60a", "is_disabled": 0, "rental_uris": {"ios": "https://dc.lft.to/lastmile_qr_scan", "android": "https://dc.lft.to/lastmile_qr_scan"}, "is_reserved": 0}, {"lon": -77.01050533333333, "bike_id": "a74f18b2a5aff5e92a1b5a6bfb3e0fc1", "lat": 38.96340816666667, "fusion_lon": 0.0, "fusion_lat": 0.0, "type": "electric_scooter", "name": "a74f18b2a5aff5e92a1b5a6bfb3e0fc1", "is_disabled": 0, "rental_uris": {"ios": "https://dc.lft.to/lastmile_qr_scan", "android": "https://dc.lft.to/lastmile_qr_scan"}, "is_reserved": 0}, {"lon": -77.005848, "bike_id": "a49b6ef7c0caa1fcb2a43765133f9d47", "lat": 38.876839333333336, "fusion_lon": 0.0, "fusion_lat": 0.0, "type": "electric_scooter", "name": "a49b6ef7c0caa1fcb2a43765133f9d47", "is_disabled": 0, "rental_uris": {"ios": "https://dc.lft.to/lastmile_qr_scan", "android": "https://dc.lft.to/lastmile_qr_scan"}, "is_reserved": 0}, {"lon": -77.0260105, "bike_id": "4dce857e4ef97fb105b4bcf16a1e7717", "lat": 38.9279715, "fusion_lon": 0.0, "fusion_lat": 0.0, "type": "electric_scooter", "name": "4dce857e4ef97fb105b4bcf16a1e7717", "is_disabled": 0, "rental_uris": {"ios": "https://dc.lft.to/lastmile_qr_scan", "android": "https://dc.lft.to/lastmile_qr_scan"}, "is_reserved": 0}, {"lon": -77.1191675, "bike_id": "b3cb57d96f1f39d9f036e93c2349a487", "lat": 38.876346, "fusion_lon": 0.0, "fusion_lat": 0.0, "type": "electric_bike", "name": "b3cb57d96f1f39d9f036e93c2349a487", "is_disabled": 0, "rental_uris": {"ios": "https://dc.lft.to/lastmile_qr_scan", "android": "https://dc.lft.to/lastmile_qr_scan"}, "is_reserved": 0}, {"lon": -77.07008416666666, "bike_id": "3706e969a32dc195a676fe1482cc8d3e", "lat": 38.905875333333334, "fusion_lon": 0.0, "fusion_lat": 0.0, "type": "electric_bike", "name": "3706e969a32dc195a676fe1482cc8d3e", "is_disabled": 0, "rental_uris": {"ios": "https://dc.lft.to/lastmile_qr_scan", "android": "https://dc.lft.to/lastmile_qr_scan"}, "is_reserved": 0}, {"lon": -77.03969533333333, "bike_id": "55b5d95bd0136c2e2df9931b1bf23ac8", "lat": 38.92321716666667, "fusion_lon": 0.0, "fusion_lat": 0.0, "type": "electric_scooter", "name": "55b5d95bd0136c2e2df9931b1bf23ac8", "is_disabled": 0, "rental_uris": {"ios": "https://dc.lft.to/lastmile_qr_scan", "android": "https://dc.lft.to/lastmile_qr_scan"}, "is_reserved": 0}, {"lon": -77.078084, "bike_id": "eb496383736eae3802418cb6d9b1fd08", "lat": 38.92457133333333, "fusion_lon": 0.0, "fusion_lat": 0.0, "type": "electric_scooter", "name": "eb496383736eae3802418cb6d9b1fd08", "is_disabled": 0, "rental_uris": {"ios": "https://dc.lft.to/lastmile_qr_scan", "android": "https://dc.lft.to/lastmile_qr_scan"}, "is_reserved": 0}, {"lon": -77.00923516666667, "bike_id": "8a903c8e934f2437d8df7cad20a2d987", "lat": 38.910662333333335, "fusion_lon": 0.0, "fusion_lat": 0.0, "type": "electric_scooter", "name": "8a903c8e934f2437d8df7cad20a2d987", "is_disabled": 0, "rental_uris": {"ios": "https://dc.lft.to/lastmile_qr_scan", "android": "https://dc.lft.to/lastmile_qr_scan"}, "is_reserved": 0}, {"lon": -77.034463, "bike_id": "5c3114f2fb8bc4329ee337819047d44f", "lat": 38.917091166666665, "fusion_lon": 0.0, "fusion_lat": 0.0, "type": "electric_scooter", "name": "5c3114f2fb8bc4329ee337819047d44f", "is_disabled": 0, "rental_uris": {"ios": "https://dc.lft.to/lastmile_qr_scan", "android": "https://dc.lft.to/lastmile_qr_scan"}, "is_reserved": 0}, {"lon": -77.00224266666666, "bike_id": "13695a9bb132bb41f62080599e9b1e54", "lat": 38.9024365, "fusion_lon": 0.0, "fusion_lat": 0.0, "type": "electric_scooter", "name": "13695a9bb132bb41f62080599e9b1e54", "is_disabled": 0, "rental_uris": {"ios": "https://dc.lft.to/lastmile_qr_scan", "android": "https://dc.lft.to/lastmile_qr_scan"}, "is_reserved": 0}, {"lon": -77.03292066666667, "bike_id": "0cf27c1e29949bdefea8d9d07d208d5e", "lat": 38.934382, "fusion_lon": 0.0, "fusion_lat": 0.0, "type": "electric_scooter", "name": "0cf27c1e29949bdefea8d9d07d208d5e", "is_disabled": 0, "rental_uris": {"ios": "https://dc.lft.to/lastmile_qr_scan", "android": "https://dc.lft.to/lastmile_qr_scan"}, "is_reserved": 0}, {"lon": -77.031766, "bike_id": "08f26397fb5171391f12823384a34ef3", "lat": 38.93601666666667, "fusion_lon": 0.0, "fusion_lat": 0.0, "type": "electric_scooter", "name": "08f26397fb5171391f12823384a34ef3", "is_disabled": 0, "rental_uris": {"ios": "https://dc.lft.to/lastmile_qr_scan", "android": "https://dc.lft.to/lastmile_qr_scan"}, "is_reserved": 0}, {"lon": -77.0187825, "bike_id": "ee9120ed5b0114ad6271d71e5af09f62", "lat": 38.9141425, "fusion_lon": 0.0, "fusion_lat": 0.0, "type": "electric_scooter", "name": "ee9120ed5b0114ad6271d71e5af09f62", "is_disabled": 0, "rental_uris": {"ios": "https://dc.lft.to/lastmile_qr_scan", "android": "https://dc.lft.to/lastmile_qr_scan"}, "is_reserved": 0}, {"lon": -77.03531033333333, "bike_id": "a9d9b955daa5e97313d17559c22b0591", "lat": 38.9241365, "fusion_lon": 0.0, "fusion_lat": 0.0, "type": "electric_scooter", "name": "a9d9b955daa5e97313d17559c22b0591", "is_disabled": 0, "rental_uris": {"ios": "https://dc.lft.to/lastmile_qr_scan", "android": "https://dc.lft.to/lastmile_qr_scan"}, "is_reserved": 0}, {"lon": -77.03712633333333, "bike_id": "5d72504c9229fcad941f35937dba612f", "lat": 38.926364, "fusion_lon": 0.0, "fusion_lat": 0.0, "type": "electric_scooter", "name": "5d72504c9229fcad941f35937dba612f", "is_disabled": 0, "rental_uris": {"ios": "https://dc.lft.to/lastmile_qr_scan", "android": "https://dc.lft.to/lastmile_qr_scan"}, "is_reserved": 0}, {"lon": -77.076001, "bike_id": "129f0077e8810d578a16804e6cf82cae", "lat": 38.91217983333333, "fusion_lon": 0.0, "fusion_lat": 0.0, "type": "electric_scooter", "name": "129f0077e8810d578a16804e6cf82cae", "is_disabled": 0, "rental_uris": {"ios": "https://dc.lft.to/lastmile_qr_scan", "android": "https://dc.lft.to/lastmile_qr_scan"}, "is_reserved": 0}, {"lon": -77.0044385, "bike_id": "67127c6acfc61520c884618e52db10dc", "lat": 38.877616833333335, "fusion_lon": 0.0, "fusion_lat": 0.0, "type": "electric_scooter", "name": "67127c6acfc61520c884618e52db10dc", "is_disabled": 0, "rental_uris": {"ios": "https://dc.lft.to/lastmile_qr_scan", "android": "https://dc.lft.to/lastmile_qr_scan"}, "is_reserved": 0}, {"lon": -77.03173066666666, "bike_id": "951baa1c4dc05e5793d5d7fe9b3401bf", "lat": 38.92102833333333, "fusion_lon": 0.0, "fusion_lat": 0.0, "type": "electric_bike", "name": "951baa1c4dc05e5793d5d7fe9b3401bf", "is_disabled": 0, "rental_uris": {"ios": "https://dc.lft.to/lastmile_qr_scan", "android": "https://dc.lft.to/lastmile_qr_scan"}, "is_reserved": 0}, {"lon": -76.99059683333333, "bike_id": "c7c80b368fa8b9c0435b2fe516cfd0f1", "lat": 38.89818566666667, "fusion_lon": 0.0, "fusion_lat": 0.0, "type": "electric_bike", "name": "c7c80b368fa8b9c0435b2fe516cfd0f1", "is_disabled": 0, "rental_uris": {"ios": "https://dc.lft.to/lastmile_qr_scan", "android": "https://dc.lft.to/lastmile_qr_scan"}, "is_reserved": 0}, {"lon": -77.01495433333334, "bike_id": "e3848ad8eb533509409194f92c2adc75", "lat": 38.917663833333336, "fusion_lon": 0.0, "fusion_lat": 0.0, "type": "electric_scooter", "name": "e3848ad8eb533509409194f92c2adc75", "is_disabled": 0, "rental_uris": {"ios": "https://dc.lft.to/lastmile_qr_scan", "android": "https://dc.lft.to/lastmile_qr_scan"}, "is_reserved": 0}, {"lon": -77.00561683333333, "bike_id": "60bf83f654d41a54ef851f9ad900255f", "lat": 38.90566533333333, "fusion_lon": 0.0, "fusion_lat": 0.0, "type": "electric_scooter", "name": "60bf83f654d41a54ef851f9ad900255f", "is_disabled": 0, "rental_uris": {"ios": "https://dc.lft.to/lastmile_qr_scan", "android": "https://dc.lft.to/lastmile_qr_scan"}, "is_reserved": 0}, {"lon": -76.97747683333333, "bike_id": "8a8020aa6281ecb4a0179f44564b0b76", "lat": 38.864884833333335, "fusion_lon": 0.0, "fusion_lat": 0.0, "type": "electric_bike", "name": "8a8020aa6281ecb4a0179f44564b0b76", "is_disabled": 0, "rental_uris": {"ios": "https://dc.lft.to/lastmile_qr_scan", "android": "https://dc.lft.to/lastmile_qr_scan"}, "is_reserved": 0}, {"lon": -77.18563266666666, "bike_id": "699820515bea7899fd09c6feba23a34d", "lat": 39.099765833333336, "fusion_lon": 0.0, "fusion_lat": 0.0, "type": "electric_bike", "name": "699820515bea7899fd09c6feba23a34d", "is_disabled": 0, "rental_uris": {"ios": "https://dc.lft.to/lastmile_qr_scan", "android": "https://dc.lft.to/lastmile_qr_scan"}, "is_reserved": 0}, {"lon": -76.99600716666667, "bike_id": "635a6131f7265a1da88acb6b5c3905b1", "lat": 38.950711, "fusion_lon": 0.0, "fusion_lat": 0.0, "type": "electric_bike", "name": "635a6131f7265a1da88acb6b5c3905b1", "is_disabled": 0, "rental_uris": {"ios": "https://dc.lft.to/lastmile_qr_scan", "android": "https://dc.lft.to/lastmile_qr_scan"}, "is_reserved": 0}, {"lon": -77.022575, "bike_id": "2e740153f881b181afd7c749c1d73985", "lat": 38.8938355, "fusion_lon": 0.0, "fusion_lat": 0.0, "type": "electric_scooter", "name": "2e740153f881b181afd7c749c1d73985", "is_disabled": 0, "rental_uris": {"ios": "https://dc.lft.to/lastmile_qr_scan", "android": "https://dc.lft.to/lastmile_qr_scan"}, "is_reserved": 0}, {"lon": -77.03342033333334, "bike_id": "56e1370fee08df17101c31939b4fab0b", "lat": 38.9071985, "fusion_lon": 0.0, "fusion_lat": 0.0, "type": "electric_scooter", "name": "56e1370fee08df17101c31939b4fab0b", "is_disabled": 0, "rental_uris": {"ios": "https://dc.lft.to/lastmile_qr_scan", "android": "https://dc.lft.to/lastmile_qr_scan"}, "is_reserved": 0}, {"lon": -77.01432583333333, "bike_id": "6e679e1fed8460e27cffed39b9964b9b", "lat": 38.877498333333335, "fusion_lon": 0.0, "fusion_lat": 0.0, "type": "electric_scooter", "name": "6e679e1fed8460e27cffed39b9964b9b", "is_disabled": 0, "rental_uris": {"ios": "https://dc.lft.to/lastmile_qr_scan", "android": "https://dc.lft.to/lastmile_qr_scan"}, "is_reserved": 0}, {"lon": -77.01184033333334, "bike_id": "ed95fa82792cadc7960e1c2ac089aba4", "lat": 38.90023883333333, "fusion_lon": 0.0, "fusion_lat": 0.0, "type": "electric_scooter", "name": "ed95fa82792cadc7960e1c2ac089aba4", "is_disabled": 0, "rental_uris": {"ios": "https://dc.lft.to/lastmile_qr_scan", "android": "https://dc.lft.to/lastmile_qr_scan"}, "is_reserved": 0}, {"lon": -77.05441733333333, "bike_id": "6f67e9c74b5d11d42542c40319b335b4", "lat": 38.92864816666667, "fusion_lon": 0.0, "fusion_lat": 0.0, "type": "electric_scooter", "name": "6f67e9c74b5d11d42542c40319b335b4", "is_disabled": 0, "rental_uris": {"ios": "https://dc.lft.to/lastmile_qr_scan", "android": "https://dc.lft.to/lastmile_qr_scan"}, "is_reserved": 0}, {"lon": -77.02201316666667, "bike_id": "c85873cfc9b354f139e494e46341d6d4", "lat": 38.914744, "fusion_lon": 0.0, "fusion_lat": 0.0, "type": "electric_scooter", "name": "c85873cfc9b354f139e494e46341d6d4", "is_disabled": 0, "rental_uris": {"ios": "https://dc.lft.to/lastmile_qr_scan", "android": "https://dc.lft.to/lastmile_qr_scan"}, "is_reserved": 0}, {"lon": -76.9540655, "bike_id": "9ec6e0723673cd5aa73c20e51de70e1d", "lat": 38.88465516666667, "fusion_lon": 0.0, "fusion_lat": 0.0, "type": "electric_scooter", "name": "9ec6e0723673cd5aa73c20e51de70e1d", "is_disabled": 0, "rental_uris": {"ios": "https://dc.lft.to/lastmile_qr_scan", "android": "https://dc.lft.to/lastmile_qr_scan"}, "is_reserved": 0}, {"lon": -76.91803216666666, "bike_id": "bc910d212658c23059455f714230a18c", "lat": 38.9999885, "fusion_lon": 0.0, "fusion_lat": 0.0, "type": "electric_bike", "name": "bc910d212658c23059455f714230a18c", "is_disabled": 0, "rental_uris": {"ios": "https://dc.lft.to/lastmile_qr_scan", "android": "https://dc.lft.to/lastmile_qr_scan"}, "is_reserved": 0}, {"lon": -76.9605945, "bike_id": "c1b49ddccdef5cf319ac79a319c1556b", "lat": 38.8840365, "fusion_lon": 0.0, "fusion_lat": 0.0, "type": "electric_bike", "name": "c1b49ddccdef5cf319ac79a319c1556b", "is_disabled": 0, "rental_uris": {"ios": "https://dc.lft.to/lastmile_qr_scan", "android": "https://dc.lft.to/lastmile_qr_scan"}, "is_reserved": 0}, {"lon": -76.98713166666667, "bike_id": "f3f5540177d702b23f4c3767d3a270b4", "lat": 38.86628566666667, "fusion_lon": 0.0, "fusion_lat": 0.0, "type": "electric_scooter", "name": "f3f5540177d702b23f4c3767d3a270b4", "is_disabled": 0, "rental_uris": {"ios": "https://dc.lft.to/lastmile_qr_scan", "android": "https://dc.lft.to/lastmile_qr_scan"}, "is_reserved": 0}, {"lon": -77.03161466666667, "bike_id": "fae8669cb6abb05f6f4949b5ab7c8257", "lat": 38.89217683333333, "fusion_lon": 0.0, "fusion_lat": 0.0, "type": "electric_scooter", "name": "fae8669cb6abb05f6f4949b5ab7c8257", "is_disabled": 0, "rental_uris": {"ios": "https://dc.lft.to/lastmile_qr_scan", "android": "https://dc.lft.to/lastmile_qr_scan"}, "is_reserved": 0}, {"lon": -77.02683133333333, "bike_id": "8903d428bbb2c55f364bea54b919882e", "lat": 38.902319166666665, "fusion_lon": 0.0, "fusion_lat": 0.0, "type": "electric_scooter", "name": "8903d428bbb2c55f364bea54b919882e", "is_disabled": 0, "rental_uris": {"ios": "https://dc.lft.to/lastmile_qr_scan", "android": "https://dc.lft.to/lastmile_qr_scan"}, "is_reserved": 0}, {"lon": -76.99504133333333, "bike_id": "bff994457c51ec2032638a181f4cf9b9", "lat": 38.89766266666667, "fusion_lon": 0.0, "fusion_lat": 0.0, "type": "electric_scooter", "name": "bff994457c51ec2032638a181f4cf9b9", "is_disabled": 0, "rental_uris": {"ios": "https://dc.lft.to/lastmile_qr_scan", "android": "https://dc.lft.to/lastmile_qr_scan"}, "is_reserved": 0}, {"lon": -77.01746, "bike_id": "b4a64f3a69d9d26684f44057d979d990", "lat": 38.88203433333334, "fusion_lon": 0.0, "fusion_lat": 0.0, "type": "electric_scooter", "name": "b4a64f3a69d9d26684f44057d979d990", "is_disabled": 0, "rental_uris": {"ios": "https://dc.lft.to/lastmile_qr_scan", "android": "https://dc.lft.to/lastmile_qr_scan"}, "is_reserved": 0}, {"lon": -76.99706666666667, "bike_id": "b5c8f353661f95c2fc692329f5882c94", "lat": 38.84424633333333, "fusion_lon": 0.0, "fusion_lat": 0.0, "type": "electric_scooter", "name": "b5c8f353661f95c2fc692329f5882c94", "is_disabled": 0, "rental_uris": {"ios": "https://dc.lft.to/lastmile_qr_scan", "android": "https://dc.lft.to/lastmile_qr_scan"}, "is_reserved": 0}, {"lon": -77.00538666666667, "bike_id": "3c0f94ed75e97e4d0f24b0505847228d", "lat": 38.875456666666665, "fusion_lon": 0.0, "fusion_lat": 0.0, "type": "electric_scooter", "name": "3c0f94ed75e97e4d0f24b0505847228d", "is_disabled": 0, "rental_uris": {"ios": "https://dc.lft.to/lastmile_qr_scan", "android": "https://dc.lft.to/lastmile_qr_scan"}, "is_reserved": 0}, {"lon": -77.01131983333333, "bike_id": "c92a397ffe863e53caed1570e7545a1e", "lat": 38.89579966666667, "fusion_lon": 0.0, "fusion_lat": 0.0, "type": "electric_scooter", "name": "c92a397ffe863e53caed1570e7545a1e", "is_disabled": 0, "rental_uris": {"ios": "https://dc.lft.to/lastmile_qr_scan", "android": "https://dc.lft.to/lastmile_qr_scan"}, "is_reserved": 0}, {"lon": -77.11800433333333, "bike_id": "b2aed3a7260714dc7ee93157abe1ca3c", "lat": 38.8737225, "fusion_lon": 0.0, "fusion_lat": 0.0, "type": "electric_bike", "name": "b2aed3a7260714dc7ee93157abe1ca3c", "is_disabled": 0, "rental_uris": {"ios": "https://dc.lft.to/lastmile_qr_scan", "android": "https://dc.lft.to/lastmile_qr_scan"}, "is_reserved": 0}, {"lon": -77.025121, "bike_id": "3cf2f5ecac535a3f5596ccafb6692cc4", "lat": 38.942021, "fusion_lon": 0.0, "fusion_lat": 0.0, "type": "electric_scooter", "name": "3cf2f5ecac535a3f5596ccafb6692cc4", "is_disabled": 0, "rental_uris": {"ios": "https://dc.lft.to/lastmile_qr_scan", "android": "https://dc.lft.to/lastmile_qr_scan"}, "is_reserved": 0}, {"lon": -76.97604033333333, "bike_id": "7f937c7497c3a21e6c694cfcd83e60d4", "lat": 38.897540166666666, "fusion_lon": 0.0, "fusion_lat": 0.0, "type": "electric_scooter", "name": "7f937c7497c3a21e6c694cfcd83e60d4", "is_disabled": 0, "rental_uris": {"ios": "https://dc.lft.to/lastmile_qr_scan", "android": "https://dc.lft.to/lastmile_qr_scan"}, "is_reserved": 0}, {"lon": -77.02969816666666, "bike_id": "ea3b6779a1f0e362da36e8a80fc311de", "lat": 38.92292333333333, "fusion_lon": 0.0, "fusion_lat": 0.0, "type": "electric_scooter", "name": "ea3b6779a1f0e362da36e8a80fc311de", "is_disabled": 0, "rental_uris": {"ios": "https://dc.lft.to/lastmile_qr_scan", "android": "https://dc.lft.to/lastmile_qr_scan"}, "is_reserved": 0}, {"lon": -76.9788605, "bike_id": "e00c53b047477d29ec91acb747c552b8", "lat": 38.885368666666665, "fusion_lon": 0.0, "fusion_lat": 0.0, "type": "electric_scooter", "name": "e00c53b047477d29ec91acb747c552b8", "is_disabled": 0, "rental_uris": {"ios": "https://dc.lft.to/lastmile_qr_scan", "android": "https://dc.lft.to/lastmile_qr_scan"}, "is_reserved": 0}, {"lon": -76.983344, "bike_id": "f91cc7bcd02fedd6e881561904af97f3", "lat": 38.895433, "fusion_lon": 0.0, "fusion_lat": 0.0, "type": "electric_scooter", "name": "f91cc7bcd02fedd6e881561904af97f3", "is_disabled": 0, "rental_uris": {"ios": "https://dc.lft.to/lastmile_qr_scan", "android": "https://dc.lft.to/lastmile_qr_scan"}, "is_reserved": 0}, {"lon": -77.03245066666666, "bike_id": "ec3b4eb7063e885959ba513958a5ce72", "lat": 38.927686666666666, "fusion_lon": 0.0, "fusion_lat": 0.0, "type": "electric_scooter", "name": "ec3b4eb7063e885959ba513958a5ce72", "is_disabled": 0, "rental_uris": {"ios": "https://dc.lft.to/lastmile_qr_scan", "android": "https://dc.lft.to/lastmile_qr_scan"}, "is_reserved": 0}, {"lon": -77.02263416666666, "bike_id": "b34dc3c26d017e1dfc5cc21bf012da30", "lat": 38.927416, "fusion_lon": 0.0, "fusion_lat": 0.0, "type": "electric_scooter", "name": "b34dc3c26d017e1dfc5cc21bf012da30", "is_disabled": 0, "rental_uris": {"ios": "https://dc.lft.to/lastmile_qr_scan", "android": "https://dc.lft.to/lastmile_qr_scan"}, "is_reserved": 0}, {"lon": -77.0318555, "bike_id": "e227f953726111cd06a80eab9cc14387", "lat": 38.915019, "fusion_lon": 0.0, "fusion_lat": 0.0, "type": "electric_scooter", "name": "e227f953726111cd06a80eab9cc14387", "is_disabled": 0, "rental_uris": {"ios": "https://dc.lft.to/lastmile_qr_scan", "android": "https://dc.lft.to/lastmile_qr_scan"}, "is_reserved": 0}, {"lon": -77.0432785, "bike_id": "025d2380d6c14e7e09c64b872339b786", "lat": 38.918815333333335, "fusion_lon": 0.0, "fusion_lat": 0.0, "type": "electric_scooter", "name": "025d2380d6c14e7e09c64b872339b786", "is_disabled": 0, "rental_uris": {"ios": "https://dc.lft.to/lastmile_qr_scan", "android": "https://dc.lft.to/lastmile_qr_scan"}, "is_reserved": 0}, {"lon": -77.0009245, "bike_id": "556f2f9d3b9fc8dd3544d508395679b0", "lat": 38.89484066666667, "fusion_lon": 0.0, "fusion_lat": 0.0, "type": "electric_scooter", "name": "556f2f9d3b9fc8dd3544d508395679b0", "is_disabled": 0, "rental_uris": {"ios": "https://dc.lft.to/lastmile_qr_scan", "android": "https://dc.lft.to/lastmile_qr_scan"}, "is_reserved": 0}, {"lon": -77.02180083333333, "bike_id": "5f169ae31c3c9a7c01a214621632965c", "lat": 38.90029416666667, "fusion_lon": 0.0, "fusion_lat": 0.0, "type": "electric_scooter", "name": "5f169ae31c3c9a7c01a214621632965c", "is_disabled": 0, "rental_uris": {"ios": "https://dc.lft.to/lastmile_qr_scan", "android": "https://dc.lft.to/lastmile_qr_scan"}, "is_reserved": 0}, {"lon": -77.06527566666666, "bike_id": "d58fb0df4c02eb59f391967367405c0c", "lat": 38.947414333333334, "fusion_lon": 0.0, "fusion_lat": 0.0, "type": "electric_scooter", "name": "d58fb0df4c02eb59f391967367405c0c", "is_disabled": 0, "rental_uris": {"ios": "https://dc.lft.to/lastmile_qr_scan", "android": "https://dc.lft.to/lastmile_qr_scan"}, "is_reserved": 0},