{"data": {"bikes": [{"lat": 38.9204605, "is_disabled": 0, "type": "electric_scooter", "lon": -77.03472866666667, "bike_id": "3c6d547236de644318afa6300e4626b0", "fusion_lat": 0.0, "name": "3c6d547236de644318afa6300e4626b0", "is_reserved": 0, "rental_uris": {"android": "https://dc.lft.to/lastmile_qr_scan", "ios": "https://dc.lft.to/lastmile_qr_scan"}, "fusion_lon": 0.0}, {"lat": 38.86658333333333, "is_disabled": 0, "type": "electric_scooter", "lon": -76.98880216666667, "bike_id": "71f4cd4918304dc49770608efb243887", "fusion_lat": 0.0, "name": "71f4cd4918304dc49770608efb243887", "is_reserved": 0, "rental_uris": {"android": "https://dc.lft.to/lastmile_qr_scan", "ios": "https://dc.lft.to/lastmile_qr_scan"}, "fusion_lon": 0.0}, {"lat": 38.9177605, "is_disabled": 0, "type": "electric_scooter", "lon": -77.01501216666666, "bike_id": "fbe6e3b1773f2388b02e5b8ae53efb86", "fusion_lat": 0.0, "name": "fbe6e3b1773f2388b02e5b8ae53efb86", "is_reserved": 0, "rental_uris": {"android": "https://dc.lft.to/lastmile_qr_scan", "ios": "https://dc.lft.to/lastmile_qr_scan"}, "fusion_lon": 0.0}, {"lat": 38.89514, "is_disabled": 0, "type": "electric_scooter", "lon": -76.9772945, "bike_id": "6e4e8f21cb6ed31f5fb9be52da2f8fa3", "fusion_lat": 0.0, "name": "6e4e8f21cb6ed31f5fb9be52da2f8fa3", "is_reserved": 0, "rental_uris": {"android": "https://dc.lft.to/lastmile_qr_scan", "ios": "https://dc.lft.to/lastmile_qr_scan"}, "fusion_lon": 0.0}, {"lat": 38.900479833333335, "is_disabled": 0, "type": "electric_scooter", "lon": -77.029134, "bike_id": "ef4343828aece1fc206157d4e70c6df3", "fusion_lat": 0.0, "name": "ef4343828aece1fc206157d4e70c6df3", "is_reserved": 0, "rental_uris": {"android": "https://dc.lft.to/lastmile_qr_scan", "ios": "https://dc.lft.to/lastmile_qr_scan"}, "fusion_lon": 0.0}, {"lat": 38.920285666666665, "is_disabled": 0, "type": "electric_bike", "lon": -77.003427, "bike_id": "0680d3a19f953976f7c7c8edc6fbcc9b", "fusion_lat": 0.0, "name": "0680d3a19f953976f7c7c8edc6fbcc9b", "is_reserved": 0, "rental_uris": {"android": "https://dc.lft.to/lastmile_qr_scan", "ios": "https://dc.lft.to/lastmile_qr_scan"}, "fusion_lon": 0.0}, {"lat": 38.9220075, "is_disabled": 0, "type": "electric_scooter", "lon": -77.04133133333333, "bike_id": "dd1d184d1937b47bcee95e85f5a87692", "fusion_lat": 0.0, "name": "dd1d184d1937b47bcee95e85f5a87692", "is_reserved": 0, "rental_uris": {"android": "https://dc.lft.to/lastmile_qr_scan", "ios": "https://dc.lft.to/lastmile_qr_scan"}, "fusion_lon": 0.0}, {"lat": 38.95495, "is_disabled": 0, "type": "electric_scooter", "lon": -77.06571866666667, "bike_id": "eadd1224848bc71d635f3a5e961ef035", "fusion_lat": 0.0, "name": "eadd1224848bc71d635f3a5e961ef035", "is_reserved": 0, "rental_uris": {"android": "https://dc.lft.to/lastmile_qr_scan", "ios": "https://dc.lft.to/lastmile_qr_scan"}, "fusion_lon": 0.0}, {"lat": 38.86054083333333, "is_disabled": 0, "type": "electric_scooter", "lon": -77.0575315, "bike_id": "7d73f16b8c65fe8a91e66328c8dbc5c1", "fusion_lat": 0.0, "name": "7d73f16b8c65fe8a91e66328c8dbc5c1", "is_reserved": 0, "rental_uris": {"android": "https://dc.lft.to/lastmile_qr_scan", "ios": "https://dc.lft.to/lastmile_qr_scan"}, "fusion_lon": 0.0}, {"lat": 38.91871616666667, "is_disabled": 0, "type": "electric_scooter", "lon": -77.04256733333334, "bike_id": "3e9591e1f7a94ea5a469fba75b074411", "fusion_lat": 0.0, "name": "3e9591e1f7a94ea5a469fba75b074411", "is_reserved": 0, "rental_uris": {"android": "https://dc.lft.to/lastmile_qr_scan", "ios": "https://dc.lft.to/lastmile_qr_scan"}, "fusion_lon": 0.0}, {"lat": 38.9003965, "is_disabled": 0, "type": "electric_scooter", "lon": -77.03379766666667, "bike_id": "1d0f9d8876495ed59940f67e6a2c253b", "fusion_lat": 0.0, "name": "1d0f9d8876495ed59940f67e6a2c253b", "is_reserved": 0, "rental_uris": {"android": "https://dc.lft.to/lastmile_qr_scan", "ios": "https://dc.lft.to/lastmile_qr_scan"}, "fusion_lon": 0.0}, {"lat": 38.916034, "is_disabled": 0, "type": "electric_scooter", "lon": -77.038474, "bike_id": "72de11e64b4b3baa4deea71549bb6f23", "fusion_lat": 0.0, "name": "72de11e64b4b3baa4deea71549bb6f23", "is_reserved": 0, "rental_uris": {"android": "https://dc.lft.to/lastmile_qr_scan", "ios": "https://dc.lft.to/lastmile_qr_scan"}, "fusion_lon": 0.0}, {"lat": 38.921539333333335, "is_disabled": 0, "type": "electric_scooter", "lon": -77.03659066666667, "bike_id": "6de1347a380e96664f3ea4d52e7af740", "fusion_lat": 0.0, "name": "6de1347a380e96664f3ea4d52e7af740", "is_reserved": 0, "rental_uris": {"android": "https://dc.lft.to/lastmile_qr_scan", "ios": "https://dc.lft.to/lastmile_qr_scan"}, "fusion_lon": 0.0}, {"lat": 38.9722705, "is_disabled": 0, "type": "electric_bike", "lon": -76.99345333333333, "bike_id": "b354381d8881542804d2a9ad1536c30b", "fusion_lat": 0.0, "name": "b354381d8881542804d2a9ad1536c30b", "is_reserved": 0, "rental_uris": {"android": "https://dc.lft.to/lastmile_qr_scan", "ios": "https://dc.lft.to/lastmile_qr_scan"}, "fusion_lon": 0.0}, {"lat": 38.938583666666666, "is_disabled": 0, "type": "electric_scooter", "lon": -77.02564033333333, "bike_id": "7060c8470b550113541285f1abcd375d", "fusion_lat": 0.0, "name": "7060c8470b550113541285f1abcd375d", "is_reserved": 0, "rental_uris": {"android": "https://dc.lft.to/lastmile_qr_scan", "ios": "https://dc.lft.to/lastmile_qr_scan"}, "fusion_lon": 0.0}, {"lat": 38.895414833333334, "is_disabled": 0, "type": "electric_scooter", "lon": -77.01099516666666, "bike_id": "b9659bcaaafd451a3b239cc0284aab85", "fusion_lat": 0.0, "name": "b9659bcaaafd451a3b239cc0284aab85", "is_reserved": 0, "rental_uris": {"android": "https://dc.lft.to/lastmile_qr_scan", "ios": "https://dc.lft.to/lastmile_qr_scan"}, "fusion_lon": 0.0}, {"lat": 38.90530016666666, "is_disabled": 0, "type": "electric_scooter", "lon": -77.06058416666667, "bike_id": "8f732c4742a7a78270b8e8befe012330", "fusion_lat": 0.0, "name": "8f732c4742a7a78270b8e8befe012330", "is_reserved": 0, "rental_uris": {"android": "https://dc.lft.to/lastmile_qr_scan", "ios": "https://dc.lft.to/lastmile_qr_scan"}, "fusion_lon": 0.0}, {"lat": 38.918579, "is_disabled": 0, "type": "electric_scooter", "lon": -77.045894, "bike_id": "158cc6c39005c799599b8206db7548d9", "fusion_lat": 0.0, "name": "158cc6c39005c799599b8206db7548d9", "is_reserved": 0, "rental_uris": {"android": "https://dc.lft.to/lastmile_qr_scan", "ios": "https://dc.lft.to/lastmile_qr_scan"}, "fusion_lon": 0.0}, {"lat": 38.9125525, "is_disabled": 0, "type": "electric_scooter", "lon": -77.00627383333334, "bike_id": "6f51d52807209af089a2d990cc20ca8b", "fusion_lat": 0.0, "name": "6f51d52807209af089a2d990cc20ca8b", "is_reserved": 0, "rental_uris": {"android": "https://dc.lft.to/lastmile_qr_scan", "ios": "https://dc.lft.to/lastmile_qr_scan"}, "fusion_lon": 0.0}, {"lat": 38.905122166666665, "is_disabled": 0, "type": "electric_scooter", "lon": -77.047303, "bike_id": "0fe5d32f0b472852f7d417769be8df9c", "fusion_lat": 0.0, "name": "0fe5d32f0b472852f7d417769be8df9c", "is_reserved": 0, "rental_uris": {"android": "https://dc.lft.to/lastmile_qr_scan", "ios": "https://dc.lft.to/lastmile_qr_scan"}, "fusion_lon": 0.0}, {"lat": 38.91955516666667, "is_disabled": 0, "type": "electric_scooter", "lon": -76.980807, "bike_id": "7f5d673d77197d30a11ad32e41c38754", "fusion_lat": 0.0, "name": "7f5d673d77197d30a11ad32e41c38754", "is_reserved": 0, "rental_uris": {"android": "https://dc.lft.to/lastmile_qr_scan", "ios": "https://dc.lft.to/lastmile_qr_scan"}, "fusion_lon": 0.0}, {"lat": 38.90318233333333, "is_disabled": 0, "type": "electric_scooter", "lon": -77.0378485, "bike_id": "dfacdafb369b3610942d2b3ae5041e80", "fusion_lat": 0.0, "name": "dfacdafb369b3610942d2b3ae5041e80", "is_reserved": 0, "rental_uris": {"android": "https://dc.lft.to/lastmile_qr_scan", "ios": "https://dc.lft.to/lastmile_qr_scan"}, "fusion_lon": 0.0}, {"lat": 38.9160135, "is_disabled": 0, "type": "electric_scooter", "lon": -77.04848566666666, "bike_id": "cc81f25e1b6e00c94ce84816838e480b", "fusion_lat": 0.0, "name": "cc81f25e1b6e00c94ce84816838e480b", "is_reserved": 0, "rental_uris": {"android": "https://dc.lft.to/lastmile_qr_scan", "ios": "https://dc.lft.to/lastmile_qr_scan"}, "fusion_lon": 0.0}, {"lat": 38.93873766666667, "is_disabled": 0, "type": "electric_scooter", "lon": -77.02440483333334, "bike_id": "e9933962c52c57b922d17ca4f258cc35", "fusion_lat": 0.0, "name": "e9933962c52c57b922d17ca4f258cc35", "is_reserved": 0, "rental_uris": {"android": "https://dc.lft.to/lastmile_qr_scan", "ios": "https://dc.lft.to/lastmile_qr_scan"}, "fusion_lon": 0.0}, {"lat": 38.9101885, "is_disabled": 0, "type": "electric_scooter", "lon": -77.03844833333333, "bike_id": "3c5835dc6ebf1e433147b6bf4ae7e08a", "fusion_lat": 0.0, "name": "3c5835dc6ebf1e433147b6bf4ae7e08a", "is_reserved": 0, "rental_uris": {"android": "https://dc.lft.to/lastmile_qr_scan", "ios": "https://dc.lft.to/lastmile_qr_scan"}, "fusion_lon": 0.0}, {"lat": 38.908836, "is_disabled": 0, "type": "electric_scooter", "lon": -77.06426533333334, "bike_id": "cbafc20bc4ba720c841e3470488da654", "fusion_lat": 0.0, "name": "cbafc20bc4ba720c841e3470488da654", "is_reserved": 0, "rental_uris": {"android": "https://dc.lft.to/lastmile_qr_scan", "ios": "https://dc.lft.to/lastmile_qr_scan"}, "fusion_lon": 0.0}, {"lat": 38.807460166666665, "is_disabled": 0, "type": "electric_bike", "lon": -77.09427583333333, "bike_id": "91cb0834331c6f4aa1969f37bb2d0c43", "fusion_lat": 0.0, "name": "91cb0834331c6f4aa1969f37bb2d0c43", "is_reserved": 0, "rental_uris": {"android": "https://dc.lft.to/lastmile_qr_scan", "ios": "https://dc.lft.to/lastmile_qr_scan"}, "fusion_lon": 0.0}, {"lat": 38.9285075, "is_disabled": 0, "type": "electric_bike", "lon": -77.1067665, "bike_id": "d8d7a0465dc2638620542184aaf0c8e7", "fusion_lat": 0.0, "name": "d8d7a0465dc2638620542184aaf0c8e7", "is_reserved": 0, "rental_uris": {"android": "https://dc.lft.to/lastmile_qr_scan", "ios": "https://dc.lft.to/lastmile_qr_scan"}, "fusion_lon": 0.0}, {"lat": 38.9318105, "is_disabled": 0, "type": "electric_scooter", "lon": -77.0315185, "bike_id": "414213845d42f89c89f8640ad5123cf0", "fusion_lat": 0.0, "name": "414213845d42f89c89f8640ad5123cf0", "is_reserved": 0, "rental_uris": {"android": "https://dc.lft.to/lastmile_qr_scan", "ios": "https://dc.lft.to/lastmile_qr_scan"}, "fusion_lon": 0.0}, {"lat": 38.91388383333334, "is_disabled": 0, "type": "electric_scooter", "lon": -77.036628, "bike_id": "1c3ebe9a4e72d053cf9968f0131cd3c5", "fusion_lat": 0.0, "name": "1c3ebe9a4e72d053cf9968f0131cd3c5", "is_reserved": 0, "rental_uris": {"android": "https://dc.lft.to/lastmile_qr_scan", "ios": "https://dc.lft.to/lastmile_qr_scan"}, "fusion_lon": 0.0}, {"lat": 38.906185666666666, "is_disabled": 0, "type": "electric_scooter", "lon": -77.06515816666666, "bike_id": "028b3f270ba47e80ace429f2eae471e2", "fusion_lat": 0.0, "name": "028b3f270ba47e80ace429f2eae471e2", "is_reserved": 0, "rental_uris": {"android": "https://dc.lft.to/lastmile_qr_scan", "ios": "https://dc.lft.to/lastmile_qr_scan"}, "fusion_lon": 0.0}, {"lat": 38.896213333333336, "is_disabled": 0, "type": "electric_scooter", "lon": -77.04499433333334, "bike_id": "7f3d76b228135725950ef4253735a818", "fusion_lat": 0.0, "name": "7f3d76b228135725950ef4253735a818", "is_reserved": 0, "rental_uris": {"android": "https://dc.lft.to/lastmile_qr_scan", "ios": "https://dc.lft.to/lastmile_qr_scan"}, "fusion_lon": 0.0}, {"lat": 38.8845845, "is_disabled": 0, "type": "electric_scooter", "lon": -76.92622583333333, "bike_id": "b29c629633eca06f05419f01483a6eed", "fusion_lat": 0.0, "name": "b29c629633eca06f05419f01483a6eed", "is_reserved": 0, "rental_uris": {"android": "https://dc.lft.to/lastmile_qr_scan", "ios": "https://dc.lft.to/lastmile_qr_scan"}, "fusion_lon": 0.0}, {"lat": 38.925108, "is_disabled": 0, "type": "electric_scooter", "lon": -77.03788316666666, "bike_id": "ba71d19368652de8fbb2777628a37572", "fusion_lat": 0.0, "name": "ba71d19368652de8fbb2777628a37572", "is_reserved": 0, "rental_uris": {"android": "https://dc.lft.to/lastmile_qr_scan", "ios": "https://dc.lft.to/lastmile_qr_scan"}, "fusion_lon": 0.0}, {"lat": 38.90951716666667, "is_disabled": 0, "type": "electric_scooter", "lon": -77.03662333333334, "bike_id": "2d9c91171f3b959e3b9d56ea5af36cf5", "fusion_lat": 0.0, "name": "2d9c91171f3b959e3b9d56ea5af36cf5", "is_reserved": 0, "rental_uris": {"android": "https://dc.lft.to/lastmile_qr_scan", "ios": "https://dc.lft.to/lastmile_qr_scan"}, "fusion_lon": 0.0}, {"lat": 38.92243033333333, "is_disabled": 0, "type": "electric_scooter", "lon": -77.07796466666667, "bike_id": "5014e38aaa3663266f613f003e58f038", "fusion_lat": 0.0, "name": "5014e38aaa3663266f613f003e58f038", "is_reserved": 0, "rental_uris": {"android": "https://dc.lft.to/lastmile_qr_scan", "ios": "https://dc.lft.to/lastmile_qr_scan"}, "fusion_lon": 0.0}, {"lat": 38.93755133333333, "is_disabled": 0, "type": "electric_scooter", "lon": -77.03146433333333, "bike_id": "3f780e0e0bdad582b77baf9ad8c6ab17", "fusion_lat": 0.0, "name": "3f780e0e0bdad582b77baf9ad8c6ab17", "is_reserved": 0, "rental_uris": {"android": "https://dc.lft.to/lastmile_qr_scan", "ios": "https://dc.lft.to/lastmile_qr_scan"}, "fusion_lon": 0.0}, {"lat": 38.900354666666665, "is_disabled": 0, "type": "electric_scooter", "lon": -76.99805966666666, "bike_id": "33cd79b18a850fb587957032da18b2fd", "fusion_lat": 0.0, "name": "33cd79b18a850fb587957032da18b2fd", "is_reserved": 0, "rental_uris": {"android": "https://dc.lft.to/lastmile_qr_scan", "ios": "https://dc.lft.to/lastmile_qr_scan"}, "fusion_lon": 0.0}, {"lat": 38.90815466666667, "is_disabled": 0, "type": "electric_scooter", "lon": -76.98293883333334, "bike_id": "5d5d13728abfb507a255b3d53c3d0d21", "fusion_lat": 0.0, "name": "5d5d13728abfb507a255b3d53c3d0d21", "is_reserved": 0, "rental_uris": {"android": "https://dc.lft.to/lastmile_qr_scan", "ios": "https://dc.lft.to/lastmile_qr_scan"}, "fusion_lon": 0.0}, {"lat": 38.905522833333336, "is_disabled": 0, "type": "electric_scooter", "lon": -77.00575783333333, "bike_id": "2bd030731230d7b04b72984baca258cf", "fusion_lat": 0.0, "name": "2bd030731230d7b04b72984baca258cf", "is_reserved": 0, "rental_uris": {"android": "https://dc.lft.to/lastmile_qr_scan", "ios": "https://dc.lft.to/lastmile_qr_scan"}, "fusion_lon": 0.0}, {"lat": 38.89607216666667, "is_disabled": 0, "type": "electric_scooter", "lon": -76.95523016666667, "bike_id": "5fe27f804ca943548906511ed36b614f", "fusion_lat": 0.0, "name": "5fe27f804ca943548906511ed36b614f", "is_reserved": 0, "rental_uris": {"android": "https://dc.lft.to/lastmile_qr_scan", "ios": "https://dc.lft.to/lastmile_qr_scan"}, "fusion_lon": 0.0}, {"lat": 38.93364016666666, "is_disabled": 0, "type": "electric_scooter", "lon": -77.03724783333334, "bike_id": "d4ca0bc4283e9c0af37f1befbd51f848", "fusion_lat": 0.0, "name": "d4ca0bc4283e9c0af37f1befbd51f848", "is_reserved": 0, "rental_uris": {"android": "https://dc.lft.to/lastmile_qr_scan", "ios": "https://dc.lft.to/lastmile_qr_scan"}, "fusion_lon": 0.0}, {"lat": 38.8848245, "is_disabled": 0, "type": "electric_scooter", "lon": -76.94530066666667, "bike_id": "bf28dc7db17eb293167c14e3d4b3a425", "fusion_lat": 0.0, "name": "bf28dc7db17eb293167c14e3d4b3a425", "is_reserved": 0, "rental_uris": {"android": "https://dc.lft.to/lastmile_qr_scan", "ios": "https://dc.lft.to/lastmile_qr_scan"}, "fusion_lon": 0.0}, {"lat": 38.8997585, "is_disabled": 0, "type": "electric_scooter", "lon": -77.01612716666666, "bike_id": "83a54656e46dc305f30f680b6c282ca4", "fusion_lat": 0.0, "name": "83a54656e46dc305f30f680b6c282ca4", "is_reserved": 0, "rental_uris": {"android": "https://dc.lft.to/lastmile_qr_scan", "ios": "https://dc.lft.to/lastmile_qr_scan"}, "fusion_lon": 0.0}, {"lat": 38.92473183333333, "is_disabled": 0, "type": "electric_scooter", "lon": -77.0338275, "bike_id": "87821303eac948ebafbc525727423518", "fusion_lat": 0.0, "name": "87821303eac948ebafbc525727423518", "is_reserved": 0, "rental_uris": {"android": "https://dc.lft.to/lastmile_qr_scan", "ios": "https://dc.lft.to/lastmile_qr_scan"}, "fusion_lon": 0.0}, {"lat": 38.91822066666667, "is_disabled": 0, "type": "electric_scooter", "lon": -77.01212016666666, "bike_id": "27ff1d3232466e6eb3e7fd4a5776d5b9", "fusion_lat": 0.0, "name": "27ff1d3232466e6eb3e7fd4a5776d5b9", "is_reserved": 0, "rental_uris": {"android": "https://dc.lft.to/lastmile_qr_scan", "ios": "https://dc.lft.to/lastmile_qr_scan"}, "fusion_lon": 0.0}, {"lat": 38.85452516666667, "is_disabled": 0, "type": "electric_scooter", "lon": -76.98581266666666, "bike_id": "02ac5dfba8a6e69bd9ec82c87e4dbb10", "fusion_lat": 0.0, "name": "02ac5dfba8a6e69bd9ec82c87e4dbb10", "is_reserved": 0, "rental_uris": {"android": "https://dc.lft.to/lastmile_qr_scan", "ios": "https://dc.lft.to/lastmile_qr_scan"}, "fusion_lon": 0.0}, {"lat": 38.91834383333333, "is_disabled": 0, "type": "electric_scooter", "lon": -77.03182983333333, "bike_id": "36a54f27e8f868b94da06ae7f2bf15c2", "fusion_lat": 0.0, "name": "36a54f27e8f868b94da06ae7f2bf15c2", "is_reserved": 0, "rental_uris": {"android": "https://dc.lft.to/lastmile_qr_scan", "ios": "https://dc.lft.to/lastmile_qr_scan"}, "fusion_lon": 0.0}, {"lat": 38.8896875, "is_disabled": 0, "type": "electric_scooter", "lon": -76.97938083333334, "bike_id": "74b423cb45faf327d2dab038a5c6d917", "fusion_lat": 0.0, "name": "74b423cb45faf327d2dab038a5c6d917", "is_reserved": 0, "rental_uris": {"android": "https://dc.lft.to/lastmile_qr_scan", "ios": "https://dc.lft.to/lastmile_qr_scan"}, "fusion_lon": 0.0}, {"lat": 38.895202833333336, "is_disabled": 0, "type": "electric_scooter", "lon": -77.02183683333334, "bike_id": "fcb91a9f9cf8d79da3c464ef1c4364eb", "fusion_lat": 0.0, "name": "fcb91a9f9cf8d79da3c464ef1c4364eb", "is_reserved": 0, "rental_uris": {"android": "https://dc.lft.to/lastmile_qr_scan", "ios": "https://dc.lft.to/lastmile_qr_scan"}, "fusion_lon": 0.0}, {"lat": 38.90190666666667, "is_disabled": 0, "type": "electric_scooter", "lon": -77.02370933333333, "bike_id": "6766f4e0c46cc26f0f2ab7c09f353168", "fusion_lat": 0.0, "name": "6766f4e0c46cc26f0f2ab7c09f353168", "is_reserved": 0, "rental_uris": {"android": "https://dc.lft.to/lastmile_qr_scan", "ios": "https://dc.lft.to/lastmile_qr_scan"}, "fusion_lon": 0.0}, {"lat": 38.91404466666667, "is_disabled": 0, "type": "electric_scooter", "lon": -77.029305, "bike_id": "693b9fcc5f69c36f0d61d5ac6d5481de", "fusion_lat": 0.0, "name": "693b9fcc5f69c36f0d61d5ac6d5481de", "is_reserved": 0, "rental_uris": {"android": "https://dc.lft.to/lastmile_qr_scan", "ios": "https://dc.lft.to/lastmile_qr_scan"}, "fusion_lon": 0.0}, {"lat": 38.910328166666666, "is_disabled": 0, "type": "electric_scooter", "lon": -76.99812883333334, "bike_id": "f4aba667cafe5fa832df5b544dc141b0", "fusion_lat": 0.0, "name": "f4aba667cafe5fa832df5b544dc141b0", "is_reserved": 0, "rental_uris": {"android": "https://dc.lft.to/lastmile_qr_scan", "ios": "https://dc.lft.to/lastmile_qr_scan"}, "fusion_lon": 0.0}, {"lat": 38.864447, "is_disabled": 0, "type": "electric_bike", "lon": -76.94540966666666, "bike_id": "ac0a33155d70f75f527b84587f98d0bd", "fusion_lat": 0.0, "name": "ac0a33155d70f75f527b84587f98d0bd", "is_reserved": 0, "rental_uris": {"android": "https://dc.lft.to/lastmile_qr_scan", "ios": "https://dc.lft.to/lastmile_qr_scan"}, "fusion_lon": 0.0}, {"lat": 38.95806866666667, "is_disabled": 0, "type": "electric_scooter", "lon": -77.03160416666667, "bike_id": "97b2ec8a52da08bd5510fdddf06b5474", "fusion_lat": 0.0, "name": "97b2ec8a52da08bd5510fdddf06b5474", "is_reserved": 0, "rental_uris": {"android": "https://dc.lft.to/lastmile_qr_scan", "ios": "https://dc.lft.to/lastmile_qr_scan"}, "fusion_lon": 0.0}, {"lat": 38.871474166666665, "is_disabled": 0, "type": "electric_bike", "lon": -76.93699783333334, "bike_id": "acb81be0100e18a6ca16a3c9672e5729", "fusion_lat": 0.0, "name": "acb81be0100e18a6ca16a3c9672e5729", "is_reserved": 0, "rental_uris": {"android": "https://dc.lft.to/lastmile_qr_scan", "ios": "https://dc.lft.to/lastmile_qr_scan"}, "fusion_lon": 0.0}, {"lat": 38.941753166666665, "is_disabled": 0, "type": "electric_scooter", "lon": -77.0365525, "bike_id": "ffaecc8afa83dd649b907f57ffbd0edd", "fusion_lat": 0.0, "name": "ffaecc8afa83dd649b907f57ffbd0edd", "is_reserved": 0, "rental_uris": {"android": "https://dc.lft.to/lastmile_qr_scan", "ios": "https://dc.lft.to/lastmile_qr_scan"}, "fusion_lon": 0.0}, {"lat": 38.896269333333336, "is_disabled": 0, "type": "electric_scooter", "lon": -77.03225633333334, "bike_id": "8cb5d170c15c92194947369b01c55fb0", "fusion_lat": 0.0, "name": "8cb5d170c15c92194947369b01c55fb0", "is_reserved": 0, "rental_uris": {"android": "https://dc.lft.to/lastmile_qr_scan", "ios": "https://dc.lft.to/lastmile_qr_scan"}, "fusion_lon": 0.0}, {"lat": 38.93111966666667, "is_disabled": 0, "type": "electric_scooter", "lon": -77.0380995, "bike_id": "a5bf02734d74a0945fc4207e8372124f", "fusion_lat": 0.0, "name": "a5bf02734d74a0945fc4207e8372124f", "is_reserved": 0, "rental_uris": {"android": "https://dc.lft.to/lastmile_qr_scan", "ios": "https://dc.lft.to/lastmile_qr_scan"}, "fusion_lon": 0.0}, {"lat": 38.86212583333333, "is_disabled": 0, "type": "electric_bike", "lon": -76.99779616666666, "bike_id": "57f498515fbbd72939d02c0add9291d3", "fusion_lat": 0.0, "name": "57f498515fbbd72939d02c0add9291d3", "is_reserved": 0, "rental_uris": {"android": "https://dc.lft.to/lastmile_qr_scan", "ios": "https://dc.lft.to/lastmile_qr_scan"}, "fusion_lon": 0.0}, {"lat": 38.901591833333335, "is_disabled": 0, "type": "electric_scooter", "lon": -77.04823366666666, "bike_id": "6de5407a5a7f44f88310ef8aab4c631f", "fusion_lat": 0.0, "name": "6de5407a5a7f44f88310ef8aab4c631f", "is_reserved": 0, "rental_uris": {"android": "https://dc.lft.to/lastmile_qr_scan", "ios": "https://dc.lft.to/lastmile_qr_scan"}, "fusion_lon": 0.0}, {"lat": 38.89229616666667, "is_disabled": 0, "type": "electric_scooter", "lon": -77.050013, "bike_id": "006f4a8b7eb4d748da99e44c14a84002", "fusion_lat": 0.0, "name": "006f4a8b7eb4d748da99e44c14a84002", "is_reserved": 0, "rental_uris": {"android": "https://dc.lft.to/lastmile_qr_scan", "ios": "https://dc.lft.to/lastmile_qr_scan"}, "fusion_lon": 0.0}, {"lat": 38.8706535, "is_disabled": 0, "type": "electric_scooter", "lon": -77.00838433333334, "bike_id": "c253f36514af2aae7ef55a3ded005f82", "fusion_lat": 0.0, "name": "c253f36514af2aae7ef55a3ded005f82", "is_reserved": 0, "rental_uris": {"android": "https://dc.lft.to/lastmile_qr_scan", "ios": "https://dc.lft.to/lastmile_qr_scan"}, "fusion_lon": 0.0}, {"lat": 38.86524633333333, "is_disabled": 0, "type": "electric_scooter", "lon": -76.9903225, "bike_id": "6686dc6e04763477ce3a9fc8e188946c", "fusion_lat": 0.0, "name": "6686dc6e04763477ce3a9fc8e188946c", "is_reserved": 0, "rental_uris": {"android": "https://dc.lft.to/lastmile_qr_scan", "ios": "https://dc.lft.to/lastmile_qr_scan"}, "fusion_lon": 0.0}, {"lat": 38.89252183333333, "is_disabled": 0, "type": "electric_scooter", "lon": -77.048979, "bike_id": "807189a2c8bc48a1d45d3e8797a8051d", "fusion_lat": 0.0, "name": "807189a2c8bc48a1d45d3e8797a8051d", "is_reserved": 0, "rental_uris": {"android": "https://dc.lft.to/lastmile_qr_scan", "ios": "https://dc.lft.to/lastmile_qr_scan"}, "fusion_lon": 0.0}, {"lat": 38.880524333333334, "is_disabled": 0, "type": "electric_scooter", "lon": -77.01769933333334, "bike_id": "a56909920f91428877d82e36358e551e", "fusion_lat": 0.0, "name": "a56909920f91428877d82e36358e551e", "is_reserved": 0, "rental_uris": {"android": "https://dc.lft.to/lastmile_qr_scan", "ios": "https://dc.lft.to/lastmile_qr_scan"}, "fusion_lon": 0.0}, {"lat": 38.90247133333333, "is_disabled": 0, "type": "electric_scooter", "lon": -77.0162485, "bike_id": "cdce7a5ad41a95a6f0e0c7408503d2f2", "fusion_lat": 0.0, "name": "cdce7a5ad41a95a6f0e0c7408503d2f2", "is_reserved": 0, "rental_uris": {"android": "https://dc.lft.to/lastmile_qr_scan", "ios": "https://dc.lft.to/lastmile_qr_scan"}, "fusion_lon": 0.0}, {"lat": 38.863476666666664, "is_disabled": 0, "type": "electric_scooter", "lon": -76.98997233333333, "bike_id": "66fc48433d4ffd3adfaaa6df93d65ac0", "fusion_lat": 0.0, "name": "66fc48433d4ffd3adfaaa6df93d65ac0", "is_reserved": 0, "rental_uris": {"android": "https://dc.lft.to/lastmile_qr_scan", "ios": "https://dc.lft.to/lastmile_qr_scan"}, "fusion_lon": 0.0}, {"lat": 38.8429385, "is_disabled": 0, "type": "electric_scooter", "lon": -76.99950366666667, "bike_id": "0c317869f2fc05cf61445d581b376322", "fusion_lat": 0.0, "name": "0c317869f2fc05cf61445d581b376322", "is_reserved": 0, "rental_uris": {"android": "https://dc.lft.to/lastmile_qr_scan", "ios": "https://dc.lft.to/lastmile_qr_scan"}, "fusion_lon": 0.0}, {"lat": 38.9126685, "is_disabled": 0, "type": "electric_scooter", "lon": -77.01308383333334, "bike_id": "b6ece4c719cf0bdae1f31fa63c3c706d", "fusion_lat": 0.0, "name": "b6ece4c719cf0bdae1f31fa63c3c706d", "is_reserved": 0, "rental_uris": {"android": "https://dc.lft.to/lastmile_qr_scan", "ios": "https://dc.lft.to/lastmile_qr_scan"}, "fusion_lon": 0.0}, {"lat": 38.899169, "is_disabled": 0, "type": "electric_scooter", "lon": -76.93382333333334, "bike_id": "43487a2262d12fd7f9dc9a4061a80596", "fusion_lat": 0.0, "name": "43487a2262d12fd7f9dc9a4061a80596", "is_reserved": 0, "rental_uris": {"android": "https://dc.lft.to/lastmile_qr_scan", "ios": "https://dc.lft.to/lastmile_qr_scan"}, "fusion_lon": 0.0}, {"lat": 38.931967666666665, "is_disabled": 0, "type": "electric_bike", "lon": -77.0781505, "bike_id": "c11d730e233a5401ef49259f2815e943", "fusion_lat": 0.0, "name": "c11d730e233a5401ef49259f2815e943", "is_reserved": 0, "rental_uris": {"android": "https://dc.lft.to/lastmile_qr_scan", "ios": "https://dc.lft.to/lastmile_qr_scan"}, "fusion_lon": 0.0}, {"lat": 38.926800166666666, "is_disabled": 0, "type": "electric_scooter", "lon": -77.05108516666667, "bike_id": "95719213b70bf50b349b700680a68dda", "fusion_lat": 0.0, "name": "95719213b70bf50b349b700680a68dda", "is_reserved": 0, "rental_uris": {"android": "https://dc.lft.to/lastmile_qr_scan", "ios": "https://dc.lft.to/lastmile_qr_scan"}, "fusion_lon": 0.0}, {"lat": 38.955567, "is_disabled": 0, "type": "electric_bike", "lon": -76.93548533333333, "bike_id": "f9559c6a120554c879402a0bce4d7749", "fusion_lat": 0.0, "name": "f9559c6a120554c879402a0bce4d7749", "is_reserved": 0, "rental_uris": {"android": "https://dc.lft.to/lastmile_qr_scan", "ios": "https://dc.lft.to/lastmile_qr_scan"}, "fusion_lon": 0.0}, {"lat": 38.9578395, "is_disabled": 0, "type": "electric_scooter", "lon": -77.02466933333334, "bike_id": "05429c72b8098017dbd8d0fc53e88442", "fusion_lat": 0.0, "name": "05429c72b8098017dbd8d0fc53e88442", "is_reserved": 0, "rental_uris": {"android": "https://dc.lft.to/lastmile_qr_scan", "ios": "https://dc.lft.to/lastmile_qr_scan"}, "fusion_lon": 0.0}, {"lat": 38.9490385, "is_disabled": 0, "type": "electric_bike", "lon": -76.972397, "bike_id": "b4d659dc60216701bc9734effb0c434b", "fusion_lat": 0.0, "name": "b4d659dc60216701bc9734effb0c434b", "is_reserved": 0, "rental_uris": {"android": "https://dc.lft.to/lastmile_qr_scan", "ios": "https://dc.lft.to/lastmile_qr_scan"}, "fusion_lon": 0.0}, {"lat": 38.939872, "is_disabled": 0, "type": "electric_scooter", "lon": -77.028905, "bike_id": "9ccdd424e880d25a8e895305720ac54d", "fusion_lat": 0.0, "name": "9ccdd424e880d25a8e895305720ac54d", "is_reserved": 0, "rental_uris": {"android": "https://dc.lft.to/lastmile_qr_scan", "ios": "https://dc.lft.to/lastmile_qr_scan"}, "fusion_lon": 0.0}, {"lat": 38.9240375, "is_disabled": 0, "type": "electric_scooter", "lon": -77.02696116666667, "bike_id": "2f653b45a3c38092da88864584d391d1", "fusion_lat": 0.0, "name": "2f653b45a3c38092da88864584d391d1", "is_reserved": 0, "rental_uris": {"android": "https://dc.lft.to/lastmile_qr_scan", "ios": "https://dc.lft.to/lastmile_qr_scan"}, "fusion_lon": 0.0}, {"lat": 38.93737683333333, "is_disabled": 0, "type": "electric_scooter", "lon": -77.03616366666667, "bike_id": "e55f6659131944c23ec17805a2de9f8a", "fusion_lat": 0.0, "name": "e55f6659131944c23ec17805a2de9f8a", "is_reserved": 0, "rental_uris": {"android": "https://dc.lft.to/lastmile_qr_scan", "ios": "https://dc.lft.to/lastmile_qr_scan"}, "fusion_lon": 0.0}, {"lat": 38.898319, "is_disabled": 0, "type": "electric_scooter", "lon": -77.03030566666666, "bike_id": "108be61daa823c00838613768c4f0e65", "fusion_lat": 0.0, "name": "108be61daa823c00838613768c4f0e65", "is_reserved": 0, "rental_uris": {"android": "https://dc.lft.to/lastmile_qr_scan", "ios": "https://dc.lft.to/lastmile_qr_scan"}, "fusion_lon": 0.0}, {"lat": 38.9408695, "is_disabled": 0, "type": "electric_scooter", "lon": -77.06128783333334, "bike_id": "90ca20c8256c4f4d5de890db2700922f", "fusion_lat": 0.0, "name": "90ca20c8256c4f4d5de890db2700922f", "is_reserved": 0, "rental_uris": {"android": "https://dc.lft.to/lastmile_qr_scan", "ios": "https://dc.lft.to/lastmile_qr_scan"}, "fusion_lon": 0.0}, {"lat": 38.91629183333333, "is_disabled": 0, "type": "electric_scooter", "lon": -77.0313275, "bike_id": "141e233c9fad5423cc54c135acfd2740", "fusion_lat": 0.0, "name": "141e233c9fad5423cc54c135acfd2740", "is_reserved": 0, "rental_uris": {"android": "https://dc.lft.to/lastmile_qr_scan", "ios": "https://dc.lft.to/lastmile_qr_scan"}, "fusion_lon": 0.0}, {"lat": 38.9308205, "is_disabled": 0, "type": "electric_scooter", "lon": -77.03138633333333, "bike_id": "920e13b8f15c2fd0d1182511c67c4d1f", "fusion_lat": 0.0, "name": "920e13b8f15c2fd0d1182511c67c4d1f", "is_reserved": 0, "rental_uris": {"android": "https://dc.lft.to/lastmile_qr_scan", "ios": "https://dc.lft.to/lastmile_qr_scan"}, "fusion_lon": 0.0}, {"lat": 38.862885, "is_disabled": 0, "type": "electric_scooter", "lon": -76.9923475, "bike_id": "0c9137570a4cc80925c6655d5846b4fd", "fusion_lat": 0.0, "name": "0c9137570a4cc80925c6655d5846b4fd", "is_reserved": 0, "rental_uris": {"android": "https://dc.lft.to/lastmile_qr_scan", "ios": "https://dc.lft.to/lastmile_qr_scan"}, "fusion_lon": 0.0}, {"lat": 38.898487833333334, "is_disabled": 0, "type": "electric_scooter", "lon": -76.94471033333333, "bike_id": "4e1ddc61246d2f4ea396381e3d0f6dca", "fusion_lat": 0.0, "name": "4e1ddc61246d2f4ea396381e3d0f6dca", "is_reserved": 0, "rental_uris": {"android": "https://dc.lft.to/lastmile_qr_scan", "ios": "https://dc.lft.to/lastmile_qr_scan"}, "fusion_lon": 0.0}, {"lat": 38.92325433333333, "is_disabled": 0, "type": "electric_scooter", "lon": -77.04455016666667, "bike_id": "487f37baca6e3d53a24e4f42eff48605", "fusion_lat": 0.0, "name": "487f37baca6e3d53a24e4f42eff48605", "is_reserved": 0, "rental_uris": {"android": "https://dc.lft.to/lastmile_qr_scan", "ios": "https://dc.lft.to/lastmile_qr_scan"}, "fusion_lon": 0.0}, {"lat": 38.9243865, "is_disabled": 0, "type": "electric_scooter", "lon": -77.03375783333334, "bike_id": "36ea664acdd0e5c253c3c8837986326f", "fusion_lat": 0.0, "name": "36ea664acdd0e5c253c3c8837986326f", "is_reserved": 0, "rental_uris": {"android": "https://dc.lft.to/lastmile_qr_scan", "ios": "https://dc.lft.to/lastmile_qr_scan"}, "fusion_lon": 0.0}, {"lat": 38.919899, "is_disabled": 0, "type": "electric_scooter", "lon": -77.04105583333333, "bike_id": "64e822be904913072dffbe76c66e1a5a", "fusion_lat": 0.0, "name": "64e822be904913072dffbe76c66e1a5a", "is_reserved": 0, "rental_uris": {"android": "https://dc.lft.to/lastmile_qr_scan", "ios": "https://dc.lft.to/lastmile_qr_scan"}, "fusion_lon": 0.0}, {"lat": 38.9413, "is_disabled": 0, "type": "electric_bike", "lon": -76.99629533333334, "bike_id": "a85247ca4632f87c566731b99a154360", "fusion_lat": 0.0, "name": "a85247ca4632f87c566731b99a154360", "is_reserved": 0, "rental_uris": {"android": "https://dc.lft.to/lastmile_qr_scan", "ios": "https://dc.lft.to/lastmile_qr_scan"}, "fusion_lon": 0.0}, {"lat": 38.90678066666667, "is_disabled": 0, "type": "electric_scooter", "lon": -77.03611166666667, "bike_id": "e55017e4d5434731a62e9344c03bd323", "fusion_lat": 0.0, "name": "e55017e4d5434731a62e9344c03bd323", "is_reserved": 0, "rental_uris": {"android": "https://dc.lft.to/lastmile_qr_scan", "ios": "https://dc.lft.to/lastmile_qr_scan"}, "fusion_lon": 0.0}, {"lat": 38.89515733333333, "is_disabled": 0, "type": "electric_scooter", "lon": -77.04358183333333, "bike_id": "eb65811160d9b3fa88ddee623514650c", "fusion_lat": 0.0, "name": "eb65811160d9b3fa88ddee623514650c", "is_reserved": 0, "rental_uris": {"android": "https://dc.lft.to/lastmile_qr_scan", "ios": "https://dc.lft.to/lastmile_qr_scan"}, "fusion_lon": 0.0}, {"lat": 38.909456666666664, "is_disabled": 0, "type": "electric_scooter", "lon": -77.046851, "bike_id": "c8ac5fe8f8446a05cf00ea60ba64fe4d", "fusion_lat": 0.0, "name": "c8ac5fe8f8446a05cf00ea60ba64fe4d", "is_reserved": 0, "rental_uris": {"android": "https://dc.lft.to/lastmile_qr_scan", "ios": "https://dc.lft.to/lastmile_qr_scan"}, "fusion_lon": 0.0}, {"lat": 38.90975683333333, "is_disabled": 0, "type": "electric_scooter", "lon": -77.0342435, "bike_id": "43a94207a0dbda2f650b5e2a4799284b", "fusion_lat": 0.0, "name": "43a94207a0dbda2f650b5e2a4799284b", "is_reserved": 0, "rental_uris": {"android": "https://dc.lft.to/lastmile_qr_scan", "ios": "https://dc.lft.to/lastmile_qr_scan"}, "fusion_lon": 0.0}, {"lat": 38.93948266666666, "is_disabled": 0, "type": "electric_scooter", "lon": -77.021806, "bike_id": "bc499d617d7d33bffb105734a426be18", "fusion_lat": 0.0, "name": "bc499d617d7d33bffb105734a426be18", "is_reserved": 0, "rental_uris": {"android": "https://dc.lft.to/lastmile_qr_scan", "ios": "https://dc.lft.to/lastmile_qr_scan"}, "fusion_lon": 0.0}, {"lat": 39.0943975, "is_disabled": 0, "type": "electric_bike", "lon": -77.13462033333333, "bike_id": "93ea0e87e030106f1412ea92342fef6d", "fusion_lat": 0.0, "name": "93ea0e87e030106f1412ea92342fef6d", "is_reserved": 0, "rental_uris": {"android": "https://dc.lft.to/lastmile_qr_scan", "ios": "https://dc.lft.to/lastmile_qr_scan"}, "fusion_lon": 0.0}, {"lat": 38.908, "is_disabled": 0, "type": "electric_scooter", "lon": -77.03482333333334, "bike_id": "6f0a6235f5beb71cf036fcaa90c758b9", "fusion_lat": 0.0, "name": "6f0a6235f5beb71cf036fcaa90c758b9", "is_reserved": 0, "rental_uris": {"android": "https://dc.lft.to/lastmile_qr_scan", "ios": "https://dc.lft.to/lastmile_qr_scan"}, "fusion_lon": 0.0}, {"lat": 38.902200666666666, "is_disabled": 0, "type": "electric_scooter", "lon": -77.0052995, "bike_id": "ea4d74c99ed6dbe0110264615091ad53", "fusion_lat": 0.0, "name": "ea4d74c99ed6dbe0110264615091ad53", "is_reserved": 0, "rental_uris": {"android": "https://dc.lft.to/lastmile_qr_scan", "ios": "https://dc.lft.to/lastmile_qr_scan"}, "fusion_lon": 0.0}, {"lat": 38.927150833333336, "is_disabled": 0, "type": "electric_scooter", "lon": -77.02082766666666, "bike_id": "e1aa7bdb8f30f8e878acc150be10b79a", "fusion_lat": 0.0, "name": "e1aa7bdb8f30f8e878acc150be10b79a", "is_reserved": 0, "rental_uris": {"android": "https://dc.lft.to/lastmile_qr_scan", "ios": "https://dc.lft.to/lastmile_qr_scan"}, "fusion_lon": 0.0}, {"lat": 38.9362455, "is_disabled": 0, "type": "electric_scooter", "lon": -77.03659766666667, "bike_id": "6b44525e7907c796ba959ba3dd1fa768", "fusion_lat": 0.0, "name": "6b44525e7907c796ba959ba3dd1fa768", "is_reserved": 0, "rental_uris": {"android": "https://dc.lft.to/lastmile_qr_scan", "ios": "https://dc.lft.to/lastmile_qr_scan"}, "fusion_lon": 0.0}, {"lat": 38.90034833333333, "is_disabled": 0, "type": "electric_scooter", "lon": -77.0057885, "bike_id": "01a450ea0f32b35945fa4cc61a5e47bb", "fusion_lat": 0.0, "name": "01a450ea0f32b35945fa4cc61a5e47bb", "is_reserved": 0, "rental_uris": {"android": "https://dc.lft.to/lastmile_qr_scan", "ios": "https://dc.lft.to/lastmile_qr_scan"}, "fusion_lon": 0.0}, {"lat": 38.9242525, "is_disabled": 0, "type": "electric_bike", "lon": -77.050492, "bike_id": "d59ed98cb149d26246d8c582b8c1db9c", "fusion_lat": 0.0, "name": "d59ed98cb149d26246d8c582b8c1db9c", "is_reserved": 0, "rental_uris": {"android": "https://dc.lft.to/lastmile_qr_scan", "ios": "https://dc.lft.to/lastmile_qr_scan"}, "fusion_lon": 0.0}, {"lat": 38.91891866666667, "is_disabled": 0, "type": "electric_scooter", "lon": -77.03446833333334, "bike_id": "c66b3653f8170d6bd8667c14301e942f", "fusion_lat": 0.0, "name": "c66b3653f8170d6bd8667c14301e942f", "is_reserved": 0, "rental_uris": {"android": "https://dc.lft.to/lastmile_qr_scan", "ios": "https://dc.lft.to/lastmile_qr_scan"}, "fusion_lon": 0.0}, {"lat": 38.95272633333333, "is_disabled": 0, "type": "electric_scooter", "lon": -77.03653716666666, "bike_id": "030261267d6d6fb950459319b42b98b6", "fusion_lat": 0.0, "name": "030261267d6d6fb950459319b42b98b6", "is_reserved": 0, "rental_uris": {"android": "https://dc.lft.to/lastmile_qr_scan", "ios": "https://dc.lft.to/lastmile_qr_scan"}, "fusion_lon": 0.0}, {"lat": 38.944516166666666, "is_disabled": 0, "type": "electric_scooter", "lon": -77.06028166666667, "bike_id": "4f181d5d0421dd78ac02470b38e7650e", "fusion_lat": 0.0, "name": "4f181d5d0421dd78ac02470b38e7650e", "is_reserved": 0, "rental_uris": {"android": "https://dc.lft.to/lastmile_qr_scan", "ios": "https://dc.lft.to/lastmile_qr_scan"}, "fusion_lon": 0.0}, {"lat": 38.924688333333336, "is_disabled": 0, "type": "electric_bike", "lon": -77.20843783333333, "bike_id": "3b9d2b86cc0872552783d4878e63e6da", "fusion_lat": 0.0, "name": "3b9d2b86cc0872552783d4878e63e6da", "is_reserved": 0, "rental_uris": {"android": "https://dc.lft.to/lastmile_qr_scan", "ios": "https://dc.lft.to/lastmile_qr_scan"}, "fusion_lon": 0.0}, {"lat": 38.893715, "is_disabled": 0, "type": "electric_scooter", "lon": -77.04785516666666, "bike_id": "d321b56cd2dd7b1b9d53a34abad42a58", "fusion_lat": 0.0, "name": "d321b56cd2dd7b1b9d53a34abad42a58", "is_reserved": 0, "rental_uris": {"android": "https://dc.lft.to/lastmile_qr_scan", "ios": "https://dc.lft.to/lastmile_qr_scan"}, "fusion_lon": 0.0}, {"lat": 38.94448466666667, "is_disabled": 0, "type": "electric_scooter", "lon": -77.0328065, "bike_id": "bc60192c6799f3477b51c4992d2d225f", "fusion_lat": 0.0, "name": "bc60192c6799f3477b51c4992d2d225f", "is_reserved": 0, "rental_uris": {"android": "https://dc.lft.to/lastmile_qr_scan", "ios": "https://dc.lft.to/lastmile_qr_scan"}, "fusion_lon": 0.0}, {"lat": 38.85809716666667, "is_disabled": 0, "type": "electric_scooter", "lon": -76.98655083333334, "bike_id": "f57c4e2ac42d281e124af96bfe91a3e6", "fusion_lat": 0.0, "name": "f57c4e2ac42d281e124af96bfe91a3e6", "is_reserved": 0, "rental_uris": {"android": "https://dc.lft.to/lastmile_qr_scan", "ios": "https://dc.lft.to/lastmile_qr_scan"}, "fusion_lon": 0.0}, {"lat": 38.9169655, "is_disabled": 0, "type": "electric_scooter", "lon": -77.043304, "bike_id": "711caa304368d0058c8617dc917f1d6a", "fusion_lat": 0.0, "name": "711caa304368d0058c8617dc917f1d6a", "is_reserved": 0, "rental_uris": {"android": "https://dc.lft.to/lastmile_qr_scan", "ios": "https://dc.lft.to/lastmile_qr_scan"}, "fusion_lon": 0.0}, {"lat": 38.915970333333334, "is_disabled": 0, "type": "electric_scooter", "lon": -77.07555066666667, "bike_id": "af9ffdb1e68a0b1453ebd8a489318eff", "fusion_lat": 0.0, "name": "af9ffdb1e68a0b1453ebd8a489318eff", "is_reserved": 0, "rental_uris": {"android": "https://dc.lft.to/lastmile_qr_scan", "ios": "https://dc.lft.to/lastmile_qr_scan"}, "fusion_lon": 0.0}, {"lat": 38.96394266666667, "is_disabled": 0, "type": "electric_scooter", "lon": -77.02588866666666, "bike_id": "f77ce7b2a9ed69ffc4f5cc35a9d95ec8", "fusion_lat": 0.0, "name": "f77ce7b2a9ed69ffc4f5cc35a9d95ec8", "is_reserved": 0, "rental_uris": {"android": "https://dc.lft.to/lastmile_qr_scan", "ios": "https://dc.lft.to/lastmile_qr_scan"}, "fusion_lon": 0.0}, {"lat": 38.874486166666664, "is_disabled": 0, "type": "electric_bike", "lon": -77.10818333333333, "bike_id": "0c4ef4fbc1e6b36ead36908126c19db6", "fusion_lat": 0.0, "name": "0c4ef4fbc1e6b36ead36908126c19db6", "is_reserved": 0, "rental_uris": {"android": "https://dc.lft.to/lastmile_qr_scan", "ios": "https://dc.lft.to/lastmile_qr_scan"}, "fusion_lon": 0.0}, {"lat": 38.8909175, "is_disabled": 0, "type": "electric_scooter", "lon": -76.94296866666667, "bike_id": "ce3eac5db6d1d08f1cc1ed2ced937572", "fusion_lat": 0.0, "name": "ce3eac5db6d1d08f1cc1ed2ced937572", "is_reserved": 0, "rental_uris": {"android": "https://dc.lft.to/lastmile_qr_scan", "ios": "https://dc.lft.to/lastmile_qr_scan"}, "fusion_lon": 0.0}, {"lat": 38.906866, "is_disabled": 0, "type": "electric_bike", "lon": -76.95197533333334, "bike_id": "a1d4a9af3aa2ac67dc33afe9ebb3428a", "fusion_lat": 0.0, "name": "a1d4a9af3aa2ac67dc33afe9ebb3428a", "is_reserved": 0, "rental_uris": {"android": "https://dc.lft.to/lastmile_qr_scan", "ios": "https://dc.lft.to/lastmile_qr_scan"}, "fusion_lon": 0.0}, {"lat": 38.807546, "is_disabled": 0, "type": "electric_bike", "lon": -77.09453266666667, "bike_id": "4718dcf2cf7d1095772006f233524d40", "fusion_lat": 0.0, "name": "4718dcf2cf7d1095772006f233524d40", "is_reserved": 0, "rental_uris": {"android": "https://dc.lft.to/lastmile_qr_scan", "ios": "https://dc.lft.to/lastmile_qr_scan"}, "fusion_lon": 0.0}, {"lat": 38.89082416666667, "is_disabled": 0, "type": "electric_scooter", "lon": -76.98681316666666, "bike_id": "fed697e2de70365e6459036fa09ffbd3", "fusion_lat": 0.0, "name": "fed697e2de70365e6459036fa09ffbd3", "is_reserved": 0, "rental_uris": {"android": "https://dc.lft.to/lastmile_qr_scan", "ios": "https://dc.lft.to/lastmile_qr_scan"}, "fusion_lon": 0.0}, {"lat": 38.915559333333334, "is_disabled": 0, "type": "electric_scooter", "lon": -77.03235733333334, "bike_id": "41a4254b6633adce2deb9984e8332a25", "fusion_lat": 0.0, "name": "41a4254b6633adce2deb9984e8332a25", "is_reserved": 0, "rental_uris": {"android": "https://dc.lft.to/lastmile_qr_scan", "ios": "https://dc.lft.to/lastmile_qr_scan"}, "fusion_lon": 0.0}, {"lat": 38.9094675, "is_disabled": 0, "type": "electric_scooter", "lon": -77.04418566666666, "bike_id": "ad4122e70ac996f7ca86d4cc02d9cce8", "fusion_lat": 0.0, "name": "ad4122e70ac996f7ca86d4cc02d9cce8", "is_reserved": 0, "rental_uris": {"android": "https://dc.lft.to/lastmile_qr_scan", "ios": "https://dc.lft.to/lastmile_qr_scan"}, "fusion_lon": 0.0}, {"lat": 38.866178166666664, "is_disabled": 0, "type": "electric_scooter", "lon": -76.98652583333333, "bike_id": "76502be7f509696cc4bef7f1eced9929", "fusion_lat": 0.0, "name": "76502be7f509696cc4bef7f1eced9929", "is_reserved": 0, "rental_uris": {"android": "https://dc.lft.to/lastmile_qr_scan", "ios": "https://dc.lft.to/lastmile_qr_scan"}, "fusion_lon": 0.0}, {"lat": 38.914971666666666, "is_disabled": 0, "type": "electric_scooter", "lon": -77.01993466666667, "bike_id": "b9b290e45e89918f9d7774922f2d2cab", "fusion_lat": 0.0, "name": "b9b290e45e89918f9d7774922f2d2cab", "is_reserved": 0, "rental_uris": {"android": "https://dc.lft.to/lastmile_qr_scan", "ios": "https://dc.lft.to/lastmile_qr_scan"}, "fusion_lon": 0.0}, {"lat": 38.84425866666667, "is_disabled": 0, "type": "electric_scooter", "lon": -76.9978185, "bike_id": "8b57ea40ea2ed32ab71a3990405f193c", "fusion_lat": 0.0, "name": "8b57ea40ea2ed32ab71a3990405f193c", "is_reserved": 0, "rental_uris": {"android": "https://dc.lft.to/lastmile_qr_scan", "ios": "https://dc.lft.to/lastmile_qr_scan"}, "fusion_lon": 0.0}, {"lat": 38.912824, "is_disabled": 0, "type": "electric_scooter", "lon": -77.02265083333333, "bike_id": "2546cb35cd4aa6f4b8df8ca083475271", "fusion_lat": 0.0, "name": "2546cb35cd4aa6f4b8df8ca083475271", "is_reserved": 0, "rental_uris": {"android": "https://dc.lft.to/lastmile_qr_scan", "ios": "https://dc.lft.to/lastmile_qr_scan"}, "fusion_lon": 0.0}, {"lat": 38.922536, "is_disabled": 0, "type": "electric_scooter", "lon": -77.03906633333334, "bike_id": "3d261f0501d83fc21d267de400053941", "fusion_lat": 0.0, "name": "3d261f0501d83fc21d267de400053941", "is_reserved": 0, "rental_uris": {"android": "https://dc.lft.to/lastmile_qr_scan", "ios": "https://dc.lft.to/lastmile_qr_scan"}, "fusion_lon": 0.0}, {"lat": 38.91688933333333, "is_disabled": 0, "type": "electric_scooter", "lon": -77.02950683333333, "bike_id": "ca32247b47955555c8b58f882299a423", "fusion_lat": 0.0, "name": "ca32247b47955555c8b58f882299a423", "is_reserved": 0, "rental_uris": {"android": "https://dc.lft.to/lastmile_qr_scan", "ios": "https://dc.lft.to/lastmile_qr_scan"}, "fusion_lon": 0.0}, {"lat": 38.90762566666667, "is_disabled": 0, "type": "electric_scooter", "lon": -77.0206315, "bike_id": "b378921e2a6fc7a8fcef68df6b2d074c", "fusion_lat": 0.0, "name": "b378921e2a6fc7a8fcef68df6b2d074c", "is_reserved": 0, "rental_uris": {"android": "https://dc.lft.to/lastmile_qr_scan", "ios": "https://dc.lft.to/lastmile_qr_scan"}, "fusion_lon": 0.0}, {"lat": 38.953277166666666, "is_disabled": 0, "type": "electric_bike", "lon": -76.9882155, "bike_id": "80826e7b8789473070a83cf92b53e60a", "fusion_lat": 0.0, "name": "80826e7b8789473070a83cf92b53e60a", "is_reserved": 0, "rental_uris": {"android": "https://dc.lft.to/lastmile_qr_scan", "ios": "https://dc.lft.to/lastmile_qr_scan"}, "fusion_lon": 0.0}, {"lat": 38.8992545, "is_disabled": 0, "type": "electric_scooter", "lon": -77.02180183333333, "bike_id": "332ac6054fd74945d6f69602721286c2", "fusion_lat": 0.0, "name": "332ac6054fd74945d6f69602721286c2", "is_reserved": 0, "rental_uris": {"android": "https://dc.lft.to/lastmile_qr_scan", "ios": "https://dc.lft.to/lastmile_qr_scan"}, "fusion_lon": 0.0}, {"lat": 38.866571666666665, "is_disabled": 0, "type": "electric_scooter", "lon": -76.98884883333334, "bike_id": "75e623c683e8cfffe88f24a450d6d4f9", "fusion_lat": 0.0, "name": "75e623c683e8cfffe88f24a450d6d4f9", "is_reserved": 0, "rental_uris": {"android": "https://dc.lft.to/lastmile_qr_scan", "ios": "https://dc.lft.to/lastmile_qr_scan"}, "fusion_lon": 0.0}, {"lat": 38.917130666666665, "is_disabled": 0, "type": "electric_scooter", "lon": -77.038599, "bike_id": "4b0da927ca58aaac50d5679ed2dfc4f5", "fusion_lat": 0.0, "name": "4b0da927ca58aaac50d5679ed2dfc4f5", "is_reserved": 0, "rental_uris": {"android": "https://dc.lft.to/lastmile_qr_scan", "ios": "https://dc.lft.to/lastmile_qr_scan"}, "fusion_lon": 0.0}, {"lat": 38.933511333333335, "is_disabled": 0, "type": "electric_scooter", "lon": -77.05866433333334, "bike_id": "4845ead112d8856ecad104e07bc8e803", "fusion_lat": 0.0, "name": "4845ead112d8856ecad104e07bc8e803", "is_reserved": 0, "rental_uris": {"android": "https://dc.lft.to/lastmile_qr_scan", "ios": "https://dc.lft.to/lastmile_qr_scan"}, "fusion_lon": 0.0}, {"lat": 38.89774233333333, "is_disabled": 0, "type": "electric_scooter", "lon": -77.05159383333333, "bike_id": "49f65eacbb6747925627ac89e1c05016", "fusion_lat": 0.0, "name": "49f65eacbb6747925627ac89e1c05016", "is_reserved": 0, "rental_uris": {"android": "https://dc.lft.to/lastmile_qr_scan", "ios": "https://dc.lft.to/lastmile_qr_scan"}, "fusion_lon": 0.0}, {"lat": 38.92302333333333, "is_disabled": 0, "type": "electric_scooter", "lon": -77.04139983333333, "bike_id": "caf88ff7159c084cda41020e0d14d63b", "fusion_lat": 0.0, "name": "caf88ff7159c084cda41020e0d14d63b", "is_reserved": 0, "rental_uris": {"android": "https://dc.lft.to/lastmile_qr_scan", "ios": "https://dc.lft.to/lastmile_qr_scan"}, "fusion_lon": 0.0}, {"lat": 38.923115333333335, "is_disabled": 0, "type": "electric_scooter", "lon": -77.0396125, "bike_id": "e2d3db7df34aac1f230f8fc9edc25faa", "fusion_lat": 0.0, "name": "e2d3db7df34aac1f230f8fc9edc25faa", "is_reserved": 0, "rental_uris": {"android": "https://dc.lft.to/lastmile_qr_scan", "ios": "https://dc.lft.to/lastmile_qr_scan"}, "fusion_lon": 0.0}, {"lat": 38.92427133333333, "is_disabled": 0, "type": "electric_scooter", "lon": -77.04244966666667, "bike_id": "19f86bd8e56c1d7b1f2cedad98c78991", "fusion_lat": 0.0, "name": "19f86bd8e56c1d7b1f2cedad98c78991", "is_reserved": 0, "rental_uris": {"android": "https://dc.lft.to/lastmile_qr_scan", "ios": "https://dc.lft.to/lastmile_qr_scan"}, "fusion_lon": 0.0}, {"lat": 38.924862833333336, "is_disabled": 0, "type": "electric_scooter", "lon": -77.0521505, "bike_id": "69480be2ed033de0894a1e362ac87960", "fusion_lat": 0.0, "name": "69480be2ed033de0894a1e362ac87960", "is_reserved": 0, "rental_uris": {"android": "https://dc.lft.to/lastmile_qr_scan", "ios": "https://dc.lft.to/lastmile_qr_scan"}, "fusion_lon": 0.0}, {"lat": 38.90571216666667, "is_disabled": 0, "type": "electric_scooter", "lon": -76.98873933333333, "bike_id": "821da77b35a472d44996eff274053c14", "fusion_lat": 0.0, "name": "821da77b35a472d44996eff274053c14", "is_reserved": 0, "rental_uris": {"android": "https://dc.lft.to/lastmile_qr_scan", "ios": "https://dc.lft.to/lastmile_qr_scan"}, "fusion_lon": 0.0}, {"lat": 38.91172366666667, "is_disabled": 0, "type": "electric_scooter", "lon": -77.03862616666666, "bike_id": "6690396e7642ee244d413c705a542210", "fusion_lat": 0.0, "name": "6690396e7642ee244d413c705a542210", "is_reserved": 0, "rental_uris": {"android": "https://dc.lft.to/lastmile_qr_scan", "ios": "https://dc.lft.to/lastmile_qr_scan"}, "fusion_lon": 0.0}, {"lat": 38.884457, "is_disabled": 0, "type": "electric_scooter", "lon": -77.0152705, "bike_id": "4de18e6717ce5c34fd751f788a4def4f", "fusion_lat": 0.0, "name": "4de18e6717ce5c34fd751f788a4def4f", "is_reserved": 0, "rental_uris": {"android": "https://dc.lft.to/lastmile_qr_scan", "ios": "https://dc.lft.to/lastmile_qr_scan"}, "fusion_lon": 0.0}, {"lat": 38.92679483333333, "is_disabled": 0, "type": "electric_scooter", "lon": -77.00743966666667, "bike_id": "4c91f4653a968019b97e4b2887bbfbc2", "fusion_lat": 0.0, "name": "4c91f4653a968019b97e4b2887bbfbc2", "is_reserved": 0, "rental_uris": {"android": "https://dc.lft.to/lastmile_qr_scan", "ios": "https://dc.lft.to/lastmile_qr_scan"}, "fusion_lon": 0.0}, {"lat": 38.891438666666666, "is_disabled": 0, "type": "electric_bike", "lon": -77.11306483333334, "bike_id": "1564d96c7af1df84c4503073c60cc895", "fusion_lat": 0.0, "name": "1564d96c7af1df84c4503073c60cc895", "is_reserved": 0, "rental_uris": {"android": "https://dc.lft.to/lastmile_qr_scan", "ios": "https://dc.lft.to/lastmile_qr_scan"}, "fusion_lon": 0.0}, {"lat": 38.90960783333333, "is_disabled": 0, "type": "electric_scooter", "lon": -77.0405925, "bike_id": "30e43b08e3d94b6369952dd490b4d27c", "fusion_lat": 0.0, "name": "30e43b08e3d94b6369952dd490b4d27c", "is_reserved": 0, "rental_uris": {"android": "https://dc.lft.to/lastmile_qr_scan", "ios": "https://dc.lft.to/lastmile_qr_scan"}, "fusion_lon": 0.0}, {"lat": 38.9248295, "is_disabled": 0, "type": "electric_scooter", "lon": -77.0254565, "bike_id": "ca1dc20d2519b0ac02cd6ca1568bca0f", "fusion_lat": 0.0, "name": "ca1dc20d2519b0ac02cd6ca1568bca0f", "is_reserved": 0, "rental_uris": {"android": "https://dc.lft.to/lastmile_qr_scan", "ios": "https://dc.lft.to/lastmile_qr_scan"}, "fusion_lon": 0.0}, {"lat": 38.900367833333334, "is_disabled": 0, "type": "electric_scooter", "lon": -77.00536516666666, "bike_id": "b99136db65d3d697fa8311aadacb01b6", "fusion_lat": 0.0, "name": "b99136db65d3d697fa8311aadacb01b6", "is_reserved": 0, "rental_uris": {"android": "https://dc.lft.to/lastmile_qr_scan", "ios": "https://dc.lft.to/lastmile_qr_scan"}, "fusion_lon": 0.0}, {"lat": 38.90244416666667, "is_disabled": 0, "type": "electric_scooter", "lon": -77.019283, "bike_id": "4c38c096777d8d3da1ad4180fd5e3c19", "fusion_lat": 0.0, "name": "4c38c096777d8d3da1ad4180fd5e3c19", "is_reserved": 0, "rental_uris": {"android": "https://dc.lft.to/lastmile_qr_scan", "ios": "https://dc.lft.to/lastmile_qr_scan"}, "fusion_lon": 0.0}, {"lat": 38.912486, "is_disabled": 0, "type": "electric_scooter", "lon": -77.0043085, "bike_id": "4eb3bc4cb6ad5a5f2397126e53aedace", "fusion_lat": 0.0, "name": "4eb3bc4cb6ad5a5f2397126e53aedace", "is_reserved": 0, "rental_uris": {"android": "https://dc.lft.to/lastmile_qr_scan", "ios": "https://dc.lft.to/lastmile_qr_scan"}, "fusion_lon": 0.0}, {"lat": 38.91680916666667, "is_disabled": 0, "type": "electric_scooter", "lon": -77.04150316666667, "bike_id": "5a34f6ec3df00ec0558286e6cdde7b60", "fusion_lat": 0.0, "name": "5a34f6ec3df00ec0558286e6cdde7b60", "is_reserved": 0, "rental_uris": {"android": "https://dc.lft.to/lastmile_qr_scan", "ios": "https://dc.lft.to/lastmile_qr_scan"}, "fusion_lon": 0.0}, {"lat": 38.92886583333333, "is_disabled": 0, "type": "electric_scooter", "lon": -77.033275, "bike_id": "c30cb19e42b00d0bbe8a3c59e335641c", "fusion_lat": 0.0, "name": "c30cb19e42b00d0bbe8a3c59e335641c", "is_reserved": 0, "rental_uris": {"android": "https://dc.lft.to/lastmile_qr_scan", "ios": "https://dc.lft.to/lastmile_qr_scan"}, "fusion_lon": 0.0}, {"lat": 38.8922055, "is_disabled": 0, "type": "electric_bike", "lon": -77.10782583333334, "bike_id": "4543af5f528c2749ce7ce31478338795", "fusion_lat": 0.0, "name": "4543af5f528c2749ce7ce31478338795", "is_reserved": 0, "rental_uris": {"android": "https://dc.lft.to/lastmile_qr_scan", "ios": "https://dc.lft.to/lastmile_qr_scan"}, "fusion_lon": 0.0}, {"lat": 38.8857915, "is_disabled": 0, "type": "electric_scooter", "lon": -76.91912116666667, "bike_id": "ff1989b2fb68010396945a311fbfc5aa", "fusion_lat": 0.0, "name": "ff1989b2fb68010396945a311fbfc5aa", "is_reserved": 0, "rental_uris": {"android": "https://dc.lft.to/lastmile_qr_scan", "ios": "https://dc.lft.to/lastmile_qr_scan"}, "fusion_lon": 0.0}, {"lat": 38.924839666666664, "is_disabled": 0, "type": "electric_scooter", "lon": -77.02842966666667, "bike_id": "1e03b89d17bc2c67d667922e44046332", "fusion_lat": 0.0, "name": "1e03b89d17bc2c67d667922e44046332", "is_reserved": 0, "rental_uris": {"android": "https://dc.lft.to/lastmile_qr_scan", "ios": "https://dc.lft.to/lastmile_qr_scan"}, "fusion_lon": 0.0}, {"lat": 38.9561235, "is_disabled": 0, "type": "electric_scooter", "lon": -77.027583, "bike_id": "8c1701745e878cbfb93fd64a69e00f41", "fusion_lat": 0.0, "name": "8c1701745e878cbfb93fd64a69e00f41", "is_reserved": 0, "rental_uris": {"android": "https://dc.lft.to/lastmile_qr_scan", "ios": "https://dc.lft.to/lastmile_qr_scan"}, "fusion_lon": 0.0}, {"lat": 38.9117845, "is_disabled": 0, "type": "electric_scooter", "lon": -77.06089, "bike_id": "84a866a225c89aa3c28fd3d1d2bcef9d", "fusion_lat": 0.0, "name": "84a866a225c89aa3c28fd3d1d2bcef9d", "is_reserved": 0, "rental_uris": {"android": "https://dc.lft.to/lastmile_qr_scan", "ios": "https://dc.lft.to/lastmile_qr_scan"}, "fusion_lon": 0.0}, {"lat": 38.92894283333333, "is_disabled": 0, "type": "electric_scooter", "lon": -77.02213983333333, "bike_id": "30d28369efb29f14d9ca61a9f640cde1", "fusion_lat": 0.0, "name": "30d28369efb29f14d9ca61a9f640cde1", "is_reserved": 0, "rental_uris": {"android": "https://dc.lft.to/lastmile_qr_scan", "ios": "https://dc.lft.to/lastmile_qr_scan"}, "fusion_lon": 0.0}, {"lat": 38.886389, "is_disabled": 0, "type": "electric_bike", "lon": -76.9547145, "bike_id": "ab5060c637d458dbf8cfe5ab2ceed0c5", "fusion_lat": 0.0, "name": "ab5060c637d458dbf8cfe5ab2ceed0c5", "is_reserved": 0, "rental_uris": {"android": "https://dc.lft.to/lastmile_qr_scan", "ios": "https://dc.lft.to/lastmile_qr_scan"}, "fusion_lon": 0.0}, {"lat": 38.927396333333334, "is_disabled": 0, "type": "electric_scooter", "lon": -77.03448483333334, "bike_id": "ea2934e6ad279c7f42f7adcf7c960a32", "fusion_lat": 0.0, "name": "ea2934e6ad279c7f42f7adcf7c960a32", "is_reserved": 0, "rental_uris": {"android": "https://dc.lft.to/lastmile_qr_scan", "ios": "https://dc.lft.to/lastmile_qr_scan"}, "fusion_lon": 0.0}, {"lat": 39.0563535, "is_disabled": 0, "type": "electric_bike", "lon": -77.1252795, "bike_id": "68ff7d49c34c225dc31b5321423ee8f2", "fusion_lat": 0.0, "name": "68ff7d49c34c225dc31b5321423ee8f2", "is_reserved": 0, "rental_uris": {"android": "https://dc.lft.to/lastmile_qr_scan", "ios": "https://dc.lft.to/lastmile_qr_scan"}, "fusion_lon": 0.0}, {"lat": 38.8981925, "is_disabled": 0, "type": "electric_scooter", "lon": -76.99693883333333, "bike_id": "8c9546fa3226c9ce6b1aa33d78aa94fe", "fusion_lat": 0.0, "name": "8c9546fa3226c9ce6b1aa33d78aa94fe", "is_reserved": 0, "rental_uris": {"android": "https://dc.lft.to/lastmile_qr_scan", "ios": "https://dc.lft.to/lastmile_qr_scan"}, "fusion_lon": 0.0}, {"lat": 38.90182733333333, "is_disabled": 0, "type": "electric_scooter", "lon": -77.02403983333333, "bike_id": "b6ec338c7396bb3b79c08d70cc6de47c", "fusion_lat": 0.0, "name": "b6ec338c7396bb3b79c08d70cc6de47c", "is_reserved": 0, "rental_uris": {"android": "https://dc.lft.to/lastmile_qr_scan", "ios": "https://dc.lft.to/lastmile_qr_scan"}, "fusion_lon": 0.0}, {"lat": 38.92759266666667, "is_disabled": 0, "type": "electric_scooter", "lon": -77.03212683333334, "bike_id": "c8120b7c90028dff1733cf9e61dcf88c", "fusion_lat": 0.0, "name": "c8120b7c90028dff1733cf9e61dcf88c", "is_reserved": 0, "rental_uris": {"android": "https://dc.lft.to/lastmile_qr_scan", "ios": "https://dc.lft.to/lastmile_qr_scan"}, "fusion_lon": 0.0}, {"lat": 38.911175166666666, "is_disabled": 0, "type": "electric_scooter", "lon": -77.03770783333333, "bike_id": "ecda02f1f5a0f2139ad5c83a7e3b5715", "fusion_lat": 0.0, "name": "ecda02f1f5a0f2139ad5c83a7e3b5715", "is_reserved": 0, "rental_uris": {"android": "https://dc.lft.to/lastmile_qr_scan", "ios": "https://dc.lft.to/lastmile_qr_scan"}, "fusion_lon": 0.0}, {"lat": 38.89734333333333, "is_disabled": 0, "type": "electric_scooter", "lon": -77.0000705, "bike_id": "6ff345b30c39e65cff7c2643ca1581ec", "fusion_lat": 0.0, "name": "6ff345b30c39e65cff7c2643ca1581ec", "is_reserved": 0, "rental_uris": {"android": "https://dc.lft.to/lastmile_qr_scan", "ios": "https://dc.lft.to/lastmile_qr_scan"}, "fusion_lon": 0.0}, {"lat": 38.90972983333333, "is_disabled": 0, "type": "electric_scooter", "lon": -77.0526315, "bike_id": "3e60a721ee7b6ca21978224d2b86a65d", "fusion_lat": 0.0, "name": "3e60a721ee7b6ca21978224d2b86a65d", "is_reserved": 0, "rental_uris": {"android": "https://dc.lft.to/lastmile_qr_scan", "ios": "https://dc.lft.to/lastmile_qr_scan"}, "fusion_lon": 0.0}, {"lat": 38.866604833333334, "is_disabled": 0, "type": "electric_scooter", "lon": -76.9891325, "bike_id": "66b5b34b4cf6907760de835ba247dc40", "fusion_lat": 0.0, "name": "66b5b34b4cf6907760de835ba247dc40", "is_reserved": 0, "rental_uris": {"android": "https://dc.lft.to/lastmile_qr_scan", "ios": "https://dc.lft.to/lastmile_qr_scan"}, "fusion_lon": 0.0}, {"lat": 38.92139316666667, "is_disabled": 0, "type": "electric_scooter", "lon": -77.03661883333334, "bike_id": "232ba366d2c9d0da157100265834d3dc", "fusion_lat": 0.0, "name": "232ba366d2c9d0da157100265834d3dc", "is_reserved": 0, "rental_uris": {"android": "https://dc.lft.to/lastmile_qr_scan", "ios": "https://dc.lft.to/lastmile_qr_scan"}, "fusion_lon": 0.0}, {"lat": 38.89639916666667, "is_disabled": 0, "type": "electric_scooter", "lon": -77.04678166666666, "bike_id": "af3476f4cd25a4b51e458a714206ea98", "fusion_lat": 0.0, "name": "af3476f4cd25a4b51e458a714206ea98", "is_reserved": 0, "rental_uris": {"android": "https://dc.lft.to/lastmile_qr_scan", "ios": "https://dc.lft.to/lastmile_qr_scan"}, "fusion_lon": 0.0}, {"lat": 38.929643166666665, "is_disabled": 0, "type": "electric_scooter", "lon": -77.0317755, "bike_id": "10022688b0016ac3bb7001a439e7dadb", "fusion_lat": 0.0, "name": "10022688b0016ac3bb7001a439e7dadb", "is_reserved": 0, "rental_uris": {"android": "https://dc.lft.to/lastmile_qr_scan", "ios": "https://dc.lft.to/lastmile_qr_scan"}, "fusion_lon": 0.0}, {"lat": 38.910158, "is_disabled": 0, "type": "electric_scooter", "lon": -77.0301565, "bike_id": "28d38991862fb8e313139dc3867474b0", "fusion_lat": 0.0, "name": "28d38991862fb8e313139dc3867474b0", "is_reserved": 0, "rental_uris": {"android": "https://dc.lft.to/lastmile_qr_scan", "ios": "https://dc.lft.to/lastmile_qr_scan"}, "fusion_lon": 0.0}, {"lat": 38.928438666666665, "is_disabled": 0, "type": "electric_scooter", "lon": -77.054245, "bike_id": "8097c09c3775f04d559875ca27644707", "fusion_lat": 0.0, "name": "8097c09c3775f04d559875ca27644707", "is_reserved": 0, "rental_uris": {"android": "https://dc.lft.to/lastmile_qr_scan", "ios": "https://dc.lft.to/lastmile_qr_scan"}, "fusion_lon": 0.0}, {"lat": 38.938550166666666, "is_disabled": 0, "type": "electric_scooter", "lon": -77.03396316666667, "bike_id": "7e3168145ff58b2325284dd3c9f68387", "fusion_lat": 0.0, "name": "7e3168145ff58b2325284dd3c9f68387", "is_reserved": 0, "rental_uris": {"android": "https://dc.lft.to/lastmile_qr_scan", "ios": "https://dc.lft.to/lastmile_qr_scan"}, "fusion_lon": 0.0}, {"lat": 38.932519, "is_disabled": 0, "type": "electric_scooter", "lon": -77.0401445, "bike_id": "fe57f71feaceedeb95cd044b8cd8624e", "fusion_lat": 0.0, "name": "fe57f71feaceedeb95cd044b8cd8624e", "is_reserved": 0, "rental_uris": {"android": "https://dc.lft.to/lastmile_qr_scan", "ios": "https://dc.lft.to/lastmile_qr_scan"}, "fusion_lon": 0.0}, {"lat": 38.906172, "is_disabled": 0, "type": "electric_scooter", "lon": -77.0083885, "bike_id": "675bf3fba3d8c2b39554e0fbd9a017b1", "fusion_lat": 0.0, "name": "675bf3fba3d8c2b39554e0fbd9a017b1", "is_reserved": 0, "rental_uris": {"android": "https://dc.lft.to/lastmile_qr_scan", "ios": "https://dc.lft.to/lastmile_qr_scan"}, "fusion_lon": 0.0}, {"lat": 38.917111166666665, "is_disabled": 0, "type": "electric_scooter", "lon": -77.03034216666667, "bike_id": "bff8ae958b05fb9b054699eb4b5937b7", "fusion_lat": 0.0, "name": "bff8ae958b05fb9b054699eb4b5937b7", "is_reserved": 0, "rental_uris": {"android": "https://dc.lft.to/lastmile_qr_scan", "ios": "https://dc.lft.to/lastmile_qr_scan"}, "fusion_lon": 0.0}, {"lat": 38.857333, "is_disabled": 0, "type": "electric_scooter", "lon": -76.9943935, "bike_id": "6c9c1ec66d5d284b2117ce9667cd8581", "fusion_lat": 0.0, "name": "6c9c1ec66d5d284b2117ce9667cd8581", "is_reserved": 0, "rental_uris": {"android": "https://dc.lft.to/lastmile_qr_scan", "ios": "https://dc.lft.to/lastmile_qr_scan"}, "fusion_lon": 0.0}, {"lat": 38.90148516666667, "is_disabled": 0, "type": "electric_scooter", "lon": -77.041396, "bike_id": "bbea0852f3c02005d37120d60022c2a5", "fusion_lat": 0.0, "name": "bbea0852f3c02005d37120d60022c2a5", "is_reserved": 0, "rental_uris": {"android": "https://dc.lft.to/lastmile_qr_scan", "ios": "https://dc.lft.to/lastmile_qr_scan"}, "fusion_lon": 0.0}, {"lat": 38.909314333333334, "is_disabled": 0, "type": "electric_scooter", "lon": -77.03845983333333, "bike_id": "1447f6d6e73eef3185c1a4a3ff7078bc", "fusion_lat": 0.0, "name": "1447f6d6e73eef3185c1a4a3ff7078bc", "is_reserved": 0, "rental_uris": {"android": "https://dc.lft.to/lastmile_qr_scan", "ios": "https://dc.lft.to/lastmile_qr_scan"}, "fusion_lon": 0.0}, {"lat": 38.944497, "is_disabled": 0, "type": "electric_scooter", "lon": -77.0234035, "bike_id": "af872266be4d8f7830b2611c35156abb", "fusion_lat": 0.0, "name": "af872266be4d8f7830b2611c35156abb", "is_reserved": 0, "rental_uris": {"android": "https://dc.lft.to/lastmile_qr_scan", "ios": "https://dc.lft.to/lastmile_qr_scan"}, "fusion_lon": 0.0}, {"lat": 38.90967666666667, "is_disabled": 0, "type": "electric_scooter", "lon": -77.047855, "bike_id": "557adcb657d10a451f18b3985946d2f7", "fusion_lat": 0.0, "name": "557adcb657d10a451f18b3985946d2f7", "is_reserved": 0, "rental_uris": {"android": "https://dc.lft.to/lastmile_qr_scan", "ios": "https://dc.lft.to/lastmile_qr_scan"}, "fusion_lon": 0.0}, {"lat": 38.92129283333333, "is_disabled": 0, "type": "electric_scooter", "lon": -77.040065, "bike_id": "aa4c37bd523d09650742226335eeb935", "fusion_lat": 0.0, "name": "aa4c37bd523d09650742226335eeb935", "is_reserved": 0, "rental_uris": {"android": "https://dc.lft.to/lastmile_qr_scan", "ios": "https://dc.lft.to/lastmile_qr_scan"}, "fusion_lon": 0.0}, {"lat": 38.957341166666666, "is_disabled": 0, "type": "electric_bike", "lon": -77.023243, "bike_id": "56f828458ccf840109c01b7f432949d8", "fusion_lat": 0.0, "name": "56f828458ccf840109c01b7f432949d8", "is_reserved": 0, "rental_uris": {"android": "https://dc.lft.to/lastmile_qr_scan", "ios": "https://dc.lft.to/lastmile_qr_scan"}, "fusion_lon": 0.0}, {"lat": 38.919855, "is_disabled": 0, "type": "electric_scooter", "lon": -77.0120915, "bike_id": "25846ce9d0dc0875ffdabc85558fccd0", "fusion_lat": 0.0, "name": "25846ce9d0dc0875ffdabc85558fccd0", "is_reserved": 0, "rental_uris": {"android": "https://dc.lft.to/lastmile_qr_scan", "ios": "https://dc.lft.to/lastmile_qr_scan"}, "fusion_lon": 0.0}, {"lat": 38.902413333333335, "is_disabled": 0, "type": "electric_scooter", "lon": -77.02058266666667, "bike_id": "ad34bb37043482f9cb6859e305ff80ee", "fusion_lat": 0.0, "name": "ad34bb37043482f9cb6859e305ff80ee", "is_reserved": 0, "rental_uris": {"android": "https://dc.lft.to/lastmile_qr_scan", "ios": "https://dc.lft.to/lastmile_qr_scan"}, "fusion_lon": 0.0}, {"lat": 38.923591333333334, "is_disabled": 0, "type": "electric_scooter", "lon": -77.050952, "bike_id": "2442cd3c6bc86c4655216f59bfd02d1d", "fusion_lat": 0.0, "name": "2442cd3c6bc86c4655216f59bfd02d1d", "is_reserved": 0, "rental_uris": {"android": "https://dc.lft.to/lastmile_qr_scan", "ios": "https://dc.lft.to/lastmile_qr_scan"}, "fusion_lon": 0.0}, {"lat": 38.952195333333336, "is_disabled": 0, "type": "electric_scooter", "lon": -77.06889333333334, "bike_id": "c3f583fbefeff2abd74d171dcb78f211", "fusion_lat": 0.0, "name": "c3f583fbefeff2abd74d171dcb78f211", "is_reserved": 0, "rental_uris": {"android": "https://dc.lft.to/lastmile_qr_scan", "ios": "https://dc.lft.to/lastmile_qr_scan"}, "fusion_lon": 0.0}, {"lat": 38.93410516666667, "is_disabled": 0, "type": "electric_scooter", "lon": -77.02038133333333, "bike_id": "ef736f5e6743802629ea9f34e3e567ef", "fusion_lat": 0.0, "name": "ef736f5e6743802629ea9f34e3e567ef", "is_reserved": 0, "rental_uris": {"android": "https://dc.lft.to/lastmile_qr_scan", "ios": "https://dc.lft.to/lastmile_qr_scan"}, "fusion_lon": 0.0}, {"lat": 38.93177166666667, "is_disabled": 0, "type": "electric_scooter", "lon": -77.028162, "bike_id": "0940bcefc4297b0619b78d69f9a43d2d", "fusion_lat": 0.0, "name": "0940bcefc4297b0619b78d69f9a43d2d", "is_reserved": 0, "rental_uris": {"android": "https://dc.lft.to/lastmile_qr_scan", "ios": "https://dc.lft.to/lastmile_qr_scan"}, "fusion_lon": 0.0}, {"lat": 38.90811383333333, "is_disabled": 0, "type": "electric_scooter", "lon": -76.99712283333334, "bike_id": "a64c365558f5a4f798974ec569f07ac5", "fusion_lat": 0.0, "name": "a64c365558f5a4f798974ec569f07ac5", "is_reserved": 0, "rental_uris": {"android": "https://dc.lft.to/lastmile_qr_scan", "ios": "https://dc.lft.to/lastmile_qr_scan"}, "fusion_lon": 0.0}, {"lat": 38.9052355, "is_disabled": 0, "type": "electric_scooter", "lon": -77.0644715, "bike_id": "fd5e485cdf4189c9a5fe8069a83005ed", "fusion_lat": 0.0, "name": "fd5e485cdf4189c9a5fe8069a83005ed", "is_reserved": 0, "rental_uris": {"android": "https://dc.lft.to/lastmile_qr_scan", "ios": "https://dc.lft.to/lastmile_qr_scan"}, "fusion_lon": 0.0}, {"lat": 38.900106, "is_disabled": 0, "type": "electric_scooter", "lon": -77.00614816666666, "bike_id": "ca1d9522b9a2208343a2959fabc3c6cf", "fusion_lat": 0.0, "name": "ca1d9522b9a2208343a2959fabc3c6cf", "is_reserved": 0, "rental_uris": {"android": "https://dc.lft.to/lastmile_qr_scan", "ios": "https://dc.lft.to/lastmile_qr_scan"}, "fusion_lon": 0.0}, {"lat": 38.9224325, "is_disabled": 0, "type": "electric_scooter", "lon": -77.01969066666666, "bike_id": "1339bcb5c592d30a0f65965fd836e7f0", "fusion_lat": 0.0, "name": "1339bcb5c592d30a0f65965fd836e7f0", "is_reserved": 0, "rental_uris": {"android": "https://dc.lft.to/lastmile_qr_scan", "ios": "https://dc.lft.to/lastmile_qr_scan"}, "fusion_lon": 0.0}, {"lat": 38.935803, "is_disabled": 0, "type": "electric_bike", "lon": -77.1068635, "bike_id": "9d3f189cbc48968728ac769f73f3d71d", "fusion_lat": 0.0, "name": "9d3f189cbc48968728ac769f73f3d71d", "is_reserved": 0, "rental_uris": {"android": "https://dc.lft.to/lastmile_qr_scan", "ios": "https://dc.lft.to/lastmile_qr_scan"}, "fusion_lon": 0.0}, {"lat": 38.90557066666667, "is_disabled": 0, "type": "electric_scooter", "lon": -76.98377166666667, "bike_id": "dae4d8b7fb7988cf081d7c9dbe6a8988", "fusion_lat": 0.0, "name": "dae4d8b7fb7988cf081d7c9dbe6a8988", "is_reserved": 0, "rental_uris": {"android": "https://dc.lft.to/lastmile_qr_scan", "ios": "https://dc.lft.to/lastmile_qr_scan"}, "fusion_lon": 0.0}, {"lat": 38.923594666666666, "is_disabled": 0, "type": "electric_scooter", "lon": -77.04148516666666, "bike_id": "f5a2aa5441382a73136760c25fcd8e54", "fusion_lat": 0.0, "name": "f5a2aa5441382a73136760c25fcd8e54", "is_reserved": 0, "rental_uris": {"android": "https://dc.lft.to/lastmile_qr_scan", "ios": "https://dc.lft.to/lastmile_qr_scan"}, "fusion_lon": 0.0}, {"lat": 38.88889266666666, "is_disabled": 0, "type": "electric_scooter", "lon": -76.93156533333334, "bike_id": "245e5acbd1121a3edf0838bed97224d3", "fusion_lat": 0.0, "name": "245e5acbd1121a3edf0838bed97224d3", "is_reserved": 0, "rental_uris": {"android": "https://dc.lft.to/lastmile_qr_scan", "ios": "https://dc.lft.to/lastmile_qr_scan"}, "fusion_lon": 0.0}, {"lat": 38.944320833333336, "is_disabled": 0, "type": "electric_scooter", "lon": -77.06301533333334, "bike_id": "bb93eb224ba58dc4846aa07ebc4d8e61", "fusion_lat": 0.0, "name": "bb93eb224ba58dc4846aa07ebc4d8e61", "is_reserved": 0, "rental_uris": {"android": "https://dc.lft.to/lastmile_qr_scan", "ios": "https://dc.lft.to/lastmile_qr_scan"}, "fusion_lon": 0.0}, {"lat": 38.87151383333333, "is_disabled": 0, "type": "electric_bike", "lon": -76.93669116666666, "bike_id": "c32876bda9b3732f4400ef9a5acb4d86", "fusion_lat": 0.0, "name": "c32876bda9b3732f4400ef9a5acb4d86", "is_reserved": 0, "rental_uris": {"android": "https://dc.lft.to/lastmile_qr_scan", "ios": "https://dc.lft.to/lastmile_qr_scan"}, "fusion_lon": 0.0}, {"lat": 38.883185166666664, "is_disabled": 0, "type": "electric_scooter", "lon": -77.00931566666667, "bike_id": "bffd13b78c83cc7bee23f739fb5a5a9f", "fusion_lat": 0.0, "name": "bffd13b78c83cc7bee23f739fb5a5a9f", "is_reserved": 0, "rental_uris": {"android": "https://dc.lft.to/lastmile_qr_scan", "ios": "https://dc.lft.to/lastmile_qr_scan"}, "fusion_lon": 0.0}, {"lat": 38.966266, "is_disabled": 0, "type": "electric_bike", "lon": -76.97670266666667, "bike_id": "15cfe319ee28faa4fedc79b2d7456553", "fusion_lat": 0.0, "name": "15cfe319ee28faa4fedc79b2d7456553", "is_reserved": 0, "rental_uris": {"android": "https://dc.lft.to/lastmile_qr_scan", "ios": "https://dc.lft.to/lastmile_qr_scan"}, "fusion_lon": 0.0}, {"lat": 38.90702483333333, "is_disabled": 0, "type": "electric_scooter", "lon": -77.043469, "bike_id": "682bf4712b9161add9b7e5ba71e73013", "fusion_lat": 0.0, "name": "682bf4712b9161add9b7e5ba71e73013", "is_reserved": 0, "rental_uris": {"android": "https://dc.lft.to/lastmile_qr_scan", "ios": "https://dc.lft.to/lastmile_qr_scan"}, "fusion_lon": 0.0}, {"lat": 38.9507875, "is_disabled": 0, "type": "electric_bike", "lon": -77.01201483333334, "bike_id": "65ff24deda33a608496b3388262eeab5", "fusion_lat": 0.0, "name": "65ff24deda33a608496b3388262eeab5", "is_reserved": 0, "rental_uris": {"android": "https://dc.lft.to/lastmile_qr_scan", "ios": "https://dc.lft.to/lastmile_qr_scan"}, "fusion_lon": 0.0}, {"lat": 38.9216405, "is_disabled": 0, "type": "electric_scooter", "lon": -77.07700083333333, "bike_id": "7378f93bf874505b44b819314ed706a1", "fusion_lat": 0.0, "name": "7378f93bf874505b44b819314ed706a1", "is_reserved": 0, "rental_uris": {"android": "https://dc.lft.to/lastmile_qr_scan", "ios": "https://dc.lft.to/lastmile_qr_scan"}, "fusion_lon": 0.0}, {"lat": 38.836727833333335, "is_disabled": 0, "type": "electric_scooter", "lon": -77.00570916666666, "bike_id": "f33667684f737c05b78d856ce6892c2c", "fusion_lat": 0.0, "name": "f33667684f737c05b78d856ce6892c2c", "is_reserved": 0, "rental_uris": {"android": "https://dc.lft.to/lastmile_qr_scan", "ios": "https://dc.lft.to/lastmile_qr_scan"}, "fusion_lon": 0.0}, {"lat": 38.90419983333334, "is_disabled": 0, "type": "electric_scooter", "lon": -77.0183845, "bike_id": "cfb099355d6b1421a8f17adcffc59bbe", "fusion_lat": 0.0, "name": "cfb099355d6b1421a8f17adcffc59bbe", "is_reserved": 0, "rental_uris": {"android": "https://dc.lft.to/lastmile_qr_scan", "ios": "https://dc.lft.to/lastmile_qr_scan"}, "fusion_lon": 0.0}, {"lat": 38.90860816666667, "is_disabled": 0, "type": "electric_scooter", "lon": -77.04583083333333, "bike_id": "c1645449d4bca581cef57f17e13c1732", "fusion_lat": 0.0, "name": "c1645449d4bca581cef57f17e13c1732", "is_reserved": 0, "rental_uris": {"android": "https://dc.lft.to/lastmile_qr_scan", "ios": "https://dc.lft.to/lastmile_qr_scan"}, "fusion_lon": 0.0}, {"lat": 38.9216695, "is_disabled": 0, "type": "electric_scooter", "lon": -77.04019933333333, "bike_id": "741fc3682613307686c482274bfd0cb3", "fusion_lat": 0.0, "name": "741fc3682613307686c482274bfd0cb3", "is_reserved": 0, "rental_uris": {"android": "https://dc.lft.to/lastmile_qr_scan", "ios": "https://dc.lft.to/lastmile_qr_scan"}, "fusion_lon": 0.0}, {"lat": 38.919137666666664, "is_disabled": 0, "type": "electric_scooter", "lon": -77.0134225, "bike_id": "41df6c63758ef89888545adda50f8347", "fusion_lat": 0.0, "name": "41df6c63758ef89888545adda50f8347", "is_reserved": 0, "rental_uris": {"android": "https://dc.lft.to/lastmile_qr_scan", "ios": "https://dc.lft.to/lastmile_qr_scan"}, "fusion_lon": 0.0}, {"lat": 38.892269666666664, "is_disabled": 0, "type": "electric_scooter", "lon": -77.05006416666667, "bike_id": "814ee5539737feed4937fbb9e9b6e448", "fusion_lat": 0.0, "name": "814ee5539737feed4937fbb9e9b6e448", "is_reserved": 0, "rental_uris": {"android": "https://dc.lft.to/lastmile_qr_scan", "ios": "https://dc.lft.to/lastmile_qr_scan"}, "fusion_lon": 0.0}, {"lat": 38.934991, "is_disabled": 0, "type": "electric_scooter", "lon": -77.05803016666667, "bike_id": "2a9421f4ead7339c54499874d201b218", "fusion_lat": 0.0, "name": "2a9421f4ead7339c54499874d201b218", "is_reserved": 0, "rental_uris": {"android": "https://dc.lft.to/lastmile_qr_scan", "ios": "https://dc.lft.to/lastmile_qr_scan"}, "fusion_lon": 0.0}, {"lat": 38.87008066666667, "is_disabled": 0, "type": "electric_bike", "lon": -76.96019533333333, "bike_id": "df7f7e346ba43425449555beb2978b14", "fusion_lat": 0.0, "name": "df7f7e346ba43425449555beb2978b14", "is_reserved": 0, "rental_uris": {"android": "https://dc.lft.to/lastmile_qr_scan", "ios": "https://dc.lft.to/lastmile_qr_scan"}, "fusion_lon": 0.0}, {"lat": 38.900423, "is_disabled": 0, "type": "electric_scooter", "lon": -76.99015166666666, "bike_id": "dbb12455d256439fdb01ed0e153f90ce", "fusion_lat": 0.0, "name": "dbb12455d256439fdb01ed0e153f90ce", "is_reserved": 0, "rental_uris": {"android": "https://dc.lft.to/lastmile_qr_scan", "ios": "https://dc.lft.to/lastmile_qr_scan"}, "fusion_lon": 0.0}, {"lat": 38.885672, "is_disabled": 0, "type": "electric_scooter", "lon": -77.019998, "bike_id": "e3800ee7d2f495b7231df77f17b5fd1c", "fusion_lat": 0.0, "name": "e3800ee7d2f495b7231df77f17b5fd1c", "is_reserved": 0, "rental_uris": {"android": "https://dc.lft.to/lastmile_qr_scan", "ios": "https://dc.lft.to/lastmile_qr_scan"}, "fusion_lon": 0.0}, {"lat": 38.93341066666667, "is_disabled": 0, "type": "electric_scooter", "lon": -77.05700033333333, "bike_id": "fdf8cf486d6485c7422de9f341efb2bd", "fusion_lat": 0.0, "name": "fdf8cf486d6485c7422de9f341efb2bd", "is_reserved": 0, "rental_uris": {"android": "https://dc.lft.to/lastmile_qr_scan", "ios": "https://dc.lft.to/lastmile_qr_scan"}, "fusion_lon": 0.0}, {"lat": 38.92381683333333, "is_disabled": 0, "type": "electric_scooter", "lon": -77.036565, "bike_id": "d91790c4b20e6597aeadc97b57d34c0b", "fusion_lat": 0.0, "name": "d91790c4b20e6597aeadc97b57d34c0b", "is_reserved": 0, "rental_uris": {"android": "https://dc.lft.to/lastmile_qr_scan", "ios": "https://dc.lft.to/lastmile_qr_scan"}, "fusion_lon": 0.0}, {"lat": 38.90973283333334, "is_disabled": 0, "type": "electric_scooter", "lon": -77.02264016666666, "bike_id": "69b77788849944b43d8413e23a10d524", "fusion_lat": 0.0, "name": "69b77788849944b43d8413e23a10d524", "is_reserved": 0, "rental_uris": {"android": "https://dc.lft.to/lastmile_qr_scan", "ios": "https://dc.lft.to/lastmile_qr_scan"}, "fusion_lon": 0.0}, {"lat": 38.91180766666667, "is_disabled": 0, "type": "electric_scooter", "lon": -77.006559, "bike_id": "5daa44c311d1c47a03303841953c9d74", "fusion_lat": 0.0, "name": "5daa44c311d1c47a03303841953c9d74", "is_reserved": 0, "rental_uris": {"android": "https://dc.lft.to/lastmile_qr_scan", "ios": "https://dc.lft.to/lastmile_qr_scan"}, "fusion_lon": 0.0}, {"lat": 38.87065883333333, "is_disabled": 0, "type": "electric_scooter", "lon": -77.00841933333334, "bike_id": "b4e4539192c9b5eeab4eaf24fce3ef62", "fusion_lat": 0.0, "name": "b4e4539192c9b5eeab4eaf24fce3ef62", "is_reserved": 0, "rental_uris": {"android": "https://dc.lft.to/lastmile_qr_scan", "ios": "https://dc.lft.to/lastmile_qr_scan"}, "fusion_lon": 0.0}, {"lat": 38.9181285, "is_disabled": 0, "type": "electric_scooter", "lon": -77.01276166666666, "bike_id": "1b6e2465c8b68a0e828619bbcb7a797f", "fusion_lat": 0.0, "name": "1b6e2465c8b68a0e828619bbcb7a797f", "is_reserved": 0, "rental_uris": {"android": "https://dc.lft.to/lastmile_qr_scan", "ios": "https://dc.lft.to/lastmile_qr_scan"}, "fusion_lon": 0.0}, {"lat": 38.903758833333335, "is_disabled": 0, "type": "electric_scooter", "lon": -77.039354, "bike_id": "6cb11c6c59e0627920dd763ec65daffb", "fusion_lat": 0.0, "name": "6cb11c6c59e0627920dd763ec65daffb", "is_reserved": 0, "rental_uris": {"android": "https://dc.lft.to/lastmile_qr_scan", "ios": "https://dc.lft.to/lastmile_qr_scan"}, "fusion_lon": 0.0}, {"lat": 38.874625333333334, "is_disabled": 0, "type": "electric_scooter", "lon": -77.00936766666666, "bike_id": "06f4f73940b905791e495dcfcdba6ecd", "fusion_lat": 0.0, "name": "06f4f73940b905791e495dcfcdba6ecd", "is_reserved": 0, "rental_uris": {"android": "https://dc.lft.to/lastmile_qr_scan", "ios": "https://dc.lft.to/lastmile_qr_scan"}, "fusion_lon": 0.0}, {"lat": 38.917030833333335, "is_disabled": 0, "type": "electric_scooter", "lon": -77.03111316666667, "bike_id": "a19f94eac50eed5d6c1f4f1e3a0315cf", "fusion_lat": 0.0, "name": "a19f94eac50eed5d6c1f4f1e3a0315cf", "is_reserved": 0, "rental_uris": {"android": "https://dc.lft.to/lastmile_qr_scan", "ios": "https://dc.lft.to/lastmile_qr_scan"}, "fusion_lon": 0.0}, {"lat": 38.902816, "is_disabled": 0, "type": "electric_scooter", "lon": -76.97394666666666, "bike_id": "bf556e58960beb54c0e4f8ab52209565", "fusion_lat": 0.0, "name": "bf556e58960beb54c0e4f8ab52209565", "is_reserved": 0, "rental_uris": {"android": "https://dc.lft.to/lastmile_qr_scan", "ios": "https://dc.lft.to/lastmile_qr_scan"}, "fusion_lon": 0.0}, {"lat": 38.92438166666667, "is_disabled": 0, "type": "electric_scooter", "lon": -77.03402533333333, "bike_id": "0a2433b03704aa2661e79928f300197e", "fusion_lat": 0.0, "name": "0a2433b03704aa2661e79928f300197e", "is_reserved": 0, "rental_uris": {"android": "https://dc.lft.to/lastmile_qr_scan", "ios": "https://dc.lft.to/lastmile_qr_scan"}, "fusion_lon": 0.0}, {"lat": 38.90688383333333, "is_disabled": 0, "type": "electric_scooter", "lon": -76.99945733333334, "bike_id": "72cce9bb574bd2e0c37e33432c7acdad", "fusion_lat": 0.0, "name": "72cce9bb574bd2e0c37e33432c7acdad", "is_reserved": 0, "rental_uris": {"android": "https://dc.lft.to/lastmile_qr_scan", "ios": "https://dc.lft.to/lastmile_qr_scan"}, "fusion_lon": 0.0}, {"lat": 38.911879, "is_disabled": 0, "type": "electric_scooter", "lon": -77.03834, "bike_id": "b4d2107b9f87cb9515781fd0a9b1c364", "fusion_lat": 0.0, "name": "b4d2107b9f87cb9515781fd0a9b1c364", "is_reserved": 0, "rental_uris": {"android": "https://dc.lft.to/lastmile_qr_scan", "ios": "https://dc.lft.to/lastmile_qr_scan"}, "fusion_lon": 0.0}, {"lat": 38.91333816666667, "is_disabled": 0, "type": "electric_scooter", "lon": -77.039958, "bike_id": "995e175682e10aa3bd018bde5c8a715a", "fusion_lat": 0.0, "name": "995e175682e10aa3bd018bde5c8a715a", "is_reserved": 0, "rental_uris": {"android": "https://dc.lft.to/lastmile_qr_scan", "ios": "https://dc.lft.to/lastmile_qr_scan"}, "fusion_lon": 0.0}, {"lat": 38.897659166666664, "is_disabled": 0, "type": "electric_scooter", "lon": -77.03221883333333, "bike_id": "acc81cb7b8ce13a082d376ece5b9edb7", "fusion_lat": 0.0, "name": "acc81cb7b8ce13a082d376ece5b9edb7", "is_reserved": 0, "rental_uris": {"android": "https://dc.lft.to/lastmile_qr_scan", "ios": "https://dc.lft.to/lastmile_qr_scan"}, "fusion_lon": 0.0}, {"lat": 38.844258833333335, "is_disabled": 0, "type": "electric_scooter", "lon": -76.997761, "bike_id": "9c74a28b848f4a66875348b1d856f94e", "fusion_lat": 0.0, "name": "9c74a28b848f4a66875348b1d856f94e", "is_reserved": 0, "rental_uris": {"android": "https://dc.lft.to/lastmile_qr_scan", "ios": "https://dc.lft.to/lastmile_qr_scan"}, "fusion_lon": 0.0}, {"lat": 38.934856333333336, "is_disabled": 0, "type": "electric_scooter", "lon": -77.03603416666667, "bike_id": "da44815939b8318fbe949f015850fe53", "fusion_lat": 0.0, "name": "da44815939b8318fbe949f015850fe53", "is_reserved": 0, "rental_uris": {"android": "https://dc.lft.to/lastmile_qr_scan", "ios": "https://dc.lft.to/lastmile_qr_scan"}, "fusion_lon": 0.0}, {"lat": 38.97329216666667, "is_disabled": 0, "type": "electric_bike", "lon": -77.0214855, "bike_id": "2451fee725c58f113dd5e96fbe540966", "fusion_lat": 0.0, "name": "2451fee725c58f113dd5e96fbe540966", "is_reserved": 0, "rental_uris": {"android": "https://dc.lft.to/lastmile_qr_scan", "ios": "https://dc.lft.to/lastmile_qr_scan"}, "fusion_lon": 0.0}, {"lat": 38.903889, "is_disabled": 0, "type": "electric_scooter", "lon": -77.0486615, "bike_id": "cc419d57d670d25cf3386f857b41d676", "fusion_lat": 0.0, "name": "cc419d57d670d25cf3386f857b41d676", "is_reserved": 0, "rental_uris": {"android": "https://dc.lft.to/lastmile_qr_scan", "ios": "https://dc.lft.to/lastmile_qr_scan"}, "fusion_lon": 0.0}, {"lat": 38.88093333333333, "is_disabled": 0, "type": "electric_scooter", "lon": -76.992571, "bike_id": "81ba3815a2f497414f48cd7e507f074c", "fusion_lat": 0.0, "name": "81ba3815a2f497414f48cd7e507f074c", "is_reserved": 0, "rental_uris": {"android": "https://dc.lft.to/lastmile_qr_scan", "ios": "https://dc.lft.to/lastmile_qr_scan"}, "fusion_lon": 0.0}, {"lat": 38.93659233333333, "is_disabled": 0, "type": "electric_bike", "lon": -76.95216533333334, "bike_id": "1d8558015933d3f05fe065c3f97f3962", "fusion_lat": 0.0, "name": "1d8558015933d3f05fe065c3f97f3962", "is_reserved": 0, "rental_uris": {"android": "https://dc.lft.to/lastmile_qr_scan", "ios": "https://dc.lft.to/lastmile_qr_scan"}, "fusion_lon": 0.0}, {"lat": 38.887437166666665, "is_disabled": 0, "type": "electric_scooter", "lon": -77.0283325, "bike_id": "8312187e4bb40a3bd5d4ccc3f8361473", "fusion_lat": 0.0, "name": "8312187e4bb40a3bd5d4ccc3f8361473", "is_reserved": 0, "rental_uris": {"android": "https://dc.lft.to/lastmile_qr_scan", "ios": "https://dc.lft.to/lastmile_qr_scan"}, "fusion_lon": 0.0}, {"lat": 38.914357, "is_disabled": 0, "type": "electric_scooter", "lon": -77.01704683333334, "bike_id": "10ff4016b91b83bac9378da35f8d428a", "fusion_lat": 0.0, "name": "10ff4016b91b83bac9378da35f8d428a", "is_reserved": 0, "rental_uris": {"android": "https://dc.lft.to/lastmile_qr_scan", "ios": "https://dc.lft.to/lastmile_qr_scan"}, "fusion_lon": 0.0}, {"lat": 38.881281333333334, "is_disabled": 0, "type": "electric_scooter", "lon": -77.00097516666666, "bike_id": "ca81a79d0ecdbf7f5cef02fc525195fb", "fusion_lat": 0.0, "name": "ca81a79d0ecdbf7f5cef02fc525195fb", "is_reserved": 0, "rental_uris": {"android": "https://dc.lft.to/lastmile_qr_scan", "ios": "https://dc.lft.to/lastmile_qr_scan"}, "fusion_lon": 0.0}, {"lat": 38.906487, "is_disabled": 0, "type": "electric_scooter", "lon": -77.034504, "bike_id": "4dfe23a5c123c037c68e31dfbf5b4f45", "fusion_lat": 0.0, "name": "4dfe23a5c123c037c68e31dfbf5b4f45", "is_reserved": 0, "rental_uris": {"android": "https://dc.lft.to/lastmile_qr_scan", "ios": "https://dc.lft.to/lastmile_qr_scan"}, "fusion_lon": 0.0}, {"lat": 39.034253, "is_disabled": 0, "type": "electric_bike", "lon": -77.043071, "bike_id": "e6505b39e370c8064d95ce9f377e2ef2", "fusion_lat": 0.0, "name": "e6505b39e370c8064d95ce9f377e2ef2", "is_reserved": 0, "rental_uris": {"android": "https://dc.lft.to/lastmile_qr_scan", "ios": "https://dc.lft.to/lastmile_qr_scan"}, "fusion_lon": 0.0}, {"lat": 38.9279725, "is_disabled": 0, "type": "electric_scooter", "lon": -77.026009, "bike_id": "252112c24c4a8dd857741bf3df7001bc", "fusion_lat": 0.0, "name": "252112c24c4a8dd857741bf3df7001bc", "is_reserved": 0, "rental_uris": {"android": "https://dc.lft.to/lastmile_qr_scan", "ios": "https://dc.lft.to/lastmile_qr_scan"}, "fusion_lon": 0.0}, {"lat": 38.90552016666667, "is_disabled": 0, "type": "electric_scooter", "lon": -77.03411016666666, "bike_id": "8b0220099a987588f8a6df86960336f6", "fusion_lat": 0.0, "name": "8b0220099a987588f8a6df86960336f6", "is_reserved": 0, "rental_uris": {"android": "https://dc.lft.to/lastmile_qr_scan", "ios": "https://dc.lft.to/lastmile_qr_scan"}, "fusion_lon": 0.0}, {"lat": 38.902923666666666, "is_disabled": 0, "type": "electric_scooter", "lon": -77.02599933333333, "bike_id": "619ed67a718637f419549d08c0df571a", "fusion_lat": 0.0, "name": "619ed67a718637f419549d08c0df571a", "is_reserved": 0, "rental_uris": {"android": "https://dc.lft.to/lastmile_qr_scan", "ios": "https://dc.lft.to/lastmile_qr_scan"}, "fusion_lon": 0.0}, {"lat": 38.9417105, "is_disabled": 0, "type": "electric_scooter", "lon": -77.023384, "bike_id": "141ba9d39d4565673aa51cbbc2267111", "fusion_lat": 0.0, "name": "141ba9d39d4565673aa51cbbc2267111", "is_reserved": 0, "rental_uris": {"android": "https://dc.lft.to/lastmile_qr_scan", "ios": "https://dc.lft.to/lastmile_qr_scan"}, "fusion_lon": 0.0}, {"lat": 38.89467483333333, "is_disabled": 0, "type": "electric_scooter", "lon": -77.02120066666667, "bike_id": "d2ed0d56703d4de67e4a3a38e9a47955", "fusion_lat": 0.0, "name": "d2ed0d56703d4de67e4a3a38e9a47955", "is_reserved": 0, "rental_uris": {"android": "https://dc.lft.to/lastmile_qr_scan", "ios": "https://dc.lft.to/lastmile_qr_scan"}, "fusion_lon": 0.0}, {"lat": 38.905575666666664, "is_disabled": 0, "type": "electric_scooter", "lon": -77.0338975, "bike_id": "ace889d1c72add391c98b47e7dc478d3", "fusion_lat": 0.0, "name": "ace889d1c72add391c98b47e7dc478d3", "is_reserved": 0, "rental_uris": {"android": "https://dc.lft.to/lastmile_qr_scan", "ios": "https://dc.lft.to/lastmile_qr_scan"}, "fusion_lon": 0.0}, {"lat": 38.869068, "is_disabled": 0, "type": "electric_bike", "lon": -77.13181816666666, "bike_id": "afccace0015ed401bdd8fe8bb9288b7a", "fusion_lat": 0.0, "name": "afccace0015ed401bdd8fe8bb9288b7a", "is_reserved": 0, "rental_uris": {"android": "https://dc.lft.to/lastmile_qr_scan", "ios": "https://dc.lft.to/lastmile_qr_scan"}, "fusion_lon": 0.0}, {"lat": 38.84655883333333, "is_disabled": 0, "type": "electric_bike", "lon": -76.97928316666666, "bike_id": "44d8cf0fee3cb317cc43c0d86b14ba8b", "fusion_lat": 0.0, "name": "44d8cf0fee3cb317cc43c0d86b14ba8b", "is_reserved": 0, "rental_uris": {"android": "https://dc.lft.to/lastmile_qr_scan", "ios": "https://dc.lft.to/lastmile_qr_scan"}, "fusion_lon": 0.0}, {"lat": 38.91047966666667, "is_disabled": 0, "type": "electric_scooter", "lon": -77.015073, "bike_id": "b7bf783c8b5ba7a105a535c3be4f4ec6", "fusion_lat": 0.0, "name": "b7bf783c8b5ba7a105a535c3be4f4ec6", "is_reserved": 0, "rental_uris": {"android": "https://dc.lft.to/lastmile_qr_scan", "ios": "https://dc.lft.to/lastmile_qr_scan"}, "fusion_lon": 0.0}, {"lat": 38.9328835, "is_disabled": 0, "type": "electric_scooter", "lon": -77.03970683333333, "bike_id": "03fc8539674ebd5df3ea0c20ad5394d0", "fusion_lat": 0.0, "name": "03fc8539674ebd5df3ea0c20ad5394d0", "is_reserved": 0, "rental_uris": {"android": "https://dc.lft.to/lastmile_qr_scan", "ios": "https://dc.lft.to/lastmile_qr_scan"}, "fusion_lon": 0.0}, {"lat": 38.932822, "is_disabled": 0, "type": "electric_scooter", "lon": -77.0363635, "bike_id": "a5da921f5f26b19dce91dd941de56d95", "fusion_lat": 0.0, "name": "a5da921f5f26b19dce91dd941de56d95", "is_reserved": 0, "rental_uris": {"android": "https://dc.lft.to/lastmile_qr_scan", "ios": "https://dc.lft.to/lastmile_qr_scan"}, "fusion_lon": 0.0}, {"lat": 38.920115, "is_disabled": 0, "type": "electric_scooter", "lon": -77.0324005, "bike_id": "de6be1dd5c4dd0ec25abed04ab0c5d7a", "fusion_lat": 0.0, "name": "de6be1dd5c4dd0ec25abed04ab0c5d7a", "is_reserved": 0, "rental_uris": {"android": "https://dc.lft.to/lastmile_qr_scan", "ios": "https://dc.lft.to/lastmile_qr_scan"}, "fusion_lon": 0.0}, {"lat": 38.92478583333333, "is_disabled": 0, "type": "electric_scooter", "lon": -77.05214433333333, "bike_id": "d3cef3b1007e885389fae0910b65dab2", "fusion_lat": 0.0, "name": "d3cef3b1007e885389fae0910b65dab2", "is_reserved": 0, "rental_uris": {"android": "https://dc.lft.to/lastmile_qr_scan", "ios": "https://dc.lft.to/lastmile_qr_scan"}, "fusion_lon": 0.0}, {"lat": 38.90726866666667, "is_disabled": 0, "type": "electric_scooter", "lon": -77.023753, "bike_id": "d7eebe4a98243648bda0906755f4e02d", "fusion_lat": 0.0, "name": "d7eebe4a98243648bda0906755f4e02d", "is_reserved": 0, "rental_uris": {"android": "https://dc.lft.to/lastmile_qr_scan", "ios": "https://dc.lft.to/lastmile_qr_scan"}, "fusion_lon": 0.0}, {"lat": 38.931756, "is_disabled": 0, "type": "electric_scooter", "lon": -77.02818283333333, "bike_id": "d995efa19bd38cf524bd86d0828a0aa7", "fusion_lat": 0.0, "name": "d995efa19bd38cf524bd86d0828a0aa7", "is_reserved": 0, "rental_uris": {"android": "https://dc.lft.to/lastmile_qr_scan", "ios": "https://dc.lft.to/lastmile_qr_scan"}, "fusion_lon": 0.0}, {"lat": 38.89042633333333, "is_disabled": 0, "type": "electric_scooter", "lon": -76.951422, "bike_id": "2a848efdb39d2bc6470948b1662a26fd", "fusion_lat": 0.0, "name": "2a848efdb39d2bc6470948b1662a26fd", "is_reserved": 0, "rental_uris": {"android": "https://dc.lft.to/lastmile_qr_scan", "ios": "https://dc.lft.to/lastmile_qr_scan"}, "fusion_lon": 0.0}, {"lat": 38.895097, "is_disabled": 0, "type": "electric_scooter", "lon": -77.02284116666667, "bike_id": "42e5d5f48073306bef69e40f6ac08c7e", "fusion_lat": 0.0, "name": "42e5d5f48073306bef69e40f6ac08c7e", "is_reserved": 0, "rental_uris": {"android": "https://dc.lft.to/lastmile_qr_scan", "ios": "https://dc.lft.to/lastmile_qr_scan"}, "fusion_lon": 0.0}, {"lat": 38.9420085, "is_disabled": 0, "type": "electric_bike", "lon": -77.0182335, "bike_id": "44e402fbae07e2c70a2508135f1e5f50", "fusion_lat": 0.0, "name": "44e402fbae07e2c70a2508135f1e5f50", "is_reserved": 0, "rental_uris": {"android": "https://dc.lft.to/lastmile_qr_scan", "ios": "https://dc.lft.to/lastmile_qr_scan"}, "fusion_lon": 0.0}, {"lat": 38.934782166666665, "is_disabled": 0, "type": "electric_scooter", "lon": -77.05793483333333, "bike_id": "66f7e29e61394a361f063069403e07e6", "fusion_lat": 0.0, "name": "66f7e29e61394a361f063069403e07e6", "is_reserved": 0, "rental_uris": {"android": "https://dc.lft.to/lastmile_qr_scan", "ios": "https://dc.lft.to/lastmile_qr_scan"}, "fusion_lon": 0.0}, {"lat": 38.900258, "is_disabled": 0, "type": "electric_scooter", "lon": -77.0021485, "bike_id": "28fe69c2393f6d7647313765ea72201c", "fusion_lat": 0.0, "name": "28fe69c2393f6d7647313765ea72201c", "is_reserved": 0, "rental_uris": {"android": "https://dc.lft.to/lastmile_qr_scan", "ios": "https://dc.lft.to/lastmile_qr_scan"}, "fusion_lon": 0.0}, {"lat": 38.88763016666667, "is_disabled": 0, "type": "electric_scooter", "lon": -77.03153966666666, "bike_id": "f973ccd5e24d159dd3e6034a876ac767", "fusion_lat": 0.0, "name": "f973ccd5e24d159dd3e6034a876ac767", "is_reserved": 0, "rental_uris": {"android": "https://dc.lft.to/lastmile_qr_scan", "ios": "https://dc.lft.to/lastmile_qr_scan"}, "fusion_lon": 0.0}, {"lat": 38.92488133333333, "is_disabled": 0, "type": "electric_scooter", "lon": -77.03184966666667, "bike_id": "8301c751d83fc2453b276d0694cada11", "fusion_lat": 0.0, "name": "8301c751d83fc2453b276d0694cada11", "is_reserved": 0, "rental_uris": {"android": "https://dc.lft.to/lastmile_qr_scan", "ios": "https://dc.lft.to/lastmile_qr_scan"}, "fusion_lon": 0.0}, {"lat": 38.9661035, "is_disabled": 0, "type": "electric_scooter", "lon": -77.02055316666667, "bike_id": "beac6904e52aeead827702e2b2877c09", "fusion_lat": 0.0, "name": "beac6904e52aeead827702e2b2877c09", "is_reserved": 0, "rental_uris": {"android": "https://dc.lft.to/lastmile_qr_scan", "ios": "https://dc.lft.to/lastmile_qr_scan"}, "fusion_lon": 0.0}, {"lat": 38.858079833333335, "is_disabled": 0, "type": "electric_scooter", "lon": -76.98653483333334, "bike_id": "777ef6c4062d5e0c316e187e630101a3", "fusion_lat": 0.0, "name": "777ef6c4062d5e0c316e187e630101a3", "is_reserved": 0, "rental_uris": {"android": "https://dc.lft.to/lastmile_qr_scan", "ios": "https://dc.lft.to/lastmile_qr_scan"}, "fusion_lon": 0.0}, {"lat": 38.92546266666667, "is_disabled": 0, "type": "electric_scooter", "lon": -77.0345145, "bike_id": "bbd7beac77a82f8ce61c65e907d3bac8", "fusion_lat": 0.0, "name": "bbd7beac77a82f8ce61c65e907d3bac8", "is_reserved": 0, "rental_uris": {"android": "https://dc.lft.to/lastmile_qr_scan", "ios": "https://dc.lft.to/lastmile_qr_scan"}, "fusion_lon": 0.0}, {"lat": 38.906498, "is_disabled": 0, "type": "electric_scooter", "lon": -77.014181, "bike_id": "621ef5e863813e462548f4a4a4b8ac6a", "fusion_lat": 0.0, "name": "621ef5e863813e462548f4a4a4b8ac6a", "is_reserved": 0, "rental_uris": {"android": "https://dc.lft.to/lastmile_qr_scan", "ios": "https://dc.lft.to/lastmile_qr_scan"}, "fusion_lon": 0.0}, {"lat": 38.91571033333334, "is_disabled": 0, "type": "electric_scooter", "lon": -77.05020433333334, "bike_id": "7cd1ac6422738899a46dc400041236be", "fusion_lat": 0.0, "name": "7cd1ac6422738899a46dc400041236be", "is_reserved": 0, "rental_uris": {"android": "https://dc.lft.to/lastmile_qr_scan", "ios": "https://dc.lft.to/lastmile_qr_scan"}, "fusion_lon": 0.0}, {"lat": 38.921099166666664, "is_disabled": 0, "type": "electric_scooter", "lon": -77.04689916666666, "bike_id": "88551c3e182f914ccf6e21b9e780f161", "fusion_lat": 0.0, "name": "88551c3e182f914ccf6e21b9e780f161", "is_reserved": 0, "rental_uris": {"android": "https://dc.lft.to/lastmile_qr_scan", "ios": "https://dc.lft.to/lastmile_qr_scan"}, "fusion_lon": 0.0}, {"lat": 38.88489216666667, "is_disabled": 0, "type": "electric_scooter", "lon": -77.0071075, "bike_id": "ba2e340e037051ecfa928f01fbb5bea6", "fusion_lat": 0.0, "name": "ba2e340e037051ecfa928f01fbb5bea6", "is_reserved": 0, "rental_uris": {"android": "https://dc.lft.to/lastmile_qr_scan", "ios": "https://dc.lft.to/lastmile_qr_scan"}, "fusion_lon": 0.0}, {"lat": 38.928227666666665, "is_disabled": 0, "type": "electric_scooter", "lon": -77.02259316666667, "bike_id": "9c40dd2b99be86c1080327e534f69834", "fusion_lat": 0.0, "name": "9c40dd2b99be86c1080327e534f69834", "is_reserved": 0, "rental_uris": {"android": "https://dc.lft.to/lastmile_qr_scan", "ios": "https://dc.lft.to/lastmile_qr_scan"}, "fusion_lon": 0.0}, {"lat": 38.9052905, "is_disabled": 0, "type": "electric_scooter", "lon": -77.03456233333333, "bike_id": "893c78bbcc51c698d221509638c7bd69", "fusion_lat": 0.0, "name": "893c78bbcc51c698d221509638c7bd69", "is_reserved": 0, "rental_uris": {"android": "https://dc.lft.to/lastmile_qr_scan", "ios": "https://dc.lft.to/lastmile_qr_scan"}, "fusion_lon": 0.0}, {"lat": 38.87246433333333, "is_disabled": 0, "type": "electric_scooter", "lon": -76.9772525, "bike_id": "a180357792a93626d5d25223e8f77d10", "fusion_lat": 0.0, "name": "a180357792a93626d5d25223e8f77d10", "is_reserved": 0, "rental_uris": {"android": "https://dc.lft.to/lastmile_qr_scan", "ios": "https://dc.lft.to/lastmile_qr_scan"}, "fusion_lon": 0.0}, {"lat": 38.922439833333335, "is_disabled": 0, "type": "electric_scooter", "lon": -77.0194075, "bike_id": "da66ad8c2b32c74a5172f684e0bef002", "fusion_lat": 0.0, "name": "da66ad8c2b32c74a5172f684e0bef002", "is_reserved": 0, "rental_uris": {"android": "https://dc.lft.to/lastmile_qr_scan", "ios": "https://dc.lft.to/lastmile_qr_scan"}, "fusion_lon": 0.0}, {"lat": 38.90959766666667, "is_disabled": 0, "type": "electric_scooter", "lon": -77.0268455, "bike_id": "e3bc6dba93890744aa8dcc5cfae776c6", "fusion_lat": 0.0, "name": "e3bc6dba93890744aa8dcc5cfae776c6", "is_reserved": 0, "rental_uris": {"android": "https://dc.lft.to/lastmile_qr_scan", "ios": "https://dc.lft.to/lastmile_qr_scan"}, "fusion_lon": 0.0}, {"lat": 38.928353, "is_disabled": 0, "type": "electric_scooter", "lon": -77.05423883333333, "bike_id": "dde7797b701fd5a4a81c9645497a13f6", "fusion_lat": 0.0, "name": "dde7797b701fd5a4a81c9645497a13f6", "is_reserved": 0, "rental_uris": {"android": "https://dc.lft.to/lastmile_qr_scan", "ios": "https://dc.lft.to/lastmile_qr_scan"}, "fusion_lon": 0.0}, {"lat": 38.88636433333333, "is_disabled": 0, "type": "electric_scooter", "lon": -76.95471466666666, "bike_id": "546fab8138c883c214124a3d217015d5", "fusion_lat": 0.0, "name": "546fab8138c883c214124a3d217015d5", "is_reserved": 0, "rental_uris": {"android": "https://dc.lft.to/lastmile_qr_scan", "ios": "https://dc.lft.to/lastmile_qr_scan"}, "fusion_lon": 0.0}, {"lat": 38.9431675, "is_disabled": 0, "type": "electric_scooter", "lon": -77.06133083333333, "bike_id": "8b262ab4a3ebbec6ed0a018ee11e038d", "fusion_lat": 0.0, "name": "8b262ab4a3ebbec6ed0a018ee11e038d", "is_reserved": 0, "rental_uris": {"android": "https://dc.lft.to/lastmile_qr_scan", "ios": "https://dc.lft.to/lastmile_qr_scan"}, "fusion_lon": 0.0}, {"lat": 38.93225416666667, "is_disabled": 0, "type": "electric_scooter", "lon": -77.03389466666667, "bike_id": "e00d4bd07f28139784a79c1ea137c4bc", "fusion_lat": 0.0, "name": "e00d4bd07f28139784a79c1ea137c4bc", "is_reserved": 0, "rental_uris": {"android": "https://dc.lft.to/lastmile_qr_scan", "ios": "https://dc.lft.to/lastmile_qr_scan"}, "fusion_lon": 0.0}, {"lat": 38.909596666666665, "is_disabled": 0, "type": "electric_scooter", "lon": -77.04799466666667, "bike_id": "a92ec436fc257ae4eb052e1687a4a225", "fusion_lat": 0.0, "name": "a92ec436fc257ae4eb052e1687a4a225", "is_reserved": 0, "rental_uris": {"android": "https://dc.lft.to/lastmile_qr_scan", "ios": "https://dc.lft.to/lastmile_qr_scan"}, "fusion_lon": 0.0}, {"lat": 38.884928, "is_disabled": 0, "type": "electric_scooter", "lon": -77.00712066666667, "bike_id": "6fc2245938ebd40a9093fd2c7871eae5", "fusion_lat": 0.0, "name": "6fc2245938ebd40a9093fd2c7871eae5", "is_reserved": 0, "rental_uris": {"android": "https://dc.lft.to/lastmile_qr_scan", "ios": "https://dc.lft.to/lastmile_qr_scan"}, "fusion_lon": 0.0}, {"lat": 38.93266233333333, "is_disabled": 0, "type": "electric_scooter", "lon": -77.03891533333334, "bike_id": "d845b65dc4ead520fb030026af83ad99", "fusion_lat": 0.0, "name": "d845b65dc4ead520fb030026af83ad99", "is_reserved": 0, "rental_uris": {"android": "https://dc.lft.to/lastmile_qr_scan", "ios": "https://dc.lft.to/lastmile_qr_scan"}, "fusion_lon": 0.0}, {"lat": 38.84272516666667, "is_disabled": 0, "type": "electric_bike", "lon": -76.988399, "bike_id": "2154cb6feb96318b1f9b71f5607a7aec", "fusion_lat": 0.0, "name": "2154cb6feb96318b1f9b71f5607a7aec", "is_reserved": 0, "rental_uris": {"android": "https://dc.lft.to/lastmile_qr_scan", "ios": "https://dc.lft.to/lastmile_qr_scan"}, "fusion_lon": 0.0}, {"lat": 38.842924833333335, "is_disabled": 0, "type": "electric_scooter", "lon": -76.99944683333334, "bike_id": "fe15b2a9d22ed9d9c769ac8722c17087", "fusion_lat": 0.0, "name": "fe15b2a9d22ed9d9c769ac8722c17087", "is_reserved": 0, "rental_uris": {"android": "https://dc.lft.to/lastmile_qr_scan", "ios": "https://dc.lft.to/lastmile_qr_scan"}, "fusion_lon": 0.0}, {"lat": 38.93116333333333, "is_disabled": 0, "type": "electric_scooter", "lon": -77.03808833333333, "bike_id": "d4485632314a052d8f13b1c1e7401ace", "fusion_lat": 0.0, "name": "d4485632314a052d8f13b1c1e7401ace", "is_reserved": 0, "rental_uris": {"android": "https://dc.lft.to/lastmile_qr_scan", "ios": "https://dc.lft.to/lastmile_qr_scan"}, "fusion_lon": 0.0}, {"lat": 38.92478116666667, "is_disabled": 0, "type": "electric_scooter", "lon": -77.0263265, "bike_id": "f291babcb12894b094db1680c3533380", "fusion_lat": 0.0, "name": "f291babcb12894b094db1680c3533380", "is_reserved": 0, "rental_uris": {"android": "https://dc.lft.to/lastmile_qr_scan", "ios": "https://dc.lft.to/lastmile_qr_scan"}, "fusion_lon": 0.0}, {"lat": 38.918535, "is_disabled": 0, "type": "electric_scooter", "lon": -77.01654916666666, "bike_id": "98bd889f46a9fb4a4f59f53b17473ef3", "fusion_lat": 0.0, "name": "98bd889f46a9fb4a4f59f53b17473ef3", "is_reserved": 0, "rental_uris": {"android": "https://dc.lft.to/lastmile_qr_scan", "ios": "https://dc.lft.to/lastmile_qr_scan"}, "fusion_lon": 0.0},