{"data": {"bikes": [{"lat": 38.88458516666667, "is_disabled": 0, "type": "electric_scooter", "lon": -76.92626116666666, "bike_id": "6da3a02b25799d8f9a4eb03e0614b344", "fusion_lat": 0.0, "name": "6da3a02b25799d8f9a4eb03e0614b344", "is_reserved": 0, "rental_uris": {"android": "https://dc.lft.to/lastmile_qr_scan", "ios": "https://dc.lft.to/lastmile_qr_scan"}, "fusion_lon": 0.0}, {"lat": 38.928496333333335, "is_disabled": 0, "type": "electric_bike", "lon": -77.10682533333333, "bike_id": "521e2c57fd43915b2e35fa532fcc9ba7", "fusion_lat": 0.0, "name": "521e2c57fd43915b2e35fa532fcc9ba7", "is_reserved": 0, "rental_uris": {"android": "https://dc.lft.to/lastmile_qr_scan", "ios": "https://dc.lft.to/lastmile_qr_scan"}, "fusion_lon": 0.0}, {"lat": 38.906018333333336, "is_disabled": 0, "type": "electric_scooter", "lon": -77.0631015, "bike_id": "052dfe955005637a442ce4b75e516532", "fusion_lat": 0.0, "name": "052dfe955005637a442ce4b75e516532", "is_reserved": 0, "rental_uris": {"android": "https://dc.lft.to/lastmile_qr_scan", "ios": "https://dc.lft.to/lastmile_qr_scan"}, "fusion_lon": 0.0}, {"lat": 38.807387166666665, "is_disabled": 0, "type": "electric_bike", "lon": -77.09434266666666, "bike_id": "48fccf0fc8adce57113c351f2e294a8a", "fusion_lat": 0.0, "name": "48fccf0fc8adce57113c351f2e294a8a", "is_reserved": 0, "rental_uris": {"android": "https://dc.lft.to/lastmile_qr_scan", "ios": "https://dc.lft.to/lastmile_qr_scan"}, "fusion_lon": 0.0}, {"lat": 38.9386445, "is_disabled": 0, "type": "electric_scooter", "lon": -77.02442733333334, "bike_id": "245f5493c8ea7aef08ad876eb1783ec0", "fusion_lat": 0.0, "name": "245f5493c8ea7aef08ad876eb1783ec0", "is_reserved": 0, "rental_uris": {"android": "https://dc.lft.to/lastmile_qr_scan", "ios": "https://dc.lft.to/lastmile_qr_scan"}, "fusion_lon": 0.0}, {"lat": 38.90894133333333, "is_disabled": 0, "type": "electric_scooter", "lon": -77.06438516666667, "bike_id": "a41bbd2bcb116f0306ee0c4bd535cff5", "fusion_lat": 0.0, "name": "a41bbd2bcb116f0306ee0c4bd535cff5", "is_reserved": 0, "rental_uris": {"android": "https://dc.lft.to/lastmile_qr_scan", "ios": "https://dc.lft.to/lastmile_qr_scan"}, "fusion_lon": 0.0}, {"lat": 38.9376215, "is_disabled": 0, "type": "electric_scooter", "lon": -77.03144783333333, "bike_id": "12c4796ecabacd0b62b189f27310d8bc", "fusion_lat": 0.0, "name": "12c4796ecabacd0b62b189f27310d8bc", "is_reserved": 0, "rental_uris": {"android": "https://dc.lft.to/lastmile_qr_scan", "ios": "https://dc.lft.to/lastmile_qr_scan"}, "fusion_lon": 0.0}, {"lat": 38.9138805, "is_disabled": 0, "type": "electric_scooter", "lon": -77.03663033333333, "bike_id": "b7609ccd71ba6bdb936c4e61249e8141", "fusion_lat": 0.0, "name": "b7609ccd71ba6bdb936c4e61249e8141", "is_reserved": 0, "rental_uris": {"android": "https://dc.lft.to/lastmile_qr_scan", "ios": "https://dc.lft.to/lastmile_qr_scan"}, "fusion_lon": 0.0}, {"lat": 38.884879833333336, "is_disabled": 0, "type": "electric_scooter", "lon": -77.03479533333334, "bike_id": "ad70da1f7dc3830ce182bbda06d52d56", "fusion_lat": 0.0, "name": "ad70da1f7dc3830ce182bbda06d52d56", "is_reserved": 0, "rental_uris": {"android": "https://dc.lft.to/lastmile_qr_scan", "ios": "https://dc.lft.to/lastmile_qr_scan"}, "fusion_lon": 0.0}, {"lat": 38.91866, "is_disabled": 0, "type": "electric_scooter", "lon": -76.9712185, "bike_id": "eb57d52adcc7b77494681fe262504277", "fusion_lat": 0.0, "name": "eb57d52adcc7b77494681fe262504277", "is_reserved": 0, "rental_uris": {"android": "https://dc.lft.to/lastmile_qr_scan", "ios": "https://dc.lft.to/lastmile_qr_scan"}, "fusion_lon": 0.0}, {"lat": 38.90279433333333, "is_disabled": 0, "type": "electric_scooter", "lon": -77.03933066666667, "bike_id": "1caa54d4fba78167cee405eb50181898", "fusion_lat": 0.0, "name": "1caa54d4fba78167cee405eb50181898", "is_reserved": 0, "rental_uris": {"android": "https://dc.lft.to/lastmile_qr_scan", "ios": "https://dc.lft.to/lastmile_qr_scan"}, "fusion_lon": 0.0}, {"lat": 38.93471133333333, "is_disabled": 0, "type": "electric_scooter", "lon": -77.028598, "bike_id": "710456b1942d606bdbf2de9b792824ea", "fusion_lat": 0.0, "name": "710456b1942d606bdbf2de9b792824ea", "is_reserved": 0, "rental_uris": {"android": "https://dc.lft.to/lastmile_qr_scan", "ios": "https://dc.lft.to/lastmile_qr_scan"}, "fusion_lon": 0.0}, {"lat": 38.908544, "is_disabled": 0, "type": "electric_scooter", "lon": -76.9996365, "bike_id": "4693b3d3b5f002e78a08d7497c44c533", "fusion_lat": 0.0, "name": "4693b3d3b5f002e78a08d7497c44c533", "is_reserved": 0, "rental_uris": {"android": "https://dc.lft.to/lastmile_qr_scan", "ios": "https://dc.lft.to/lastmile_qr_scan"}, "fusion_lon": 0.0}, {"lat": 38.911022, "is_disabled": 0, "type": "electric_scooter", "lon": -77.04395716666667, "bike_id": "1608a76139c8222c501a9ec33b134ab1", "fusion_lat": 0.0, "name": "1608a76139c8222c501a9ec33b134ab1", "is_reserved": 0, "rental_uris": {"android": "https://dc.lft.to/lastmile_qr_scan", "ios": "https://dc.lft.to/lastmile_qr_scan"}, "fusion_lon": 0.0}, {"lat": 38.9218735, "is_disabled": 0, "type": "electric_scooter", "lon": -77.04144233333334, "bike_id": "caad81ca52e58eda58710dd8412bfb2c", "fusion_lat": 0.0, "name": "caad81ca52e58eda58710dd8412bfb2c", "is_reserved": 0, "rental_uris": {"android": "https://dc.lft.to/lastmile_qr_scan", "ios": "https://dc.lft.to/lastmile_qr_scan"}, "fusion_lon": 0.0}, {"lat": 38.910124333333336, "is_disabled": 0, "type": "electric_scooter", "lon": -77.03848433333333, "bike_id": "a83286d5557d0959ecb617ba156d74cb", "fusion_lat": 0.0, "name": "a83286d5557d0959ecb617ba156d74cb", "is_reserved": 0, "rental_uris": {"android": "https://dc.lft.to/lastmile_qr_scan", "ios": "https://dc.lft.to/lastmile_qr_scan"}, "fusion_lon": 0.0}, {"lat": 38.953982833333335, "is_disabled": 0, "type": "electric_scooter", "lon": -77.02799633333333, "bike_id": "adac1156c855c5612ed01129b9df171e", "fusion_lat": 0.0, "name": "adac1156c855c5612ed01129b9df171e", "is_reserved": 0, "rental_uris": {"android": "https://dc.lft.to/lastmile_qr_scan", "ios": "https://dc.lft.to/lastmile_qr_scan"}, "fusion_lon": 0.0}, {"lat": 38.90119583333333, "is_disabled": 0, "type": "electric_scooter", "lon": -77.016322, "bike_id": "109fe6ebe647029d4f0034bdfa7d6c26", "fusion_lat": 0.0, "name": "109fe6ebe647029d4f0034bdfa7d6c26", "is_reserved": 0, "rental_uris": {"android": "https://dc.lft.to/lastmile_qr_scan", "ios": "https://dc.lft.to/lastmile_qr_scan"}, "fusion_lon": 0.0}, {"lat": 38.90272383333333, "is_disabled": 0, "type": "electric_scooter", "lon": -77.04612166666666, "bike_id": "c0bb98c34d2fe1fe7247b988beb06565", "fusion_lat": 0.0, "name": "c0bb98c34d2fe1fe7247b988beb06565", "is_reserved": 0, "rental_uris": {"android": "https://dc.lft.to/lastmile_qr_scan", "ios": "https://dc.lft.to/lastmile_qr_scan"}, "fusion_lon": 0.0}, {"lat": 38.9133075, "is_disabled": 0, "type": "electric_scooter", "lon": -77.04812166666666, "bike_id": "0448254e8c79373149bf2edee8c7ff14", "fusion_lat": 0.0, "name": "0448254e8c79373149bf2edee8c7ff14", "is_reserved": 0, "rental_uris": {"android": "https://dc.lft.to/lastmile_qr_scan", "ios": "https://dc.lft.to/lastmile_qr_scan"}, "fusion_lon": 0.0}, {"lat": 38.8880365, "is_disabled": 0, "type": "electric_scooter", "lon": -77.04433166666666, "bike_id": "32a9795ef6138809d868aa9d78620f35", "fusion_lat": 0.0, "name": "32a9795ef6138809d868aa9d78620f35", "is_reserved": 0, "rental_uris": {"android": "https://dc.lft.to/lastmile_qr_scan", "ios": "https://dc.lft.to/lastmile_qr_scan"}, "fusion_lon": 0.0}, {"lat": 38.88776566666667, "is_disabled": 0, "type": "electric_scooter", "lon": -76.976459, "bike_id": "04ebd193ba2cd4f3d2c817ac9700bfc2", "fusion_lat": 0.0, "name": "04ebd193ba2cd4f3d2c817ac9700bfc2", "is_reserved": 0, "rental_uris": {"android": "https://dc.lft.to/lastmile_qr_scan", "ios": "https://dc.lft.to/lastmile_qr_scan"}, "fusion_lon": 0.0}, {"lat": 38.90955916666667, "is_disabled": 0, "type": "electric_scooter", "lon": -77.04523566666667, "bike_id": "fd8c7c646499b18edfc40aaec334c74e", "fusion_lat": 0.0, "name": "fd8c7c646499b18edfc40aaec334c74e", "is_reserved": 0, "rental_uris": {"android": "https://dc.lft.to/lastmile_qr_scan", "ios": "https://dc.lft.to/lastmile_qr_scan"}, "fusion_lon": 0.0}, {"lat": 38.995985833333336, "is_disabled": 0, "type": "electric_scooter", "lon": -77.03197916666667, "bike_id": "52fe7d52aa26419c1067c0eb314cd461", "fusion_lat": 0.0, "name": "52fe7d52aa26419c1067c0eb314cd461", "is_reserved": 0, "rental_uris": {"android": "https://dc.lft.to/lastmile_qr_scan", "ios": "https://dc.lft.to/lastmile_qr_scan"}, "fusion_lon": 0.0}, {"lat": 38.9041655, "is_disabled": 0, "type": "electric_scooter", "lon": -76.99291666666667, "bike_id": "ee54a84aae84a692f9b3f9101ad5f1a1", "fusion_lat": 0.0, "name": "ee54a84aae84a692f9b3f9101ad5f1a1", "is_reserved": 0, "rental_uris": {"android": "https://dc.lft.to/lastmile_qr_scan", "ios": "https://dc.lft.to/lastmile_qr_scan"}, "fusion_lon": 0.0}, {"lat": 38.864049, "is_disabled": 0, "type": "electric_bike", "lon": -76.9742105, "bike_id": "5f515e7c811d47ddb38b7a0c7657f338", "fusion_lat": 0.0, "name": "5f515e7c811d47ddb38b7a0c7657f338", "is_reserved": 0, "rental_uris": {"android": "https://dc.lft.to/lastmile_qr_scan", "ios": "https://dc.lft.to/lastmile_qr_scan"}, "fusion_lon": 0.0}, {"lat": 38.911984, "is_disabled": 0, "type": "electric_scooter", "lon": -77.043432, "bike_id": "230704f5a5edfbdba66404aeb017cdff", "fusion_lat": 0.0, "name": "230704f5a5edfbdba66404aeb017cdff", "is_reserved": 0, "rental_uris": {"android": "https://dc.lft.to/lastmile_qr_scan", "ios": "https://dc.lft.to/lastmile_qr_scan"}, "fusion_lon": 0.0}, {"lat": 38.923946666666666, "is_disabled": 0, "type": "electric_scooter", "lon": -77.04462783333334, "bike_id": "3757592bfab4c3e3ed796e957489c177", "fusion_lat": 0.0, "name": "3757592bfab4c3e3ed796e957489c177", "is_reserved": 0, "rental_uris": {"android": "https://dc.lft.to/lastmile_qr_scan", "ios": "https://dc.lft.to/lastmile_qr_scan"}, "fusion_lon": 0.0}, {"lat": 38.916933666666665, "is_disabled": 0, "type": "electric_scooter", "lon": -77.0347905, "bike_id": "0bf7136439d05f20ed88853092d77a1a", "fusion_lat": 0.0, "name": "0bf7136439d05f20ed88853092d77a1a", "is_reserved": 0, "rental_uris": {"android": "https://dc.lft.to/lastmile_qr_scan", "ios": "https://dc.lft.to/lastmile_qr_scan"}, "fusion_lon": 0.0}, {"lat": 38.91303816666667, "is_disabled": 0, "type": "electric_scooter", "lon": -77.03213383333333, "bike_id": "cfe45f340f6e34f474b5c940a198b10b", "fusion_lat": 0.0, "name": "cfe45f340f6e34f474b5c940a198b10b", "is_reserved": 0, "rental_uris": {"android": "https://dc.lft.to/lastmile_qr_scan", "ios": "https://dc.lft.to/lastmile_qr_scan"}, "fusion_lon": 0.0}, {"lat": 38.887338166666666, "is_disabled": 0, "type": "electric_scooter", "lon": -77.020765, "bike_id": "bcb7cbb9eb5bfbb229335d674af19d87", "fusion_lat": 0.0, "name": "bcb7cbb9eb5bfbb229335d674af19d87", "is_reserved": 0, "rental_uris": {"android": "https://dc.lft.to/lastmile_qr_scan", "ios": "https://dc.lft.to/lastmile_qr_scan"}, "fusion_lon": 0.0}, {"lat": 38.867083, "is_disabled": 0, "type": "electric_scooter", "lon": -76.987324, "bike_id": "802f28577dd6f7a8d662e240b206c075", "fusion_lat": 0.0, "name": "802f28577dd6f7a8d662e240b206c075", "is_reserved": 0, "rental_uris": {"android": "https://dc.lft.to/lastmile_qr_scan", "ios": "https://dc.lft.to/lastmile_qr_scan"}, "fusion_lon": 0.0}, {"lat": 38.88469666666667, "is_disabled": 0, "type": "electric_scooter", "lon": -77.02421583333333, "bike_id": "035854a91cb01feb1e7ce86c30a24c75", "fusion_lat": 0.0, "name": "035854a91cb01feb1e7ce86c30a24c75", "is_reserved": 0, "rental_uris": {"android": "https://dc.lft.to/lastmile_qr_scan", "ios": "https://dc.lft.to/lastmile_qr_scan"}, "fusion_lon": 0.0}, {"lat": 38.92510266666667, "is_disabled": 0, "type": "electric_scooter", "lon": -76.98582833333333, "bike_id": "0d83552a8b021c735b6996f9439eaa32", "fusion_lat": 0.0, "name": "0d83552a8b021c735b6996f9439eaa32", "is_reserved": 0, "rental_uris": {"android": "https://dc.lft.to/lastmile_qr_scan", "ios": "https://dc.lft.to/lastmile_qr_scan"}, "fusion_lon": 0.0}, {"lat": 38.874771833333334, "is_disabled": 0, "type": "electric_scooter", "lon": -77.0107075, "bike_id": "890c12ee0138cad755cb9034717cfe9c", "fusion_lat": 0.0, "name": "890c12ee0138cad755cb9034717cfe9c", "is_reserved": 0, "rental_uris": {"android": "https://dc.lft.to/lastmile_qr_scan", "ios": "https://dc.lft.to/lastmile_qr_scan"}, "fusion_lon": 0.0}, {"lat": 38.89947316666667, "is_disabled": 0, "type": "electric_scooter", "lon": -77.05174533333333, "bike_id": "d9b1f69d87c2c01718536f975744fec0", "fusion_lat": 0.0, "name": "d9b1f69d87c2c01718536f975744fec0", "is_reserved": 0, "rental_uris": {"android": "https://dc.lft.to/lastmile_qr_scan", "ios": "https://dc.lft.to/lastmile_qr_scan"}, "fusion_lon": 0.0}, {"lat": 38.915647166666666, "is_disabled": 0, "type": "electric_scooter", "lon": -77.033196, "bike_id": "479297a405427716fefc9d871d17f570", "fusion_lat": 0.0, "name": "479297a405427716fefc9d871d17f570", "is_reserved": 0, "rental_uris": {"android": "https://dc.lft.to/lastmile_qr_scan", "ios": "https://dc.lft.to/lastmile_qr_scan"}, "fusion_lon": 0.0}, {"lat": 38.902581166666664, "is_disabled": 0, "type": "electric_scooter", "lon": -77.02821916666667, "bike_id": "07b983d545b11da06f69ce10f26ac78f", "fusion_lat": 0.0, "name": "07b983d545b11da06f69ce10f26ac78f", "is_reserved": 0, "rental_uris": {"android": "https://dc.lft.to/lastmile_qr_scan", "ios": "https://dc.lft.to/lastmile_qr_scan"}, "fusion_lon": 0.0}, {"lat": 38.881626833333335, "is_disabled": 0, "type": "electric_scooter", "lon": -76.9949135, "bike_id": "c04aa49e1bf386a310bb82269ad17f26", "fusion_lat": 0.0, "name": "c04aa49e1bf386a310bb82269ad17f26", "is_reserved": 0, "rental_uris": {"android": "https://dc.lft.to/lastmile_qr_scan", "ios": "https://dc.lft.to/lastmile_qr_scan"}, "fusion_lon": 0.0}, {"lat": 38.89221216666667, "is_disabled": 0, "type": "electric_scooter", "lon": -77.02648733333334, "bike_id": "d24d2f35e563f37a681585e5041ed8bb", "fusion_lat": 0.0, "name": "d24d2f35e563f37a681585e5041ed8bb", "is_reserved": 0, "rental_uris": {"android": "https://dc.lft.to/lastmile_qr_scan", "ios": "https://dc.lft.to/lastmile_qr_scan"}, "fusion_lon": 0.0}, {"lat": 38.9036605, "is_disabled": 0, "type": "electric_scooter", "lon": -77.04843666666666, "bike_id": "3a189586fd8c27b031a9b2fc8394891f", "fusion_lat": 0.0, "name": "3a189586fd8c27b031a9b2fc8394891f", "is_reserved": 0, "rental_uris": {"android": "https://dc.lft.to/lastmile_qr_scan", "ios": "https://dc.lft.to/lastmile_qr_scan"}, "fusion_lon": 0.0}, {"lat": 38.910499, "is_disabled": 0, "type": "electric_scooter", "lon": -77.0152775, "bike_id": "a0d5a75ed9200f28bfb88bdf50d63f43", "fusion_lat": 0.0, "name": "a0d5a75ed9200f28bfb88bdf50d63f43", "is_reserved": 0, "rental_uris": {"android": "https://dc.lft.to/lastmile_qr_scan", "ios": "https://dc.lft.to/lastmile_qr_scan"}, "fusion_lon": 0.0}, {"lat": 38.92827916666667, "is_disabled": 0, "type": "electric_scooter", "lon": -77.03720416666667, "bike_id": "0d9c06dbc70035f320de3c6c32a941ea", "fusion_lat": 0.0, "name": "0d9c06dbc70035f320de3c6c32a941ea", "is_reserved": 0, "rental_uris": {"android": "https://dc.lft.to/lastmile_qr_scan", "ios": "https://dc.lft.to/lastmile_qr_scan"}, "fusion_lon": 0.0}, {"lat": 38.90774583333334, "is_disabled": 0, "type": "electric_scooter", "lon": -77.00395733333333, "bike_id": "1fff8cad58ebe820a3b0a84ce1bed757", "fusion_lat": 0.0, "name": "1fff8cad58ebe820a3b0a84ce1bed757", "is_reserved": 0, "rental_uris": {"android": "https://dc.lft.to/lastmile_qr_scan", "ios": "https://dc.lft.to/lastmile_qr_scan"}, "fusion_lon": 0.0}, {"lat": 38.9262795, "is_disabled": 0, "type": "electric_scooter", "lon": -77.03787216666667, "bike_id": "cf768fedce1de5184019b4ac3a16fd2a", "fusion_lat": 0.0, "name": "cf768fedce1de5184019b4ac3a16fd2a", "is_reserved": 0, "rental_uris": {"android": "https://dc.lft.to/lastmile_qr_scan", "ios": "https://dc.lft.to/lastmile_qr_scan"}, "fusion_lon": 0.0}, {"lat": 38.877287833333334, "is_disabled": 0, "type": "electric_bike", "lon": -76.9811195, "bike_id": "5b6c4e55371401d608827a9996feaa1f", "fusion_lat": 0.0, "name": "5b6c4e55371401d608827a9996feaa1f", "is_reserved": 0, "rental_uris": {"android": "https://dc.lft.to/lastmile_qr_scan", "ios": "https://dc.lft.to/lastmile_qr_scan"}, "fusion_lon": 0.0}, {"lat": 38.900241333333334, "is_disabled": 0, "type": "electric_scooter", "lon": -77.02907116666667, "bike_id": "e428df3674c1e7dc47bc0f3daf7f63ab", "fusion_lat": 0.0, "name": "e428df3674c1e7dc47bc0f3daf7f63ab", "is_reserved": 0, "rental_uris": {"android": "https://dc.lft.to/lastmile_qr_scan", "ios": "https://dc.lft.to/lastmile_qr_scan"}, "fusion_lon": 0.0}, {"lat": 38.912884166666664, "is_disabled": 0, "type": "electric_scooter", "lon": -77.04514966666666, "bike_id": "7aeefe61422ab8fd6e68bef75e947935", "fusion_lat": 0.0, "name": "7aeefe61422ab8fd6e68bef75e947935", "is_reserved": 0, "rental_uris": {"android": "https://dc.lft.to/lastmile_qr_scan", "ios": "https://dc.lft.to/lastmile_qr_scan"}, "fusion_lon": 0.0}, {"lat": 38.95501066666667, "is_disabled": 0, "type": "electric_scooter", "lon": -77.06560766666666, "bike_id": "b920c15d9ea61a57ed9efb2778825274", "fusion_lat": 0.0, "name": "b920c15d9ea61a57ed9efb2778825274", "is_reserved": 0, "rental_uris": {"android": "https://dc.lft.to/lastmile_qr_scan", "ios": "https://dc.lft.to/lastmile_qr_scan"}, "fusion_lon": 0.0}, {"lat": 38.911089833333335, "is_disabled": 0, "type": "electric_scooter", "lon": -77.02182983333333, "bike_id": "151da30dc9b5fc3bbda23560f0161ed8", "fusion_lat": 0.0, "name": "151da30dc9b5fc3bbda23560f0161ed8", "is_reserved": 0, "rental_uris": {"android": "https://dc.lft.to/lastmile_qr_scan", "ios": "https://dc.lft.to/lastmile_qr_scan"}, "fusion_lon": 0.0}, {"lat": 38.92294366666667, "is_disabled": 0, "type": "electric_scooter", "lon": -77.02246566666666, "bike_id": "2e6f56712c2a62f048d9bf0ad0218757", "fusion_lat": 0.0, "name": "2e6f56712c2a62f048d9bf0ad0218757", "is_reserved": 0, "rental_uris": {"android": "https://dc.lft.to/lastmile_qr_scan", "ios": "https://dc.lft.to/lastmile_qr_scan"}, "fusion_lon": 0.0}, {"lat": 38.920017333333334, "is_disabled": 0, "type": "electric_scooter", "lon": -76.9930495, "bike_id": "52cfe50b8e7970ea36d9472eff9665f4", "fusion_lat": 0.0, "name": "52cfe50b8e7970ea36d9472eff9665f4", "is_reserved": 0, "rental_uris": {"android": "https://dc.lft.to/lastmile_qr_scan", "ios": "https://dc.lft.to/lastmile_qr_scan"}, "fusion_lon": 0.0}, {"lat": 38.86564416666667, "is_disabled": 0, "type": "electric_scooter", "lon": -76.98953966666667, "bike_id": "98ae874771c20efedfb12bdf993e3d60", "fusion_lat": 0.0, "name": "98ae874771c20efedfb12bdf993e3d60", "is_reserved": 0, "rental_uris": {"android": "https://dc.lft.to/lastmile_qr_scan", "ios": "https://dc.lft.to/lastmile_qr_scan"}, "fusion_lon": 0.0}, {"lat": 38.884299166666665, "is_disabled": 0, "type": "electric_scooter", "lon": -76.95758366666666, "bike_id": "5d8fb9546f9c0526fb1331ea4fb2f5b5", "fusion_lat": 0.0, "name": "5d8fb9546f9c0526fb1331ea4fb2f5b5", "is_reserved": 0, "rental_uris": {"android": "https://dc.lft.to/lastmile_qr_scan", "ios": "https://dc.lft.to/lastmile_qr_scan"}, "fusion_lon": 0.0}, {"lat": 38.876582166666665, "is_disabled": 0, "type": "electric_scooter", "lon": -77.00596233333333, "bike_id": "37a7c04849d81b682ab3134a3f55719a", "fusion_lat": 0.0, "name": "37a7c04849d81b682ab3134a3f55719a", "is_reserved": 0, "rental_uris": {"android": "https://dc.lft.to/lastmile_qr_scan", "ios": "https://dc.lft.to/lastmile_qr_scan"}, "fusion_lon": 0.0}, {"lat": 38.91817233333333, "is_disabled": 0, "type": "electric_scooter", "lon": -77.03457766666666, "bike_id": "5455ef49078e4682a50b513151d17c25", "fusion_lat": 0.0, "name": "5455ef49078e4682a50b513151d17c25", "is_reserved": 0, "rental_uris": {"android": "https://dc.lft.to/lastmile_qr_scan", "ios": "https://dc.lft.to/lastmile_qr_scan"}, "fusion_lon": 0.0}, {"lat": 38.892164, "is_disabled": 0, "type": "electric_scooter", "lon": -76.9329675, "bike_id": "418c160a5dad0ccb5cac45833e7224ff", "fusion_lat": 0.0, "name": "418c160a5dad0ccb5cac45833e7224ff", "is_reserved": 0, "rental_uris": {"android": "https://dc.lft.to/lastmile_qr_scan", "ios": "https://dc.lft.to/lastmile_qr_scan"}, "fusion_lon": 0.0}, {"lat": 38.932202833333335, "is_disabled": 0, "type": "electric_scooter", "lon": -77.02734933333333, "bike_id": "ab1ec485f8590445a868ac517cb433ec", "fusion_lat": 0.0, "name": "ab1ec485f8590445a868ac517cb433ec", "is_reserved": 0, "rental_uris": {"android": "https://dc.lft.to/lastmile_qr_scan", "ios": "https://dc.lft.to/lastmile_qr_scan"}, "fusion_lon": 0.0}, {"lat": 38.889737, "is_disabled": 0, "type": "electric_scooter", "lon": -76.937426, "bike_id": "27172448637599f551e180edf7fcdecb", "fusion_lat": 0.0, "name": "27172448637599f551e180edf7fcdecb", "is_reserved": 0, "rental_uris": {"android": "https://dc.lft.to/lastmile_qr_scan", "ios": "https://dc.lft.to/lastmile_qr_scan"}, "fusion_lon": 0.0}, {"lat": 38.9105815, "is_disabled": 0, "type": "electric_scooter", "lon": -77.020934, "bike_id": "c03c2228669ef4c1ef96becd7efa60d3", "fusion_lat": 0.0, "name": "c03c2228669ef4c1ef96becd7efa60d3", "is_reserved": 0, "rental_uris": {"android": "https://dc.lft.to/lastmile_qr_scan", "ios": "https://dc.lft.to/lastmile_qr_scan"}, "fusion_lon": 0.0}, {"lat": 38.945144166666665, "is_disabled": 0, "type": "electric_scooter", "lon": -77.0217805, "bike_id": "4652f2f91a57a76db64bcefddaafb4b5", "fusion_lat": 0.0, "name": "4652f2f91a57a76db64bcefddaafb4b5", "is_reserved": 0, "rental_uris": {"android": "https://dc.lft.to/lastmile_qr_scan", "ios": "https://dc.lft.to/lastmile_qr_scan"}, "fusion_lon": 0.0}, {"lat": 38.907339, "is_disabled": 0, "type": "electric_scooter", "lon": -77.01068283333333, "bike_id": "60c4a9509fdbe1d9d6b631449d6c2df3", "fusion_lat": 0.0, "name": "60c4a9509fdbe1d9d6b631449d6c2df3", "is_reserved": 0, "rental_uris": {"android": "https://dc.lft.to/lastmile_qr_scan", "ios": "https://dc.lft.to/lastmile_qr_scan"}, "fusion_lon": 0.0}, {"lat": 38.92572066666666, "is_disabled": 0, "type": "electric_scooter", "lon": -77.02566566666667, "bike_id": "1f784a2ad04c54b1ecb436d40ab3ff87", "fusion_lat": 0.0, "name": "1f784a2ad04c54b1ecb436d40ab3ff87", "is_reserved": 0, "rental_uris": {"android": "https://dc.lft.to/lastmile_qr_scan", "ios": "https://dc.lft.to/lastmile_qr_scan"}, "fusion_lon": 0.0}, {"lat": 38.912687, "is_disabled": 0, "type": "electric_scooter", "lon": -77.0227075, "bike_id": "bdc4c67028a39e2b2f6821bc39a87b77", "fusion_lat": 0.0, "name": "bdc4c67028a39e2b2f6821bc39a87b77", "is_reserved": 0, "rental_uris": {"android": "https://dc.lft.to/lastmile_qr_scan", "ios": "https://dc.lft.to/lastmile_qr_scan"}, "fusion_lon": 0.0}, {"lat": 38.907205833333336, "is_disabled": 0, "type": "electric_scooter", "lon": -77.025306, "bike_id": "df1845b43b5eb6c8ff51875411d5382f", "fusion_lat": 0.0, "name": "df1845b43b5eb6c8ff51875411d5382f", "is_reserved": 0, "rental_uris": {"android": "https://dc.lft.to/lastmile_qr_scan", "ios": "https://dc.lft.to/lastmile_qr_scan"}, "fusion_lon": 0.0}, {"lat": 38.90466033333333, "is_disabled": 0, "type": "electric_scooter", "lon": -77.0322105, "bike_id": "90ecfb4bc2551af8c02fed454af61296", "fusion_lat": 0.0, "name": "90ecfb4bc2551af8c02fed454af61296", "is_reserved": 0, "rental_uris": {"android": "https://dc.lft.to/lastmile_qr_scan", "ios": "https://dc.lft.to/lastmile_qr_scan"}, "fusion_lon": 0.0}, {"lat": 38.866164166666664, "is_disabled": 0, "type": "electric_bike", "lon": -76.94577483333333, "bike_id": "85726b44e7fc4118b8454d9a610e70d3", "fusion_lat": 0.0, "name": "85726b44e7fc4118b8454d9a610e70d3", "is_reserved": 0, "rental_uris": {"android": "https://dc.lft.to/lastmile_qr_scan", "ios": "https://dc.lft.to/lastmile_qr_scan"}, "fusion_lon": 0.0}, {"lat": 38.90717216666667, "is_disabled": 0, "type": "electric_scooter", "lon": -77.0476035, "bike_id": "93bdc86f187f6fe0ae2ac0dd6bc2e197", "fusion_lat": 0.0, "name": "93bdc86f187f6fe0ae2ac0dd6bc2e197", "is_reserved": 0, "rental_uris": {"android": "https://dc.lft.to/lastmile_qr_scan", "ios": "https://dc.lft.to/lastmile_qr_scan"}, "fusion_lon": 0.0}, {"lat": 38.90844033333333, "is_disabled": 0, "type": "electric_scooter", "lon": -77.02718733333333, "bike_id": "d8435fe918e615ba402c185acbf1b02c", "fusion_lat": 0.0, "name": "d8435fe918e615ba402c185acbf1b02c", "is_reserved": 0, "rental_uris": {"android": "https://dc.lft.to/lastmile_qr_scan", "ios": "https://dc.lft.to/lastmile_qr_scan"}, "fusion_lon": 0.0}, {"lat": 38.91332966666667, "is_disabled": 0, "type": "electric_scooter", "lon": -77.03130233333333, "bike_id": "1941cb8f55aa8945ac5ac5c5270fd240", "fusion_lat": 0.0, "name": "1941cb8f55aa8945ac5ac5c5270fd240", "is_reserved": 0, "rental_uris": {"android": "https://dc.lft.to/lastmile_qr_scan", "ios": "https://dc.lft.to/lastmile_qr_scan"}, "fusion_lon": 0.0}, {"lat": 38.90119766666667, "is_disabled": 0, "type": "electric_scooter", "lon": -76.99758116666666, "bike_id": "d74681ff739576b18c99bb284b10bccb", "fusion_lat": 0.0, "name": "d74681ff739576b18c99bb284b10bccb", "is_reserved": 0, "rental_uris": {"android": "https://dc.lft.to/lastmile_qr_scan", "ios": "https://dc.lft.to/lastmile_qr_scan"}, "fusion_lon": 0.0}, {"lat": 38.8850205, "is_disabled": 0, "type": "electric_scooter", "lon": -77.0155795, "bike_id": "97244a63ee4d4c728a455f75ff74e0ab", "fusion_lat": 0.0, "name": "97244a63ee4d4c728a455f75ff74e0ab", "is_reserved": 0, "rental_uris": {"android": "https://dc.lft.to/lastmile_qr_scan", "ios": "https://dc.lft.to/lastmile_qr_scan"}, "fusion_lon": 0.0}, {"lat": 38.890464, "is_disabled": 0, "type": "electric_scooter", "lon": -76.93755766666666, "bike_id": "14e4f2983fc28a7b0cf8b07401b98d01", "fusion_lat": 0.0, "name": "14e4f2983fc28a7b0cf8b07401b98d01", "is_reserved": 0, "rental_uris": {"android": "https://dc.lft.to/lastmile_qr_scan", "ios": "https://dc.lft.to/lastmile_qr_scan"}, "fusion_lon": 0.0}, {"lat": 38.873146166666665, "is_disabled": 0, "type": "electric_bike", "lon": -76.99161533333333, "bike_id": "0d3f36395ad4b7204a1e20aff1aee829", "fusion_lat": 0.0, "name": "0d3f36395ad4b7204a1e20aff1aee829", "is_reserved": 0, "rental_uris": {"android": "https://dc.lft.to/lastmile_qr_scan", "ios": "https://dc.lft.to/lastmile_qr_scan"}, "fusion_lon": 0.0}, {"lat": 38.970880333333334, "is_disabled": 0, "type": "electric_bike", "lon": -77.06972333333333, "bike_id": "593ca5cf5faf2fa62dfffa04928a96a8", "fusion_lat": 0.0, "name": "593ca5cf5faf2fa62dfffa04928a96a8", "is_reserved": 0, "rental_uris": {"android": "https://dc.lft.to/lastmile_qr_scan", "ios": "https://dc.lft.to/lastmile_qr_scan"}, "fusion_lon": 0.0}, {"lat": 38.90965933333333, "is_disabled": 0, "type": "electric_scooter", "lon": -77.03406633333333, "bike_id": "a85ec4181acef58c00d5e6b75d0b75c5", "fusion_lat": 0.0, "name": "a85ec4181acef58c00d5e6b75d0b75c5", "is_reserved": 0, "rental_uris": {"android": "https://dc.lft.to/lastmile_qr_scan", "ios": "https://dc.lft.to/lastmile_qr_scan"}, "fusion_lon": 0.0}, {"lat": 38.91787466666667, "is_disabled": 0, "type": "electric_scooter", "lon": -77.04076633333334, "bike_id": "380e4cf4229d5f6f079b79c38fef521c", "fusion_lat": 0.0, "name": "380e4cf4229d5f6f079b79c38fef521c", "is_reserved": 0, "rental_uris": {"android": "https://dc.lft.to/lastmile_qr_scan", "ios": "https://dc.lft.to/lastmile_qr_scan"}, "fusion_lon": 0.0}, {"lat": 38.91561333333333, "is_disabled": 0, "type": "electric_scooter", "lon": -77.04896183333334, "bike_id": "1c4079db2e8d25136420cf8198fd6e2e", "fusion_lat": 0.0, "name": "1c4079db2e8d25136420cf8198fd6e2e", "is_reserved": 0, "rental_uris": {"android": "https://dc.lft.to/lastmile_qr_scan", "ios": "https://dc.lft.to/lastmile_qr_scan"}, "fusion_lon": 0.0}, {"lat": 38.916572333333335, "is_disabled": 0, "type": "electric_scooter", "lon": -77.04290866666666, "bike_id": "2a8c41fda3a5288099b8f2306b23b535", "fusion_lat": 0.0, "name": "2a8c41fda3a5288099b8f2306b23b535", "is_reserved": 0, "rental_uris": {"android": "https://dc.lft.to/lastmile_qr_scan", "ios": "https://dc.lft.to/lastmile_qr_scan"}, "fusion_lon": 0.0}, {"lat": 38.921706666666665, "is_disabled": 0, "type": "electric_scooter", "lon": -77.051383, "bike_id": "b34699e03f95184ede1c281828e077c1", "fusion_lat": 0.0, "name": "b34699e03f95184ede1c281828e077c1", "is_reserved": 0, "rental_uris": {"android": "https://dc.lft.to/lastmile_qr_scan", "ios": "https://dc.lft.to/lastmile_qr_scan"}, "fusion_lon": 0.0}, {"lat": 38.91167133333333, "is_disabled": 0, "type": "electric_scooter", "lon": -77.00468833333333, "bike_id": "0e5c2a617cdcc683328019f0c17b5b5c", "fusion_lat": 0.0, "name": "0e5c2a617cdcc683328019f0c17b5b5c", "is_reserved": 0, "rental_uris": {"android": "https://dc.lft.to/lastmile_qr_scan", "ios": "https://dc.lft.to/lastmile_qr_scan"}, "fusion_lon": 0.0}, {"lat": 38.910670833333334, "is_disabled": 0, "type": "electric_scooter", "lon": -77.016418, "bike_id": "c0384f52d409c4ddfc786317824ec6a3", "fusion_lat": 0.0, "name": "c0384f52d409c4ddfc786317824ec6a3", "is_reserved": 0, "rental_uris": {"android": "https://dc.lft.to/lastmile_qr_scan", "ios": "https://dc.lft.to/lastmile_qr_scan"}, "fusion_lon": 0.0}, {"lat": 38.865941666666664, "is_disabled": 0, "type": "electric_bike", "lon": -76.932313, "bike_id": "e33a6547edcfd5e83e836345bfe9356c", "fusion_lat": 0.0, "name": "e33a6547edcfd5e83e836345bfe9356c", "is_reserved": 0, "rental_uris": {"android": "https://dc.lft.to/lastmile_qr_scan", "ios": "https://dc.lft.to/lastmile_qr_scan"}, "fusion_lon": 0.0}, {"lat": 38.962144, "is_disabled": 0, "type": "electric_bike", "lon": -77.02777266666666, "bike_id": "526dbc4df9c9e1185c83392d93d399b2", "fusion_lat": 0.0, "name": "526dbc4df9c9e1185c83392d93d399b2", "is_reserved": 0, "rental_uris": {"android": "https://dc.lft.to/lastmile_qr_scan", "ios": "https://dc.lft.to/lastmile_qr_scan"}, "fusion_lon": 0.0}, {"lat": 38.89242183333333, "is_disabled": 0, "type": "electric_scooter", "lon": -77.039651, "bike_id": "94196ea13d0e9c934f650d5bc7c82de9", "fusion_lat": 0.0, "name": "94196ea13d0e9c934f650d5bc7c82de9", "is_reserved": 0, "rental_uris": {"android": "https://dc.lft.to/lastmile_qr_scan", "ios": "https://dc.lft.to/lastmile_qr_scan"}, "fusion_lon": 0.0}, {"lat": 38.852145166666666, "is_disabled": 0, "type": "electric_bike", "lon": -77.12951716666667, "bike_id": "522f8368b52bbdc5f970f8de23beab7d", "fusion_lat": 0.0, "name": "522f8368b52bbdc5f970f8de23beab7d", "is_reserved": 0, "rental_uris": {"android": "https://dc.lft.to/lastmile_qr_scan", "ios": "https://dc.lft.to/lastmile_qr_scan"}, "fusion_lon": 0.0}, {"lat": 38.92805466666667, "is_disabled": 0, "type": "electric_scooter", "lon": -77.04364066666666, "bike_id": "5834c30a5b3078d957d08ddb26f0a748", "fusion_lat": 0.0, "name": "5834c30a5b3078d957d08ddb26f0a748", "is_reserved": 0, "rental_uris": {"android": "https://dc.lft.to/lastmile_qr_scan", "ios": "https://dc.lft.to/lastmile_qr_scan"}, "fusion_lon": 0.0}, {"lat": 38.900516, "is_disabled": 0, "type": "electric_scooter", "lon": -77.0076115, "bike_id": "4042000c8b0ab9c50f7910bfc5d3f26f", "fusion_lat": 0.0, "name": "4042000c8b0ab9c50f7910bfc5d3f26f", "is_reserved": 0, "rental_uris": {"android": "https://dc.lft.to/lastmile_qr_scan", "ios": "https://dc.lft.to/lastmile_qr_scan"}, "fusion_lon": 0.0}, {"lat": 38.9279335, "is_disabled": 0, "type": "electric_scooter", "lon": -77.0315015, "bike_id": "be1ac8142b46f8e789d36e83e30a36fc", "fusion_lat": 0.0, "name": "be1ac8142b46f8e789d36e83e30a36fc", "is_reserved": 0, "rental_uris": {"android": "https://dc.lft.to/lastmile_qr_scan", "ios": "https://dc.lft.to/lastmile_qr_scan"}, "fusion_lon": 0.0}, {"lat": 38.91126966666667, "is_disabled": 0, "type": "electric_scooter", "lon": -77.03749, "bike_id": "c1e2d23f7eb3e508dff976a37588bc9b", "fusion_lat": 0.0, "name": "c1e2d23f7eb3e508dff976a37588bc9b", "is_reserved": 0, "rental_uris": {"android": "https://dc.lft.to/lastmile_qr_scan", "ios": "https://dc.lft.to/lastmile_qr_scan"}, "fusion_lon": 0.0}, {"lat": 38.91114066666667, "is_disabled": 0, "type": "electric_scooter", "lon": -77.04365466666667, "bike_id": "b636a93be3995a1297f549042b625696", "fusion_lat": 0.0, "name": "b636a93be3995a1297f549042b625696", "is_reserved": 0, "rental_uris": {"android": "https://dc.lft.to/lastmile_qr_scan", "ios": "https://dc.lft.to/lastmile_qr_scan"}, "fusion_lon": 0.0}, {"lat": 38.8990715, "is_disabled": 0, "type": "electric_scooter", "lon": -77.00363583333333, "bike_id": "585603dad3281409e0e7d1aee294e355", "fusion_lat": 0.0, "name": "585603dad3281409e0e7d1aee294e355", "is_reserved": 0, "rental_uris": {"android": "https://dc.lft.to/lastmile_qr_scan", "ios": "https://dc.lft.to/lastmile_qr_scan"}, "fusion_lon": 0.0}, {"lat": 38.902371, "is_disabled": 0, "type": "electric_scooter", "lon": -77.043771, "bike_id": "bed318240f33576b09ba7c9a5923bdb8", "fusion_lat": 0.0, "name": "bed318240f33576b09ba7c9a5923bdb8", "is_reserved": 0, "rental_uris": {"android": "https://dc.lft.to/lastmile_qr_scan", "ios": "https://dc.lft.to/lastmile_qr_scan"}, "fusion_lon": 0.0}, {"lat": 38.934553, "is_disabled": 0, "type": "electric_scooter", "lon": -77.03239316666667, "bike_id": "092e8483867ed3311aadfeb8cdb7b618", "fusion_lat": 0.0, "name": "092e8483867ed3311aadfeb8cdb7b618", "is_reserved": 0, "rental_uris": {"android": "https://dc.lft.to/lastmile_qr_scan", "ios": "https://dc.lft.to/lastmile_qr_scan"}, "fusion_lon": 0.0}, {"lat": 38.93226933333333, "is_disabled": 0, "type": "electric_scooter", "lon": -77.04415783333333, "bike_id": "af5a1cccb8623a66ea5852eb2cf7093c", "fusion_lat": 0.0, "name": "af5a1cccb8623a66ea5852eb2cf7093c", "is_reserved": 0, "rental_uris": {"android": "https://dc.lft.to/lastmile_qr_scan", "ios": "https://dc.lft.to/lastmile_qr_scan"}, "fusion_lon": 0.0}, {"lat": 38.8671065, "is_disabled": 0, "type": "electric_scooter", "lon": -76.98728016666666, "bike_id": "5d06d8cdcf75031b744a6b8288c90c53", "fusion_lat": 0.0, "name": "5d06d8cdcf75031b744a6b8288c90c53", "is_reserved": 0, "rental_uris": {"android": "https://dc.lft.to/lastmile_qr_scan", "ios": "https://dc.lft.to/lastmile_qr_scan"}, "fusion_lon": 0.0}, {"lat": 38.902572166666666, "is_disabled": 0, "type": "electric_scooter", "lon": -77.0395755, "bike_id": "e8cc6d6258da03299e8d925a75f06ee8", "fusion_lat": 0.0, "name": "e8cc6d6258da03299e8d925a75f06ee8", "is_reserved": 0, "rental_uris": {"android": "https://dc.lft.to/lastmile_qr_scan", "ios": "https://dc.lft.to/lastmile_qr_scan"}, "fusion_lon": 0.0}, {"lat": 38.90588266666666, "is_disabled": 0, "type": "electric_scooter", "lon": -76.9862265, "bike_id": "1185f2d64501307323644b24f12e2805", "fusion_lat": 0.0, "name": "1185f2d64501307323644b24f12e2805", "is_reserved": 0, "rental_uris": {"android": "https://dc.lft.to/lastmile_qr_scan", "ios": "https://dc.lft.to/lastmile_qr_scan"}, "fusion_lon": 0.0}, {"lat": 38.903878, "is_disabled": 0, "type": "electric_scooter", "lon": -77.035761, "bike_id": "bf59e4f18e0474d0101135c8d7481c7d", "fusion_lat": 0.0, "name": "bf59e4f18e0474d0101135c8d7481c7d", "is_reserved": 0, "rental_uris": {"android": "https://dc.lft.to/lastmile_qr_scan", "ios": "https://dc.lft.to/lastmile_qr_scan"}, "fusion_lon": 0.0}, {"lat": 38.9211365, "is_disabled": 0, "type": "electric_scooter", "lon": -77.04565083333334, "bike_id": "1441b258b55cb3fb85da1f160f8b1914", "fusion_lat": 0.0, "name": "1441b258b55cb3fb85da1f160f8b1914", "is_reserved": 0, "rental_uris": {"android": "https://dc.lft.to/lastmile_qr_scan", "ios": "https://dc.lft.to/lastmile_qr_scan"}, "fusion_lon": 0.0}, {"lat": 38.917472833333335, "is_disabled": 0, "type": "electric_scooter", "lon": -77.031954, "bike_id": "2199cea6717ccb3aa3f4afbc058b7e5d", "fusion_lat": 0.0, "name": "2199cea6717ccb3aa3f4afbc058b7e5d", "is_reserved": 0, "rental_uris": {"android": "https://dc.lft.to/lastmile_qr_scan", "ios": "https://dc.lft.to/lastmile_qr_scan"}, "fusion_lon": 0.0}, {"lat": 38.93908, "is_disabled": 0, "type": "electric_scooter", "lon": -77.066812, "bike_id": "ec8d8607ba6b7f0575f705d27378c6d5", "fusion_lat": 0.0, "name": "ec8d8607ba6b7f0575f705d27378c6d5", "is_reserved": 0, "rental_uris": {"android": "https://dc.lft.to/lastmile_qr_scan", "ios": "https://dc.lft.to/lastmile_qr_scan"}, "fusion_lon": 0.0}, {"lat": 38.9225135, "is_disabled": 0, "type": "electric_scooter", "lon": -77.07235783333333, "bike_id": "19a8adb09127590190c888156402208a", "fusion_lat": 0.0, "name": "19a8adb09127590190c888156402208a", "is_reserved": 0, "rental_uris": {"android": "https://dc.lft.to/lastmile_qr_scan", "ios": "https://dc.lft.to/lastmile_qr_scan"}, "fusion_lon": 0.0}, {"lat": 38.90859866666667, "is_disabled": 0, "type": "electric_bike", "lon": -76.940134, "bike_id": "9f8bc4ab18348c2548a860d0b3048b48", "fusion_lat": 0.0, "name": "9f8bc4ab18348c2548a860d0b3048b48", "is_reserved": 0, "rental_uris": {"android": "https://dc.lft.to/lastmile_qr_scan", "ios": "https://dc.lft.to/lastmile_qr_scan"}, "fusion_lon": 0.0}, {"lat": 38.9216105, "is_disabled": 0, "type": "electric_scooter", "lon": -77.0336535, "bike_id": "00f58b73e503c55bd798606563d15aaa", "fusion_lat": 0.0, "name": "00f58b73e503c55bd798606563d15aaa", "is_reserved": 0, "rental_uris": {"android": "https://dc.lft.to/lastmile_qr_scan", "ios": "https://dc.lft.to/lastmile_qr_scan"}, "fusion_lon": 0.0}, {"lat": 38.952828, "is_disabled": 0, "type": "electric_bike", "lon": -76.9459255, "bike_id": "8e7ebc2117645ca9849612d44253efb3", "fusion_lat": 0.0, "name": "8e7ebc2117645ca9849612d44253efb3", "is_reserved": 0, "rental_uris": {"android": "https://dc.lft.to/lastmile_qr_scan", "ios": "https://dc.lft.to/lastmile_qr_scan"}, "fusion_lon": 0.0}, {"lat": 38.9395655, "is_disabled": 0, "type": "electric_bike", "lon": -77.36096083333334, "bike_id": "8c5fd52371733f563c4ee193c2ac5672", "fusion_lat": 0.0, "name": "8c5fd52371733f563c4ee193c2ac5672", "is_reserved": 0, "rental_uris": {"android": "https://dc.lft.to/lastmile_qr_scan", "ios": "https://dc.lft.to/lastmile_qr_scan"}, "fusion_lon": 0.0}, {"lat": 38.917328, "is_disabled": 0, "type": "electric_scooter", "lon": -77.02411633333334, "bike_id": "b82facfbf4b157b9ba1227b489b4ede1", "fusion_lat": 0.0, "name": "b82facfbf4b157b9ba1227b489b4ede1", "is_reserved": 0, "rental_uris": {"android": "https://dc.lft.to/lastmile_qr_scan", "ios": "https://dc.lft.to/lastmile_qr_scan"}, "fusion_lon": 0.0}, {"lat": 38.90895366666667, "is_disabled": 0, "type": "electric_scooter", "lon": -77.04303683333333, "bike_id": "725e25f9e7e43c3801509100e796c5ff", "fusion_lat": 0.0, "name": "725e25f9e7e43c3801509100e796c5ff", "is_reserved": 0, "rental_uris": {"android": "https://dc.lft.to/lastmile_qr_scan", "ios": "https://dc.lft.to/lastmile_qr_scan"}, "fusion_lon": 0.0}, {"lat": 38.917063166666665, "is_disabled": 0, "type": "electric_scooter", "lon": -77.00116333333334, "bike_id": "5f62d7f933f3be6f24427f388dd24d3c", "fusion_lat": 0.0, "name": "5f62d7f933f3be6f24427f388dd24d3c", "is_reserved": 0, "rental_uris": {"android": "https://dc.lft.to/lastmile_qr_scan", "ios": "https://dc.lft.to/lastmile_qr_scan"}, "fusion_lon": 0.0}, {"lat": 38.8955835, "is_disabled": 0, "type": "electric_scooter", "lon": -76.93081066666667, "bike_id": "8acf68d288ea131188dec2e5416aab16", "fusion_lat": 0.0, "name": "8acf68d288ea131188dec2e5416aab16", "is_reserved": 0, "rental_uris": {"android": "https://dc.lft.to/lastmile_qr_scan", "ios": "https://dc.lft.to/lastmile_qr_scan"}, "fusion_lon": 0.0}, {"lat": 38.905966, "is_disabled": 0, "type": "electric_scooter", "lon": -77.04697083333333, "bike_id": "c758c927cd6343f8f5cf6daeb108df1f", "fusion_lat": 0.0, "name": "c758c927cd6343f8f5cf6daeb108df1f", "is_reserved": 0, "rental_uris": {"android": "https://dc.lft.to/lastmile_qr_scan", "ios": "https://dc.lft.to/lastmile_qr_scan"}, "fusion_lon": 0.0}, {"lat": 38.931497, "is_disabled": 0, "type": "electric_scooter", "lon": -77.02929483333334, "bike_id": "cbf52c2a5c36b7365488cc04beea6ee2", "fusion_lat": 0.0, "name": "cbf52c2a5c36b7365488cc04beea6ee2", "is_reserved": 0, "rental_uris": {"android": "https://dc.lft.to/lastmile_qr_scan", "ios": "https://dc.lft.to/lastmile_qr_scan"}, "fusion_lon": 0.0}, {"lat": 38.92011733333333, "is_disabled": 0, "type": "electric_scooter", "lon": -77.0388595, "bike_id": "b2dd42237d901a8df70d04b2de594026", "fusion_lat": 0.0, "name": "b2dd42237d901a8df70d04b2de594026", "is_reserved": 0, "rental_uris": {"android": "https://dc.lft.to/lastmile_qr_scan", "ios": "https://dc.lft.to/lastmile_qr_scan"}, "fusion_lon": 0.0}, {"lat": 38.92758966666667, "is_disabled": 0, "type": "electric_scooter", "lon": -77.03213516666666, "bike_id": "39638a07abf0bde3686321094543debc", "fusion_lat": 0.0, "name": "39638a07abf0bde3686321094543debc", "is_reserved": 0, "rental_uris": {"android": "https://dc.lft.to/lastmile_qr_scan", "ios": "https://dc.lft.to/lastmile_qr_scan"}, "fusion_lon": 0.0}, {"lat": 38.92835683333333, "is_disabled": 0, "type": "electric_scooter", "lon": -77.0542255, "bike_id": "27c036e7ef1b9e00e27abc3b50a642a5", "fusion_lat": 0.0, "name": "27c036e7ef1b9e00e27abc3b50a642a5", "is_reserved": 0, "rental_uris": {"android": "https://dc.lft.to/lastmile_qr_scan", "ios": "https://dc.lft.to/lastmile_qr_scan"}, "fusion_lon": 0.0}, {"lat": 38.926751333333335, "is_disabled": 0, "type": "electric_scooter", "lon": -77.0147975, "bike_id": "f94cc10c2656aff506f725050ca58651", "fusion_lat": 0.0, "name": "f94cc10c2656aff506f725050ca58651", "is_reserved": 0, "rental_uris": {"android": "https://dc.lft.to/lastmile_qr_scan", "ios": "https://dc.lft.to/lastmile_qr_scan"}, "fusion_lon": 0.0}, {"lat": 38.9115875, "is_disabled": 0, "type": "electric_scooter", "lon": -77.038405, "bike_id": "842a4460be4f25dd753f51a4422be704", "fusion_lat": 0.0, "name": "842a4460be4f25dd753f51a4422be704", "is_reserved": 0, "rental_uris": {"android": "https://dc.lft.to/lastmile_qr_scan", "ios": "https://dc.lft.to/lastmile_qr_scan"}, "fusion_lon": 0.0}, {"lat": 38.90473466666667, "is_disabled": 0, "type": "electric_scooter", "lon": -76.9732095, "bike_id": "0de8ac85b2cbd2c08df54c53d4d5082c", "fusion_lat": 0.0, "name": "0de8ac85b2cbd2c08df54c53d4d5082c", "is_reserved": 0, "rental_uris": {"android": "https://dc.lft.to/lastmile_qr_scan", "ios": "https://dc.lft.to/lastmile_qr_scan"}, "fusion_lon": 0.0}, {"lat": 38.922464, "is_disabled": 0, "type": "electric_scooter", "lon": -77.0194145, "bike_id": "8642d50d65a1e9f65193ff281c3518a0", "fusion_lat": 0.0, "name": "8642d50d65a1e9f65193ff281c3518a0", "is_reserved": 0, "rental_uris": {"android": "https://dc.lft.to/lastmile_qr_scan", "ios": "https://dc.lft.to/lastmile_qr_scan"}, "fusion_lon": 0.0}, {"lat": 38.942967833333334, "is_disabled": 0, "type": "electric_scooter", "lon": -77.0613735, "bike_id": "b969f27e424c0e4460250d6d3b51468c", "fusion_lat": 0.0, "name": "b969f27e424c0e4460250d6d3b51468c", "is_reserved": 0, "rental_uris": {"android": "https://dc.lft.to/lastmile_qr_scan", "ios": "https://dc.lft.to/lastmile_qr_scan"}, "fusion_lon": 0.0}, {"lat": 38.87070516666667, "is_disabled": 0, "type": "electric_scooter", "lon": -76.97968833333333, "bike_id": "ce0506f7c4d8d6ea63b9c6c5828e691c", "fusion_lat": 0.0, "name": "ce0506f7c4d8d6ea63b9c6c5828e691c", "is_reserved": 0, "rental_uris": {"android": "https://dc.lft.to/lastmile_qr_scan", "ios": "https://dc.lft.to/lastmile_qr_scan"}, "fusion_lon": 0.0}, {"lat": 38.89489416666667, "is_disabled": 0, "type": "electric_scooter", "lon": -77.0025385, "bike_id": "41ad251ced84f667d618d0c60aeba9cb", "fusion_lat": 0.0, "name": "41ad251ced84f667d618d0c60aeba9cb", "is_reserved": 0, "rental_uris": {"android": "https://dc.lft.to/lastmile_qr_scan", "ios": "https://dc.lft.to/lastmile_qr_scan"}, "fusion_lon": 0.0}, {"lat": 38.897885333333335, "is_disabled": 0, "type": "electric_scooter", "lon": -77.03179933333334, "bike_id": "9a437841e5a4a774f1d7f3879a12dfc8", "fusion_lat": 0.0, "name": "9a437841e5a4a774f1d7f3879a12dfc8", "is_reserved": 0, "rental_uris": {"android": "https://dc.lft.to/lastmile_qr_scan", "ios": "https://dc.lft.to/lastmile_qr_scan"}, "fusion_lon": 0.0}, {"lat": 38.89694, "is_disabled": 0, "type": "electric_scooter", "lon": -77.00496016666666, "bike_id": "1d9fb60cf63c6d5dff61608d5b22920a", "fusion_lat": 0.0, "name": "1d9fb60cf63c6d5dff61608d5b22920a", "is_reserved": 0, "rental_uris": {"android": "https://dc.lft.to/lastmile_qr_scan", "ios": "https://dc.lft.to/lastmile_qr_scan"}, "fusion_lon": 0.0}, {"lat": 38.89668783333333, "is_disabled": 0, "type": "electric_scooter", "lon": -77.04657533333334, "bike_id": "00700cf6ffec7717192fd8142bd20044", "fusion_lat": 0.0, "name": "00700cf6ffec7717192fd8142bd20044", "is_reserved": 0, "rental_uris": {"android": "https://dc.lft.to/lastmile_qr_scan", "ios": "https://dc.lft.to/lastmile_qr_scan"}, "fusion_lon": 0.0}, {"lat": 38.91706683333334, "is_disabled": 0, "type": "electric_scooter", "lon": -77.0347045, "bike_id": "bdd6805ffe9a3afeb08a402d3884e0e0", "fusion_lat": 0.0, "name": "bdd6805ffe9a3afeb08a402d3884e0e0", "is_reserved": 0, "rental_uris": {"android": "https://dc.lft.to/lastmile_qr_scan", "ios": "https://dc.lft.to/lastmile_qr_scan"}, "fusion_lon": 0.0}, {"lat": 38.9128295, "is_disabled": 0, "type": "electric_scooter", "lon": -77.04515216666667, "bike_id": "12769f0da90936cfd3cd365354305ed0", "fusion_lat": 0.0, "name": "12769f0da90936cfd3cd365354305ed0", "is_reserved": 0, "rental_uris": {"android": "https://dc.lft.to/lastmile_qr_scan", "ios": "https://dc.lft.to/lastmile_qr_scan"}, "fusion_lon": 0.0}, {"lat": 38.930198833333336, "is_disabled": 0, "type": "electric_scooter", "lon": -77.03273966666667, "bike_id": "edfc9e430c0412767009e3e8bc78ce0b", "fusion_lat": 0.0, "name": "edfc9e430c0412767009e3e8bc78ce0b", "is_reserved": 0, "rental_uris": {"android": "https://dc.lft.to/lastmile_qr_scan", "ios": "https://dc.lft.to/lastmile_qr_scan"}, "fusion_lon": 0.0}, {"lat": 38.92103816666667, "is_disabled": 0, "type": "electric_scooter", "lon": -77.0419755, "bike_id": "bafa6e959fe85820bdd8172515a7bfea", "fusion_lat": 0.0, "name": "bafa6e959fe85820bdd8172515a7bfea", "is_reserved": 0, "rental_uris": {"android": "https://dc.lft.to/lastmile_qr_scan", "ios": "https://dc.lft.to/lastmile_qr_scan"}, "fusion_lon": 0.0}, {"lat": 38.90645883333333, "is_disabled": 0, "type": "electric_scooter", "lon": -77.014249, "bike_id": "2ff77560ac30ffbef91fb61bdbdd249a", "fusion_lat": 0.0, "name": "2ff77560ac30ffbef91fb61bdbdd249a", "is_reserved": 0, "rental_uris": {"android": "https://dc.lft.to/lastmile_qr_scan", "ios": "https://dc.lft.to/lastmile_qr_scan"}, "fusion_lon": 0.0}, {"lat": 38.88631216666667, "is_disabled": 0, "type": "electric_scooter", "lon": -76.9549255, "bike_id": "8517600ef30a0ed72323a60fdc4927e6", "fusion_lat": 0.0, "name": "8517600ef30a0ed72323a60fdc4927e6", "is_reserved": 0, "rental_uris": {"android": "https://dc.lft.to/lastmile_qr_scan", "ios": "https://dc.lft.to/lastmile_qr_scan"}, "fusion_lon": 0.0}, {"lat": 38.915855666666666, "is_disabled": 0, "type": "electric_scooter", "lon": -77.05033566666667, "bike_id": "bb5196f57293a8e8de85c275985766bd", "fusion_lat": 0.0, "name": "bb5196f57293a8e8de85c275985766bd", "is_reserved": 0, "rental_uris": {"android": "https://dc.lft.to/lastmile_qr_scan", "ios": "https://dc.lft.to/lastmile_qr_scan"}, "fusion_lon": 0.0}, {"lat": 38.892295, "is_disabled": 0, "type": "electric_scooter", "lon": -77.02810316666667, "bike_id": "9174b46dc62cc399800ba796f4ecbdc0", "fusion_lat": 0.0, "name": "9174b46dc62cc399800ba796f4ecbdc0", "is_reserved": 0, "rental_uris": {"android": "https://dc.lft.to/lastmile_qr_scan", "ios": "https://dc.lft.to/lastmile_qr_scan"}, "fusion_lon": 0.0}, {"lat": 38.9168465, "is_disabled": 0, "type": "electric_scooter", "lon": -77.03737266666667, "bike_id": "837c6de71d872ca6ad321520918e7a49", "fusion_lat": 0.0, "name": "837c6de71d872ca6ad321520918e7a49", "is_reserved": 0, "rental_uris": {"android": "https://dc.lft.to/lastmile_qr_scan", "ios": "https://dc.lft.to/lastmile_qr_scan"}, "fusion_lon": 0.0}, {"lat": 38.903557, "is_disabled": 0, "type": "electric_scooter", "lon": -77.04008283333333, "bike_id": "a9ccea8fe42ceb8e81eb50ea448dfb03", "fusion_lat": 0.0, "name": "a9ccea8fe42ceb8e81eb50ea448dfb03", "is_reserved": 0, "rental_uris": {"android": "https://dc.lft.to/lastmile_qr_scan", "ios": "https://dc.lft.to/lastmile_qr_scan"}, "fusion_lon": 0.0}, {"lat": 38.90107033333334, "is_disabled": 0, "type": "electric_scooter", "lon": -77.0170065, "bike_id": "f66169840907142ad44fb825e9b07a0a", "fusion_lat": 0.0, "name": "f66169840907142ad44fb825e9b07a0a", "is_reserved": 0, "rental_uris": {"android": "https://dc.lft.to/lastmile_qr_scan", "ios": "https://dc.lft.to/lastmile_qr_scan"}, "fusion_lon": 0.0}, {"lat": 38.909442, "is_disabled": 0, "type": "electric_scooter", "lon": -77.03078866666667, "bike_id": "090d30331281447114f5de0ab04cbf56", "fusion_lat": 0.0, "name": "090d30331281447114f5de0ab04cbf56", "is_reserved": 0, "rental_uris": {"android": "https://dc.lft.to/lastmile_qr_scan", "ios": "https://dc.lft.to/lastmile_qr_scan"}, "fusion_lon": 0.0}, {"lat": 38.8737725, "is_disabled": 0, "type": "electric_scooter", "lon": -77.000548, "bike_id": "7c4a80866d9c122983cf010f2fe148f0", "fusion_lat": 0.0, "name": "7c4a80866d9c122983cf010f2fe148f0", "is_reserved": 0, "rental_uris": {"android": "https://dc.lft.to/lastmile_qr_scan", "ios": "https://dc.lft.to/lastmile_qr_scan"}, "fusion_lon": 0.0}, {"lat": 38.842756, "is_disabled": 0, "type": "electric_bike", "lon": -76.98848733333334, "bike_id": "e9eb8b2dea3284b97887e1cb0d9b655c", "fusion_lat": 0.0, "name": "e9eb8b2dea3284b97887e1cb0d9b655c", "is_reserved": 0, "rental_uris": {"android": "https://dc.lft.to/lastmile_qr_scan", "ios": "https://dc.lft.to/lastmile_qr_scan"}, "fusion_lon": 0.0}, {"lat": 38.897827, "is_disabled": 0, "type": "electric_bike", "lon": -76.904413, "bike_id": "ac2ab4fa37ee25e44bcae187cd64575e", "fusion_lat": 0.0, "name": "ac2ab4fa37ee25e44bcae187cd64575e", "is_reserved": 0, "rental_uris": {"android": "https://dc.lft.to/lastmile_qr_scan", "ios": "https://dc.lft.to/lastmile_qr_scan"}, "fusion_lon": 0.0}, {"lat": 38.9147005, "is_disabled": 0, "type": "electric_scooter", "lon": -77.003725, "bike_id": "2d7fb79a92ddaee5354b02c1677300c6", "fusion_lat": 0.0, "name": "2d7fb79a92ddaee5354b02c1677300c6", "is_reserved": 0, "rental_uris": {"android": "https://dc.lft.to/lastmile_qr_scan", "ios": "https://dc.lft.to/lastmile_qr_scan"}, "fusion_lon": 0.0}, {"lat": 38.91673016666667, "is_disabled": 0, "type": "electric_scooter", "lon": -77.0229955, "bike_id": "1c797ab45041190d5f6256ea9600e6b3", "fusion_lat": 0.0, "name": "1c797ab45041190d5f6256ea9600e6b3", "is_reserved": 0, "rental_uris": {"android": "https://dc.lft.to/lastmile_qr_scan", "ios": "https://dc.lft.to/lastmile_qr_scan"}, "fusion_lon": 0.0}, {"lat": 38.90428516666667, "is_disabled": 0, "type": "electric_scooter", "lon": -77.053444, "bike_id": "363de3c4792e0afc66088c93a4479f45", "fusion_lat": 0.0, "name": "363de3c4792e0afc66088c93a4479f45", "is_reserved": 0, "rental_uris": {"android": "https://dc.lft.to/lastmile_qr_scan", "ios": "https://dc.lft.to/lastmile_qr_scan"}, "fusion_lon": 0.0}, {"lat": 38.929528, "is_disabled": 0, "type": "electric_scooter", "lon": -77.05495966666666, "bike_id": "fd04393a713a28a3c25a765e17a6f507", "fusion_lat": 0.0, "name": "fd04393a713a28a3c25a765e17a6f507", "is_reserved": 0, "rental_uris": {"android": "https://dc.lft.to/lastmile_qr_scan", "ios": "https://dc.lft.to/lastmile_qr_scan"}, "fusion_lon": 0.0}, {"lat": 38.956959499999996, "is_disabled": 0, "type": "electric_scooter", "lon": -77.07095066666666, "bike_id": "bcb04b8c0fe934b5092d09965473f7b6", "fusion_lat": 0.0, "name": "bcb04b8c0fe934b5092d09965473f7b6", "is_reserved": 0, "rental_uris": {"android": "https://dc.lft.to/lastmile_qr_scan", "ios": "https://dc.lft.to/lastmile_qr_scan"}, "fusion_lon": 0.0}, {"lat": 38.9015905, "is_disabled": 0, "type": "electric_scooter", "lon": -76.98633366666667, "bike_id": "2b48bd1aebb18ce889801e1a241cdc09", "fusion_lat": 0.0, "name": "2b48bd1aebb18ce889801e1a241cdc09", "is_reserved": 0, "rental_uris": {"android": "https://dc.lft.to/lastmile_qr_scan", "ios": "https://dc.lft.to/lastmile_qr_scan"}, "fusion_lon": 0.0}, {"lat": 38.88509233333333, "is_disabled": 0, "type": "electric_scooter", "lon": -77.00281016666666, "bike_id": "67e04cff7536219de636ddb6fab25779", "fusion_lat": 0.0, "name": "67e04cff7536219de636ddb6fab25779", "is_reserved": 0, "rental_uris": {"android": "https://dc.lft.to/lastmile_qr_scan", "ios": "https://dc.lft.to/lastmile_qr_scan"}, "fusion_lon": 0.0}, {"lat": 38.9135265, "is_disabled": 0, "type": "electric_scooter", "lon": -77.04585766666666, "bike_id": "6abb81d4c7738db29803622a74e92502", "fusion_lat": 0.0, "name": "6abb81d4c7738db29803622a74e92502", "is_reserved": 0, "rental_uris": {"android": "https://dc.lft.to/lastmile_qr_scan", "ios": "https://dc.lft.to/lastmile_qr_scan"}, "fusion_lon": 0.0}, {"lat": 38.887211, "is_disabled": 0, "type": "electric_scooter", "lon": -76.95480766666667, "bike_id": "106d365768fbf313403cd7a00957b674", "fusion_lat": 0.0, "name": "106d365768fbf313403cd7a00957b674", "is_reserved": 0, "rental_uris": {"android": "https://dc.lft.to/lastmile_qr_scan", "ios": "https://dc.lft.to/lastmile_qr_scan"}, "fusion_lon": 0.0}, {"lat": 38.906699, "is_disabled": 0, "type": "electric_scooter", "lon": -77.035223, "bike_id": "82876a4b00a94a13b642d534b79abb8a", "fusion_lat": 0.0, "name": "82876a4b00a94a13b642d534b79abb8a", "is_reserved": 0, "rental_uris": {"android": "https://dc.lft.to/lastmile_qr_scan", "ios": "https://dc.lft.to/lastmile_qr_scan"}, "fusion_lon": 0.0}, {"lat": 38.9020565, "is_disabled": 0, "type": "electric_scooter", "lon": -76.98209516666667, "bike_id": "209a2d37e0f4fc85e91d511308004d48", "fusion_lat": 0.0, "name": "209a2d37e0f4fc85e91d511308004d48", "is_reserved": 0, "rental_uris": {"android": "https://dc.lft.to/lastmile_qr_scan", "ios": "https://dc.lft.to/lastmile_qr_scan"}, "fusion_lon": 0.0}, {"lat": 38.896829333333336, "is_disabled": 0, "type": "electric_scooter", "lon": -76.93609266666667, "bike_id": "7e8c62539823d656406c84e4c9a88b05", "fusion_lat": 0.0, "name": "7e8c62539823d656406c84e4c9a88b05", "is_reserved": 0, "rental_uris": {"android": "https://dc.lft.to/lastmile_qr_scan", "ios": "https://dc.lft.to/lastmile_qr_scan"}, "fusion_lon": 0.0}, {"lat": 38.8961065, "is_disabled": 0, "type": "electric_scooter", "lon": -77.02192733333334, "bike_id": "eefd8a782cddc53046e6845102579d40", "fusion_lat": 0.0, "name": "eefd8a782cddc53046e6845102579d40", "is_reserved": 0, "rental_uris": {"android": "https://dc.lft.to/lastmile_qr_scan", "ios": "https://dc.lft.to/lastmile_qr_scan"}, "fusion_lon": 0.0}, {"lat": 38.905176833333336, "is_disabled": 0, "type": "electric_scooter", "lon": -77.047409, "bike_id": "84064c391a356a8a594d9aeb49e9f34e", "fusion_lat": 0.0, "name": "84064c391a356a8a594d9aeb49e9f34e", "is_reserved": 0, "rental_uris": {"android": "https://dc.lft.to/lastmile_qr_scan", "ios": "https://dc.lft.to/lastmile_qr_scan"}, "fusion_lon": 0.0}, {"lat": 38.9443425, "is_disabled": 0, "type": "electric_scooter", "lon": -77.06304233333333, "bike_id": "ca004abb5b413dcdc492d94af8d572cd", "fusion_lat": 0.0, "name": "ca004abb5b413dcdc492d94af8d572cd", "is_reserved": 0, "rental_uris": {"android": "https://dc.lft.to/lastmile_qr_scan", "ios": "https://dc.lft.to/lastmile_qr_scan"}, "fusion_lon": 0.0}, {"lat": 38.9095085, "is_disabled": 0, "type": "electric_scooter", "lon": -77.04667483333333, "bike_id": "26baf891a5c01a2030449df27f1ce008", "fusion_lat": 0.0, "name": "26baf891a5c01a2030449df27f1ce008", "is_reserved": 0, "rental_uris": {"android": "https://dc.lft.to/lastmile_qr_scan", "ios": "https://dc.lft.to/lastmile_qr_scan"}, "fusion_lon": 0.0}, {"lat": 38.896684, "is_disabled": 0, "type": "electric_bike", "lon": -77.0247255, "bike_id": "dede4ce3b61d4016191d53e3edfb53a9", "fusion_lat": 0.0, "name": "dede4ce3b61d4016191d53e3edfb53a9", "is_reserved": 0, "rental_uris": {"android": "https://dc.lft.to/lastmile_qr_scan", "ios": "https://dc.lft.to/lastmile_qr_scan"}, "fusion_lon": 0.0}, {"lat": 38.9662805, "is_disabled": 0, "type": "electric_scooter", "lon": -77.02001, "bike_id": "506411b62d59da3cf2c6a702d0fd0517", "fusion_lat": 0.0, "name": "506411b62d59da3cf2c6a702d0fd0517", "is_reserved": 0, "rental_uris": {"android": "https://dc.lft.to/lastmile_qr_scan", "ios": "https://dc.lft.to/lastmile_qr_scan"}, "fusion_lon": 0.0}, {"lat": 38.966264, "is_disabled": 0, "type": "electric_bike", "lon": -76.976748, "bike_id": "c717af4a2d2d2e88fe6ee0f81a63dc33", "fusion_lat": 0.0, "name": "c717af4a2d2d2e88fe6ee0f81a63dc33", "is_reserved": 0, "rental_uris": {"android": "https://dc.lft.to/lastmile_qr_scan", "ios": "https://dc.lft.to/lastmile_qr_scan"}, "fusion_lon": 0.0}, {"lat": 38.941365833333336, "is_disabled": 0, "type": "electric_scooter", "lon": -77.0761485, "bike_id": "086c0cc270da02294b289391f7dc81eb", "fusion_lat": 0.0, "name": "086c0cc270da02294b289391f7dc81eb", "is_reserved": 0, "rental_uris": {"android": "https://dc.lft.to/lastmile_qr_scan", "ios": "https://dc.lft.to/lastmile_qr_scan"}, "fusion_lon": 0.0}, {"lat": 38.92269316666667, "is_disabled": 0, "type": "electric_scooter", "lon": -77.0424135, "bike_id": "587bb6cf2cc8e12fd846eb96a73f5436", "fusion_lat": 0.0, "name": "587bb6cf2cc8e12fd846eb96a73f5436", "is_reserved": 0, "rental_uris": {"android": "https://dc.lft.to/lastmile_qr_scan", "ios": "https://dc.lft.to/lastmile_qr_scan"}, "fusion_lon": 0.0}, {"lat": 38.89400883333333, "is_disabled": 0, "type": "electric_scooter", "lon": -77.05589683333334, "bike_id": "071ab8712a9b9ca12fa1a241dbf53b5a", "fusion_lat": 0.0, "name": "071ab8712a9b9ca12fa1a241dbf53b5a", "is_reserved": 0, "rental_uris": {"android": "https://dc.lft.to/lastmile_qr_scan", "ios": "https://dc.lft.to/lastmile_qr_scan"}, "fusion_lon": 0.0}, {"lat": 38.935793333333336, "is_disabled": 0, "type": "electric_bike", "lon": -77.10690866666667, "bike_id": "652384c29d503140cb4a6c2c53f64bd2", "fusion_lat": 0.0, "name": "652384c29d503140cb4a6c2c53f64bd2", "is_reserved": 0, "rental_uris": {"android": "https://dc.lft.to/lastmile_qr_scan", "ios": "https://dc.lft.to/lastmile_qr_scan"}, "fusion_lon": 0.0}, {"lat": 38.914990333333336, "is_disabled": 0, "type": "electric_scooter", "lon": -76.98384666666666, "bike_id": "fe31484db6263f9beba6321ea241a3e5", "fusion_lat": 0.0, "name": "fe31484db6263f9beba6321ea241a3e5", "is_reserved": 0, "rental_uris": {"android": "https://dc.lft.to/lastmile_qr_scan", "ios": "https://dc.lft.to/lastmile_qr_scan"}, "fusion_lon": 0.0}, {"lat": 38.9275045, "is_disabled": 0, "type": "electric_scooter", "lon": -77.02306433333334, "bike_id": "4fb2bc1b5c846b5d96d9e4a04837191c", "fusion_lat": 0.0, "name": "4fb2bc1b5c846b5d96d9e4a04837191c", "is_reserved": 0, "rental_uris": {"android": "https://dc.lft.to/lastmile_qr_scan", "ios": "https://dc.lft.to/lastmile_qr_scan"}, "fusion_lon": 0.0}, {"lat": 38.91806066666667, "is_disabled": 0, "type": "electric_scooter", "lon": -77.03188483333334, "bike_id": "b12fe2e8206690c8d975806035b8c289", "fusion_lat": 0.0, "name": "b12fe2e8206690c8d975806035b8c289", "is_reserved": 0, "rental_uris": {"android": "https://dc.lft.to/lastmile_qr_scan", "ios": "https://dc.lft.to/lastmile_qr_scan"}, "fusion_lon": 0.0}, {"lat": 38.88694316666667, "is_disabled": 0, "type": "electric_scooter", "lon": -76.99390766666667, "bike_id": "c30988392c47c890914ab857b7d61054", "fusion_lat": 0.0, "name": "c30988392c47c890914ab857b7d61054", "is_reserved": 0, "rental_uris": {"android": "https://dc.lft.to/lastmile_qr_scan", "ios": "https://dc.lft.to/lastmile_qr_scan"}, "fusion_lon": 0.0}, {"lat": 38.90246116666667, "is_disabled": 0, "type": "electric_scooter", "lon": -77.02078016666667, "bike_id": "e30e17203bce152b985a44252c379301", "fusion_lat": 0.0, "name": "e30e17203bce152b985a44252c379301", "is_reserved": 0, "rental_uris": {"android": "https://dc.lft.to/lastmile_qr_scan", "ios": "https://dc.lft.to/lastmile_qr_scan"}, "fusion_lon": 0.0}, {"lat": 38.8714835, "is_disabled": 0, "type": "electric_bike", "lon": -76.93674666666666, "bike_id": "1b273dc519e23ce4b906e2dcd70efc2f", "fusion_lat": 0.0, "name": "1b273dc519e23ce4b906e2dcd70efc2f", "is_reserved": 0, "rental_uris": {"android": "https://dc.lft.to/lastmile_qr_scan", "ios": "https://dc.lft.to/lastmile_qr_scan"}, "fusion_lon": 0.0}, {"lat": 38.920274, "is_disabled": 0, "type": "electric_scooter", "lon": -77.04100333333334, "bike_id": "b11c4c607df67403a753725b4fed7bff", "fusion_lat": 0.0, "name": "b11c4c607df67403a753725b4fed7bff", "is_reserved": 0, "rental_uris": {"android": "https://dc.lft.to/lastmile_qr_scan", "ios": "https://dc.lft.to/lastmile_qr_scan"}, "fusion_lon": 0.0}, {"lat": 38.9141385, "is_disabled": 0, "type": "electric_scooter", "lon": -77.03179366666667, "bike_id": "5b62f7944a7061c8c61be1b4dd7dfaad", "fusion_lat": 0.0, "name": "5b62f7944a7061c8c61be1b4dd7dfaad", "is_reserved": 0, "rental_uris": {"android": "https://dc.lft.to/lastmile_qr_scan", "ios": "https://dc.lft.to/lastmile_qr_scan"}, "fusion_lon": 0.0}, {"lat": 38.91980983333333, "is_disabled": 0, "type": "electric_scooter", "lon": -77.012162, "bike_id": "ca14501dc45c224dd06f0d47d0cd67bc", "fusion_lat": 0.0, "name": "ca14501dc45c224dd06f0d47d0cd67bc", "is_reserved": 0, "rental_uris": {"android": "https://dc.lft.to/lastmile_qr_scan", "ios": "https://dc.lft.to/lastmile_qr_scan"}, "fusion_lon": 0.0}, {"lat": 38.934093833333336, "is_disabled": 0, "type": "electric_scooter", "lon": -77.02039533333334, "bike_id": "6cb21e455dd712fca979892bec09be09", "fusion_lat": 0.0, "name": "6cb21e455dd712fca979892bec09be09", "is_reserved": 0, "rental_uris": {"android": "https://dc.lft.to/lastmile_qr_scan", "ios": "https://dc.lft.to/lastmile_qr_scan"}, "fusion_lon": 0.0}, {"lat": 38.888877666666666, "is_disabled": 0, "type": "electric_scooter", "lon": -76.93158016666666, "bike_id": "aa1497060695bf87a0b65177fef519da", "fusion_lat": 0.0, "name": "aa1497060695bf87a0b65177fef519da", "is_reserved": 0, "rental_uris": {"android": "https://dc.lft.to/lastmile_qr_scan", "ios": "https://dc.lft.to/lastmile_qr_scan"}, "fusion_lon": 0.0}, {"lat": 38.944965, "is_disabled": 0, "type": "electric_bike", "lon": -77.00684383333333, "bike_id": "2a4b2586b9c1a988b3eff0cd07a1e9ad", "fusion_lat": 0.0, "name": "2a4b2586b9c1a988b3eff0cd07a1e9ad", "is_reserved": 0, "rental_uris": {"android": "https://dc.lft.to/lastmile_qr_scan", "ios": "https://dc.lft.to/lastmile_qr_scan"}, "fusion_lon": 0.0}, {"lat": 38.8609195, "is_disabled": 0, "type": "electric_scooter", "lon": -76.983794, "bike_id": "e852e4f9b67efb6eddf3b312f994fe6c", "fusion_lat": 0.0, "name": "e852e4f9b67efb6eddf3b312f994fe6c", "is_reserved": 0, "rental_uris": {"android": "https://dc.lft.to/lastmile_qr_scan", "ios": "https://dc.lft.to/lastmile_qr_scan"}, "fusion_lon": 0.0}, {"lat": 38.90009083333333, "is_disabled": 0, "type": "electric_scooter", "lon": -76.99222483333334, "bike_id": "18e0f530802c73a6c10ae33c7f5617a1", "fusion_lat": 0.0, "name": "18e0f530802c73a6c10ae33c7f5617a1", "is_reserved": 0, "rental_uris": {"android": "https://dc.lft.to/lastmile_qr_scan", "ios": "https://dc.lft.to/lastmile_qr_scan"}, "fusion_lon": 0.0}, {"lat": 38.978334333333336, "is_disabled": 0, "type": "electric_bike", "lon": -77.026427, "bike_id": "b3c238be89b11c07510c269c452c28ad", "fusion_lat": 0.0, "name": "b3c238be89b11c07510c269c452c28ad", "is_reserved": 0, "rental_uris": {"android": "https://dc.lft.to/lastmile_qr_scan", "ios": "https://dc.lft.to/lastmile_qr_scan"}, "fusion_lon": 0.0}, {"lat": 38.863841, "is_disabled": 0, "type": "electric_scooter", "lon": -76.99250266666667, "bike_id": "11734eabfadc867eeee9ba2e709d6c01", "fusion_lat": 0.0, "name": "11734eabfadc867eeee9ba2e709d6c01", "is_reserved": 0, "rental_uris": {"android": "https://dc.lft.to/lastmile_qr_scan", "ios": "https://dc.lft.to/lastmile_qr_scan"}, "fusion_lon": 0.0}, {"lat": 38.90410683333333, "is_disabled": 0, "type": "electric_scooter", "lon": -77.02948166666667, "bike_id": "210abb28e0382d4c0732009c4afabfa2", "fusion_lat": 0.0, "name": "210abb28e0382d4c0732009c4afabfa2", "is_reserved": 0, "rental_uris": {"android": "https://dc.lft.to/lastmile_qr_scan", "ios": "https://dc.lft.to/lastmile_qr_scan"}, "fusion_lon": 0.0}, {"lat": 38.91702383333333, "is_disabled": 0, "type": "electric_scooter", "lon": -77.0371645, "bike_id": "f4550f2cc1595512293164c00e35c233", "fusion_lat": 0.0, "name": "f4550f2cc1595512293164c00e35c233", "is_reserved": 0, "rental_uris": {"android": "https://dc.lft.to/lastmile_qr_scan", "ios": "https://dc.lft.to/lastmile_qr_scan"}, "fusion_lon": 0.0}, {"lat": 38.924410333333334, "is_disabled": 0, "type": "electric_scooter", "lon": -77.020453, "bike_id": "b16a36d67acbff41a308015c685037b5", "fusion_lat": 0.0, "name": "b16a36d67acbff41a308015c685037b5", "is_reserved": 0, "rental_uris": {"android": "https://dc.lft.to/lastmile_qr_scan", "ios": "https://dc.lft.to/lastmile_qr_scan"}, "fusion_lon": 0.0}, {"lat": 38.943067166666665, "is_disabled": 0, "type": "electric_scooter", "lon": -77.0592645, "bike_id": "a354d31f5624b245b0d2cc804b5aede6", "fusion_lat": 0.0, "name": "a354d31f5624b245b0d2cc804b5aede6", "is_reserved": 0, "rental_uris": {"android": "https://dc.lft.to/lastmile_qr_scan", "ios": "https://dc.lft.to/lastmile_qr_scan"}, "fusion_lon": 0.0}, {"lat": 38.8650845, "is_disabled": 0, "type": "electric_bike", "lon": -76.97345966666667, "bike_id": "aaaa728e1fae4131f0fdb9a7b8ccc308", "fusion_lat": 0.0, "name": "aaaa728e1fae4131f0fdb9a7b8ccc308", "is_reserved": 0, "rental_uris": {"android": "https://dc.lft.to/lastmile_qr_scan", "ios": "https://dc.lft.to/lastmile_qr_scan"}, "fusion_lon": 0.0}, {"lat": 38.854977833333336, "is_disabled": 0, "type": "electric_bike", "lon": -77.120457, "bike_id": "c9cca351581190e86869e8d1b3cc05c5", "fusion_lat": 0.0, "name": "c9cca351581190e86869e8d1b3cc05c5", "is_reserved": 0, "rental_uris": {"android": "https://dc.lft.to/lastmile_qr_scan", "ios": "https://dc.lft.to/lastmile_qr_scan"}, "fusion_lon": 0.0}, {"lat": 38.90006016666667, "is_disabled": 0, "type": "electric_scooter", "lon": -76.99881766666667, "bike_id": "ebe3bbf17aa8c38ac0c8eb3326c6cad8", "fusion_lat": 0.0, "name": "ebe3bbf17aa8c38ac0c8eb3326c6cad8", "is_reserved": 0, "rental_uris": {"android": "https://dc.lft.to/lastmile_qr_scan", "ios": "https://dc.lft.to/lastmile_qr_scan"}, "fusion_lon": 0.0}, {"lat": 38.9236695, "is_disabled": 0, "type": "electric_scooter", "lon": -77.04036483333333, "bike_id": "22493af356b2ae9ca054a4db02690b5b", "fusion_lat": 0.0, "name": "22493af356b2ae9ca054a4db02690b5b", "is_reserved": 0, "rental_uris": {"android": "https://dc.lft.to/lastmile_qr_scan", "ios": "https://dc.lft.to/lastmile_qr_scan"}, "fusion_lon": 0.0}, {"lat": 38.91644616666667, "is_disabled": 0, "type": "electric_scooter", "lon": -77.02287083333333, "bike_id": "4759056b06354631a9a535b19579c4de", "fusion_lat": 0.0, "name": "4759056b06354631a9a535b19579c4de", "is_reserved": 0, "rental_uris": {"android": "https://dc.lft.to/lastmile_qr_scan", "ios": "https://dc.lft.to/lastmile_qr_scan"}, "fusion_lon": 0.0}, {"lat": 38.93983716666666, "is_disabled": 0, "type": "electric_scooter", "lon": -77.02961, "bike_id": "5bba5a13b0abbe5e7204967ea494b7f0", "fusion_lat": 0.0, "name": "5bba5a13b0abbe5e7204967ea494b7f0", "is_reserved": 0, "rental_uris": {"android": "https://dc.lft.to/lastmile_qr_scan", "ios": "https://dc.lft.to/lastmile_qr_scan"}, "fusion_lon": 0.0}, {"lat": 38.892570666666664, "is_disabled": 0, "type": "electric_scooter", "lon": -77.02205816666667, "bike_id": "00766512eeaa1284f9b82aeb807bfea6", "fusion_lat": 0.0, "name": "00766512eeaa1284f9b82aeb807bfea6", "is_reserved": 0, "rental_uris": {"android": "https://dc.lft.to/lastmile_qr_scan", "ios": "https://dc.lft.to/lastmile_qr_scan"}, "fusion_lon": 0.0}, {"lat": 38.81432183333333, "is_disabled": 0, "type": "electric_bike", "lon": -77.1189755, "bike_id": "d0754e7f65fd2eb8cb416fbcbfe0195f", "fusion_lat": 0.0, "name": "d0754e7f65fd2eb8cb416fbcbfe0195f", "is_reserved": 0, "rental_uris": {"android": "https://dc.lft.to/lastmile_qr_scan", "ios": "https://dc.lft.to/lastmile_qr_scan"}, "fusion_lon": 0.0}, {"lat": 38.88522016666667, "is_disabled": 0, "type": "electric_scooter", "lon": -77.01071516666667, "bike_id": "27a939ad869e12d113d0a81355ea83ff", "fusion_lat": 0.0, "name": "27a939ad869e12d113d0a81355ea83ff", "is_reserved": 0, "rental_uris": {"android": "https://dc.lft.to/lastmile_qr_scan", "ios": "https://dc.lft.to/lastmile_qr_scan"}, "fusion_lon": 0.0}, {"lat": 38.9095225, "is_disabled": 0, "type": "electric_scooter", "lon": -77.048278, "bike_id": "b105e66ccaa2a8d7df13916272d76b20", "fusion_lat": 0.0, "name": "b105e66ccaa2a8d7df13916272d76b20", "is_reserved": 0, "rental_uris": {"android": "https://dc.lft.to/lastmile_qr_scan", "ios": "https://dc.lft.to/lastmile_qr_scan"}, "fusion_lon": 0.0}, {"lat": 38.86621816666667, "is_disabled": 0, "type": "electric_scooter", "lon": -76.9866555, "bike_id": "3a2219dfd964205cdacae0ae8bb01a10", "fusion_lat": 0.0, "name": "3a2219dfd964205cdacae0ae8bb01a10", "is_reserved": 0, "rental_uris": {"android": "https://dc.lft.to/lastmile_qr_scan", "ios": "https://dc.lft.to/lastmile_qr_scan"}, "fusion_lon": 0.0}, {"lat": 38.884935666666664, "is_disabled": 0, "type": "electric_scooter", "lon": -77.00710433333333, "bike_id": "8d617784f108a0fd154bdfda525a4dd8", "fusion_lat": 0.0, "name": "8d617784f108a0fd154bdfda525a4dd8", "is_reserved": 0, "rental_uris": {"android": "https://dc.lft.to/lastmile_qr_scan", "ios": "https://dc.lft.to/lastmile_qr_scan"}, "fusion_lon": 0.0}, {"lat": 38.84592283333333, "is_disabled": 0, "type": "electric_bike", "lon": -77.07685466666666, "bike_id": "20e7051f1f8c3d5d0fac4737be939f43", "fusion_lat": 0.0, "name": "20e7051f1f8c3d5d0fac4737be939f43", "is_reserved": 0, "rental_uris": {"android": "https://dc.lft.to/lastmile_qr_scan", "ios": "https://dc.lft.to/lastmile_qr_scan"}, "fusion_lon": 0.0}, {"lat": 38.8909895, "is_disabled": 0, "type": "electric_scooter", "lon": -76.95255583333334, "bike_id": "2e3669d8d05601b837f8891a5247baa3", "fusion_lat": 0.0, "name": "2e3669d8d05601b837f8891a5247baa3", "is_reserved": 0, "rental_uris": {"android": "https://dc.lft.to/lastmile_qr_scan", "ios": "https://dc.lft.to/lastmile_qr_scan"}, "fusion_lon": 0.0}, {"lat": 39.0000035, "is_disabled": 0, "type": "electric_bike", "lon": -76.92494133333334, "bike_id": "d6cb0ac0f379f9a5e8c8956003d06aa8", "fusion_lat": 0.0, "name": "d6cb0ac0f379f9a5e8c8956003d06aa8", "is_reserved": 0, "rental_uris": {"android": "https://dc.lft.to/lastmile_qr_scan", "ios": "https://dc.lft.to/lastmile_qr_scan"}, "fusion_lon": 0.0}, {"lat": 38.92268966666666, "is_disabled": 0, "type": "electric_scooter", "lon": -77.04242583333334, "bike_id": "ca26e189e37396c866efeada8fab4558", "fusion_lat": 0.0, "name": "ca26e189e37396c866efeada8fab4558", "is_reserved": 0, "rental_uris": {"android": "https://dc.lft.to/lastmile_qr_scan", "ios": "https://dc.lft.to/lastmile_qr_scan"}, "fusion_lon": 0.0}, {"lat": 38.914145, "is_disabled": 0, "type": "electric_scooter", "lon": -77.0317985, "bike_id": "2247c25d58968c2ddebcff1a309920bf", "fusion_lat": 0.0, "name": "2247c25d58968c2ddebcff1a309920bf", "is_reserved": 0, "rental_uris": {"android": "https://dc.lft.to/lastmile_qr_scan", "ios": "https://dc.lft.to/lastmile_qr_scan"}, "fusion_lon": 0.0}, {"lat": 38.9364825, "is_disabled": 0, "type": "electric_scooter", "lon": -77.02405183333333, "bike_id": "9e3a59020b900c9f739b90668d12e132", "fusion_lat": 0.0, "name": "9e3a59020b900c9f739b90668d12e132", "is_reserved": 0, "rental_uris": {"android": "https://dc.lft.to/lastmile_qr_scan", "ios": "https://dc.lft.to/lastmile_qr_scan"}, "fusion_lon": 0.0}, {"lat": 38.918384, "is_disabled": 0, "type": "electric_scooter", "lon": -77.0353145, "bike_id": "c0cb055385f410b7277a4034668039bf", "fusion_lat": 0.0, "name": "c0cb055385f410b7277a4034668039bf", "is_reserved": 0, "rental_uris": {"android": "https://dc.lft.to/lastmile_qr_scan", "ios": "https://dc.lft.to/lastmile_qr_scan"}, "fusion_lon": 0.0}, {"lat": 38.94296116666666, "is_disabled": 0, "type": "electric_scooter", "lon": -77.07710716666666, "bike_id": "47bed8c103895310ca51d36a921ca8dd", "fusion_lat": 0.0, "name": "47bed8c103895310ca51d36a921ca8dd", "is_reserved": 0, "rental_uris": {"android": "https://dc.lft.to/lastmile_qr_scan", "ios": "https://dc.lft.to/lastmile_qr_scan"}, "fusion_lon": 0.0}, {"lat": 38.920494, "is_disabled": 0, "type": "electric_scooter", "lon": -77.03479183333333, "bike_id": "42a30b080cfff4d8368001d16e634979", "fusion_lat": 0.0, "name": "42a30b080cfff4d8368001d16e634979", "is_reserved": 0, "rental_uris": {"android": "https://dc.lft.to/lastmile_qr_scan", "ios": "https://dc.lft.to/lastmile_qr_scan"}, "fusion_lon": 0.0}, {"lat": 38.90512783333333, "is_disabled": 0, "type": "electric_scooter", "lon": -77.06773983333333, "bike_id": "3dc59b993403d269a226052eddd91edd", "fusion_lat": 0.0, "name": "3dc59b993403d269a226052eddd91edd", "is_reserved": 0, "rental_uris": {"android": "https://dc.lft.to/lastmile_qr_scan", "ios": "https://dc.lft.to/lastmile_qr_scan"}, "fusion_lon": 0.0}, {"lat": 38.900621666666666, "is_disabled": 0, "type": "electric_scooter", "lon": -76.93387716666666, "bike_id": "b117c940f137bf04052e0f00214978e9", "fusion_lat": 0.0, "name": "b117c940f137bf04052e0f00214978e9", "is_reserved": 0, "rental_uris": {"android": "https://dc.lft.to/lastmile_qr_scan", "ios": "https://dc.lft.to/lastmile_qr_scan"}, "fusion_lon": 0.0}, {"lat": 38.9178285, "is_disabled": 0, "type": "electric_scooter", "lon": -77.02311316666666, "bike_id": "a5ae3d9ca2de96e59d576a984efe6dda", "fusion_lat": 0.0, "name": "a5ae3d9ca2de96e59d576a984efe6dda", "is_reserved": 0, "rental_uris": {"android": "https://dc.lft.to/lastmile_qr_scan", "ios": "https://dc.lft.to/lastmile_qr_scan"}, "fusion_lon": 0.0}, {"lat": 38.90628316666667, "is_disabled": 0, "type": "electric_scooter", "lon": -77.04639566666667, "bike_id": "68ef1c3ba583203cfc847a2c513e76ee", "fusion_lat": 0.0, "name": "68ef1c3ba583203cfc847a2c513e76ee", "is_reserved": 0, "rental_uris": {"android": "https://dc.lft.to/lastmile_qr_scan", "ios": "https://dc.lft.to/lastmile_qr_scan"}, "fusion_lon": 0.0}, {"lat": 38.9198725, "is_disabled": 0, "type": "electric_scooter", "lon": -77.01790366666667, "bike_id": "84c586bae9388adcf0cbc51ec50ee0b5", "fusion_lat": 0.0, "name": "84c586bae9388adcf0cbc51ec50ee0b5", "is_reserved": 0, "rental_uris": {"android": "https://dc.lft.to/lastmile_qr_scan", "ios": "https://dc.lft.to/lastmile_qr_scan"}, "fusion_lon": 0.0}, {"lat": 38.9166635, "is_disabled": 0, "type": "electric_scooter", "lon": -77.00673083333334, "bike_id": "b5c5831b79bca25e7d78a54f3cc43647", "fusion_lat": 0.0, "name": "b5c5831b79bca25e7d78a54f3cc43647", "is_reserved": 0, "rental_uris": {"android": "https://dc.lft.to/lastmile_qr_scan", "ios": "https://dc.lft.to/lastmile_qr_scan"}, "fusion_lon": 0.0}, {"lat": 38.842937166666665, "is_disabled": 0, "type": "electric_scooter", "lon": -76.999518, "bike_id": "74b9de7641dc9bd3114e2677daa54f21", "fusion_lat": 0.0, "name": "74b9de7641dc9bd3114e2677daa54f21", "is_reserved": 0, "rental_uris": {"android": "https://dc.lft.to/lastmile_qr_scan", "ios": "https://dc.lft.to/lastmile_qr_scan"}, "fusion_lon": 0.0}, {"lat": 38.921483, "is_disabled": 0, "type": "electric_scooter", "lon": -77.03510266666666, "bike_id": "d04b1fbe879e1b4c0ba2983c6d73eae1", "fusion_lat": 0.0, "name": "d04b1fbe879e1b4c0ba2983c6d73eae1", "is_reserved": 0, "rental_uris": {"android": "https://dc.lft.to/lastmile_qr_scan", "ios": "https://dc.lft.to/lastmile_qr_scan"}, "fusion_lon": 0.0}, {"lat": 38.92534583333333, "is_disabled": 0, "type": "electric_scooter", "lon": -77.00761466666667, "bike_id": "90f6a7d962c725dbbeb0f1b463f287d9", "fusion_lat": 0.0, "name": "90f6a7d962c725dbbeb0f1b463f287d9", "is_reserved": 0, "rental_uris": {"android": "https://dc.lft.to/lastmile_qr_scan", "ios": "https://dc.lft.to/lastmile_qr_scan"}, "fusion_lon": 0.0}, {"lat": 38.925706, "is_disabled": 0, "type": "electric_scooter", "lon": -76.986162, "bike_id": "5c7ec7bd685156476d94e2a078d58c81", "fusion_lat": 0.0, "name": "5c7ec7bd685156476d94e2a078d58c81", "is_reserved": 0, "rental_uris": {"android": "https://dc.lft.to/lastmile_qr_scan", "ios": "https://dc.lft.to/lastmile_qr_scan"}, "fusion_lon": 0.0}, {"lat": 38.9942005, "is_disabled": 0, "type": "electric_bike", "lon": -77.03207483333334, "bike_id": "ceb03571d69051f00069973ecd753e75", "fusion_lat": 0.0, "name": "ceb03571d69051f00069973ecd753e75", "is_reserved": 0, "rental_uris": {"android": "https://dc.lft.to/lastmile_qr_scan", "ios": "https://dc.lft.to/lastmile_qr_scan"}, "fusion_lon": 0.0}, {"lat": 38.90158233333333, "is_disabled": 0, "type": "electric_scooter", "lon": -76.98040266666666, "bike_id": "8f17c37a85c7757423e8ab8548ef4cb1", "fusion_lat": 0.0, "name": "8f17c37a85c7757423e8ab8548ef4cb1", "is_reserved": 0, "rental_uris": {"android": "https://dc.lft.to/lastmile_qr_scan", "ios": "https://dc.lft.to/lastmile_qr_scan"}, "fusion_lon": 0.0}, {"lat": 38.9005735, "is_disabled": 0, "type": "electric_scooter", "lon": -77.02202533333333, "bike_id": "1beed5ab7a8aecb3065f7594cb5422f9", "fusion_lat": 0.0, "name": "1beed5ab7a8aecb3065f7594cb5422f9", "is_reserved": 0, "rental_uris": {"android": "https://dc.lft.to/lastmile_qr_scan", "ios": "https://dc.lft.to/lastmile_qr_scan"}, "fusion_lon": 0.0}, {"lat": 38.88489716666667, "is_disabled": 0, "type": "electric_scooter", "lon": -77.00713083333333, "bike_id": "f3f2af8aa3b998afbd9151aef3d682f8", "fusion_lat": 0.0, "name": "f3f2af8aa3b998afbd9151aef3d682f8", "is_reserved": 0, "rental_uris": {"android": "https://dc.lft.to/lastmile_qr_scan", "ios": "https://dc.lft.to/lastmile_qr_scan"}, "fusion_lon": 0.0}, {"lat": 38.884461333333334, "is_disabled": 0, "type": "electric_scooter", "lon": -77.01762816666667, "bike_id": "038ef464cc57a769980a87e4da62cd68", "fusion_lat": 0.0, "name": "038ef464cc57a769980a87e4da62cd68", "is_reserved": 0, "rental_uris": {"android": "https://dc.lft.to/lastmile_qr_scan", "ios": "https://dc.lft.to/lastmile_qr_scan"}, "fusion_lon": 0.0}, {"lat": 38.91815233333333, "is_disabled": 0, "type": "electric_scooter", "lon": -77.04005516666666, "bike_id": "e5d8440d442f18b7833fd35498d4bac0", "fusion_lat": 0.0, "name": "e5d8440d442f18b7833fd35498d4bac0", "is_reserved": 0, "rental_uris": {"android": "https://dc.lft.to/lastmile_qr_scan", "ios": "https://dc.lft.to/lastmile_qr_scan"}, "fusion_lon": 0.0}, {"lat": 38.919702, "is_disabled": 0, "type": "electric_scooter", "lon": -77.02368116666666, "bike_id": "9835852e3bffdc19c9942329b041c4ca", "fusion_lat": 0.0, "name": "9835852e3bffdc19c9942329b041c4ca", "is_reserved": 0, "rental_uris": {"android": "https://dc.lft.to/lastmile_qr_scan", "ios": "https://dc.lft.to/lastmile_qr_scan"}, "fusion_lon": 0.0}, {"lat": 38.91419233333333, "is_disabled": 0, "type": "electric_scooter", "lon": -77.031785, "bike_id": "bc533ed3af2e3f69d21bd2bf799fec81", "fusion_lat": 0.0, "name": "bc533ed3af2e3f69d21bd2bf799fec81", "is_reserved": 0, "rental_uris": {"android": "https://dc.lft.to/lastmile_qr_scan", "ios": "https://dc.lft.to/lastmile_qr_scan"}, "fusion_lon": 0.0}, {"lat": 38.917302, "is_disabled": 0, "type": "electric_scooter", "lon": -77.03670883333334, "bike_id": "dfb2b49cc0daa9edabfb05f619beefd3", "fusion_lat": 0.0, "name": "dfb2b49cc0daa9edabfb05f619beefd3", "is_reserved": 0, "rental_uris": {"android": "https://dc.lft.to/lastmile_qr_scan", "ios": "https://dc.lft.to/lastmile_qr_scan"}, "fusion_lon": 0.0}, {"lat": 38.917728333333336, "is_disabled": 0, "type": "electric_scooter", "lon": -77.022812, "bike_id": "fe9f96e59e105e8115226eb5deefd722", "fusion_lat": 0.0, "name": "fe9f96e59e105e8115226eb5deefd722", "is_reserved": 0, "rental_uris": {"android": "https://dc.lft.to/lastmile_qr_scan", "ios": "https://dc.lft.to/lastmile_qr_scan"}, "fusion_lon": 0.0}, {"lat": 38.9055095, "is_disabled": 0, "type": "electric_scooter", "lon": -77.00705666666667, "bike_id": "1d9d66820c17bc33658f434c8939c37f", "fusion_lat": 0.0, "name": "1d9d66820c17bc33658f434c8939c37f", "is_reserved": 0, "rental_uris": {"android": "https://dc.lft.to/lastmile_qr_scan", "ios": "https://dc.lft.to/lastmile_qr_scan"}, "fusion_lon": 0.0}, {"lat": 38.91889183333333, "is_disabled": 0, "type": "electric_scooter", "lon": -77.04127966666667, "bike_id": "9f6472cc8fe5a50216e1d6c0ed3c46cb", "fusion_lat": 0.0, "name": "9f6472cc8fe5a50216e1d6c0ed3c46cb", "is_reserved": 0, "rental_uris": {"android": "https://dc.lft.to/lastmile_qr_scan", "ios": "https://dc.lft.to/lastmile_qr_scan"}, "fusion_lon": 0.0}, {"lat": 38.897610666666665, "is_disabled": 0, "type": "electric_scooter", "lon": -77.0269655, "bike_id": "af53d758c730cb9a9a744a2ce49bccf2", "fusion_lat": 0.0, "name": "af53d758c730cb9a9a744a2ce49bccf2", "is_reserved": 0, "rental_uris": {"android": "https://dc.lft.to/lastmile_qr_scan", "ios": "https://dc.lft.to/lastmile_qr_scan"}, "fusion_lon": 0.0}, {"lat": 38.91690216666667, "is_disabled": 0, "type": "electric_scooter", "lon": -77.03124733333334, "bike_id": "9641cd7e163327d8b0173eb311322961", "fusion_lat": 0.0, "name": "9641cd7e163327d8b0173eb311322961", "is_reserved": 0, "rental_uris": {"android": "https://dc.lft.to/lastmile_qr_scan", "ios": "https://dc.lft.to/lastmile_qr_scan"}, "fusion_lon": 0.0}, {"lat": 38.898169333333335, "is_disabled": 0, "type": "electric_scooter", "lon": -76.9714695, "bike_id": "cf0b66d6a70fb4fadf9bfe17163d80f1", "fusion_lat": 0.0, "name": "cf0b66d6a70fb4fadf9bfe17163d80f1", "is_reserved": 0, "rental_uris": {"android": "https://dc.lft.to/lastmile_qr_scan", "ios": "https://dc.lft.to/lastmile_qr_scan"}, "fusion_lon": 0.0}, {"lat": 38.901681333333336, "is_disabled": 0, "type": "electric_scooter", "lon": -77.02247816666667, "bike_id": "15b7cd862b39cbc1fc9042f689976c20", "fusion_lat": 0.0, "name": "15b7cd862b39cbc1fc9042f689976c20", "is_reserved": 0, "rental_uris": {"android": "https://dc.lft.to/lastmile_qr_scan", "ios": "https://dc.lft.to/lastmile_qr_scan"}, "fusion_lon": 0.0}, {"lat": 38.919657666666666, "is_disabled": 0, "type": "electric_scooter", "lon": -77.023546, "bike_id": "013407b4eb671ba123ceedbb4300529d", "fusion_lat": 0.0, "name": "013407b4eb671ba123ceedbb4300529d", "is_reserved": 0, "rental_uris": {"android": "https://dc.lft.to/lastmile_qr_scan", "ios": "https://dc.lft.to/lastmile_qr_scan"}, "fusion_lon": 0.0}, {"lat": 38.94596883333333, "is_disabled": 0, "type": "electric_scooter", "lon": -77.07038666666666, "bike_id": "224d46b7df4a6cb7ea8005eb4e4083a6", "fusion_lat": 0.0, "name": "224d46b7df4a6cb7ea8005eb4e4083a6", "is_reserved": 0, "rental_uris": {"android": "https://dc.lft.to/lastmile_qr_scan", "ios": "https://dc.lft.to/lastmile_qr_scan"}, "fusion_lon": 0.0}, {"lat": 38.90515033333333, "is_disabled": 0, "type": "electric_scooter", "lon": -77.0514475, "bike_id": "241af5aab1d7b421c8e3a710e53f68e6", "fusion_lat": 0.0, "name": "241af5aab1d7b421c8e3a710e53f68e6", "is_reserved": 0, "rental_uris": {"android": "https://dc.lft.to/lastmile_qr_scan", "ios": "https://dc.lft.to/lastmile_qr_scan"}, "fusion_lon": 0.0}, {"lat": 38.9077605, "is_disabled": 0, "type": "electric_scooter", "lon": -77.03861533333334, "bike_id": "5c4132f9709bcdf9b2e92afff22c9d90", "fusion_lat": 0.0, "name": "5c4132f9709bcdf9b2e92afff22c9d90", "is_reserved": 0, "rental_uris": {"android": "https://dc.lft.to/lastmile_qr_scan", "ios": "https://dc.lft.to/lastmile_qr_scan"}, "fusion_lon": 0.0}, {"lat": 38.893602333333334, "is_disabled": 0, "type": "electric_scooter", "lon": -76.991102, "bike_id": "11bc9481918c72f5450937bf9caacf20", "fusion_lat": 0.0, "name": "11bc9481918c72f5450937bf9caacf20", "is_reserved": 0, "rental_uris": {"android": "https://dc.lft.to/lastmile_qr_scan", "ios": "https://dc.lft.to/lastmile_qr_scan"}, "fusion_lon": 0.0}, {"lat": 38.921044, "is_disabled": 0, "type": "electric_scooter", "lon": -77.04228333333333, "bike_id": "4369744e7083301e9546cb040ccc06d6", "fusion_lat": 0.0, "name": "4369744e7083301e9546cb040ccc06d6", "is_reserved": 0, "rental_uris": {"android": "https://dc.lft.to/lastmile_qr_scan", "ios": "https://dc.lft.to/lastmile_qr_scan"}, "fusion_lon": 0.0}, {"lat": 38.926069166666665, "is_disabled": 0, "type": "electric_scooter", "lon": -77.05694333333334, "bike_id": "fc3134015126321b8a422d3234216ae9", "fusion_lat": 0.0, "name": "fc3134015126321b8a422d3234216ae9", "is_reserved": 0, "rental_uris": {"android": "https://dc.lft.to/lastmile_qr_scan", "ios": "https://dc.lft.to/lastmile_qr_scan"}, "fusion_lon": 0.0}, {"lat": 38.844274166666665, "is_disabled": 0, "type": "electric_scooter", "lon": -76.99813116666667, "bike_id": "01130266abc1801903574be819b2a79a", "fusion_lat": 0.0, "name": "01130266abc1801903574be819b2a79a", "is_reserved": 0, "rental_uris": {"android": "https://dc.lft.to/lastmile_qr_scan", "ios": "https://dc.lft.to/lastmile_qr_scan"}, "fusion_lon": 0.0}, {"lat": 38.9155865, "is_disabled": 0, "type": "electric_scooter", "lon": -77.00982366666666, "bike_id": "66b8420d6955c821b322e46774575e82", "fusion_lat": 0.0, "name": "66b8420d6955c821b322e46774575e82", "is_reserved": 0, "rental_uris": {"android": "https://dc.lft.to/lastmile_qr_scan", "ios": "https://dc.lft.to/lastmile_qr_scan"}, "fusion_lon": 0.0}, {"lat": 38.92387133333333, "is_disabled": 0, "type": "electric_scooter", "lon": -77.02768116666667, "bike_id": "65457deabe6e1e02aee9308014e7e83f", "fusion_lat": 0.0, "name": "65457deabe6e1e02aee9308014e7e83f", "is_reserved": 0, "rental_uris": {"android": "https://dc.lft.to/lastmile_qr_scan", "ios": "https://dc.lft.to/lastmile_qr_scan"}, "fusion_lon": 0.0}, {"lat": 38.854338166666665, "is_disabled": 0, "type": "electric_bike", "lon": -76.90972666666667, "bike_id": "90ef461d8fc7a9c7c4f5cf7e944d6c7c", "fusion_lat": 0.0, "name": "90ef461d8fc7a9c7c4f5cf7e944d6c7c", "is_reserved": 0, "rental_uris": {"android": "https://dc.lft.to/lastmile_qr_scan", "ios": "https://dc.lft.to/lastmile_qr_scan"}, "fusion_lon": 0.0}, {"lat": 38.81048333333333, "is_disabled": 0, "type": "electric_bike", "lon": -77.08509433333333, "bike_id": "6f4c4b0aab274f9cdf71b7de3c1e4cc2", "fusion_lat": 0.0, "name": "6f4c4b0aab274f9cdf71b7de3c1e4cc2", "is_reserved": 0, "rental_uris": {"android": "https://dc.lft.to/lastmile_qr_scan", "ios": "https://dc.lft.to/lastmile_qr_scan"}, "fusion_lon": 0.0}, {"lat": 38.909584833333334, "is_disabled": 0, "type": "electric_scooter", "lon": -77.033913, "bike_id": "c07b4c3c737676fccb1143007b76a49e", "fusion_lat": 0.0, "name": "c07b4c3c737676fccb1143007b76a49e", "is_reserved": 0, "rental_uris": {"android": "https://dc.lft.to/lastmile_qr_scan", "ios": "https://dc.lft.to/lastmile_qr_scan"}, "fusion_lon": 0.0}, {"lat": 38.90491266666667, "is_disabled": 0, "type": "electric_scooter", "lon": -76.99548316666667, "bike_id": "4060e1f651a6694adf95a9117cd56054", "fusion_lat": 0.0, "name": "4060e1f651a6694adf95a9117cd56054", "is_reserved": 0, "rental_uris": {"android": "https://dc.lft.to/lastmile_qr_scan", "ios": "https://dc.lft.to/lastmile_qr_scan"}, "fusion_lon": 0.0}, {"lat": 38.90094233333333, "is_disabled": 0, "type": "electric_scooter", "lon": -77.020413, "bike_id": "8725bdc7b0ee60982736210514f71b31", "fusion_lat": 0.0, "name": "8725bdc7b0ee60982736210514f71b31", "is_reserved": 0, "rental_uris": {"android": "https://dc.lft.to/lastmile_qr_scan", "ios": "https://dc.lft.to/lastmile_qr_scan"}, "fusion_lon": 0.0}, {"lat": 38.90460483333333, "is_disabled": 0, "type": "electric_scooter", "lon": -77.03223316666667, "bike_id": "5325efefa02ab90182e7a4ba70218295", "fusion_lat": 0.0, "name": "5325efefa02ab90182e7a4ba70218295", "is_reserved": 0, "rental_uris": {"android": "https://dc.lft.to/lastmile_qr_scan", "ios": "https://dc.lft.to/lastmile_qr_scan"}, "fusion_lon": 0.0}, {"lat": 38.919138833333335, "is_disabled": 0, "type": "electric_scooter", "lon": -77.03138616666666, "bike_id": "10b22c206b5e11c91f0c0d51f7c84c08", "fusion_lat": 0.0, "name": "10b22c206b5e11c91f0c0d51f7c84c08", "is_reserved": 0, "rental_uris": {"android": "https://dc.lft.to/lastmile_qr_scan", "ios": "https://dc.lft.to/lastmile_qr_scan"}, "fusion_lon": 0.0}, {"lat": 38.909543666666664, "is_disabled": 0, "type": "electric_scooter", "lon": -77.04807966666667, "bike_id": "11e96ef4cae54bc87d28a1117bfbb318", "fusion_lat": 0.0, "name": "11e96ef4cae54bc87d28a1117bfbb318", "is_reserved": 0, "rental_uris": {"android": "https://dc.lft.to/lastmile_qr_scan", "ios": "https://dc.lft.to/lastmile_qr_scan"}, "fusion_lon": 0.0}, {"lat": 38.905061333333336, "is_disabled": 0, "type": "electric_scooter", "lon": -77.058075, "bike_id": "d745c679c0a0d7a9aa304d75c8e36cbe", "fusion_lat": 0.0, "name": "d745c679c0a0d7a9aa304d75c8e36cbe", "is_reserved": 0, "rental_uris": {"android": "https://dc.lft.to/lastmile_qr_scan", "ios": "https://dc.lft.to/lastmile_qr_scan"}, "fusion_lon": 0.0}, {"lat": 38.873764333333334, "is_disabled": 0, "type": "electric_bike", "lon": -77.009409, "bike_id": "38b34a1b2b5e86771bb3c425c8966e63", "fusion_lat": 0.0, "name": "38b34a1b2b5e86771bb3c425c8966e63", "is_reserved": 0, "rental_uris": {"android": "https://dc.lft.to/lastmile_qr_scan", "ios": "https://dc.lft.to/lastmile_qr_scan"}, "fusion_lon": 0.0}, {"lat": 38.907810833333336, "is_disabled": 0, "type": "electric_scooter", "lon": -77.06933033333334, "bike_id": "0d57c81bf4e355b83e1c1b6f9fd4c70f", "fusion_lat": 0.0, "name": "0d57c81bf4e355b83e1c1b6f9fd4c70f", "is_reserved": 0, "rental_uris": {"android": "https://dc.lft.to/lastmile_qr_scan", "ios": "https://dc.lft.to/lastmile_qr_scan"}, "fusion_lon": 0.0}, {"lat": 38.91907916666667, "is_disabled": 0, "type": "electric_scooter", "lon": -77.04632016666666, "bike_id": "cec2706c1d04099fc7bd550efe553d22", "fusion_lat": 0.0, "name": "cec2706c1d04099fc7bd550efe553d22", "is_reserved": 0, "rental_uris": {"android": "https://dc.lft.to/lastmile_qr_scan", "ios": "https://dc.lft.to/lastmile_qr_scan"}, "fusion_lon": 0.0}, {"lat": 38.909600166666664, "is_disabled": 0, "type": "electric_scooter", "lon": -77.03726033333334, "bike_id": "9a78bb690b6b5661623b90d536c3bc35", "fusion_lat": 0.0, "name": "9a78bb690b6b5661623b90d536c3bc35", "is_reserved": 0, "rental_uris": {"android": "https://dc.lft.to/lastmile_qr_scan", "ios": "https://dc.lft.to/lastmile_qr_scan"}, "fusion_lon": 0.0}, {"lat": 38.865149, "is_disabled": 0, "type": "electric_scooter", "lon": -76.99050233333334, "bike_id": "0b63ac2b51c8ca99f9ef1b6d85108544", "fusion_lat": 0.0, "name": "0b63ac2b51c8ca99f9ef1b6d85108544", "is_reserved": 0, "rental_uris": {"android": "https://dc.lft.to/lastmile_qr_scan", "ios": "https://dc.lft.to/lastmile_qr_scan"}, "fusion_lon": 0.0}, {"lat": 38.82246983333334, "is_disabled": 0, "type": "electric_scooter", "lon": -76.99990216666667, "bike_id": "a2aefff06d642933cafe8c46943577b6", "fusion_lat": 0.0, "name": "a2aefff06d642933cafe8c46943577b6", "is_reserved": 0, "rental_uris": {"android": "https://dc.lft.to/lastmile_qr_scan", "ios": "https://dc.lft.to/lastmile_qr_scan"}, "fusion_lon": 0.0}, {"lat": 38.93356166666667, "is_disabled": 0, "type": "electric_bike", "lon": -77.099645, "bike_id": "42fc5c56d5eec0964da354b7da8b3e4b", "fusion_lat": 0.0, "name": "42fc5c56d5eec0964da354b7da8b3e4b", "is_reserved": 0, "rental_uris": {"android": "https://dc.lft.to/lastmile_qr_scan", "ios": "https://dc.lft.to/lastmile_qr_scan"}, "fusion_lon": 0.0}, {"lat": 38.9051035, "is_disabled": 0, "type": "electric_scooter", "lon": -77.06477366666667, "bike_id": "67f615c4a39295aa9272c296a21b5022", "fusion_lat": 0.0, "name": "67f615c4a39295aa9272c296a21b5022", "is_reserved": 0, "rental_uris": {"android": "https://dc.lft.to/lastmile_qr_scan", "ios": "https://dc.lft.to/lastmile_qr_scan"}, "fusion_lon": 0.0}, {"lat": 38.91885416666667, "is_disabled": 0, "type": "electric_scooter", "lon": -77.03911583333333, "bike_id": "47d585f8162c3a26ee3c00af6b1e08fd", "fusion_lat": 0.0, "name": "47d585f8162c3a26ee3c00af6b1e08fd", "is_reserved": 0, "rental_uris": {"android": "https://dc.lft.to/lastmile_qr_scan", "ios": "https://dc.lft.to/lastmile_qr_scan"}, "fusion_lon": 0.0}, {"lat": 38.896119166666665, "is_disabled": 0, "type": "electric_scooter", "lon": -76.95607733333334, "bike_id": "4fc908ae4f3f15597494211d88b505d9", "fusion_lat": 0.0, "name": "4fc908ae4f3f15597494211d88b505d9", "is_reserved": 0, "rental_uris": {"android": "https://dc.lft.to/lastmile_qr_scan", "ios": "https://dc.lft.to/lastmile_qr_scan"}, "fusion_lon": 0.0}, {"lat": 38.933465166666664, "is_disabled": 0, "type": "electric_scooter", "lon": -77.05708283333334, "bike_id": "15cfe3296612b186134b11b7524356ee", "fusion_lat": 0.0, "name": "15cfe3296612b186134b11b7524356ee", "is_reserved": 0, "rental_uris": {"android": "https://dc.lft.to/lastmile_qr_scan", "ios": "https://dc.lft.to/lastmile_qr_scan"}, "fusion_lon": 0.0}, {"lat": 38.886489833333336, "is_disabled": 0, "type": "electric_bike", "lon": -77.162345, "bike_id": "8bbb0c3c2f8b529dca12a71dc377f56b", "fusion_lat": 0.0, "name": "8bbb0c3c2f8b529dca12a71dc377f56b", "is_reserved": 0, "rental_uris": {"android": "https://dc.lft.to/lastmile_qr_scan", "ios": "https://dc.lft.to/lastmile_qr_scan"}, "fusion_lon": 0.0}, {"lat": 38.921547833333335, "is_disabled": 0, "type": "electric_scooter", "lon": -77.03508733333334, "bike_id": "c4eac43a0c021fb0911c3ff401b5d982", "fusion_lat": 0.0, "name": "c4eac43a0c021fb0911c3ff401b5d982", "is_reserved": 0, "rental_uris": {"android": "https://dc.lft.to/lastmile_qr_scan", "ios": "https://dc.lft.to/lastmile_qr_scan"}, "fusion_lon": 0.0}, {"lat": 38.92636866666667, "is_disabled": 0, "type": "electric_scooter", "lon": -77.03564183333333, "bike_id": "935b192b90370dda297ad284eb918311", "fusion_lat": 0.0, "name": "935b192b90370dda297ad284eb918311", "is_reserved": 0, "rental_uris": {"android": "https://dc.lft.to/lastmile_qr_scan", "ios": "https://dc.lft.to/lastmile_qr_scan"}, "fusion_lon": 0.0}, {"lat": 38.91710916666667, "is_disabled": 0, "type": "electric_scooter", "lon": -77.03866883333333, "bike_id": "a3a01a8f6684d028d75e2bd7d716b5aa", "fusion_lat": 0.0, "name": "a3a01a8f6684d028d75e2bd7d716b5aa", "is_reserved": 0, "rental_uris": {"android": "https://dc.lft.to/lastmile_qr_scan", "ios": "https://dc.lft.to/lastmile_qr_scan"}, "fusion_lon": 0.0}, {"lat": 38.892472166666664, "is_disabled": 0, "type": "electric_scooter", "lon": -77.02006366666667, "bike_id": "f60bf3d4127f0778c16f4e0521db3dad", "fusion_lat": 0.0, "name": "f60bf3d4127f0778c16f4e0521db3dad", "is_reserved": 0, "rental_uris": {"android": "https://dc.lft.to/lastmile_qr_scan", "ios": "https://dc.lft.to/lastmile_qr_scan"}, "fusion_lon": 0.0}, {"lat": 38.904709, "is_disabled": 0, "type": "electric_scooter", "lon": -77.007919, "bike_id": "7b64c63324b10d9a5b25577ec5b5d24a", "fusion_lat": 0.0, "name": "7b64c63324b10d9a5b25577ec5b5d24a", "is_reserved": 0, "rental_uris": {"android": "https://dc.lft.to/lastmile_qr_scan", "ios": "https://dc.lft.to/lastmile_qr_scan"}, "fusion_lon": 0.0}, {"lat": 38.91049783333333, "is_disabled": 0, "type": "electric_scooter", "lon": -77.046004, "bike_id": "65668020fa8c526df7d560a5320cf13b", "fusion_lat": 0.0, "name": "65668020fa8c526df7d560a5320cf13b", "is_reserved": 0, "rental_uris": {"android": "https://dc.lft.to/lastmile_qr_scan", "ios": "https://dc.lft.to/lastmile_qr_scan"}, "fusion_lon": 0.0}, {"lat": 38.93872916666667, "is_disabled": 0, "type": "electric_scooter", "lon": -77.03230666666667, "bike_id": "a6173c2a86d572b894c7530e1f233bd4", "fusion_lat": 0.0, "name": "a6173c2a86d572b894c7530e1f233bd4", "is_reserved": 0, "rental_uris": {"android": "https://dc.lft.to/lastmile_qr_scan", "ios": "https://dc.lft.to/lastmile_qr_scan"}, "fusion_lon": 0.0}, {"lat": 38.905762, "is_disabled": 0, "type": "electric_scooter", "lon": -77.00896283333333, "bike_id": "60d689f0f7094897618fff5e87e323f7", "fusion_lat": 0.0, "name": "60d689f0f7094897618fff5e87e323f7", "is_reserved": 0, "rental_uris": {"android": "https://dc.lft.to/lastmile_qr_scan", "ios": "https://dc.lft.to/lastmile_qr_scan"}, "fusion_lon": 0.0}, {"lat": 38.90003866666667, "is_disabled": 0, "type": "electric_scooter", "lon": -76.99879733333333, "bike_id": "55df91ee43a17797f7984e38acddf8a2", "fusion_lat": 0.0, "name": "55df91ee43a17797f7984e38acddf8a2", "is_reserved": 0, "rental_uris": {"android": "https://dc.lft.to/lastmile_qr_scan", "ios": "https://dc.lft.to/lastmile_qr_scan"}, "fusion_lon": 0.0}, {"lat": 38.9014525, "is_disabled": 0, "type": "electric_scooter", "lon": -77.04163416666667, "bike_id": "da8efd5bfc20d643ab272d68e3105ff7", "fusion_lat": 0.0, "name": "da8efd5bfc20d643ab272d68e3105ff7", "is_reserved": 0, "rental_uris": {"android": "https://dc.lft.to/lastmile_qr_scan", "ios": "https://dc.lft.to/lastmile_qr_scan"}, "fusion_lon": 0.0}, {"lat": 38.886125, "is_disabled": 0, "type": "electric_scooter", "lon": -77.021729, "bike_id": "28e72c5dd1fc3dfef881937bc36ad56e", "fusion_lat": 0.0, "name": "28e72c5dd1fc3dfef881937bc36ad56e", "is_reserved": 0, "rental_uris": {"android": "https://dc.lft.to/lastmile_qr_scan", "ios": "https://dc.lft.to/lastmile_qr_scan"}, "fusion_lon": 0.0}, {"lat": 38.898506833333336, "is_disabled": 0, "type": "electric_bike", "lon": -76.9319705, "bike_id": "cb14e8c421615683e36df320f0717c05", "fusion_lat": 0.0, "name": "cb14e8c421615683e36df320f0717c05", "is_reserved": 0, "rental_uris": {"android": "https://dc.lft.to/lastmile_qr_scan", "ios": "https://dc.lft.to/lastmile_qr_scan"}, "fusion_lon": 0.0}, {"lat": 38.971912, "is_disabled": 0, "type": "electric_bike", "lon": -77.02724, "bike_id": "31214747c8807750643111a247454a84", "fusion_lat": 0.0, "name": "31214747c8807750643111a247454a84", "is_reserved": 0, "rental_uris": {"android": "https://dc.lft.to/lastmile_qr_scan", "ios": "https://dc.lft.to/lastmile_qr_scan"}, "fusion_lon": 0.0}, {"lat": 38.9241935, "is_disabled": 0, "type": "electric_scooter", "lon": -77.0519325, "bike_id": "68b1aa3a1835727ec7c8d7309fd238ba", "fusion_lat": 0.0, "name": "68b1aa3a1835727ec7c8d7309fd238ba", "is_reserved": 0, "rental_uris": {"android": "https://dc.lft.to/lastmile_qr_scan", "ios": "https://dc.lft.to/lastmile_qr_scan"}, "fusion_lon": 0.0}, {"lat": 38.909677333333335, "is_disabled": 0, "type": "electric_scooter", "lon": -77.00923366666666, "bike_id": "907bacb81bb543347e2d055efac1003c", "fusion_lat": 0.0, "name": "907bacb81bb543347e2d055efac1003c", "is_reserved": 0, "rental_uris": {"android": "https://dc.lft.to/lastmile_qr_scan", "ios": "https://dc.lft.to/lastmile_qr_scan"}, "fusion_lon": 0.0}, {"lat": 38.9127165, "is_disabled": 0, "type": "electric_scooter", "lon": -77.039395, "bike_id": "18274870d79b52cc22d6e4672dadf445", "fusion_lat": 0.0, "name": "18274870d79b52cc22d6e4672dadf445", "is_reserved": 0, "rental_uris": {"android": "https://dc.lft.to/lastmile_qr_scan", "ios": "https://dc.lft.to/lastmile_qr_scan"}, "fusion_lon": 0.0}, {"lat": 38.88989333333333, "is_disabled": 0, "type": "electric_bike", "lon": -77.0713145, "bike_id": "e3c039277e05e1c71495054cc5cb0fb9", "fusion_lat": 0.0, "name": "e3c039277e05e1c71495054cc5cb0fb9", "is_reserved": 0, "rental_uris": {"android": "https://dc.lft.to/lastmile_qr_scan", "ios": "https://dc.lft.to/lastmile_qr_scan"}, "fusion_lon": 0.0}, {"lat": 38.9010885, "is_disabled": 0, "type": "electric_scooter", "lon": -77.05915866666666, "bike_id": "81d51f0f57dee1b37e969d9a55e7f1bd", "fusion_lat": 0.0, "name": "81d51f0f57dee1b37e969d9a55e7f1bd", "is_reserved": 0, "rental_uris": {"android": "https://dc.lft.to/lastmile_qr_scan", "ios": "https://dc.lft.to/lastmile_qr_scan"}, "fusion_lon": 0.0}, {"lat": 38.905597, "is_disabled": 0, "type": "electric_scooter", "lon": -77.034179, "bike_id": "22fd326d6358147b36c4e55042602d09", "fusion_lat": 0.0, "name": "22fd326d6358147b36c4e55042602d09", "is_reserved": 0, "rental_uris": {"android": "https://dc.lft.to/lastmile_qr_scan", "ios": "https://dc.lft.to/lastmile_qr_scan"}, "fusion_lon": 0.0}, {"lat": 38.9086645, "is_disabled": 0, "type": "electric_scooter", "lon": -77.0240965, "bike_id": "3fa214ad6a1b543e511add1e0b638fda", "fusion_lat": 0.0, "name": "3fa214ad6a1b543e511add1e0b638fda", "is_reserved": 0, "rental_uris": {"android": "https://dc.lft.to/lastmile_qr_scan", "ios": "https://dc.lft.to/lastmile_qr_scan"}, "fusion_lon": 0.0}, {"lat": 38.8934235, "is_disabled": 0, "type": "electric_scooter", "lon": -76.94944083333333, "bike_id": "58230e1293adfbae70b9bd641570616d", "fusion_lat": 0.0, "name": "58230e1293adfbae70b9bd641570616d", "is_reserved": 0, "rental_uris": {"android": "https://dc.lft.to/lastmile_qr_scan", "ios": "https://dc.lft.to/lastmile_qr_scan"}, "fusion_lon": 0.0},