{"data": {"bikes": [{"bike_id": "dbcbef4a3760d4ad9fec1db94d85150f", "type": "electric_scooter", "is_disabled": 0, "lat": 38.85131883333333, "rental_uris": {"ios": "https://dc.lft.to/lastmile_qr_scan", "android": "https://dc.lft.to/lastmile_qr_scan"}, "is_reserved": 0, "fusion_lon": 0.0, "fusion_lat": 0.0, "lon": -76.97121866666667, "name": "dbcbef4a3760d4ad9fec1db94d85150f"}, {"bike_id": "076df2f340a787bc1d0d3ba6941d766d", "type": "electric_scooter", "is_disabled": 0, "lat": 38.84316966666667, "rental_uris": {"ios": "https://dc.lft.to/lastmile_qr_scan", "android": "https://dc.lft.to/lastmile_qr_scan"}, "is_reserved": 0, "fusion_lon": 0.0, "fusion_lat": 0.0, "lon": -76.999222, "name": "076df2f340a787bc1d0d3ba6941d766d"}, {"bike_id": "77d56fc9b2c30c969a4504788058b6af", "type": "electric_scooter", "is_disabled": 0, "lat": 38.915548, "rental_uris": {"ios": "https://dc.lft.to/lastmile_qr_scan", "android": "https://dc.lft.to/lastmile_qr_scan"}, "is_reserved": 0, "fusion_lon": 0.0, "fusion_lat": 0.0, "lon": -77.03172016666667, "name": "77d56fc9b2c30c969a4504788058b6af"}, {"bike_id": "f8aa8d3c38b3674b3ac0b0002d06586d", "type": "electric_scooter", "is_disabled": 0, "lat": 38.9058795, "rental_uris": {"ios": "https://dc.lft.to/lastmile_qr_scan", "android": "https://dc.lft.to/lastmile_qr_scan"}, "is_reserved": 0, "fusion_lon": 0.0, "fusion_lat": 0.0, "lon": -77.04173866666666, "name": "f8aa8d3c38b3674b3ac0b0002d06586d"}, {"bike_id": "06697e9b49581a52e88bfa4e71bf7772", "type": "electric_scooter", "is_disabled": 0, "lat": 38.917205833333334, "rental_uris": {"ios": "https://dc.lft.to/lastmile_qr_scan", "android": "https://dc.lft.to/lastmile_qr_scan"}, "is_reserved": 0, "fusion_lon": 0.0, "fusion_lat": 0.0, "lon": -77.02607666666667, "name": "06697e9b49581a52e88bfa4e71bf7772"}, {"bike_id": "f429b8f72b1e0ba991e889c18653e837", "type": "electric_scooter", "is_disabled": 0, "lat": 38.9157175, "rental_uris": {"ios": "https://dc.lft.to/lastmile_qr_scan", "android": "https://dc.lft.to/lastmile_qr_scan"}, "is_reserved": 0, "fusion_lon": 0.0, "fusion_lat": 0.0, "lon": -77.01249466666667, "name": "f429b8f72b1e0ba991e889c18653e837"}, {"bike_id": "6b5726c95e9cae8581e7e8906fa6c13e", "type": "electric_bike", "is_disabled": 0, "lat": 38.947966666666666, "rental_uris": {"ios": "https://dc.lft.to/lastmile_qr_scan", "android": "https://dc.lft.to/lastmile_qr_scan"}, "is_reserved": 0, "fusion_lon": 0.0, "fusion_lat": 0.0, "lon": -76.955408, "name": "6b5726c95e9cae8581e7e8906fa6c13e"}, {"bike_id": "b60189dfc6f9794ff74a8ac5c6e80f70", "type": "electric_scooter", "is_disabled": 0, "lat": 38.9096735, "rental_uris": {"ios": "https://dc.lft.to/lastmile_qr_scan", "android": "https://dc.lft.to/lastmile_qr_scan"}, "is_reserved": 0, "fusion_lon": 0.0, "fusion_lat": 0.0, "lon": -77.0141525, "name": "b60189dfc6f9794ff74a8ac5c6e80f70"}, {"bike_id": "edb42d57fac2bda789383e0784ece7de", "type": "electric_scooter", "is_disabled": 0, "lat": 38.900134333333334, "rental_uris": {"ios": "https://dc.lft.to/lastmile_qr_scan", "android": "https://dc.lft.to/lastmile_qr_scan"}, "is_reserved": 0, "fusion_lon": 0.0, "fusion_lat": 0.0, "lon": -77.03816683333334, "name": "edb42d57fac2bda789383e0784ece7de"}, {"bike_id": "32ea9602f9df53d038aa782e4d1e8790", "type": "electric_scooter", "is_disabled": 0, "lat": 38.915663333333335, "rental_uris": {"ios": "https://dc.lft.to/lastmile_qr_scan", "android": "https://dc.lft.to/lastmile_qr_scan"}, "is_reserved": 0, "fusion_lon": 0.0, "fusion_lat": 0.0, "lon": -77.02593516666667, "name": "32ea9602f9df53d038aa782e4d1e8790"}, {"bike_id": "08ec7fba022103d4fd2d7ec2854c1f92", "type": "electric_scooter", "is_disabled": 0, "lat": 38.9110975, "rental_uris": {"ios": "https://dc.lft.to/lastmile_qr_scan", "android": "https://dc.lft.to/lastmile_qr_scan"}, "is_reserved": 0, "fusion_lon": 0.0, "fusion_lat": 0.0, "lon": -77.04392633333333, "name": "08ec7fba022103d4fd2d7ec2854c1f92"}, {"bike_id": "98d47b7e06c15531842b87c64244f5a7", "type": "electric_scooter", "is_disabled": 0, "lat": 38.90590866666667, "rental_uris": {"ios": "https://dc.lft.to/lastmile_qr_scan", "android": "https://dc.lft.to/lastmile_qr_scan"}, "is_reserved": 0, "fusion_lon": 0.0, "fusion_lat": 0.0, "lon": -77.04708333333333, "name": "98d47b7e06c15531842b87c64244f5a7"}, {"bike_id": "bf533c051cfa71510cd06de027a51247", "type": "electric_scooter", "is_disabled": 0, "lat": 38.94193333333333, "rental_uris": {"ios": "https://dc.lft.to/lastmile_qr_scan", "android": "https://dc.lft.to/lastmile_qr_scan"}, "is_reserved": 0, "fusion_lon": 0.0, "fusion_lat": 0.0, "lon": -77.03324233333333, "name": "bf533c051cfa71510cd06de027a51247"}, {"bike_id": "213f473cce04a9ee2d597b9052ec3fdb", "type": "electric_scooter", "is_disabled": 0, "lat": 38.93878866666667, "rental_uris": {"ios": "https://dc.lft.to/lastmile_qr_scan", "android": "https://dc.lft.to/lastmile_qr_scan"}, "is_reserved": 0, "fusion_lon": 0.0, "fusion_lat": 0.0, "lon": -77.02465766666667, "name": "213f473cce04a9ee2d597b9052ec3fdb"}, {"bike_id": "91df1b2b3aae9bcf0a46a23cfb1834fb", "type": "electric_scooter", "is_disabled": 0, "lat": 38.9187705, "rental_uris": {"ios": "https://dc.lft.to/lastmile_qr_scan", "android": "https://dc.lft.to/lastmile_qr_scan"}, "is_reserved": 0, "fusion_lon": 0.0, "fusion_lat": 0.0, "lon": -77.0346915, "name": "91df1b2b3aae9bcf0a46a23cfb1834fb"}, {"bike_id": "f6048a7bd2592a2ea2134c43ada9bac1", "type": "electric_bike", "is_disabled": 0, "lat": 38.868730166666666, "rental_uris": {"ios": "https://dc.lft.to/lastmile_qr_scan", "android": "https://dc.lft.to/lastmile_qr_scan"}, "is_reserved": 0, "fusion_lon": 0.0, "fusion_lat": 0.0, "lon": -76.97086416666667, "name": "f6048a7bd2592a2ea2134c43ada9bac1"}, {"bike_id": "d0350c2f91fe49a0036974ca44162bad", "type": "electric_scooter", "is_disabled": 0, "lat": 38.923167666666664, "rental_uris": {"ios": "https://dc.lft.to/lastmile_qr_scan", "android": "https://dc.lft.to/lastmile_qr_scan"}, "is_reserved": 0, "fusion_lon": 0.0, "fusion_lat": 0.0, "lon": -77.04640333333333, "name": "d0350c2f91fe49a0036974ca44162bad"}, {"bike_id": "5aaa3bea48f67603d99d6369044bae53", "type": "electric_scooter", "is_disabled": 0, "lat": 38.94194816666667, "rental_uris": {"ios": "https://dc.lft.to/lastmile_qr_scan", "android": "https://dc.lft.to/lastmile_qr_scan"}, "is_reserved": 0, "fusion_lon": 0.0, "fusion_lat": 0.0, "lon": -77.0365715, "name": "5aaa3bea48f67603d99d6369044bae53"}, {"bike_id": "9e4d709c5d6645a13df2d0c6290ba577", "type": "electric_bike", "is_disabled": 0, "lat": 38.957556333333336, "rental_uris": {"ios": "https://dc.lft.to/lastmile_qr_scan", "android": "https://dc.lft.to/lastmile_qr_scan"}, "is_reserved": 0, "fusion_lon": 0.0, "fusion_lat": 0.0, "lon": -77.02056866666666, "name": "9e4d709c5d6645a13df2d0c6290ba577"}, {"bike_id": "a86d45c26b09e3aa226ea7e1795035e0", "type": "electric_scooter", "is_disabled": 0, "lat": 38.92327516666667, "rental_uris": {"ios": "https://dc.lft.to/lastmile_qr_scan", "android": "https://dc.lft.to/lastmile_qr_scan"}, "is_reserved": 0, "fusion_lon": 0.0, "fusion_lat": 0.0, "lon": -77.03673016666667, "name": "a86d45c26b09e3aa226ea7e1795035e0"}, {"bike_id": "a49133b454e68fbeb30c37e52f10ec9b", "type": "electric_scooter", "is_disabled": 0, "lat": 38.923311, "rental_uris": {"ios": "https://dc.lft.to/lastmile_qr_scan", "android": "https://dc.lft.to/lastmile_qr_scan"}, "is_reserved": 0, "fusion_lon": 0.0, "fusion_lat": 0.0, "lon": -77.03675483333333, "name": "a49133b454e68fbeb30c37e52f10ec9b"}, {"bike_id": "4898149edd05aa2e1c1c82442db41c07", "type": "electric_scooter", "is_disabled": 0, "lat": 38.865048333333334, "rental_uris": {"ios": "https://dc.lft.to/lastmile_qr_scan", "android": "https://dc.lft.to/lastmile_qr_scan"}, "is_reserved": 0, "fusion_lon": 0.0, "fusion_lat": 0.0, "lon": -76.99003983333333, "name": "4898149edd05aa2e1c1c82442db41c07"}, {"bike_id": "dab4ba956da329b80276da3aff4bce26", "type": "electric_scooter", "is_disabled": 0, "lat": 38.957338666666665, "rental_uris": {"ios": "https://dc.lft.to/lastmile_qr_scan", "android": "https://dc.lft.to/lastmile_qr_scan"}, "is_reserved": 0, "fusion_lon": 0.0, "fusion_lat": 0.0, "lon": -77.02800083333334, "name": "dab4ba956da329b80276da3aff4bce26"}, {"bike_id": "5d96e48b94cbeaa6b520c1bdb49f31fd", "type": "electric_scooter", "is_disabled": 0, "lat": 38.922809666666666, "rental_uris": {"ios": "https://dc.lft.to/lastmile_qr_scan", "android": "https://dc.lft.to/lastmile_qr_scan"}, "is_reserved": 0, "fusion_lon": 0.0, "fusion_lat": 0.0, "lon": -77.04236166666666, "name": "5d96e48b94cbeaa6b520c1bdb49f31fd"}, {"bike_id": "9f2b07628ca5a83c2459f6695d831e96", "type": "electric_scooter", "is_disabled": 0, "lat": 38.90043716666667, "rental_uris": {"ios": "https://dc.lft.to/lastmile_qr_scan", "android": "https://dc.lft.to/lastmile_qr_scan"}, "is_reserved": 0, "fusion_lon": 0.0, "fusion_lat": 0.0, "lon": -76.99157466666666, "name": "9f2b07628ca5a83c2459f6695d831e96"}, {"bike_id": "623c28760725052096819876b3d465fd", "type": "electric_scooter", "is_disabled": 0, "lat": 38.866639, "rental_uris": {"ios": "https://dc.lft.to/lastmile_qr_scan", "android": "https://dc.lft.to/lastmile_qr_scan"}, "is_reserved": 0, "fusion_lon": 0.0, "fusion_lat": 0.0, "lon": -77.0108595, "name": "623c28760725052096819876b3d465fd"}, {"bike_id": "72c1cdfd68ad7e8a21657e60a6da7c57", "type": "electric_scooter", "is_disabled": 0, "lat": 38.91554416666666, "rental_uris": {"ios": "https://dc.lft.to/lastmile_qr_scan", "android": "https://dc.lft.to/lastmile_qr_scan"}, "is_reserved": 0, "fusion_lon": 0.0, "fusion_lat": 0.0, "lon": -77.02570783333333, "name": "72c1cdfd68ad7e8a21657e60a6da7c57"}, {"bike_id": "05292705125c0728703b0a12cf564b7c", "type": "electric_scooter", "is_disabled": 0, "lat": 38.9169105, "rental_uris": {"ios": "https://dc.lft.to/lastmile_qr_scan", "android": "https://dc.lft.to/lastmile_qr_scan"}, "is_reserved": 0, "fusion_lon": 0.0, "fusion_lat": 0.0, "lon": -77.038646, "name": "05292705125c0728703b0a12cf564b7c"}, {"bike_id": "d71cf41fcb95a54e298eca13132c3500", "type": "electric_bike", "is_disabled": 0, "lat": 38.853554333333335, "rental_uris": {"ios": "https://dc.lft.to/lastmile_qr_scan", "android": "https://dc.lft.to/lastmile_qr_scan"}, "is_reserved": 0, "fusion_lon": 0.0, "fusion_lat": 0.0, "lon": -77.08686333333333, "name": "d71cf41fcb95a54e298eca13132c3500"}, {"bike_id": "9d7646c915dc2973ceaf9ca409f3c893", "type": "electric_scooter", "is_disabled": 0, "lat": 38.892288, "rental_uris": {"ios": "https://dc.lft.to/lastmile_qr_scan", "android": "https://dc.lft.to/lastmile_qr_scan"}, "is_reserved": 0, "fusion_lon": 0.0, "fusion_lat": 0.0, "lon": -77.01372216666667, "name": "9d7646c915dc2973ceaf9ca409f3c893"}, {"bike_id": "740c388a055de45c76278f569551aecc", "type": "electric_scooter", "is_disabled": 0, "lat": 38.922423333333334, "rental_uris": {"ios": "https://dc.lft.to/lastmile_qr_scan", "android": "https://dc.lft.to/lastmile_qr_scan"}, "is_reserved": 0, "fusion_lon": 0.0, "fusion_lat": 0.0, "lon": -77.02986483333333, "name": "740c388a055de45c76278f569551aecc"}, {"bike_id": "8cd969f77db8e693589d8c7aa8855351", "type": "electric_scooter", "is_disabled": 0, "lat": 38.905756, "rental_uris": {"ios": "https://dc.lft.to/lastmile_qr_scan", "android": "https://dc.lft.to/lastmile_qr_scan"}, "is_reserved": 0, "fusion_lon": 0.0, "fusion_lat": 0.0, "lon": -77.041674, "name": "8cd969f77db8e693589d8c7aa8855351"}, {"bike_id": "26a54652aa0623d973f99b27b5d26db9", "type": "electric_scooter", "is_disabled": 0, "lat": 38.90650333333333, "rental_uris": {"ios": "https://dc.lft.to/lastmile_qr_scan", "android": "https://dc.lft.to/lastmile_qr_scan"}, "is_reserved": 0, "fusion_lon": 0.0, "fusion_lat": 0.0, "lon": -77.01460966666667, "name": "26a54652aa0623d973f99b27b5d26db9"}, {"bike_id": "7f6b0a3613b69fd9328982089614b2cf", "type": "electric_scooter", "is_disabled": 0, "lat": 38.923633333333335, "rental_uris": {"ios": "https://dc.lft.to/lastmile_qr_scan", "android": "https://dc.lft.to/lastmile_qr_scan"}, "is_reserved": 0, "fusion_lon": 0.0, "fusion_lat": 0.0, "lon": -77.050513, "name": "7f6b0a3613b69fd9328982089614b2cf"}, {"bike_id": "4912855905f4add057a3f5ad5690ff29", "type": "electric_scooter", "is_disabled": 0, "lat": 38.91348516666667, "rental_uris": {"ios": "https://dc.lft.to/lastmile_qr_scan", "android": "https://dc.lft.to/lastmile_qr_scan"}, "is_reserved": 0, "fusion_lon": 0.0, "fusion_lat": 0.0, "lon": -77.02077916666667, "name": "4912855905f4add057a3f5ad5690ff29"}, {"bike_id": "95c184c27b8022481b5dbcd86d880a3d", "type": "electric_scooter", "is_disabled": 0, "lat": 38.91698933333333, "rental_uris": {"ios": "https://dc.lft.to/lastmile_qr_scan", "android": "https://dc.lft.to/lastmile_qr_scan"}, "is_reserved": 0, "fusion_lon": 0.0, "fusion_lat": 0.0, "lon": -77.03164766666667, "name": "95c184c27b8022481b5dbcd86d880a3d"}, {"bike_id": "447cc41e9eb199ad30f793e771c451b0", "type": "electric_scooter", "is_disabled": 0, "lat": 38.9086935, "rental_uris": {"ios": "https://dc.lft.to/lastmile_qr_scan", "android": "https://dc.lft.to/lastmile_qr_scan"}, "is_reserved": 0, "fusion_lon": 0.0, "fusion_lat": 0.0, "lon": -76.9979005, "name": "447cc41e9eb199ad30f793e771c451b0"}, {"bike_id": "276fd01128921a8ce85cd330e5a5bbd1", "type": "electric_scooter", "is_disabled": 0, "lat": 38.90820816666667, "rental_uris": {"ios": "https://dc.lft.to/lastmile_qr_scan", "android": "https://dc.lft.to/lastmile_qr_scan"}, "is_reserved": 0, "fusion_lon": 0.0, "fusion_lat": 0.0, "lon": -77.03465266666667, "name": "276fd01128921a8ce85cd330e5a5bbd1"}, {"bike_id": "d1eff853616113603d1ca93164be4dd9", "type": "electric_scooter", "is_disabled": 0, "lat": 38.88520033333333, "rental_uris": {"ios": "https://dc.lft.to/lastmile_qr_scan", "android": "https://dc.lft.to/lastmile_qr_scan"}, "is_reserved": 0, "fusion_lon": 0.0, "fusion_lat": 0.0, "lon": -76.99093333333333, "name": "d1eff853616113603d1ca93164be4dd9"}, {"bike_id": "cc5badd07f27a7935ff6e5f6dea4cbe3", "type": "electric_scooter", "is_disabled": 0, "lat": 38.924968166666666, "rental_uris": {"ios": "https://dc.lft.to/lastmile_qr_scan", "android": "https://dc.lft.to/lastmile_qr_scan"}, "is_reserved": 0, "fusion_lon": 0.0, "fusion_lat": 0.0, "lon": -77.0243985, "name": "cc5badd07f27a7935ff6e5f6dea4cbe3"}, {"bike_id": "aafee0a9e9b3f080eef770c96878ab51", "type": "electric_scooter", "is_disabled": 0, "lat": 38.9153805, "rental_uris": {"ios": "https://dc.lft.to/lastmile_qr_scan", "android": "https://dc.lft.to/lastmile_qr_scan"}, "is_reserved": 0, "fusion_lon": 0.0, "fusion_lat": 0.0, "lon": -77.02210816666667, "name": "aafee0a9e9b3f080eef770c96878ab51"}, {"bike_id": "c6d0621ab3ead153352b4420f3e2455e", "type": "electric_scooter", "is_disabled": 0, "lat": 38.96555033333333, "rental_uris": {"ios": "https://dc.lft.to/lastmile_qr_scan", "android": "https://dc.lft.to/lastmile_qr_scan"}, "is_reserved": 0, "fusion_lon": 0.0, "fusion_lat": 0.0, "lon": -77.03628316666666, "name": "c6d0621ab3ead153352b4420f3e2455e"}, {"bike_id": "624ec67b55ede69d89802e5e8482f9f9", "type": "electric_scooter", "is_disabled": 0, "lat": 38.8853985, "rental_uris": {"ios": "https://dc.lft.to/lastmile_qr_scan", "android": "https://dc.lft.to/lastmile_qr_scan"}, "is_reserved": 0, "fusion_lon": 0.0, "fusion_lat": 0.0, "lon": -77.00584616666667, "name": "624ec67b55ede69d89802e5e8482f9f9"}, {"bike_id": "85e8fd143359ef92a77725182e54ef50", "type": "electric_scooter", "is_disabled": 0, "lat": 38.93714383333333, "rental_uris": {"ios": "https://dc.lft.to/lastmile_qr_scan", "android": "https://dc.lft.to/lastmile_qr_scan"}, "is_reserved": 0, "fusion_lon": 0.0, "fusion_lat": 0.0, "lon": -77.0363405, "name": "85e8fd143359ef92a77725182e54ef50"}, {"bike_id": "209fab53b36cecde459125a100ad3de3", "type": "electric_scooter", "is_disabled": 0, "lat": 38.90357383333333, "rental_uris": {"ios": "https://dc.lft.to/lastmile_qr_scan", "android": "https://dc.lft.to/lastmile_qr_scan"}, "is_reserved": 0, "fusion_lon": 0.0, "fusion_lat": 0.0, "lon": -76.9922085, "name": "209fab53b36cecde459125a100ad3de3"}, {"bike_id": "53ed3adc49f3c687bac103b2208c5c08", "type": "electric_scooter", "is_disabled": 0, "lat": 38.900129666666665, "rental_uris": {"ios": "https://dc.lft.to/lastmile_qr_scan", "android": "https://dc.lft.to/lastmile_qr_scan"}, "is_reserved": 0, "fusion_lon": 0.0, "fusion_lat": 0.0, "lon": -77.03814133333333, "name": "53ed3adc49f3c687bac103b2208c5c08"}, {"bike_id": "76dbb3828c7c2dad1a4ef89e071da941", "type": "electric_bike", "is_disabled": 0, "lat": 39.05112183333333, "rental_uris": {"ios": "https://dc.lft.to/lastmile_qr_scan", "android": "https://dc.lft.to/lastmile_qr_scan"}, "is_reserved": 0, "fusion_lon": 0.0, "fusion_lat": 0.0, "lon": -77.11743633333333, "name": "76dbb3828c7c2dad1a4ef89e071da941"}, {"bike_id": "1a7742ac019cff0cce2a359bea96b455", "type": "electric_scooter", "is_disabled": 0, "lat": 38.88724466666667, "rental_uris": {"ios": "https://dc.lft.to/lastmile_qr_scan", "android": "https://dc.lft.to/lastmile_qr_scan"}, "is_reserved": 0, "fusion_lon": 0.0, "fusion_lat": 0.0, "lon": -77.021726, "name": "1a7742ac019cff0cce2a359bea96b455"}, {"bike_id": "bbe89df85d743d0cf9878da681e795b3", "type": "electric_scooter", "is_disabled": 0, "lat": 38.922318, "rental_uris": {"ios": "https://dc.lft.to/lastmile_qr_scan", "android": "https://dc.lft.to/lastmile_qr_scan"}, "is_reserved": 0, "fusion_lon": 0.0, "fusion_lat": 0.0, "lon": -77.04715016666667, "name": "bbe89df85d743d0cf9878da681e795b3"}, {"bike_id": "a885d05df25420fd3683cc852119dc6c", "type": "electric_scooter", "is_disabled": 0, "lat": 38.95637883333333, "rental_uris": {"ios": "https://dc.lft.to/lastmile_qr_scan", "android": "https://dc.lft.to/lastmile_qr_scan"}, "is_reserved": 0, "fusion_lon": 0.0, "fusion_lat": 0.0, "lon": -77.03629166666667, "name": "a885d05df25420fd3683cc852119dc6c"}, {"bike_id": "ade39de12733953789aedd141fbc04c0", "type": "electric_scooter", "is_disabled": 0, "lat": 38.89514166666667, "rental_uris": {"ios": "https://dc.lft.to/lastmile_qr_scan", "android": "https://dc.lft.to/lastmile_qr_scan"}, "is_reserved": 0, "fusion_lon": 0.0, "fusion_lat": 0.0, "lon": -77.0433415, "name": "ade39de12733953789aedd141fbc04c0"}, {"bike_id": "bd7ae3bb683000d12d93506b5ecb5a2d", "type": "electric_scooter", "is_disabled": 0, "lat": 38.9079235, "rental_uris": {"ios": "https://dc.lft.to/lastmile_qr_scan", "android": "https://dc.lft.to/lastmile_qr_scan"}, "is_reserved": 0, "fusion_lon": 0.0, "fusion_lat": 0.0, "lon": -77.0268775, "name": "bd7ae3bb683000d12d93506b5ecb5a2d"}, {"bike_id": "20bbc01a9ee7d794bcfebe3bafbe3995", "type": "electric_scooter", "is_disabled": 0, "lat": 38.914143333333335, "rental_uris": {"ios": "https://dc.lft.to/lastmile_qr_scan", "android": "https://dc.lft.to/lastmile_qr_scan"}, "is_reserved": 0, "fusion_lon": 0.0, "fusion_lat": 0.0, "lon": -77.03999933333333, "name": "20bbc01a9ee7d794bcfebe3bafbe3995"}, {"bike_id": "57257335d6466140846c68b78207edc9", "type": "electric_scooter", "is_disabled": 0, "lat": 38.920486833333335, "rental_uris": {"ios": "https://dc.lft.to/lastmile_qr_scan", "android": "https://dc.lft.to/lastmile_qr_scan"}, "is_reserved": 0, "fusion_lon": 0.0, "fusion_lat": 0.0, "lon": -77.02375233333333, "name": "57257335d6466140846c68b78207edc9"}, {"bike_id": "a8d3ee5b527ab8d977cdd927eb316aee", "type": "electric_scooter", "is_disabled": 0, "lat": 38.88298016666667, "rental_uris": {"ios": "https://dc.lft.to/lastmile_qr_scan", "android": "https://dc.lft.to/lastmile_qr_scan"}, "is_reserved": 0, "fusion_lon": 0.0, "fusion_lat": 0.0, "lon": -76.94203216666666, "name": "a8d3ee5b527ab8d977cdd927eb316aee"}, {"bike_id": "184faf7d3d8a742e703d4d8a09071103", "type": "electric_scooter", "is_disabled": 0, "lat": 38.921476, "rental_uris": {"ios": "https://dc.lft.to/lastmile_qr_scan", "android": "https://dc.lft.to/lastmile_qr_scan"}, "is_reserved": 0, "fusion_lon": 0.0, "fusion_lat": 0.0, "lon": -77.0344125, "name": "184faf7d3d8a742e703d4d8a09071103"}, {"bike_id": "e9d116d09c28c88b3924167e82b46681", "type": "electric_scooter", "is_disabled": 0, "lat": 38.90235716666667, "rental_uris": {"ios": "https://dc.lft.to/lastmile_qr_scan", "android": "https://dc.lft.to/lastmile_qr_scan"}, "is_reserved": 0, "fusion_lon": 0.0, "fusion_lat": 0.0, "lon": -77.01812466666667, "name": "e9d116d09c28c88b3924167e82b46681"}, {"bike_id": "63d90c62b3f8a28b6eb8a592619613e5", "type": "electric_scooter", "is_disabled": 0, "lat": 38.91600783333333, "rental_uris": {"ios": "https://dc.lft.to/lastmile_qr_scan", "android": "https://dc.lft.to/lastmile_qr_scan"}, "is_reserved": 0, "fusion_lon": 0.0, "fusion_lat": 0.0, "lon": -77.002004, "name": "63d90c62b3f8a28b6eb8a592619613e5"}, {"bike_id": "59c24be8e274e9dd5143a5d6d5680be2", "type": "electric_scooter", "is_disabled": 0, "lat": 38.923286166666664, "rental_uris": {"ios": "https://dc.lft.to/lastmile_qr_scan", "android": "https://dc.lft.to/lastmile_qr_scan"}, "is_reserved": 0, "fusion_lon": 0.0, "fusion_lat": 0.0, "lon": -77.02961333333333, "name": "59c24be8e274e9dd5143a5d6d5680be2"}, {"bike_id": "ac97db5f0dce50d28407330f24a10cce", "type": "electric_scooter", "is_disabled": 0, "lat": 38.9119915, "rental_uris": {"ios": "https://dc.lft.to/lastmile_qr_scan", "android": "https://dc.lft.to/lastmile_qr_scan"}, "is_reserved": 0, "fusion_lon": 0.0, "fusion_lat": 0.0, "lon": -77.01201083333333, "name": "ac97db5f0dce50d28407330f24a10cce"}, {"bike_id": "58bf5cbe8f6a2d3ff353272856f3e54a", "type": "electric_scooter", "is_disabled": 0, "lat": 38.923584166666664, "rental_uris": {"ios": "https://dc.lft.to/lastmile_qr_scan", "android": "https://dc.lft.to/lastmile_qr_scan"}, "is_reserved": 0, "fusion_lon": 0.0, "fusion_lat": 0.0, "lon": -77.07640333333333, "name": "58bf5cbe8f6a2d3ff353272856f3e54a"}, {"bike_id": "5afdf9d1a6bedf722610264fc5c76c2b", "type": "electric_scooter", "is_disabled": 0, "lat": 38.938837166666666, "rental_uris": {"ios": "https://dc.lft.to/lastmile_qr_scan", "android": "https://dc.lft.to/lastmile_qr_scan"}, "is_reserved": 0, "fusion_lon": 0.0, "fusion_lat": 0.0, "lon": -77.024712, "name": "5afdf9d1a6bedf722610264fc5c76c2b"}, {"bike_id": "493a8d0a2f10ec40cb26854b91db1c75", "type": "electric_scooter", "is_disabled": 0, "lat": 38.91554583333333, "rental_uris": {"ios": "https://dc.lft.to/lastmile_qr_scan", "android": "https://dc.lft.to/lastmile_qr_scan"}, "is_reserved": 0, "fusion_lon": 0.0, "fusion_lat": 0.0, "lon": -77.0332095, "name": "493a8d0a2f10ec40cb26854b91db1c75"}, {"bike_id": "feaf4a2fb7ae1b74cffac4a34c6214d7", "type": "electric_scooter", "is_disabled": 0, "lat": 38.965571833333335, "rental_uris": {"ios": "https://dc.lft.to/lastmile_qr_scan", "android": "https://dc.lft.to/lastmile_qr_scan"}, "is_reserved": 0, "fusion_lon": 0.0, "fusion_lat": 0.0, "lon": -77.00205216666667, "name": "feaf4a2fb7ae1b74cffac4a34c6214d7"}, {"bike_id": "80a8a5ef2b7516f8c714f223cbdf4b75", "type": "electric_scooter", "is_disabled": 0, "lat": 38.91997833333333, "rental_uris": {"ios": "https://dc.lft.to/lastmile_qr_scan", "android": "https://dc.lft.to/lastmile_qr_scan"}, "is_reserved": 0, "fusion_lon": 0.0, "fusion_lat": 0.0, "lon": -77.03970716666667, "name": "80a8a5ef2b7516f8c714f223cbdf4b75"}, {"bike_id": "8433c8ab8b20789e03c5977cdd21f214", "type": "electric_scooter", "is_disabled": 0, "lat": 38.88745816666667, "rental_uris": {"ios": "https://dc.lft.to/lastmile_qr_scan", "android": "https://dc.lft.to/lastmile_qr_scan"}, "is_reserved": 0, "fusion_lon": 0.0, "fusion_lat": 0.0, "lon": -77.0256695, "name": "8433c8ab8b20789e03c5977cdd21f214"}, {"bike_id": "96c31e44498b7d14a6f131f32f02964c", "type": "electric_scooter", "is_disabled": 0, "lat": 38.924762, "rental_uris": {"ios": "https://dc.lft.to/lastmile_qr_scan", "android": "https://dc.lft.to/lastmile_qr_scan"}, "is_reserved": 0, "fusion_lon": 0.0, "fusion_lat": 0.0, "lon": -77.037893, "name": "96c31e44498b7d14a6f131f32f02964c"}, {"bike_id": "e6707319c63fde78e96c220204ebbb23", "type": "electric_scooter", "is_disabled": 0, "lat": 38.93253633333333, "rental_uris": {"ios": "https://dc.lft.to/lastmile_qr_scan", "android": "https://dc.lft.to/lastmile_qr_scan"}, "is_reserved": 0, "fusion_lon": 0.0, "fusion_lat": 0.0, "lon": -77.03276866666667, "name": "e6707319c63fde78e96c220204ebbb23"}, {"bike_id": "6b16231c6904d451be976cfb7e3d6315", "type": "electric_scooter", "is_disabled": 0, "lat": 38.916881000000004, "rental_uris": {"ios": "https://dc.lft.to/lastmile_qr_scan", "android": "https://dc.lft.to/lastmile_qr_scan"}, "is_reserved": 0, "fusion_lon": 0.0, "fusion_lat": 0.0, "lon": -77.03867433333333, "name": "6b16231c6904d451be976cfb7e3d6315"}, {"bike_id": "48046a03ffa0fe58ddd81b44d1efb5e1", "type": "electric_scooter", "is_disabled": 0, "lat": 38.938891166666664, "rental_uris": {"ios": "https://dc.lft.to/lastmile_qr_scan", "android": "https://dc.lft.to/lastmile_qr_scan"}, "is_reserved": 0, "fusion_lon": 0.0, "fusion_lat": 0.0, "lon": -77.033392, "name": "48046a03ffa0fe58ddd81b44d1efb5e1"}, {"bike_id": "16512cc4d532c50652736ca92ae4d436", "type": "electric_scooter", "is_disabled": 0, "lat": 38.8996895, "rental_uris": {"ios": "https://dc.lft.to/lastmile_qr_scan", "android": "https://dc.lft.to/lastmile_qr_scan"}, "is_reserved": 0, "fusion_lon": 0.0, "fusion_lat": 0.0, "lon": -77.01989383333333, "name": "16512cc4d532c50652736ca92ae4d436"}, {"bike_id": "9117c57643b0260b7ae538df9ccf63e5", "type": "electric_scooter", "is_disabled": 0, "lat": 38.90583766666666, "rental_uris": {"ios": "https://dc.lft.to/lastmile_qr_scan", "android": "https://dc.lft.to/lastmile_qr_scan"}, "is_reserved": 0, "fusion_lon": 0.0, "fusion_lat": 0.0, "lon": -77.04572883333333, "name": "9117c57643b0260b7ae538df9ccf63e5"}, {"bike_id": "4dc76fbf9a5a63f8156adae29f4ae614", "type": "electric_scooter", "is_disabled": 0, "lat": 38.92060933333333, "rental_uris": {"ios": "https://dc.lft.to/lastmile_qr_scan", "android": "https://dc.lft.to/lastmile_qr_scan"}, "is_reserved": 0, "fusion_lon": 0.0, "fusion_lat": 0.0, "lon": -77.0147995, "name": "4dc76fbf9a5a63f8156adae29f4ae614"}, {"bike_id": "473dfded3df4cfb5274695eecfe841db", "type": "electric_scooter", "is_disabled": 0, "lat": 38.90813166666667, "rental_uris": {"ios": "https://dc.lft.to/lastmile_qr_scan", "android": "https://dc.lft.to/lastmile_qr_scan"}, "is_reserved": 0, "fusion_lon": 0.0, "fusion_lat": 0.0, "lon": -77.04343833333333, "name": "473dfded3df4cfb5274695eecfe841db"}, {"bike_id": "f9e01e273957b29e6047c98cffb8ca51", "type": "electric_scooter", "is_disabled": 0, "lat": 38.93507316666667, "rental_uris": {"ios": "https://dc.lft.to/lastmile_qr_scan", "android": "https://dc.lft.to/lastmile_qr_scan"}, "is_reserved": 0, "fusion_lon": 0.0, "fusion_lat": 0.0, "lon": -77.01960766666667, "name": "f9e01e273957b29e6047c98cffb8ca51"}, {"bike_id": "499e32de92d7d20e7edd1af77058d776", "type": "electric_scooter", "is_disabled": 0, "lat": 38.9162515, "rental_uris": {"ios": "https://dc.lft.to/lastmile_qr_scan", "android": "https://dc.lft.to/lastmile_qr_scan"}, "is_reserved": 0, "fusion_lon": 0.0, "fusion_lat": 0.0, "lon": -77.03039783333334, "name": "499e32de92d7d20e7edd1af77058d776"}, {"bike_id": "35be296ddde312d9bbb515c8abdfa3f7", "type": "electric_scooter", "is_disabled": 0, "lat": 38.8923085, "rental_uris": {"ios": "https://dc.lft.to/lastmile_qr_scan", "android": "https://dc.lft.to/lastmile_qr_scan"}, "is_reserved": 0, "fusion_lon": 0.0, "fusion_lat": 0.0, "lon": -77.04163533333333, "name": "35be296ddde312d9bbb515c8abdfa3f7"}, {"bike_id": "ea89afea1e10c5749e01070af86a5b2c", "type": "electric_scooter", "is_disabled": 0, "lat": 38.89698116666667, "rental_uris": {"ios": "https://dc.lft.to/lastmile_qr_scan", "android": "https://dc.lft.to/lastmile_qr_scan"}, "is_reserved": 0, "fusion_lon": 0.0, "fusion_lat": 0.0, "lon": -77.0434845, "name": "ea89afea1e10c5749e01070af86a5b2c"}, {"bike_id": "adbb3f6a3c11d4df03125b497264076e", "type": "electric_scooter", "is_disabled": 0, "lat": 38.922077333333334, "rental_uris": {"ios": "https://dc.lft.to/lastmile_qr_scan", "android": "https://dc.lft.to/lastmile_qr_scan"}, "is_reserved": 0, "fusion_lon": 0.0, "fusion_lat": 0.0, "lon": -77.03400616666667, "name": "adbb3f6a3c11d4df03125b497264076e"}, {"bike_id": "7dcded833ac9f2187405cc26dc948fe5", "type": "electric_scooter", "is_disabled": 0, "lat": 38.91709983333333, "rental_uris": {"ios": "https://dc.lft.to/lastmile_qr_scan", "android": "https://dc.lft.to/lastmile_qr_scan"}, "is_reserved": 0, "fusion_lon": 0.0, "fusion_lat": 0.0, "lon": -77.038645, "name": "7dcded833ac9f2187405cc26dc948fe5"}, {"bike_id": "18edf21d5720bfaf130b9034e38c4e24", "type": "electric_scooter", "is_disabled": 0, "lat": 38.93193083333333, "rental_uris": {"ios": "https://dc.lft.to/lastmile_qr_scan", "android": "https://dc.lft.to/lastmile_qr_scan"}, "is_reserved": 0, "fusion_lon": 0.0, "fusion_lat": 0.0, "lon": -77.02393266666667, "name": "18edf21d5720bfaf130b9034e38c4e24"}, {"bike_id": "51d3e61e9ca13af834342101aae20a2b", "type": "electric_scooter", "is_disabled": 0, "lat": 38.90181483333333, "rental_uris": {"ios": "https://dc.lft.to/lastmile_qr_scan", "android": "https://dc.lft.to/lastmile_qr_scan"}, "is_reserved": 0, "fusion_lon": 0.0, "fusion_lat": 0.0, "lon": -77.02027316666667, "name": "51d3e61e9ca13af834342101aae20a2b"}, {"bike_id": "df9e76b1c72edcb8568397dd6b5eec90", "type": "electric_scooter", "is_disabled": 0, "lat": 38.93931366666666, "rental_uris": {"ios": "https://dc.lft.to/lastmile_qr_scan", "android": "https://dc.lft.to/lastmile_qr_scan"}, "is_reserved": 0, "fusion_lon": 0.0, "fusion_lat": 0.0, "lon": -77.03684983333333, "name": "df9e76b1c72edcb8568397dd6b5eec90"}, {"bike_id": "274ccd82fab1fc401dd392b4417dd8f1", "type": "electric_scooter", "is_disabled": 0, "lat": 38.900536333333335, "rental_uris": {"ios": "https://dc.lft.to/lastmile_qr_scan", "android": "https://dc.lft.to/lastmile_qr_scan"}, "is_reserved": 0, "fusion_lon": 0.0, "fusion_lat": 0.0, "lon": -77.01302266666667, "name": "274ccd82fab1fc401dd392b4417dd8f1"}, {"bike_id": "76002dc45a7041deea613e237555c8d9", "type": "electric_bike", "is_disabled": 0, "lat": 38.932933, "rental_uris": {"ios": "https://dc.lft.to/lastmile_qr_scan", "android": "https://dc.lft.to/lastmile_qr_scan"}, "is_reserved": 0, "fusion_lon": 0.0, "fusion_lat": 0.0, "lon": -77.02063433333333, "name": "76002dc45a7041deea613e237555c8d9"}, {"bike_id": "529d2f35d0c3ef08f507bf8d3f885ea8", "type": "electric_scooter", "is_disabled": 0, "lat": 38.92318216666666, "rental_uris": {"ios": "https://dc.lft.to/lastmile_qr_scan", "android": "https://dc.lft.to/lastmile_qr_scan"}, "is_reserved": 0, "fusion_lon": 0.0, "fusion_lat": 0.0, "lon": -77.04441416666667, "name": "529d2f35d0c3ef08f507bf8d3f885ea8"}, {"bike_id": "5e7e648a62f4e50995d3a717f7395f91", "type": "electric_scooter", "is_disabled": 0, "lat": 38.900254333333336, "rental_uris": {"ios": "https://dc.lft.to/lastmile_qr_scan", "android": "https://dc.lft.to/lastmile_qr_scan"}, "is_reserved": 0, "fusion_lon": 0.0, "fusion_lat": 0.0, "lon": -76.9986445, "name": "5e7e648a62f4e50995d3a717f7395f91"}, {"bike_id": "71f8fac4761f7eafb97f934b7876843f", "type": "electric_scooter", "is_disabled": 0, "lat": 38.94990816666667, "rental_uris": {"ios": "https://dc.lft.to/lastmile_qr_scan", "android": "https://dc.lft.to/lastmile_qr_scan"}, "is_reserved": 0, "fusion_lon": 0.0, "fusion_lat": 0.0, "lon": -77.018327, "name": "71f8fac4761f7eafb97f934b7876843f"}, {"bike_id": "803b591cd4d41e318d985a69d557743e", "type": "electric_scooter", "is_disabled": 0, "lat": 38.90574216666667, "rental_uris": {"ios": "https://dc.lft.to/lastmile_qr_scan", "android": "https://dc.lft.to/lastmile_qr_scan"}, "is_reserved": 0, "fusion_lon": 0.0, "fusion_lat": 0.0, "lon": -77.05136483333334, "name": "803b591cd4d41e318d985a69d557743e"}, {"bike_id": "bf07e438e261ee3a3e1eab430d83831b", "type": "electric_bike", "is_disabled": 0, "lat": 38.895664, "rental_uris": {"ios": "https://dc.lft.to/lastmile_qr_scan", "android": "https://dc.lft.to/lastmile_qr_scan"}, "is_reserved": 0, "fusion_lon": 0.0, "fusion_lat": 0.0, "lon": -77.1273925, "name": "bf07e438e261ee3a3e1eab430d83831b"}, {"bike_id": "bfa9b68f55f3bba7364ac6dffe6c114a", "type": "electric_scooter", "is_disabled": 0, "lat": 38.91111733333334, "rental_uris": {"ios": "https://dc.lft.to/lastmile_qr_scan", "android": "https://dc.lft.to/lastmile_qr_scan"}, "is_reserved": 0, "fusion_lon": 0.0, "fusion_lat": 0.0, "lon": -77.0277135, "name": "bfa9b68f55f3bba7364ac6dffe6c114a"}, {"bike_id": "b099a93e7ccc3c54ea0572ade64e2248", "type": "electric_scooter", "is_disabled": 0, "lat": 38.917582833333334, "rental_uris": {"ios": "https://dc.lft.to/lastmile_qr_scan", "android": "https://dc.lft.to/lastmile_qr_scan"}, "is_reserved": 0, "fusion_lon": 0.0, "fusion_lat": 0.0, "lon": -77.04038916666667, "name": "b099a93e7ccc3c54ea0572ade64e2248"}, {"bike_id": "383f8fca17aa77b966ae7a76ae7bd30c", "type": "electric_scooter", "is_disabled": 0, "lat": 38.876732, "rental_uris": {"ios": "https://dc.lft.to/lastmile_qr_scan", "android": "https://dc.lft.to/lastmile_qr_scan"}, "is_reserved": 0, "fusion_lon": 0.0, "fusion_lat": 0.0, "lon": -77.000509, "name": "383f8fca17aa77b966ae7a76ae7bd30c"}, {"bike_id": "f1818b0f3ac0da16adfce291903e9fb7", "type": "electric_scooter", "is_disabled": 0, "lat": 38.900649333333334, "rental_uris": {"ios": "https://dc.lft.to/lastmile_qr_scan", "android": "https://dc.lft.to/lastmile_qr_scan"}, "is_reserved": 0, "fusion_lon": 0.0, "fusion_lat": 0.0, "lon": -76.92736983333333, "name": "f1818b0f3ac0da16adfce291903e9fb7"}, {"bike_id": "ec83cb44751bd42d703ad202b4ecb949", "type": "electric_scooter", "is_disabled": 0, "lat": 38.8762235, "rental_uris": {"ios": "https://dc.lft.to/lastmile_qr_scan", "android": "https://dc.lft.to/lastmile_qr_scan"}, "is_reserved": 0, "fusion_lon": 0.0, "fusion_lat": 0.0, "lon": -76.96523, "name": "ec83cb44751bd42d703ad202b4ecb949"}, {"bike_id": "a4b43901538a94b9e00ca69d6c9851db", "type": "electric_scooter", "is_disabled": 0, "lat": 38.911891, "rental_uris": {"ios": "https://dc.lft.to/lastmile_qr_scan", "android": "https://dc.lft.to/lastmile_qr_scan"}, "is_reserved": 0, "fusion_lon": 0.0, "fusion_lat": 0.0, "lon": -77.03833883333333, "name": "a4b43901538a94b9e00ca69d6c9851db"}, {"bike_id": "32be2594e05fdba9a2cf29c8994a3883", "type": "electric_scooter", "is_disabled": 0, "lat": 38.902485, "rental_uris": {"ios": "https://dc.lft.to/lastmile_qr_scan", "android": "https://dc.lft.to/lastmile_qr_scan"}, "is_reserved": 0, "fusion_lon": 0.0, "fusion_lat": 0.0, "lon": -76.986674, "name": "32be2594e05fdba9a2cf29c8994a3883"}, {"bike_id": "48d1c53e822c7bf5f643c45f6294dca3", "type": "electric_bike", "is_disabled": 0, "lat": 38.8836045, "rental_uris": {"ios": "https://dc.lft.to/lastmile_qr_scan", "android": "https://dc.lft.to/lastmile_qr_scan"}, "is_reserved": 0, "fusion_lon": 0.0, "fusion_lat": 0.0, "lon": -77.02431833333333, "name": "48d1c53e822c7bf5f643c45f6294dca3"}, {"bike_id": "8dbe0a7b33ca7c3ef0141ae87985934c", "type": "electric_scooter", "is_disabled": 0, "lat": 38.8853825, "rental_uris": {"ios": "https://dc.lft.to/lastmile_qr_scan", "android": "https://dc.lft.to/lastmile_qr_scan"}, "is_reserved": 0, "fusion_lon": 0.0, "fusion_lat": 0.0, "lon": -77.00584516666666, "name": "8dbe0a7b33ca7c3ef0141ae87985934c"}, {"bike_id": "a7ba53143efaf92344e9dc24c2b134f8", "type": "electric_scooter", "is_disabled": 0, "lat": 38.91328466666667, "rental_uris": {"ios": "https://dc.lft.to/lastmile_qr_scan", "android": "https://dc.lft.to/lastmile_qr_scan"}, "is_reserved": 0, "fusion_lon": 0.0, "fusion_lat": 0.0, "lon": -77.03178983333333, "name": "a7ba53143efaf92344e9dc24c2b134f8"}, {"bike_id": "9984993e9b517d2735837acacf86ccb3", "type": "electric_scooter", "is_disabled": 0, "lat": 38.91689183333333, "rental_uris": {"ios": "https://dc.lft.to/lastmile_qr_scan", "android": "https://dc.lft.to/lastmile_qr_scan"}, "is_reserved": 0, "fusion_lon": 0.0, "fusion_lat": 0.0, "lon": -77.037197, "name": "9984993e9b517d2735837acacf86ccb3"}, {"bike_id": "aabd429d601fa2c7933e59efc64d9bb7", "type": "electric_scooter", "is_disabled": 0, "lat": 38.93332683333333, "rental_uris": {"ios": "https://dc.lft.to/lastmile_qr_scan", "android": "https://dc.lft.to/lastmile_qr_scan"}, "is_reserved": 0, "fusion_lon": 0.0, "fusion_lat": 0.0, "lon": -77.0285865, "name": "aabd429d601fa2c7933e59efc64d9bb7"}, {"bike_id": "bd6e096163ee7a9f38fc98b81b286ea5", "type": "electric_scooter", "is_disabled": 0, "lat": 38.9040155, "rental_uris": {"ios": "https://dc.lft.to/lastmile_qr_scan", "android": "https://dc.lft.to/lastmile_qr_scan"}, "is_reserved": 0, "fusion_lon": 0.0, "fusion_lat": 0.0, "lon": -77.02207783333333, "name": "bd6e096163ee7a9f38fc98b81b286ea5"}, {"bike_id": "a8669c60d2ac23edf552513443628dce", "type": "electric_bike", "is_disabled": 0, "lat": 38.80757766666667, "rental_uris": {"ios": "https://dc.lft.to/lastmile_qr_scan", "android": "https://dc.lft.to/lastmile_qr_scan"}, "is_reserved": 0, "fusion_lon": 0.0, "fusion_lat": 0.0, "lon": -77.09471466666666, "name": "a8669c60d2ac23edf552513443628dce"}, {"bike_id": "d571a4bb8104e978a4dc4705d188b33c", "type": "electric_scooter", "is_disabled": 0, "lat": 38.928823666666666, "rental_uris": {"ios": "https://dc.lft.to/lastmile_qr_scan", "android": "https://dc.lft.to/lastmile_qr_scan"}, "is_reserved": 0, "fusion_lon": 0.0, "fusion_lat": 0.0, "lon": -77.03368166666667, "name": "d571a4bb8104e978a4dc4705d188b33c"}, {"bike_id": "e5a068e6521bba96adb859853948cd1e", "type": "electric_scooter", "is_disabled": 0, "lat": 38.9004185, "rental_uris": {"ios": "https://dc.lft.to/lastmile_qr_scan", "android": "https://dc.lft.to/lastmile_qr_scan"}, "is_reserved": 0, "fusion_lon": 0.0, "fusion_lat": 0.0, "lon": -76.99151333333333, "name": "e5a068e6521bba96adb859853948cd1e"}, {"bike_id": "9d3960212c0d7d51b33ef665f4742962", "type": "electric_scooter", "is_disabled": 0, "lat": 38.914180333333334, "rental_uris": {"ios": "https://dc.lft.to/lastmile_qr_scan", "android": "https://dc.lft.to/lastmile_qr_scan"}, "is_reserved": 0, "fusion_lon": 0.0, "fusion_lat": 0.0, "lon": -77.02178183333334, "name": "9d3960212c0d7d51b33ef665f4742962"}, {"bike_id": "0e8c86b774c5a1373eaea1dc36efecdd", "type": "electric_scooter", "is_disabled": 0, "lat": 38.923626166666665, "rental_uris": {"ios": "https://dc.lft.to/lastmile_qr_scan", "android": "https://dc.lft.to/lastmile_qr_scan"}, "is_reserved": 0, "fusion_lon": 0.0, "fusion_lat": 0.0, "lon": -77.07708983333333, "name": "0e8c86b774c5a1373eaea1dc36efecdd"}, {"bike_id": "8d1a46bc0cf39226414d940af84cf073", "type": "electric_scooter", "is_disabled": 0, "lat": 38.89242866666667, "rental_uris": {"ios": "https://dc.lft.to/lastmile_qr_scan", "android": "https://dc.lft.to/lastmile_qr_scan"}, "is_reserved": 0, "fusion_lon": 0.0, "fusion_lat": 0.0, "lon": -77.04501916666666, "name": "8d1a46bc0cf39226414d940af84cf073"}, {"bike_id": "c2054343164e9143346e62456c51530d", "type": "electric_scooter", "is_disabled": 0, "lat": 38.96605383333333, "rental_uris": {"ios": "https://dc.lft.to/lastmile_qr_scan", "android": "https://dc.lft.to/lastmile_qr_scan"}, "is_reserved": 0, "fusion_lon": 0.0, "fusion_lat": 0.0, "lon": -77.0198195, "name": "c2054343164e9143346e62456c51530d"}, {"bike_id": "1576cf71225e7af1d79a22058e2d6d85", "type": "electric_scooter", "is_disabled": 0, "lat": 38.91423666666667, "rental_uris": {"ios": "https://dc.lft.to/lastmile_qr_scan", "android": "https://dc.lft.to/lastmile_qr_scan"}, "is_reserved": 0, "fusion_lon": 0.0, "fusion_lat": 0.0, "lon": -77.02226683333333, "name": "1576cf71225e7af1d79a22058e2d6d85"}, {"bike_id": "06b8bbdb98759327a1a771630ef076d2", "type": "electric_scooter", "is_disabled": 0, "lat": 38.8995405, "rental_uris": {"ios": "https://dc.lft.to/lastmile_qr_scan", "android": "https://dc.lft.to/lastmile_qr_scan"}, "is_reserved": 0, "fusion_lon": 0.0, "fusion_lat": 0.0, "lon": -77.01976016666667, "name": "06b8bbdb98759327a1a771630ef076d2"}, {"bike_id": "fbba56d420426a8d9a74c248d29bf362", "type": "electric_scooter", "is_disabled": 0, "lat": 38.90738116666667, "rental_uris": {"ios": "https://dc.lft.to/lastmile_qr_scan", "android": "https://dc.lft.to/lastmile_qr_scan"}, "is_reserved": 0, "fusion_lon": 0.0, "fusion_lat": 0.0, "lon": -77.02181416666667, "name": "fbba56d420426a8d9a74c248d29bf362"}, {"bike_id": "e1f109e1d539dd240cc8447a2a67e230", "type": "electric_scooter", "is_disabled": 0, "lat": 38.90846066666667, "rental_uris": {"ios": "https://dc.lft.to/lastmile_qr_scan", "android": "https://dc.lft.to/lastmile_qr_scan"}, "is_reserved": 0, "fusion_lon": 0.0, "fusion_lat": 0.0, "lon": -77.02058016666666, "name": "e1f109e1d539dd240cc8447a2a67e230"}, {"bike_id": "e191e9071c23d221dec8fa1c338c14d3", "type": "electric_scooter", "is_disabled": 0, "lat": 38.887179, "rental_uris": {"ios": "https://dc.lft.to/lastmile_qr_scan", "android": "https://dc.lft.to/lastmile_qr_scan"}, "is_reserved": 0, "fusion_lon": 0.0, "fusion_lat": 0.0, "lon": -77.02182633333334, "name": "e191e9071c23d221dec8fa1c338c14d3"}, {"bike_id": "fe1dbb453e6636bbfe50b3dc7295b541", "type": "electric_bike", "is_disabled": 0, "lat": 38.919023833333334, "rental_uris": {"ios": "https://dc.lft.to/lastmile_qr_scan", "android": "https://dc.lft.to/lastmile_qr_scan"}, "is_reserved": 0, "fusion_lon": 0.0, "fusion_lat": 0.0, "lon": -77.00061183333334, "name": "fe1dbb453e6636bbfe50b3dc7295b541"}, {"bike_id": "561bd30b429044f099db6c942ecaf5ad", "type": "electric_scooter", "is_disabled": 0, "lat": 38.86635116666667, "rental_uris": {"ios": "https://dc.lft.to/lastmile_qr_scan", "android": "https://dc.lft.to/lastmile_qr_scan"}, "is_reserved": 0, "fusion_lon": 0.0, "fusion_lat": 0.0, "lon": -76.98909933333333, "name": "561bd30b429044f099db6c942ecaf5ad"}, {"bike_id": "5fefa05f796307e32c51fdf92fbfdb71", "type": "electric_scooter", "is_disabled": 0, "lat": 38.91556416666667, "rental_uris": {"ios": "https://dc.lft.to/lastmile_qr_scan", "android": "https://dc.lft.to/lastmile_qr_scan"}, "is_reserved": 0, "fusion_lon": 0.0, "fusion_lat": 0.0, "lon": -77.02138983333333, "name": "5fefa05f796307e32c51fdf92fbfdb71"}, {"bike_id": "f4cd5f71af0e21a23d6d56ea73387ff2", "type": "electric_scooter", "is_disabled": 0, "lat": 38.915431166666664, "rental_uris": {"ios": "https://dc.lft.to/lastmile_qr_scan", "android": "https://dc.lft.to/lastmile_qr_scan"}, "is_reserved": 0, "fusion_lon": 0.0, "fusion_lat": 0.0, "lon": -77.02006016666667, "name": "f4cd5f71af0e21a23d6d56ea73387ff2"}, {"bike_id": "1d4746798187cfd3fd76d2690535da4d", "type": "electric_scooter", "is_disabled": 0, "lat": 38.884296166666665, "rental_uris": {"ios": "https://dc.lft.to/lastmile_qr_scan", "android": "https://dc.lft.to/lastmile_qr_scan"}, "is_reserved": 0, "fusion_lon": 0.0, "fusion_lat": 0.0, "lon": -76.95757566666667, "name": "1d4746798187cfd3fd76d2690535da4d"}, {"bike_id": "729639452a0582795e315812fdeacb24", "type": "electric_scooter", "is_disabled": 0, "lat": 38.91687833333334, "rental_uris": {"ios": "https://dc.lft.to/lastmile_qr_scan", "android": "https://dc.lft.to/lastmile_qr_scan"}, "is_reserved": 0, "fusion_lon": 0.0, "fusion_lat": 0.0, "lon": -77.03870966666666, "name": "729639452a0582795e315812fdeacb24"}, {"bike_id": "53173eb2b54f4abc8583bc55e7bdc544", "type": "electric_scooter", "is_disabled": 0, "lat": 38.926286833333336, "rental_uris": {"ios": "https://dc.lft.to/lastmile_qr_scan", "android": "https://dc.lft.to/lastmile_qr_scan"}, "is_reserved": 0, "fusion_lon": 0.0, "fusion_lat": 0.0, "lon": -77.03707583333333, "name": "53173eb2b54f4abc8583bc55e7bdc544"}, {"bike_id": "db2e8c8cc31f994104199787c68cffc5", "type": "electric_scooter", "is_disabled": 0, "lat": 38.9150285, "rental_uris": {"ios": "https://dc.lft.to/lastmile_qr_scan", "android": "https://dc.lft.to/lastmile_qr_scan"}, "is_reserved": 0, "fusion_lon": 0.0, "fusion_lat": 0.0, "lon": -77.03185583333334, "name": "db2e8c8cc31f994104199787c68cffc5"}, {"bike_id": "a5e0027ffb261d3a27eda54da26e2401", "type": "electric_scooter", "is_disabled": 0, "lat": 38.9027025, "rental_uris": {"ios": "https://dc.lft.to/lastmile_qr_scan", "android": "https://dc.lft.to/lastmile_qr_scan"}, "is_reserved": 0, "fusion_lon": 0.0, "fusion_lat": 0.0, "lon": -77.03585516666666, "name": "a5e0027ffb261d3a27eda54da26e2401"}, {"bike_id": "d392d43877327f76228aceb9458d8de0", "type": "electric_bike", "is_disabled": 0, "lat": 38.803952833333334, "rental_uris": {"ios": "https://dc.lft.to/lastmile_qr_scan", "android": "https://dc.lft.to/lastmile_qr_scan"}, "is_reserved": 0, "fusion_lon": 0.0, "fusion_lat": 0.0, "lon": -77.055648, "name": "d392d43877327f76228aceb9458d8de0"}, {"bike_id": "852299e666a8ac77b56e2b82f815c598", "type": "electric_scooter", "is_disabled": 0, "lat": 38.908115333333335, "rental_uris": {"ios": "https://dc.lft.to/lastmile_qr_scan", "android": "https://dc.lft.to/lastmile_qr_scan"}, "is_reserved": 0, "fusion_lon": 0.0, "fusion_lat": 0.0, "lon": -77.02601533333333, "name": "852299e666a8ac77b56e2b82f815c598"}, {"bike_id": "f4a53e28e71fbfbfb216db45befba558", "type": "electric_scooter", "is_disabled": 0, "lat": 38.90590666666667, "rental_uris": {"ios": "https://dc.lft.to/lastmile_qr_scan", "android": "https://dc.lft.to/lastmile_qr_scan"}, "is_reserved": 0, "fusion_lon": 0.0, "fusion_lat": 0.0, "lon": -77.04173383333334, "name": "f4a53e28e71fbfbfb216db45befba558"}, {"bike_id": "696f25de6a7d82e31023afcf5e1daccb", "type": "electric_scooter", "is_disabled": 0, "lat": 38.94465483333333, "rental_uris": {"ios": "https://dc.lft.to/lastmile_qr_scan", "android": "https://dc.lft.to/lastmile_qr_scan"}, "is_reserved": 0, "fusion_lon": 0.0, "fusion_lat": 0.0, "lon": -77.0234, "name": "696f25de6a7d82e31023afcf5e1daccb"}, {"bike_id": "90409b902a321f36644b4bb9a08a17ee", "type": "electric_scooter", "is_disabled": 0, "lat": 38.90084233333333, "rental_uris": {"ios": "https://dc.lft.to/lastmile_qr_scan", "android": "https://dc.lft.to/lastmile_qr_scan"}, "is_reserved": 0, "fusion_lon": 0.0, "fusion_lat": 0.0, "lon": -77.05063283333334, "name": "90409b902a321f36644b4bb9a08a17ee"}, {"bike_id": "82e5775a65abf96931c9730978380fc2", "type": "electric_scooter", "is_disabled": 0, "lat": 38.91414233333333, "rental_uris": {"ios": "https://dc.lft.to/lastmile_qr_scan", "android": "https://dc.lft.to/lastmile_qr_scan"}, "is_reserved": 0, "fusion_lon": 0.0, "fusion_lat": 0.0, "lon": -77.02184033333333, "name": "82e5775a65abf96931c9730978380fc2"}, {"bike_id": "d783fce734c20a5f8a1607cd7eb33f3d", "type": "electric_scooter", "is_disabled": 0, "lat": 38.8970355, "rental_uris": {"ios": "https://dc.lft.to/lastmile_qr_scan", "android": "https://dc.lft.to/lastmile_qr_scan"}, "is_reserved": 0, "fusion_lon": 0.0, "fusion_lat": 0.0, "lon": -76.92997716666666, "name": "d783fce734c20a5f8a1607cd7eb33f3d"}, {"bike_id": "6b3d8730c1e1805c103d60f42143cbbb", "type": "electric_scooter", "is_disabled": 0, "lat": 38.87889166666667, "rental_uris": {"ios": "https://dc.lft.to/lastmile_qr_scan", "android": "https://dc.lft.to/lastmile_qr_scan"}, "is_reserved": 0, "fusion_lon": 0.0, "fusion_lat": 0.0, "lon": -76.99154233333333, "name": "6b3d8730c1e1805c103d60f42143cbbb"}, {"bike_id": "fe193cffc09ee0941d52fb04ba8f7833", "type": "electric_scooter", "is_disabled": 0, "lat": 38.907535333333335, "rental_uris": {"ios": "https://dc.lft.to/lastmile_qr_scan", "android": "https://dc.lft.to/lastmile_qr_scan"}, "is_reserved": 0, "fusion_lon": 0.0, "fusion_lat": 0.0, "lon": -77.04237816666667, "name": "fe193cffc09ee0941d52fb04ba8f7833"}, {"bike_id": "241a14e5a01b857c6db579a7bcdb5d73", "type": "electric_scooter", "is_disabled": 0, "lat": 38.88208616666667, "rental_uris": {"ios": "https://dc.lft.to/lastmile_qr_scan", "android": "https://dc.lft.to/lastmile_qr_scan"}, "is_reserved": 0, "fusion_lon": 0.0, "fusion_lat": 0.0, "lon": -77.02904433333333, "name": "241a14e5a01b857c6db579a7bcdb5d73"}, {"bike_id": "4bdb91378db1057e41d61a0a973b186c", "type": "electric_bike", "is_disabled": 0, "lat": 38.8651595, "rental_uris": {"ios": "https://dc.lft.to/lastmile_qr_scan", "android": "https://dc.lft.to/lastmile_qr_scan"}, "is_reserved": 0, "fusion_lon": 0.0, "fusion_lat": 0.0, "lon": -77.1293915, "name": "4bdb91378db1057e41d61a0a973b186c"}, {"bike_id": "b63f2fd9be43e9d901c58565054e3534", "type": "electric_scooter", "is_disabled": 0, "lat": 38.90566966666667, "rental_uris": {"ios": "https://dc.lft.to/lastmile_qr_scan", "android": "https://dc.lft.to/lastmile_qr_scan"}, "is_reserved": 0, "fusion_lon": 0.0, "fusion_lat": 0.0, "lon": -76.97787633333333, "name": "b63f2fd9be43e9d901c58565054e3534"}, {"bike_id": "002c0085d4f9eb7958f82b241886ac05", "type": "electric_scooter", "is_disabled": 0, "lat": 38.935613333333336, "rental_uris": {"ios": "https://dc.lft.to/lastmile_qr_scan", "android": "https://dc.lft.to/lastmile_qr_scan"}, "is_reserved": 0, "fusion_lon": 0.0, "fusion_lat": 0.0, "lon": -77.03268533333333, "name": "002c0085d4f9eb7958f82b241886ac05"}, {"bike_id": "a33c8acff48c7ae61e9c396ef5e2e56e", "type": "electric_scooter", "is_disabled": 0, "lat": 38.87757366666666, "rental_uris": {"ios": "https://dc.lft.to/lastmile_qr_scan", "android": "https://dc.lft.to/lastmile_qr_scan"}, "is_reserved": 0, "fusion_lon": 0.0, "fusion_lat": 0.0, "lon": -76.98685116666667, "name": "a33c8acff48c7ae61e9c396ef5e2e56e"}, {"bike_id": "15725609e659280b5b378d47911bd953", "type": "electric_scooter", "is_disabled": 0, "lat": 38.91103233333333, "rental_uris": {"ios": "https://dc.lft.to/lastmile_qr_scan", "android": "https://dc.lft.to/lastmile_qr_scan"}, "is_reserved": 0, "fusion_lon": 0.0, "fusion_lat": 0.0, "lon": -77.04204033333333, "name": "15725609e659280b5b378d47911bd953"}, {"bike_id": "e982ef06a039e8f8e089774114940672", "type": "electric_scooter", "is_disabled": 0, "lat": 38.89569683333333, "rental_uris": {"ios": "https://dc.lft.to/lastmile_qr_scan", "android": "https://dc.lft.to/lastmile_qr_scan"}, "is_reserved": 0, "fusion_lon": 0.0, "fusion_lat": 0.0, "lon": -76.93023483333333, "name": "e982ef06a039e8f8e089774114940672"}, {"bike_id": "144ec8efa8d2912b86fc4d801bb25d64", "type": "electric_scooter", "is_disabled": 0, "lat": 38.9027805, "rental_uris": {"ios": "https://dc.lft.to/lastmile_qr_scan", "android": "https://dc.lft.to/lastmile_qr_scan"}, "is_reserved": 0, "fusion_lon": 0.0, "fusion_lat": 0.0, "lon": -76.97032466666667, "name": "144ec8efa8d2912b86fc4d801bb25d64"}, {"bike_id": "db83c5d93962c78e139c5c37d200af1b", "type": "electric_scooter", "is_disabled": 0, "lat": 38.90012483333334, "rental_uris": {"ios": "https://dc.lft.to/lastmile_qr_scan", "android": "https://dc.lft.to/lastmile_qr_scan"}, "is_reserved": 0, "fusion_lon": 0.0, "fusion_lat": 0.0, "lon": -77.03816433333333, "name": "db83c5d93962c78e139c5c37d200af1b"}, {"bike_id": "999cc35461748ba35b27fc131f510ed5", "type": "electric_scooter", "is_disabled": 0, "lat": 38.91420383333333, "rental_uris": {"ios": "https://dc.lft.to/lastmile_qr_scan", "android": "https://dc.lft.to/lastmile_qr_scan"}, "is_reserved": 0, "fusion_lon": 0.0, "fusion_lat": 0.0, "lon": -77.02410516666667, "name": "999cc35461748ba35b27fc131f510ed5"}, {"bike_id": "ff880b4a59e5b3c035b8deee93f46b23", "type": "electric_scooter", "is_disabled": 0, "lat": 38.921823833333335, "rental_uris": {"ios": "https://dc.lft.to/lastmile_qr_scan", "android": "https://dc.lft.to/lastmile_qr_scan"}, "is_reserved": 0, "fusion_lon": 0.0, "fusion_lat": 0.0, "lon": -77.02670116666667, "name": "ff880b4a59e5b3c035b8deee93f46b23"}, {"bike_id": "4ff415967c87a56f6d3eb32a8cce77ec", "type": "electric_scooter", "is_disabled": 0, "lat": 38.920038, "rental_uris": {"ios": "https://dc.lft.to/lastmile_qr_scan", "android": "https://dc.lft.to/lastmile_qr_scan"}, "is_reserved": 0, "fusion_lon": 0.0, "fusion_lat": 0.0, "lon": -77.0317325, "name": "4ff415967c87a56f6d3eb32a8cce77ec"}, {"bike_id": "55750c80c5579b04fdf82955c5383caf", "type": "electric_scooter", "is_disabled": 0, "lat": 38.93992266666667, "rental_uris": {"ios": "https://dc.lft.to/lastmile_qr_scan", "android": "https://dc.lft.to/lastmile_qr_scan"}, "is_reserved": 0, "fusion_lon": 0.0, "fusion_lat": 0.0, "lon": -77.01692883333334, "name": "55750c80c5579b04fdf82955c5383caf"}, {"bike_id": "4f6c23a85ec5b2b9cbc33df9f54eb0e9", "type": "electric_scooter", "is_disabled": 0, "lat": 38.9186175, "rental_uris": {"ios": "https://dc.lft.to/lastmile_qr_scan", "android": "https://dc.lft.to/lastmile_qr_scan"}, "is_reserved": 0, "fusion_lon": 0.0, "fusion_lat": 0.0, "lon": -77.035159, "name": "4f6c23a85ec5b2b9cbc33df9f54eb0e9"}, {"bike_id": "06fab41d4a8745c86b92157758f883d1", "type": "electric_bike", "is_disabled": 0, "lat": 38.8324475, "rental_uris": {"ios": "https://dc.lft.to/lastmile_qr_scan", "android": "https://dc.lft.to/lastmile_qr_scan"}, "is_reserved": 0, "fusion_lon": 0.0, "fusion_lat": 0.0, "lon": -76.94628783333333, "name": "06fab41d4a8745c86b92157758f883d1"}, {"bike_id": "8024dbf648062c5f4a84e153728db3f5", "type": "electric_bike", "is_disabled": 0, "lat": 39.034234833333336, "rental_uris": {"ios": "https://dc.lft.to/lastmile_qr_scan", "android": "https://dc.lft.to/lastmile_qr_scan"}, "is_reserved": 0, "fusion_lon": 0.0, "fusion_lat": 0.0, "lon": -77.04312183333333, "name": "8024dbf648062c5f4a84e153728db3f5"}, {"bike_id": "5879d7fd1dc7b2309e451a16324d9bc1", "type": "electric_scooter", "is_disabled": 0, "lat": 38.898168166666665, "rental_uris": {"ios": "https://dc.lft.to/lastmile_qr_scan", "android": "https://dc.lft.to/lastmile_qr_scan"}, "is_reserved": 0, "fusion_lon": 0.0, "fusion_lat": 0.0, "lon": -77.03053683333333, "name": "5879d7fd1dc7b2309e451a16324d9bc1"}, {"bike_id": "8a2cdda822b21b5813ace1f9cb49c28e", "type": "electric_scooter", "is_disabled": 0, "lat": 38.914812, "rental_uris": {"ios": "https://dc.lft.to/lastmile_qr_scan", "android": "https://dc.lft.to/lastmile_qr_scan"}, "is_reserved": 0, "fusion_lon": 0.0, "fusion_lat": 0.0, "lon": -77.0219415, "name": "8a2cdda822b21b5813ace1f9cb49c28e"}, {"bike_id": "dc8b0befc84dd70788cbbbfd82ce9b7f", "type": "electric_scooter", "is_disabled": 0, "lat": 38.927212, "rental_uris": {"ios": "https://dc.lft.to/lastmile_qr_scan", "android": "https://dc.lft.to/lastmile_qr_scan"}, "is_reserved": 0, "fusion_lon": 0.0, "fusion_lat": 0.0, "lon": -77.02085133333334, "name": "dc8b0befc84dd70788cbbbfd82ce9b7f"}, {"bike_id": "c4c3ba250fb7470c2f1996febf20e7c0", "type": "electric_scooter", "is_disabled": 0, "lat": 38.90555833333333, "rental_uris": {"ios": "https://dc.lft.to/lastmile_qr_scan", "android": "https://dc.lft.to/lastmile_qr_scan"}, "is_reserved": 0, "fusion_lon": 0.0, "fusion_lat": 0.0, "lon": -77.00586133333333, "name": "c4c3ba250fb7470c2f1996febf20e7c0"}, {"bike_id": "ba9a0aca5030e350fc92750a66219a80", "type": "electric_scooter", "is_disabled": 0, "lat": 38.91550083333333, "rental_uris": {"ios": "https://dc.lft.to/lastmile_qr_scan", "android": "https://dc.lft.to/lastmile_qr_scan"}, "is_reserved": 0, "fusion_lon": 0.0, "fusion_lat": 0.0, "lon": -77.03855483333334, "name": "ba9a0aca5030e350fc92750a66219a80"}, {"bike_id": "9b5f12cd81f8ae6b90ea961eecfb5913", "type": "electric_scooter", "is_disabled": 0, "lat": 38.92010716666667, "rental_uris": {"ios": "https://dc.lft.to/lastmile_qr_scan", "android": "https://dc.lft.to/lastmile_qr_scan"}, "is_reserved": 0, "fusion_lon": 0.0, "fusion_lat": 0.0, "lon": -77.03190083333334, "name": "9b5f12cd81f8ae6b90ea961eecfb5913"}, {"bike_id": "51b05da3690fcf70dbfc297e370faa10", "type": "electric_scooter", "is_disabled": 0, "lat": 38.90724183333333, "rental_uris": {"ios": "https://dc.lft.to/lastmile_qr_scan", "android": "https://dc.lft.to/lastmile_qr_scan"}, "is_reserved": 0, "fusion_lon": 0.0, "fusion_lat": 0.0, "lon": -77.025206, "name": "51b05da3690fcf70dbfc297e370faa10"}, {"bike_id": "bec694c017a03e0d8b62242ad40ebaf2", "type": "electric_scooter", "is_disabled": 0, "lat": 38.971988333333336, "rental_uris": {"ios": "https://dc.lft.to/lastmile_qr_scan", "android": "https://dc.lft.to/lastmile_qr_scan"}, "is_reserved": 0, "fusion_lon": 0.0, "fusion_lat": 0.0, "lon": -77.02656516666667, "name": "bec694c017a03e0d8b62242ad40ebaf2"}, {"bike_id": "b1dd1b0177d2e07a85e1989435b6bcbb", "type": "electric_scooter", "is_disabled": 0, "lat": 38.9336255, "rental_uris": {"ios": "https://dc.lft.to/lastmile_qr_scan", "android": "https://dc.lft.to/lastmile_qr_scan"}, "is_reserved": 0, "fusion_lon": 0.0, "fusion_lat": 0.0, "lon": -77.08853983333333, "name": "b1dd1b0177d2e07a85e1989435b6bcbb"}, {"bike_id": "659c1eef0421ff3ea7ad5cafa498adea", "type": "electric_scooter", "is_disabled": 0, "lat": 38.905835333333336, "rental_uris": {"ios": "https://dc.lft.to/lastmile_qr_scan", "android": "https://dc.lft.to/lastmile_qr_scan"}, "is_reserved": 0, "fusion_lon": 0.0, "fusion_lat": 0.0, "lon": -77.04167733333334, "name": "659c1eef0421ff3ea7ad5cafa498adea"}, {"bike_id": "bf5988f52fac5f2c8de10a30e9a5f611", "type": "electric_scooter", "is_disabled": 0, "lat": 38.900384, "rental_uris": {"ios": "https://dc.lft.to/lastmile_qr_scan", "android": "https://dc.lft.to/lastmile_qr_scan"}, "is_reserved": 0, "fusion_lon": 0.0, "fusion_lat": 0.0, "lon": -77.01163416666667, "name": "bf5988f52fac5f2c8de10a30e9a5f611"}, {"bike_id": "d5ff4e09d9c079d955fa10a22c64e3ff", "type": "electric_scooter", "is_disabled": 0, "lat": 38.866263000000004, "rental_uris": {"ios": "https://dc.lft.to/lastmile_qr_scan", "android": "https://dc.lft.to/lastmile_qr_scan"}, "is_reserved": 0, "fusion_lon": 0.0, "fusion_lat": 0.0, "lon": -76.9871635, "name": "d5ff4e09d9c079d955fa10a22c64e3ff"}, {"bike_id": "ad6e310bb17d1fc9dd1480b4ca572b18", "type": "electric_scooter", "is_disabled": 0, "lat": 38.906535166666664, "rental_uris": {"ios": "https://dc.lft.to/lastmile_qr_scan", "android": "https://dc.lft.to/lastmile_qr_scan"}, "is_reserved": 0, "fusion_lon": 0.0, "fusion_lat": 0.0, "lon": -77.0487575, "name": "ad6e310bb17d1fc9dd1480b4ca572b18"}, {"bike_id": "64aa7c3b4e98880a1eb2c31e321d8662", "type": "electric_scooter", "is_disabled": 0, "lat": 38.89699433333333, "rental_uris": {"ios": "https://dc.lft.to/lastmile_qr_scan", "android": "https://dc.lft.to/lastmile_qr_scan"}, "is_reserved": 0, "fusion_lon": 0.0, "fusion_lat": 0.0, "lon": -77.023027, "name": "64aa7c3b4e98880a1eb2c31e321d8662"}, {"bike_id": "6722bad9a334815cc73a819ebef3b9b7", "type": "electric_scooter", "is_disabled": 0, "lat": 38.923367666666664, "rental_uris": {"ios": "https://dc.lft.to/lastmile_qr_scan", "android": "https://dc.lft.to/lastmile_qr_scan"}, "is_reserved": 0, "fusion_lon": 0.0, "fusion_lat": 0.0, "lon": -77.03520633333333, "name": "6722bad9a334815cc73a819ebef3b9b7"}, {"bike_id": "4702b5bfe4db632ff2bc97e49fd5de5f", "type": "electric_scooter", "is_disabled": 0, "lat": 38.905529, "rental_uris": {"ios": "https://dc.lft.to/lastmile_qr_scan", "android": "https://dc.lft.to/lastmile_qr_scan"}, "is_reserved": 0, "fusion_lon": 0.0, "fusion_lat": 0.0, "lon": -77.00592383333333, "name": "4702b5bfe4db632ff2bc97e49fd5de5f"}, {"bike_id": "3bdaf835badf770f4633bd99638fcaaa", "type": "electric_scooter", "is_disabled": 0, "lat": 38.913274333333334, "rental_uris": {"ios": "https://dc.lft.to/lastmile_qr_scan", "android": "https://dc.lft.to/lastmile_qr_scan"}, "is_reserved": 0, "fusion_lon": 0.0, "fusion_lat": 0.0, "lon": -77.03183766666666, "name": "3bdaf835badf770f4633bd99638fcaaa"}, {"bike_id": "dd22f12abb59c4d353e36804e04dfb59", "type": "electric_scooter", "is_disabled": 0, "lat": 38.887234, "rental_uris": {"ios": "https://dc.lft.to/lastmile_qr_scan", "android": "https://dc.lft.to/lastmile_qr_scan"}, "is_reserved": 0, "fusion_lon": 0.0, "fusion_lat": 0.0, "lon": -77.02167916666667, "name": "dd22f12abb59c4d353e36804e04dfb59"}, {"bike_id": "1bd5e4bbc0ceb5348967045ec40c3297", "type": "electric_scooter", "is_disabled": 0, "lat": 38.925366833333335, "rental_uris": {"ios": "https://dc.lft.to/lastmile_qr_scan", "android": "https://dc.lft.to/lastmile_qr_scan"}, "is_reserved": 0, "fusion_lon": 0.0, "fusion_lat": 0.0, "lon": -77.03381616666667, "name": "1bd5e4bbc0ceb5348967045ec40c3297"}, {"bike_id": "317b3844ebba52a50742f0e687819a58", "type": "electric_scooter", "is_disabled": 0, "lat": 38.9083615, "rental_uris": {"ios": "https://dc.lft.to/lastmile_qr_scan", "android": "https://dc.lft.to/lastmile_qr_scan"}, "is_reserved": 0, "fusion_lon": 0.0, "fusion_lat": 0.0, "lon": -76.99689316666667, "name": "317b3844ebba52a50742f0e687819a58"}, {"bike_id": "f7f8065560b37172673da5e33e00ac58", "type": "electric_scooter", "is_disabled": 0, "lat": 38.9170695, "rental_uris": {"ios": "https://dc.lft.to/lastmile_qr_scan", "android": "https://dc.lft.to/lastmile_qr_scan"}, "is_reserved": 0, "fusion_lon": 0.0, "fusion_lat": 0.0, "lon": -77.04607333333334, "name": "f7f8065560b37172673da5e33e00ac58"}, {"bike_id": "74361dc912e47922bfc90578b07827a2", "type": "electric_scooter", "is_disabled": 0, "lat": 38.932508166666665, "rental_uris": {"ios": "https://dc.lft.to/lastmile_qr_scan", "android": "https://dc.lft.to/lastmile_qr_scan"}, "is_reserved": 0, "fusion_lon": 0.0, "fusion_lat": 0.0, "lon": -76.99512816666666, "name": "74361dc912e47922bfc90578b07827a2"}, {"bike_id": "3f64c09cfd83475d39bc400d3bba1bd9", "type": "electric_scooter", "is_disabled": 0, "lat": 38.9074505, "rental_uris": {"ios": "https://dc.lft.to/lastmile_qr_scan", "android": "https://dc.lft.to/lastmile_qr_scan"}, "is_reserved": 0, "fusion_lon": 0.0, "fusion_lat": 0.0, "lon": -77.04194083333333, "name": "3f64c09cfd83475d39bc400d3bba1bd9"}, {"bike_id": "556eb701d331f0f8972c91374306bded", "type": "electric_scooter", "is_disabled": 0, "lat": 38.929732666666666, "rental_uris": {"ios": "https://dc.lft.to/lastmile_qr_scan", "android": "https://dc.lft.to/lastmile_qr_scan"}, "is_reserved": 0, "fusion_lon": 0.0, "fusion_lat": 0.0, "lon": -77.03189733333333, "name": "556eb701d331f0f8972c91374306bded"}, {"bike_id": "dcb9c06b620630311e7fe4ec6616453b", "type": "electric_scooter", "is_disabled": 0, "lat": 38.9221895, "rental_uris": {"ios": "https://dc.lft.to/lastmile_qr_scan", "android": "https://dc.lft.to/lastmile_qr_scan"}, "is_reserved": 0, "fusion_lon": 0.0, "fusion_lat": 0.0, "lon": -77.03457066666667, "name": "dcb9c06b620630311e7fe4ec6616453b"}, {"bike_id": "89e1f28ce4a32e42debc377f3fd0f99f", "type": "electric_scooter", "is_disabled": 0, "lat": 38.90293066666667, "rental_uris": {"ios": "https://dc.lft.to/lastmile_qr_scan", "android": "https://dc.lft.to/lastmile_qr_scan"}, "is_reserved": 0, "fusion_lon": 0.0, "fusion_lat": 0.0, "lon": -76.9763235, "name": "89e1f28ce4a32e42debc377f3fd0f99f"}, {"bike_id": "f136bc9763e97c05b338d216d545823e", "type": "electric_bike", "is_disabled": 0, "lat": 39.03985733333333, "rental_uris": {"ios": "https://dc.lft.to/lastmile_qr_scan", "android": "https://dc.lft.to/lastmile_qr_scan"}, "is_reserved": 0, "fusion_lon": 0.0, "fusion_lat": 0.0, "lon": -76.99929516666667, "name": "f136bc9763e97c05b338d216d545823e"}, {"bike_id": "70999113b24e8110b70ce5137d4b2731", "type": "electric_scooter", "is_disabled": 0, "lat": 38.900725, "rental_uris": {"ios": "https://dc.lft.to/lastmile_qr_scan", "android": "https://dc.lft.to/lastmile_qr_scan"}, "is_reserved": 0, "fusion_lon": 0.0, "fusion_lat": 0.0, "lon": -77.03638133333334, "name": "70999113b24e8110b70ce5137d4b2731"}, {"bike_id": "1edc4bdee0dca0dfa40652734f3d240c", "type": "electric_scooter", "is_disabled": 0, "lat": 38.89295466666667, "rental_uris": {"ios": "https://dc.lft.to/lastmile_qr_scan", "android": "https://dc.lft.to/lastmile_qr_scan"}, "is_reserved": 0, "fusion_lon": 0.0, "fusion_lat": 0.0, "lon": -77.04874033333333, "name": "1edc4bdee0dca0dfa40652734f3d240c"}, {"bike_id": "0eedd985e51ab705e62c4b3210b180e8", "type": "electric_scooter", "is_disabled": 0, "lat": 38.92241516666667, "rental_uris": {"ios": "https://dc.lft.to/lastmile_qr_scan", "android": "https://dc.lft.to/lastmile_qr_scan"}, "is_reserved": 0, "fusion_lon": 0.0, "fusion_lat": 0.0, "lon": -77.03660533333333, "name": "0eedd985e51ab705e62c4b3210b180e8"}, {"bike_id": "e77612b1ea1c1a0051161875b1680f4f", "type": "electric_scooter", "is_disabled": 0, "lat": 38.909167, "rental_uris": {"ios": "https://dc.lft.to/lastmile_qr_scan", "android": "https://dc.lft.to/lastmile_qr_scan"}, "is_reserved": 0, "fusion_lon": 0.0, "fusion_lat": 0.0, "lon": -76.99970383333333, "name": "e77612b1ea1c1a0051161875b1680f4f"}, {"bike_id": "21513c6a33e464be9e870260fde48a21", "type": "electric_scooter", "is_disabled": 0, "lat": 38.91708583333333, "rental_uris": {"ios": "https://dc.lft.to/lastmile_qr_scan", "android": "https://dc.lft.to/lastmile_qr_scan"}, "is_reserved": 0, "fusion_lon": 0.0, "fusion_lat": 0.0, "lon": -77.03210466666667, "name": "21513c6a33e464be9e870260fde48a21"}, {"bike_id": "a003693be5bcd116cb37dfc6757653c4", "type": "electric_scooter", "is_disabled": 0, "lat": 38.90721216666667, "rental_uris": {"ios": "https://dc.lft.to/lastmile_qr_scan", "android": "https://dc.lft.to/lastmile_qr_scan"}, "is_reserved": 0, "fusion_lon": 0.0, "fusion_lat": 0.0, "lon": -77.0225095, "name": "a003693be5bcd116cb37dfc6757653c4"}, {"bike_id": "a2f7982a5b1884ae2d247066a4461a52", "type": "electric_scooter", "is_disabled": 0, "lat": 38.892273333333335, "rental_uris": {"ios": "https://dc.lft.to/lastmile_qr_scan", "android": "https://dc.lft.to/lastmile_qr_scan"}, "is_reserved": 0, "fusion_lon": 0.0, "fusion_lat": 0.0, "lon": -77.03166966666667, "name": "a2f7982a5b1884ae2d247066a4461a52"}, {"bike_id": "44649e80a8eadcde9800db32f1ef9e2e", "type": "electric_scooter", "is_disabled": 0, "lat": 38.917865666666664, "rental_uris": {"ios": "https://dc.lft.to/lastmile_qr_scan", "android": "https://dc.lft.to/lastmile_qr_scan"}, "is_reserved": 0, "fusion_lon": 0.0, "fusion_lat": 0.0, "lon": -77.023094, "name": "44649e80a8eadcde9800db32f1ef9e2e"}, {"bike_id": "d0a4919995b4b91f3c073630fd750bdd", "type": "electric_scooter", "is_disabled": 0, "lat": 38.866855666666666, "rental_uris": {"ios": "https://dc.lft.to/lastmile_qr_scan", "android": "https://dc.lft.to/lastmile_qr_scan"}, "is_reserved": 0, "fusion_lon": 0.0, "fusion_lat": 0.0, "lon": -76.9857585, "name": "d0a4919995b4b91f3c073630fd750bdd"}, {"bike_id": "84b8123ba040cf38b47d2cc5bbc3f278", "type": "electric_scooter", "is_disabled": 0, "lat": 38.9192845, "rental_uris": {"ios": "https://dc.lft.to/lastmile_qr_scan", "android": "https://dc.lft.to/lastmile_qr_scan"}, "is_reserved": 0, "fusion_lon": 0.0, "fusion_lat": 0.0, "lon": -77.0317915, "name": "84b8123ba040cf38b47d2cc5bbc3f278"}, {"bike_id": "a57b5e426f30ad7959b7b8315db9887f", "type": "electric_scooter", "is_disabled": 0, "lat": 38.9274755, "rental_uris": {"ios": "https://dc.lft.to/lastmile_qr_scan", "android": "https://dc.lft.to/lastmile_qr_scan"}, "is_reserved": 0, "fusion_lon": 0.0, "fusion_lat": 0.0, "lon": -77.02532783333334, "name": "a57b5e426f30ad7959b7b8315db9887f"}, {"bike_id": "434b1d91758dc892625ffe903de4be57", "type": "electric_scooter", "is_disabled": 0, "lat": 38.92590916666666, "rental_uris": {"ios": "https://dc.lft.to/lastmile_qr_scan", "android": "https://dc.lft.to/lastmile_qr_scan"}, "is_reserved": 0, "fusion_lon": 0.0, "fusion_lat": 0.0, "lon": -77.004876, "name": "434b1d91758dc892625ffe903de4be57"}, {"bike_id": "5a759c747027da25af1bc99cb919ad1c", "type": "electric_scooter", "is_disabled": 0, "lat": 38.88848866666667, "rental_uris": {"ios": "https://dc.lft.to/lastmile_qr_scan", "android": "https://dc.lft.to/lastmile_qr_scan"}, "is_reserved": 0, "fusion_lon": 0.0, "fusion_lat": 0.0, "lon": -76.92679183333334, "name": "5a759c747027da25af1bc99cb919ad1c"}, {"bike_id": "52e17db2ad34454e100540d79033e7d2", "type": "electric_scooter", "is_disabled": 0, "lat": 38.87865433333333, "rental_uris": {"ios": "https://dc.lft.to/lastmile_qr_scan", "android": "https://dc.lft.to/lastmile_qr_scan"}, "is_reserved": 0, "fusion_lon": 0.0, "fusion_lat": 0.0, "lon": -76.96982333333334, "name": "52e17db2ad34454e100540d79033e7d2"}, {"bike_id": "5032a18a4c3ac36046deb43a92196642", "type": "electric_bike", "is_disabled": 0, "lat": 38.934869166666665, "rental_uris": {"ios": "https://dc.lft.to/lastmile_qr_scan", "android": "https://dc.lft.to/lastmile_qr_scan"}, "is_reserved": 0, "fusion_lon": 0.0, "fusion_lat": 0.0, "lon": -77.03010383333333, "name": "5032a18a4c3ac36046deb43a92196642"}, {"bike_id": "78dec8ed3540008e4a13bf8efb3c8bfc", "type": "electric_scooter", "is_disabled": 0, "lat": 38.91969183333333, "rental_uris": {"ios": "https://dc.lft.to/lastmile_qr_scan", "android": "https://dc.lft.to/lastmile_qr_scan"}, "is_reserved": 0, "fusion_lon": 0.0, "fusion_lat": 0.0, "lon": -77.04077983333333, "name": "78dec8ed3540008e4a13bf8efb3c8bfc"}, {"bike_id": "5197c6fc99e05640c493443213297b99", "type": "electric_scooter", "is_disabled": 0, "lat": 38.8874605, "rental_uris": {"ios": "https://dc.lft.to/lastmile_qr_scan", "android": "https://dc.lft.to/lastmile_qr_scan"}, "is_reserved": 0, "fusion_lon": 0.0, "fusion_lat": 0.0, "lon": -77.02564716666667, "name": "5197c6fc99e05640c493443213297b99"}, {"bike_id": "0179ba48809da98fd43bc12d8146ae65", "type": "electric_scooter", "is_disabled": 0, "lat": 38.905392666666664, "rental_uris": {"ios": "https://dc.lft.to/lastmile_qr_scan", "android": "https://dc.lft.to/lastmile_qr_scan"}, "is_reserved": 0, "fusion_lon": 0.0, "fusion_lat": 0.0, "lon": -77.016988, "name": "0179ba48809da98fd43bc12d8146ae65"}, {"bike_id": "db4c2dcffa83607b25c7a4437cda78b9", "type": "electric_scooter", "is_disabled": 0, "lat": 38.874217333333334, "rental_uris": {"ios": "https://dc.lft.to/lastmile_qr_scan", "android": "https://dc.lft.to/lastmile_qr_scan"}, "is_reserved": 0, "fusion_lon": 0.0, "fusion_lat": 0.0, "lon": -76.96905966666667, "name": "db4c2dcffa83607b25c7a4437cda78b9"}, {"bike_id": "2d45f75810abe8168629d1cf81854140", "type": "electric_scooter", "is_disabled": 0, "lat": 38.929167, "rental_uris": {"ios": "https://dc.lft.to/lastmile_qr_scan", "android": "https://dc.lft.to/lastmile_qr_scan"}, "is_reserved": 0, "fusion_lon": 0.0, "fusion_lat": 0.0, "lon": -77.02093483333333, "name": "2d45f75810abe8168629d1cf81854140"}, {"bike_id": "5076a19ce410929f43acdfe966dd0100", "type": "electric_scooter", "is_disabled": 0, "lat": 38.84638483333333, "rental_uris": {"ios": "https://dc.lft.to/lastmile_qr_scan", "android": "https://dc.lft.to/lastmile_qr_scan"}, "is_reserved": 0, "fusion_lon": 0.0, "fusion_lat": 0.0, "lon": -76.991298, "name": "5076a19ce410929f43acdfe966dd0100"}, {"bike_id": "b51abac5c451a9573383be275820f4cd", "type": "electric_scooter", "is_disabled": 0, "lat": 38.918336333333336, "rental_uris": {"ios": "https://dc.lft.to/lastmile_qr_scan", "android": "https://dc.lft.to/lastmile_qr_scan"}, "is_reserved": 0, "fusion_lon": 0.0, "fusion_lat": 0.0, "lon": -77.0393885, "name": "b51abac5c451a9573383be275820f4cd"}, {"bike_id": "96fa5ed907f0ff7924adb02d487bc3cb", "type": "electric_scooter", "is_disabled": 0, "lat": 38.905797166666666, "rental_uris": {"ios": "https://dc.lft.to/lastmile_qr_scan", "android": "https://dc.lft.to/lastmile_qr_scan"}, "is_reserved": 0, "fusion_lon": 0.0, "fusion_lat": 0.0, "lon": -77.04169416666667, "name": "96fa5ed907f0ff7924adb02d487bc3cb"}, {"bike_id": "c1e9cfb59fe5a8a587f18cd92d2f0e46", "type": "electric_scooter", "is_disabled": 0, "lat": 38.91765, "rental_uris": {"ios": "https://dc.lft.to/lastmile_qr_scan", "android": "https://dc.lft.to/lastmile_qr_scan"}, "is_reserved": 0, "fusion_lon": 0.0, "fusion_lat": 0.0, "lon": -77.0175385, "name": "c1e9cfb59fe5a8a587f18cd92d2f0e46"}, {"bike_id": "6fe09393274933d758127b892306dde3", "type": "electric_bike", "is_disabled": 0, "lat": 38.821692, "rental_uris": {"ios": "https://dc.lft.to/lastmile_qr_scan", "android": "https://dc.lft.to/lastmile_qr_scan"}, "is_reserved": 0, "fusion_lon": 0.0, "fusion_lat": 0.0, "lon": -76.99501166666667, "name": "6fe09393274933d758127b892306dde3"}, {"bike_id": "65a11575d0e270c8499d8cadf519914d", "type": "electric_scooter", "is_disabled": 0, "lat": 38.90557866666666, "rental_uris": {"ios": "https://dc.lft.to/lastmile_qr_scan", "android": "https://dc.lft.to/lastmile_qr_scan"}, "is_reserved": 0, "fusion_lon": 0.0, "fusion_lat": 0.0, "lon": -77.06525116666667, "name": "65a11575d0e270c8499d8cadf519914d"}, {"bike_id": "df55999d47c944674c2254510eccaed3", "type": "electric_scooter", "is_disabled": 0, "lat": 38.8715915, "rental_uris": {"ios": "https://dc.lft.to/lastmile_qr_scan", "android": "https://dc.lft.to/lastmile_qr_scan"}, "is_reserved": 0, "fusion_lon": 0.0, "fusion_lat": 0.0, "lon": -77.01354366666666, "name": "df55999d47c944674c2254510eccaed3"}, {"bike_id": "8ce33cd0b1b505290a17d9fd24806084", "type": "electric_scooter", "is_disabled": 0, "lat": 38.9054415, "rental_uris": {"ios": "https://dc.lft.to/lastmile_qr_scan", "android": "https://dc.lft.to/lastmile_qr_scan"}, "is_reserved": 0, "fusion_lon": 0.0, "fusion_lat": 0.0, "lon": -77.02184983333333, "name": "8ce33cd0b1b505290a17d9fd24806084"}, {"bike_id": "d5fac2015d640e67bdc57507d37f3814", "type": "electric_bike", "is_disabled": 0, "lat": 39.035741333333334, "rental_uris": {"ios": "https://dc.lft.to/lastmile_qr_scan", "android": "https://dc.lft.to/lastmile_qr_scan"}, "is_reserved": 0, "fusion_lon": 0.0, "fusion_lat": 0.0, "lon": -77.039365, "name": "d5fac2015d640e67bdc57507d37f3814"}, {"bike_id": "f6809a18f825400e6ec510081cce8871", "type": "electric_scooter", "is_disabled": 0, "lat": 38.87460266666667, "rental_uris": {"ios": "https://dc.lft.to/lastmile_qr_scan", "android": "https://dc.lft.to/lastmile_qr_scan"}, "is_reserved": 0, "fusion_lon": 0.0, "fusion_lat": 0.0, "lon": -77.0093745, "name": "f6809a18f825400e6ec510081cce8871"}, {"bike_id": "acfcae6a6d68a120722ffa26fc3b2a79", "type": "electric_scooter", "is_disabled": 0, "lat": 38.893597, "rental_uris": {"ios": "https://dc.lft.to/lastmile_qr_scan", "android": "https://dc.lft.to/lastmile_qr_scan"}, "is_reserved": 0, "fusion_lon": 0.0, "fusion_lat": 0.0, "lon": -76.94934883333333, "name": "acfcae6a6d68a120722ffa26fc3b2a79"}, {"bike_id": "07f69a82e7840c121e55e201b9b37176", "type": "electric_bike", "is_disabled": 0, "lat": 38.897215, "rental_uris": {"ios": "https://dc.lft.to/lastmile_qr_scan", "android": "https://dc.lft.to/lastmile_qr_scan"}, "is_reserved": 0, "fusion_lon": 0.0, "fusion_lat": 0.0, "lon": -76.97340766666667, "name": "07f69a82e7840c121e55e201b9b37176"}, {"bike_id": "00778536bf086f78623ab3db6a010475", "type": "electric_scooter", "is_disabled": 0, "lat": 38.91463483333333, "rental_uris": {"ios": "https://dc.lft.to/lastmile_qr_scan", "android": "https://dc.lft.to/lastmile_qr_scan"}, "is_reserved": 0, "fusion_lon": 0.0, "fusion_lat": 0.0, "lon": -77.00214733333334, "name": "00778536bf086f78623ab3db6a010475"}, {"bike_id": "4495774be23e20be8937d954bb617acc", "type": "electric_scooter", "is_disabled": 0, "lat": 38.93595416666667, "rental_uris": {"ios": "https://dc.lft.to/lastmile_qr_scan", "android": "https://dc.lft.to/lastmile_qr_scan"}, "is_reserved": 0, "fusion_lon": 0.0, "fusion_lat": 0.0, "lon": -77.0352435, "name": "4495774be23e20be8937d954bb617acc"}, {"bike_id": "7c8fdb2fea22411a018205218d51e1d4", "type": "electric_scooter", "is_disabled": 0, "lat": 38.911179833333335, "rental_uris": {"ios": "https://dc.lft.to/lastmile_qr_scan", "android": "https://dc.lft.to/lastmile_qr_scan"}, "is_reserved": 0, "fusion_lon": 0.0, "fusion_lat": 0.0, "lon": -77.02205, "name": "7c8fdb2fea22411a018205218d51e1d4"}, {"bike_id": "ce3700c5aef02a8524ef825de4115775", "type": "electric_scooter", "is_disabled": 0, "lat": 38.9135025, "rental_uris": {"ios": "https://dc.lft.to/lastmile_qr_scan", "android": "https://dc.lft.to/lastmile_qr_scan"}, "is_reserved": 0, "fusion_lon": 0.0, "fusion_lat": 0.0, "lon": -77.01221433333333, "name": "ce3700c5aef02a8524ef825de4115775"}, {"bike_id": "58c424961bba014bfa0d00266a587d04", "type": "electric_scooter", "is_disabled": 0, "lat": 38.907303166666665, "rental_uris": {"ios": "https://dc.lft.to/lastmile_qr_scan", "android": "https://dc.lft.to/lastmile_qr_scan"}, "is_reserved": 0, "fusion_lon": 0.0, "fusion_lat": 0.0, "lon": -76.98347533333333, "name": "58c424961bba014bfa0d00266a587d04"}, {"bike_id": "c2eecfd01e0c1f9e962263c8784b1551", "type": "electric_scooter", "is_disabled": 0, "lat": 38.893365333333335, "rental_uris": {"ios": "https://dc.lft.to/lastmile_qr_scan", "android": "https://dc.lft.to/lastmile_qr_scan"}, "is_reserved": 0, "fusion_lon": 0.0, "fusion_lat": 0.0, "lon": -77.03167816666667, "name": "c2eecfd01e0c1f9e962263c8784b1551"}, {"bike_id": "d33d4ccd48b3c14457bec9d29109df18", "type": "electric_scooter", "is_disabled": 0, "lat": 38.88115716666667, "rental_uris": {"ios": "https://dc.lft.to/lastmile_qr_scan", "android": "https://dc.lft.to/lastmile_qr_scan"}, "is_reserved": 0, "fusion_lon": 0.0, "fusion_lat": 0.0, "lon": -77.01670466666667, "name": "d33d4ccd48b3c14457bec9d29109df18"}, {"bike_id": "cdf373e38740b6c94663183d45ebe170", "type": "electric_scooter", "is_disabled": 0, "lat": 38.884510166666665, "rental_uris": {"ios": "https://dc.lft.to/lastmile_qr_scan", "android": "https://dc.lft.to/lastmile_qr_scan"}, "is_reserved": 0, "fusion_lon": 0.0, "fusion_lat": 0.0, "lon": -76.95092483333333, "name": "cdf373e38740b6c94663183d45ebe170"}, {"bike_id": "698e6da264ae5f340e4f8e3e1763c632", "type": "electric_bike", "is_disabled": 0, "lat": 39.034189166666664, "rental_uris": {"ios": "https://dc.lft.to/lastmile_qr_scan", "android": "https://dc.lft.to/lastmile_qr_scan"}, "is_reserved": 0, "fusion_lon": 0.0, "fusion_lat": 0.0, "lon": -77.04168433333334, "name": "698e6da264ae5f340e4f8e3e1763c632"}, {"bike_id": "cfa672cace8fa422472a201cab3364de", "type": "electric_scooter", "is_disabled": 0, "lat": 38.91404633333333, "rental_uris": {"ios": "https://dc.lft.to/lastmile_qr_scan", "android": "https://dc.lft.to/lastmile_qr_scan"}, "is_reserved": 0, "fusion_lon": 0.0, "fusion_lat": 0.0, "lon": -77.03171, "name": "cfa672cace8fa422472a201cab3364de"}, {"bike_id": "36dfe967d0788bac2a74afee78c195a9", "type": "electric_scooter", "is_disabled": 0, "lat": 38.9288175, "rental_uris": {"ios": "https://dc.lft.to/lastmile_qr_scan", "android": "https://dc.lft.to/lastmile_qr_scan"}, "is_reserved": 0, "fusion_lon": 0.0, "fusion_lat": 0.0, "lon": -77.03301083333334, "name": "36dfe967d0788bac2a74afee78c195a9"}, {"bike_id": "9b79818f0152cdf4161bbeeb23b5e6a3", "type": "electric_scooter", "is_disabled": 0, "lat": 38.89224033333333, "rental_uris": {"ios": "https://dc.lft.to/lastmile_qr_scan", "android": "https://dc.lft.to/lastmile_qr_scan"}, "is_reserved": 0, "fusion_lon": 0.0, "fusion_lat": 0.0, "lon": -77.04504, "name": "9b79818f0152cdf4161bbeeb23b5e6a3"}, {"bike_id": "7561d4e90b6f9bdfb8fa19ccd51734ef", "type": "electric_scooter", "is_disabled": 0, "lat": 38.903045166666665, "rental_uris": {"ios": "https://dc.lft.to/lastmile_qr_scan", "android": "https://dc.lft.to/lastmile_qr_scan"}, "is_reserved": 0, "fusion_lon": 0.0, "fusion_lat": 0.0, "lon": -77.05049383333333, "name": "7561d4e90b6f9bdfb8fa19ccd51734ef"}, {"bike_id": "54a511a55514c33d0e050af4f9826d30", "type": "electric_scooter", "is_disabled": 0, "lat": 38.89722483333333, "rental_uris": {"ios": "https://dc.lft.to/lastmile_qr_scan", "android": "https://dc.lft.to/lastmile_qr_scan"}, "is_reserved": 0, "fusion_lon": 0.0, "fusion_lat": 0.0, "lon": -77.0021015, "name": "54a511a55514c33d0e050af4f9826d30"}, {"bike_id": "3045aa1953215b4c756b131e9f22050c", "type": "electric_scooter", "is_disabled": 0, "lat": 38.914145833333336, "rental_uris": {"ios": "https://dc.lft.to/lastmile_qr_scan", "android": "https://dc.lft.to/lastmile_qr_scan"}, "is_reserved": 0, "fusion_lon": 0.0, "fusion_lat": 0.0, "lon": -77.02186766666667, "name": "3045aa1953215b4c756b131e9f22050c"}, {"bike_id": "57031ed4a280d62d2ee4fb211eb4017c", "type": "electric_scooter", "is_disabled": 0, "lat": 38.90051183333333, "rental_uris": {"ios": "https://dc.lft.to/lastmile_qr_scan", "android": "https://dc.lft.to/lastmile_qr_scan"}, "is_reserved": 0, "fusion_lon": 0.0, "fusion_lat": 0.0, "lon": -77.00210066666666, "name": "57031ed4a280d62d2ee4fb211eb4017c"}, {"bike_id": "b270101a85659ef3d503a4bc26f9c0ed", "type": "electric_scooter", "is_disabled": 0, "lat": 38.92348833333333, "rental_uris": {"ios": "https://dc.lft.to/lastmile_qr_scan", "android": "https://dc.lft.to/lastmile_qr_scan"}, "is_reserved": 0, "fusion_lon": 0.0, "fusion_lat": 0.0, "lon": -77.03912916666667, "name": "b270101a85659ef3d503a4bc26f9c0ed"}, {"bike_id": "0516769e9bf8e7a48484490149b9f4bc", "type": "electric_scooter", "is_disabled": 0, "lat": 38.92949466666666, "rental_uris": {"ios": "https://dc.lft.to/lastmile_qr_scan", "android": "https://dc.lft.to/lastmile_qr_scan"}, "is_reserved": 0, "fusion_lon": 0.0, "fusion_lat": 0.0, "lon": -77.03465833333334, "name": "0516769e9bf8e7a48484490149b9f4bc"}, {"bike_id": "901b8f61de7ea783c1f665e6c4305d9a", "type": "electric_scooter", "is_disabled": 0, "lat": 38.9171625, "rental_uris": {"ios": "https://dc.lft.to/lastmile_qr_scan", "android": "https://dc.lft.to/lastmile_qr_scan"}, "is_reserved": 0, "fusion_lon": 0.0, "fusion_lat": 0.0, "lon": -77.04154666666666, "name": "901b8f61de7ea783c1f665e6c4305d9a"}, {"bike_id": "786dc50ec34f9f48e0b7aa87df4f13e1", "type": "electric_bike", "is_disabled": 0, "lat": 38.961804, "rental_uris": {"ios": "https://dc.lft.to/lastmile_qr_scan", "android": "https://dc.lft.to/lastmile_qr_scan"}, "is_reserved": 0, "fusion_lon": 0.0, "fusion_lat": 0.0, "lon": -77.07390466666666, "name": "786dc50ec34f9f48e0b7aa87df4f13e1"}, {"bike_id": "a5ce781762b09ed02d108405228129bc", "type": "electric_scooter", "is_disabled": 0, "lat": 38.912697333333334, "rental_uris": {"ios": "https://dc.lft.to/lastmile_qr_scan", "android": "https://dc.lft.to/lastmile_qr_scan"}, "is_reserved": 0, "fusion_lon": 0.0, "fusion_lat": 0.0, "lon": -77.04493983333333, "name": "a5ce781762b09ed02d108405228129bc"}, {"bike_id": "e02f941956d4f482ad4fb64617a966c5", "type": "electric_bike", "is_disabled": 0, "lat": 38.89611633333333, "rental_uris": {"ios": "https://dc.lft.to/lastmile_qr_scan", "android": "https://dc.lft.to/lastmile_qr_scan"}, "is_reserved": 0, "fusion_lon": 0.0, "fusion_lat": 0.0, "lon": -76.90737633333333, "name": "e02f941956d4f482ad4fb64617a966c5"}, {"bike_id": "65efa695d0148a0f1174970dfdd50040", "type": "electric_scooter", "is_disabled": 0, "lat": 38.9041225, "rental_uris": {"ios": "https://dc.lft.to/lastmile_qr_scan", "android": "https://dc.lft.to/lastmile_qr_scan"}, "is_reserved": 0, "fusion_lon": 0.0, "fusion_lat": 0.0, "lon": -76.9733365, "name": "65efa695d0148a0f1174970dfdd50040"}, {"bike_id": "86b3813b9e2f14f2b376653151120ea1", "type": "electric_scooter", "is_disabled": 0, "lat": 38.92418216666667, "rental_uris": {"ios": "https://dc.lft.to/lastmile_qr_scan", "android": "https://dc.lft.to/lastmile_qr_scan"}, "is_reserved": 0, "fusion_lon": 0.0, "fusion_lat": 0.0, "lon": -77.020092, "name": "86b3813b9e2f14f2b376653151120ea1"}, {"bike_id": "4cd9cc5ea838878fcde3d504cf17a342", "type": "electric_scooter", "is_disabled": 0, "lat": 38.896021833333336, "rental_uris": {"ios": "https://dc.lft.to/lastmile_qr_scan", "android": "https://dc.lft.to/lastmile_qr_scan"}, "is_reserved": 0, "fusion_lon": 0.0, "fusion_lat": 0.0, "lon": -77.02216916666667, "name": "4cd9cc5ea838878fcde3d504cf17a342"}, {"bike_id": "1e19067f6cef967a2e33c64177ddee7c", "type": "electric_scooter", "is_disabled": 0, "lat": 38.90294016666667, "rental_uris": {"ios": "https://dc.lft.to/lastmile_qr_scan", "android": "https://dc.lft.to/lastmile_qr_scan"}, "is_reserved": 0, "fusion_lon": 0.0, "fusion_lat": 0.0, "lon": -77.03329033333333, "name": "1e19067f6cef967a2e33c64177ddee7c"}, {"bike_id": "8fb8507d6f93e145de069d39283eec67", "type": "electric_scooter", "is_disabled": 0, "lat": 38.94193383333333, "rental_uris": {"ios": "https://dc.lft.to/lastmile_qr_scan", "android": "https://dc.lft.to/lastmile_qr_scan"}, "is_reserved": 0, "fusion_lon": 0.0, "fusion_lat": 0.0, "lon": -77.03656616666666, "name": "8fb8507d6f93e145de069d39283eec67"}, {"bike_id": "d80a46357dea942e2b93fa979e58bd93", "type": "electric_scooter", "is_disabled": 0, "lat": 38.915631, "rental_uris": {"ios": "https://dc.lft.to/lastmile_qr_scan", "android": "https://dc.lft.to/lastmile_qr_scan"}, "is_reserved": 0, "fusion_lon": 0.0, "fusion_lat": 0.0, "lon": -77.03125316666667, "name": "d80a46357dea942e2b93fa979e58bd93"}, {"bike_id": "0f0942d0e093adb282a1ff0389b4f6a6", "type": "electric_scooter", "is_disabled": 0, "lat": 38.9041305, "rental_uris": {"ios": "https://dc.lft.to/lastmile_qr_scan", "android": "https://dc.lft.to/lastmile_qr_scan"}, "is_reserved": 0, "fusion_lon": 0.0, "fusion_lat": 0.0, "lon": -77.0241565, "name": "0f0942d0e093adb282a1ff0389b4f6a6"}, {"bike_id": "8855ae9b3371979496cf81badf545dc8", "type": "electric_scooter", "is_disabled": 0, "lat": 38.92625, "rental_uris": {"ios": "https://dc.lft.to/lastmile_qr_scan", "android": "https://dc.lft.to/lastmile_qr_scan"}, "is_reserved": 0, "fusion_lon": 0.0, "fusion_lat": 0.0, "lon": -77.03710683333334, "name": "8855ae9b3371979496cf81badf545dc8"}, {"bike_id": "d8ed9cda9e29aa55177fd556c9a85aa3", "type": "electric_scooter", "is_disabled": 0, "lat": 38.938902166666665, "rental_uris": {"ios": "https://dc.lft.to/lastmile_qr_scan", "android": "https://dc.lft.to/lastmile_qr_scan"}, "is_reserved": 0, "fusion_lon": 0.0, "fusion_lat": 0.0, "lon": -77.03333633333334, "name": "d8ed9cda9e29aa55177fd556c9a85aa3"}, {"bike_id": "07ea42c60d3a5b22f3760ae5fa6129fd", "type": "electric_scooter", "is_disabled": 0, "lat": 38.92861516666667, "rental_uris": {"ios": "https://dc.lft.to/lastmile_qr_scan", "android": "https://dc.lft.to/lastmile_qr_scan"}, "is_reserved": 0, "fusion_lon": 0.0, "fusion_lat": 0.0, "lon": -77.0733515, "name": "07ea42c60d3a5b22f3760ae5fa6129fd"}, {"bike_id": "cecb560fb65c5f515295a5d9280c9da4", "type": "electric_scooter", "is_disabled": 0, "lat": 38.90335533333333, "rental_uris": {"ios": "https://dc.lft.to/lastmile_qr_scan", "android": "https://dc.lft.to/lastmile_qr_scan"}, "is_reserved": 0, "fusion_lon": 0.0, "fusion_lat": 0.0, "lon": -77.06185016666667, "name": "cecb560fb65c5f515295a5d9280c9da4"}, {"bike_id": "91c941d88b7962dce446a55892ae1b00", "type": "electric_scooter", "is_disabled": 0, "lat": 38.91993866666667, "rental_uris": {"ios": "https://dc.lft.to/lastmile_qr_scan", "android": "https://dc.lft.to/lastmile_qr_scan"}, "is_reserved": 0, "fusion_lon": 0.0, "fusion_lat": 0.0, "lon": -77.02225733333333, "name": "91c941d88b7962dce446a55892ae1b00"}, {"bike_id": "50d43693f24bec2dca17b29dfce6d6be", "type": "electric_bike", "is_disabled": 0, "lat": 38.86753233333334, "rental_uris": {"ios": "https://dc.lft.to/lastmile_qr_scan", "android": "https://dc.lft.to/lastmile_qr_scan"}, "is_reserved": 0, "fusion_lon": 0.0, "fusion_lat": 0.0, "lon": -76.94532883333333, "name": "50d43693f24bec2dca17b29dfce6d6be"}, {"bike_id": "ce504232813dd71bbaa311890a3221cb", "type": "electric_scooter", "is_disabled": 0, "lat": 38.908724, "rental_uris": {"ios": "https://dc.lft.to/lastmile_qr_scan", "android": "https://dc.lft.to/lastmile_qr_scan"}, "is_reserved": 0, "fusion_lon": 0.0, "fusion_lat": 0.0, "lon": -76.9979495, "name": "ce504232813dd71bbaa311890a3221cb"}, {"bike_id": "53a7109bfb538e689d47f1124342c9be", "type": "electric_scooter", "is_disabled": 0, "lat": 38.92767166666667, "rental_uris": {"ios": "https://dc.lft.to/lastmile_qr_scan", "android": "https://dc.lft.to/lastmile_qr_scan"}, "is_reserved": 0, "fusion_lon": 0.0, "fusion_lat": 0.0, "lon": -77.02788016666666, "name": "53a7109bfb538e689d47f1124342c9be"}, {"bike_id": "5d2dae1d11e83904f7621f4fa681f762", "type": "electric_scooter", "is_disabled": 0, "lat": 38.89886383333333, "rental_uris": {"ios": "https://dc.lft.to/lastmile_qr_scan", "android": "https://dc.lft.to/lastmile_qr_scan"}, "is_reserved": 0, "fusion_lon": 0.0, "fusion_lat": 0.0, "lon": -76.9317525, "name": "5d2dae1d11e83904f7621f4fa681f762"}, {"bike_id": "50faea6ff2dbd09cda96f5e2d872693e", "type": "electric_scooter", "is_disabled": 0, "lat": 38.87563683333333, "rental_uris": {"ios": "https://dc.lft.to/lastmile_qr_scan", "android": "https://dc.lft.to/lastmile_qr_scan"}, "is_reserved": 0, "fusion_lon": 0.0, "fusion_lat": 0.0, "lon": -77.004888, "name": "50faea6ff2dbd09cda96f5e2d872693e"}, {"bike_id": "f3d6f7a4ee186b4aa6329deea10fc360", "type": "electric_bike", "is_disabled": 0, "lat": 38.88081716666667, "rental_uris": {"ios": "https://dc.lft.to/lastmile_qr_scan", "android": "https://dc.lft.to/lastmile_qr_scan"}, "is_reserved": 0, "fusion_lon": 0.0, "fusion_lat": 0.0, "lon": -76.98533333333333, "name": "f3d6f7a4ee186b4aa6329deea10fc360"}, {"bike_id": "99900cdacd3092bd4754b56cf434dd4a", "type": "electric_scooter", "is_disabled": 0, "lat": 38.8588065, "rental_uris": {"ios": "https://dc.lft.to/lastmile_qr_scan", "android": "https://dc.lft.to/lastmile_qr_scan"}, "is_reserved": 0, "fusion_lon": 0.0, "fusion_lat": 0.0, "lon": -76.99558, "name": "99900cdacd3092bd4754b56cf434dd4a"}, {"bike_id": "0f647ed3e4e9b6422e3979f4d4e52b93", "type": "electric_scooter", "is_disabled": 0, "lat": 38.913354166666664, "rental_uris": {"ios": "https://dc.lft.to/lastmile_qr_scan", "android": "https://dc.lft.to/lastmile_qr_scan"}, "is_reserved": 0, "fusion_lon": 0.0, "fusion_lat": 0.0, "lon": -77.0448355, "name": "0f647ed3e4e9b6422e3979f4d4e52b93"}, {"bike_id": "7464eae4c68fd9e341a52362e57efa49", "type": "electric_scooter", "is_disabled": 0, "lat": 38.929157833333335, "rental_uris": {"ios": "https://dc.lft.to/lastmile_qr_scan", "android": "https://dc.lft.to/lastmile_qr_scan"}, "is_reserved": 0, "fusion_lon": 0.0, "fusion_lat": 0.0, "lon": -77.02089716666667, "name": "7464eae4c68fd9e341a52362e57efa49"}, {"bike_id": "ea1986e20a80f237079d127a3a37b993", "type": "electric_scooter", "is_disabled": 0, "lat": 38.937361, "rental_uris": {"ios": "https://dc.lft.to/lastmile_qr_scan", "android": "https://dc.lft.to/lastmile_qr_scan"}, "is_reserved": 0, "fusion_lon": 0.0, "fusion_lat": 0.0, "lon": -77.03256516666667, "name": "ea1986e20a80f237079d127a3a37b993"}, {"bike_id": "a1273a2655aac02078824340c9a5d8dc", "type": "electric_scooter", "is_disabled": 0, "lat": 38.923917833333334, "rental_uris": {"ios": "https://dc.lft.to/lastmile_qr_scan", "android": "https://dc.lft.to/lastmile_qr_scan"}, "is_reserved": 0, "fusion_lon": 0.0, "fusion_lat": 0.0, "lon": -77.04455033333333, "name": "a1273a2655aac02078824340c9a5d8dc"}, {"bike_id": "932165d32468dc2ff5ac874b84bcdc1c", "type": "electric_bike", "is_disabled": 0, "lat": 38.8151135, "rental_uris": {"ios": "https://dc.lft.to/lastmile_qr_scan", "android": "https://dc.lft.to/lastmile_qr_scan"}, "is_reserved": 0, "fusion_lon": 0.0, "fusion_lat": 0.0, "lon": -77.12657766666666, "name": "932165d32468dc2ff5ac874b84bcdc1c"}, {"bike_id": "b4980569ef6690787a5e6a62a7510cc9", "type": "electric_scooter", "is_disabled": 0, "lat": 38.92330233333333, "rental_uris": {"ios": "https://dc.lft.to/lastmile_qr_scan", "android": "https://dc.lft.to/lastmile_qr_scan"}, "is_reserved": 0, "fusion_lon": 0.0, "fusion_lat": 0.0, "lon": -77.05414933333333, "name": "b4980569ef6690787a5e6a62a7510cc9"}, {"bike_id": "ae5654bb5759cc5e005bf1c970f674d1", "type": "electric_scooter", "is_disabled": 0, "lat": 38.9126955, "rental_uris": {"ios": "https://dc.lft.to/lastmile_qr_scan", "android": "https://dc.lft.to/lastmile_qr_scan"}, "is_reserved": 0, "fusion_lon": 0.0, "fusion_lat": 0.0, "lon": -77.04494533333333, "name": "ae5654bb5759cc5e005bf1c970f674d1"}, {"bike_id": "48721b1c8d26ff6747841a1e48e6b065", "type": "electric_bike", "is_disabled": 0, "lat": 38.796087666666665, "rental_uris": {"ios": "https://dc.lft.to/lastmile_qr_scan", "android": "https://dc.lft.to/lastmile_qr_scan"}, "is_reserved": 0, "fusion_lon": 0.0, "fusion_lat": 0.0, "lon": -76.99747766666667, "name": "48721b1c8d26ff6747841a1e48e6b065"}, {"bike_id": "47ff4a93a6ec688f87ecb0df411b72e7", "type": "electric_scooter", "is_disabled": 0, "lat": 38.903918833333336, "rental_uris": {"ios": "https://dc.lft.to/lastmile_qr_scan", "android": "https://dc.lft.to/lastmile_qr_scan"}, "is_reserved": 0, "fusion_lon": 0.0, "fusion_lat": 0.0, "lon": -77.024908, "name": "47ff4a93a6ec688f87ecb0df411b72e7"}, {"bike_id": "45323b96636e2e73f69d8fbbed69e91c", "type": "electric_scooter", "is_disabled": 0, "lat": 38.924477833333334, "rental_uris": {"ios": "https://dc.lft.to/lastmile_qr_scan", "android": "https://dc.lft.to/lastmile_qr_scan"}, "is_reserved": 0, "fusion_lon": 0.0, "fusion_lat": 0.0, "lon": -77.033399, "name": "45323b96636e2e73f69d8fbbed69e91c"}, {"bike_id": "535668880fcb539445a5f91d84a39054", "type": "electric_scooter", "is_disabled": 0, "lat": 38.91421483333333, "rental_uris": {"ios": "https://dc.lft.to/lastmile_qr_scan", "android": "https://dc.lft.to/lastmile_qr_scan"}, "is_reserved": 0, "fusion_lon": 0.0, "fusion_lat": 0.0, "lon": -77.01798666666667, "name": "535668880fcb539445a5f91d84a39054"}, {"bike_id": "a99fb85e4521c7f9c5c088cfd8ae8ff0", "type": "electric_scooter", "is_disabled": 0, "lat": 38.90487433333333, "rental_uris": {"ios": "https://dc.lft.to/lastmile_qr_scan", "android": "https://dc.lft.to/lastmile_qr_scan"}, "is_reserved": 0, "fusion_lon": 0.0, "fusion_lat": 0.0, "lon": -77.06119283333334, "name": "a99fb85e4521c7f9c5c088cfd8ae8ff0"}, {"bike_id": "1d5c1225156392850f9e5b38f53ee2ec", "type": "electric_scooter", "is_disabled": 0, "lat": 38.9302695, "rental_uris": {"ios": "https://dc.lft.to/lastmile_qr_scan", "android": "https://dc.lft.to/lastmile_qr_scan"}, "is_reserved": 0, "fusion_lon": 0.0, "fusion_lat": 0.0, "lon": -77.02348633333334, "name": "1d5c1225156392850f9e5b38f53ee2ec"}, {"bike_id": "c246aa33f0a00c05d0d4bda9dff61e8e", "type": "electric_scooter", "is_disabled": 0, "lat": 38.898419, "rental_uris": {"ios": "https://dc.lft.to/lastmile_qr_scan", "android": "https://dc.lft.to/lastmile_qr_scan"}, "is_reserved": 0, "fusion_lon": 0.0, "fusion_lat": 0.0, "lon": -76.946324, "name": "c246aa33f0a00c05d0d4bda9dff61e8e"}, {"bike_id": "776e50c60043f98b72213cecc862913d", "type": "electric_scooter", "is_disabled": 0, "lat": 38.90741416666667, "rental_uris": {"ios": "https://dc.lft.to/lastmile_qr_scan", "android": "https://dc.lft.to/lastmile_qr_scan"}, "is_reserved": 0, "fusion_lon": 0.0, "fusion_lat": 0.0, "lon": -77.02177033333334, "name": "776e50c60043f98b72213cecc862913d"}, {"bike_id": "908ce00f0e49c7863443bd1227fba658", "type": "electric_scooter", "is_disabled": 0, "lat": 38.899664333333334, "rental_uris": {"ios": "https://dc.lft.to/lastmile_qr_scan", "android": "https://dc.lft.to/lastmile_qr_scan"}, "is_reserved": 0, "fusion_lon": 0.0, "fusion_lat": 0.0, "lon": -77.01607683333333, "name": "908ce00f0e49c7863443bd1227fba658"}, {"bike_id": "5980c6afdcf6291d836c87bec4e7958b", "type": "electric_bike", "is_disabled": 0, "lat": 39.02433216666667, "rental_uris": {"ios": "https://dc.lft.to/lastmile_qr_scan", "android": "https://dc.lft.to/lastmile_qr_scan"}, "is_reserved": 0, "fusion_lon": 0.0, "fusion_lat": 0.0, "lon": -77.13098916666667, "name": "5980c6afdcf6291d836c87bec4e7958b"}, {"bike_id": "1529341804576518cdde76a1d73437e9", "type": "electric_scooter", "is_disabled": 0, "lat": 38.867029, "rental_uris": {"ios": "https://dc.lft.to/lastmile_qr_scan", "android": "https://dc.lft.to/lastmile_qr_scan"}, "is_reserved": 0, "fusion_lon": 0.0, "fusion_lat": 0.0, "lon": -76.98714466666667, "name": "1529341804576518cdde76a1d73437e9"}, {"bike_id": "ec5546191d2e1a05776886d0b5073b9f", "type": "electric_scooter", "is_disabled": 0, "lat": 38.9009285, "rental_uris": {"ios": "https://dc.lft.to/lastmile_qr_scan", "android": "https://dc.lft.to/lastmile_qr_scan"}, "is_reserved": 0, "fusion_lon": 0.0, "fusion_lat": 0.0, "lon": -77.01927883333333, "name": "ec5546191d2e1a05776886d0b5073b9f"}, {"bike_id": "3257cf7cc817dcbb350a32525f7d17fa", "type": "electric_scooter", "is_disabled": 0, "lat": 38.90876766666667, "rental_uris": {"ios": "https://dc.lft.to/lastmile_qr_scan", "android": "https://dc.lft.to/lastmile_qr_scan"}, "is_reserved": 0, "fusion_lon": 0.0, "fusion_lat": 0.0, "lon": -77.0235725, "name": "3257cf7cc817dcbb350a32525f7d17fa"}, {"bike_id": "5764c85ea74db7d0a9ae1fa2fed72ee9", "type": "electric_scooter", "is_disabled": 0, "lat": 38.934586, "rental_uris": {"ios": "https://dc.lft.to/lastmile_qr_scan", "android": "https://dc.lft.to/lastmile_qr_scan"}, "is_reserved": 0, "fusion_lon": 0.0, "fusion_lat": 0.0, "lon": -76.96441583333333, "name": "5764c85ea74db7d0a9ae1fa2fed72ee9"}, {"bike_id": "a32fe208cb1c9d62054f728c4d92ca6a", "type": "electric_scooter", "is_disabled": 0, "lat": 38.9170335, "rental_uris": {"ios": "https://dc.lft.to/lastmile_qr_scan", "android": "https://dc.lft.to/lastmile_qr_scan"}, "is_reserved": 0, "fusion_lon": 0.0, "fusion_lat": 0.0, "lon": -77.02873666666666, "name": "a32fe208cb1c9d62054f728c4d92ca6a"}, {"bike_id": "3b3bbb47d0848aeaba9cd24b2966dc76", "type": "electric_scooter", "is_disabled": 0, "lat": 38.91571016666666, "rental_uris": {"ios": "https://dc.lft.to/lastmile_qr_scan", "android": "https://dc.lft.to/lastmile_qr_scan"}, "is_reserved": 0, "fusion_lon": 0.0, "fusion_lat": 0.0, "lon": -77.03640233333333, "name": "3b3bbb47d0848aeaba9cd24b2966dc76"}, {"bike_id": "a8a216099a31c932550f67ab2df3f41a", "type": "electric_scooter", "is_disabled": 0, "lat": 38.91256516666667, "rental_uris": {"ios": "https://dc.lft.to/lastmile_qr_scan", "android": "https://dc.lft.to/lastmile_qr_scan"}, "is_reserved": 0, "fusion_lon": 0.0, "fusion_lat": 0.0, "lon": -77.03829866666666, "name": "a8a216099a31c932550f67ab2df3f41a"}, {"bike_id": "7f7edfac3533794deab6f811a42b1103", "type": "electric_scooter", "is_disabled": 0, "lat": 38.90247733333333, "rental_uris": {"ios": "https://dc.lft.to/lastmile_qr_scan", "android": "https://dc.lft.to/lastmile_qr_scan"}, "is_reserved": 0, "fusion_lon": 0.0, "fusion_lat": 0.0, "lon": -77.01770833333333, "name": "7f7edfac3533794deab6f811a42b1103"}, {"bike_id": "104d68f828d7f4f070448752875ce122", "type": "electric_scooter", "is_disabled": 0, "lat": 38.931387666666666, "rental_uris": {"ios": "https://dc.lft.to/lastmile_qr_scan", "android": "https://dc.lft.to/lastmile_qr_scan"}, "is_reserved": 0, "fusion_lon": 0.0, "fusion_lat": 0.0, "lon": -77.04244733333333, "name": "104d68f828d7f4f070448752875ce122"}, {"bike_id": "e953442b7161b698d8633cde7a525795", "type": "electric_scooter", "is_disabled": 0, "lat": 38.9459655, "rental_uris": {"ios": "https://dc.lft.to/lastmile_qr_scan", "android": "https://dc.lft.to/lastmile_qr_scan"}, "is_reserved": 0, "fusion_lon": 0.0, "fusion_lat": 0.0, "lon": -77.02981116666666, "name": "e953442b7161b698d8633cde7a525795"}, {"bike_id": "5fd5c5f7b37b051c8ed5fe1ba8bdfa42", "type": "electric_bike", "is_disabled": 0, "lat": 38.8984685, "rental_uris": {"ios": "https://dc.lft.to/lastmile_qr_scan", "android": "https://dc.lft.to/lastmile_qr_scan"}, "is_reserved": 0, "fusion_lon": 0.0, "fusion_lat": 0.0, "lon": -77.05301333333334, "name": "5fd5c5f7b37b051c8ed5fe1ba8bdfa42"}, {"bike_id": "983240c8d4591baa091d16643dc9753f", "type": "electric_scooter", "is_disabled": 0, "lat": 38.9119545, "rental_uris": {"ios": "https://dc.lft.to/lastmile_qr_scan", "android": "https://dc.lft.to/lastmile_qr_scan"}, "is_reserved": 0, "fusion_lon": 0.0, "fusion_lat": 0.0, "lon": -77.03217383333333, "name": "983240c8d4591baa091d16643dc9753f"}, {"bike_id": "28a8e05aefbd2bda7e8829ed59f989b5", "type": "electric_scooter", "is_disabled": 0, "lat": 38.9309165, "rental_uris": {"ios": "https://dc.lft.to/lastmile_qr_scan", "android": "https://dc.lft.to/lastmile_qr_scan"}, "is_reserved": 0, "fusion_lon": 0.0, "fusion_lat": 0.0, "lon": -77.0374315, "name": "28a8e05aefbd2bda7e8829ed59f989b5"}, {"bike_id": "50ec1fd91d389819c402a7d5ac47508f", "type": "electric_scooter", "is_disabled": 0, "lat": 38.86249566666667, "rental_uris": {"ios": "https://dc.lft.to/lastmile_qr_scan", "android": "https://dc.lft.to/lastmile_qr_scan"}, "is_reserved": 0, "fusion_lon": 0.0, "fusion_lat": 0.0, "lon": -76.99261516666667, "name": "50ec1fd91d389819c402a7d5ac47508f"}, {"bike_id": "e2ffc1fafdb4b284d345a78d39038abd", "type": "electric_scooter", "is_disabled": 0, "lat": 38.939119166666664, "rental_uris": {"ios": "https://dc.lft.to/lastmile_qr_scan", "android": "https://dc.lft.to/lastmile_qr_scan"}, "is_reserved": 0, "fusion_lon": 0.0, "fusion_lat": 0.0, "lon": -77.06046, "name": "e2ffc1fafdb4b284d345a78d39038abd"}, {"bike_id": "ded6e4f06f78dc3b41018744ff6ce3bb", "type": "electric_scooter", "is_disabled": 0, "lat": 38.92332483333333, "rental_uris": {"ios": "https://dc.lft.to/lastmile_qr_scan", "android": "https://dc.lft.to/lastmile_qr_scan"},