{"data": {"bikes": [{"lon": -77.02239983333334, "rental_uris": {"android": "https://dc.lft.to/lastmile_qr_scan", "ios": "https://dc.lft.to/lastmile_qr_scan"}, "fusion_lon": 0.0, "is_reserved": 0, "is_disabled": 0, "fusion_lat": 0.0, "type": "electric_bike", "name": "06e9a7b0da3d408b18bf47f6ffc73cf5", "lat": 38.9644705, "bike_id": "06e9a7b0da3d408b18bf47f6ffc73cf5"}, {"lon": -77.0316495, "rental_uris": {"android": "https://dc.lft.to/lastmile_qr_scan", "ios": "https://dc.lft.to/lastmile_qr_scan"}, "fusion_lon": 0.0, "is_reserved": 0, "is_disabled": 0, "fusion_lat": 0.0, "type": "electric_scooter", "name": "6f5f2abfeffb767a2e01f869d2e45c01", "lat": 38.9141725, "bike_id": "6f5f2abfeffb767a2e01f869d2e45c01"}, {"lon": -77.06372216666666, "rental_uris": {"android": "https://dc.lft.to/lastmile_qr_scan", "ios": "https://dc.lft.to/lastmile_qr_scan"}, "fusion_lon": 0.0, "is_reserved": 0, "is_disabled": 0, "fusion_lat": 0.0, "type": "electric_scooter", "name": "988da9c205c26946d040a1f808336129", "lat": 38.90820216666667, "bike_id": "988da9c205c26946d040a1f808336129"}, {"lon": -77.01098183333333, "rental_uris": {"android": "https://dc.lft.to/lastmile_qr_scan", "ios": "https://dc.lft.to/lastmile_qr_scan"}, "fusion_lon": 0.0, "is_reserved": 0, "is_disabled": 0, "fusion_lat": 0.0, "type": "electric_bike", "name": "20bf3728ede43e416478b44c6eee02fa", "lat": 38.87309066666667, "bike_id": "20bf3728ede43e416478b44c6eee02fa"}, {"lon": -77.00068733333333, "rental_uris": {"android": "https://dc.lft.to/lastmile_qr_scan", "ios": "https://dc.lft.to/lastmile_qr_scan"}, "fusion_lon": 0.0, "is_reserved": 0, "is_disabled": 0, "fusion_lat": 0.0, "type": "electric_scooter", "name": "a1f19b7b37de139556122dcaac6a8846", "lat": 38.876941, "bike_id": "a1f19b7b37de139556122dcaac6a8846"}, {"lon": -77.00723316666667, "rental_uris": {"android": "https://dc.lft.to/lastmile_qr_scan", "ios": "https://dc.lft.to/lastmile_qr_scan"}, "fusion_lon": 0.0, "is_reserved": 0, "is_disabled": 0, "fusion_lat": 0.0, "type": "electric_scooter", "name": "9dd34c32eb80cb67a2e185babfa79da7", "lat": 38.87834683333333, "bike_id": "9dd34c32eb80cb67a2e185babfa79da7"}, {"lon": -77.039986, "rental_uris": {"android": "https://dc.lft.to/lastmile_qr_scan", "ios": "https://dc.lft.to/lastmile_qr_scan"}, "fusion_lon": 0.0, "is_reserved": 0, "is_disabled": 0, "fusion_lat": 0.0, "type": "electric_scooter", "name": "a0cb9aecb1fd93a4490c9db82b3465de", "lat": 38.93436483333333, "bike_id": "a0cb9aecb1fd93a4490c9db82b3465de"}, {"lon": -77.06519783333333, "rental_uris": {"android": "https://dc.lft.to/lastmile_qr_scan", "ios": "https://dc.lft.to/lastmile_qr_scan"}, "fusion_lon": 0.0, "is_reserved": 0, "is_disabled": 0, "fusion_lat": 0.0, "type": "electric_scooter", "name": "0af8930c446f1ad4b2b9459205402007", "lat": 38.9241865, "bike_id": "0af8930c446f1ad4b2b9459205402007"}, {"lon": -77.01216833333334, "rental_uris": {"android": "https://dc.lft.to/lastmile_qr_scan", "ios": "https://dc.lft.to/lastmile_qr_scan"}, "fusion_lon": 0.0, "is_reserved": 0, "is_disabled": 0, "fusion_lat": 0.0, "type": "electric_scooter", "name": "1929b1772687699ba72c5bde1a08f141", "lat": 38.920335333333334, "bike_id": "1929b1772687699ba72c5bde1a08f141"}, {"lon": -77.021649, "rental_uris": {"android": "https://dc.lft.to/lastmile_qr_scan", "ios": "https://dc.lft.to/lastmile_qr_scan"}, "fusion_lon": 0.0, "is_reserved": 0, "is_disabled": 0, "fusion_lat": 0.0, "type": "electric_scooter", "name": "06e8a77442fe800cd050602f015a2027", "lat": 38.9021165, "bike_id": "06e8a77442fe800cd050602f015a2027"}, {"lon": -77.01404083333334, "rental_uris": {"android": "https://dc.lft.to/lastmile_qr_scan", "ios": "https://dc.lft.to/lastmile_qr_scan"}, "fusion_lon": 0.0, "is_reserved": 0, "is_disabled": 0, "fusion_lat": 0.0, "type": "electric_scooter", "name": "ff575e5dc1597589360f431d59b51695", "lat": 38.88745633333333, "bike_id": "ff575e5dc1597589360f431d59b51695"}, {"lon": -76.980666, "rental_uris": {"android": "https://dc.lft.to/lastmile_qr_scan", "ios": "https://dc.lft.to/lastmile_qr_scan"}, "fusion_lon": 0.0, "is_reserved": 0, "is_disabled": 0, "fusion_lat": 0.0, "type": "electric_scooter", "name": "50347532e7c1da62cb403328c3ece456", "lat": 38.88016533333333, "bike_id": "50347532e7c1da62cb403328c3ece456"}, {"lon": -77.03536366666667, "rental_uris": {"android": "https://dc.lft.to/lastmile_qr_scan", "ios": "https://dc.lft.to/lastmile_qr_scan"}, "fusion_lon": 0.0, "is_reserved": 0, "is_disabled": 0, "fusion_lat": 0.0, "type": "electric_scooter", "name": "feec94e37ca5bffcbc15bab7f22f8dad", "lat": 38.907442333333336, "bike_id": "feec94e37ca5bffcbc15bab7f22f8dad"}, {"lon": -77.03431383333333, "rental_uris": {"android": "https://dc.lft.to/lastmile_qr_scan", "ios": "https://dc.lft.to/lastmile_qr_scan"}, "fusion_lon": 0.0, "is_reserved": 0, "is_disabled": 0, "fusion_lat": 0.0, "type": "electric_scooter", "name": "fa91499395f12d58ebdf793657c3c929", "lat": 38.90273583333333, "bike_id": "fa91499395f12d58ebdf793657c3c929"}, {"lon": -77.03275216666667, "rental_uris": {"android": "https://dc.lft.to/lastmile_qr_scan", "ios": "https://dc.lft.to/lastmile_qr_scan"}, "fusion_lon": 0.0, "is_reserved": 0, "is_disabled": 0, "fusion_lat": 0.0, "type": "electric_scooter", "name": "dd276a0ae67d3a5e9a53ae7a7675f1d6", "lat": 38.9277045, "bike_id": "dd276a0ae67d3a5e9a53ae7a7675f1d6"}, {"lon": -77.0380985, "rental_uris": {"android": "https://dc.lft.to/lastmile_qr_scan", "ios": "https://dc.lft.to/lastmile_qr_scan"}, "fusion_lon": 0.0, "is_reserved": 0, "is_disabled": 0, "fusion_lat": 0.0, "type": "electric_scooter", "name": "4d28a5b40635046b97c02b96eee3865c", "lat": 38.906933, "bike_id": "4d28a5b40635046b97c02b96eee3865c"}, {"lon": -77.00292566666667, "rental_uris": {"android": "https://dc.lft.to/lastmile_qr_scan", "ios": "https://dc.lft.to/lastmile_qr_scan"}, "fusion_lon": 0.0, "is_reserved": 0, "is_disabled": 0, "fusion_lat": 0.0, "type": "electric_scooter", "name": "fa8ea10f7a32644970f42dc1574e2066", "lat": 38.89231483333333, "bike_id": "fa8ea10f7a32644970f42dc1574e2066"}, {"lon": -77.04648, "rental_uris": {"android": "https://dc.lft.to/lastmile_qr_scan", "ios": "https://dc.lft.to/lastmile_qr_scan"}, "fusion_lon": 0.0, "is_reserved": 0, "is_disabled": 0, "fusion_lat": 0.0, "type": "electric_scooter", "name": "d8f5361c9585108d4c9a9b38bbc8df80", "lat": 38.91032766666667, "bike_id": "d8f5361c9585108d4c9a9b38bbc8df80"}, {"lon": -77.04527083333333, "rental_uris": {"android": "https://dc.lft.to/lastmile_qr_scan", "ios": "https://dc.lft.to/lastmile_qr_scan"}, "fusion_lon": 0.0, "is_reserved": 0, "is_disabled": 0, "fusion_lat": 0.0, "type": "electric_scooter", "name": "b45bbc50d02deba800821551375fd0a5", "lat": 38.9010555, "bike_id": "b45bbc50d02deba800821551375fd0a5"}, {"lon": -76.9844745, "rental_uris": {"android": "https://dc.lft.to/lastmile_qr_scan", "ios": "https://dc.lft.to/lastmile_qr_scan"}, "fusion_lon": 0.0, "is_reserved": 0, "is_disabled": 0, "fusion_lat": 0.0, "type": "electric_scooter", "name": "2828c36ad1eca316397fbbec6a3dbc7c", "lat": 38.9143555, "bike_id": "2828c36ad1eca316397fbbec6a3dbc7c"}, {"lon": -77.02222966666666, "rental_uris": {"android": "https://dc.lft.to/lastmile_qr_scan", "ios": "https://dc.lft.to/lastmile_qr_scan"}, "fusion_lon": 0.0, "is_reserved": 0, "is_disabled": 0, "fusion_lat": 0.0, "type": "electric_scooter", "name": "00a8baaa587c18e4301074a125216408", "lat": 38.903084166666666, "bike_id": "00a8baaa587c18e4301074a125216408"}, {"lon": -76.99573366666667, "rental_uris": {"android": "https://dc.lft.to/lastmile_qr_scan", "ios": "https://dc.lft.to/lastmile_qr_scan"}, "fusion_lon": 0.0, "is_reserved": 0, "is_disabled": 0, "fusion_lat": 0.0, "type": "electric_scooter", "name": "d8450916a332b0bc73001197bcdc768d", "lat": 38.8627115, "bike_id": "d8450916a332b0bc73001197bcdc768d"}, {"lon": -77.04081916666667, "rental_uris": {"android": "https://dc.lft.to/lastmile_qr_scan", "ios": "https://dc.lft.to/lastmile_qr_scan"}, "fusion_lon": 0.0, "is_reserved": 0, "is_disabled": 0, "fusion_lat": 0.0, "type": "electric_scooter", "name": "18f2d3d6d89306326c6fb3ab3c10be88", "lat": 38.932828666666666, "bike_id": "18f2d3d6d89306326c6fb3ab3c10be88"}, {"lon": -77.0357375, "rental_uris": {"android": "https://dc.lft.to/lastmile_qr_scan", "ios": "https://dc.lft.to/lastmile_qr_scan"}, "fusion_lon": 0.0, "is_reserved": 0, "is_disabled": 0, "fusion_lat": 0.0, "type": "electric_scooter", "name": "6665f87cdcfc1f7d1a4b4bc0d1e00f88", "lat": 38.926966, "bike_id": "6665f87cdcfc1f7d1a4b4bc0d1e00f88"}, {"lon": -77.0298205, "rental_uris": {"android": "https://dc.lft.to/lastmile_qr_scan", "ios": "https://dc.lft.to/lastmile_qr_scan"}, "fusion_lon": 0.0, "is_reserved": 0, "is_disabled": 0, "fusion_lat": 0.0, "type": "electric_scooter", "name": "b8b0612c3134d8ce01688a87c3eb065b", "lat": 38.9498075, "bike_id": "b8b0612c3134d8ce01688a87c3eb065b"}, {"lon": -77.03181183333334, "rental_uris": {"android": "https://dc.lft.to/lastmile_qr_scan", "ios": "https://dc.lft.to/lastmile_qr_scan"}, "fusion_lon": 0.0, "is_reserved": 0, "is_disabled": 0, "fusion_lat": 0.0, "type": "electric_scooter", "name": "ea7d2771329e13f25354bf7930fc7555", "lat": 38.8873485, "bike_id": "ea7d2771329e13f25354bf7930fc7555"}, {"lon": -77.02942733333333, "rental_uris": {"android": "https://dc.lft.to/lastmile_qr_scan", "ios": "https://dc.lft.to/lastmile_qr_scan"}, "fusion_lon": 0.0, "is_reserved": 0, "is_disabled": 0, "fusion_lat": 0.0, "type": "electric_scooter", "name": "e74ae0139ee22cb4f0c3747922ba434a", "lat": 38.94287833333333, "bike_id": "e74ae0139ee22cb4f0c3747922ba434a"}, {"lon": -77.04170766666667, "rental_uris": {"android": "https://dc.lft.to/lastmile_qr_scan", "ios": "https://dc.lft.to/lastmile_qr_scan"}, "fusion_lon": 0.0, "is_reserved": 0, "is_disabled": 0, "fusion_lat": 0.0, "type": "electric_scooter", "name": "0f7accac90819e244d324e9d302a6f56", "lat": 38.90524583333333, "bike_id": "0f7accac90819e244d324e9d302a6f56"}, {"lon": -77.0462975, "rental_uris": {"android": "https://dc.lft.to/lastmile_qr_scan", "ios": "https://dc.lft.to/lastmile_qr_scan"}, "fusion_lon": 0.0, "is_reserved": 0, "is_disabled": 0, "fusion_lat": 0.0, "type": "electric_scooter", "name": "518310e09b93caa6c16cad5d96c7e0eb", "lat": 38.90378883333333, "bike_id": "518310e09b93caa6c16cad5d96c7e0eb"}, {"lon": -77.04715116666667, "rental_uris": {"android": "https://dc.lft.to/lastmile_qr_scan", "ios": "https://dc.lft.to/lastmile_qr_scan"}, "fusion_lon": 0.0, "is_reserved": 0, "is_disabled": 0, "fusion_lat": 0.0, "type": "electric_bike", "name": "e9ea28f884e165ecb18032ccaf2881f4", "lat": 38.99776516666667, "bike_id": "e9ea28f884e165ecb18032ccaf2881f4"}, {"lon": -77.01821533333333, "rental_uris": {"android": "https://dc.lft.to/lastmile_qr_scan", "ios": "https://dc.lft.to/lastmile_qr_scan"}, "fusion_lon": 0.0, "is_reserved": 0, "is_disabled": 0, "fusion_lat": 0.0, "type": "electric_scooter", "name": "d445455f11160fab93ec0756704135c7", "lat": 38.92260983333333, "bike_id": "d445455f11160fab93ec0756704135c7"}, {"lon": -77.021799, "rental_uris": {"android": "https://dc.lft.to/lastmile_qr_scan", "ios": "https://dc.lft.to/lastmile_qr_scan"}, "fusion_lon": 0.0, "is_reserved": 0, "is_disabled": 0, "fusion_lat": 0.0, "type": "electric_scooter", "name": "4cb2c2b8306a791b5e013be84cd6c107", "lat": 38.910604, "bike_id": "4cb2c2b8306a791b5e013be84cd6c107"}, {"lon": -77.04369933333334, "rental_uris": {"android": "https://dc.lft.to/lastmile_qr_scan", "ios": "https://dc.lft.to/lastmile_qr_scan"}, "fusion_lon": 0.0, "is_reserved": 0, "is_disabled": 0, "fusion_lat": 0.0, "type": "electric_scooter", "name": "6b5e24df17191cb0c1383c0dbfa247e8", "lat": 38.89223916666667, "bike_id": "6b5e24df17191cb0c1383c0dbfa247e8"}, {"lon": -77.07954516666666, "rental_uris": {"android": "https://dc.lft.to/lastmile_qr_scan", "ios": "https://dc.lft.to/lastmile_qr_scan"}, "fusion_lon": 0.0, "is_reserved": 0, "is_disabled": 0, "fusion_lat": 0.0, "type": "electric_scooter", "name": "901121c6df24132b8a25f08fe99736b3", "lat": 38.94563433333333, "bike_id": "901121c6df24132b8a25f08fe99736b3"}, {"lon": -77.02107266666667, "rental_uris": {"android": "https://dc.lft.to/lastmile_qr_scan", "ios": "https://dc.lft.to/lastmile_qr_scan"}, "fusion_lon": 0.0, "is_reserved": 0, "is_disabled": 0, "fusion_lat": 0.0, "type": "electric_scooter", "name": "84887768c38d4d2340adc15f8123fde7", "lat": 38.893068, "bike_id": "84887768c38d4d2340adc15f8123fde7"}, {"lon": -76.973475, "rental_uris": {"android": "https://dc.lft.to/lastmile_qr_scan", "ios": "https://dc.lft.to/lastmile_qr_scan"}, "fusion_lon": 0.0, "is_reserved": 0, "is_disabled": 0, "fusion_lat": 0.0, "type": "electric_scooter", "name": "ff956a7fbef409b9c5c8b555d574fc8f", "lat": 38.927650166666666, "bike_id": "ff956a7fbef409b9c5c8b555d574fc8f"}, {"lon": -77.035467, "rental_uris": {"android": "https://dc.lft.to/lastmile_qr_scan", "ios": "https://dc.lft.to/lastmile_qr_scan"}, "fusion_lon": 0.0, "is_reserved": 0, "is_disabled": 0, "fusion_lat": 0.0, "type": "electric_scooter", "name": "287c1192582d66cc02bc7571f68ec11f", "lat": 38.90484766666667, "bike_id": "287c1192582d66cc02bc7571f68ec11f"}, {"lon": -77.2333975, "rental_uris": {"android": "https://dc.lft.to/lastmile_qr_scan", "ios": "https://dc.lft.to/lastmile_qr_scan"}, "fusion_lon": 0.0, "is_reserved": 0, "is_disabled": 0, "fusion_lat": 0.0, "type": "electric_bike", "name": "0fbaa0e08ef9d8d770699476ebee87b3", "lat": 38.924891333333335, "bike_id": "0fbaa0e08ef9d8d770699476ebee87b3"}, {"lon": -77.04346166666667, "rental_uris": {"android": "https://dc.lft.to/lastmile_qr_scan", "ios": "https://dc.lft.to/lastmile_qr_scan"}, "fusion_lon": 0.0, "is_reserved": 0, "is_disabled": 0, "fusion_lat": 0.0, "type": "electric_scooter", "name": "a3c33abbd0c156f066e815d6d7064f1a", "lat": 38.90321516666667, "bike_id": "a3c33abbd0c156f066e815d6d7064f1a"}, {"lon": -76.93757183333334, "rental_uris": {"android": "https://dc.lft.to/lastmile_qr_scan", "ios": "https://dc.lft.to/lastmile_qr_scan"}, "fusion_lon": 0.0, "is_reserved": 0, "is_disabled": 0, "fusion_lat": 0.0, "type": "electric_scooter", "name": "7809f424f5ad982df71ad5841a5e9c4e", "lat": 38.890459166666666, "bike_id": "7809f424f5ad982df71ad5841a5e9c4e"}, {"lon": -77.03333283333333, "rental_uris": {"android": "https://dc.lft.to/lastmile_qr_scan", "ios": "https://dc.lft.to/lastmile_qr_scan"}, "fusion_lon": 0.0, "is_reserved": 0, "is_disabled": 0, "fusion_lat": 0.0, "type": "electric_scooter", "name": "29e306b8cf631bf956e0247015035883", "lat": 38.92443683333333, "bike_id": "29e306b8cf631bf956e0247015035883"}, {"lon": -76.93259783333333, "rental_uris": {"android": "https://dc.lft.to/lastmile_qr_scan", "ios": "https://dc.lft.to/lastmile_qr_scan"}, "fusion_lon": 0.0, "is_reserved": 0, "is_disabled": 0, "fusion_lat": 0.0, "type": "electric_scooter", "name": "4d914b82559cc5361fbf79a8e6cc17d1", "lat": 38.887460833333336, "bike_id": "4d914b82559cc5361fbf79a8e6cc17d1"}, {"lon": -77.021326, "rental_uris": {"android": "https://dc.lft.to/lastmile_qr_scan", "ios": "https://dc.lft.to/lastmile_qr_scan"}, "fusion_lon": 0.0, "is_reserved": 0, "is_disabled": 0, "fusion_lat": 0.0, "type": "electric_scooter", "name": "af0aa91a206dc53d6672c6396af80f9f", "lat": 38.92490333333333, "bike_id": "af0aa91a206dc53d6672c6396af80f9f"}, {"lon": -77.0178925, "rental_uris": {"android": "https://dc.lft.to/lastmile_qr_scan", "ios": "https://dc.lft.to/lastmile_qr_scan"}, "fusion_lon": 0.0, "is_reserved": 0, "is_disabled": 0, "fusion_lat": 0.0, "type": "electric_scooter", "name": "2057a92e9f9bbc4f717eaafb6b7cfe41", "lat": 38.90248716666667, "bike_id": "2057a92e9f9bbc4f717eaafb6b7cfe41"}, {"lon": -77.04334083333333, "rental_uris": {"android": "https://dc.lft.to/lastmile_qr_scan", "ios": "https://dc.lft.to/lastmile_qr_scan"}, "fusion_lon": 0.0, "is_reserved": 0, "is_disabled": 0, "fusion_lat": 0.0, "type": "electric_scooter", "name": "b75a03b4b76dc86975cdebfac2ee03f7", "lat": 38.89224883333333, "bike_id": "b75a03b4b76dc86975cdebfac2ee03f7"}, {"lon": -77.039505, "rental_uris": {"android": "https://dc.lft.to/lastmile_qr_scan", "ios": "https://dc.lft.to/lastmile_qr_scan"}, "fusion_lon": 0.0, "is_reserved": 0, "is_disabled": 0, "fusion_lat": 0.0, "type": "electric_scooter", "name": "0f3f229f3a6b5afcaae259b08163eb3f", "lat": 38.94629616666667, "bike_id": "0f3f229f3a6b5afcaae259b08163eb3f"}, {"lon": -77.03834516666667, "rental_uris": {"android": "https://dc.lft.to/lastmile_qr_scan", "ios": "https://dc.lft.to/lastmile_qr_scan"}, "fusion_lon": 0.0, "is_reserved": 0, "is_disabled": 0, "fusion_lat": 0.0, "type": "electric_scooter", "name": "a526076217e478c9b11bb173fe3c2220", "lat": 38.911688, "bike_id": "a526076217e478c9b11bb173fe3c2220"}, {"lon": -77.02373833333333, "rental_uris": {"android": "https://dc.lft.to/lastmile_qr_scan", "ios": "https://dc.lft.to/lastmile_qr_scan"}, "fusion_lon": 0.0, "is_reserved": 0, "is_disabled": 0, "fusion_lat": 0.0, "type": "electric_scooter", "name": "3fdf33f9f2a4158223b2bdad0afd3b39", "lat": 38.90201183333333, "bike_id": "3fdf33f9f2a4158223b2bdad0afd3b39"}, {"lon": -77.03662333333334, "rental_uris": {"android": "https://dc.lft.to/lastmile_qr_scan", "ios": "https://dc.lft.to/lastmile_qr_scan"}, "fusion_lon": 0.0, "is_reserved": 0, "is_disabled": 0, "fusion_lat": 0.0, "type": "electric_scooter", "name": "73b4f0787e79d8ceb86d52858eed0ac5", "lat": 38.932035166666665, "bike_id": "73b4f0787e79d8ceb86d52858eed0ac5"}, {"lon": -77.03214416666667, "rental_uris": {"android": "https://dc.lft.to/lastmile_qr_scan", "ios": "https://dc.lft.to/lastmile_qr_scan"}, "fusion_lon": 0.0, "is_reserved": 0, "is_disabled": 0, "fusion_lat": 0.0, "type": "electric_scooter", "name": "9fce087ae51ae8581fcfd379bb5ded5a", "lat": 38.9179705, "bike_id": "9fce087ae51ae8581fcfd379bb5ded5a"}, {"lon": -77.0123725, "rental_uris": {"android": "https://dc.lft.to/lastmile_qr_scan", "ios": "https://dc.lft.to/lastmile_qr_scan"}, "fusion_lon": 0.0, "is_reserved": 0, "is_disabled": 0, "fusion_lat": 0.0, "type": "electric_scooter", "name": "48aaa5e007f272083b8fb0fe2749d785", "lat": 38.89850966666667, "bike_id": "48aaa5e007f272083b8fb0fe2749d785"}, {"lon": -77.05026616666666, "rental_uris": {"android": "https://dc.lft.to/lastmile_qr_scan", "ios": "https://dc.lft.to/lastmile_qr_scan"}, "fusion_lon": 0.0, "is_reserved": 0, "is_disabled": 0, "fusion_lat": 0.0, "type": "electric_scooter", "name": "ddb12dea8a2aeaffdf6a5f5833167869", "lat": 38.906301, "bike_id": "ddb12dea8a2aeaffdf6a5f5833167869"}, {"lon": -77.03828633333333, "rental_uris": {"android": "https://dc.lft.to/lastmile_qr_scan", "ios": "https://dc.lft.to/lastmile_qr_scan"}, "fusion_lon": 0.0, "is_reserved": 0, "is_disabled": 0, "fusion_lat": 0.0, "type": "electric_scooter", "name": "0e555e8d0829a05c8172b9942fc3e8bd", "lat": 38.945068666666664, "bike_id": "0e555e8d0829a05c8172b9942fc3e8bd"}, {"lon": -77.04352333333334, "rental_uris": {"android": "https://dc.lft.to/lastmile_qr_scan", "ios": "https://dc.lft.to/lastmile_qr_scan"}, "fusion_lon": 0.0, "is_reserved": 0, "is_disabled": 0, "fusion_lat": 0.0, "type": "electric_scooter", "name": "458a8f1e7993f389bc1cb6af9a0c1418", "lat": 38.908073333333334, "bike_id": "458a8f1e7993f389bc1cb6af9a0c1418"}, {"lon": -77.023698, "rental_uris": {"android": "https://dc.lft.to/lastmile_qr_scan", "ios": "https://dc.lft.to/lastmile_qr_scan"}, "fusion_lon": 0.0, "is_reserved": 0, "is_disabled": 0, "fusion_lat": 0.0, "type": "electric_scooter", "name": "dbfa249dfeb3d3b3d0f3b5b3ddf20b0a", "lat": 38.8922145, "bike_id": "dbfa249dfeb3d3b3d0f3b5b3ddf20b0a"}, {"lon": -77.027884, "rental_uris": {"android": "https://dc.lft.to/lastmile_qr_scan", "ios": "https://dc.lft.to/lastmile_qr_scan"}, "fusion_lon": 0.0, "is_reserved": 0, "is_disabled": 0, "fusion_lat": 0.0, "type": "electric_scooter", "name": "ff6abbf4fc3f9fe72abade53be19299a", "lat": 38.973491833333334, "bike_id": "ff6abbf4fc3f9fe72abade53be19299a"}, {"lon": -77.00704883333333, "rental_uris": {"android": "https://dc.lft.to/lastmile_qr_scan", "ios": "https://dc.lft.to/lastmile_qr_scan"}, "fusion_lon": 0.0, "is_reserved": 0, "is_disabled": 0, "fusion_lat": 0.0, "type": "electric_scooter", "name": "6094d2f05e84acc773e3177cd76d7727", "lat": 38.905849333333336, "bike_id": "6094d2f05e84acc773e3177cd76d7727"}, {"lon": -77.01971366666666, "rental_uris": {"android": "https://dc.lft.to/lastmile_qr_scan", "ios": "https://dc.lft.to/lastmile_qr_scan"}, "fusion_lon": 0.0, "is_reserved": 0, "is_disabled": 0, "fusion_lat": 0.0, "type": "electric_scooter", "name": "75467b16fe0ce4b00f56920dab2c29d2", "lat": 38.9190305, "bike_id": "75467b16fe0ce4b00f56920dab2c29d2"}, {"lon": -77.038538, "rental_uris": {"android": "https://dc.lft.to/lastmile_qr_scan", "ios": "https://dc.lft.to/lastmile_qr_scan"}, "fusion_lon": 0.0, "is_reserved": 0, "is_disabled": 0, "fusion_lat": 0.0, "type": "electric_scooter", "name": "23a79502da84ecf02313464dfd94548a", "lat": 38.90288283333334, "bike_id": "23a79502da84ecf02313464dfd94548a"}, {"lon": -76.98741283333334, "rental_uris": {"android": "https://dc.lft.to/lastmile_qr_scan", "ios": "https://dc.lft.to/lastmile_qr_scan"}, "fusion_lon": 0.0, "is_reserved": 0, "is_disabled": 0, "fusion_lat": 0.0, "type": "electric_scooter", "name": "c10efc0d5b7ed6a518d2dba337d0dd10", "lat": 38.90360866666666, "bike_id": "c10efc0d5b7ed6a518d2dba337d0dd10"}, {"lon": -77.06977616666667, "rental_uris": {"android": "https://dc.lft.to/lastmile_qr_scan", "ios": "https://dc.lft.to/lastmile_qr_scan"}, "fusion_lon": 0.0, "is_reserved": 0, "is_disabled": 0, "fusion_lat": 0.0, "type": "electric_scooter", "name": "1b0857d7b5475b991341346da304b71c", "lat": 38.9553045, "bike_id": "1b0857d7b5475b991341346da304b71c"}, {"lon": -77.021503, "rental_uris": {"android": "https://dc.lft.to/lastmile_qr_scan", "ios": "https://dc.lft.to/lastmile_qr_scan"}, "fusion_lon": 0.0, "is_reserved": 0, "is_disabled": 0, "fusion_lat": 0.0, "type": "electric_scooter", "name": "2c84d4e9cdf01e95337185eebd423bf3", "lat": 38.9246045, "bike_id": "2c84d4e9cdf01e95337185eebd423bf3"}, {"lon": -77.02990116666666, "rental_uris": {"android": "https://dc.lft.to/lastmile_qr_scan", "ios": "https://dc.lft.to/lastmile_qr_scan"}, "fusion_lon": 0.0, "is_reserved": 0, "is_disabled": 0, "fusion_lat": 0.0, "type": "electric_scooter", "name": "c0310a88a6f7a5fab4e56a2b01b2c605", "lat": 38.92240016666667, "bike_id": "c0310a88a6f7a5fab4e56a2b01b2c605"}, {"lon": -76.97281966666667, "rental_uris": {"android": "https://dc.lft.to/lastmile_qr_scan", "ios": "https://dc.lft.to/lastmile_qr_scan"}, "fusion_lon": 0.0, "is_reserved": 0, "is_disabled": 0, "fusion_lat": 0.0, "type": "electric_scooter", "name": "5af0653cd333c1bbda7b11c54ded00b8", "lat": 38.91716566666667, "bike_id": "5af0653cd333c1bbda7b11c54ded00b8"}, {"lon": -77.0295205, "rental_uris": {"android": "https://dc.lft.to/lastmile_qr_scan", "ios": "https://dc.lft.to/lastmile_qr_scan"}, "fusion_lon": 0.0, "is_reserved": 0, "is_disabled": 0, "fusion_lat": 0.0, "type": "electric_scooter", "name": "6ce89ca25c487f8ebd905d194508ea09", "lat": 38.91684, "bike_id": "6ce89ca25c487f8ebd905d194508ea09"}, {"lon": -77.026928, "rental_uris": {"android": "https://dc.lft.to/lastmile_qr_scan", "ios": "https://dc.lft.to/lastmile_qr_scan"}, "fusion_lon": 0.0, "is_reserved": 0, "is_disabled": 0, "fusion_lat": 0.0, "type": "electric_scooter", "name": "4df477aec0e29e97fe8c3da7239ffcd6", "lat": 38.92319483333333, "bike_id": "4df477aec0e29e97fe8c3da7239ffcd6"}, {"lon": -77.01813433333334, "rental_uris": {"android": "https://dc.lft.to/lastmile_qr_scan", "ios": "https://dc.lft.to/lastmile_qr_scan"}, "fusion_lon": 0.0, "is_reserved": 0, "is_disabled": 0, "fusion_lat": 0.0, "type": "electric_scooter", "name": "2511a3e664dba9b4f697dd367c165d47", "lat": 38.92159616666667, "bike_id": "2511a3e664dba9b4f697dd367c165d47"}, {"lon": -77.049331, "rental_uris": {"android": "https://dc.lft.to/lastmile_qr_scan", "ios": "https://dc.lft.to/lastmile_qr_scan"}, "fusion_lon": 0.0, "is_reserved": 0, "is_disabled": 0, "fusion_lat": 0.0, "type": "electric_scooter", "name": "0b86683b93d0bc2d3bf48a869a8e569f", "lat": 38.897415333333335, "bike_id": "0b86683b93d0bc2d3bf48a869a8e569f"}, {"lon": -77.04469916666666, "rental_uris": {"android": "https://dc.lft.to/lastmile_qr_scan", "ios": "https://dc.lft.to/lastmile_qr_scan"}, "fusion_lon": 0.0, "is_reserved": 0, "is_disabled": 0, "fusion_lat": 0.0, "type": "electric_scooter", "name": "a478443021b5376f9d6be76ef367adcd", "lat": 38.892233, "bike_id": "a478443021b5376f9d6be76ef367adcd"}, {"lon": -77.04188216666667, "rental_uris": {"android": "https://dc.lft.to/lastmile_qr_scan", "ios": "https://dc.lft.to/lastmile_qr_scan"}, "fusion_lon": 0.0, "is_reserved": 0, "is_disabled": 0, "fusion_lat": 0.0, "type": "electric_scooter", "name": "63d62f51ef95547864e1cd06d589d3c5", "lat": 38.905399333333335, "bike_id": "63d62f51ef95547864e1cd06d589d3c5"}, {"lon": -76.99073583333333, "rental_uris": {"android": "https://dc.lft.to/lastmile_qr_scan", "ios": "https://dc.lft.to/lastmile_qr_scan"}, "fusion_lon": 0.0, "is_reserved": 0, "is_disabled": 0, "fusion_lat": 0.0, "type": "electric_bike", "name": "5ed10efe6e5ae3861b0e74b82d7b1133", "lat": 38.94261266666667, "bike_id": "5ed10efe6e5ae3861b0e74b82d7b1133"}, {"lon": -77.0091905, "rental_uris": {"android": "https://dc.lft.to/lastmile_qr_scan", "ios": "https://dc.lft.to/lastmile_qr_scan"}, "fusion_lon": 0.0, "is_reserved": 0, "is_disabled": 0, "fusion_lat": 0.0, "type": "electric_scooter", "name": "e70a6eb62b0546cc7a9ba6b0a7ed5c67", "lat": 38.89646, "bike_id": "e70a6eb62b0546cc7a9ba6b0a7ed5c67"}, {"lon": -77.04658, "rental_uris": {"android": "https://dc.lft.to/lastmile_qr_scan", "ios": "https://dc.lft.to/lastmile_qr_scan"}, "fusion_lon": 0.0, "is_reserved": 0, "is_disabled": 0, "fusion_lat": 0.0, "type": "electric_scooter", "name": "74d5cdfec294a513261ca7700686a0fa", "lat": 38.892308, "bike_id": "74d5cdfec294a513261ca7700686a0fa"}, {"lon": -77.051759, "rental_uris": {"android": "https://dc.lft.to/lastmile_qr_scan", "ios": "https://dc.lft.to/lastmile_qr_scan"}, "fusion_lon": 0.0, "is_reserved": 0, "is_disabled": 0, "fusion_lat": 0.0, "type": "electric_scooter", "name": "e8a359e5dc8f90cf6cd60a3b9222106c", "lat": 38.923435166666664, "bike_id": "e8a359e5dc8f90cf6cd60a3b9222106c"}, {"lon": -77.0253535, "rental_uris": {"android": "https://dc.lft.to/lastmile_qr_scan", "ios": "https://dc.lft.to/lastmile_qr_scan"}, "fusion_lon": 0.0, "is_reserved": 0, "is_disabled": 0, "fusion_lat": 0.0, "type": "electric_scooter", "name": "dd38e6a3466c7cde64c5e456bf5ce26d", "lat": 38.940904833333335, "bike_id": "dd38e6a3466c7cde64c5e456bf5ce26d"}, {"lon": -77.03864583333333, "rental_uris": {"android": "https://dc.lft.to/lastmile_qr_scan", "ios": "https://dc.lft.to/lastmile_qr_scan"}, "fusion_lon": 0.0, "is_reserved": 0, "is_disabled": 0, "fusion_lat": 0.0, "type": "electric_scooter", "name": "d32b08dbd173c02b37f3a05aa51918a9", "lat": 38.906577166666665, "bike_id": "d32b08dbd173c02b37f3a05aa51918a9"}, {"lon": -77.000666, "rental_uris": {"android": "https://dc.lft.to/lastmile_qr_scan", "ios": "https://dc.lft.to/lastmile_qr_scan"}, "fusion_lon": 0.0, "is_reserved": 0, "is_disabled": 0, "fusion_lat": 0.0, "type": "electric_scooter", "name": "2ec6fe4ed363968bba382f927bba9728", "lat": 38.8738345, "bike_id": "2ec6fe4ed363968bba382f927bba9728"}, {"lon": -77.02598783333333, "rental_uris": {"android": "https://dc.lft.to/lastmile_qr_scan", "ios": "https://dc.lft.to/lastmile_qr_scan"}, "fusion_lon": 0.0, "is_reserved": 0, "is_disabled": 0, "fusion_lat": 0.0, "type": "electric_scooter", "name": "e229d19fcc618886b9e7c01078630d63", "lat": 38.88433, "bike_id": "e229d19fcc618886b9e7c01078630d63"}, {"lon": -77.02206783333334, "rental_uris": {"android": "https://dc.lft.to/lastmile_qr_scan", "ios": "https://dc.lft.to/lastmile_qr_scan"}, "fusion_lon": 0.0, "is_reserved": 0, "is_disabled": 0, "fusion_lat": 0.0, "type": "electric_scooter", "name": "07d1b059db53fdbbb1d57ab8206de4e2", "lat": 38.88717416666667, "bike_id": "07d1b059db53fdbbb1d57ab8206de4e2"}, {"lon": -77.003352, "rental_uris": {"android": "https://dc.lft.to/lastmile_qr_scan", "ios": "https://dc.lft.to/lastmile_qr_scan"}, "fusion_lon": 0.0, "is_reserved": 0, "is_disabled": 0, "fusion_lat": 0.0, "type": "electric_scooter", "name": "fe5e2116945b4a8c6634daf993534c74", "lat": 38.893565833333334, "bike_id": "fe5e2116945b4a8c6634daf993534c74"}, {"lon": -77.048535, "rental_uris": {"android": "https://dc.lft.to/lastmile_qr_scan", "ios": "https://dc.lft.to/lastmile_qr_scan"}, "fusion_lon": 0.0, "is_reserved": 0, "is_disabled": 0, "fusion_lat": 0.0, "type": "electric_scooter", "name": "2550d92b306db19864a9235ae878ea8a", "lat": 38.90239416666667, "bike_id": "2550d92b306db19864a9235ae878ea8a"}, {"lon": -76.997614, "rental_uris": {"android": "https://dc.lft.to/lastmile_qr_scan", "ios": "https://dc.lft.to/lastmile_qr_scan"}, "fusion_lon": 0.0, "is_reserved": 0, "is_disabled": 0, "fusion_lat": 0.0, "type": "electric_bike", "name": "fc78f81d4afb19b9270b8fee93ac3936", "lat": 38.92283616666667, "bike_id": "fc78f81d4afb19b9270b8fee93ac3936"}, {"lon": -76.93755666666667, "rental_uris": {"android": "https://dc.lft.to/lastmile_qr_scan", "ios": "https://dc.lft.to/lastmile_qr_scan"}, "fusion_lon": 0.0, "is_reserved": 0, "is_disabled": 0, "fusion_lat": 0.0, "type": "electric_scooter", "name": "873f37b2db7e45f9636d13d850df8ea4", "lat": 38.8904735, "bike_id": "873f37b2db7e45f9636d13d850df8ea4"}, {"lon": -77.02125683333334, "rental_uris": {"android": "https://dc.lft.to/lastmile_qr_scan", "ios": "https://dc.lft.to/lastmile_qr_scan"}, "fusion_lon": 0.0, "is_reserved": 0, "is_disabled": 0, "fusion_lat": 0.0, "type": "electric_scooter", "name": "76bcc484cbaa25c7222e29ad6062cabe", "lat": 38.8874505, "bike_id": "76bcc484cbaa25c7222e29ad6062cabe"}, {"lon": -77.0254755, "rental_uris": {"android": "https://dc.lft.to/lastmile_qr_scan", "ios": "https://dc.lft.to/lastmile_qr_scan"}, "fusion_lon": 0.0, "is_reserved": 0, "is_disabled": 0, "fusion_lat": 0.0, "type": "electric_scooter", "name": "af23ae4378edfb464af1deda9d88405d", "lat": 38.939895, "bike_id": "af23ae4378edfb464af1deda9d88405d"}, {"lon": -76.99462783333334, "rental_uris": {"android": "https://dc.lft.to/lastmile_qr_scan", "ios": "https://dc.lft.to/lastmile_qr_scan"}, "fusion_lon": 0.0, "is_reserved": 0, "is_disabled": 0, "fusion_lat": 0.0, "type": "electric_scooter", "name": "146cadba1636ac6097189a290f6c1717", "lat": 38.86198533333334, "bike_id": "146cadba1636ac6097189a290f6c1717"}, {"lon": -77.04271283333334, "rental_uris": {"android": "https://dc.lft.to/lastmile_qr_scan", "ios": "https://dc.lft.to/lastmile_qr_scan"}, "fusion_lon": 0.0, "is_reserved": 0, "is_disabled": 0, "fusion_lat": 0.0, "type": "electric_scooter", "name": "b1e6a226e2ed001d1debe2b1a0d6db1d", "lat": 38.896031666666666, "bike_id": "b1e6a226e2ed001d1debe2b1a0d6db1d"}, {"lon": -77.01230483333333, "rental_uris": {"android": "https://dc.lft.to/lastmile_qr_scan", "ios": "https://dc.lft.to/lastmile_qr_scan"}, "fusion_lon": 0.0, "is_reserved": 0, "is_disabled": 0, "fusion_lat": 0.0, "type": "electric_scooter", "name": "092ecc38c6b919ecb19ba60dd28b9a78", "lat": 38.8697705, "bike_id": "092ecc38c6b919ecb19ba60dd28b9a78"}, {"lon": -77.04367283333333, "rental_uris": {"android": "https://dc.lft.to/lastmile_qr_scan", "ios": "https://dc.lft.to/lastmile_qr_scan"}, "fusion_lon": 0.0, "is_reserved": 0, "is_disabled": 0, "fusion_lat": 0.0, "type": "electric_scooter", "name": "f3569da8dd9764246feb3b7a8640dff2", "lat": 38.900144833333336, "bike_id": "f3569da8dd9764246feb3b7a8640dff2"}, {"lon": -77.02196983333333, "rental_uris": {"android": "https://dc.lft.to/lastmile_qr_scan", "ios": "https://dc.lft.to/lastmile_qr_scan"}, "fusion_lon": 0.0, "is_reserved": 0, "is_disabled": 0, "fusion_lat": 0.0, "type": "electric_scooter", "name": "aa91a8fcf8916b2408ec814b8e2445d4", "lat": 38.90148583333333, "bike_id": "aa91a8fcf8916b2408ec814b8e2445d4"}, {"lon": -77.007221, "rental_uris": {"android": "https://dc.lft.to/lastmile_qr_scan", "ios": "https://dc.lft.to/lastmile_qr_scan"}, "fusion_lon": 0.0, "is_reserved": 0, "is_disabled": 0, "fusion_lat": 0.0, "type": "electric_scooter", "name": "c90aee40b1d0599fb91ffe720d854011", "lat": 38.871604166666664, "bike_id": "c90aee40b1d0599fb91ffe720d854011"}, {"lon": -77.02177266666666, "rental_uris": {"android": "https://dc.lft.to/lastmile_qr_scan", "ios": "https://dc.lft.to/lastmile_qr_scan"}, "fusion_lon": 0.0, "is_reserved": 0, "is_disabled": 0, "fusion_lat": 0.0, "type": "electric_scooter", "name": "fb5e8c4bc1185bf21414811fd426dbd4", "lat": 38.8923105, "bike_id": "fb5e8c4bc1185bf21414811fd426dbd4"}, {"lon": -77.01375016666667, "rental_uris": {"android": "https://dc.lft.to/lastmile_qr_scan", "ios": "https://dc.lft.to/lastmile_qr_scan"}, "fusion_lon": 0.0, "is_reserved": 0, "is_disabled": 0, "fusion_lat": 0.0, "type": "electric_scooter", "name": "ebcd90ef6e0e3fd583b4f39f46b1fc0f", "lat": 38.869370833333335, "bike_id": "ebcd90ef6e0e3fd583b4f39f46b1fc0f"}, {"lon": -77.03734083333333, "rental_uris": {"android": "https://dc.lft.to/lastmile_qr_scan", "ios": "https://dc.lft.to/lastmile_qr_scan"}, "fusion_lon": 0.0, "is_reserved": 0, "is_disabled": 0, "fusion_lat": 0.0, "type": "electric_scooter", "name": "7ddb316d2008c8f92d4265618f509ce6", "lat": 38.91271916666667, "bike_id": "7ddb316d2008c8f92d4265618f509ce6"}, {"lon": -77.02710066666667, "rental_uris": {"android": "https://dc.lft.to/lastmile_qr_scan", "ios": "https://dc.lft.to/lastmile_qr_scan"}, "fusion_lon": 0.0, "is_reserved": 0, "is_disabled": 0, "fusion_lat": 0.0, "type": "electric_scooter", "name": "1f2c2cf704cff815155bd73874a4f51b", "lat": 38.906688, "bike_id": "1f2c2cf704cff815155bd73874a4f51b"}, {"lon": -77.08600616666666, "rental_uris": {"android": "https://dc.lft.to/lastmile_qr_scan", "ios": "https://dc.lft.to/lastmile_qr_scan"}, "fusion_lon": 0.0, "is_reserved": 0, "is_disabled": 0, "fusion_lat": 0.0, "type": "electric_scooter", "name": "ca27f367aa9783caa37cb52a37215112", "lat": 38.96071833333333, "bike_id": "ca27f367aa9783caa37cb52a37215112"}, {"lon": -77.03246533333333, "rental_uris": {"android": "https://dc.lft.to/lastmile_qr_scan", "ios": "https://dc.lft.to/lastmile_qr_scan"}, "fusion_lon": 0.0, "is_reserved": 0, "is_disabled": 0, "fusion_lat": 0.0, "type": "electric_scooter", "name": "acff92ea53f7b556563d5fa88ad33fc6", "lat": 38.91256766666667, "bike_id": "acff92ea53f7b556563d5fa88ad33fc6"}, {"lon": -76.9372765, "rental_uris": {"android": "https://dc.lft.to/lastmile_qr_scan", "ios": "https://dc.lft.to/lastmile_qr_scan"}, "fusion_lon": 0.0, "is_reserved": 0, "is_disabled": 0, "fusion_lat": 0.0, "type": "electric_scooter", "name": "ff7a2682c85f70ebfc0924d48be3f025", "lat": 38.89034983333333, "bike_id": "ff7a2682c85f70ebfc0924d48be3f025"}, {"lon": -77.006002, "rental_uris": {"android": "https://dc.lft.to/lastmile_qr_scan", "ios": "https://dc.lft.to/lastmile_qr_scan"}, "fusion_lon": 0.0, "is_reserved": 0, "is_disabled": 0, "fusion_lat": 0.0, "type": "electric_scooter", "name": "36cebd78d03eb977df260436d5b88fe6", "lat": 38.875737666666666, "bike_id": "36cebd78d03eb977df260436d5b88fe6"}, {"lon": -77.03171866666666, "rental_uris": {"android": "https://dc.lft.to/lastmile_qr_scan", "ios": "https://dc.lft.to/lastmile_qr_scan"}, "fusion_lon": 0.0, "is_reserved": 0, "is_disabled": 0, "fusion_lat": 0.0, "type": "electric_scooter", "name": "9313d6ff221c05c5e978c3116f2b4e5d", "lat": 38.914201, "bike_id": "9313d6ff221c05c5e978c3116f2b4e5d"}, {"lon": -77.02219516666666, "rental_uris": {"android": "https://dc.lft.to/lastmile_qr_scan", "ios": "https://dc.lft.to/lastmile_qr_scan"}, "fusion_lon": 0.0, "is_reserved": 0, "is_disabled": 0, "fusion_lat": 0.0, "type": "electric_scooter", "name": "b6422d48f6e425c98cc0ef0e63bf6ff5", "lat": 38.924789833333335, "bike_id": "b6422d48f6e425c98cc0ef0e63bf6ff5"}, {"lon": -76.97059316666666, "rental_uris": {"android": "https://dc.lft.to/lastmile_qr_scan", "ios": "https://dc.lft.to/lastmile_qr_scan"}, "fusion_lon": 0.0, "is_reserved": 0, "is_disabled": 0, "fusion_lat": 0.0, "type": "electric_bike", "name": "a752bebd892f00200512c6ee770284c0", "lat": 38.965470333333336, "bike_id": "a752bebd892f00200512c6ee770284c0"}, {"lon": -77.03160883333334, "rental_uris": {"android": "https://dc.lft.to/lastmile_qr_scan", "ios": "https://dc.lft.to/lastmile_qr_scan"}, "fusion_lon": 0.0, "is_reserved": 0, "is_disabled": 0, "fusion_lat": 0.0, "type": "electric_bike", "name": "9a45a3b013f08b2b05504ef0a738e377", "lat": 38.894568666666665, "bike_id": "9a45a3b013f08b2b05504ef0a738e377"}, {"lon": -77.0467725, "rental_uris": {"android": "https://dc.lft.to/lastmile_qr_scan", "ios": "https://dc.lft.to/lastmile_qr_scan"}, "fusion_lon": 0.0, "is_reserved": 0, "is_disabled": 0, "fusion_lat": 0.0, "type": "electric_scooter", "name": "29bd929bbebb357b159571c4dd260618", "lat": 38.892658833333336, "bike_id": "29bd929bbebb357b159571c4dd260618"}, {"lon": -77.03683466666666, "rental_uris": {"android": "https://dc.lft.to/lastmile_qr_scan", "ios": "https://dc.lft.to/lastmile_qr_scan"}, "fusion_lon": 0.0, "is_reserved": 0, "is_disabled": 0, "fusion_lat": 0.0, "type": "electric_scooter", "name": "7df661fa3c6f770793de0433193ebb21", "lat": 38.92261633333333, "bike_id": "7df661fa3c6f770793de0433193ebb21"}, {"lon": -77.02741766666666, "rental_uris": {"android": "https://dc.lft.to/lastmile_qr_scan", "ios": "https://dc.lft.to/lastmile_qr_scan"}, "fusion_lon": 0.0, "is_reserved": 0, "is_disabled": 0, "fusion_lat": 0.0, "type": "electric_scooter", "name": "d9b4194a614b33c04b7de55976bc28e8", "lat": 38.897595333333335, "bike_id": "d9b4194a614b33c04b7de55976bc28e8"}, {"lon": -77.07276333333333, "rental_uris": {"android": "https://dc.lft.to/lastmile_qr_scan", "ios": "https://dc.lft.to/lastmile_qr_scan"}, "fusion_lon": 0.0, "is_reserved": 0, "is_disabled": 0, "fusion_lat": 0.0, "type": "electric_scooter", "name": "1d119d28dc2548175cd57c3b34f6988a", "lat": 38.9347315, "bike_id": "1d119d28dc2548175cd57c3b34f6988a"}, {"lon": -76.993685, "rental_uris": {"android": "https://dc.lft.to/lastmile_qr_scan", "ios": "https://dc.lft.to/lastmile_qr_scan"}, "fusion_lon": 0.0, "is_reserved": 0, "is_disabled": 0, "fusion_lat": 0.0, "type": "electric_scooter", "name": "6d5f6800b99545d50c2e3adbf7d35d45", "lat": 38.889338, "bike_id": "6d5f6800b99545d50c2e3adbf7d35d45"}, {"lon": -77.02215533333333, "rental_uris": {"android": "https://dc.lft.to/lastmile_qr_scan", "ios": "https://dc.lft.to/lastmile_qr_scan"}, "fusion_lon": 0.0, "is_reserved": 0, "is_disabled": 0, "fusion_lat": 0.0, "type": "electric_scooter", "name": "1af324c1902c8524c07683732758c75d", "lat": 38.887100333333336, "bike_id": "1af324c1902c8524c07683732758c75d"}, {"lon": -77.03261633333334, "rental_uris": {"android": "https://dc.lft.to/lastmile_qr_scan", "ios": "https://dc.lft.to/lastmile_qr_scan"}, "fusion_lon": 0.0, "is_reserved": 0, "is_disabled": 0, "fusion_lat": 0.0, "type": "electric_scooter", "name": "c1b86551216f5828d0d8336b7f2bc079", "lat": 38.90233166666667, "bike_id": "c1b86551216f5828d0d8336b7f2bc079"}, {"lon": -77.029494, "rental_uris": {"android": "https://dc.lft.to/lastmile_qr_scan", "ios": "https://dc.lft.to/lastmile_qr_scan"}, "fusion_lon": 0.0, "is_reserved": 0, "is_disabled": 0, "fusion_lat": 0.0, "type": "electric_scooter", "name": "f04d328306ec1c1305c7c5166a111a23", "lat": 38.9324555, "bike_id": "f04d328306ec1c1305c7c5166a111a23"}, {"lon": -77.03300983333334, "rental_uris": {"android": "https://dc.lft.to/lastmile_qr_scan", "ios": "https://dc.lft.to/lastmile_qr_scan"}, "fusion_lon": 0.0, "is_reserved": 0, "is_disabled": 0, "fusion_lat": 0.0, "type": "electric_scooter", "name": "703a49455a6b201cc54cf059577f636a", "lat": 38.89918316666667, "bike_id": "703a49455a6b201cc54cf059577f636a"}, {"lon": -77.04648816666666, "rental_uris": {"android": "https://dc.lft.to/lastmile_qr_scan", "ios": "https://dc.lft.to/lastmile_qr_scan"}, "fusion_lon": 0.0, "is_reserved": 0, "is_disabled": 0, "fusion_lat": 0.0, "type": "electric_scooter", "name": "20325ad26100b7fcfa2adc4311dcb025", "lat": 38.899614, "bike_id": "20325ad26100b7fcfa2adc4311dcb025"}, {"lon": -77.01481966666667, "rental_uris": {"android": "https://dc.lft.to/lastmile_qr_scan", "ios": "https://dc.lft.to/lastmile_qr_scan"}, "fusion_lon": 0.0, "is_reserved": 0, "is_disabled": 0, "fusion_lat": 0.0, "type": "electric_scooter", "name": "1c700352bb11c5176a0db22ff0f0be53", "lat": 38.90728266666667, "bike_id": "1c700352bb11c5176a0db22ff0f0be53"}, {"lon": -76.93727633333333, "rental_uris": {"android": "https://dc.lft.to/lastmile_qr_scan", "ios": "https://dc.lft.to/lastmile_qr_scan"}, "fusion_lon": 0.0, "is_reserved": 0, "is_disabled": 0, "fusion_lat": 0.0, "type": "electric_scooter", "name": "942f9179b4ff9691e279b2ce12940290", "lat": 38.890301, "bike_id": "942f9179b4ff9691e279b2ce12940290"}, {"lon": -76.95201483333334, "rental_uris": {"android": "https://dc.lft.to/lastmile_qr_scan", "ios": "https://dc.lft.to/lastmile_qr_scan"}, "fusion_lon": 0.0, "is_reserved": 0, "is_disabled": 0, "fusion_lat": 0.0, "type": "electric_scooter", "name": "84255e81b70e8242ac0649460259ae2d", "lat": 38.904762, "bike_id": "84255e81b70e8242ac0649460259ae2d"}, {"lon": -77.06602833333334, "rental_uris": {"android": "https://dc.lft.to/lastmile_qr_scan", "ios": "https://dc.lft.to/lastmile_qr_scan"}, "fusion_lon": 0.0, "is_reserved": 0, "is_disabled": 0, "fusion_lat": 0.0, "type": "electric_scooter", "name": "13b2ec0b74fdbee3f214c5867bc21a5a", "lat": 38.9062075, "bike_id": "13b2ec0b74fdbee3f214c5867bc21a5a"}, {"lon": -76.98983166666666, "rental_uris": {"android": "https://dc.lft.to/lastmile_qr_scan", "ios": "https://dc.lft.to/lastmile_qr_scan"}, "fusion_lon": 0.0, "is_reserved": 0, "is_disabled": 0, "fusion_lat": 0.0, "type": "electric_scooter", "name": "1dc44b43c5f507b3af4ace0685e42b31", "lat": 38.924431, "bike_id": "1dc44b43c5f507b3af4ace0685e42b31"}, {"lon": -77.0316995, "rental_uris": {"android": "https://dc.lft.to/lastmile_qr_scan", "ios": "https://dc.lft.to/lastmile_qr_scan"}, "fusion_lon": 0.0, "is_reserved": 0, "is_disabled": 0, "fusion_lat": 0.0, "type": "electric_scooter", "name": "50d6486f72461c3a3a51e3347c422a77", "lat": 38.903660333333335, "bike_id": "50d6486f72461c3a3a51e3347c422a77"}, {"lon": -77.02024966666667, "rental_uris": {"android": "https://dc.lft.to/lastmile_qr_scan", "ios": "https://dc.lft.to/lastmile_qr_scan"}, "fusion_lon": 0.0, "is_reserved": 0, "is_disabled": 0, "fusion_lat": 0.0, "type": "electric_scooter", "name": "560069746e1e6c0c138ca11a037b5e80", "lat": 38.92440716666667, "bike_id": "560069746e1e6c0c138ca11a037b5e80"}, {"lon": -77.01394566666667, "rental_uris": {"android": "https://dc.lft.to/lastmile_qr_scan", "ios": "https://dc.lft.to/lastmile_qr_scan"}, "fusion_lon": 0.0, "is_reserved": 0, "is_disabled": 0, "fusion_lat": 0.0, "type": "electric_scooter", "name": "3e474c31f78437f149553990404bb1e2", "lat": 38.89221116666667, "bike_id": "3e474c31f78437f149553990404bb1e2"}, {"lon": -77.04196233333333, "rental_uris": {"android": "https://dc.lft.to/lastmile_qr_scan", "ios": "https://dc.lft.to/lastmile_qr_scan"}, "fusion_lon": 0.0, "is_reserved": 0, "is_disabled": 0, "fusion_lat": 0.0, "type": "electric_scooter", "name": "92324487d077fe7faf730e6dd294f8da", "lat": 38.8997655, "bike_id": "92324487d077fe7faf730e6dd294f8da"}, {"lon": -77.04402883333333, "rental_uris": {"android": "https://dc.lft.to/lastmile_qr_scan", "ios": "https://dc.lft.to/lastmile_qr_scan"}, "fusion_lon": 0.0, "is_reserved": 0, "is_disabled": 0, "fusion_lat": 0.0, "type": "electric_bike", "name": "726d7edb5fbadec3568d0a271c93cc70", "lat": 38.900187333333335, "bike_id": "726d7edb5fbadec3568d0a271c93cc70"}, {"lon": -77.01495333333334, "rental_uris": {"android": "https://dc.lft.to/lastmile_qr_scan", "ios": "https://dc.lft.to/lastmile_qr_scan"}, "fusion_lon": 0.0, "is_reserved": 0, "is_disabled": 0, "fusion_lat": 0.0, "type": "electric_scooter", "name": "67a5a92005dc848fce07ef266c42bc40", "lat": 38.95766116666667, "bike_id": "67a5a92005dc848fce07ef266c42bc40"}, {"lon": -77.0675415, "rental_uris": {"android": "https://dc.lft.to/lastmile_qr_scan", "ios": "https://dc.lft.to/lastmile_qr_scan"}, "fusion_lon": 0.0, "is_reserved": 0, "is_disabled": 0, "fusion_lat": 0.0, "type": "electric_scooter", "name": "f6e4cdfa5283fde16fd05cabf68e0dce", "lat": 38.90518766666667, "bike_id": "f6e4cdfa5283fde16fd05cabf68e0dce"}, {"lon": -77.0340545, "rental_uris": {"android": "https://dc.lft.to/lastmile_qr_scan", "ios": "https://dc.lft.to/lastmile_qr_scan"}, "fusion_lon": 0.0, "is_reserved": 0, "is_disabled": 0, "fusion_lat": 0.0, "type": "electric_scooter", "name": "4460f5340b85fd9753fd5b417a592910", "lat": 38.90256516666667, "bike_id": "4460f5340b85fd9753fd5b417a592910"}, {"lon": -77.03208016666666, "rental_uris": {"android": "https://dc.lft.to/lastmile_qr_scan", "ios": "https://dc.lft.to/lastmile_qr_scan"}, "fusion_lon": 0.0, "is_reserved": 0, "is_disabled": 0, "fusion_lat": 0.0, "type": "electric_scooter", "name": "ac441a7f991ef7b825e58ede6766cb12", "lat": 38.91774933333333, "bike_id": "ac441a7f991ef7b825e58ede6766cb12"}, {"lon": -77.03858666666666, "rental_uris": {"android": "https://dc.lft.to/lastmile_qr_scan", "ios": "https://dc.lft.to/lastmile_qr_scan"}, "fusion_lon": 0.0, "is_reserved": 0, "is_disabled": 0, "fusion_lat": 0.0, "type": "electric_scooter", "name": "43a356d794f50799809abfe3609cd31a", "lat": 38.92438883333333, "bike_id": "43a356d794f50799809abfe3609cd31a"}, {"lon": -77.06938383333333, "rental_uris": {"android": "https://dc.lft.to/lastmile_qr_scan", "ios": "https://dc.lft.to/lastmile_qr_scan"}, "fusion_lon": 0.0, "is_reserved": 0, "is_disabled": 0, "fusion_lat": 0.0, "type": "electric_scooter", "name": "037af91106c26f2aa835ea9edc507ea2", "lat": 38.917443166666665, "bike_id": "037af91106c26f2aa835ea9edc507ea2"}, {"lon": -77.059228, "rental_uris": {"android": "https://dc.lft.to/lastmile_qr_scan", "ios": "https://dc.lft.to/lastmile_qr_scan"}, "fusion_lon": 0.0, "is_reserved": 0, "is_disabled": 0, "fusion_lat": 0.0, "type": "electric_scooter", "name": "a7f3d45ddd71e7cc9044a411caa551d9", "lat": 38.9430655, "bike_id": "a7f3d45ddd71e7cc9044a411caa551d9"}, {"lon": -77.0487055, "rental_uris": {"android": "https://dc.lft.to/lastmile_qr_scan", "ios": "https://dc.lft.to/lastmile_qr_scan"}, "fusion_lon": 0.0, "is_reserved": 0, "is_disabled": 0, "fusion_lat": 0.0, "type": "electric_scooter", "name": "f48afbd04b73ab42fe4cefac69d329c1", "lat": 38.9161565, "bike_id": "f48afbd04b73ab42fe4cefac69d329c1"}, {"lon": -77.04045416666666, "rental_uris": {"android": "https://dc.lft.to/lastmile_qr_scan", "ios": "https://dc.lft.to/lastmile_qr_scan"}, "fusion_lon": 0.0, "is_reserved": 0, "is_disabled": 0, "fusion_lat": 0.0, "type": "electric_scooter", "name": "465bf1a50fc4eb1fa29fa0394e9c86a3", "lat": 38.905892, "bike_id": "465bf1a50fc4eb1fa29fa0394e9c86a3"}, {"lon": -77.04315083333333, "rental_uris": {"android": "https://dc.lft.to/lastmile_qr_scan", "ios": "https://dc.lft.to/lastmile_qr_scan"}, "fusion_lon": 0.0, "is_reserved": 0, "is_disabled": 0, "fusion_lat": 0.0, "type": "electric_scooter", "name": "9d180780402a27585194e493fc08bca0", "lat": 38.905742333333336, "bike_id": "9d180780402a27585194e493fc08bca0"}, {"lon": -76.99887016666666, "rental_uris": {"android": "https://dc.lft.to/lastmile_qr_scan", "ios": "https://dc.lft.to/lastmile_qr_scan"}, "fusion_lon": 0.0, "is_reserved": 0, "is_disabled": 0, "fusion_lat": 0.0, "type": "electric_scooter", "name": "1b1a8574db78e4ecebce70ee654679aa", "lat": 38.87923416666667, "bike_id": "1b1a8574db78e4ecebce70ee654679aa"}, {"lon": -77.03454433333333, "rental_uris": {"android": "https://dc.lft.to/lastmile_qr_scan", "ios": "https://dc.lft.to/lastmile_qr_scan"}, "fusion_lon": 0.0, "is_reserved": 0, "is_disabled": 0, "fusion_lat": 0.0, "type": "electric_scooter", "name": "7d2d4125540a0239226dcc834314b542", "lat": 38.9041155, "bike_id": "7d2d4125540a0239226dcc834314b542"}, {"lon": -77.069397, "rental_uris": {"android": "https://dc.lft.to/lastmile_qr_scan", "ios": "https://dc.lft.to/lastmile_qr_scan"}, "fusion_lon": 0.0, "is_reserved": 0, "is_disabled": 0, "fusion_lat": 0.0, "type": "electric_scooter", "name": "676ed49a2ddeaa0d7e41c06ced8c54c9", "lat": 38.917429, "bike_id": "676ed49a2ddeaa0d7e41c06ced8c54c9"}, {"lon": -77.0449205, "rental_uris": {"android": "https://dc.lft.to/lastmile_qr_scan", "ios": "https://dc.lft.to/lastmile_qr_scan"}, "fusion_lon": 0.0, "is_reserved": 0, "is_disabled": 0, "fusion_lat": 0.0, "type": "electric_scooter", "name": "c2075187468d020661e641507e495c1e", "lat": 38.899491833333336, "bike_id": "c2075187468d020661e641507e495c1e"}, {"lon": -76.98847666666667, "rental_uris": {"android": "https://dc.lft.to/lastmile_qr_scan", "ios": "https://dc.lft.to/lastmile_qr_scan"}, "fusion_lon": 0.0, "is_reserved": 0, "is_disabled": 0, "fusion_lat": 0.0, "type": "electric_bike", "name": "936492ffd4ad6f379bffc28dc7b0172e", "lat": 38.842801, "bike_id": "936492ffd4ad6f379bffc28dc7b0172e"}, {"lon": -77.0467205, "rental_uris": {"android": "https://dc.lft.to/lastmile_qr_scan", "ios": "https://dc.lft.to/lastmile_qr_scan"}, "fusion_lon": 0.0, "is_reserved": 0, "is_disabled": 0, "fusion_lat": 0.0, "type": "electric_scooter", "name": "2d27cb15352228ed0518e946aca7b637", "lat": 38.900474833333334, "bike_id": "2d27cb15352228ed0518e946aca7b637"}, {"lon": -77.03864666666666, "rental_uris": {"android": "https://dc.lft.to/lastmile_qr_scan", "ios": "https://dc.lft.to/lastmile_qr_scan"}, "fusion_lon": 0.0, "is_reserved": 0, "is_disabled": 0, "fusion_lat": 0.0, "type": "electric_scooter", "name": "eb9186a345ce57ca5219f98b999abeec", "lat": 38.906583166666664, "bike_id": "eb9186a345ce57ca5219f98b999abeec"}, {"lon": -77.04681366666667, "rental_uris": {"android": "https://dc.lft.to/lastmile_qr_scan", "ios": "https://dc.lft.to/lastmile_qr_scan"}, "fusion_lon": 0.0, "is_reserved": 0, "is_disabled": 0, "fusion_lat": 0.0, "type": "electric_scooter", "name": "17725aa148a8c4b10011a6cc8b307144", "lat": 38.921172166666665, "bike_id": "17725aa148a8c4b10011a6cc8b307144"}, {"lon": -77.0669325, "rental_uris": {"android": "https://dc.lft.to/lastmile_qr_scan", "ios": "https://dc.lft.to/lastmile_qr_scan"}, "fusion_lon": 0.0, "is_reserved": 0, "is_disabled": 0, "fusion_lat": 0.0, "type": "electric_bike", "name": "3892f535353ef5007f99d89c378133c1", "lat": 38.84561433333333, "bike_id": "3892f535353ef5007f99d89c378133c1"}, {"lon": -77.03141466666666, "rental_uris": {"android": "https://dc.lft.to/lastmile_qr_scan", "ios": "https://dc.lft.to/lastmile_qr_scan"}, "fusion_lon": 0.0, "is_reserved": 0, "is_disabled": 0, "fusion_lat": 0.0, "type": "electric_scooter", "name": "b2849b7fc0ac7355b86a8455a9b45d20", "lat": 38.910555333333335, "bike_id": "b2849b7fc0ac7355b86a8455a9b45d20"}, {"lon": -77.05354383333334, "rental_uris": {"android": "https://dc.lft.to/lastmile_qr_scan", "ios": "https://dc.lft.to/lastmile_qr_scan"}, "fusion_lon": 0.0, "is_reserved": 0, "is_disabled": 0, "fusion_lat": 0.0, "type": "electric_scooter", "name": "7add644ad6578a9e3daa511f3a08d023", "lat": 38.92794466666667, "bike_id": "7add644ad6578a9e3daa511f3a08d023"}, {"lon": -77.017966, "rental_uris": {"android": "https://dc.lft.to/lastmile_qr_scan", "ios": "https://dc.lft.to/lastmile_qr_scan"}, "fusion_lon": 0.0, "is_reserved": 0, "is_disabled": 0, "fusion_lat": 0.0, "type": "electric_scooter", "name": "e1bb402f332fab0096c3a4906f8d476e", "lat": 38.91398, "bike_id": "e1bb402f332fab0096c3a4906f8d476e"}, {"lon": -77.03277833333334, "rental_uris": {"android": "https://dc.lft.to/lastmile_qr_scan", "ios": "https://dc.lft.to/lastmile_qr_scan"}, "fusion_lon": 0.0, "is_reserved": 0, "is_disabled": 0, "fusion_lat": 0.0, "type": "electric_scooter", "name": "1addc97ce1f8f32d72b533552afdda0f", "lat": 38.89916433333333, "bike_id": "1addc97ce1f8f32d72b533552afdda0f"}, {"lon": -76.96787833333333, "rental_uris": {"android": "https://dc.lft.to/lastmile_qr_scan", "ios": "https://dc.lft.to/lastmile_qr_scan"}, "fusion_lon": 0.0, "is_reserved": 0, "is_disabled": 0, "fusion_lat": 0.0, "type": "electric_scooter", "name": "e400d04ba183eff482f3fe5f661512bd", "lat": 38.8734155, "bike_id": "e400d04ba183eff482f3fe5f661512bd"}, {"lon": -77.05470716666666, "rental_uris": {"android": "https://dc.lft.to/lastmile_qr_scan", "ios": "https://dc.lft.to/lastmile_qr_scan"}, "fusion_lon": 0.0, "is_reserved": 0, "is_disabled": 0, "fusion_lat": 0.0, "type": "electric_scooter", "name": "ebd1499499c91ac00cc0a928356f4738", "lat": 38.923253333333335, "bike_id": "ebd1499499c91ac00cc0a928356f4738"}, {"lon": -77.0211565, "rental_uris": {"android": "https://dc.lft.to/lastmile_qr_scan", "ios": "https://dc.lft.to/lastmile_qr_scan"}, "fusion_lon": 0.0, "is_reserved": 0, "is_disabled": 0, "fusion_lat": 0.0, "type": "electric_scooter", "name": "7bc13b5a1b4a26d2f7471a66ed10bfe8", "lat": 38.924307666666664, "bike_id": "7bc13b5a1b4a26d2f7471a66ed10bfe8"}, {"lon": -77.04472033333333, "rental_uris": {"android": "https://dc.lft.to/lastmile_qr_scan", "ios": "https://dc.lft.to/lastmile_qr_scan"}, "fusion_lon": 0.0, "is_reserved": 0, "is_disabled": 0, "fusion_lat": 0.0, "type": "electric_scooter", "name": "1a0177dc285280504ca8dd0fb3cc5dc8", "lat": 38.89221666666667, "bike_id": "1a0177dc285280504ca8dd0fb3cc5dc8"}, {"lon": -77.03352433333333, "rental_uris": {"android": "https://dc.lft.to/lastmile_qr_scan", "ios": "https://dc.lft.to/lastmile_qr_scan"}, "fusion_lon": 0.0, "is_reserved": 0, "is_disabled": 0, "fusion_lat": 0.0, "type": "electric_bike", "name": "ed3c7d86d9db81f146108031b14a3e77", "lat": 38.9723465, "bike_id": "ed3c7d86d9db81f146108031b14a3e77"}, {"lon": -77.03946216666667, "rental_uris": {"android": "https://dc.lft.to/lastmile_qr_scan", "ios": "https://dc.lft.to/lastmile_qr_scan"}, "fusion_lon": 0.0, "is_reserved": 0, "is_disabled": 0, "fusion_lat": 0.0, "type": "electric_scooter", "name": "f960406fa9f33362ca65c4faef155f70", "lat": 38.9028045, "bike_id": "f960406fa9f33362ca65c4faef155f70"}, {"lon": -77.04658816666667, "rental_uris": {"android": "https://dc.lft.to/lastmile_qr_scan", "ios": "https://dc.lft.to/lastmile_qr_scan"}, "fusion_lon": 0.0, "is_reserved": 0, "is_disabled": 0, "fusion_lat": 0.0, "type": "electric_scooter", "name": "1173c1b7239adf120cb196d44d179f75", "lat": 38.894675, "bike_id": "1173c1b7239adf120cb196d44d179f75"}, {"lon": -76.99125633333334, "rental_uris": {"android": "https://dc.lft.to/lastmile_qr_scan", "ios": "https://dc.lft.to/lastmile_qr_scan"}, "fusion_lon": 0.0, "is_reserved": 0, "is_disabled": 0, "fusion_lat": 0.0, "type": "electric_scooter", "name": "1824c7037d48120fc7f51e0d940eeb4f", "lat": 38.863800166666664, "bike_id": "1824c7037d48120fc7f51e0d940eeb4f"}, {"lon": -77.0243625, "rental_uris": {"android": "https://dc.lft.to/lastmile_qr_scan", "ios": "https://dc.lft.to/lastmile_qr_scan"}, "fusion_lon": 0.0, "is_reserved": 0, "is_disabled": 0, "fusion_lat": 0.0, "type": "electric_scooter", "name": "277dd731f38f0ac251ab1e94cd31d11c", "lat": 38.9170255, "bike_id": "277dd731f38f0ac251ab1e94cd31d11c"}, {"lon": -77.0328045, "rental_uris": {"android": "https://dc.lft.to/lastmile_qr_scan", "ios": "https://dc.lft.to/lastmile_qr_scan"}, "fusion_lon": 0.0, "is_reserved": 0, "is_disabled": 0, "fusion_lat": 0.0, "type": "electric_scooter", "name": "f5dd4e60904bd2030d14b1fd0c222c60", "lat": 38.9396815, "bike_id": "f5dd4e60904bd2030d14b1fd0c222c60"}, {"lon": -76.910649, "rental_uris": {"android": "https://dc.lft.to/lastmile_qr_scan", "ios": "https://dc.lft.to/lastmile_qr_scan"}, "fusion_lon": 0.0, "is_reserved": 0, "is_disabled": 0, "fusion_lat": 0.0, "type": "electric_bike", "name": "4244b3b064b8980bd8ecf574978a9f05", "lat": 39.010764, "bike_id": "4244b3b064b8980bd8ecf574978a9f05"}, {"lon": -77.02187183333334, "rental_uris": {"android": "https://dc.lft.to/lastmile_qr_scan", "ios": "https://dc.lft.to/lastmile_qr_scan"}, "fusion_lon": 0.0, "is_reserved": 0, "is_disabled": 0, "fusion_lat": 0.0, "type": "electric_scooter", "name": "f7f9da101bfff1099e1babeb6dc68aef", "lat": 38.903613166666666, "bike_id": "f7f9da101bfff1099e1babeb6dc68aef"}, {"lon": -77.034226, "rental_uris": {"android": "https://dc.lft.to/lastmile_qr_scan", "ios": "https://dc.lft.to/lastmile_qr_scan"}, "fusion_lon": 0.0, "is_reserved": 0, "is_disabled": 0, "fusion_lat": 0.0, "type": "electric_scooter", "name": "032226b3acd2aeeae0b09fad46f9eddb", "lat": 38.909557, "bike_id": "032226b3acd2aeeae0b09fad46f9eddb"}, {"lon": -77.040009, "rental_uris": {"android": "https://dc.lft.to/lastmile_qr_scan", "ios": "https://dc.lft.to/lastmile_qr_scan"}, "fusion_lon": 0.0, "is_reserved": 0, "is_disabled": 0, "fusion_lat": 0.0, "type": "electric_scooter", "name": "2ae1edb7f12e665020fa42bbf021ab4e", "lat": 38.914124666666666, "bike_id": "2ae1edb7f12e665020fa42bbf021ab4e"}, {"lon": -77.02480883333334, "rental_uris": {"android": "https://dc.lft.to/lastmile_qr_scan", "ios": "https://dc.lft.to/lastmile_qr_scan"}, "fusion_lon": 0.0, "is_reserved": 0, "is_disabled": 0, "fusion_lat": 0.0, "type": "electric_scooter", "name": "f9c2c2ccfcb92d2bb802db39a3b3cf55", "lat": 38.9419625, "bike_id": "f9c2c2ccfcb92d2bb802db39a3b3cf55"}, {"lon": -77.041972, "rental_uris": {"android": "https://dc.lft.to/lastmile_qr_scan", "ios": "https://dc.lft.to/lastmile_qr_scan"}, "fusion_lon": 0.0, "is_reserved": 0, "is_disabled": 0, "fusion_lat": 0.0, "type": "electric_scooter", "name": "6fde9d5692bf50c5a0b8125dfe050433", "lat": 38.9073855, "bike_id": "6fde9d5692bf50c5a0b8125dfe050433"}, {"lon": -77.03850583333333, "rental_uris": {"android": "https://dc.lft.to/lastmile_qr_scan", "ios": "https://dc.lft.to/lastmile_qr_scan"}, "fusion_lon": 0.0, "is_reserved": 0, "is_disabled": 0, "fusion_lat": 0.0, "type": "electric_scooter", "name": "9f31901784d43652a686754ef18ac9d8", "lat": 38.907687333333335, "bike_id": "9f31901784d43652a686754ef18ac9d8"}, {"lon": -77.00393583333333, "rental_uris": {"android": "https://dc.lft.to/lastmile_qr_scan", "ios": "https://dc.lft.to/lastmile_qr_scan"}, "fusion_lon": 0.0, "is_reserved": 0, "is_disabled": 0, "fusion_lat": 0.0, "type": "electric_scooter", "name": "6491ebafb53644cab2d436e7459dd086", "lat": 38.87647316666666, "bike_id": "6491ebafb53644cab2d436e7459dd086"}, {"lon": -77.01349666666667, "rental_uris": {"android": "https://dc.lft.to/lastmile_qr_scan", "ios": "https://dc.lft.to/lastmile_qr_scan"}, "fusion_lon": 0.0, "is_reserved": 0, "is_disabled": 0, "fusion_lat": 0.0, "type": "electric_scooter", "name": "5856100cd80e5e5d1823599578457e37", "lat": 38.918621, "bike_id": "5856100cd80e5e5d1823599578457e37"}, {"lon": -77.05263883333333, "rental_uris": {"android": "https://dc.lft.to/lastmile_qr_scan", "ios": "https://dc.lft.to/lastmile_qr_scan"}, "fusion_lon": 0.0, "is_reserved": 0, "is_disabled": 0, "fusion_lat": 0.0, "type": "electric_scooter", "name": "03fee617feade4f92ca23f6feeef44f8", "lat": 38.927623, "bike_id": "03fee617feade4f92ca23f6feeef44f8"}, {"lon": -77.01010083333334, "rental_uris": {"android": "https://dc.lft.to/lastmile_qr_scan", "ios": "https://dc.lft.to/lastmile_qr_scan"}, "fusion_lon": 0.0, "is_reserved": 0, "is_disabled": 0, "fusion_lat": 0.0, "type": "electric_scooter", "name": "0cd61eded42feaf18bcce9f215d47d85", "lat": 38.9140545, "bike_id": "0cd61eded42feaf18bcce9f215d47d85"}, {"lon": -77.02377616666666, "rental_uris": {"android": "https://dc.lft.to/lastmile_qr_scan", "ios": "https://dc.lft.to/lastmile_qr_scan"}, "fusion_lon": 0.0, "is_reserved": 0, "is_disabled": 0, "fusion_lat": 0.0, "type": "electric_scooter", "name": "cd0316aa823101ef809537194265b910", "lat": 38.89198433333333, "bike_id": "cd0316aa823101ef809537194265b910"}, {"lon": -77.02155033333334, "rental_uris": {"android": "https://dc.lft.to/lastmile_qr_scan", "ios": "https://dc.lft.to/lastmile_qr_scan"}, "fusion_lon": 0.0, "is_reserved": 0, "is_disabled": 0, "fusion_lat": 0.0, "type": "electric_scooter", "name": "334fb03df34781f40bf7458751d2915c", "lat": 38.92601333333333, "bike_id": "334fb03df34781f40bf7458751d2915c"}, {"lon": -77.02174466666666, "rental_uris": {"android": "https://dc.lft.to/lastmile_qr_scan", "ios": "https://dc.lft.to/lastmile_qr_scan"}, "fusion_lon": 0.0, "is_reserved": 0, "is_disabled": 0, "fusion_lat": 0.0, "type": "electric_bike", "name": "dd60fd9d4c50e8822e7de34f54c52377", "lat": 38.89577966666667, "bike_id": "dd60fd9d4c50e8822e7de34f54c52377"}, {"lon": -77.0434475, "rental_uris": {"android": "https://dc.lft.to/lastmile_qr_scan", "ios": "https://dc.lft.to/lastmile_qr_scan"}, "fusion_lon": 0.0, "is_reserved": 0, "is_disabled": 0, "fusion_lat": 0.0, "type": "electric_scooter", "name": "991cc3b3232a51ab2ccd09e6fda9649b", "lat": 38.903761, "bike_id": "991cc3b3232a51ab2ccd09e6fda9649b"}, {"lon": -76.93178216666666, "rental_uris": {"android": "https://dc.lft.to/lastmile_qr_scan", "ios": "https://dc.lft.to/lastmile_qr_scan"}, "fusion_lon": 0.0, "is_reserved": 0, "is_disabled": 0, "fusion_lat": 0.0, "type": "electric_scooter", "name": "8670041d535c1740a41f562626483328", "lat": 38.89887133333333, "bike_id": "8670041d535c1740a41f562626483328"}, {"lon": -77.0526895, "rental_uris": {"android": "https://dc.lft.to/lastmile_qr_scan", "ios": "https://dc.lft.to/lastmile_qr_scan"}, "fusion_lon": 0.0, "is_reserved": 0, "is_disabled": 0, "fusion_lat": 0.0, "type": "electric_scooter", "name": "04cca54e327c65b07394d52a92260951", "lat": 38.91127083333333, "bike_id": "04cca54e327c65b07394d52a92260951"}, {"lon": -77.02003366666666, "rental_uris": {"android": "https://dc.lft.to/lastmile_qr_scan", "ios": "https://dc.lft.to/lastmile_qr_scan"}, "fusion_lon": 0.0, "is_reserved": 0, "is_disabled": 0, "fusion_lat": 0.0, "type": "electric_scooter", "name": "e0b6756482756ac64603f802124d0756", "lat": 38.91494616666667, "bike_id": "e0b6756482756ac64603f802124d0756"}, {"lon": -77.01890166666666, "rental_uris": {"android": "https://dc.lft.to/lastmile_qr_scan", "ios": "https://dc.lft.to/lastmile_qr_scan"}, "fusion_lon": 0.0, "is_reserved": 0, "is_disabled": 0, "fusion_lat": 0.0, "type": "electric_scooter", "name": "6db2807d48a5f446d66ff834ad50dee2", "lat": 38.9226675, "bike_id": "6db2807d48a5f446d66ff834ad50dee2"}, {"lon": -77.04248166666666, "rental_uris": {"android": "https://dc.lft.to/lastmile_qr_scan", "ios": "https://dc.lft.to/lastmile_qr_scan"}, "fusion_lon": 0.0, "is_reserved": 0, "is_disabled": 0, "fusion_lat": 0.0, "type": "electric_scooter", "name": "3bebae72bd29e04c39f3dc8c624a5d0b", "lat": 38.921929, "bike_id": "3bebae72bd29e04c39f3dc8c624a5d0b"}, {"lon": -77.02797883333334, "rental_uris": {"android": "https://dc.lft.to/lastmile_qr_scan", "ios": "https://dc.lft.to/lastmile_qr_scan"}, "fusion_lon": 0.0, "is_reserved": 0, "is_disabled": 0, "fusion_lat": 0.0, "type": "electric_scooter", "name": "8673e84d7698d8a4b1b2bea7fd90160d", "lat": 38.944485666666665, "bike_id": "8673e84d7698d8a4b1b2bea7fd90160d"}, {"lon": -76.98441683333333, "rental_uris": {"android": "https://dc.lft.to/lastmile_qr_scan", "ios": "https://dc.lft.to/lastmile_qr_scan"}, "fusion_lon": 0.0, "is_reserved": 0, "is_disabled": 0, "fusion_lat": 0.0, "type": "electric_scooter", "name": "efc3323151555693cda50ead2ce77abb", "lat": 38.932823, "bike_id": "efc3323151555693cda50ead2ce77abb"}, {"lon": -77.0409665, "rental_uris": {"android": "https://dc.lft.to/lastmile_qr_scan", "ios": "https://dc.lft.to/lastmile_qr_scan"}, "fusion_lon": 0.0, "is_reserved": 0, "is_disabled": 0, "fusion_lat": 0.0, "type": "electric_scooter", "name": "3a389b504f15ee7df8d88d1abc29399f", "lat": 38.89914683333333, "bike_id": "3a389b504f15ee7df8d88d1abc29399f"}, {"lon": -76.99847816666667, "rental_uris": {"android": "https://dc.lft.to/lastmile_qr_scan", "ios": "https://dc.lft.to/lastmile_qr_scan"}, "fusion_lon": 0.0, "is_reserved": 0, "is_disabled": 0, "fusion_lat": 0.0, "type": "electric_scooter", "name": "80dba897df57a487361542f25752a497", "lat": 38.896232499999996, "bike_id": "80dba897df57a487361542f25752a497"}, {"lon": -77.0587975, "rental_uris": {"android": "https://dc.lft.to/lastmile_qr_scan", "ios": "https://dc.lft.to/lastmile_qr_scan"}, "fusion_lon": 0.0, "is_reserved": 0, "is_disabled": 0, "fusion_lat": 0.0, "type": "electric_scooter", "name": "2351cc5c47be5721eb40e2f3a08a7c17", "lat": 38.93629, "bike_id": "2351cc5c47be5721eb40e2f3a08a7c17"}, {"lon": -77.04476516666666, "rental_uris": {"android": "https://dc.lft.to/lastmile_qr_scan", "ios": "https://dc.lft.to/lastmile_qr_scan"}, "fusion_lon": 0.0, "is_reserved": 0, "is_disabled": 0, "fusion_lat": 0.0, "type": "electric_scooter", "name": "2377d2244155785965201ca9c1c24743", "lat": 38.908693666666665, "bike_id": "2377d2244155785965201ca9c1c24743"}, {"lon": -77.0328335, "rental_uris": {"android": "https://dc.lft.to/lastmile_qr_scan", "ios": "https://dc.lft.to/lastmile_qr_scan"}, "fusion_lon": 0.0, "is_reserved": 0, "is_disabled": 0, "fusion_lat": 0.0, "type": "electric_scooter", "name": "aed9a9f4697d27507d7ff6919b35093a", "lat": 38.93759433333334, "bike_id": "aed9a9f4697d27507d7ff6919b35093a"}, {"lon": -77.15252183333334, "rental_uris": {"android": "https://dc.lft.to/lastmile_qr_scan", "ios": "https://dc.lft.to/lastmile_qr_scan"}, "fusion_lon": 0.0, "is_reserved": 0, "is_disabled": 0, "fusion_lat": 0.0, "type": "electric_bike", "name": "c7deb06ac742dd90dd751473efae2983", "lat": 39.0862085, "bike_id": "c7deb06ac742dd90dd751473efae2983"}, {"lon": -76.987652, "rental_uris": {"android": "https://dc.lft.to/lastmile_qr_scan", "ios": "https://dc.lft.to/lastmile_qr_scan"}, "fusion_lon": 0.0, "is_reserved": 0, "is_disabled": 0, "fusion_lat": 0.0, "type": "electric_bike", "name": "f91e8f4bcfe07c78d1b418987c691db9", "lat": 38.8577295, "bike_id": "f91e8f4bcfe07c78d1b418987c691db9"}, {"lon": -76.96976566666666, "rental_uris": {"android": "https://dc.lft.to/lastmile_qr_scan", "ios": "https://dc.lft.to/lastmile_qr_scan"}, "fusion_lon": 0.0, "is_reserved": 0, "is_disabled": 0, "fusion_lat": 0.0, "type": "electric_scooter", "name": "ae61ff24e156b723edb635fef1239c8a", "lat": 38.87387833333333, "bike_id": "ae61ff24e156b723edb635fef1239c8a"}, {"lon": -77.02803966666667, "rental_uris": {"android": "https://dc.lft.to/lastmile_qr_scan", "ios": "https://dc.lft.to/lastmile_qr_scan"}, "fusion_lon": 0.0, "is_reserved": 0, "is_disabled": 0, "fusion_lat": 0.0, "type": "electric_scooter", "name": "4f7bf3524596dd3b5b29e8ae25f9f781", "lat": 38.9142705, "bike_id": "4f7bf3524596dd3b5b29e8ae25f9f781"}, {"lon": -77.0488885, "rental_uris": {"android": "https://dc.lft.to/lastmile_qr_scan", "ios": "https://dc.lft.to/lastmile_qr_scan"}, "fusion_lon": 0.0, "is_reserved": 0, "is_disabled": 0, "fusion_lat": 0.0, "type": "electric_scooter", "name": "96ef8fc22d40b475680de0e02d515be1", "lat": 38.89895833333333, "bike_id": "96ef8fc22d40b475680de0e02d515be1"}, {"lon": -77.048743, "rental_uris": {"android": "https://dc.lft.to/lastmile_qr_scan", "ios": "https://dc.lft.to/lastmile_qr_scan"}, "fusion_lon": 0.0, "is_reserved": 0, "is_disabled": 0, "fusion_lat": 0.0, "type": "electric_scooter", "name": "ca5674be60161366103664aeb9fa8219", "lat": 38.912329166666666, "bike_id": "ca5674be60161366103664aeb9fa8219"}, {"lon": -77.0382685, "rental_uris": {"android": "https://dc.lft.to/lastmile_qr_scan", "ios": "https://dc.lft.to/lastmile_qr_scan"}, "fusion_lon": 0.0, "is_reserved": 0, "is_disabled": 0, "fusion_lat": 0.0, "type": "electric_scooter", "name": "dd694cf5bccc2050d812454595b7e662", "lat": 38.92537866666667, "bike_id": "dd694cf5bccc2050d812454595b7e662"}, {"lon": -77.01767866666667, "rental_uris": {"android": "https://dc.lft.to/lastmile_qr_scan", "ios": "https://dc.lft.to/lastmile_qr_scan"}, "fusion_lon": 0.0, "is_reserved": 0, "is_disabled": 0, "fusion_lat": 0.0, "type": "electric_scooter", "name": "92105194b758819cb39d62abb5e4315e", "lat": 38.939015, "bike_id": "92105194b758819cb39d62abb5e4315e"}, {"lon": -77.02402616666667, "rental_uris": {"android": "https://dc.lft.to/lastmile_qr_scan", "ios": "https://dc.lft.to/lastmile_qr_scan"}, "fusion_lon": 0.0, "is_reserved": 0, "is_disabled": 0, "fusion_lat": 0.0, "type": "electric_scooter", "name": "f89613568499c6f6b1cdec253d891a0b", "lat": 38.957097, "bike_id": "f89613568499c6f6b1cdec253d891a0b"}, {"lon": -77.1151115, "rental_uris": {"android": "https://dc.lft.to/lastmile_qr_scan", "ios": "https://dc.lft.to/lastmile_qr_scan"}, "fusion_lon": 0.0, "is_reserved": 0, "is_disabled": 0, "fusion_lat": 0.0, "type": "electric_bike", "name": "09788a9eea082be7dfcf82fc69d4054e", "lat": 39.070605666666665, "bike_id": "09788a9eea082be7dfcf82fc69d4054e"}, {"lon": -77.07013233333333, "rental_uris": {"android": "https://dc.lft.to/lastmile_qr_scan", "ios": "https://dc.lft.to/lastmile_qr_scan"}, "fusion_lon": 0.0, "is_reserved": 0, "is_disabled": 0, "fusion_lat": 0.0, "type": "electric_bike", "name": "81ce640e185c78487a8d59620cc7b08e", "lat": 38.8410785, "bike_id": "81ce640e185c78487a8d59620cc7b08e"}, {"lon": -76.965055, "rental_uris": {"android": "https://dc.lft.to/lastmile_qr_scan", "ios": "https://dc.lft.to/lastmile_qr_scan"}, "fusion_lon": 0.0, "is_reserved": 0, "is_disabled": 0, "fusion_lat": 0.0, "type": "electric_scooter", "name": "20c624e31e0f01a4f4090723ae1c2161", "lat": 38.87646516666667, "bike_id": "20c624e31e0f01a4f4090723ae1c2161"}, {"lon": -76.97332533333334, "rental_uris": {"android": "https://dc.lft.to/lastmile_qr_scan", "ios": "https://dc.lft.to/lastmile_qr_scan"}, "fusion_lon": 0.0, "is_reserved": 0, "is_disabled": 0, "fusion_lat": 0.0, "type": "electric_scooter", "name": "794665cbe557364c0125ebe46f751408", "lat": 38.9041135, "bike_id": "794665cbe557364c0125ebe46f751408"}, {"lon": -77.04333633333333, "rental_uris": {"android": "https://dc.lft.to/lastmile_qr_scan", "ios": "https://dc.lft.to/lastmile_qr_scan"}, "fusion_lon": 0.0, "is_reserved": 0, "is_disabled": 0, "fusion_lat": 0.0, "type": "electric_scooter", "name": "2455575a0778c82216a76ceb5c121147", "lat": 38.892221666666664, "bike_id": "2455575a0778c82216a76ceb5c121147"}, {"lon": -76.99551616666666, "rental_uris": {"android": "https://dc.lft.to/lastmile_qr_scan", "ios": "https://dc.lft.to/lastmile_qr_scan"}, "fusion_lon": 0.0, "is_reserved": 0, "is_disabled": 0, "fusion_lat": 0.0, "type": "electric_scooter", "name": "8491574a94a50d498a84906c2f6ac074", "lat": 38.862306833333335, "bike_id": "8491574a94a50d498a84906c2f6ac074"}, {"lon": -77.02139333333334, "rental_uris": {"android": "https://dc.lft.to/lastmile_qr_scan", "ios": "https://dc.lft.to/lastmile_qr_scan"}, "fusion_lon": 0.0, "is_reserved": 0, "is_disabled": 0, "fusion_lat": 0.0, "type": "electric_scooter", "name": "e2e837be1b86ab84d96e676c5b271728", "lat": 38.92417966666667, "bike_id": "e2e837be1b86ab84d96e676c5b271728"}, {"lon": -77.06779533333334, "rental_uris": {"android": "https://dc.lft.to/lastmile_qr_scan", "ios": "https://dc.lft.to/lastmile_qr_scan"}, "fusion_lon": 0.0, "is_reserved": 0, "is_disabled": 0, "fusion_lat": 0.0, "type": "electric_scooter", "name": "4a9b85d077e31f9f760564f0259f7f14", "lat": 38.90880683333334, "bike_id": "4a9b85d077e31f9f760564f0259f7f14"}, {"lon": -77.0273375, "rental_uris": {"android": "https://dc.lft.to/lastmile_qr_scan", "ios": "https://dc.lft.to/lastmile_qr_scan"}, "fusion_lon": 0.0, "is_reserved": 0, "is_disabled": 0, "fusion_lat": 0.0, "type": "electric_scooter", "name": "488596f3f41189dae2f673aabd1b8d2c", "lat": 38.95200333333333, "bike_id": "488596f3f41189dae2f673aabd1b8d2c"}, {"lon": -77.04330333333333, "rental_uris": {"android": "https://dc.lft.to/lastmile_qr_scan", "ios": "https://dc.lft.to/lastmile_qr_scan"}, "fusion_lon": 0.0, "is_reserved": 0, "is_disabled": 0, "fusion_lat": 0.0, "type": "electric_scooter", "name": "ac5ec7686a273ed2fb954638f1b22dad", "lat": 38.910236, "bike_id": "ac5ec7686a273ed2fb954638f1b22dad"}, {"lon": -77.02974633333334, "rental_uris": {"android": "https://dc.lft.to/lastmile_qr_scan", "ios": "https://dc.lft.to/lastmile_qr_scan"}, "fusion_lon": 0.0, "is_reserved": 0, "is_disabled": 0, "fusion_lat": 0.0, "type": "electric_scooter", "name": "bcaffd511a400e073ba9505fe64660db", "lat": 38.923212166666666, "bike_id": "bcaffd511a400e073ba9505fe64660db"}, {"lon": -77.01771883333333, "rental_uris": {"android": "https://dc.lft.to/lastmile_qr_scan", "ios": "https://dc.lft.to/lastmile_qr_scan"}, "fusion_lon": 0.0, "is_reserved": 0, "is_disabled": 0, "fusion_lat": 0.0, "type": "electric_scooter", "name": "ff6179e114af7190e3c2ca6874c77685", "lat": 38.91954116666667, "bike_id": "ff6179e114af7190e3c2ca6874c77685"}, {"lon": -77.03283683333333, "rental_uris": {"android": "https://dc.lft.to/lastmile_qr_scan", "ios": "https://dc.lft.to/lastmile_qr_scan"}, "fusion_lon": 0.0, "is_reserved": 0, "is_disabled": 0, "fusion_lat": 0.0, "type": "electric_scooter", "name": "f74192ce05c1fe98df274083e43acb3e", "lat": 38.93885816666667, "bike_id": "f74192ce05c1fe98df274083e43acb3e"}, {"lon": -77.02160616666667, "rental_uris": {"android": "https://dc.lft.to/lastmile_qr_scan", "ios": "https://dc.lft.to/lastmile_qr_scan"}, "fusion_lon": 0.0, "is_reserved": 0, "is_disabled": 0, "fusion_lat": 0.0, "type": "electric_scooter", "name": "2374228eba8caf359f14e35f83263445", "lat": 38.89575766666667, "bike_id": "2374228eba8caf359f14e35f83263445"}, {"lon": -77.0487575, "rental_uris": {"android": "https://dc.lft.to/lastmile_qr_scan", "ios": "https://dc.lft.to/lastmile_qr_scan"}, "fusion_lon": 0.0, "is_reserved": 0, "is_disabled": 0, "fusion_lat": 0.0, "type": "electric_scooter", "name": "0e95f3a04496e1da5d7f5339a0ce41f0", "lat": 38.900491333333335, "bike_id": "0e95f3a04496e1da5d7f5339a0ce41f0"}, {"lon": -77.04925533333333, "rental_uris": {"android": "https://dc.lft.to/lastmile_qr_scan", "ios": "https://dc.lft.to/lastmile_qr_scan"}, "fusion_lon": 0.0, "is_reserved": 0, "is_disabled": 0, "fusion_lat": 0.0, "type": "electric_scooter", "name": "28cdf4d260b2a7e3e5c11dd8cfa3e4e0", "lat": 38.90067883333333, "bike_id": "28cdf4d260b2a7e3e5c11dd8cfa3e4e0"}, {"lon": -77.02911166666667, "rental_uris": {"android": "https://dc.lft.to/lastmile_qr_scan", "ios": "https://dc.lft.to/lastmile_qr_scan"}, "fusion_lon": 0.0, "is_reserved": 0, "is_disabled": 0, "fusion_lat": 0.0, "type": "electric_scooter", "name": "81c43e375c763df0c3778f5c8a3405ec", "lat": 38.933280833333335, "bike_id": "81c43e375c763df0c3778f5c8a3405ec"}, {"lon": -77.02142066666667, "rental_uris": {"android": "https://dc.lft.to/lastmile_qr_scan", "ios": "https://dc.lft.to/lastmile_qr_scan"}, "fusion_lon": 0.0, "is_reserved": 0, "is_disabled": 0, "fusion_lat": 0.0, "type": "electric_scooter", "name": "cd1528b9fce70c2adfde4828db5169fd", "lat": 38.9250575, "bike_id": "cd1528b9fce70c2adfde4828db5169fd"}, {"lon": -77.02236733333334, "rental_uris": {"android": "https://dc.lft.to/lastmile_qr_scan", "ios": "https://dc.lft.to/lastmile_qr_scan"}, "fusion_lon": 0.0, "is_reserved": 0, "is_disabled": 0, "fusion_lat": 0.0, "type": "electric_scooter", "name": "121223ad07352d55d27fa29656a2a2b8", "lat": 38.91645316666666, "bike_id": "121223ad07352d55d27fa29656a2a2b8"}, {"lon": -77.01939316666666, "rental_uris": {"android": "https://dc.lft.to/lastmile_qr_scan", "ios": "https://dc.lft.to/lastmile_qr_scan"}, "fusion_lon": 0.0, "is_reserved": 0, "is_disabled": 0, "fusion_lat": 0.0, "type": "electric_scooter", "name": "49aa64e494e32ad79450e3555525e7fc", "lat": 38.90862666666666, "bike_id": "49aa64e494e32ad79450e3555525e7fc"}, {"lon": -77.002969, "rental_uris": {"android": "https://dc.lft.to/lastmile_qr_scan", "ios": "https://dc.lft.to/lastmile_qr_scan"}, "fusion_lon": 0.0, "is_reserved": 0, "is_disabled": 0, "fusion_lat": 0.0, "type": "electric_scooter", "name": "3dab93f13432d757b0c87ffe7fecfadd", "lat": 38.892253333333336, "bike_id": "3dab93f13432d757b0c87ffe7fecfadd"}, {"lon": -77.18303216666666, "rental_uris": {"android": "https://dc.lft.to/lastmile_qr_scan", "ios": "https://dc.lft.to/lastmile_qr_scan"}, "fusion_lon": 0.0, "is_reserved": 0, "is_disabled": 0, "fusion_lat": 0.0, "type": "electric_bike", "name": "765af8a8b869b843be87e125b75c838b", "lat": 39.099672, "bike_id": "765af8a8b869b843be87e125b75c838b"}, {"lon": -76.93736883333334, "rental_uris": {"android": "https://dc.lft.to/lastmile_qr_scan", "ios": "https://dc.lft.to/lastmile_qr_scan"}, "fusion_lon": 0.0, "is_reserved": 0, "is_disabled": 0, "fusion_lat": 0.0, "type": "electric_scooter", "name": "99233d6ce2680199570e32fb7f376f1e", "lat": 38.89010666666667, "bike_id": "99233d6ce2680199570e32fb7f376f1e"}, {"lon": -77.02912216666667, "rental_uris": {"android": "https://dc.lft.to/lastmile_qr_scan", "ios": "https://dc.lft.to/lastmile_qr_scan"}, "fusion_lon": 0.0, "is_reserved": 0, "is_disabled": 0, "fusion_lat": 0.0, "type": "electric_scooter", "name": "ab6e5494638b83291c612e44ad995ca1", "lat": 38.899817666666664, "bike_id": "ab6e5494638b83291c612e44ad995ca1"}, {"lon": -77.011929, "rental_uris": {"android": "https://dc.lft.to/lastmile_qr_scan", "ios": "https://dc.lft.to/lastmile_qr_scan"}, "fusion_lon": 0.0, "is_reserved": 0, "is_disabled": 0, "fusion_lat": 0.0, "type": "electric_scooter", "name": "13beea7f0fdd47cf211d76b1ec4183e7", "lat": 38.897917, "bike_id": "13beea7f0fdd47cf211d76b1ec4183e7"}, {"lon": -77.02234916666667, "rental_uris": {"android": "https://dc.lft.to/lastmile_qr_scan", "ios": "https://dc.lft.to/lastmile_qr_scan"}, "fusion_lon": 0.0, "is_reserved": 0, "is_disabled": 0, "fusion_lat": 0.0, "type": "electric_scooter", "name": "14ad19dd379906a1a32442ee03d4b01b", "lat": 38.92470466666666, "bike_id": "14ad19dd379906a1a32442ee03d4b01b"}, {"lon": -77.0332055, "rental_uris": {"android": "https://dc.lft.to/lastmile_qr_scan", "ios": "https://dc.lft.to/lastmile_qr_scan"}, "fusion_lon": 0.0, "is_reserved": 0, "is_disabled": 0, "fusion_lat": 0.0, "type": "electric_scooter", "name": "a5c280b90bda59ebffbb2d7cb84d1d7f", "lat": 38.899080166666664, "bike_id": "a5c280b90bda59ebffbb2d7cb84d1d7f"}, {"lon": -76.93382133333333, "rental_uris": {"android": "https://dc.lft.to/lastmile_qr_scan", "ios": "https://dc.lft.to/lastmile_qr_scan"}, "fusion_lon": 0.0, "is_reserved": 0, "is_disabled": 0, "fusion_lat": 0.0, "type": "electric_scooter", "name": "65a2fc857e8906c2b9878f7da3e377ea", "lat": 38.899113166666666, "bike_id": "65a2fc857e8906c2b9878f7da3e377ea"}, {"lon": -77.02943033333334, "rental_uris": {"android": "https://dc.lft.to/lastmile_qr_scan", "ios": "https://dc.lft.to/lastmile_qr_scan"}, "fusion_lon": 0.0, "is_reserved": 0, "is_disabled": 0, "fusion_lat": 0.0, "type": "electric_scooter", "name": "f10bad14a11fd8112e4ab881ba204201", "lat": 38.9428195, "bike_id": "f10bad14a11fd8112e4ab881ba204201"}, {"lon": -77.043714, "rental_uris": {"android": "https://dc.lft.to/lastmile_qr_scan", "ios": "https://dc.lft.to/lastmile_qr_scan"}, "fusion_lon": 0.0, "is_reserved": 0, "is_disabled": 0, "fusion_lat": 0.0, "type": "electric_scooter", "name": "1f201d818d79c18c8beb6dd472d8b525", "lat": 38.902692333333334, "bike_id": "1f201d818d79c18c8beb6dd472d8b525"}, {"lon": -77.03239116666667, "rental_uris": {"android": "https://dc.lft.to/lastmile_qr_scan", "ios": "https://dc.lft.to/lastmile_qr_scan"}, "fusion_lon": 0.0, "is_reserved": 0, "is_disabled": 0, "fusion_lat": 0.0, "type": "electric_scooter", "name": "dfb8e8d7a9ee03b68cdd75d9d78eafb6", "lat": 38.961545, "bike_id": "dfb8e8d7a9ee03b68cdd75d9d78eafb6"}, {"lon": -76.98434933333333, "rental_uris": {"android": "https://dc.lft.to/lastmile_qr_scan", "ios": "https://dc.lft.to/lastmile_qr_scan"}, "fusion_lon": 0.0, "is_reserved": 0, "is_disabled": 0, "fusion_lat": 0.0, "type": "electric_bike", "name": "3420d207c3981b187ead93daee6e365e", "lat": 38.85517816666667, "bike_id": "3420d207c3981b187ead93daee6e365e"}, {"lon": -77.0218265, "rental_uris": {"android": "https://dc.lft.to/lastmile_qr_scan", "ios": "https://dc.lft.to/lastmile_qr_scan"}, "fusion_lon": 0.0, "is_reserved": 0, "is_disabled": 0, "fusion_lat": 0.0, "type": "electric_scooter", "name": "c8d750eaab7bc136afbf89eab9cf729f", "lat": 38.93950383333333, "bike_id": "c8d750eaab7bc136afbf89eab9cf729f"}, {"lon": -77.01032316666667, "rental_uris": {"android": "https://dc.lft.to/lastmile_qr_scan", "ios": "https://dc.lft.to/lastmile_qr_scan"}, "fusion_lon": 0.0, "is_reserved": 0, "is_disabled": 0, "fusion_lat": 0.0, "type": "electric_scooter", "name": "9636632da9229e8add748d1590bdd59c", "lat": 38.92027066666667, "bike_id": "9636632da9229e8add748d1590bdd59c"}, {"lon": -77.03967033333333, "rental_uris": {"android": "https://dc.lft.to/lastmile_qr_scan", "ios": "https://dc.lft.to/lastmile_qr_scan"}, "fusion_lon": 0.0, "is_reserved": 0, "is_disabled": 0, "fusion_lat": 0.0, "type": "electric_scooter", "name": "ce25d6ac2cb62e3531172b7e91981157", "lat": 38.90139, "bike_id": "ce25d6ac2cb62e3531172b7e91981157"}, {"lon": -77.04059233333334, "rental_uris": {"android": "https://dc.lft.to/lastmile_qr_scan", "ios": "https://dc.lft.to/lastmile_qr_scan"}, "fusion_lon": 0.0, "is_reserved": 0, "is_disabled": 0, "fusion_lat": 0.0, "type": "electric_scooter", "name": "06479391d49a513b5ade1b7a03e8af17", "lat": 38.90880083333333, "bike_id": "06479391d49a513b5ade1b7a03e8af17"}, {"lon": -77.03799633333334, "rental_uris": {"android": "https://dc.lft.to/lastmile_qr_scan", "ios": "https://dc.lft.to/lastmile_qr_scan"}, "fusion_lon": 0.0, "is_reserved": 0, "is_disabled": 0, "fusion_lat": 0.0, "type": "electric_scooter", "name": "33bec5b271fd99cc792477ecdc60bf53", "lat": 38.91808133333333, "bike_id": "33bec5b271fd99cc792477ecdc60bf53"}, {"lon": -76.990593, "rental_uris": {"android": "https://dc.lft.to/lastmile_qr_scan", "ios": "https://dc.lft.to/lastmile_qr_scan"}, "fusion_lon": 0.0, "is_reserved": 0, "is_disabled": 0, "fusion_lat": 0.0, "type": "electric_bike", "name": "b5d3da1a6b4cfbd06e2efe266d0fae3e", "lat": 38.93691483333333, "bike_id": "b5d3da1a6b4cfbd06e2efe266d0fae3e"}, {"lon": -77.021623, "rental_uris": {"android": "https://dc.lft.to/lastmile_qr_scan", "ios": "https://dc.lft.to/lastmile_qr_scan"}, "fusion_lon": 0.0, "is_reserved": 0, "is_disabled": 0, "fusion_lat": 0.0, "type": "electric_scooter", "name": "e610a51e7fa22595237b227222828a4e", "lat": 38.92610833333333, "bike_id": "e610a51e7fa22595237b227222828a4e"}, {"lon": -77.06914016666667, "rental_uris": {"android": "https://dc.lft.to/lastmile_qr_scan", "ios": "https://dc.lft.to/lastmile_qr_scan"}, "fusion_lon": 0.0, "is_reserved": 0, "is_disabled": 0, "fusion_lat": 0.0, "type": "electric_bike", "name": "262acadffb591a69cc84b1cb6a0adb2b", "lat": 38.806727333333335, "bike_id": "262acadffb591a69cc84b1cb6a0adb2b"}, {"lon": -76.980524, "rental_uris": {"android": "https://dc.lft.to/lastmile_qr_scan", "ios": "https://dc.lft.to/lastmile_qr_scan"}, "fusion_lon": 0.0, "is_reserved": 0, "is_disabled": 0, "fusion_lat": 0.0, "type": "electric_scooter", "name": "8a47369f1977a469b1f7110c5cfe0b63", "lat": 38.884956833333334, "bike_id": "8a47369f1977a469b1f7110c5cfe0b63"}, {"lon": -77.04001083333333, "rental_uris": {"android": "https://dc.lft.to/lastmile_qr_scan", "ios": "https://dc.lft.to/lastmile_qr_scan"}, "fusion_lon": 0.0, "is_reserved": 0, "is_disabled": 0, "fusion_lat": 0.0, "type": "electric_scooter", "name": "d4c4bf55b315511e1d55b2aa3ca281d3", "lat": 38.93430933333333, "bike_id": "d4c4bf55b315511e1d55b2aa3ca281d3"}, {"lon": -76.9543525, "rental_uris": {"android": "https://dc.lft.to/lastmile_qr_scan", "ios": "https://dc.lft.to/lastmile_qr_scan"}, "fusion_lon": 0.0, "is_reserved": 0, "is_disabled": 0, "fusion_lat": 0.0, "type": "electric_scooter", "name": "dc0ede633e6fd7e6db112b04954525ae", "lat": 38.88995933333333, "bike_id": "dc0ede633e6fd7e6db112b04954525ae"}, {"lon": -77.03178333333334, "rental_uris": {"android": "https://dc.lft.to/lastmile_qr_scan", "ios": "https://dc.lft.to/lastmile_qr_scan"}, "fusion_lon": 0.0, "is_reserved": 0, "is_disabled": 0, "fusion_lat": 0.0, "type": "electric_scooter", "name": "454b1ed56df87b7f21f7379b7b06da24", "lat": 38.903635666666666, "bike_id": "454b1ed56df87b7f21f7379b7b06da24"}, {"lon": -77.03300033333333, "rental_uris": {"android": "https://dc.lft.to/lastmile_qr_scan", "ios": "https://dc.lft.to/lastmile_qr_scan"}, "fusion_lon": 0.0, "is_reserved": 0, "is_disabled": 0, "fusion_lat": 0.0, "type": "electric_scooter", "name": "93ef2a8f3f009a6bf593e5012f111cda", "lat": 38.89908716666667, "bike_id": "93ef2a8f3f009a6bf593e5012f111cda"}, {"lon": -77.0346635, "rental_uris": {"android": "https://dc.lft.to/lastmile_qr_scan", "ios": "https://dc.lft.to/lastmile_qr_scan"}, "fusion_lon": 0.0, "is_reserved": 0, "is_disabled": 0, "fusion_lat": 0.0, "type": "electric_scooter", "name": "f96777b07bcdbefe664e2a0bc3429290", "lat": 38.908725, "bike_id": "f96777b07bcdbefe664e2a0bc3429290"}, {"lon": -76.99708133333333, "rental_uris": {"android": "https://dc.lft.to/lastmile_qr_scan", "ios": "https://dc.lft.to/lastmile_qr_scan"}, "fusion_lon": 0.0, "is_reserved": 0, "is_disabled": 0, "fusion_lat": 0.0, "type": "electric_scooter", "name": "9f77e5d78290e3f7b5c72a764dfc16ba", "lat": 38.90028, "bike_id": "9f77e5d78290e3f7b5c72a764dfc16ba"}, {"lon": -77.0135295, "rental_uris": {"android": "https://dc.lft.to/lastmile_qr_scan", "ios": "https://dc.lft.to/lastmile_qr_scan"}, "fusion_lon": 0.0, "is_reserved": 0, "is_disabled": 0, "fusion_lat": 0.0, "type": "electric_scooter", "name": "a2d2ea25130a8123580b036311849e7e", "lat": 38.942145333333336, "bike_id": "a2d2ea25130a8123580b036311849e7e"}, {"lon": -77.03012966666667, "rental_uris": {"android": "https://dc.lft.to/lastmile_qr_scan", "ios": "https://dc.lft.to/lastmile_qr_scan"}, "fusion_lon": 0.0, "is_reserved": 0, "is_disabled": 0, "fusion_lat": 0.0, "type": "electric_bike", "name": "beed09e54a79360fc08698a67778d01c", "lat": 38.895685, "bike_id": "beed09e54a79360fc08698a67778d01c"}, {"lon": -77.02815283333334, "rental_uris": {"android": "https://dc.lft.to/lastmile_qr_scan", "ios": "https://dc.lft.to/lastmile_qr_scan"}, "fusion_lon": 0.0, "is_reserved": 0, "is_disabled": 0, "fusion_lat": 0.0, "type": "electric_scooter", "name": "344843e1c137e29b7380b45d4f464c46", "lat": 38.89813766666666, "bike_id": "344843e1c137e29b7380b45d4f464c46"}, {"lon": -77.03295666666666, "rental_uris": {"android": "https://dc.lft.to/lastmile_qr_scan", "ios": "https://dc.lft.to/lastmile_qr_scan"}, "fusion_lon": 0.0, "is_reserved": 0, "is_disabled": 0, "fusion_lat": 0.0, "type": "electric_scooter", "name": "055d2744dd9503cc748205cb10bd2290", "lat": 38.9275655, "bike_id": "055d2744dd9503cc748205cb10bd2290"}, {"lon": -77.0082305, "rental_uris": {"android": "https://dc.lft.to/lastmile_qr_scan", "ios": "https://dc.lft.to/lastmile_qr_scan"}, "fusion_lon": 0.0, "is_reserved": 0, "is_disabled": 0, "fusion_lat": 0.0, "type": "electric_scooter", "name": "d07e8429784f87f6ad732869f348b4e1", "lat": 38.879181, "bike_id": "d07e8429784f87f6ad732869f348b4e1"}, {"lon": -77.00581366666667, "rental_uris": {"android": "https://dc.lft.to/lastmile_qr_scan", "ios": "https://dc.lft.to/lastmile_qr_scan"}, "fusion_lon": 0.0, "is_reserved": 0, "is_disabled": 0, "fusion_lat": 0.0, "type": "electric_scooter", "name": "cabda0c8f840f81b7eb9ca0da212a233", "lat": 38.90486116666667, "bike_id": "cabda0c8f840f81b7eb9ca0da212a233"}, {"lon": -77.04162683333334, "rental_uris": {"android": "https://dc.lft.to/lastmile_qr_scan", "ios": "https://dc.lft.to/lastmile_qr_scan"}, "fusion_lon": 0.0, "is_reserved": 0, "is_disabled": 0, "fusion_lat": 0.0, "type": "electric_scooter", "name": "7dc88fe3cca03e31aa6969fef134b0c3", "lat": 38.90533833333333, "bike_id": "7dc88fe3cca03e31aa6969fef134b0c3"}, {"lon": -76.9867115, "rental_uris": {"android": "https://dc.lft.to/lastmile_qr_scan", "ios": "https://dc.lft.to/lastmile_qr_scan"}, "fusion_lon": 0.0, "is_reserved": 0, "is_disabled": 0, "fusion_lat": 0.0, "type": "electric_bike", "name": "cef78fc846f2239560d27f5c8e44058c", "lat": 38.835166666666666, "bike_id": "cef78fc846f2239560d27f5c8e44058c"}, {"lon": -76.99072016666666, "rental_uris": {"android": "https://dc.lft.to/lastmile_qr_scan", "ios": "https://dc.lft.to/lastmile_qr_scan"}, "fusion_lon": 0.0, "is_reserved": 0, "is_disabled": 0, "fusion_lat": 0.0, "type": "electric_bike", "name": "aa1cb9a22c1006cb3796c307f6e710b2", "lat": 38.8981845, "bike_id": "aa1cb9a22c1006cb3796c307f6e710b2"}, {"lon": -77.02650433333334, "rental_uris": {"android": "https://dc.lft.to/lastmile_qr_scan", "ios": "https://dc.lft.to/lastmile_qr_scan"}, "fusion_lon": 0.0, "is_reserved": 0, "is_disabled": 0, "fusion_lat": 0.0, "type": "electric_scooter", "name": "973c67c8df49fcabd74080e2b65f3855", "lat": 38.90567566666667, "bike_id": "973c67c8df49fcabd74080e2b65f3855"}, {"lon": -77.04356666666666, "rental_uris": {"android": "https://dc.lft.to/lastmile_qr_scan", "ios": "https://dc.lft.to/lastmile_qr_scan"}, "fusion_lon": 0.0, "is_reserved": 0, "is_disabled": 0, "fusion_lat": 0.0, "type": "electric_scooter", "name": "3bfd35f300ea453b470c7f06cf14c590", "lat": 38.905997, "bike_id": "3bfd35f300ea453b470c7f06cf14c590"}, {"lon": -77.00602166666667, "rental_uris": {"android": "https://dc.lft.to/lastmile_qr_scan", "ios": "https://dc.lft.to/lastmile_qr_scan"}, "fusion_lon": 0.0, "is_reserved": 0, "is_disabled": 0, "fusion_lat": 0.0, "type": "electric_scooter", "name": "6665df63083778f8ad9b09eb27edce4e", "lat": 38.91119483333333, "bike_id": "6665df63083778f8ad9b09eb27edce4e"}, {"lon": -77.019453, "rental_uris": {"android": "https://dc.lft.to/lastmile_qr_scan", "ios": "https://dc.lft.to/lastmile_qr_scan"}, "fusion_lon": 0.0, "is_reserved": 0, "is_disabled": 0, "fusion_lat": 0.0, "type": "electric_scooter", "name": "fa52447917f8801fd3bca3df7051e8da", "lat": 38.92258233333333, "bike_id": "fa52447917f8801fd3bca3df7051e8da"}, {"lon": -77.01944783333333, "rental_uris": {"android": "https://dc.lft.to/lastmile_qr_scan", "ios": "https://dc.lft.to/lastmile_qr_scan"}, "fusion_lon": 0.0, "is_reserved": 0, "is_disabled": 0, "fusion_lat": 0.0, "type": "electric_scooter", "name": "3a4bed0f608f61246597568100acd02f", "lat": 38.92251983333333, "bike_id": "3a4bed0f608f61246597568100acd02f"}, {"lon": -77.01834066666666, "rental_uris": {"android": "https://dc.lft.to/lastmile_qr_scan", "ios": "https://dc.lft.to/lastmile_qr_scan"}, "fusion_lon": 0.0, "is_reserved": 0, "is_disabled": 0, "fusion_lat": 0.0, "type": "electric_scooter", "name": "c7623c03cae98391cd6bd509e313e6d0", "lat": 38.92128966666667, "bike_id": "c7623c03cae98391cd6bd509e313e6d0"}, {"lon": -77.03469933333334, "rental_uris": {"android": "https://dc.lft.to/lastmile_qr_scan", "ios": "https://dc.lft.to/lastmile_qr_scan"}, "fusion_lon": 0.0, "is_reserved": 0, "is_disabled": 0, "fusion_lat": 0.0, "type": "electric_scooter", "name": "ed06e9c7b825d15b152d66934458b3c3", "lat": 38.9023445, "bike_id": "ed06e9c7b825d15b152d66934458b3c3"}, {"lon": -77.0026575, "rental_uris": {"android": "https://dc.lft.to/lastmile_qr_scan", "ios": "https://dc.lft.to/lastmile_qr_scan"}, "fusion_lon": 0.0, "is_reserved": 0, "is_disabled": 0, "fusion_lat": 0.0, "type": "electric_scooter", "name": "1e49f12e77dbfec06eb51979ec58da14", "lat": 38.952359, "bike_id": "1e49f12e77dbfec06eb51979ec58da14"}, {"lon": -77.038583, "rental_uris": {"android": "https://dc.lft.to/lastmile_qr_scan", "ios": "https://dc.lft.to/lastmile_qr_scan"}, "fusion_lon": 0.0, "is_reserved": 0, "is_disabled": 0, "fusion_lat": 0.0, "type": "electric_scooter", "name": "30adea627518c180dd8550e8bb7cc3d0", "lat": 38.90339383333333, "bike_id": "30adea627518c180dd8550e8bb7cc3d0"}, {"lon": -77.04104283333334, "rental_uris": {"android": "https://dc.lft.to/lastmile_qr_scan", "ios": "https://dc.lft.to/lastmile_qr_scan"}, "fusion_lon": 0.0, "is_reserved": 0, "is_disabled": 0, "fusion_lat": 0.0, "type": "electric_scooter", "name": "730f434ab9eaa0c1f75760bdc7610b48", "lat": 38.89830666666667, "bike_id": "730f434ab9eaa0c1f75760bdc7610b48"}, {"lon": -77.04354733333334, "rental_uris": {"android": "https://dc.lft.to/lastmile_qr_scan", "ios": "https://dc.lft.to/lastmile_qr_scan"}, "fusion_lon": 0.0, "is_reserved": 0, "is_disabled": 0, "fusion_lat": 0.0, "type": "electric_scooter", "name": "c741251ba83f61bc9678cd9be537d60a", "lat": 38.92172583333333, "bike_id": "c741251ba83f61bc9678cd9be537d60a"}, {"lon": -77.03560166666666, "rental_uris": {"android": "https://dc.lft.to/lastmile_qr_scan", "ios": "https://dc.lft.to/lastmile_qr_scan"}, "fusion_lon": 0.0, "is_reserved": 0, "is_disabled": 0, "fusion_lat": 0.0, "type": "electric_bike", "name": "dc2401c1aed139f37e33146f51886f37", "lat": 38.96468866666667, "bike_id": "dc2401c1aed139f37e33146f51886f37"}, {"lon": -77.03510133333333, "rental_uris": {"android": "https://dc.lft.to/lastmile_qr_scan", "ios": "https://dc.lft.to/lastmile_qr_scan"}, "fusion_lon": 0.0, "is_reserved": 0, "is_disabled": 0, "fusion_lat": 0.0, "type": "electric_scooter", "name": "8ceca16bc049f0a9af5441cdbe3c384f", "lat": 38.92634366666667, "bike_id": "8ceca16bc049f0a9af5441cdbe3c384f"}, {"lon": -77.05317666666667, "rental_uris": {"android": "https://dc.lft.to/lastmile_qr_scan", "ios": "https://dc.lft.to/lastmile_qr_scan"}, "fusion_lon": 0.0, "is_reserved": 0, "is_disabled": 0, "fusion_lat": 0.0, "type": "electric_scooter", "name": "b35c191e16b098582433bdb9e96b8fae", "lat": 38.902689, "bike_id": "b35c191e16b098582433bdb9e96b8fae"}, {"lon": -77.03361883333334, "rental_uris": {"android": "https://dc.lft.to/lastmile_qr_scan", "ios": "https://dc.lft.to/lastmile_qr_scan"}, "fusion_lon": 0.0, "is_reserved": 0, "is_disabled": 0, "fusion_lat": 0.0, "type": "electric_scooter", "name": "05ceb2f1ae8351fb20bc5e2e6b8c7f25", "lat": 38.94514616666667, "bike_id": "05ceb2f1ae8351fb20bc5e2e6b8c7f25"}, {"lon": -77.04898383333334, "rental_uris": {"android": "https://dc.lft.to/lastmile_qr_scan", "ios": "https://dc.lft.to/lastmile_qr_scan"}, "fusion_lon": 0.0, "is_reserved": 0, "is_disabled": 0, "fusion_lat": 0.0, "type": "electric_scooter", "name": "665059623c4d81e31860152f61c1e30e", "lat": 38.89226683333333, "bike_id": "665059623c4d81e31860152f61c1e30e"}, {"lon": -77.03808516666666, "rental_uris": {"android": "https://dc.lft.to/lastmile_qr_scan", "ios": "https://dc.lft.to/lastmile_qr_scan"}, "fusion_lon": 0.0, "is_reserved": 0, "is_disabled": 0, "fusion_lat": 0.0, "type": "electric_scooter", "name": "af128cd9ab35c1b164a830f90b98b8d4", "lat": 38.91551333333334, "bike_id": "af128cd9ab35c1b164a830f90b98b8d4"}, {"lon": -77.0237355, "rental_uris": {"android": "https://dc.lft.to/lastmile_qr_scan", "ios": "https://dc.lft.to/lastmile_qr_scan"}, "fusion_lon": 0.0, "is_reserved": 0, "is_disabled": 0, "fusion_lat": 0.0, "type": "electric_scooter", "name": "eda49d46a1ea138498b7832db8702da6", "lat": 38.879224666666666, "bike_id": "eda49d46a1ea138498b7832db8702da6"}, {"lon": -76.98717083333334, "rental_uris": {"android": "https://dc.lft.to/lastmile_qr_scan", "ios": "https://dc.lft.to/lastmile_qr_scan"}, "fusion_lon": 0.0, "is_reserved": 0, "is_disabled": 0, "fusion_lat": 0.0, "type": "electric_bike", "name": "63afb9182461c61654835a8bc72af4c6", "lat": 38.8633065, "bike_id": "63afb9182461c61654835a8bc72af4c6"}, {"lon": -77.23677333333333, "rental_uris": {"android": "https://dc.lft.to/lastmile_qr_scan", "ios": "https://dc.lft.to/lastmile_qr_scan"}, "fusion_lon": 0.0, "is_reserved": 0, "is_disabled": 0, "fusion_lat": 0.0, "type": "electric_bike", "name": "48ddb1d157861dbfb941c84474a1819e", "lat": 38.92121133333333, "bike_id": "48ddb1d157861dbfb941c84474a1819e"}, {"lon": -77.02831533333334, "rental_uris": {"android": "https://dc.lft.to/lastmile_qr_scan", "ios": "https://dc.lft.to/lastmile_qr_scan"}, "fusion_lon": 0.0, "is_reserved": 0, "is_disabled": 0, "fusion_lat": 0.0, "type": "electric_scooter", "name": "b6d6e951d6d82f544ac6c967923afba8", "lat": 38.92233916666667, "bike_id": "b6d6e951d6d82f544ac6c967923afba8"}, {"lon": -77.00875033333334, "rental_uris": {"android": "https://dc.lft.to/lastmile_qr_scan", "ios": "https://dc.lft.to/lastmile_qr_scan"}, "fusion_lon": 0.0, "is_reserved": 0, "is_disabled": 0, "fusion_lat": 0.0, "type": "electric_scooter", "name": "4117fa79c0058da1de9dfca03b8bb092", "lat": 38.905700333333336, "bike_id": "4117fa79c0058da1de9dfca03b8bb092"}, {"lon": -77.03659733333333, "rental_uris": {"android": "https://dc.lft.to/lastmile_qr_scan", "ios": "https://dc.lft.to/lastmile_qr_scan"}, "fusion_lon": 0.0, "is_reserved": 0, "is_disabled": 0, "fusion_lat": 0.0, "type": "electric_scooter", "name": "2a1789637960ff492a0de038ea352492", "lat": 38.911345, "bike_id": "2a1789637960ff492a0de038ea352492"}, {"lon": -77.03390533333334, "rental_uris": {"android": "https://dc.lft.to/lastmile_qr_scan", "ios": "https://dc.lft.to/lastmile_qr_scan"}, "fusion_lon": 0.0, "is_reserved": 0, "is_disabled": 0, "fusion_lat": 0.0, "type": "electric_scooter", "name": "fdfba8f6fb9e6420efd884754bb575c9", "lat": 38.93849983333333, "bike_id": "fdfba8f6fb9e6420efd884754bb575c9"}, {"lon": -77.07272766666667, "rental_uris": {"android": "https://dc.lft.to/lastmile_qr_scan", "ios": "https://dc.lft.to/lastmile_qr_scan"}, "fusion_lon": 0.0, "is_reserved": 0, "is_disabled": 0, "fusion_lat": 0.0, "type": "electric_scooter", "name": "2a762898d871c83da5cde72fbba779c0", "lat": 38.909205666666665, "bike_id": "2a762898d871c83da5cde72fbba779c0"}, {"lon": -77.0625055, "rental_uris": {"android": "https://dc.lft.to/lastmile_qr_scan", "ios": "https://dc.lft.to/lastmile_qr_scan"}, "fusion_lon": 0.0, "is_reserved": 0, "is_disabled": 0, "fusion_lat": 0.0, "type": "electric_bike", "name": "dd6cecaa9959809d8e3f71a6541e505a", "lat": 38.806695, "bike_id": "dd6cecaa9959809d8e3f71a6541e505a"}, {"lon": -77.00305483333334, "rental_uris": {"android": "https://dc.lft.to/lastmile_qr_scan", "ios": "https://dc.lft.to/lastmile_qr_scan"}, "fusion_lon": 0.0, "is_reserved": 0, "is_disabled": 0, "fusion_lat": 0.0, "type": "electric_scooter", "name": "a6657d72d9286d2c5237d12fe0362314", "lat": 38.87668733333334, "bike_id": "a6657d72d9286d2c5237d12fe0362314"}, {"lon": -76.93386516666666, "rental_uris": {"android": "https://dc.lft.to/lastmile_qr_scan", "ios": "https://dc.lft.to/lastmile_qr_scan"}, "fusion_lon": 0.0, "is_reserved": 0, "is_disabled": 0, "fusion_lat": 0.0, "type": "electric_scooter", "name": "bd097481756157c1f91278f1cab952ff", "lat": 38.899104333333334, "bike_id": "bd097481756157c1f91278f1cab952ff"}, {"lon": -77.00112083333333, "rental_uris": {"android": "https://dc.lft.to/lastmile_qr_scan", "ios": "https://dc.lft.to/lastmile_qr_scan"}, "fusion_lon": 0.0, "is_reserved": 0, "is_disabled": 0, "fusion_lat": 0.0, "type": "electric_scooter", "name": "eb1231e7d0b7ce55ada974e1d9942d77", "lat": 38.87656283333333, "bike_id": "eb1231e7d0b7ce55ada974e1d9942d77"}, {"lon": -77.01258316666667, "rental_uris": {"android": "https://dc.lft.to/lastmile_qr_scan", "ios": "https://dc.lft.to/lastmile_qr_scan"}, "fusion_lon": 0.0, "is_reserved": 0, "is_disabled": 0, "fusion_lat": 0.0, "type": "electric_scooter", "name": "e2bf87684c48dea939439b1fda8544cb", "lat": 38.9001505, "bike_id": "e2bf87684c48dea939439b1fda8544cb"}, {"lon": -76.91061433333333, "rental_uris": {"android": "https://dc.lft.to/lastmile_qr_scan", "ios": "https://dc.lft.to/lastmile_qr_scan"}, "fusion_lon": 0.0, "is_reserved": 0, "is_disabled": 0, "fusion_lat": 0.0, "type": "electric_bike", "name": "6654e7c7b77efb79db4bfb8164536547", "lat": 39.0107705, "bike_id": "6654e7c7b77efb79db4bfb8164536547"}, {"lon": -77.050901, "rental_uris": {"android": "https://dc.lft.to/lastmile_qr_scan", "ios": "https://dc.lft.to/lastmile_qr_scan"}, "fusion_lon": 0.0, "is_reserved": 0, "is_disabled": 0, "fusion_lat": 0.0, "type": "electric_bike", "name": "b2f513d51bc003a888d74058811c2c59", "lat": 38.8133185, "bike_id": "b2f513d51bc003a888d74058811c2c59"}, {"lon": -77.04385183333333, "rental_uris": {"android": "https://dc.lft.to/lastmile_qr_scan", "ios": "https://dc.lft.to/lastmile_qr_scan"}, "fusion_lon": 0.0, "is_reserved": 0, "is_disabled": 0, "fusion_lat": 0.0, "type": "electric_scooter", "name": "51aa29453f5e006cc64822d9ae797390", "lat": 38.921104, "bike_id": "51aa29453f5e006cc64822d9ae797390"}, {"lon": -76.9960295, "rental_uris": {"android": "https://dc.lft.to/lastmile_qr_scan", "ios": "https://dc.lft.to/lastmile_qr_scan"}, "fusion_lon": 0.0, "is_reserved": 0, "is_disabled": 0, "fusion_lat": 0.0, "type": "electric_scooter", "name": "abd021709d933c289e1e280405413c71", "lat": 38.890932166666666, "bike_id": "abd021709d933c289e1e280405413c71"}, {"lon": -77.03202316666666, "rental_uris": {"android": "https://dc.lft.to/lastmile_qr_scan", "ios": "https://dc.lft.to/lastmile_qr_scan"},