{"data": {"bikes": [{"fusion_lat": 0.0, "fusion_lon": 0.0, "is_disabled": 0, "type": "electric_scooter", "rental_uris": {"ios": "https://dc.lft.to/lastmile_qr_scan", "android": "https://dc.lft.to/lastmile_qr_scan"}, "lat": 38.8991955, "name": "2e7f71d88ae4525cbbe531b98a50ed75", "lon": -77.05002033333334, "is_reserved": 0, "bike_id": "2e7f71d88ae4525cbbe531b98a50ed75"}, {"fusion_lat": 0.0, "fusion_lon": 0.0, "is_disabled": 0, "type": "electric_scooter", "rental_uris": {"ios": "https://dc.lft.to/lastmile_qr_scan", "android": "https://dc.lft.to/lastmile_qr_scan"}, "lat": 38.914924666666664, "name": "f4dc6acafb430fcb8010f5bfb1ae71be", "lon": -77.01994233333333, "is_reserved": 0, "bike_id": "f4dc6acafb430fcb8010f5bfb1ae71be"}, {"fusion_lat": 0.0, "fusion_lon": 0.0, "is_disabled": 0, "type": "electric_scooter", "rental_uris": {"ios": "https://dc.lft.to/lastmile_qr_scan", "android": "https://dc.lft.to/lastmile_qr_scan"}, "lat": 38.897560166666665, "name": "5ffb9f88a3c49e09db942c8d62cd95cf", "lon": -77.029321, "is_reserved": 0, "bike_id": "5ffb9f88a3c49e09db942c8d62cd95cf"}, {"fusion_lat": 0.0, "fusion_lon": 0.0, "is_disabled": 0, "type": "electric_scooter", "rental_uris": {"ios": "https://dc.lft.to/lastmile_qr_scan", "android": "https://dc.lft.to/lastmile_qr_scan"}, "lat": 38.892671, "name": "03adb54f6fce57b53d92b3956ef08599", "lon": -77.00357116666666, "is_reserved": 0, "bike_id": "03adb54f6fce57b53d92b3956ef08599"}, {"fusion_lat": 0.0, "fusion_lon": 0.0, "is_disabled": 0, "type": "electric_scooter", "rental_uris": {"ios": "https://dc.lft.to/lastmile_qr_scan", "android": "https://dc.lft.to/lastmile_qr_scan"}, "lat": 38.914800666666665, "name": "b09052cb7937aa1b117dc9003ed84ad9", "lon": -77.031989, "is_reserved": 0, "bike_id": "b09052cb7937aa1b117dc9003ed84ad9"}, {"fusion_lat": 0.0, "fusion_lon": 0.0, "is_disabled": 0, "type": "electric_scooter", "rental_uris": {"ios": "https://dc.lft.to/lastmile_qr_scan", "android": "https://dc.lft.to/lastmile_qr_scan"}, "lat": 38.91392066666667, "name": "447a0d95af8fd781dd49deff81c2241f", "lon": -77.0344805, "is_reserved": 0, "bike_id": "447a0d95af8fd781dd49deff81c2241f"}, {"fusion_lat": 0.0, "fusion_lon": 0.0, "is_disabled": 0, "type": "electric_scooter", "rental_uris": {"ios": "https://dc.lft.to/lastmile_qr_scan", "android": "https://dc.lft.to/lastmile_qr_scan"}, "lat": 38.91559983333333, "name": "873d556f69508b3e15d25c6f17958256", "lon": -77.03831883333334, "is_reserved": 0, "bike_id": "873d556f69508b3e15d25c6f17958256"}, {"fusion_lat": 0.0, "fusion_lon": 0.0, "is_disabled": 0, "type": "electric_scooter", "rental_uris": {"ios": "https://dc.lft.to/lastmile_qr_scan", "android": "https://dc.lft.to/lastmile_qr_scan"}, "lat": 38.91189116666666, "name": "5e4ab740167cba9d747e903105cec0ad", "lon": -77.007226, "is_reserved": 0, "bike_id": "5e4ab740167cba9d747e903105cec0ad"}, {"fusion_lat": 0.0, "fusion_lon": 0.0, "is_disabled": 0, "type": "electric_scooter", "rental_uris": {"ios": "https://dc.lft.to/lastmile_qr_scan", "android": "https://dc.lft.to/lastmile_qr_scan"}, "lat": 38.90338883333333, "name": "398272195f6a7d695b34b3fd659460fa", "lon": -76.9827885, "is_reserved": 0, "bike_id": "398272195f6a7d695b34b3fd659460fa"}, {"fusion_lat": 0.0, "fusion_lon": 0.0, "is_disabled": 0, "type": "electric_scooter", "rental_uris": {"ios": "https://dc.lft.to/lastmile_qr_scan", "android": "https://dc.lft.to/lastmile_qr_scan"}, "lat": 38.888171, "name": "0b1f2efd258804a43494fddd38729d19", "lon": -76.991527, "is_reserved": 0, "bike_id": "0b1f2efd258804a43494fddd38729d19"}, {"fusion_lat": 0.0, "fusion_lon": 0.0, "is_disabled": 0, "type": "electric_scooter", "rental_uris": {"ios": "https://dc.lft.to/lastmile_qr_scan", "android": "https://dc.lft.to/lastmile_qr_scan"}, "lat": 38.89878816666667, "name": "2cd92fde4ef186d6e87f5268f45409ce", "lon": -77.053401, "is_reserved": 0, "bike_id": "2cd92fde4ef186d6e87f5268f45409ce"}, {"fusion_lat": 0.0, "fusion_lon": 0.0, "is_disabled": 0, "type": "electric_scooter", "rental_uris": {"ios": "https://dc.lft.to/lastmile_qr_scan", "android": "https://dc.lft.to/lastmile_qr_scan"}, "lat": 38.9050565, "name": "5d45c4b38330d50b3c06bdbe087303db", "lon": -77.019796, "is_reserved": 0, "bike_id": "5d45c4b38330d50b3c06bdbe087303db"}, {"fusion_lat": 0.0, "fusion_lon": 0.0, "is_disabled": 0, "type": "electric_scooter", "rental_uris": {"ios": "https://dc.lft.to/lastmile_qr_scan", "android": "https://dc.lft.to/lastmile_qr_scan"}, "lat": 38.914022333333335, "name": "e974f2cb1ab77a9d9fcb447ef3a68dde", "lon": -77.010196, "is_reserved": 0, "bike_id": "e974f2cb1ab77a9d9fcb447ef3a68dde"}, {"fusion_lat": 0.0, "fusion_lon": 0.0, "is_disabled": 0, "type": "electric_scooter", "rental_uris": {"ios": "https://dc.lft.to/lastmile_qr_scan", "android": "https://dc.lft.to/lastmile_qr_scan"}, "lat": 38.88488016666667, "name": "e44659605a93299f3851e9b3e5a190c5", "lon": -77.0071245, "is_reserved": 0, "bike_id": "e44659605a93299f3851e9b3e5a190c5"}, {"fusion_lat": 0.0, "fusion_lon": 0.0, "is_disabled": 0, "type": "electric_bike", "rental_uris": {"ios": "https://dc.lft.to/lastmile_qr_scan", "android": "https://dc.lft.to/lastmile_qr_scan"}, "lat": 38.953624, "name": "2ce1a7650e0d519a74887468704ac442", "lon": -76.98091283333333, "is_reserved": 0, "bike_id": "2ce1a7650e0d519a74887468704ac442"}, {"fusion_lat": 0.0, "fusion_lon": 0.0, "is_disabled": 0, "type": "electric_scooter", "rental_uris": {"ios": "https://dc.lft.to/lastmile_qr_scan", "android": "https://dc.lft.to/lastmile_qr_scan"}, "lat": 38.89339283333333, "name": "d88eeef4fb08657c09d979c6fb171f48", "lon": -76.99383533333334, "is_reserved": 0, "bike_id": "d88eeef4fb08657c09d979c6fb171f48"}, {"fusion_lat": 0.0, "fusion_lon": 0.0, "is_disabled": 0, "type": "electric_scooter", "rental_uris": {"ios": "https://dc.lft.to/lastmile_qr_scan", "android": "https://dc.lft.to/lastmile_qr_scan"}, "lat": 38.95084, "name": "6c9ea9641597607eb7d43a42168a794d", "lon": -77.02820216666667, "is_reserved": 0, "bike_id": "6c9ea9641597607eb7d43a42168a794d"}, {"fusion_lat": 0.0, "fusion_lon": 0.0, "is_disabled": 0, "type": "electric_scooter", "rental_uris": {"ios": "https://dc.lft.to/lastmile_qr_scan", "android": "https://dc.lft.to/lastmile_qr_scan"}, "lat": 38.905437666666664, "name": "e24f34362a93a30cb1506123ad8a572e", "lon": -77.03403316666666, "is_reserved": 0, "bike_id": "e24f34362a93a30cb1506123ad8a572e"}, {"fusion_lat": 0.0, "fusion_lon": 0.0, "is_disabled": 0, "type": "electric_scooter", "rental_uris": {"ios": "https://dc.lft.to/lastmile_qr_scan", "android": "https://dc.lft.to/lastmile_qr_scan"}, "lat": 38.901399, "name": "403b3f9ffa2915095107e703659593fa", "lon": -77.0300055, "is_reserved": 0, "bike_id": "403b3f9ffa2915095107e703659593fa"}, {"fusion_lat": 0.0, "fusion_lon": 0.0, "is_disabled": 0, "type": "electric_scooter", "rental_uris": {"ios": "https://dc.lft.to/lastmile_qr_scan", "android": "https://dc.lft.to/lastmile_qr_scan"}, "lat": 38.89474516666667, "name": "a6bc7d866804367ee233ca9935d6b598", "lon": -77.00259933333334, "is_reserved": 0, "bike_id": "a6bc7d866804367ee233ca9935d6b598"}, {"fusion_lat": 0.0, "fusion_lon": 0.0, "is_disabled": 0, "type": "electric_scooter", "rental_uris": {"ios": "https://dc.lft.to/lastmile_qr_scan", "android": "https://dc.lft.to/lastmile_qr_scan"}, "lat": 38.91272083333333, "name": "716e33fd3fe0d3ed3d90b534f6f872ee", "lon": -77.0269365, "is_reserved": 0, "bike_id": "716e33fd3fe0d3ed3d90b534f6f872ee"}, {"fusion_lat": 0.0, "fusion_lon": 0.0, "is_disabled": 0, "type": "electric_scooter", "rental_uris": {"ios": "https://dc.lft.to/lastmile_qr_scan", "android": "https://dc.lft.to/lastmile_qr_scan"}, "lat": 38.9270015, "name": "3e0780f96dd51fd581e07a9ee086af39", "lon": -77.0648425, "is_reserved": 0, "bike_id": "3e0780f96dd51fd581e07a9ee086af39"}, {"fusion_lat": 0.0, "fusion_lon": 0.0, "is_disabled": 0, "type": "electric_scooter", "rental_uris": {"ios": "https://dc.lft.to/lastmile_qr_scan", "android": "https://dc.lft.to/lastmile_qr_scan"}, "lat": 38.9266755, "name": "2b771144f96a0f4b07bf10fb08f50acd", "lon": -77.01500416666667, "is_reserved": 0, "bike_id": "2b771144f96a0f4b07bf10fb08f50acd"}, {"fusion_lat": 0.0, "fusion_lon": 0.0, "is_disabled": 0, "type": "electric_bike", "rental_uris": {"ios": "https://dc.lft.to/lastmile_qr_scan", "android": "https://dc.lft.to/lastmile_qr_scan"}, "lat": 38.865790833333335, "name": "e8204856b318fb7d3958a46491b6d7e2", "lon": -77.129377, "is_reserved": 0, "bike_id": "e8204856b318fb7d3958a46491b6d7e2"}, {"fusion_lat": 0.0, "fusion_lon": 0.0, "is_disabled": 0, "type": "electric_scooter", "rental_uris": {"ios": "https://dc.lft.to/lastmile_qr_scan", "android": "https://dc.lft.to/lastmile_qr_scan"}, "lat": 38.921367333333336, "name": "71779b8af720bc9438dd03d08a1d73c8", "lon": -77.00928466666667, "is_reserved": 0, "bike_id": "71779b8af720bc9438dd03d08a1d73c8"}, {"fusion_lat": 0.0, "fusion_lon": 0.0, "is_disabled": 0, "type": "electric_scooter", "rental_uris": {"ios": "https://dc.lft.to/lastmile_qr_scan", "android": "https://dc.lft.to/lastmile_qr_scan"}, "lat": 38.920833333333334, "name": "7d8d18652cbd83d96d099f3075642f48", "lon": -77.02297233333333, "is_reserved": 0, "bike_id": "7d8d18652cbd83d96d099f3075642f48"}, {"fusion_lat": 0.0, "fusion_lon": 0.0, "is_disabled": 0, "type": "electric_scooter", "rental_uris": {"ios": "https://dc.lft.to/lastmile_qr_scan", "android": "https://dc.lft.to/lastmile_qr_scan"}, "lat": 38.8643495, "name": "49a89fec28567ac569bfccdb59c06584", "lon": -76.98990866666666, "is_reserved": 0, "bike_id": "49a89fec28567ac569bfccdb59c06584"}, {"fusion_lat": 0.0, "fusion_lon": 0.0, "is_disabled": 0, "type": "electric_scooter", "rental_uris": {"ios": "https://dc.lft.to/lastmile_qr_scan", "android": "https://dc.lft.to/lastmile_qr_scan"}, "lat": 38.92028233333333, "name": "5d39f4691fe67257f511d6412da84a34", "lon": -77.04192983333333, "is_reserved": 0, "bike_id": "5d39f4691fe67257f511d6412da84a34"}, {"fusion_lat": 0.0, "fusion_lon": 0.0, "is_disabled": 0, "type": "electric_scooter", "rental_uris": {"ios": "https://dc.lft.to/lastmile_qr_scan", "android": "https://dc.lft.to/lastmile_qr_scan"}, "lat": 38.91936116666667, "name": "488eeb1448c6ad88c02b8064c0b5e998", "lon": -77.019078, "is_reserved": 0, "bike_id": "488eeb1448c6ad88c02b8064c0b5e998"}, {"fusion_lat": 0.0, "fusion_lon": 0.0, "is_disabled": 0, "type": "electric_scooter", "rental_uris": {"ios": "https://dc.lft.to/lastmile_qr_scan", "android": "https://dc.lft.to/lastmile_qr_scan"}, "lat": 38.91249916666666, "name": "f8cb6f2790001639cbf9e7845966461b", "lon": -77.04160833333333, "is_reserved": 0, "bike_id": "f8cb6f2790001639cbf9e7845966461b"}, {"fusion_lat": 0.0, "fusion_lon": 0.0, "is_disabled": 0, "type": "electric_scooter", "rental_uris": {"ios": "https://dc.lft.to/lastmile_qr_scan", "android": "https://dc.lft.to/lastmile_qr_scan"}, "lat": 38.90697866666667, "name": "bf421995a381217dc2c1f7cdd426510b", "lon": -77.0239455, "is_reserved": 0, "bike_id": "bf421995a381217dc2c1f7cdd426510b"}, {"fusion_lat": 0.0, "fusion_lon": 0.0, "is_disabled": 0, "type": "electric_scooter", "rental_uris": {"ios": "https://dc.lft.to/lastmile_qr_scan", "android": "https://dc.lft.to/lastmile_qr_scan"}, "lat": 38.9480095, "name": "65bc4bb106301750105b22f98a8f4b83", "lon": -77.07906033333333, "is_reserved": 0, "bike_id": "65bc4bb106301750105b22f98a8f4b83"}, {"fusion_lat": 0.0, "fusion_lon": 0.0, "is_disabled": 0, "type": "electric_scooter", "rental_uris": {"ios": "https://dc.lft.to/lastmile_qr_scan", "android": "https://dc.lft.to/lastmile_qr_scan"}, "lat": 38.90693266666667, "name": "537a1980471f15323097efa8e1c807bd", "lon": -77.02388516666667, "is_reserved": 0, "bike_id": "537a1980471f15323097efa8e1c807bd"}, {"fusion_lat": 0.0, "fusion_lon": 0.0, "is_disabled": 0, "type": "electric_scooter", "rental_uris": {"ios": "https://dc.lft.to/lastmile_qr_scan", "android": "https://dc.lft.to/lastmile_qr_scan"}, "lat": 38.89632533333333, "name": "30506e52cbbd67db08d2451a9c576228", "lon": -76.92967683333333, "is_reserved": 0, "bike_id": "30506e52cbbd67db08d2451a9c576228"}, {"fusion_lat": 0.0, "fusion_lon": 0.0, "is_disabled": 0, "type": "electric_scooter", "rental_uris": {"ios": "https://dc.lft.to/lastmile_qr_scan", "android": "https://dc.lft.to/lastmile_qr_scan"}, "lat": 38.886404666666664, "name": "4d0c5b6f2bdfe28bd751083e5f58cc5e", "lon": -77.00348566666666, "is_reserved": 0, "bike_id": "4d0c5b6f2bdfe28bd751083e5f58cc5e"}, {"fusion_lat": 0.0, "fusion_lon": 0.0, "is_disabled": 0, "type": "electric_scooter", "rental_uris": {"ios": "https://dc.lft.to/lastmile_qr_scan", "android": "https://dc.lft.to/lastmile_qr_scan"}, "lat": 38.917655, "name": "fd7ff7c573da9c4072d89446fad31b15", "lon": -77.02811416666667, "is_reserved": 0, "bike_id": "fd7ff7c573da9c4072d89446fad31b15"}, {"fusion_lat": 0.0, "fusion_lon": 0.0, "is_disabled": 0, "type": "electric_bike", "rental_uris": {"ios": "https://dc.lft.to/lastmile_qr_scan", "android": "https://dc.lft.to/lastmile_qr_scan"}, "lat": 38.91305716666667, "name": "a608280022491681b327e01306ada6e9", "lon": -77.084119, "is_reserved": 0, "bike_id": "a608280022491681b327e01306ada6e9"}, {"fusion_lat": 0.0, "fusion_lon": 0.0, "is_disabled": 0, "type": "electric_scooter", "rental_uris": {"ios": "https://dc.lft.to/lastmile_qr_scan", "android": "https://dc.lft.to/lastmile_qr_scan"}, "lat": 38.905595166666664, "name": "3cbb0ca940d2bf1bac7cb48461fa0f20", "lon": -77.0398795, "is_reserved": 0, "bike_id": "3cbb0ca940d2bf1bac7cb48461fa0f20"}, {"fusion_lat": 0.0, "fusion_lon": 0.0, "is_disabled": 0, "type": "electric_scooter", "rental_uris": {"ios": "https://dc.lft.to/lastmile_qr_scan", "android": "https://dc.lft.to/lastmile_qr_scan"}, "lat": 38.904638, "name": "0699c3f3c4800ca0a8dab28114aba713", "lon": -77.02811, "is_reserved": 0, "bike_id": "0699c3f3c4800ca0a8dab28114aba713"}, {"fusion_lat": 0.0, "fusion_lon": 0.0, "is_disabled": 0, "type": "electric_bike", "rental_uris": {"ios": "https://dc.lft.to/lastmile_qr_scan", "android": "https://dc.lft.to/lastmile_qr_scan"}, "lat": 38.916784666666665, "name": "fea5d4e02cbffd280b6028b3666be5fa", "lon": -76.979198, "is_reserved": 0, "bike_id": "fea5d4e02cbffd280b6028b3666be5fa"}, {"fusion_lat": 0.0, "fusion_lon": 0.0, "is_disabled": 0, "type": "electric_bike", "rental_uris": {"ios": "https://dc.lft.to/lastmile_qr_scan", "android": "https://dc.lft.to/lastmile_qr_scan"}, "lat": 38.91994966666667, "name": "fb87a893d6f36d4921d6579a63649a8c", "lon": -77.10211516666666, "is_reserved": 0, "bike_id": "fb87a893d6f36d4921d6579a63649a8c"}, {"fusion_lat": 0.0, "fusion_lon": 0.0, "is_disabled": 0, "type": "electric_bike", "rental_uris": {"ios": "https://dc.lft.to/lastmile_qr_scan", "android": "https://dc.lft.to/lastmile_qr_scan"}, "lat": 38.94471083333333, "name": "bd7cab6611f334c2595e95d898bd29b6", "lon": -76.9869075, "is_reserved": 0, "bike_id": "bd7cab6611f334c2595e95d898bd29b6"}, {"fusion_lat": 0.0, "fusion_lon": 0.0, "is_disabled": 0, "type": "electric_scooter", "rental_uris": {"ios": "https://dc.lft.to/lastmile_qr_scan", "android": "https://dc.lft.to/lastmile_qr_scan"}, "lat": 38.899997, "name": "feb208aa73bbac1fcda78e34b6ac5889", "lon": -77.00683416666666, "is_reserved": 0, "bike_id": "feb208aa73bbac1fcda78e34b6ac5889"}, {"fusion_lat": 0.0, "fusion_lon": 0.0, "is_disabled": 0, "type": "electric_scooter", "rental_uris": {"ios": "https://dc.lft.to/lastmile_qr_scan", "android": "https://dc.lft.to/lastmile_qr_scan"}, "lat": 38.93886716666667, "name": "7db13c38f8977e872f2bac2acada08e2", "lon": -77.03315433333333, "is_reserved": 0, "bike_id": "7db13c38f8977e872f2bac2acada08e2"}, {"fusion_lat": 0.0, "fusion_lon": 0.0, "is_disabled": 0, "type": "electric_scooter", "rental_uris": {"ios": "https://dc.lft.to/lastmile_qr_scan", "android": "https://dc.lft.to/lastmile_qr_scan"}, "lat": 38.90750416666667, "name": "36344adb4fbb075b1357f41379eed1c9", "lon": -77.04485183333334, "is_reserved": 0, "bike_id": "36344adb4fbb075b1357f41379eed1c9"}, {"fusion_lat": 0.0, "fusion_lon": 0.0, "is_disabled": 0, "type": "electric_bike", "rental_uris": {"ios": "https://dc.lft.to/lastmile_qr_scan", "android": "https://dc.lft.to/lastmile_qr_scan"}, "lat": 38.967839833333336, "name": "90de3422b5278652425f3a3a41db9097", "lon": -76.96264816666667, "is_reserved": 0, "bike_id": "90de3422b5278652425f3a3a41db9097"}, {"fusion_lat": 0.0, "fusion_lon": 0.0, "is_disabled": 0, "type": "electric_scooter", "rental_uris": {"ios": "https://dc.lft.to/lastmile_qr_scan", "android": "https://dc.lft.to/lastmile_qr_scan"}, "lat": 38.93084116666667, "name": "ebff3b2adfc142ba0e1a3ab861034446", "lon": -77.03417566666667, "is_reserved": 0, "bike_id": "ebff3b2adfc142ba0e1a3ab861034446"}, {"fusion_lat": 0.0, "fusion_lon": 0.0, "is_disabled": 0, "type": "electric_bike", "rental_uris": {"ios": "https://dc.lft.to/lastmile_qr_scan", "android": "https://dc.lft.to/lastmile_qr_scan"}, "lat": 38.846145666666665, "name": "fe7c49945f7251e96651beb6211ebfb4", "lon": -76.969165, "is_reserved": 0, "bike_id": "fe7c49945f7251e96651beb6211ebfb4"}, {"fusion_lat": 0.0, "fusion_lon": 0.0, "is_disabled": 0, "type": "electric_bike", "rental_uris": {"ios": "https://dc.lft.to/lastmile_qr_scan", "android": "https://dc.lft.to/lastmile_qr_scan"}, "lat": 38.878806833333336, "name": "0c0d28333c9964bbb86a0fc4a0a71d75", "lon": -76.98222983333334, "is_reserved": 0, "bike_id": "0c0d28333c9964bbb86a0fc4a0a71d75"}, {"fusion_lat": 0.0, "fusion_lon": 0.0, "is_disabled": 0, "type": "electric_bike", "rental_uris": {"ios": "https://dc.lft.to/lastmile_qr_scan", "android": "https://dc.lft.to/lastmile_qr_scan"}, "lat": 38.97296716666666, "name": "c12de70aac600f888dd8b2959ff5eb86", "lon": -77.03628366666666, "is_reserved": 0, "bike_id": "c12de70aac600f888dd8b2959ff5eb86"}, {"fusion_lat": 0.0, "fusion_lon": 0.0, "is_disabled": 0, "type": "electric_scooter", "rental_uris": {"ios": "https://dc.lft.to/lastmile_qr_scan", "android": "https://dc.lft.to/lastmile_qr_scan"}, "lat": 38.87657816666667, "name": "3b88d94a5362d983fbea2e88712e6f9c", "lon": -77.01870166666667, "is_reserved": 0, "bike_id": "3b88d94a5362d983fbea2e88712e6f9c"}, {"fusion_lat": 0.0, "fusion_lon": 0.0, "is_disabled": 0, "type": "electric_bike", "rental_uris": {"ios": "https://dc.lft.to/lastmile_qr_scan", "android": "https://dc.lft.to/lastmile_qr_scan"}, "lat": 38.93128133333333, "name": "d6ff4c666ecdb66cbf5ea0318d118bf2", "lon": -77.0862105, "is_reserved": 0, "bike_id": "d6ff4c666ecdb66cbf5ea0318d118bf2"}, {"fusion_lat": 0.0, "fusion_lon": 0.0, "is_disabled": 0, "type": "electric_scooter", "rental_uris": {"ios": "https://dc.lft.to/lastmile_qr_scan", "android": "https://dc.lft.to/lastmile_qr_scan"}, "lat": 38.9095815, "name": "257665bbc7777fdde2266d9ee9b70188", "lon": -77.01836533333334, "is_reserved": 0, "bike_id": "257665bbc7777fdde2266d9ee9b70188"}, {"fusion_lat": 0.0, "fusion_lon": 0.0, "is_disabled": 0, "type": "electric_scooter", "rental_uris": {"ios": "https://dc.lft.to/lastmile_qr_scan", "android": "https://dc.lft.to/lastmile_qr_scan"}, "lat": 38.89515183333334, "name": "15d7612c9a6087efd4aa1d61480c7a6f", "lon": -77.022864, "is_reserved": 0, "bike_id": "15d7612c9a6087efd4aa1d61480c7a6f"}, {"fusion_lat": 0.0, "fusion_lon": 0.0, "is_disabled": 0, "type": "electric_scooter", "rental_uris": {"ios": "https://dc.lft.to/lastmile_qr_scan", "android": "https://dc.lft.to/lastmile_qr_scan"}, "lat": 38.94876933333333, "name": "2b849713d9df694f26fe90e89e734abf", "lon": -77.0644235, "is_reserved": 0, "bike_id": "2b849713d9df694f26fe90e89e734abf"}, {"fusion_lat": 0.0, "fusion_lon": 0.0, "is_disabled": 0, "type": "electric_scooter", "rental_uris": {"ios": "https://dc.lft.to/lastmile_qr_scan", "android": "https://dc.lft.to/lastmile_qr_scan"}, "lat": 38.91463733333333, "name": "2b8d5b71ed7fbe1387b2d2fe4738c1dc", "lon": -77.0642005, "is_reserved": 0, "bike_id": "2b8d5b71ed7fbe1387b2d2fe4738c1dc"}, {"fusion_lat": 0.0, "fusion_lon": 0.0, "is_disabled": 0, "type": "electric_scooter", "rental_uris": {"ios": "https://dc.lft.to/lastmile_qr_scan", "android": "https://dc.lft.to/lastmile_qr_scan"}, "lat": 38.8767325, "name": "81c4e3e7a86ded8a1de98cf0c9ace5b0", "lon": -77.003381, "is_reserved": 0, "bike_id": "81c4e3e7a86ded8a1de98cf0c9ace5b0"}, {"fusion_lat": 0.0, "fusion_lon": 0.0, "is_disabled": 0, "type": "electric_scooter", "rental_uris": {"ios": "https://dc.lft.to/lastmile_qr_scan", "android": "https://dc.lft.to/lastmile_qr_scan"}, "lat": 38.880427166666664, "name": "b11e11a933bc2accfaaebd5bc085b5fc", "lon": -77.0054775, "is_reserved": 0, "bike_id": "b11e11a933bc2accfaaebd5bc085b5fc"}, {"fusion_lat": 0.0, "fusion_lon": 0.0, "is_disabled": 0, "type": "electric_scooter", "rental_uris": {"ios": "https://dc.lft.to/lastmile_qr_scan", "android": "https://dc.lft.to/lastmile_qr_scan"}, "lat": 38.88599833333333, "name": "c289211b4c55855cdc0cd473dcacebd9", "lon": -76.92499633333334, "is_reserved": 0, "bike_id": "c289211b4c55855cdc0cd473dcacebd9"}, {"fusion_lat": 0.0, "fusion_lon": 0.0, "is_disabled": 0, "type": "electric_scooter", "rental_uris": {"ios": "https://dc.lft.to/lastmile_qr_scan", "android": "https://dc.lft.to/lastmile_qr_scan"}, "lat": 38.90030733333333, "name": "8bbf8eff65004305eb3e08a9d0233b31", "lon": -76.99154216666666, "is_reserved": 0, "bike_id": "8bbf8eff65004305eb3e08a9d0233b31"}, {"fusion_lat": 0.0, "fusion_lon": 0.0, "is_disabled": 0, "type": "electric_scooter", "rental_uris": {"ios": "https://dc.lft.to/lastmile_qr_scan", "android": "https://dc.lft.to/lastmile_qr_scan"}, "lat": 38.8961085, "name": "e9e3defb08a04413ef10eb405e1d2f56", "lon": -77.0237765, "is_reserved": 0, "bike_id": "e9e3defb08a04413ef10eb405e1d2f56"}, {"fusion_lat": 0.0, "fusion_lon": 0.0, "is_disabled": 0, "type": "electric_bike", "rental_uris": {"ios": "https://dc.lft.to/lastmile_qr_scan", "android": "https://dc.lft.to/lastmile_qr_scan"}, "lat": 38.94089266666667, "name": "1848a69cdc2d6c4c39f0d47bfdf2194b", "lon": -77.052677, "is_reserved": 0, "bike_id": "1848a69cdc2d6c4c39f0d47bfdf2194b"}, {"fusion_lat": 0.0, "fusion_lon": 0.0, "is_disabled": 0, "type": "electric_bike", "rental_uris": {"ios": "https://dc.lft.to/lastmile_qr_scan", "android": "https://dc.lft.to/lastmile_qr_scan"}, "lat": 38.995106166666666, "name": "5a307325e0c75eb0cc9e91b989495052", "lon": -77.00715, "is_reserved": 0, "bike_id": "5a307325e0c75eb0cc9e91b989495052"}, {"fusion_lat": 0.0, "fusion_lon": 0.0, "is_disabled": 0, "type": "electric_scooter", "rental_uris": {"ios": "https://dc.lft.to/lastmile_qr_scan", "android": "https://dc.lft.to/lastmile_qr_scan"}, "lat": 38.89658816666667, "name": "5ebaa77184c09710ac97cb3bb47e92e2", "lon": -77.05129783333334, "is_reserved": 0, "bike_id": "5ebaa77184c09710ac97cb3bb47e92e2"}, {"fusion_lat": 0.0, "fusion_lon": 0.0, "is_disabled": 0, "type": "electric_scooter", "rental_uris": {"ios": "https://dc.lft.to/lastmile_qr_scan", "android": "https://dc.lft.to/lastmile_qr_scan"}, "lat": 38.916708166666666, "name": "4d17fcfa175659b839942932083d9dd1", "lon": -77.02963333333334, "is_reserved": 0, "bike_id": "4d17fcfa175659b839942932083d9dd1"}, {"fusion_lat": 0.0, "fusion_lon": 0.0, "is_disabled": 0, "type": "electric_scooter", "rental_uris": {"ios": "https://dc.lft.to/lastmile_qr_scan", "android": "https://dc.lft.to/lastmile_qr_scan"}, "lat": 38.9127025, "name": "ab6508de8c3b1fd3d719c5d69c5a9fbe", "lon": -77.03832083333333, "is_reserved": 0, "bike_id": "ab6508de8c3b1fd3d719c5d69c5a9fbe"}, {"fusion_lat": 0.0, "fusion_lon": 0.0, "is_disabled": 0, "type": "electric_scooter", "rental_uris": {"ios": "https://dc.lft.to/lastmile_qr_scan", "android": "https://dc.lft.to/lastmile_qr_scan"}, "lat": 38.87735433333334, "name": "7cf282daf85aab621635d8f34bfde576", "lon": -76.99630983333333, "is_reserved": 0, "bike_id": "7cf282daf85aab621635d8f34bfde576"}, {"fusion_lat": 0.0, "fusion_lon": 0.0, "is_disabled": 0, "type": "electric_scooter", "rental_uris": {"ios": "https://dc.lft.to/lastmile_qr_scan", "android": "https://dc.lft.to/lastmile_qr_scan"}, "lat": 38.88333866666667, "name": "1821e33647aae9e50e4047aeffeaf95f", "lon": -77.06559816666666, "is_reserved": 0, "bike_id": "1821e33647aae9e50e4047aeffeaf95f"}, {"fusion_lat": 0.0, "fusion_lon": 0.0, "is_disabled": 0, "type": "electric_scooter", "rental_uris": {"ios": "https://dc.lft.to/lastmile_qr_scan", "android": "https://dc.lft.to/lastmile_qr_scan"}, "lat": 38.898774833333334, "name": "0bc1c44929ce81b305eccf9d294a3aab", "lon": -77.03987716666667, "is_reserved": 0, "bike_id": "0bc1c44929ce81b305eccf9d294a3aab"}, {"fusion_lat": 0.0, "fusion_lon": 0.0, "is_disabled": 0, "type": "electric_scooter", "rental_uris": {"ios": "https://dc.lft.to/lastmile_qr_scan", "android": "https://dc.lft.to/lastmile_qr_scan"}, "lat": 38.89733183333333, "name": "8fc7311a2e38ed5f4c205ca62efe718b", "lon": -77.04906033333333, "is_reserved": 0, "bike_id": "8fc7311a2e38ed5f4c205ca62efe718b"}, {"fusion_lat": 0.0, "fusion_lon": 0.0, "is_disabled": 0, "type": "electric_scooter", "rental_uris": {"ios": "https://dc.lft.to/lastmile_qr_scan", "android": "https://dc.lft.to/lastmile_qr_scan"}, "lat": 38.891856, "name": "48cb983afc3c3964793b95783bb5576a", "lon": -76.998514, "is_reserved": 0, "bike_id": "48cb983afc3c3964793b95783bb5576a"}, {"fusion_lat": 0.0, "fusion_lon": 0.0, "is_disabled": 0, "type": "electric_scooter", "rental_uris": {"ios": "https://dc.lft.to/lastmile_qr_scan", "android": "https://dc.lft.to/lastmile_qr_scan"}, "lat": 38.88734983333333, "name": "9bd38b7c9dc684ecac890218b4500bfd", "lon": -77.02833916666667, "is_reserved": 0, "bike_id": "9bd38b7c9dc684ecac890218b4500bfd"}, {"fusion_lat": 0.0, "fusion_lon": 0.0, "is_disabled": 0, "type": "electric_scooter", "rental_uris": {"ios": "https://dc.lft.to/lastmile_qr_scan", "android": "https://dc.lft.to/lastmile_qr_scan"}, "lat": 38.89553316666667, "name": "39ac266f935da3d080c4727f2531fe0b", "lon": -77.00915433333333, "is_reserved": 0, "bike_id": "39ac266f935da3d080c4727f2531fe0b"}, {"fusion_lat": 0.0, "fusion_lon": 0.0, "is_disabled": 0, "type": "electric_scooter", "rental_uris": {"ios": "https://dc.lft.to/lastmile_qr_scan", "android": "https://dc.lft.to/lastmile_qr_scan"}, "lat": 38.903339, "name": "243332952d2e651a51a4e3c36f0344ca", "lon": -77.01085283333333, "is_reserved": 0, "bike_id": "243332952d2e651a51a4e3c36f0344ca"}, {"fusion_lat": 0.0, "fusion_lon": 0.0, "is_disabled": 0, "type": "electric_scooter", "rental_uris": {"ios": "https://dc.lft.to/lastmile_qr_scan", "android": "https://dc.lft.to/lastmile_qr_scan"}, "lat": 38.91106833333333, "name": "c061d5a4a01b2ba3ddcf7d35faf2c248", "lon": -77.02172166666666, "is_reserved": 0, "bike_id": "c061d5a4a01b2ba3ddcf7d35faf2c248"}, {"fusion_lat": 0.0, "fusion_lon": 0.0, "is_disabled": 0, "type": "electric_scooter", "rental_uris": {"ios": "https://dc.lft.to/lastmile_qr_scan", "android": "https://dc.lft.to/lastmile_qr_scan"}, "lat": 38.936048166666666, "name": "dfe0701c12de8aee5b2d3e297c061f1c", "lon": -77.02889433333333, "is_reserved": 0, "bike_id": "dfe0701c12de8aee5b2d3e297c061f1c"}, {"fusion_lat": 0.0, "fusion_lon": 0.0, "is_disabled": 0, "type": "electric_scooter", "rental_uris": {"ios": "https://dc.lft.to/lastmile_qr_scan", "android": "https://dc.lft.to/lastmile_qr_scan"}, "lat": 38.89841066666666, "name": "f9b75ff29f1de5b9ecbcbd377f0be2a3", "lon": -77.02274183333333, "is_reserved": 0, "bike_id": "f9b75ff29f1de5b9ecbcbd377f0be2a3"}, {"fusion_lat": 0.0, "fusion_lon": 0.0, "is_disabled": 0, "type": "electric_scooter", "rental_uris": {"ios": "https://dc.lft.to/lastmile_qr_scan", "android": "https://dc.lft.to/lastmile_qr_scan"}, "lat": 38.89788266666667, "name": "7ee4adecf6d01585a50dc746f943ec2b", "lon": -77.02977433333334, "is_reserved": 0, "bike_id": "7ee4adecf6d01585a50dc746f943ec2b"}, {"fusion_lat": 0.0, "fusion_lon": 0.0, "is_disabled": 0, "type": "electric_scooter", "rental_uris": {"ios": "https://dc.lft.to/lastmile_qr_scan", "android": "https://dc.lft.to/lastmile_qr_scan"}, "lat": 38.88748066666667, "name": "c415d47c24c7ba242ac7533a552777b3", "lon": -77.01627916666666, "is_reserved": 0, "bike_id": "c415d47c24c7ba242ac7533a552777b3"}, {"fusion_lat": 0.0, "fusion_lon": 0.0, "is_disabled": 0, "type": "electric_scooter", "rental_uris": {"ios": "https://dc.lft.to/lastmile_qr_scan", "android": "https://dc.lft.to/lastmile_qr_scan"}, "lat": 38.89440466666667, "name": "54944316eb05c083984da558cade7a83", "lon": -76.98085166666667, "is_reserved": 0, "bike_id": "54944316eb05c083984da558cade7a83"}, {"fusion_lat": 0.0, "fusion_lon": 0.0, "is_disabled": 0, "type": "electric_scooter", "rental_uris": {"ios": "https://dc.lft.to/lastmile_qr_scan", "android": "https://dc.lft.to/lastmile_qr_scan"}, "lat": 38.9139695, "name": "f5455d1495270e8a9dc69f4d2697d8f0", "lon": -77.034465, "is_reserved": 0, "bike_id": "f5455d1495270e8a9dc69f4d2697d8f0"}, {"fusion_lat": 0.0, "fusion_lon": 0.0, "is_disabled": 0, "type": "electric_scooter", "rental_uris": {"ios": "https://dc.lft.to/lastmile_qr_scan", "android": "https://dc.lft.to/lastmile_qr_scan"}, "lat": 38.900443833333334, "name": "514d370d2b7a8a8c350d1360620b40b7", "lon": -77.03370383333333, "is_reserved": 0, "bike_id": "514d370d2b7a8a8c350d1360620b40b7"}, {"fusion_lat": 0.0, "fusion_lon": 0.0, "is_disabled": 0, "type": "electric_scooter", "rental_uris": {"ios": "https://dc.lft.to/lastmile_qr_scan", "android": "https://dc.lft.to/lastmile_qr_scan"}, "lat": 38.908143, "name": "b08b4f6a6caa750ca6aecd6ffeeca728", "lon": -77.03951216666667, "is_reserved": 0, "bike_id": "b08b4f6a6caa750ca6aecd6ffeeca728"}, {"fusion_lat": 0.0, "fusion_lon": 0.0, "is_disabled": 0, "type": "electric_scooter", "rental_uris": {"ios": "https://dc.lft.to/lastmile_qr_scan", "android": "https://dc.lft.to/lastmile_qr_scan"}, "lat": 38.91248266666667, "name": "200fe6adc71c4765c065f2391b1f6591", "lon": -77.04162016666666, "is_reserved": 0, "bike_id": "200fe6adc71c4765c065f2391b1f6591"}, {"fusion_lat": 0.0, "fusion_lon": 0.0, "is_disabled": 0, "type": "electric_scooter", "rental_uris": {"ios": "https://dc.lft.to/lastmile_qr_scan", "android": "https://dc.lft.to/lastmile_qr_scan"}, "lat": 38.91119616666667, "name": "bf9ceaffcc839a00b9f5e9854af4fc26", "lon": -77.04230783333334, "is_reserved": 0, "bike_id": "bf9ceaffcc839a00b9f5e9854af4fc26"}, {"fusion_lat": 0.0, "fusion_lon": 0.0, "is_disabled": 0, "type": "electric_bike", "rental_uris": {"ios": "https://dc.lft.to/lastmile_qr_scan", "android": "https://dc.lft.to/lastmile_qr_scan"}, "lat": 38.900278666666665, "name": "0bac3b79cd3b509ac76dc3a4086d3fc6", "lon": -77.03003683333333, "is_reserved": 0, "bike_id": "0bac3b79cd3b509ac76dc3a4086d3fc6"}, {"fusion_lat": 0.0, "fusion_lon": 0.0, "is_disabled": 0, "type": "electric_scooter", "rental_uris": {"ios": "https://dc.lft.to/lastmile_qr_scan", "android": "https://dc.lft.to/lastmile_qr_scan"}, "lat": 38.903325833333334, "name": "e6f5f8a864dca45c023a93b98acff2aa", "lon": -77.03656116666667, "is_reserved": 0, "bike_id": "e6f5f8a864dca45c023a93b98acff2aa"}, {"fusion_lat": 0.0, "fusion_lon": 0.0, "is_disabled": 0, "type": "electric_scooter", "rental_uris": {"ios": "https://dc.lft.to/lastmile_qr_scan", "android": "https://dc.lft.to/lastmile_qr_scan"}, "lat": 38.93182733333333, "name": "34bd656e0293a87860b2b9f3f67989d6", "lon": -77.03857516666666, "is_reserved": 0, "bike_id": "34bd656e0293a87860b2b9f3f67989d6"}, {"fusion_lat": 0.0, "fusion_lon": 0.0, "is_disabled": 0, "type": "electric_scooter", "rental_uris": {"ios": "https://dc.lft.to/lastmile_qr_scan", "android": "https://dc.lft.to/lastmile_qr_scan"}, "lat": 38.9024445, "name": "2248cd134faf1b0209659f1634613c60", "lon": -76.980006, "is_reserved": 0, "bike_id": "2248cd134faf1b0209659f1634613c60"}, {"fusion_lat": 0.0, "fusion_lon": 0.0, "is_disabled": 0, "type": "electric_scooter", "rental_uris": {"ios": "https://dc.lft.to/lastmile_qr_scan", "android": "https://dc.lft.to/lastmile_qr_scan"}, "lat": 38.901568166666664, "name": "ddc7546b2a776d4d09f7abd14aeac23a", "lon": -77.05913483333333, "is_reserved": 0, "bike_id": "ddc7546b2a776d4d09f7abd14aeac23a"}, {"fusion_lat": 0.0, "fusion_lon": 0.0, "is_disabled": 0, "type": "electric_scooter", "rental_uris": {"ios": "https://dc.lft.to/lastmile_qr_scan", "android": "https://dc.lft.to/lastmile_qr_scan"}, "lat": 38.914009, "name": "4363b4cc27b220516c23059a321b0749", "lon": -77.018176, "is_reserved": 0, "bike_id": "4363b4cc27b220516c23059a321b0749"}, {"fusion_lat": 0.0, "fusion_lon": 0.0, "is_disabled": 0, "type": "electric_bike", "rental_uris": {"ios": "https://dc.lft.to/lastmile_qr_scan", "android": "https://dc.lft.to/lastmile_qr_scan"}, "lat": 38.89928533333333, "name": "9dbf61f6a5e50613520fab6cf14c67d5", "lon": -77.001561, "is_reserved": 0, "bike_id": "9dbf61f6a5e50613520fab6cf14c67d5"}, {"fusion_lat": 0.0, "fusion_lon": 0.0, "is_disabled": 0, "type": "electric_scooter", "rental_uris": {"ios": "https://dc.lft.to/lastmile_qr_scan", "android": "https://dc.lft.to/lastmile_qr_scan"}, "lat": 38.88644216666667, "name": "3ae11e9be55cbad9d05cb467ed18a1ae", "lon": -76.98212366666667, "is_reserved": 0, "bike_id": "3ae11e9be55cbad9d05cb467ed18a1ae"}, {"fusion_lat": 0.0, "fusion_lon": 0.0, "is_disabled": 0, "type": "electric_scooter", "rental_uris": {"ios": "https://dc.lft.to/lastmile_qr_scan", "android": "https://dc.lft.to/lastmile_qr_scan"}, "lat": 38.9003845, "name": "2a609632d06827028d56fc3b44c54ace", "lon": -76.988269, "is_reserved": 0, "bike_id": "2a609632d06827028d56fc3b44c54ace"}, {"fusion_lat": 0.0, "fusion_lon": 0.0, "is_disabled": 0, "type": "electric_scooter", "rental_uris": {"ios": "https://dc.lft.to/lastmile_qr_scan", "android": "https://dc.lft.to/lastmile_qr_scan"}, "lat": 38.905619, "name": "04b8be1f7cd2325fdf21209ac1fa2b7a", "lon": -77.04080433333333, "is_reserved": 0, "bike_id": "04b8be1f7cd2325fdf21209ac1fa2b7a"}, {"fusion_lat": 0.0, "fusion_lon": 0.0, "is_disabled": 0, "type": "electric_scooter", "rental_uris": {"ios": "https://dc.lft.to/lastmile_qr_scan", "android": "https://dc.lft.to/lastmile_qr_scan"}, "lat": 38.88057116666667, "name": "442d57ec04de87184e04b7120bff4271", "lon": -76.9321345, "is_reserved": 0, "bike_id": "442d57ec04de87184e04b7120bff4271"}, {"fusion_lat": 0.0, "fusion_lon": 0.0, "is_disabled": 0, "type": "electric_scooter", "rental_uris": {"ios": "https://dc.lft.to/lastmile_qr_scan", "android": "https://dc.lft.to/lastmile_qr_scan"}, "lat": 38.90966616666667, "name": "9ff9056df2fcd3eef1bea7c2bf08a7c2", "lon": -77.04832066666667, "is_reserved": 0, "bike_id": "9ff9056df2fcd3eef1bea7c2bf08a7c2"}, {"fusion_lat": 0.0, "fusion_lon": 0.0, "is_disabled": 0, "type": "electric_scooter", "rental_uris": {"ios": "https://dc.lft.to/lastmile_qr_scan", "android": "https://dc.lft.to/lastmile_qr_scan"}, "lat": 38.934276833333335, "name": "1043aa36116f1f31bf5840575e31e759", "lon": -77.04004716666667, "is_reserved": 0, "bike_id": "1043aa36116f1f31bf5840575e31e759"}, {"fusion_lat": 0.0, "fusion_lon": 0.0, "is_disabled": 0, "type": "electric_scooter", "rental_uris": {"ios": "https://dc.lft.to/lastmile_qr_scan", "android": "https://dc.lft.to/lastmile_qr_scan"}, "lat": 38.89347983333333, "name": "2db5b66f9f0cdf979bf134878629f346", "lon": -77.04137383333334, "is_reserved": 0, "bike_id": "2db5b66f9f0cdf979bf134878629f346"}, {"fusion_lat": 0.0, "fusion_lon": 0.0, "is_disabled": 0, "type": "electric_scooter", "rental_uris": {"ios": "https://dc.lft.to/lastmile_qr_scan", "android": "https://dc.lft.to/lastmile_qr_scan"}, "lat": 38.896549, "name": "74d4f9014811020413821ea923bd4dc7", "lon": -77.0118335, "is_reserved": 0, "bike_id": "74d4f9014811020413821ea923bd4dc7"}, {"fusion_lat": 0.0, "fusion_lon": 0.0, "is_disabled": 0, "type": "electric_bike", "rental_uris": {"ios": "https://dc.lft.to/lastmile_qr_scan", "android": "https://dc.lft.to/lastmile_qr_scan"}, "lat": 39.026231833333334, "name": "b0586cb64c2ec5d9e80fe674ba68e7c0", "lon": -77.0387725, "is_reserved": 0, "bike_id": "b0586cb64c2ec5d9e80fe674ba68e7c0"}, {"fusion_lat": 0.0, "fusion_lon": 0.0, "is_disabled": 0, "type": "electric_scooter", "rental_uris": {"ios": "https://dc.lft.to/lastmile_qr_scan", "android": "https://dc.lft.to/lastmile_qr_scan"}, "lat": 38.9184045, "name": "629ae749a095a2944a12985ec1f07a0d", "lon": -77.04098916666666, "is_reserved": 0, "bike_id": "629ae749a095a2944a12985ec1f07a0d"}, {"fusion_lat": 0.0, "fusion_lon": 0.0, "is_disabled": 0, "type": "electric_scooter", "rental_uris": {"ios": "https://dc.lft.to/lastmile_qr_scan", "android": "https://dc.lft.to/lastmile_qr_scan"}, "lat": 38.92099116666667, "name": "ee24476ba7bca8bd6dacb06b205acaf8", "lon": -77.02540916666666, "is_reserved": 0, "bike_id": "ee24476ba7bca8bd6dacb06b205acaf8"}, {"fusion_lat": 0.0, "fusion_lon": 0.0, "is_disabled": 0, "type": "electric_scooter", "rental_uris": {"ios": "https://dc.lft.to/lastmile_qr_scan", "android": "https://dc.lft.to/lastmile_qr_scan"}, "lat": 38.89924466666667, "name": "7c36d89e0d53abed80c98a9f8c14b7bf", "lon": -76.9457665, "is_reserved": 0, "bike_id": "7c36d89e0d53abed80c98a9f8c14b7bf"}, {"fusion_lat": 0.0, "fusion_lon": 0.0, "is_disabled": 0, "type": "electric_scooter", "rental_uris": {"ios": "https://dc.lft.to/lastmile_qr_scan", "android": "https://dc.lft.to/lastmile_qr_scan"}, "lat": 38.89991033333333, "name": "5ab67f77fd06b3521c30730549e09eaf", "lon": -77.0228195, "is_reserved": 0, "bike_id": "5ab67f77fd06b3521c30730549e09eaf"}, {"fusion_lat": 0.0, "fusion_lon": 0.0, "is_disabled": 0, "type": "electric_bike", "rental_uris": {"ios": "https://dc.lft.to/lastmile_qr_scan", "android": "https://dc.lft.to/lastmile_qr_scan"}, "lat": 38.94849416666667, "name": "16fd862da208fce49aa36ba02f898a03", "lon": -77.080192, "is_reserved": 0, "bike_id": "16fd862da208fce49aa36ba02f898a03"}, {"fusion_lat": 0.0, "fusion_lon": 0.0, "is_disabled": 0, "type": "electric_scooter", "rental_uris": {"ios": "https://dc.lft.to/lastmile_qr_scan", "android": "https://dc.lft.to/lastmile_qr_scan"}, "lat": 38.899616, "name": "f258b2644dfd389f3c9fcc51715c3fd2", "lon": -77.028165, "is_reserved": 0, "bike_id": "f258b2644dfd389f3c9fcc51715c3fd2"}, {"fusion_lat": 0.0, "fusion_lon": 0.0, "is_disabled": 0, "type": "electric_bike", "rental_uris": {"ios": "https://dc.lft.to/lastmile_qr_scan", "android": "https://dc.lft.to/lastmile_qr_scan"}, "lat": 38.89565066666667, "name": "0e1fa0772780652570cc71c50929ec0f", "lon": -77.12733866666666, "is_reserved": 0, "bike_id": "0e1fa0772780652570cc71c50929ec0f"}, {"fusion_lat": 0.0, "fusion_lon": 0.0, "is_disabled": 0, "type": "electric_scooter", "rental_uris": {"ios": "https://dc.lft.to/lastmile_qr_scan", "android": "https://dc.lft.to/lastmile_qr_scan"}, "lat": 38.90288483333333, "name": "31044af824eea36a32abfc65465837a7", "lon": -77.0231765, "is_reserved": 0, "bike_id": "31044af824eea36a32abfc65465837a7"}, {"fusion_lat": 0.0, "fusion_lon": 0.0, "is_disabled": 0, "type": "electric_scooter", "rental_uris": {"ios": "https://dc.lft.to/lastmile_qr_scan", "android": "https://dc.lft.to/lastmile_qr_scan"}, "lat": 38.891972333333335, "name": "b28944e0677c5c8f5d24b8fe4a144a3b", "lon": -77.0238075, "is_reserved": 0, "bike_id": "b28944e0677c5c8f5d24b8fe4a144a3b"}, {"fusion_lat": 0.0, "fusion_lon": 0.0, "is_disabled": 0, "type": "electric_scooter", "rental_uris": {"ios": "https://dc.lft.to/lastmile_qr_scan", "android": "https://dc.lft.to/lastmile_qr_scan"}, "lat": 38.877538333333334, "name": "cfa95dbad55b933e63fdb12e079e1bc6", "lon": -77.0177285, "is_reserved": 0, "bike_id": "cfa95dbad55b933e63fdb12e079e1bc6"}, {"fusion_lat": 0.0, "fusion_lon": 0.0, "is_disabled": 0, "type": "electric_scooter", "rental_uris": {"ios": "https://dc.lft.to/lastmile_qr_scan", "android": "https://dc.lft.to/lastmile_qr_scan"}, "lat": 38.89592833333333, "name": "ca45a726df2a9832d6e9545d83a8b513", "lon": -77.044087, "is_reserved": 0, "bike_id": "ca45a726df2a9832d6e9545d83a8b513"}, {"fusion_lat": 0.0, "fusion_lon": 0.0, "is_disabled": 0, "type": "electric_scooter", "rental_uris": {"ios": "https://dc.lft.to/lastmile_qr_scan", "android": "https://dc.lft.to/lastmile_qr_scan"}, "lat": 38.90506216666667, "name": "eb68c5d30a8788bc729cef28d4ef3dfb", "lon": -77.01997466666667, "is_reserved": 0, "bike_id": "eb68c5d30a8788bc729cef28d4ef3dfb"}, {"fusion_lat": 0.0, "fusion_lon": 0.0, "is_disabled": 0, "type": "electric_scooter", "rental_uris": {"ios": "https://dc.lft.to/lastmile_qr_scan", "android": "https://dc.lft.to/lastmile_qr_scan"}, "lat": 38.906231166666664, "name": "1759966c5e1f8edb3682657b182de6da", "lon": -77.05142733333334, "is_reserved": 0, "bike_id": "1759966c5e1f8edb3682657b182de6da"}, {"fusion_lat": 0.0, "fusion_lon": 0.0, "is_disabled": 0, "type": "electric_scooter", "rental_uris": {"ios": "https://dc.lft.to/lastmile_qr_scan", "android": "https://dc.lft.to/lastmile_qr_scan"}, "lat": 38.89205916666667, "name": "532d7c1a7eb35b1480e83c8a7df6864c", "lon": -76.92923083333334, "is_reserved": 0, "bike_id": "532d7c1a7eb35b1480e83c8a7df6864c"}, {"fusion_lat": 0.0, "fusion_lon": 0.0, "is_disabled": 0, "type": "electric_bike", "rental_uris": {"ios": "https://dc.lft.to/lastmile_qr_scan", "android": "https://dc.lft.to/lastmile_qr_scan"}, "lat": 38.85788433333333, "name": "c834027690bb7492e0a4c42dbc0e2756", "lon": -77.09961233333334, "is_reserved": 0, "bike_id": "c834027690bb7492e0a4c42dbc0e2756"}, {"fusion_lat": 0.0, "fusion_lon": 0.0, "is_disabled": 0, "type": "electric_scooter", "rental_uris": {"ios": "https://dc.lft.to/lastmile_qr_scan", "android": "https://dc.lft.to/lastmile_qr_scan"}, "lat": 38.9171825, "name": "6dc8b0bac57ab4ae50183481405a4362", "lon": -76.97212633333334, "is_reserved": 0, "bike_id": "6dc8b0bac57ab4ae50183481405a4362"}, {"fusion_lat": 0.0, "fusion_lon": 0.0, "is_disabled": 0, "type": "electric_scooter", "rental_uris": {"ios": "https://dc.lft.to/lastmile_qr_scan", "android": "https://dc.lft.to/lastmile_qr_scan"}, "lat": 38.89822733333333, "name": "f1b1abd4f6b0691c4f4d6d5d48efb7e0", "lon": -77.01377733333334, "is_reserved": 0, "bike_id": "f1b1abd4f6b0691c4f4d6d5d48efb7e0"}, {"fusion_lat": 0.0, "fusion_lon": 0.0, "is_disabled": 0, "type": "electric_scooter", "rental_uris": {"ios": "https://dc.lft.to/lastmile_qr_scan", "android": "https://dc.lft.to/lastmile_qr_scan"}, "lat": 38.9234555, "name": "82b09dfc47391cea6adf9efd2cad86a6", "lon": -77.05422483333334, "is_reserved": 0, "bike_id": "82b09dfc47391cea6adf9efd2cad86a6"}, {"fusion_lat": 0.0, "fusion_lon": 0.0, "is_disabled": 0, "type": "electric_bike", "rental_uris": {"ios": "https://dc.lft.to/lastmile_qr_scan", "android": "https://dc.lft.to/lastmile_qr_scan"}, "lat": 38.80755683333334, "name": "493b8898b2a1d26ce6f66d52f80a1fee", "lon": -77.09456466666667, "is_reserved": 0, "bike_id": "493b8898b2a1d26ce6f66d52f80a1fee"}, {"fusion_lat": 0.0, "fusion_lon": 0.0, "is_disabled": 0, "type": "electric_bike", "rental_uris": {"ios": "https://dc.lft.to/lastmile_qr_scan", "android": "https://dc.lft.to/lastmile_qr_scan"}, "lat": 38.932678333333335, "name": "44a87489aa9e153fd64ca3103ee12687", "lon": -77.06564233333333, "is_reserved": 0, "bike_id": "44a87489aa9e153fd64ca3103ee12687"}, {"fusion_lat": 0.0, "fusion_lon": 0.0, "is_disabled": 0, "type": "electric_scooter", "rental_uris": {"ios": "https://dc.lft.to/lastmile_qr_scan", "android": "https://dc.lft.to/lastmile_qr_scan"}, "lat": 38.918365333333334, "name": "812ae648e6ff39d0ad7daff9ab42955f", "lon": -77.02603866666666, "is_reserved": 0, "bike_id": "812ae648e6ff39d0ad7daff9ab42955f"}, {"fusion_lat": 0.0, "fusion_lon": 0.0, "is_disabled": 0, "type": "electric_scooter", "rental_uris": {"ios": "https://dc.lft.to/lastmile_qr_scan", "android": "https://dc.lft.to/lastmile_qr_scan"}, "lat": 38.901712833333335, "name": "a2622b716b8e4f01b7faf204d27a0eaa", "lon": -77.05320266666666, "is_reserved": 0, "bike_id": "a2622b716b8e4f01b7faf204d27a0eaa"}, {"fusion_lat": 0.0, "fusion_lon": 0.0, "is_disabled": 0, "type": "electric_scooter", "rental_uris": {"ios": "https://dc.lft.to/lastmile_qr_scan", "android": "https://dc.lft.to/lastmile_qr_scan"}, "lat": 38.902721, "name": "c69aadb26624b3542b0667bbfd490745", "lon": -77.05213516666667, "is_reserved": 0, "bike_id": "c69aadb26624b3542b0667bbfd490745"}, {"fusion_lat": 0.0, "fusion_lon": 0.0, "is_disabled": 0, "type": "electric_scooter", "rental_uris": {"ios": "https://dc.lft.to/lastmile_qr_scan", "android": "https://dc.lft.to/lastmile_qr_scan"}, "lat": 38.87606366666667, "name": "844c9a3742de19f6d01ba6cb6b59b6f9", "lon": -77.0199035, "is_reserved": 0, "bike_id": "844c9a3742de19f6d01ba6cb6b59b6f9"}, {"fusion_lat": 0.0, "fusion_lon": 0.0, "is_disabled": 0, "type": "electric_scooter", "rental_uris": {"ios": "https://dc.lft.to/lastmile_qr_scan", "android": "https://dc.lft.to/lastmile_qr_scan"}, "lat": 38.91651316666667, "name": "12efe5ee5aab22fa85615ff5bed94393", "lon": -77.0684645, "is_reserved": 0, "bike_id": "12efe5ee5aab22fa85615ff5bed94393"}, {"fusion_lat": 0.0, "fusion_lon": 0.0, "is_disabled": 0, "type": "electric_scooter", "rental_uris": {"ios": "https://dc.lft.to/lastmile_qr_scan", "android": "https://dc.lft.to/lastmile_qr_scan"}, "lat": 38.892379, "name": "9279d862a752c4a7db16fff6ed23607f", "lon": -77.0486985, "is_reserved": 0, "bike_id": "9279d862a752c4a7db16fff6ed23607f"}, {"fusion_lat": 0.0, "fusion_lon": 0.0, "is_disabled": 0, "type": "electric_scooter", "rental_uris": {"ios": "https://dc.lft.to/lastmile_qr_scan", "android": "https://dc.lft.to/lastmile_qr_scan"}, "lat": 38.896218166666664, "name": "0aff2b6d00030d63da3c18861a6675a4", "lon": -76.9985595, "is_reserved": 0, "bike_id": "0aff2b6d00030d63da3c18861a6675a4"}, {"fusion_lat": 0.0, "fusion_lon": 0.0, "is_disabled": 0, "type": "electric_scooter", "rental_uris": {"ios": "https://dc.lft.to/lastmile_qr_scan", "android": "https://dc.lft.to/lastmile_qr_scan"}, "lat": 38.9134975, "name": "d4d657025f101495455815d9f5d5acb8", "lon": -77.03194266666667, "is_reserved": 0, "bike_id": "d4d657025f101495455815d9f5d5acb8"}, {"fusion_lat": 0.0, "fusion_lon": 0.0, "is_disabled": 0, "type": "electric_scooter", "rental_uris": {"ios": "https://dc.lft.to/lastmile_qr_scan", "android": "https://dc.lft.to/lastmile_qr_scan"}, "lat": 38.92326383333333, "name": "c9539fa43786decaa010821e1ca21ba5", "lon": -77.01955816666667, "is_reserved": 0, "bike_id": "c9539fa43786decaa010821e1ca21ba5"}, {"fusion_lat": 0.0, "fusion_lon": 0.0, "is_disabled": 0, "type": "electric_scooter", "rental_uris": {"ios": "https://dc.lft.to/lastmile_qr_scan", "android": "https://dc.lft.to/lastmile_qr_scan"}, "lat": 38.9563595, "name": "50e49d1ed7a314da4aef3ae3f15c12aa", "lon": -77.0244015, "is_reserved": 0, "bike_id": "50e49d1ed7a314da4aef3ae3f15c12aa"}, {"fusion_lat": 0.0, "fusion_lon": 0.0, "is_disabled": 0, "type": "electric_scooter", "rental_uris": {"ios": "https://dc.lft.to/lastmile_qr_scan", "android": "https://dc.lft.to/lastmile_qr_scan"}, "lat": 38.9027635, "name": "3f46b0d5ca126f47cd8ceaee49e3857f", "lon": -77.03860533333334, "is_reserved": 0, "bike_id": "3f46b0d5ca126f47cd8ceaee49e3857f"}, {"fusion_lat": 0.0, "fusion_lon": 0.0, "is_disabled": 0, "type": "electric_scooter", "rental_uris": {"ios": "https://dc.lft.to/lastmile_qr_scan", "android": "https://dc.lft.to/lastmile_qr_scan"}, "lat": 38.90366016666667, "name": "0bba471224c2645570cd953507a56d53", "lon": -77.02007283333333, "is_reserved": 0, "bike_id": "0bba471224c2645570cd953507a56d53"}, {"fusion_lat": 0.0, "fusion_lon": 0.0, "is_disabled": 0, "type": "electric_scooter", "rental_uris": {"ios": "https://dc.lft.to/lastmile_qr_scan", "android": "https://dc.lft.to/lastmile_qr_scan"}, "lat": 38.908426166666665, "name": "dd6f13f9315663d6bb65cfc0989f09d0", "lon": -77.03460583333333, "is_reserved": 0, "bike_id": "dd6f13f9315663d6bb65cfc0989f09d0"}, {"fusion_lat": 0.0, "fusion_lon": 0.0, "is_disabled": 0, "type": "electric_bike", "rental_uris": {"ios": "https://dc.lft.to/lastmile_qr_scan", "android": "https://dc.lft.to/lastmile_qr_scan"}, "lat": 38.983025, "name": "b167b82c2e3602d0707859b858f2a905", "lon": -76.94542983333334, "is_reserved": 0, "bike_id": "b167b82c2e3602d0707859b858f2a905"}, {"fusion_lat": 0.0, "fusion_lon": 0.0, "is_disabled": 0, "type": "electric_bike", "rental_uris": {"ios": "https://dc.lft.to/lastmile_qr_scan", "android": "https://dc.lft.to/lastmile_qr_scan"}, "lat": 38.997798, "name": "179143c7440efe7df0c46efd8402b8db", "lon": -77.00761433333334, "is_reserved": 0, "bike_id": "179143c7440efe7df0c46efd8402b8db"}, {"fusion_lat": 0.0, "fusion_lon": 0.0, "is_disabled": 0, "type": "electric_bike", "rental_uris": {"ios": "https://dc.lft.to/lastmile_qr_scan", "android": "https://dc.lft.to/lastmile_qr_scan"}, "lat": 38.884639666666665, "name": "cc2ea916e55ab88e3c9014a4c35cd9b0", "lon": -76.95242266666666, "is_reserved": 0, "bike_id": "cc2ea916e55ab88e3c9014a4c35cd9b0"}, {"fusion_lat": 0.0, "fusion_lon": 0.0, "is_disabled": 0, "type": "electric_scooter", "rental_uris": {"ios": "https://dc.lft.to/lastmile_qr_scan", "android": "https://dc.lft.to/lastmile_qr_scan"}, "lat": 38.9176325, "name": "d97be6431d56b7e40cae742455f92b42", "lon": -77.09664933333333, "is_reserved": 0, "bike_id": "d97be6431d56b7e40cae742455f92b42"}, {"fusion_lat": 0.0, "fusion_lon": 0.0, "is_disabled": 0, "type": "electric_scooter", "rental_uris": {"ios": "https://dc.lft.to/lastmile_qr_scan", "android": "https://dc.lft.to/lastmile_qr_scan"}, "lat": 38.9343245, "name": "5a8e85b5b29b2845563abb0be8bd6b32", "lon": -77.03999783333333, "is_reserved": 0, "bike_id": "5a8e85b5b29b2845563abb0be8bd6b32"}, {"fusion_lat": 0.0, "fusion_lon": 0.0, "is_disabled": 0, "type": "electric_scooter", "rental_uris": {"ios": "https://dc.lft.to/lastmile_qr_scan", "android": "https://dc.lft.to/lastmile_qr_scan"}, "lat": 38.876882333333334, "name": "400c5567b71f992cfb74b4938197d47b", "lon": -77.00064333333333, "is_reserved": 0, "bike_id": "400c5567b71f992cfb74b4938197d47b"}, {"fusion_lat": 0.0, "fusion_lon": 0.0, "is_disabled": 0, "type": "electric_scooter", "rental_uris": {"ios": "https://dc.lft.to/lastmile_qr_scan", "android": "https://dc.lft.to/lastmile_qr_scan"}, "lat": 38.87859266666667, "name": "632aec6093f23368a14eacad2050a92d", "lon": -76.93755833333333, "is_reserved": 0, "bike_id": "632aec6093f23368a14eacad2050a92d"}, {"fusion_lat": 0.0, "fusion_lon": 0.0, "is_disabled": 0, "type": "electric_scooter", "rental_uris": {"ios": "https://dc.lft.to/lastmile_qr_scan", "android": "https://dc.lft.to/lastmile_qr_scan"}, "lat": 38.928393, "name": "4950fca5030abd98f62c3d82f6fc5397", "lon": -77.01370816666666, "is_reserved": 0, "bike_id": "4950fca5030abd98f62c3d82f6fc5397"}, {"fusion_lat": 0.0, "fusion_lon": 0.0, "is_disabled": 0, "type": "electric_scooter", "rental_uris": {"ios": "https://dc.lft.to/lastmile_qr_scan", "android": "https://dc.lft.to/lastmile_qr_scan"}, "lat": 38.9195405, "name": "d6eed757d3dcb2ed1c073d8fddf52aef", "lon": -77.02475266666667, "is_reserved": 0, "bike_id": "d6eed757d3dcb2ed1c073d8fddf52aef"}, {"fusion_lat": 0.0, "fusion_lon": 0.0, "is_disabled": 0, "type": "electric_scooter", "rental_uris": {"ios": "https://dc.lft.to/lastmile_qr_scan", "android": "https://dc.lft.to/lastmile_qr_scan"}, "lat": 38.900026, "name": "a775dd3055d76753fd5052d28abfca06", "lon": -77.03045133333333, "is_reserved": 0, "bike_id": "a775dd3055d76753fd5052d28abfca06"}, {"fusion_lat": 0.0, "fusion_lon": 0.0, "is_disabled": 0, "type": "electric_scooter", "rental_uris": {"ios": "https://dc.lft.to/lastmile_qr_scan", "android": "https://dc.lft.to/lastmile_qr_scan"}, "lat": 38.900362333333334, "name": "3bd5a66af8d0cd1a8054b99ac7465c2d", "lon": -77.00899433333333, "is_reserved": 0, "bike_id": "3bd5a66af8d0cd1a8054b99ac7465c2d"}, {"fusion_lat": 0.0, "fusion_lon": 0.0, "is_disabled": 0, "type": "electric_scooter", "rental_uris": {"ios": "https://dc.lft.to/lastmile_qr_scan", "android": "https://dc.lft.to/lastmile_qr_scan"}, "lat": 38.894763166666664, "name": "e491e1db8241e1d1a8e672df17b15604", "lon": -77.02176166666666, "is_reserved": 0, "bike_id": "e491e1db8241e1d1a8e672df17b15604"}, {"fusion_lat": 0.0, "fusion_lon": 0.0, "is_disabled": 0, "type": "electric_scooter", "rental_uris": {"ios": "https://dc.lft.to/lastmile_qr_scan", "android": "https://dc.lft.to/lastmile_qr_scan"}, "lat": 38.8773165, "name": "21d5c9cd2c5579791f9f65085cd057e6", "lon": -77.003443, "is_reserved": 0, "bike_id": "21d5c9cd2c5579791f9f65085cd057e6"}, {"fusion_lat": 0.0, "fusion_lon": 0.0, "is_disabled": 0, "type": "electric_scooter", "rental_uris": {"ios": "https://dc.lft.to/lastmile_qr_scan", "android": "https://dc.lft.to/lastmile_qr_scan"}, "lat": 38.90835883333333, "name": "f8eea337cf64b42dd83c65601a2f3843", "lon": -77.04001016666666, "is_reserved": 0, "bike_id": "f8eea337cf64b42dd83c65601a2f3843"}, {"fusion_lat": 0.0, "fusion_lon": 0.0, "is_disabled": 0, "type": "electric_scooter", "rental_uris": {"ios": "https://dc.lft.to/lastmile_qr_scan", "android": "https://dc.lft.to/lastmile_qr_scan"}, "lat": 38.87458566666667, "name": "8f86c2ccd8b7c04db780df67d08c5c29", "lon": -77.00485966666666, "is_reserved": 0, "bike_id": "8f86c2ccd8b7c04db780df67d08c5c29"}, {"fusion_lat": 0.0, "fusion_lon": 0.0, "is_disabled": 0, "type": "electric_scooter", "rental_uris": {"ios": "https://dc.lft.to/lastmile_qr_scan", "android": "https://dc.lft.to/lastmile_qr_scan"}, "lat": 38.92440416666667, "name": "d304b6dbc95118232aeeeef575879951", "lon": -77.0335465, "is_reserved": 0, "bike_id": "d304b6dbc95118232aeeeef575879951"}, {"fusion_lat": 0.0, "fusion_lon": 0.0, "is_disabled": 0, "type": "electric_scooter", "rental_uris": {"ios": "https://dc.lft.to/lastmile_qr_scan", "android": "https://dc.lft.to/lastmile_qr_scan"}, "lat": 38.928853, "name": "e82f178b311dcc2d0addf039fb34a849", "lon": -77.03472366666666, "is_reserved": 0, "bike_id": "e82f178b311dcc2d0addf039fb34a849"}, {"fusion_lat": 0.0, "fusion_lon": 0.0, "is_disabled": 0, "type": "electric_scooter", "rental_uris": {"ios": "https://dc.lft.to/lastmile_qr_scan", "android": "https://dc.lft.to/lastmile_qr_scan"}, "lat": 38.919337666666664, "name": "53181d36803dd2a1ef397690c4171e89", "lon": -77.01906816666667, "is_reserved": 0, "bike_id": "53181d36803dd2a1ef397690c4171e89"}, {"fusion_lat": 0.0, "fusion_lon": 0.0, "is_disabled": 0, "type": "electric_bike", "rental_uris": {"ios": "https://dc.lft.to/lastmile_qr_scan", "android": "https://dc.lft.to/lastmile_qr_scan"}, "lat": 38.988202333333334, "name": "974561990d126be5dbbbe8af33cbcd90", "lon": -77.02667683333334, "is_reserved": 0, "bike_id": "974561990d126be5dbbbe8af33cbcd90"}, {"fusion_lat": 0.0, "fusion_lon": 0.0, "is_disabled": 0, "type": "electric_bike", "rental_uris": {"ios": "https://dc.lft.to/lastmile_qr_scan", "android": "https://dc.lft.to/lastmile_qr_scan"}, "lat": 38.97972766666667, "name": "fa708b986b8fb1bda808b67fd48f33cf", "lon": -76.93803766666667, "is_reserved": 0, "bike_id": "fa708b986b8fb1bda808b67fd48f33cf"}, {"fusion_lat": 0.0, "fusion_lon": 0.0, "is_disabled": 0, "type": "electric_scooter", "rental_uris": {"ios": "https://dc.lft.to/lastmile_qr_scan", "android": "https://dc.lft.to/lastmile_qr_scan"}, "lat": 38.89195566666667, "name": "bfd5f48aadc8b663fa9211c8c32b9779", "lon": -77.002911, "is_reserved": 0, "bike_id": "bfd5f48aadc8b663fa9211c8c32b9779"}, {"fusion_lat": 0.0, "fusion_lon": 0.0, "is_disabled": 0, "type": "electric_scooter", "rental_uris": {"ios": "https://dc.lft.to/lastmile_qr_scan", "android": "https://dc.lft.to/lastmile_qr_scan"}, "lat": 38.920253333333335, "name": "96bc36d5f01ff7508c4872c60f46442e", "lon": -77.037266, "is_reserved": 0, "bike_id": "96bc36d5f01ff7508c4872c60f46442e"}, {"fusion_lat": 0.0, "fusion_lon": 0.0, "is_disabled": 0, "type": "electric_scooter", "rental_uris": {"ios": "https://dc.lft.to/lastmile_qr_scan", "android": "https://dc.lft.to/lastmile_qr_scan"}, "lat": 38.90568116666667, "name": "7c9564fa8eb05a4f792e927b6496c653", "lon": -77.03070666666666, "is_reserved": 0, "bike_id": "7c9564fa8eb05a4f792e927b6496c653"}, {"fusion_lat": 0.0, "fusion_lon": 0.0, "is_disabled": 0, "type": "electric_scooter", "rental_uris": {"ios": "https://dc.lft.to/lastmile_qr_scan", "android": "https://dc.lft.to/lastmile_qr_scan"}, "lat": 38.900804666666666, "name": "474bcd4285c3fcbefa8811033a9ebf11", "lon": -77.0487705, "is_reserved": 0, "bike_id": "474bcd4285c3fcbefa8811033a9ebf11"}, {"fusion_lat": 0.0, "fusion_lon": 0.0, "is_disabled": 0, "type": "electric_scooter", "rental_uris": {"ios": "https://dc.lft.to/lastmile_qr_scan", "android": "https://dc.lft.to/lastmile_qr_scan"}, "lat": 38.897947, "name": "947cbd31ec6cbe9b1836ab9f17e06574", "lon": -77.0221815, "is_reserved": 0, "bike_id": "947cbd31ec6cbe9b1836ab9f17e06574"}, {"fusion_lat": 0.0, "fusion_lon": 0.0, "is_disabled": 0, "type": "electric_bike", "rental_uris": {"ios": "https://dc.lft.to/lastmile_qr_scan", "android": "https://dc.lft.to/lastmile_qr_scan"}, "lat": 38.895658, "name": "1da1a5f4e9b6e6f2b50afd5114804711", "lon": -77.12718383333333, "is_reserved": 0, "bike_id": "1da1a5f4e9b6e6f2b50afd5114804711"}, {"fusion_lat": 0.0, "fusion_lon": 0.0, "is_disabled": 0, "type": "electric_scooter", "rental_uris": {"ios": "https://dc.lft.to/lastmile_qr_scan", "android": "https://dc.lft.to/lastmile_qr_scan"}, "lat": 38.9105065, "name": "9516737811ddeea2b9965a9bed107b0a", "lon": -77.03807483333334, "is_reserved": 0, "bike_id": "9516737811ddeea2b9965a9bed107b0a"}, {"fusion_lat": 0.0, "fusion_lon": 0.0, "is_disabled": 0, "type": "electric_scooter", "rental_uris": {"ios": "https://dc.lft.to/lastmile_qr_scan", "android": "https://dc.lft.to/lastmile_qr_scan"}, "lat": 38.89730466666666, "name": "6edc42ea51bb1fe54c5cd8c7767802df", "lon": -76.94702933333333, "is_reserved": 0, "bike_id": "6edc42ea51bb1fe54c5cd8c7767802df"}, {"fusion_lat": 0.0, "fusion_lon": 0.0, "is_disabled": 0, "type": "electric_scooter", "rental_uris": {"ios": "https://dc.lft.to/lastmile_qr_scan", "android": "https://dc.lft.to/lastmile_qr_scan"}, "lat": 38.918255333333335, "name": "e04d63f1691e9972869ebff686613702", "lon": -77.03178316666667, "is_reserved": 0, "bike_id": "e04d63f1691e9972869ebff686613702"}, {"fusion_lat": 0.0, "fusion_lon": 0.0, "is_disabled": 0, "type": "electric_scooter", "rental_uris": {"ios": "https://dc.lft.to/lastmile_qr_scan", "android": "https://dc.lft.to/lastmile_qr_scan"}, "lat": 38.9196375, "name": "31710f149663eff45bb816dd40b97548", "lon": -77.03857183333334, "is_reserved": 0, "bike_id": "31710f149663eff45bb816dd40b97548"}, {"fusion_lat": 0.0, "fusion_lon": 0.0, "is_disabled": 0, "type": "electric_scooter", "rental_uris": {"ios": "https://dc.lft.to/lastmile_qr_scan", "android": "https://dc.lft.to/lastmile_qr_scan"}, "lat": 38.918631833333336, "name": "e14c793285c234adb2994c44136a93fb", "lon": -77.032049, "is_reserved": 0, "bike_id": "e14c793285c234adb2994c44136a93fb"}, {"fusion_lat": 0.0, "fusion_lon": 0.0, "is_disabled": 0, "type": "electric_scooter", "rental_uris": {"ios": "https://dc.lft.to/lastmile_qr_scan", "android": "https://dc.lft.to/lastmile_qr_scan"}, "lat": 38.90799833333333, "name": "4f8169352c070c07380d680514189351", "lon": -77.03827366666667, "is_reserved": 0, "bike_id": "4f8169352c070c07380d680514189351"}, {"fusion_lat": 0.0, "fusion_lon": 0.0, "is_disabled": 0, "type": "electric_scooter", "rental_uris": {"ios": "https://dc.lft.to/lastmile_qr_scan", "android": "https://dc.lft.to/lastmile_qr_scan"}, "lat": 38.9166875, "name": "039bdcc6847090418e7eff36192d2320", "lon": -77.02402166666667, "is_reserved": 0, "bike_id": "039bdcc6847090418e7eff36192d2320"}, {"fusion_lat": 0.0, "fusion_lon": 0.0, "is_disabled": 0, "type": "electric_scooter", "rental_uris": {"ios": "https://dc.lft.to/lastmile_qr_scan", "android": "https://dc.lft.to/lastmile_qr_scan"}, "lat": 38.896655, "name": "024b9ddb0fcff665ec52d3a0d7427ae5", "lon": -77.02721366666667, "is_reserved": 0, "bike_id": "024b9ddb0fcff665ec52d3a0d7427ae5"}, {"fusion_lat": 0.0, "fusion_lon": 0.0, "is_disabled": 0, "type": "electric_scooter", "rental_uris": {"ios": "https://dc.lft.to/lastmile_qr_scan", "android": "https://dc.lft.to/lastmile_qr_scan"}, "lat": 38.928710833333334, "name": "fdcb1ae215d458c2cd59b614d6e29652", "lon": -77.0333825, "is_reserved": 0, "bike_id": "fdcb1ae215d458c2cd59b614d6e29652"}, {"fusion_lat": 0.0, "fusion_lon": 0.0, "is_disabled": 0, "type": "electric_scooter", "rental_uris": {"ios": "https://dc.lft.to/lastmile_qr_scan", "android": "https://dc.lft.to/lastmile_qr_scan"}, "lat": 38.844207, "name": "60d902b503a630cb3f7057d80320aa56", "lon": -76.98856083333334, "is_reserved": 0, "bike_id": "60d902b503a630cb3f7057d80320aa56"}, {"fusion_lat": 0.0, "fusion_lon": 0.0, "is_disabled": 0, "type": "electric_scooter", "rental_uris": {"ios": "https://dc.lft.to/lastmile_qr_scan", "android": "https://dc.lft.to/lastmile_qr_scan"}, "lat": 38.914498333333334, "name": "12527b22e284b628e00c35bbef23a03b", "lon": -77.04583466666666, "is_reserved": 0, "bike_id": "12527b22e284b628e00c35bbef23a03b"}, {"fusion_lat": 0.0, "fusion_lon": 0.0, "is_disabled": 0, "type": "electric_scooter", "rental_uris": {"ios": "https://dc.lft.to/lastmile_qr_scan", "android": "https://dc.lft.to/lastmile_qr_scan"}, "lat": 38.90237883333333, "name": "05f922b8425ebcf9801a9794b961b9ea", "lon": -77.06038016666666, "is_reserved": 0, "bike_id": "05f922b8425ebcf9801a9794b961b9ea"}, {"fusion_lat": 0.0, "fusion_lon": 0.0, "is_disabled": 0, "type": "electric_scooter", "rental_uris": {"ios": "https://dc.lft.to/lastmile_qr_scan", "android": "https://dc.lft.to/lastmile_qr_scan"}, "lat": 38.923777666666666, "name": "65f3e5360d9fabc9c874d371f1d8f90d", "lon": -77.02652233333333, "is_reserved": 0, "bike_id": "65f3e5360d9fabc9c874d371f1d8f90d"}, {"fusion_lat": 0.0, "fusion_lon": 0.0, "is_disabled": 0, "type": "electric_scooter", "rental_uris": {"ios": "https://dc.lft.to/lastmile_qr_scan", "android": "https://dc.lft.to/lastmile_qr_scan"}, "lat": 38.90405966666667, "name": "34d9ffda87f1137da3a716a520fccb3d", "lon": -77.068465, "is_reserved": 0, "bike_id": "34d9ffda87f1137da3a716a520fccb3d"}, {"fusion_lat": 0.0, "fusion_lon": 0.0, "is_disabled": 0, "type": "electric_scooter", "rental_uris": {"ios": "https://dc.lft.to/lastmile_qr_scan", "android": "https://dc.lft.to/lastmile_qr_scan"}, "lat": 38.87500583333333, "name": "601ea63341b1b429167476234381ec4d", "lon": -77.00044016666666, "is_reserved": 0, "bike_id": "601ea63341b1b429167476234381ec4d"}, {"fusion_lat": 0.0, "fusion_lon": 0.0, "is_disabled": 0, "type": "electric_scooter", "rental_uris": {"ios": "https://dc.lft.to/lastmile_qr_scan", "android": "https://dc.lft.to/lastmile_qr_scan"}, "lat": 38.8849325, "name": "a5075b736d5da1d50d8e9a32068fe044", "lon": -77.01559433333334, "is_reserved": 0, "bike_id": "a5075b736d5da1d50d8e9a32068fe044"}, {"fusion_lat": 0.0, "fusion_lon": 0.0, "is_disabled": 0, "type": "electric_bike", "rental_uris": {"ios": "https://dc.lft.to/lastmile_qr_scan", "android": "https://dc.lft.to/lastmile_qr_scan"}, "lat": 38.838166666666666, "name": "6420c8589b97fc8f79cf591cabaef1ed", "lon": -76.9968075, "is_reserved": 0, "bike_id": "6420c8589b97fc8f79cf591cabaef1ed"}, {"fusion_lat": 0.0, "fusion_lon": 0.0, "is_disabled": 0, "type": "electric_bike", "rental_uris": {"ios": "https://dc.lft.to/lastmile_qr_scan", "android": "https://dc.lft.to/lastmile_qr_scan"}, "lat": 38.83865616666667, "name": "25018ddeef65d0c9e0ccd73b406e52e6", "lon": -76.99696183333333, "is_reserved": 0, "bike_id": "25018ddeef65d0c9e0ccd73b406e52e6"}, {"fusion_lat": 0.0, "fusion_lon": 0.0, "is_disabled": 0, "type": "electric_scooter", "rental_uris": {"ios": "https://dc.lft.to/lastmile_qr_scan", "android": "https://dc.lft.to/lastmile_qr_scan"}, "lat": 38.91182633333333, "name": "c8b2af85672448a95011bd44196a8d8a", "lon": -77.04031666666667, "is_reserved": 0, "bike_id": "c8b2af85672448a95011bd44196a8d8a"}, {"fusion_lat": 0.0, "fusion_lon": 0.0, "is_disabled": 0, "type": "electric_scooter", "rental_uris": {"ios": "https://dc.lft.to/lastmile_qr_scan", "android": "https://dc.lft.to/lastmile_qr_scan"}, "lat": 38.92882633333333, "name": "cd2cc9a38ec6379bb11d78d0d0c9455e", "lon": -77.03335116666666, "is_reserved": 0, "bike_id": "cd2cc9a38ec6379bb11d78d0d0c9455e"}, {"fusion_lat": 0.0, "fusion_lon": 0.0, "is_disabled": 0, "type": "electric_bike", "rental_uris": {"ios": "https://dc.lft.to/lastmile_qr_scan", "android": "https://dc.lft.to/lastmile_qr_scan"}, "lat": 38.97257833333333, "name": "3d9a90dedda9b778948c5661d497f742", "lon": -76.99276166666667, "is_reserved": 0, "bike_id": "3d9a90dedda9b778948c5661d497f742"}, {"fusion_lat": 0.0, "fusion_lon": 0.0, "is_disabled": 0, "type": "electric_scooter", "rental_uris": {"ios": "https://dc.lft.to/lastmile_qr_scan", "android": "https://dc.lft.to/lastmile_qr_scan"}, "lat": 38.918042666666665, "name": "ec2cc98177fa79f80a3bd71298aa13c2", "lon": -77.041756, "is_reserved": 0, "bike_id": "ec2cc98177fa79f80a3bd71298aa13c2"}, {"fusion_lat": 0.0, "fusion_lon": 0.0, "is_disabled": 0, "type": "electric_scooter", "rental_uris": {"ios": "https://dc.lft.to/lastmile_qr_scan", "android": "https://dc.lft.to/lastmile_qr_scan"}, "lat": 38.913512, "name": "daf8fe05f9fbee9f3bfe9b07f2a096b4", "lon": -77.02879733333333, "is_reserved": 0, "bike_id": "daf8fe05f9fbee9f3bfe9b07f2a096b4"}, {"fusion_lat": 0.0, "fusion_lon": 0.0, "is_disabled": 0, "type": "electric_scooter", "rental_uris": {"ios": "https://dc.lft.to/lastmile_qr_scan", "android": "https://dc.lft.to/lastmile_qr_scan"}, "lat": 38.87669283333334, "name": "38de213aece0f919be3c1160ab1bd224", "lon": -77.00438983333333, "is_reserved": 0, "bike_id": "38de213aece0f919be3c1160ab1bd224"}, {"fusion_lat": 0.0, "fusion_lon": 0.0, "is_disabled": 0, "type": "electric_scooter", "rental_uris": {"ios": "https://dc.lft.to/lastmile_qr_scan", "android": "https://dc.lft.to/lastmile_qr_scan"}, "lat": 38.905713, "name": "94ae21be5bc2a7638da4eb6bbe994a9b", "lon": -77.03451383333334, "is_reserved": 0, "bike_id": "94ae21be5bc2a7638da4eb6bbe994a9b"}, {"fusion_lat": 0.0, "fusion_lon": 0.0, "is_disabled": 0, "type": "electric_scooter", "rental_uris": {"ios": "https://dc.lft.to/lastmile_qr_scan", "android": "https://dc.lft.to/lastmile_qr_scan"}, "lat": 38.905591333333334, "name": "f64dfce836e858da5fc0025b36d8c381", "lon": -77.01636633333334, "is_reserved": 0, "bike_id": "f64dfce836e858da5fc0025b36d8c381"}, {"fusion_lat": 0.0, "fusion_lon": 0.0, "is_disabled": 0, "type": "electric_scooter", "rental_uris": {"ios": "https://dc.lft.to/lastmile_qr_scan", "android": "https://dc.lft.to/lastmile_qr_scan"}, "lat": 38.906671, "name": "b98ce06d0e7c90c5572bdafb336227b7", "lon": -77.0271445, "is_reserved": 0, "bike_id": "b98ce06d0e7c90c5572bdafb336227b7"}, {"fusion_lat": 0.0, "fusion_lon": 0.0, "is_disabled": 0, "type": "electric_scooter", "rental_uris": {"ios": "https://dc.lft.to/lastmile_qr_scan", "android": "https://dc.lft.to/lastmile_qr_scan"}, "lat": 38.897473166666664, "name": "241bbf13b1187c9018c41be96b2d8d03", "lon": -77.00867166666667, "is_reserved": 0, "bike_id": "241bbf13b1187c9018c41be96b2d8d03"}, {"fusion_lat": 0.0, "fusion_lon": 0.0, "is_disabled": 0, "type": "electric_scooter", "rental_uris": {"ios": "https://dc.lft.to/lastmile_qr_scan", "android": "https://dc.lft.to/lastmile_qr_scan"}, "lat": 38.91254566666667, "name": "71963ae4bd217b29d12a69ba613e6c37", "lon": -77.03863583333333, "is_reserved": 0, "bike_id": "71963ae4bd217b29d12a69ba613e6c37"}, {"fusion_lat": 0.0, "fusion_lon": 0.0, "is_disabled": 0, "type": "electric_scooter", "rental_uris": {"ios": "https://dc.lft.to/lastmile_qr_scan", "android": "https://dc.lft.to/lastmile_qr_scan"}, "lat": 38.89827, "name": "ebf5ed1d0a4e37404bd29111a4c32d75", "lon": -76.94653416666667, "is_reserved": 0, "bike_id": "ebf5ed1d0a4e37404bd29111a4c32d75"}, {"fusion_lat": 0.0, "fusion_lon": 0.0, "is_disabled": 0, "type": "electric_scooter", "rental_uris": {"ios": "https://dc.lft.to/lastmile_qr_scan", "android": "https://dc.lft.to/lastmile_qr_scan"}, "lat": 38.9262575, "name": "05dc0db5b70e112b1213ccf7300b26c8", "lon": -77.07135816666667, "is_reserved": 0, "bike_id": "05dc0db5b70e112b1213ccf7300b26c8"}, {"fusion_lat": 0.0, "fusion_lon": 0.0, "is_disabled": 0, "type": "electric_scooter", "rental_uris": {"ios": "https://dc.lft.to/lastmile_qr_scan", "android": "https://dc.lft.to/lastmile_qr_scan"}, "lat": 38.941319666666665, "name": "658c951aca8f310be40d66bfddfd4cc4", "lon": -77.021557, "is_reserved": 0, "bike_id": "658c951aca8f310be40d66bfddfd4cc4"}, {"fusion_lat": 0.0, "fusion_lon": 0.0, "is_disabled": 0, "type": "electric_scooter", "rental_uris": {"ios": "https://dc.lft.to/lastmile_qr_scan", "android": "https://dc.lft.to/lastmile_qr_scan"}, "lat": 38.90735016666667, "name": "a14ef448aeed802052775cb4dd1bfee6", "lon": -77.02807483333333, "is_reserved": 0, "bike_id": "a14ef448aeed802052775cb4dd1bfee6"}, {"fusion_lat": 0.0, "fusion_lon": 0.0, "is_disabled": 0, "type": "electric_scooter", "rental_uris": {"ios": "https://dc.lft.to/lastmile_qr_scan", "android": "https://dc.lft.to/lastmile_qr_scan"}, "lat": 38.91918916666667, "name": "0a7f073233d01d34f5e4063e81fb0275", "lon": -77.04808316666667, "is_reserved": 0, "bike_id": "0a7f073233d01d34f5e4063e81fb0275"}, {"fusion_lat": 0.0, "fusion_lon": 0.0, "is_disabled": 0, "type": "electric_scooter", "rental_uris": {"ios": "https://dc.lft.to/lastmile_qr_scan", "android": "https://dc.lft.to/lastmile_qr_scan"}, "lat": 38.95926816666667, "name": "0c4ecdac958876ceac61756af908b92a", "lon": -77.03162183333333, "is_reserved": 0, "bike_id": "0c4ecdac958876ceac61756af908b92a"}, {"fusion_lat": 0.0, "fusion_lon": 0.0, "is_disabled": 0, "type": "electric_scooter", "rental_uris": {"ios": "https://dc.lft.to/lastmile_qr_scan", "android": "https://dc.lft.to/lastmile_qr_scan"}, "lat": 38.89815933333333, "name": "84e2fcbc30e2779b16aed915609a9f77", "lon": -77.0135845, "is_reserved": 0, "bike_id": "84e2fcbc30e2779b16aed915609a9f77"}, {"fusion_lat": 0.0, "fusion_lon": 0.0, "is_disabled": 0, "type": "electric_scooter", "rental_uris": {"ios": "https://dc.lft.to/lastmile_qr_scan", "android": "https://dc.lft.to/lastmile_qr_scan"}, "lat": 38.91743666666667, "name": "bddb48a7b59bfc9bd9fcc84ec1c3de47", "lon": -77.0229225, "is_reserved": 0, "bike_id": "bddb48a7b59bfc9bd9fcc84ec1c3de47"}, {"fusion_lat": 0.0, "fusion_lon": 0.0, "is_disabled": 0, "type": "electric_scooter", "rental_uris": {"ios": "https://dc.lft.to/lastmile_qr_scan", "android": "https://dc.lft.to/lastmile_qr_scan"}, "lat": 38.928685, "name": "423ab3c3ff300665b8a257e6d3a86ca5", "lon": -77.01922983333333, "is_reserved": 0, "bike_id": "423ab3c3ff300665b8a257e6d3a86ca5"}, {"fusion_lat": 0.0, "fusion_lon": 0.0, "is_disabled": 0, "type": "electric_scooter", "rental_uris": {"ios": "https://dc.lft.to/lastmile_qr_scan", "android": "https://dc.lft.to/lastmile_qr_scan"}, "lat": 38.899709333333334, "name": "a1b9a69cc1b25e073656e1fb3bc1b370", "lon": -77.03366333333334, "is_reserved": 0, "bike_id": "a1b9a69cc1b25e073656e1fb3bc1b370"}, {"fusion_lat": 0.0, "fusion_lon": 0.0, "is_disabled": 0, "type": "electric_scooter", "rental_uris": {"ios": "https://dc.lft.to/lastmile_qr_scan", "android": "https://dc.lft.to/lastmile_qr_scan"}, "lat": 38.91088033333333, "name": "40d3a688b13088787d9c9deea618efdd", "lon": -77.02201116666667, "is_reserved": 0, "bike_id": "40d3a688b13088787d9c9deea618efdd"}, {"fusion_lat": 0.0, "fusion_lon": 0.0, "is_disabled": 0, "type": "electric_scooter", "rental_uris": {"ios": "https://dc.lft.to/lastmile_qr_scan", "android": "https://dc.lft.to/lastmile_qr_scan"}, "lat": 38.943116333333336, "name": "d10466f48f4fca78eb630457b0e985d8", "lon": -77.0613595, "is_reserved": 0, "bike_id": "d10466f48f4fca78eb630457b0e985d8"}, {"fusion_lat": 0.0, "fusion_lon": 0.0, "is_disabled": 0, "type": "electric_scooter", "rental_uris": {"ios": "https://dc.lft.to/lastmile_qr_scan", "android": "https://dc.lft.to/lastmile_qr_scan"}, "lat": 38.9046475, "name": "aea18bf48a4f9459eedd7a0a8c89ec96", "lon": -77.028124, "is_reserved": 0, "bike_id": "aea18bf48a4f9459eedd7a0a8c89ec96"}, {"fusion_lat": 0.0, "fusion_lon": 0.0, "is_disabled": 0, "type": "electric_scooter", "rental_uris": {"ios": "https://dc.lft.to/lastmile_qr_scan", "android": "https://dc.lft.to/lastmile_qr_scan"}, "lat": 38.909653666666664, "name": "eae0da018f2ac0836671f6f6fc7caa48", "lon": -77.01106066666667, "is_reserved": 0, "bike_id": "eae0da018f2ac0836671f6f6fc7caa48"}, {"fusion_lat": 0.0, "fusion_lon": 0.0, "is_disabled": 0, "type": "electric_scooter", "rental_uris": {"ios": "https://dc.lft.to/lastmile_qr_scan", "android": "https://dc.lft.to/lastmile_qr_scan"}, "lat": 38.90664316666667, "name": "bb1d19264b3c49ed54065b262f5093c9", "lon": -77.02687, "is_reserved": 0, "bike_id": "bb1d19264b3c49ed54065b262f5093c9"}, {"fusion_lat": 0.0, "fusion_lon": 0.0, "is_disabled": 0, "type": "electric_scooter", "rental_uris": {"ios": "https://dc.lft.to/lastmile_qr_scan", "android": "https://dc.lft.to/lastmile_qr_scan"}, "lat": 38.90336466666667, "name": "26716a956673725fd77f8958a098eefc", "lon": -77.05281566666666, "is_reserved": 0, "bike_id": "26716a956673725fd77f8958a098eefc"}, {"fusion_lat": 0.0, "fusion_lon": 0.0, "is_disabled": 0, "type": "electric_scooter", "rental_uris": {"ios": "https://dc.lft.to/lastmile_qr_scan", "android": "https://dc.lft.to/lastmile_qr_scan"}, "lat": 38.90156316666667, "name": "cdc6a43f6119dd378d2282bda113cd4e", "lon": -77.0229265, "is_reserved": 0, "bike_id": "cdc6a43f6119dd378d2282bda113cd4e"}, {"fusion_lat": 0.0, "fusion_lon": 0.0, "is_disabled": 0, "type": "electric_scooter", "rental_uris": {"ios": "https://dc.lft.to/lastmile_qr_scan", "android": "https://dc.lft.to/lastmile_qr_scan"}, "lat": 38.907637666666666, "name": "e2ff9eb1adb57d1a4682f831e569f130", "lon": -77.04526383333334, "is_reserved": 0, "bike_id": "e2ff9eb1adb57d1a4682f831e569f130"}, {"fusion_lat": 0.0, "fusion_lon": 0.0, "is_disabled": 0, "type": "electric_bike", "rental_uris": {"ios": "https://dc.lft.to/lastmile_qr_scan", "android": "https://dc.lft.to/lastmile_qr_scan"}, "lat": 38.936837, "name": "c488252da573c6f030554bf0b58f7bc7", "lon": -76.986328, "is_reserved": 0, "bike_id": "c488252da573c6f030554bf0b58f7bc7"}, {"fusion_lat": 0.0, "fusion_lon": 0.0, "is_disabled": 0, "type": "electric_scooter", "rental_uris": {"ios": "https://dc.lft.to/lastmile_qr_scan", "android": "https://dc.lft.to/lastmile_qr_scan"}, "lat": 38.925371166666665, "name": "92f6c5f3d8f32fcbe1d8b7f97978cf3f", "lon": -77.038579, "is_reserved": 0, "bike_id": "92f6c5f3d8f32fcbe1d8b7f97978cf3f"}, {"fusion_lat": 0.0, "fusion_lon": 0.0, "is_disabled": 0, "type": "electric_scooter", "rental_uris": {"ios": "https://dc.lft.to/lastmile_qr_scan", "android": "https://dc.lft.to/lastmile_qr_scan"}, "lat": 38.900833666666664, "name": "e9cbf0c3ef599a76ad7d2b048aeecd9d", "lon": -76.98336933333333, "is_reserved": 0, "bike_id": "e9cbf0c3ef599a76ad7d2b048aeecd9d"}, {"fusion_lat": 0.0, "fusion_lon": 0.0, "is_disabled": 0, "type": "electric_scooter", "rental_uris": {"ios": "https://dc.lft.to/lastmile_qr_scan", "android": "https://dc.lft.to/lastmile_qr_scan"}, "lat": 38.90907766666667, "name": "c5f0f25566f67b30b106bc4ec64c7775", "lon": -76.99184583333333, "is_reserved": 0, "bike_id": "c5f0f25566f67b30b106bc4ec64c7775"}, {"fusion_lat": 0.0, "fusion_lon": 0.0, "is_disabled": 0, "type": "electric_scooter", "rental_uris": {"ios": "https://dc.lft.to/lastmile_qr_scan", "android": "https://dc.lft.to/lastmile_qr_scan"}, "lat": 38.91930833333333, "name": "96c374c6ddcbb009d99c5106137eef86", "lon": -77.03177616666666, "is_reserved": 0, "bike_id": "96c374c6ddcbb009d99c5106137eef86"}, {"fusion_lat": 0.0, "fusion_lon": 0.0, "is_disabled": 0, "type": "electric_scooter", "rental_uris": {"ios": "https://dc.lft.to/lastmile_qr_scan", "android": "https://dc.lft.to/lastmile_qr_scan"}, "lat": 38.89914533333334, "name": "63ed53a32b9a14cb5728d6ff7f4e2d60", "lon": -77.01377466666666, "is_reserved": 0, "bike_id": "63ed53a32b9a14cb5728d6ff7f4e2d60"}, {"fusion_lat": 0.0, "fusion_lon": 0.0, "is_disabled": 0, "type": "electric_scooter", "rental_uris": {"ios": "https://dc.lft.to/lastmile_qr_scan", "android": "https://dc.lft.to/lastmile_qr_scan"}, "lat": 38.901293, "name": "c6c3d09a0b2d4a3bcdf09bb11d8569b7", "lon": -77.041544, "is_reserved": 0, "bike_id": "c6c3d09a0b2d4a3bcdf09bb11d8569b7"}, {"fusion_lat": 0.0, "fusion_lon": 0.0, "is_disabled": 0, "type": "electric_scooter", "rental_uris": {"ios": "https://dc.lft.to/lastmile_qr_scan", "android": "https://dc.lft.to/lastmile_qr_scan"}, "lat": 38.90849883333333, "name": "55a2b03db290858ea1de628242bb2a51", "lon": -77.01058583333334, "is_reserved": 0, "bike_id": "55a2b03db290858ea1de628242bb2a51"}, {"fusion_lat": 0.0, "fusion_lon": 0.0, "is_disabled": 0, "type": "electric_bike", "rental_uris": {"ios": "https://dc.lft.to/lastmile_qr_scan", "android": "https://dc.lft.to/lastmile_qr_scan"}, "lat": 39.08439583333333, "name": "9f1ceaacbc49154cf03208f6bec37216", "lon": -76.951564, "is_reserved": 0, "bike_id": "9f1ceaacbc49154cf03208f6bec37216"}, {"fusion_lat": 0.0, "fusion_lon": 0.0, "is_disabled": 0, "type": "electric_scooter", "rental_uris": {"ios": "https://dc.lft.to/lastmile_qr_scan", "android": "https://dc.lft.to/lastmile_qr_scan"}, "lat": 38.925479, "name": "1adf35211bb06ef54a8ac0a1c964ac26", "lon": -77.0322225, "is_reserved": 0, "bike_id": "1adf35211bb06ef54a8ac0a1c964ac26"}, {"fusion_lat": 0.0, "fusion_lon": 0.0, "is_disabled": 0, "type": "electric_scooter", "rental_uris": {"ios": "https://dc.lft.to/lastmile_qr_scan", "android": "https://dc.lft.to/lastmile_qr_scan"}, "lat": 38.909474, "name": "dc6504250c153e65d60a7fc0cc7de14e", "lon": -76.93598633333333, "is_reserved": 0, "bike_id": "dc6504250c153e65d60a7fc0cc7de14e"}, {"fusion_lat": 0.0, "fusion_lon": 0.0, "is_disabled": 0, "type": "electric_scooter", "rental_uris": {"ios": "https://dc.lft.to/lastmile_qr_scan", "android": "https://dc.lft.to/lastmile_qr_scan"}, "lat": 38.890879, "name": "04186d5c50f11de4af3e31efd34855f8", "lon": -76.9994485, "is_reserved": 0, "bike_id": "04186d5c50f11de4af3e31efd34855f8"}, {"fusion_lat": 0.0, "fusion_lon": 0.0, "is_disabled": 0, "type": "electric_scooter", "rental_uris": {"ios": "https://dc.lft.to/lastmile_qr_scan", "android": "https://dc.lft.to/lastmile_qr_scan"}, "lat": 38.821320166666666, "name": "e3e9a482e50496f3921af451dc7854be", "lon": -77.00154533333334, "is_reserved": 0, "bike_id": "e3e9a482e50496f3921af451dc7854be"}, {"fusion_lat": 0.0, "fusion_lon": 0.0, "is_disabled": 0, "type": "electric_scooter", "rental_uris": {"ios": "https://dc.lft.to/lastmile_qr_scan", "android": "https://dc.lft.to/lastmile_qr_scan"}, "lat": 38.902394, "name": "b337430e55846e38e68e55fd02637d38", "lon": -77.0322345, "is_reserved": 0, "bike_id": "b337430e55846e38e68e55fd02637d38"}, {"fusion_lat": 0.0, "fusion_lon": 0.0, "is_disabled": 0, "type": "electric_scooter", "rental_uris": {"ios": "https://dc.lft.to/lastmile_qr_scan", "android": "https://dc.lft.to/lastmile_qr_scan"}, "lat": 38.91848733333333, "name": "0f708218e155190f5767567ea6fa9683", "lon": -77.03200766666667, "is_reserved": 0, "bike_id": "0f708218e155190f5767567ea6fa9683"}, {"fusion_lat": 0.0, "fusion_lon": 0.0, "is_disabled": 0, "type": "electric_scooter", "rental_uris": {"ios": "https://dc.lft.to/lastmile_qr_scan", "android": "https://dc.lft.to/lastmile_qr_scan"}, "lat": 38.920458333333336, "name": "4df8508c8242525ad561fda26e1337b7", "lon": -77.016689, "is_reserved": 0, "bike_id": "4df8508c8242525ad561fda26e1337b7"}, {"fusion_lat": 0.0, "fusion_lon": 0.0, "is_disabled": 0, "type": "electric_scooter", "rental_uris": {"ios": "https://dc.lft.to/lastmile_qr_scan", "android": "https://dc.lft.to/lastmile_qr_scan"}, "lat": 38.895071, "name": "a2c7b444bb782784de77c757b7ce8198", "lon": -77.01892966666666, "is_reserved": 0, "bike_id": "a2c7b444bb782784de77c757b7ce8198"}, {"fusion_lat": 0.0, "fusion_lon": 0.0, "is_disabled": 0, "type": "electric_scooter", "rental_uris": {"ios": "https://dc.lft.to/lastmile_qr_scan", "android": "https://dc.lft.to/lastmile_qr_scan"}, "lat": 38.89840266666667, "name": "f24244a47742714a001156a1624b91b1", "lon": -77.02777616666667, "is_reserved": 0, "bike_id": "f24244a47742714a001156a1624b91b1"}, {"fusion_lat": 0.0, "fusion_lon": 0.0, "is_disabled": 0, "type": "electric_scooter", "rental_uris": {"ios": "https://dc.lft.to/lastmile_qr_scan", "android": "https://dc.lft.to/lastmile_qr_scan"}, "lat": 38.898385833333336, "name": "64379d5c1ab51f6a445dcb420041fd82", "lon": -77.03060866666667, "is_reserved": 0, "bike_id": "64379d5c1ab51f6a445dcb420041fd82"}, {"fusion_lat": 0.0, "fusion_lon": 0.0, "is_disabled": 0, "type": "electric_scooter", "rental_uris": {"ios": "https://dc.lft.to/lastmile_qr_scan", "android": "https://dc.lft.to/lastmile_qr_scan"}, "lat": 38.935624, "name": "0f42b82e4d7826b71ee95ee26a8a0fd1", "lon": -77.06429483333334, "is_reserved": 0, "bike_id": "0f42b82e4d7826b71ee95ee26a8a0fd1"}, {"fusion_lat": 0.0, "fusion_lon": 0.0, "is_disabled": 0, "type": "electric_bike", "rental_uris": {"ios": "https://dc.lft.to/lastmile_qr_scan", "android": "https://dc.lft.to/lastmile_qr_scan"}, "lat": 38.93320633333333, "name": "fed450566891753014f34d94a1ca75df", "lon": -77.085577, "is_reserved": 0, "bike_id": "fed450566891753014f34d94a1ca75df"}, {"fusion_lat": 0.0, "fusion_lon": 0.0, "is_disabled": 0, "type": "electric_scooter", "rental_uris": {"ios": "https://dc.lft.to/lastmile_qr_scan", "android": "https://dc.lft.to/lastmile_qr_scan"}, "lat": 38.90790666666667, "name": "1051113691f7095f5f4f258a5d477ae5", "lon": -77.06440616666667, "is_reserved": 0, "bike_id": "1051113691f7095f5f4f258a5d477ae5"}, {"fusion_lat": 0.0, "fusion_lon": 0.0, "is_disabled": 0, "type": "electric_scooter", "rental_uris": {"ios": "https://dc.lft.to/lastmile_qr_scan", "android": "https://dc.lft.to/lastmile_qr_scan"}, "lat": 38.910431833333334, "name": "8c2273bd1f131b366bc3aa82267c6a5a", "lon": -77.02810566666666, "is_reserved": 0, "bike_id": "8c2273bd1f131b366bc3aa82267c6a5a"}, {"fusion_lat": 0.0, "fusion_lon": 0.0, "is_disabled": 0, "type": "electric_scooter", "rental_uris": {"ios": "https://dc.lft.to/lastmile_qr_scan", "android": "https://dc.lft.to/lastmile_qr_scan"}, "lat": 38.92085066666667, "name": "a7d595707e1339c13fb18b337bdb19c6", "lon": -77.02288233333333, "is_reserved": 0, "bike_id": "a7d595707e1339c13fb18b337bdb19c6"}, {"fusion_lat": 0.0, "fusion_lon": 0.0, "is_disabled": 0, "type": "electric_scooter", "rental_uris": {"ios": "https://dc.lft.to/lastmile_qr_scan", "android": "https://dc.lft.to/lastmile_qr_scan"}, "lat": 38.876835, "name": "6d2d80dfcb0733fed756f74471e17ad6", "lon": -77.01761833333333, "is_reserved": 0, "bike_id": "6d2d80dfcb0733fed756f74471e17ad6"}, {"fusion_lat": 0.0, "fusion_lon": 0.0, "is_disabled": 0, "type": "electric_scooter", "rental_uris": {"ios": "https://dc.lft.to/lastmile_qr_scan", "android": "https://dc.lft.to/lastmile_qr_scan"}, "lat": 38.92076566666667, "name": "8d41a79922820e7b2c5694b6d3e5d62a", "lon": -77.02304783333334, "is_reserved": 0, "bike_id": "8d41a79922820e7b2c5694b6d3e5d62a"}, {"fusion_lat": 0.0, "fusion_lon": 0.0, "is_disabled": 0, "type": "electric_bike", "rental_uris": {"ios": "https://dc.lft.to/lastmile_qr_scan", "android": "https://dc.lft.to/lastmile_qr_scan"}, "lat": 39.03422966666667, "name": "f16659c142291e657cf55f5408fb5b53", "lon": -77.04304116666667, "is_reserved": 0, "bike_id": "f16659c142291e657cf55f5408fb5b53"}, {"fusion_lat": 0.0, "fusion_lon": 0.0, "is_disabled": 0, "type": "electric_scooter", "rental_uris": {"ios": "https://dc.lft.to/lastmile_qr_scan", "android": "https://dc.lft.to/lastmile_qr_scan"}, "lat": 38.90735216666667, "name": "48d55e144d2407881ced91bba1c11321", "lon": -77.02804866666666, "is_reserved": 0, "bike_id": "48d55e144d2407881ced91bba1c11321"}, {"fusion_lat": 0.0, "fusion_lon": 0.0, "is_disabled": 0, "type": "electric_scooter", "rental_uris": {"ios": "https://dc.lft.to/lastmile_qr_scan", "android": "https://dc.lft.to/lastmile_qr_scan"}, "lat": 38.904527, "name": "2024c31ac1caabff2b550301f96cf063", "lon": -77.05322283333334, "is_reserved": 0, "bike_id": "2024c31ac1caabff2b550301f96cf063"}, {"fusion_lat": 0.0, "fusion_lon": 0.0, "is_disabled": 0, "type": "electric_scooter", "rental_uris": {"ios": "https://dc.lft.to/lastmile_qr_scan", "android": "https://dc.lft.to/lastmile_qr_scan"}, "lat": 38.893212166666665, "name": "17433a896fbfa98434d5f620b9a7d43f", "lon": -77.02216166666666, "is_reserved": 0, "bike_id": "17433a896fbfa98434d5f620b9a7d43f"}, {"fusion_lat": 0.0, "fusion_lon": 0.0, "is_disabled": 0, "type": "electric_scooter", "rental_uris": {"ios": "https://dc.lft.to/lastmile_qr_scan", "android": "https://dc.lft.to/lastmile_qr_scan"}, "lat": 38.92324933333333, "name": "050b88fbd05b3934dfe9beb82582de9d", "lon": -77.01960533333333, "is_reserved": 0, "bike_id": "050b88fbd05b3934dfe9beb82582de9d"}, {"fusion_lat": 0.0, "fusion_lon": 0.0, "is_disabled": 0, "type": "electric_scooter", "rental_uris": {"ios": "https://dc.lft.to/lastmile_qr_scan", "android": "https://dc.lft.to/lastmile_qr_scan"}, "lat": 38.93780016666667, "name": "38f166a438d0824979d13f7834829662", "lon": -77.07452666666667, "is_reserved": 0, "bike_id": "38f166a438d0824979d13f7834829662"}, {"fusion_lat": 0.0, "fusion_lon": 0.0, "is_disabled": 0, "type": "electric_scooter", "rental_uris": {"ios": "https://dc.lft.to/lastmile_qr_scan", "android": "https://dc.lft.to/lastmile_qr_scan"}, "lat": 38.9038905, "name": "ea534f65322acde2e27ee3de1e93bf8f", "lon": -77.045323, "is_reserved": 0, "bike_id": "ea534f65322acde2e27ee3de1e93bf8f"}, {"fusion_lat": 0.0, "fusion_lon": 0.0, "is_disabled": 0, "type": "electric_scooter", "rental_uris": {"ios": "https://dc.lft.to/lastmile_qr_scan", "android": "https://dc.lft.to/lastmile_qr_scan"}, "lat": 38.91689733333333, "name": "bd2f2b08e362d64ce4a5138d663b22e7", "lon": -77.04010533333333, "is_reserved": 0, "bike_id": "bd2f2b08e362d64ce4a5138d663b22e7"}, {"fusion_lat": 0.0, "fusion_lon": 0.0, "is_disabled": 0, "type": "electric_scooter", "rental_uris": {"ios": "https://dc.lft.to/lastmile_qr_scan", "android": "https://dc.lft.to/lastmile_qr_scan"}, "lat": 38.89631383333333, "name": "5036b2937444936aa3ee2b402ab703be", "lon": -77.02097516666667, "is_reserved": 0, "bike_id": "5036b2937444936aa3ee2b402ab703be"}, {"fusion_lat": 0.0, "fusion_lon": 0.0, "is_disabled": 0, "type": "electric_scooter", "rental_uris": {"ios": "https://dc.lft.to/lastmile_qr_scan", "android": "https://dc.lft.to/lastmile_qr_scan"}, "lat": 38.9225605, "name": "9889e071145b32407916d2798c3e312f", "lon": -77.01947233333334, "is_reserved": 0, "bike_id": "9889e071145b32407916d2798c3e312f"}, {"fusion_lat": 0.0, "fusion_lon": 0.0, "is_disabled": 0, "type": "electric_scooter", "rental_uris": {"ios": "https://dc.lft.to/lastmile_qr_scan", "android": "https://dc.lft.to/lastmile_qr_scan"}, "lat": 38.90448516666667, "name": "addf7eb64b89ebdcfb2b8d75bc0a5917", "lon": -77.05322066666666, "is_reserved": 0, "bike_id": "addf7eb64b89ebdcfb2b8d75bc0a5917"}, {"fusion_lat": 0.0, "fusion_lon": 0.0, "is_disabled": 0, "type": "electric_scooter", "rental_uris": {"ios": "https://dc.lft.to/lastmile_qr_scan", "android": "https://dc.lft.to/lastmile_qr_scan"}, "lat": 38.91514733333333, "name": "947986d7014229b5cdc78a2ac423c2dc", "lon": -77.02453066666666, "is_reserved": 0, "bike_id": "947986d7014229b5cdc78a2ac423c2dc"}, {"fusion_lat": 0.0, "fusion_lon": 0.0, "is_disabled": 0, "type": "electric_scooter", "rental_uris": {"ios": "https://dc.lft.to/lastmile_qr_scan", "android": "https://dc.lft.to/lastmile_qr_scan"}, "lat": 38.9003115, "name": "5469116ad750aa60d58b0d4ea072058b", "lon": -76.99871833333333, "is_reserved": 0, "bike_id": "5469116ad750aa60d58b0d4ea072058b"}, {"fusion_lat": 0.0, "fusion_lon": 0.0, "is_disabled": 0, "type": "electric_bike", "rental_uris": {"ios": "https://dc.lft.to/lastmile_qr_scan", "android": "https://dc.lft.to/lastmile_qr_scan"}, "lat": 38.95234933333333, "name": "a14fc6089af6df2307fccc997875b7df", "lon": -77.00704866666666, "is_reserved": 0, "bike_id": "a14fc6089af6df2307fccc997875b7df"}, {"fusion_lat": 0.0, "fusion_lon": 0.0, "is_disabled": 0, "type": "electric_scooter", "rental_uris": {"ios": "https://dc.lft.to/lastmile_qr_scan", "android": "https://dc.lft.to/lastmile_qr_scan"}, "lat": 38.902867, "name": "4e22fb69a2e6fed243d712266400fb08", "lon": -77.03666633333333, "is_reserved": 0, "bike_id": "4e22fb69a2e6fed243d712266400fb08"}, {"fusion_lat": 0.0, "fusion_lon": 0.0, "is_disabled": 0, "type": "electric_scooter", "rental_uris": {"ios": "https://dc.lft.to/lastmile_qr_scan", "android": "https://dc.lft.to/lastmile_qr_scan"}, "lat": 38.90665383333334, "name": "629e7c00dfd40c8083edfd7c0faf174d", "lon": -77.04636083333334, "is_reserved": 0, "bike_id": "629e7c00dfd40c8083edfd7c0faf174d"}, {"fusion_lat": 0.0, "fusion_lon": 0.0, "is_disabled": 0, "type": "electric_scooter", "rental_uris": {"ios": "https://dc.lft.to/lastmile_qr_scan", "android": "https://dc.lft.to/lastmile_qr_scan"}, "lat": 38.87879483333333, "name": "b5734cfebab7df3a2ea017a8efbc2d0d", "lon": -77.00057133333334, "is_reserved": 0, "bike_id": "b5734cfebab7df3a2ea017a8efbc2d0d"}, {"fusion_lat": 0.0, "fusion_lon": 0.0, "is_disabled": 0, "type": "electric_scooter", "rental_uris": {"ios": "https://dc.lft.to/lastmile_qr_scan", "android": "https://dc.lft.to/lastmile_qr_scan"}, "lat": 38.9038415, "name": "fe5ad57f3571b29e76e698e505f21db3", "lon": -77.04569883333333, "is_reserved": 0, "bike_id": "fe5ad57f3571b29e76e698e505f21db3"}, {"fusion_lat": 0.0, "fusion_lon": 0.0, "is_disabled": 0, "type": "electric_scooter", "rental_uris": {"ios": "https://dc.lft.to/lastmile_qr_scan", "android": "https://dc.lft.to/lastmile_qr_scan"}, "lat": 38.9386295, "name": "21fea3238a374fac8579791ad33fe825", "lon": -77.0262885, "is_reserved": 0, "bike_id": "21fea3238a374fac8579791ad33fe825"}, {"fusion_lat": 0.0, "fusion_lon": 0.0, "is_disabled": 0, "type": "electric_scooter", "rental_uris": {"ios": "https://dc.lft.to/lastmile_qr_scan", "android": "https://dc.lft.to/lastmile_qr_scan"}, "lat": 38.905902833333336, "name": "0d728e40be8619b1e4a18a78370ae90c", "lon": -77.00272433333333, "is_reserved": 0, "bike_id": "0d728e40be8619b1e4a18a78370ae90c"}, {"fusion_lat": 0.0, "fusion_lon": 0.0, "is_disabled": 0, "type": "electric_scooter", "rental_uris": {"ios": "https://dc.lft.to/lastmile_qr_scan", "android": "https://dc.lft.to/lastmile_qr_scan"}, "lat": 38.924780166666665, "name": "9209f7b3ff382d93a1d27d5e93f163fa", "lon": -77.02215433333333, "is_reserved": 0, "bike_id": "9209f7b3ff382d93a1d27d5e93f163fa"}, {"fusion_lat": 0.0, "fusion_lon": 0.0, "is_disabled": 0, "type": "electric_bike", "rental_uris": {"ios": "https://dc.lft.to/lastmile_qr_scan", "android": "https://dc.lft.to/lastmile_qr_scan"}, "lat": 38.80531166666667, "name": "5c78ee4c5294d1b2c6537b483534aa9d", "lon": -77.0499115, "is_reserved": 0, "bike_id": "5c78ee4c5294d1b2c6537b483534aa9d"}, {"fusion_lat": 0.0, "fusion_lon": 0.0, "is_disabled": 0, "type": "electric_scooter", "rental_uris": {"ios": "https://dc.lft.to/lastmile_qr_scan", "android": "https://dc.lft.to/lastmile_qr_scan"}, "lat": 38.9620305, "name": "a75ad5b92b93fdae8963f311c2756aa2", "lon": -77.07488883333333, "is_reserved": 0, "bike_id": "a75ad5b92b93fdae8963f311c2756aa2"}, {"fusion_lat": 0.0, "fusion_lon": 0.0, "is_disabled": 0, "type": "electric_scooter", "rental_uris": {"ios": "https://dc.lft.to/lastmile_qr_scan", "android": "https://dc.lft.to/lastmile_qr_scan"}, "lat": 38.896178166666665, "name": "2521528163497143a63f38e8292dd965", "lon": -76.98564916666666, "is_reserved": 0, "bike_id": "2521528163497143a63f38e8292dd965"}, {"fusion_lat": 0.0, "fusion_lon": 0.0, "is_disabled": 0, "type": "electric_scooter", "rental_uris": {"ios": "https://dc.lft.to/lastmile_qr_scan", "android": "https://dc.lft.to/lastmile_qr_scan"}, "lat": 38.90032516666667, "name": "c9fa22b9f49ba9919d8495621f890608", "lon": -77.00176633333334, "is_reserved": 0, "bike_id": "c9fa22b9f49ba9919d8495621f890608"}, {"fusion_lat": 0.0, "fusion_lon": 0.0, "is_disabled": 0, "type": "electric_scooter", "rental_uris": {"ios": "https://dc.lft.to/lastmile_qr_scan", "android": "https://dc.lft.to/lastmile_qr_scan"}, "lat": 38.95297166666667, "name": "dc5257260de3e2fbb083fbc69d516437", "lon": -77.0290675, "is_reserved": 0, "bike_id": "dc5257260de3e2fbb083fbc69d516437"}, {"fusion_lat": 0.0, "fusion_lon": 0.0, "is_disabled": 0, "type": "electric_scooter", "rental_uris": {"ios": "https://dc.lft.to/lastmile_qr_scan", "android": "https://dc.lft.to/lastmile_qr_scan"}, "lat": 38.89597466666667, "name": "0744338ac6f960ea390d7665a4a9dc9e", "lon": -77.073646, "is_reserved": 0, "bike_id": "0744338ac6f960ea390d7665a4a9dc9e"}, {"fusion_lat": 0.0, "fusion_lon": 0.0, "is_disabled": 0, "type": "electric_scooter", "rental_uris": {"ios": "https://dc.lft.to/lastmile_qr_scan", "android": "https://dc.lft.to/lastmile_qr_scan"}, "lat": 38.920765333333335, "name": "f4beaf611d3cd80c72b4b95744c2ceeb", "lon": -77.02520016666666, "is_reserved": 0, "bike_id": "f4beaf611d3cd80c72b4b95744c2ceeb"}, {"fusion_lat": 0.0, "fusion_lon": 0.0, "is_disabled": 0, "type": "electric_scooter", "rental_uris": {"ios": "https://dc.lft.to/lastmile_qr_scan", "android": "https://dc.lft.to/lastmile_qr_scan"}, "lat": 38.880524666666666, "name": "f983eb99ed9265a9b66e194630f231ef", "lon": -76.93210566666667, "is_reserved": 0, "bike_id": "f983eb99ed9265a9b66e194630f231ef"}, {"fusion_lat": 0.0, "fusion_lon": 0.0, "is_disabled": 0, "type": "electric_scooter", "rental_uris": {"ios": "https://dc.lft.to/lastmile_qr_scan", "android": "https://dc.lft.to/lastmile_qr_scan"}, "lat": 38.8865835, "name": "3c1940c6aced74eb02c72f1642f1896c", "lon": -77.03388133333333, "is_reserved": 0, "bike_id": "3c1940c6aced74eb02c72f1642f1896c"}, {"fusion_lat": 0.0, "fusion_lon": 0.0, "is_disabled": 0, "type": "electric_scooter", "rental_uris": {"ios": "https://dc.lft.to/lastmile_qr_scan", "android": "https://dc.lft.to/lastmile_qr_scan"}, "lat": 38.892629166666666, "name": "f68c145f1ed8f79f2cbf451792ed8f4b", "lon": -76.9836975, "is_reserved": 0, "bike_id": "f68c145f1ed8f79f2cbf451792ed8f4b"}, {"fusion_lat": 0.0, "fusion_lon": 0.0, "is_disabled": 0, "type": "electric_bike", "rental_uris": {"ios": "https://dc.lft.to/lastmile_qr_scan", "android": "https://dc.lft.to/lastmile_qr_scan"}, "lat": 38.878492666666666, "name": "dbd3d7f66b8dd7c02908c0d9ae58c29b", "lon": -77.00770533333333, "is_reserved": 0, "bike_id": "dbd3d7f66b8dd7c02908c0d9ae58c29b"}, {"fusion_lat": 0.0, "fusion_lon": 0.0, "is_disabled": 0, "type": "electric_scooter", "rental_uris": {"ios": "https://dc.lft.to/lastmile_qr_scan", "android": "https://dc.lft.to/lastmile_qr_scan"}, "lat": 38.90377766666667, "name": "e6a41eca3eae9f9849282f5ac49b0dff", "lon": -77.03627966666667, "is_reserved": 0, "bike_id": "e6a41eca3eae9f9849282f5ac49b0dff"}, {"fusion_lat": 0.0, "fusion_lon": 0.0, "is_disabled": 0, "type": "electric_scooter", "rental_uris": {"ios": "https://dc.lft.to/lastmile_qr_scan", "android": "https://dc.lft.to/lastmile_qr_scan"}, "lat": 38.89542566666667, "name": "b3d983be49c19500b672a2ef1e6365b6", "lon": -76.94964033333333, "is_reserved": 0, "bike_id": "b3d983be49c19500b672a2ef1e6365b6"}, {"fusion_lat": 0.0, "fusion_lon": 0.0, "is_disabled": 0, "type": "electric_scooter", "rental_uris": {"ios": "https://dc.lft.to/lastmile_qr_scan", "android": "https://dc.lft.to/lastmile_qr_scan"}, "lat": 38.922137, "name": "8d101cbdd674c54edea37bce7182fb2a", "lon": -77.04243733333334, "is_reserved": 0, "bike_id": "8d101cbdd674c54edea37bce7182fb2a"}, {"fusion_lat": 0.0, "fusion_lon": 0.0, "is_disabled": 0, "type": "electric_scooter", "rental_uris": {"ios": "https://dc.lft.to/lastmile_qr_scan", "android": "https://dc.lft.to/lastmile_qr_scan"}, "lat": 38.87894166666667, "name": "ac17bd57a9c36f34e9c96751bb82c166", "lon": -77.0138965, "is_reserved": 0, "bike_id": "ac17bd57a9c36f34e9c96751bb82c166"}, {"fusion_lat": 0.0, "fusion_lon": 0.0, "is_disabled": 0, "type": "electric_scooter", "rental_uris": {"ios": "https://dc.lft.to/lastmile_qr_scan", "android": "https://dc.lft.to/lastmile_qr_scan"}, "lat": 38.93736766666667, "name": "950d044a17e98b4fb582ecf82dda800f", "lon": -77.03271133333334, "is_reserved": 0, "bike_id": "950d044a17e98b4fb582ecf82dda800f"}, {"fusion_lat": 0.0, "fusion_lon": 0.0, "is_disabled": 0, "type": "electric_scooter", "rental_uris": {"ios": "https://dc.lft.to/lastmile_qr_scan", "android": "https://dc.lft.to/lastmile_qr_scan"}, "lat": 38.91976, "name": "b2f54d23c5cc8cc42391ded561036de4", "lon": -76.99257316666667, "is_reserved": 0, "bike_id": "b2f54d23c5cc8cc42391ded561036de4"}, {"fusion_lat": 0.0, "fusion_lon": 0.0, "is_disabled": 0, "type": "electric_bike", "rental_uris": {"ios": "https://dc.lft.to/lastmile_qr_scan", "android": "https://dc.lft.to/lastmile_qr_scan"}, "lat": 38.96124433333333, "name": "d9a71d027569e0a9f2e92d62f8251375", "lon": -77.0327475, "is_reserved": 0, "bike_id": "d9a71d027569e0a9f2e92d62f8251375"}, {"fusion_lat": 0.0, "fusion_lon": 0.0, "is_disabled": 0, "type": "electric_scooter", "rental_uris": {"ios": "https://dc.lft.to/lastmile_qr_scan", "android": "https://dc.lft.to/lastmile_qr_scan"}, "lat": 38.89829183333333, "name": "d00e162d24e6eab538337c7c4383b610", "lon": -77.04827066666667, "is_reserved": 0, "bike_id": "d00e162d24e6eab538337c7c4383b610"}, {"fusion_lat": 0.0, "fusion_lon": 0.0, "is_disabled": 0, "type": "electric_scooter", "rental_uris": {"ios": "https://dc.lft.to/lastmile_qr_scan", "android": "https://dc.lft.to/lastmile_qr_scan"}, "lat": 38.90996833333333, "name": "b97c1ce6737cc27b62305990bc0c9030", "lon": -77.04009216666667, "is_reserved": 0, "bike_id": "b97c1ce6737cc27b62305990bc0c9030"}, {"fusion_lat": 0.0, "fusion_lon": 0.0, "is_disabled": 0, "type": "electric_scooter", "rental_uris": {"ios": "https://dc.lft.to/lastmile_qr_scan", "android": "https://dc.lft.to/lastmile_qr_scan"}, "lat": 38.90420683333333, "name": "a78678ef83ac7ce6986795c2de099837", "lon": -77.0295615, "is_reserved": 0, "bike_id": "a78678ef83ac7ce6986795c2de099837"}, {"fusion_lat": 0.0, "fusion_lon": 0.0, "is_disabled": 0, "type": "electric_scooter", "rental_uris": {"ios": "https://dc.lft.to/lastmile_qr_scan", "android": "https://dc.lft.to/lastmile_qr_scan"}, "lat": 38.923169, "name": "03015f1aa7c250098878ceaf5ea292f0", "lon": -77.027969, "is_reserved": 0, "bike_id": "03015f1aa7c250098878ceaf5ea292f0"}, {"fusion_lat": 0.0, "fusion_lon": 0.0, "is_disabled": 0, "type": "electric_scooter", "rental_uris": {"ios": "https://dc.lft.to/lastmile_qr_scan", "android": "https://dc.lft.to/lastmile_qr_scan"}, "lat": 38.87657383333333, "name": "ba18b6946dbb2013acbe38e8ebf52118", "lon": -77.00096483333333, "is_reserved": 0, "bike_id": "ba18b6946dbb2013acbe38e8ebf52118"}, {"fusion_lat": 0.0, "fusion_lon": 0.0, "is_disabled": 0, "type": "electric_scooter", "rental_uris": {"ios": "https://dc.lft.to/lastmile_qr_scan", "android": "https://dc.lft.to/lastmile_qr_scan"}, "lat": 38.911078333333336, "name": "f3f2cd218d5c465ebcd13e1ebb6dc536", "lon": -77.02172133333333, "is_reserved": 0, "bike_id": "f3f2cd218d5c465ebcd13e1ebb6dc536"}, {"fusion_lat": 0.0, "fusion_lon": 0.0, "is_disabled": 0, "type": "electric_scooter", "rental_uris": {"ios": "https://dc.lft.to/lastmile_qr_scan", "android": "https://dc.lft.to/lastmile_qr_scan"}, "lat": 38.875724166666664, "name": "903534bc33feedd3e6210cc23db6b10e", "lon": -77.0060215, "is_reserved": 0, "bike_id": "903534bc33feedd3e6210cc23db6b10e"}, {"fusion_lat": 0.0, "fusion_lon": 0.0, "is_disabled": 0, "type": "electric_scooter", "rental_uris": {"ios": "https://dc.lft.to/lastmile_qr_scan", "android": "https://dc.lft.to/lastmile_qr_scan"}, "lat": 38.92528466666667, "name": "220429866f3d6764d93d2b5d0e617d7f", "lon": -77.02581116666667, "is_reserved": 0, "bike_id": "220429866f3d6764d93d2b5d0e617d7f"}, {"fusion_lat": 0.0, "fusion_lon": 0.0, "is_disabled": 0, "type": "electric_scooter", "rental_uris": {"ios": "https://dc.lft.to/lastmile_qr_scan", "android": "https://dc.lft.to/lastmile_qr_scan"}, "lat": 38.9515395, "name": "d51c5653c03a932a6811b1121c07d9e7", "lon": -77.018691, "is_reserved": 0, "bike_id": "d51c5653c03a932a6811b1121c07d9e7"}, {"fusion_lat": 0.0, "fusion_lon": 0.0, "is_disabled": 0, "type": "electric_scooter", "rental_uris": {"ios": "https://dc.lft.to/lastmile_qr_scan", "android": "https://dc.lft.to/lastmile_qr_scan"}, "lat": 38.9178875, "name": "a5d61e01545af12e3f4bf299aec1ce66", "lon": -77.03192033333333, "is_reserved": 0, "bike_id": "a5d61e01545af12e3f4bf299aec1ce66"},