{"data": {"bikes": [{"lat": 38.993839666666666, "lon": -76.92880683333334, "is_disabled": 0, "fusion_lon": 0.0, "is_reserved": 0, "name": "abd96d57b8e0bc4034eaf720f279cff2", "type": "electric_bike", "bike_id": "abd96d57b8e0bc4034eaf720f279cff2", "rental_uris": {"ios": "https://dc.lft.to/lastmile_qr_scan", "android": "https://dc.lft.to/lastmile_qr_scan"}, "fusion_lat": 0.0}, {"lat": 38.884591, "lon": -76.952333, "is_disabled": 0, "fusion_lon": 0.0, "is_reserved": 0, "name": "524eb75cd1ef6843dbc2d0532c214a10", "type": "electric_bike", "bike_id": "524eb75cd1ef6843dbc2d0532c214a10", "rental_uris": {"ios": "https://dc.lft.to/lastmile_qr_scan", "android": "https://dc.lft.to/lastmile_qr_scan"}, "fusion_lat": 0.0}, {"lat": 38.914886333333335, "lon": -77.03461666666666, "is_disabled": 0, "fusion_lon": 0.0, "is_reserved": 0, "name": "5bc8d1a85def45b13bde598be910a95d", "type": "electric_scooter", "bike_id": "5bc8d1a85def45b13bde598be910a95d", "rental_uris": {"ios": "https://dc.lft.to/lastmile_qr_scan", "android": "https://dc.lft.to/lastmile_qr_scan"}, "fusion_lat": 0.0}, {"lat": 38.89616816666667, "lon": -77.02130116666666, "is_disabled": 0, "fusion_lon": 0.0, "is_reserved": 0, "name": "c303fb3ff02ec998e228d1dfb0413ff1", "type": "electric_scooter", "bike_id": "c303fb3ff02ec998e228d1dfb0413ff1", "rental_uris": {"ios": "https://dc.lft.to/lastmile_qr_scan", "android": "https://dc.lft.to/lastmile_qr_scan"}, "fusion_lat": 0.0}, {"lat": 38.89833766666667, "lon": -76.99061983333333, "is_disabled": 0, "fusion_lon": 0.0, "is_reserved": 0, "name": "692d0401d2e77a2fde369e531075806d", "type": "electric_bike", "bike_id": "692d0401d2e77a2fde369e531075806d", "rental_uris": {"ios": "https://dc.lft.to/lastmile_qr_scan", "android": "https://dc.lft.to/lastmile_qr_scan"}, "fusion_lat": 0.0}, {"lat": 38.931962, "lon": -77.028268, "is_disabled": 0, "fusion_lon": 0.0, "is_reserved": 0, "name": "9d567bf904476f109a6faf18ffaa058d", "type": "electric_scooter", "bike_id": "9d567bf904476f109a6faf18ffaa058d", "rental_uris": {"ios": "https://dc.lft.to/lastmile_qr_scan", "android": "https://dc.lft.to/lastmile_qr_scan"}, "fusion_lat": 0.0}, {"lat": 38.914140333333336, "lon": -77.02182033333334, "is_disabled": 0, "fusion_lon": 0.0, "is_reserved": 0, "name": "8c4dbeffd9e527e1d416d536ed25dcef", "type": "electric_scooter", "bike_id": "8c4dbeffd9e527e1d416d536ed25dcef", "rental_uris": {"ios": "https://dc.lft.to/lastmile_qr_scan", "android": "https://dc.lft.to/lastmile_qr_scan"}, "fusion_lat": 0.0}, {"lat": 38.916934833333336, "lon": -77.03760316666667, "is_disabled": 0, "fusion_lon": 0.0, "is_reserved": 0, "name": "bc6ab8bb1983e2eb43440a7eb0e7ac81", "type": "electric_bike", "bike_id": "bc6ab8bb1983e2eb43440a7eb0e7ac81", "rental_uris": {"ios": "https://dc.lft.to/lastmile_qr_scan", "android": "https://dc.lft.to/lastmile_qr_scan"}, "fusion_lat": 0.0}, {"lat": 38.919827, "lon": -77.04175066666667, "is_disabled": 0, "fusion_lon": 0.0, "is_reserved": 0, "name": "17c150c79b25a7d7380651a9797c7cbf", "type": "electric_scooter", "bike_id": "17c150c79b25a7d7380651a9797c7cbf", "rental_uris": {"ios": "https://dc.lft.to/lastmile_qr_scan", "android": "https://dc.lft.to/lastmile_qr_scan"}, "fusion_lat": 0.0}, {"lat": 38.91889483333333, "lon": -77.02953883333333, "is_disabled": 0, "fusion_lon": 0.0, "is_reserved": 0, "name": "2b05e6868c0620b2bca829c9f4ba0b7c", "type": "electric_scooter", "bike_id": "2b05e6868c0620b2bca829c9f4ba0b7c", "rental_uris": {"ios": "https://dc.lft.to/lastmile_qr_scan", "android": "https://dc.lft.to/lastmile_qr_scan"}, "fusion_lat": 0.0}, {"lat": 38.9323975, "lon": -77.032755, "is_disabled": 0, "fusion_lon": 0.0, "is_reserved": 0, "name": "705a5995427bc0b27abea0af1f9c050c", "type": "electric_scooter", "bike_id": "705a5995427bc0b27abea0af1f9c050c", "rental_uris": {"ios": "https://dc.lft.to/lastmile_qr_scan", "android": "https://dc.lft.to/lastmile_qr_scan"}, "fusion_lat": 0.0}, {"lat": 38.9309855, "lon": -77.02656533333334, "is_disabled": 0, "fusion_lon": 0.0, "is_reserved": 0, "name": "a5693d7b03fb55e86ef5c5aba1cf3775", "type": "electric_scooter", "bike_id": "a5693d7b03fb55e86ef5c5aba1cf3775", "rental_uris": {"ios": "https://dc.lft.to/lastmile_qr_scan", "android": "https://dc.lft.to/lastmile_qr_scan"}, "fusion_lat": 0.0}, {"lat": 38.916904333333335, "lon": -77.02631016666666, "is_disabled": 0, "fusion_lon": 0.0, "is_reserved": 0, "name": "4cb90ff7604831c1c321b60a6226567f", "type": "electric_scooter", "bike_id": "4cb90ff7604831c1c321b60a6226567f", "rental_uris": {"ios": "https://dc.lft.to/lastmile_qr_scan", "android": "https://dc.lft.to/lastmile_qr_scan"}, "fusion_lat": 0.0}, {"lat": 38.949162666666666, "lon": -77.00799133333334, "is_disabled": 0, "fusion_lon": 0.0, "is_reserved": 0, "name": "f5d1979a32a8a8bbc7cd404b7ce4f031", "type": "electric_bike", "bike_id": "f5d1979a32a8a8bbc7cd404b7ce4f031", "rental_uris": {"ios": "https://dc.lft.to/lastmile_qr_scan", "android": "https://dc.lft.to/lastmile_qr_scan"}, "fusion_lat": 0.0}, {"lat": 38.86331833333333, "lon": -76.98724383333334, "is_disabled": 0, "fusion_lon": 0.0, "is_reserved": 0, "name": "1c084ce8faa95ab818d648966fb1306a", "type": "electric_bike", "bike_id": "1c084ce8faa95ab818d648966fb1306a", "rental_uris": {"ios": "https://dc.lft.to/lastmile_qr_scan", "android": "https://dc.lft.to/lastmile_qr_scan"}, "fusion_lat": 0.0}, {"lat": 38.91556283333333, "lon": -77.02367733333334, "is_disabled": 0, "fusion_lon": 0.0, "is_reserved": 0, "name": "b2596a4598818649c682a4e4b017b7e0", "type": "electric_scooter", "bike_id": "b2596a4598818649c682a4e4b017b7e0", "rental_uris": {"ios": "https://dc.lft.to/lastmile_qr_scan", "android": "https://dc.lft.to/lastmile_qr_scan"}, "fusion_lat": 0.0}, {"lat": 38.98783933333333, "lon": -77.14098616666666, "is_disabled": 0, "fusion_lon": 0.0, "is_reserved": 0, "name": "b362b7ec89f4c1bf0025405458f09d7f", "type": "electric_bike", "bike_id": "b362b7ec89f4c1bf0025405458f09d7f", "rental_uris": {"ios": "https://dc.lft.to/lastmile_qr_scan", "android": "https://dc.lft.to/lastmile_qr_scan"}, "fusion_lat": 0.0}, {"lat": 38.9046705, "lon": -77.0660605, "is_disabled": 0, "fusion_lon": 0.0, "is_reserved": 0, "name": "ce23a53b08b926d5c6a497e648f6c249", "type": "electric_scooter", "bike_id": "ce23a53b08b926d5c6a497e648f6c249", "rental_uris": {"ios": "https://dc.lft.to/lastmile_qr_scan", "android": "https://dc.lft.to/lastmile_qr_scan"}, "fusion_lat": 0.0}, {"lat": 38.873696333333335, "lon": -77.0013305, "is_disabled": 0, "fusion_lon": 0.0, "is_reserved": 0, "name": "2aeeb4a4d32e915f1ad48ddce1762903", "type": "electric_scooter", "bike_id": "2aeeb4a4d32e915f1ad48ddce1762903", "rental_uris": {"ios": "https://dc.lft.to/lastmile_qr_scan", "android": "https://dc.lft.to/lastmile_qr_scan"}, "fusion_lat": 0.0}, {"lat": 38.9148035, "lon": -77.03761266666666, "is_disabled": 0, "fusion_lon": 0.0, "is_reserved": 0, "name": "2e602ea029199ebc9d4b6b668d66cef6", "type": "electric_scooter", "bike_id": "2e602ea029199ebc9d4b6b668d66cef6", "rental_uris": {"ios": "https://dc.lft.to/lastmile_qr_scan", "android": "https://dc.lft.to/lastmile_qr_scan"}, "fusion_lat": 0.0}, {"lat": 38.9275705, "lon": -77.03280633333334, "is_disabled": 0, "fusion_lon": 0.0, "is_reserved": 0, "name": "2cf5f49abd301d6da4ced2022a2899ef", "type": "electric_scooter", "bike_id": "2cf5f49abd301d6da4ced2022a2899ef", "rental_uris": {"ios": "https://dc.lft.to/lastmile_qr_scan", "android": "https://dc.lft.to/lastmile_qr_scan"}, "fusion_lat": 0.0}, {"lat": 38.884823, "lon": -77.01591066666667, "is_disabled": 0, "fusion_lon": 0.0, "is_reserved": 0, "name": "6480d965758ddde4b738d2972087d18b", "type": "electric_scooter", "bike_id": "6480d965758ddde4b738d2972087d18b", "rental_uris": {"ios": "https://dc.lft.to/lastmile_qr_scan", "android": "https://dc.lft.to/lastmile_qr_scan"}, "fusion_lat": 0.0}, {"lat": 38.89817216666667, "lon": -77.01545783333333, "is_disabled": 0, "fusion_lon": 0.0, "is_reserved": 0, "name": "92906484f9127f92d2b24f27f0e420dc", "type": "electric_scooter", "bike_id": "92906484f9127f92d2b24f27f0e420dc", "rental_uris": {"ios": "https://dc.lft.to/lastmile_qr_scan", "android": "https://dc.lft.to/lastmile_qr_scan"}, "fusion_lat": 0.0}, {"lat": 38.915863333333334, "lon": -77.04655433333333, "is_disabled": 0, "fusion_lon": 0.0, "is_reserved": 0, "name": "2e6d0192678c62091c3566fe7ec07746", "type": "electric_scooter", "bike_id": "2e6d0192678c62091c3566fe7ec07746", "rental_uris": {"ios": "https://dc.lft.to/lastmile_qr_scan", "android": "https://dc.lft.to/lastmile_qr_scan"}, "fusion_lat": 0.0}, {"lat": 38.89543483333333, "lon": -76.983414, "is_disabled": 0, "fusion_lon": 0.0, "is_reserved": 0, "name": "9a8a54e966deab7d1946fa0cfa116d6b", "type": "electric_scooter", "bike_id": "9a8a54e966deab7d1946fa0cfa116d6b", "rental_uris": {"ios": "https://dc.lft.to/lastmile_qr_scan", "android": "https://dc.lft.to/lastmile_qr_scan"}, "fusion_lat": 0.0}, {"lat": 38.8387045, "lon": -76.99705816666666, "is_disabled": 0, "fusion_lon": 0.0, "is_reserved": 0, "name": "1c97995f16d5ce5d2d5b4541b3d4a93e", "type": "electric_bike", "bike_id": "1c97995f16d5ce5d2d5b4541b3d4a93e", "rental_uris": {"ios": "https://dc.lft.to/lastmile_qr_scan", "android": "https://dc.lft.to/lastmile_qr_scan"}, "fusion_lat": 0.0}, {"lat": 38.919164333333335, "lon": -77.0238005, "is_disabled": 0, "fusion_lon": 0.0, "is_reserved": 0, "name": "538cce3f2ab1925833fa8e5c9d5a911a", "type": "electric_scooter", "bike_id": "538cce3f2ab1925833fa8e5c9d5a911a", "rental_uris": {"ios": "https://dc.lft.to/lastmile_qr_scan", "android": "https://dc.lft.to/lastmile_qr_scan"}, "fusion_lat": 0.0}, {"lat": 38.88079966666667, "lon": -76.98533916666666, "is_disabled": 0, "fusion_lon": 0.0, "is_reserved": 0, "name": "4465ea784da18a8f04b7d7080eef041c", "type": "electric_bike", "bike_id": "4465ea784da18a8f04b7d7080eef041c", "rental_uris": {"ios": "https://dc.lft.to/lastmile_qr_scan", "android": "https://dc.lft.to/lastmile_qr_scan"}, "fusion_lat": 0.0}, {"lat": 38.911675833333334, "lon": -77.01310616666666, "is_disabled": 0, "fusion_lon": 0.0, "is_reserved": 0, "name": "cd7d69b674540a28715d8daeeb977843", "type": "electric_scooter", "bike_id": "cd7d69b674540a28715d8daeeb977843", "rental_uris": {"ios": "https://dc.lft.to/lastmile_qr_scan", "android": "https://dc.lft.to/lastmile_qr_scan"}, "fusion_lat": 0.0}, {"lat": 38.9236865, "lon": -77.02064566666667, "is_disabled": 0, "fusion_lon": 0.0, "is_reserved": 0, "name": "8caed1432d9423107ea595ca409306d1", "type": "electric_scooter", "bike_id": "8caed1432d9423107ea595ca409306d1", "rental_uris": {"ios": "https://dc.lft.to/lastmile_qr_scan", "android": "https://dc.lft.to/lastmile_qr_scan"}, "fusion_lat": 0.0}, {"lat": 38.92298666666667, "lon": -77.04275133333333, "is_disabled": 0, "fusion_lon": 0.0, "is_reserved": 0, "name": "3fb0d731baeb0ce7804872583f1d2683", "type": "electric_scooter", "bike_id": "3fb0d731baeb0ce7804872583f1d2683", "rental_uris": {"ios": "https://dc.lft.to/lastmile_qr_scan", "android": "https://dc.lft.to/lastmile_qr_scan"}, "fusion_lat": 0.0}, {"lat": 38.90151183333333, "lon": -76.93070383333334, "is_disabled": 0, "fusion_lon": 0.0, "is_reserved": 0, "name": "b89ceb11a614ba5e7b13e8a48dfb45b6", "type": "electric_scooter", "bike_id": "b89ceb11a614ba5e7b13e8a48dfb45b6", "rental_uris": {"ios": "https://dc.lft.to/lastmile_qr_scan", "android": "https://dc.lft.to/lastmile_qr_scan"}, "fusion_lat": 0.0}, {"lat": 38.9108915, "lon": -77.04484466666666, "is_disabled": 0, "fusion_lon": 0.0, "is_reserved": 0, "name": "58dd1f51e9285065df0f1a0a15a304ab", "type": "electric_scooter", "bike_id": "58dd1f51e9285065df0f1a0a15a304ab", "rental_uris": {"ios": "https://dc.lft.to/lastmile_qr_scan", "android": "https://dc.lft.to/lastmile_qr_scan"}, "fusion_lat": 0.0}, {"lat": 38.92424166666667, "lon": -77.05188816666667, "is_disabled": 0, "fusion_lon": 0.0, "is_reserved": 0, "name": "90754ce539cbca60936fa20d0b309392", "type": "electric_scooter", "bike_id": "90754ce539cbca60936fa20d0b309392", "rental_uris": {"ios": "https://dc.lft.to/lastmile_qr_scan", "android": "https://dc.lft.to/lastmile_qr_scan"}, "fusion_lat": 0.0}, {"lat": 38.902004, "lon": -77.02376783333334, "is_disabled": 0, "fusion_lon": 0.0, "is_reserved": 0, "name": "1e0a37b41e4c2953c6f58239dda46668", "type": "electric_scooter", "bike_id": "1e0a37b41e4c2953c6f58239dda46668", "rental_uris": {"ios": "https://dc.lft.to/lastmile_qr_scan", "android": "https://dc.lft.to/lastmile_qr_scan"}, "fusion_lat": 0.0}, {"lat": 38.950562833333336, "lon": -77.08025566666667, "is_disabled": 0, "fusion_lon": 0.0, "is_reserved": 0, "name": "cad8c1c13792472c248f6a051fab4b51", "type": "electric_scooter", "bike_id": "cad8c1c13792472c248f6a051fab4b51", "rental_uris": {"ios": "https://dc.lft.to/lastmile_qr_scan", "android": "https://dc.lft.to/lastmile_qr_scan"}, "fusion_lat": 0.0}, {"lat": 38.934842833333335, "lon": -77.036062, "is_disabled": 0, "fusion_lon": 0.0, "is_reserved": 0, "name": "e5c174cfa6a4b73205c69ff7345db809", "type": "electric_scooter", "bike_id": "e5c174cfa6a4b73205c69ff7345db809", "rental_uris": {"ios": "https://dc.lft.to/lastmile_qr_scan", "android": "https://dc.lft.to/lastmile_qr_scan"}, "fusion_lat": 0.0}, {"lat": 38.87556583333333, "lon": -77.00605116666667, "is_disabled": 0, "fusion_lon": 0.0, "is_reserved": 0, "name": "2f9a947422222c00965fb4c9d6517a0e", "type": "electric_scooter", "bike_id": "2f9a947422222c00965fb4c9d6517a0e", "rental_uris": {"ios": "https://dc.lft.to/lastmile_qr_scan", "android": "https://dc.lft.to/lastmile_qr_scan"}, "fusion_lat": 0.0}, {"lat": 38.9203455, "lon": -77.0258725, "is_disabled": 0, "fusion_lon": 0.0, "is_reserved": 0, "name": "5d7c59821621ae2b9b049c35dce752e9", "type": "electric_scooter", "bike_id": "5d7c59821621ae2b9b049c35dce752e9", "rental_uris": {"ios": "https://dc.lft.to/lastmile_qr_scan", "android": "https://dc.lft.to/lastmile_qr_scan"}, "fusion_lat": 0.0}, {"lat": 38.90037133333333, "lon": -77.024146, "is_disabled": 0, "fusion_lon": 0.0, "is_reserved": 0, "name": "05c317fa0d9c4fba67e701a0971d1485", "type": "electric_scooter", "bike_id": "05c317fa0d9c4fba67e701a0971d1485", "rental_uris": {"ios": "https://dc.lft.to/lastmile_qr_scan", "android": "https://dc.lft.to/lastmile_qr_scan"}, "fusion_lat": 0.0}, {"lat": 38.930333166666664, "lon": -77.02335983333333, "is_disabled": 0, "fusion_lon": 0.0, "is_reserved": 0, "name": "7a1ba9efe0e31c4f7b382a899cc276a8", "type": "electric_scooter", "bike_id": "7a1ba9efe0e31c4f7b382a899cc276a8", "rental_uris": {"ios": "https://dc.lft.to/lastmile_qr_scan", "android": "https://dc.lft.to/lastmile_qr_scan"}, "fusion_lat": 0.0}, {"lat": 38.926907666666665, "lon": -77.02079983333333, "is_disabled": 0, "fusion_lon": 0.0, "is_reserved": 0, "name": "9e0ed3cb39b2183a0117e16b52a791d8", "type": "electric_scooter", "bike_id": "9e0ed3cb39b2183a0117e16b52a791d8", "rental_uris": {"ios": "https://dc.lft.to/lastmile_qr_scan", "android": "https://dc.lft.to/lastmile_qr_scan"}, "fusion_lat": 0.0}, {"lat": 38.907206, "lon": -77.03473866666667, "is_disabled": 0, "fusion_lon": 0.0, "is_reserved": 0, "name": "f4cb9ba47a074f33e2ce9451aa8ff703", "type": "electric_scooter", "bike_id": "f4cb9ba47a074f33e2ce9451aa8ff703", "rental_uris": {"ios": "https://dc.lft.to/lastmile_qr_scan", "android": "https://dc.lft.to/lastmile_qr_scan"}, "fusion_lat": 0.0}, {"lat": 38.909979, "lon": -77.03210983333334, "is_disabled": 0, "fusion_lon": 0.0, "is_reserved": 0, "name": "4c09725efd810b6fd8eccd474fb40b7f", "type": "electric_scooter", "bike_id": "4c09725efd810b6fd8eccd474fb40b7f", "rental_uris": {"ios": "https://dc.lft.to/lastmile_qr_scan", "android": "https://dc.lft.to/lastmile_qr_scan"}, "fusion_lat": 0.0}, {"lat": 38.8843295, "lon": -77.02584366666666, "is_disabled": 0, "fusion_lon": 0.0, "is_reserved": 0, "name": "86d10589b3c7293c24180e147720f559", "type": "electric_scooter", "bike_id": "86d10589b3c7293c24180e147720f559", "rental_uris": {"ios": "https://dc.lft.to/lastmile_qr_scan", "android": "https://dc.lft.to/lastmile_qr_scan"}, "fusion_lat": 0.0}, {"lat": 38.964411166666665, "lon": -77.02241583333333, "is_disabled": 0, "fusion_lon": 0.0, "is_reserved": 0, "name": "1d83f8b69b7010bca9aec6070f9a30ee", "type": "electric_bike", "bike_id": "1d83f8b69b7010bca9aec6070f9a30ee", "rental_uris": {"ios": "https://dc.lft.to/lastmile_qr_scan", "android": "https://dc.lft.to/lastmile_qr_scan"}, "fusion_lat": 0.0}, {"lat": 38.910291666666666, "lon": -77.0383325, "is_disabled": 0, "fusion_lon": 0.0, "is_reserved": 0, "name": "627a75bb2ef9ffb19a8bc8b7cf91c063", "type": "electric_scooter", "bike_id": "627a75bb2ef9ffb19a8bc8b7cf91c063", "rental_uris": {"ios": "https://dc.lft.to/lastmile_qr_scan", "android": "https://dc.lft.to/lastmile_qr_scan"}, "fusion_lat": 0.0}, {"lat": 38.92532283333333, "lon": -77.03375716666666, "is_disabled": 0, "fusion_lon": 0.0, "is_reserved": 0, "name": "923ebf4c6ef8b58f77bcf92d9541a385", "type": "electric_scooter", "bike_id": "923ebf4c6ef8b58f77bcf92d9541a385", "rental_uris": {"ios": "https://dc.lft.to/lastmile_qr_scan", "android": "https://dc.lft.to/lastmile_qr_scan"}, "fusion_lat": 0.0}, {"lat": 38.908605333333334, "lon": -77.01350533333333, "is_disabled": 0, "fusion_lon": 0.0, "is_reserved": 0, "name": "c484d15e71760ced42449bc4f828d50e", "type": "electric_scooter", "bike_id": "c484d15e71760ced42449bc4f828d50e", "rental_uris": {"ios": "https://dc.lft.to/lastmile_qr_scan", "android": "https://dc.lft.to/lastmile_qr_scan"}, "fusion_lat": 0.0}, {"lat": 38.923330166666666, "lon": -77.04624016666666, "is_disabled": 0, "fusion_lon": 0.0, "is_reserved": 0, "name": "74be66e87af4ed0b8c6f97493ac3df86", "type": "electric_scooter", "bike_id": "74be66e87af4ed0b8c6f97493ac3df86", "rental_uris": {"ios": "https://dc.lft.to/lastmile_qr_scan", "android": "https://dc.lft.to/lastmile_qr_scan"}, "fusion_lat": 0.0}, {"lat": 38.90358883333333, "lon": -77.01608283333333, "is_disabled": 0, "fusion_lon": 0.0, "is_reserved": 0, "name": "093c2a2597ba9676f7f3e7cbf087331a", "type": "electric_scooter", "bike_id": "093c2a2597ba9676f7f3e7cbf087331a", "rental_uris": {"ios": "https://dc.lft.to/lastmile_qr_scan", "android": "https://dc.lft.to/lastmile_qr_scan"}, "fusion_lat": 0.0}, {"lat": 38.90017316666667, "lon": -76.99875383333334, "is_disabled": 0, "fusion_lon": 0.0, "is_reserved": 0, "name": "70f1900e823ababbd1b0163d38830f28", "type": "electric_scooter", "bike_id": "70f1900e823ababbd1b0163d38830f28", "rental_uris": {"ios": "https://dc.lft.to/lastmile_qr_scan", "android": "https://dc.lft.to/lastmile_qr_scan"}, "fusion_lat": 0.0}, {"lat": 38.9207155, "lon": -77.02074533333334, "is_disabled": 0, "fusion_lon": 0.0, "is_reserved": 0, "name": "1707eb2821c90de325ecd76e021e6017", "type": "electric_scooter", "bike_id": "1707eb2821c90de325ecd76e021e6017", "rental_uris": {"ios": "https://dc.lft.to/lastmile_qr_scan", "android": "https://dc.lft.to/lastmile_qr_scan"}, "fusion_lat": 0.0}, {"lat": 38.868203, "lon": -77.009792, "is_disabled": 0, "fusion_lon": 0.0, "is_reserved": 0, "name": "4d60f98cab93d2409210acb1dfc1a331", "type": "electric_scooter", "bike_id": "4d60f98cab93d2409210acb1dfc1a331", "rental_uris": {"ios": "https://dc.lft.to/lastmile_qr_scan", "android": "https://dc.lft.to/lastmile_qr_scan"}, "fusion_lat": 0.0}, {"lat": 38.92964216666667, "lon": -77.225746, "is_disabled": 0, "fusion_lon": 0.0, "is_reserved": 0, "name": "ff8b17fae08da3b4feddbc001896ae17", "type": "electric_bike", "bike_id": "ff8b17fae08da3b4feddbc001896ae17", "rental_uris": {"ios": "https://dc.lft.to/lastmile_qr_scan", "android": "https://dc.lft.to/lastmile_qr_scan"}, "fusion_lat": 0.0}, {"lat": 38.924189166666665, "lon": -77.06529366666666, "is_disabled": 0, "fusion_lon": 0.0, "is_reserved": 0, "name": "f6fadbf966c5c7acdc46b87177c5e903", "type": "electric_scooter", "bike_id": "f6fadbf966c5c7acdc46b87177c5e903", "rental_uris": {"ios": "https://dc.lft.to/lastmile_qr_scan", "android": "https://dc.lft.to/lastmile_qr_scan"}, "fusion_lat": 0.0}, {"lat": 38.916899666666666, "lon": -77.032133, "is_disabled": 0, "fusion_lon": 0.0, "is_reserved": 0, "name": "4b4e0419de9f794bcb26c34718b217e1", "type": "electric_scooter", "bike_id": "4b4e0419de9f794bcb26c34718b217e1", "rental_uris": {"ios": "https://dc.lft.to/lastmile_qr_scan", "android": "https://dc.lft.to/lastmile_qr_scan"}, "fusion_lat": 0.0}, {"lat": 38.90105916666667, "lon": -77.027225, "is_disabled": 0, "fusion_lon": 0.0, "is_reserved": 0, "name": "c26b82bd09cedf7f3e8a41bb051c2bb1", "type": "electric_scooter", "bike_id": "c26b82bd09cedf7f3e8a41bb051c2bb1", "rental_uris": {"ios": "https://dc.lft.to/lastmile_qr_scan", "android": "https://dc.lft.to/lastmile_qr_scan"}, "fusion_lat": 0.0}, {"lat": 38.873956166666666, "lon": -77.014538, "is_disabled": 0, "fusion_lon": 0.0, "is_reserved": 0, "name": "084a8ea1da7a1e8d5f0cbfa175985f49", "type": "electric_scooter", "bike_id": "084a8ea1da7a1e8d5f0cbfa175985f49", "rental_uris": {"ios": "https://dc.lft.to/lastmile_qr_scan", "android": "https://dc.lft.to/lastmile_qr_scan"}, "fusion_lat": 0.0}, {"lat": 38.9039425, "lon": -77.05144883333334, "is_disabled": 0, "fusion_lon": 0.0, "is_reserved": 0, "name": "3826866eee227c9ac2554167aae57d3a", "type": "electric_scooter", "bike_id": "3826866eee227c9ac2554167aae57d3a", "rental_uris": {"ios": "https://dc.lft.to/lastmile_qr_scan", "android": "https://dc.lft.to/lastmile_qr_scan"}, "fusion_lat": 0.0}, {"lat": 38.9104995, "lon": -77.02202866666667, "is_disabled": 0, "fusion_lon": 0.0, "is_reserved": 0, "name": "24ec92cc1c28db2dc1ebc428bb3b1434", "type": "electric_scooter", "bike_id": "24ec92cc1c28db2dc1ebc428bb3b1434", "rental_uris": {"ios": "https://dc.lft.to/lastmile_qr_scan", "android": "https://dc.lft.to/lastmile_qr_scan"}, "fusion_lat": 0.0}, {"lat": 38.92614316666667, "lon": -77.03233733333333, "is_disabled": 0, "fusion_lon": 0.0, "is_reserved": 0, "name": "3efe8d6ffed42362fbe594aa2e39c8b3", "type": "electric_scooter", "bike_id": "3efe8d6ffed42362fbe594aa2e39c8b3", "rental_uris": {"ios": "https://dc.lft.to/lastmile_qr_scan", "android": "https://dc.lft.to/lastmile_qr_scan"}, "fusion_lat": 0.0}, {"lat": 38.91822166666667, "lon": -77.0242125, "is_disabled": 0, "fusion_lon": 0.0, "is_reserved": 0, "name": "c657c2a1af79ce73e9faca6089466f6d", "type": "electric_scooter", "bike_id": "c657c2a1af79ce73e9faca6089466f6d", "rental_uris": {"ios": "https://dc.lft.to/lastmile_qr_scan", "android": "https://dc.lft.to/lastmile_qr_scan"}, "fusion_lat": 0.0}, {"lat": 38.91204883333333, "lon": -77.0118115, "is_disabled": 0, "fusion_lon": 0.0, "is_reserved": 0, "name": "c11f7864215396abad72a96ceb4b104f", "type": "electric_scooter", "bike_id": "c11f7864215396abad72a96ceb4b104f", "rental_uris": {"ios": "https://dc.lft.to/lastmile_qr_scan", "android": "https://dc.lft.to/lastmile_qr_scan"}, "fusion_lat": 0.0}, {"lat": 38.908249, "lon": -77.033904, "is_disabled": 0, "fusion_lon": 0.0, "is_reserved": 0, "name": "aea2843319d5101f2e23154ab11f231f", "type": "electric_scooter", "bike_id": "aea2843319d5101f2e23154ab11f231f", "rental_uris": {"ios": "https://dc.lft.to/lastmile_qr_scan", "android": "https://dc.lft.to/lastmile_qr_scan"}, "fusion_lat": 0.0}, {"lat": 38.91123416666667, "lon": -77.02198333333334, "is_disabled": 0, "fusion_lon": 0.0, "is_reserved": 0, "name": "0f58d7d772cffca6002529539de8bd37", "type": "electric_scooter", "bike_id": "0f58d7d772cffca6002529539de8bd37", "rental_uris": {"ios": "https://dc.lft.to/lastmile_qr_scan", "android": "https://dc.lft.to/lastmile_qr_scan"}, "fusion_lat": 0.0}, {"lat": 38.908560333333334, "lon": -77.0224135, "is_disabled": 0, "fusion_lon": 0.0, "is_reserved": 0, "name": "d2a6ba14106b706b4c2278736f9336d4", "type": "electric_scooter", "bike_id": "d2a6ba14106b706b4c2278736f9336d4", "rental_uris": {"ios": "https://dc.lft.to/lastmile_qr_scan", "android": "https://dc.lft.to/lastmile_qr_scan"}, "fusion_lat": 0.0}, {"lat": 38.89969033333333, "lon": -77.016391, "is_disabled": 0, "fusion_lon": 0.0, "is_reserved": 0, "name": "d1f91c5fd4edc50366d6c717fbf35979", "type": "electric_scooter", "bike_id": "d1f91c5fd4edc50366d6c717fbf35979", "rental_uris": {"ios": "https://dc.lft.to/lastmile_qr_scan", "android": "https://dc.lft.to/lastmile_qr_scan"}, "fusion_lat": 0.0}, {"lat": 38.90104783333334, "lon": -76.93050983333333, "is_disabled": 0, "fusion_lon": 0.0, "is_reserved": 0, "name": "c96d6eeeb243cb02a0302cb35bed2d7d", "type": "electric_scooter", "bike_id": "c96d6eeeb243cb02a0302cb35bed2d7d", "rental_uris": {"ios": "https://dc.lft.to/lastmile_qr_scan", "android": "https://dc.lft.to/lastmile_qr_scan"}, "fusion_lat": 0.0}, {"lat": 38.91686, "lon": -77.03185666666667, "is_disabled": 0, "fusion_lon": 0.0, "is_reserved": 0, "name": "dc209f653ac24e91ad34660c64faa6dd", "type": "electric_scooter", "bike_id": "dc209f653ac24e91ad34660c64faa6dd", "rental_uris": {"ios": "https://dc.lft.to/lastmile_qr_scan", "android": "https://dc.lft.to/lastmile_qr_scan"}, "fusion_lat": 0.0}, {"lat": 38.8601285, "lon": -76.96705333333334, "is_disabled": 0, "fusion_lon": 0.0, "is_reserved": 0, "name": "85e99ad1ae7e8488f7a7356fc942533f", "type": "electric_scooter", "bike_id": "85e99ad1ae7e8488f7a7356fc942533f", "rental_uris": {"ios": "https://dc.lft.to/lastmile_qr_scan", "android": "https://dc.lft.to/lastmile_qr_scan"}, "fusion_lat": 0.0}, {"lat": 38.92723383333333, "lon": -77.0227745, "is_disabled": 0, "fusion_lon": 0.0, "is_reserved": 0, "name": "2105c578a55a0b7f506c798e71b28766", "type": "electric_scooter", "bike_id": "2105c578a55a0b7f506c798e71b28766", "rental_uris": {"ios": "https://dc.lft.to/lastmile_qr_scan", "android": "https://dc.lft.to/lastmile_qr_scan"}, "fusion_lat": 0.0}, {"lat": 38.91451466666667, "lon": -77.0366065, "is_disabled": 0, "fusion_lon": 0.0, "is_reserved": 0, "name": "917e15c1a0b92b6a67031894a6b056ed", "type": "electric_scooter", "bike_id": "917e15c1a0b92b6a67031894a6b056ed", "rental_uris": {"ios": "https://dc.lft.to/lastmile_qr_scan", "android": "https://dc.lft.to/lastmile_qr_scan"}, "fusion_lat": 0.0}, {"lat": 38.90426033333333, "lon": -77.0532435, "is_disabled": 0, "fusion_lon": 0.0, "is_reserved": 0, "name": "216ba65f6b178f9f24a05b45c7cafd85", "type": "electric_scooter", "bike_id": "216ba65f6b178f9f24a05b45c7cafd85", "rental_uris": {"ios": "https://dc.lft.to/lastmile_qr_scan", "android": "https://dc.lft.to/lastmile_qr_scan"}, "fusion_lat": 0.0}, {"lat": 38.965595, "lon": -77.0281605, "is_disabled": 0, "fusion_lon": 0.0, "is_reserved": 0, "name": "b301d5b99c857aec8843778e418dc84e", "type": "electric_bike", "bike_id": "b301d5b99c857aec8843778e418dc84e", "rental_uris": {"ios": "https://dc.lft.to/lastmile_qr_scan", "android": "https://dc.lft.to/lastmile_qr_scan"}, "fusion_lat": 0.0}, {"lat": 38.915485, "lon": -77.03182683333333, "is_disabled": 0, "fusion_lon": 0.0, "is_reserved": 0, "name": "f7c1c928311f195e9a6d0f45b8469fdc", "type": "electric_scooter", "bike_id": "f7c1c928311f195e9a6d0f45b8469fdc", "rental_uris": {"ios": "https://dc.lft.to/lastmile_qr_scan", "android": "https://dc.lft.to/lastmile_qr_scan"}, "fusion_lat": 0.0}, {"lat": 38.974956166666665, "lon": -77.01666533333334, "is_disabled": 0, "fusion_lon": 0.0, "is_reserved": 0, "name": "112a87dc44f7b108eaae4795285ff210", "type": "electric_scooter", "bike_id": "112a87dc44f7b108eaae4795285ff210", "rental_uris": {"ios": "https://dc.lft.to/lastmile_qr_scan", "android": "https://dc.lft.to/lastmile_qr_scan"}, "fusion_lat": 0.0}, {"lat": 38.9449585, "lon": -77.03633583333334, "is_disabled": 0, "fusion_lon": 0.0, "is_reserved": 0, "name": "60699692918642853a971174c64bb2fd", "type": "electric_scooter", "bike_id": "60699692918642853a971174c64bb2fd", "rental_uris": {"ios": "https://dc.lft.to/lastmile_qr_scan", "android": "https://dc.lft.to/lastmile_qr_scan"}, "fusion_lat": 0.0}, {"lat": 38.9167205, "lon": -77.022873, "is_disabled": 0, "fusion_lon": 0.0, "is_reserved": 0, "name": "37eeb37b3041323726b9fc3b38ee8cd0", "type": "electric_scooter", "bike_id": "37eeb37b3041323726b9fc3b38ee8cd0", "rental_uris": {"ios": "https://dc.lft.to/lastmile_qr_scan", "android": "https://dc.lft.to/lastmile_qr_scan"}, "fusion_lat": 0.0}, {"lat": 38.94182833333333, "lon": -77.02490083333333, "is_disabled": 0, "fusion_lon": 0.0, "is_reserved": 0, "name": "460a799969017766b5e5c3b2960d43c2", "type": "electric_scooter", "bike_id": "460a799969017766b5e5c3b2960d43c2", "rental_uris": {"ios": "https://dc.lft.to/lastmile_qr_scan", "android": "https://dc.lft.to/lastmile_qr_scan"}, "fusion_lat": 0.0}, {"lat": 38.916850833333335, "lon": -77.01579183333334, "is_disabled": 0, "fusion_lon": 0.0, "is_reserved": 0, "name": "59fa75ad6808a570900fc5e9cc130af3", "type": "electric_scooter", "bike_id": "59fa75ad6808a570900fc5e9cc130af3", "rental_uris": {"ios": "https://dc.lft.to/lastmile_qr_scan", "android": "https://dc.lft.to/lastmile_qr_scan"}, "fusion_lat": 0.0}, {"lat": 38.921779, "lon": -77.04020083333333, "is_disabled": 0, "fusion_lon": 0.0, "is_reserved": 0, "name": "fe26672d8469af2604f3884c676b0390", "type": "electric_scooter", "bike_id": "fe26672d8469af2604f3884c676b0390", "rental_uris": {"ios": "https://dc.lft.to/lastmile_qr_scan", "android": "https://dc.lft.to/lastmile_qr_scan"}, "fusion_lat": 0.0}, {"lat": 38.897772333333336, "lon": -76.99159166666666, "is_disabled": 0, "fusion_lon": 0.0, "is_reserved": 0, "name": "ae890f72988b83bbcd651374bd4793fd", "type": "electric_scooter", "bike_id": "ae890f72988b83bbcd651374bd4793fd", "rental_uris": {"ios": "https://dc.lft.to/lastmile_qr_scan", "android": "https://dc.lft.to/lastmile_qr_scan"}, "fusion_lat": 0.0}, {"lat": 38.88741233333333, "lon": -77.03073933333333, "is_disabled": 0, "fusion_lon": 0.0, "is_reserved": 0, "name": "28ed214479a3f93e6f8354d67d4bbc3e", "type": "electric_scooter", "bike_id": "28ed214479a3f93e6f8354d67d4bbc3e", "rental_uris": {"ios": "https://dc.lft.to/lastmile_qr_scan", "android": "https://dc.lft.to/lastmile_qr_scan"}, "fusion_lat": 0.0}, {"lat": 38.8796715, "lon": -76.91615066666667, "is_disabled": 0, "fusion_lon": 0.0, "is_reserved": 0, "name": "e9757433db04a20fa172525fd7f66d89", "type": "electric_bike", "bike_id": "e9757433db04a20fa172525fd7f66d89", "rental_uris": {"ios": "https://dc.lft.to/lastmile_qr_scan", "android": "https://dc.lft.to/lastmile_qr_scan"}, "fusion_lat": 0.0}, {"lat": 38.92791033333334, "lon": -77.02460033333334, "is_disabled": 0, "fusion_lon": 0.0, "is_reserved": 0, "name": "6de1dcdf2ef700609cfc7f9f4cfb766a", "type": "electric_scooter", "bike_id": "6de1dcdf2ef700609cfc7f9f4cfb766a", "rental_uris": {"ios": "https://dc.lft.to/lastmile_qr_scan", "android": "https://dc.lft.to/lastmile_qr_scan"}, "fusion_lat": 0.0}, {"lat": 38.88726716666667, "lon": -76.98359866666667, "is_disabled": 0, "fusion_lon": 0.0, "is_reserved": 0, "name": "6a60daddf9dcabf655fb67f99564777b", "type": "electric_scooter", "bike_id": "6a60daddf9dcabf655fb67f99564777b", "rental_uris": {"ios": "https://dc.lft.to/lastmile_qr_scan", "android": "https://dc.lft.to/lastmile_qr_scan"}, "fusion_lat": 0.0}, {"lat": 38.90727166666667, "lon": -77.03177766666667, "is_disabled": 0, "fusion_lon": 0.0, "is_reserved": 0, "name": "d9990c58a48e204f0da930f53f0df413", "type": "electric_scooter", "bike_id": "d9990c58a48e204f0da930f53f0df413", "rental_uris": {"ios": "https://dc.lft.to/lastmile_qr_scan", "android": "https://dc.lft.to/lastmile_qr_scan"}, "fusion_lat": 0.0}, {"lat": 38.937352833333335, "lon": -77.03625866666667, "is_disabled": 0, "fusion_lon": 0.0, "is_reserved": 0, "name": "4b8e728074d3da0fd18e6f6dfa6f0d12", "type": "electric_scooter", "bike_id": "4b8e728074d3da0fd18e6f6dfa6f0d12", "rental_uris": {"ios": "https://dc.lft.to/lastmile_qr_scan", "android": "https://dc.lft.to/lastmile_qr_scan"}, "fusion_lat": 0.0}, {"lat": 38.8876725, "lon": -77.01304383333333, "is_disabled": 0, "fusion_lon": 0.0, "is_reserved": 0, "name": "db76de73b70904476202982071a88769", "type": "electric_scooter", "bike_id": "db76de73b70904476202982071a88769", "rental_uris": {"ios": "https://dc.lft.to/lastmile_qr_scan", "android": "https://dc.lft.to/lastmile_qr_scan"}, "fusion_lat": 0.0}, {"lat": 38.93186933333333, "lon": -77.04314633333334, "is_disabled": 0, "fusion_lon": 0.0, "is_reserved": 0, "name": "03ea83ce99e2a149b461f13561c3ddce", "type": "electric_scooter", "bike_id": "03ea83ce99e2a149b461f13561c3ddce", "rental_uris": {"ios": "https://dc.lft.to/lastmile_qr_scan", "android": "https://dc.lft.to/lastmile_qr_scan"}, "fusion_lat": 0.0}, {"lat": 38.8746525, "lon": -77.01452916666666, "is_disabled": 0, "fusion_lon": 0.0, "is_reserved": 0, "name": "e4dc5e03c87c2a91347de7fbc4428c7b", "type": "electric_scooter", "bike_id": "e4dc5e03c87c2a91347de7fbc4428c7b", "rental_uris": {"ios": "https://dc.lft.to/lastmile_qr_scan", "android": "https://dc.lft.to/lastmile_qr_scan"}, "fusion_lat": 0.0}, {"lat": 38.910997, "lon": -77.04539066666666, "is_disabled": 0, "fusion_lon": 0.0, "is_reserved": 0, "name": "ba34ab31685733d688f07e0b629cde33", "type": "electric_scooter", "bike_id": "ba34ab31685733d688f07e0b629cde33", "rental_uris": {"ios": "https://dc.lft.to/lastmile_qr_scan", "android": "https://dc.lft.to/lastmile_qr_scan"}, "fusion_lat": 0.0}, {"lat": 38.90631366666667, "lon": -77.02504883333333, "is_disabled": 0, "fusion_lon": 0.0, "is_reserved": 0, "name": "897476a650e2be9e417c5f79cb904662", "type": "electric_scooter", "bike_id": "897476a650e2be9e417c5f79cb904662", "rental_uris": {"ios": "https://dc.lft.to/lastmile_qr_scan", "android": "https://dc.lft.to/lastmile_qr_scan"}, "fusion_lat": 0.0}, {"lat": 38.91589466666667, "lon": -77.01723033333333, "is_disabled": 0, "fusion_lon": 0.0, "is_reserved": 0, "name": "903b0f7ac630b42febeaee4965f322d5", "type": "electric_scooter", "bike_id": "903b0f7ac630b42febeaee4965f322d5", "rental_uris": {"ios": "https://dc.lft.to/lastmile_qr_scan", "android": "https://dc.lft.to/lastmile_qr_scan"}, "fusion_lat": 0.0}, {"lat": 38.908572666666664, "lon": -77.02722766666666, "is_disabled": 0, "fusion_lon": 0.0, "is_reserved": 0, "name": "ea2c79b881feb34bda9610cb600ecaf4", "type": "electric_scooter", "bike_id": "ea2c79b881feb34bda9610cb600ecaf4", "rental_uris": {"ios": "https://dc.lft.to/lastmile_qr_scan", "android": "https://dc.lft.to/lastmile_qr_scan"}, "fusion_lat": 0.0}, {"lat": 38.95421866666667, "lon": -77.02766666666666, "is_disabled": 0, "fusion_lon": 0.0, "is_reserved": 0, "name": "45c0a034a9a0c8685d0a7cd61a2dc0a6", "type": "electric_scooter", "bike_id": "45c0a034a9a0c8685d0a7cd61a2dc0a6", "rental_uris": {"ios": "https://dc.lft.to/lastmile_qr_scan", "android": "https://dc.lft.to/lastmile_qr_scan"}, "fusion_lat": 0.0}, {"lat": 38.925867, "lon": -77.20985016666667, "is_disabled": 0, "fusion_lon": 0.0, "is_reserved": 0, "name": "a5ae1a85d63b270af1168258b722c842", "type": "electric_bike", "bike_id": "a5ae1a85d63b270af1168258b722c842", "rental_uris": {"ios": "https://dc.lft.to/lastmile_qr_scan", "android": "https://dc.lft.to/lastmile_qr_scan"}, "fusion_lat": 0.0}, {"lat": 38.827850166666664, "lon": -77.12492166666667, "is_disabled": 0, "fusion_lon": 0.0, "is_reserved": 0, "name": "f247dc118656e83a95a1cd5afac57ab0", "type": "electric_bike", "bike_id": "f247dc118656e83a95a1cd5afac57ab0", "rental_uris": {"ios": "https://dc.lft.to/lastmile_qr_scan", "android": "https://dc.lft.to/lastmile_qr_scan"}, "fusion_lat": 0.0}, {"lat": 38.90042366666667, "lon": -77.04180366666667, "is_disabled": 0, "fusion_lon": 0.0, "is_reserved": 0, "name": "a4990502996b3475e2adb9387bb9eeda", "type": "electric_scooter", "bike_id": "a4990502996b3475e2adb9387bb9eeda", "rental_uris": {"ios": "https://dc.lft.to/lastmile_qr_scan", "android": "https://dc.lft.to/lastmile_qr_scan"}, "fusion_lat": 0.0}, {"lat": 38.891985166666664, "lon": -77.02656583333334, "is_disabled": 0, "fusion_lon": 0.0, "is_reserved": 0, "name": "b62f2d130b5b381c50c74944566e8f92", "type": "electric_scooter", "bike_id": "b62f2d130b5b381c50c74944566e8f92", "rental_uris": {"ios": "https://dc.lft.to/lastmile_qr_scan", "android": "https://dc.lft.to/lastmile_qr_scan"}, "fusion_lat": 0.0}, {"lat": 38.843066666666665, "lon": -76.99536716666667, "is_disabled": 0, "fusion_lon": 0.0, "is_reserved": 0, "name": "fb4860dc7136d87abcd33402fb67cc78", "type": "electric_scooter", "bike_id": "fb4860dc7136d87abcd33402fb67cc78", "rental_uris": {"ios": "https://dc.lft.to/lastmile_qr_scan", "android": "https://dc.lft.to/lastmile_qr_scan"}, "fusion_lat": 0.0}, {"lat": 38.88521816666667, "lon": -76.98216483333333, "is_disabled": 0, "fusion_lon": 0.0, "is_reserved": 0, "name": "0fb70d0b63d14d451bd91fa5ce0ca9e2", "type": "electric_scooter", "bike_id": "0fb70d0b63d14d451bd91fa5ce0ca9e2", "rental_uris": {"ios": "https://dc.lft.to/lastmile_qr_scan", "android": "https://dc.lft.to/lastmile_qr_scan"}, "fusion_lat": 0.0}, {"lat": 38.916065, "lon": -77.03173383333333, "is_disabled": 0, "fusion_lon": 0.0, "is_reserved": 0, "name": "dc1567ded48cd1feda9fb91f7abdf324", "type": "electric_scooter", "bike_id": "dc1567ded48cd1feda9fb91f7abdf324", "rental_uris": {"ios": "https://dc.lft.to/lastmile_qr_scan", "android": "https://dc.lft.to/lastmile_qr_scan"}, "fusion_lat": 0.0}, {"lat": 38.90719883333333, "lon": -77.0414025, "is_disabled": 0, "fusion_lon": 0.0, "is_reserved": 0, "name": "6ec8d3476f360ae2ab700fc1853c078f", "type": "electric_scooter", "bike_id": "6ec8d3476f360ae2ab700fc1853c078f", "rental_uris": {"ios": "https://dc.lft.to/lastmile_qr_scan", "android": "https://dc.lft.to/lastmile_qr_scan"}, "fusion_lat": 0.0}, {"lat": 38.90013, "lon": -76.9997375, "is_disabled": 0, "fusion_lon": 0.0, "is_reserved": 0, "name": "71e03014f0730eddbc4ccda7178a3425", "type": "electric_scooter", "bike_id": "71e03014f0730eddbc4ccda7178a3425", "rental_uris": {"ios": "https://dc.lft.to/lastmile_qr_scan", "android": "https://dc.lft.to/lastmile_qr_scan"}, "fusion_lat": 0.0}, {"lat": 38.9232675, "lon": -77.056814, "is_disabled": 0, "fusion_lon": 0.0, "is_reserved": 0, "name": "b5b14b3b0851e32ecdf9f8bcfb39c9e4", "type": "electric_scooter", "bike_id": "b5b14b3b0851e32ecdf9f8bcfb39c9e4", "rental_uris": {"ios": "https://dc.lft.to/lastmile_qr_scan", "android": "https://dc.lft.to/lastmile_qr_scan"}, "fusion_lat": 0.0}, {"lat": 38.917663166666664, "lon": -77.02286683333334, "is_disabled": 0, "fusion_lon": 0.0, "is_reserved": 0, "name": "c0cb0175bc802445c81bb31ac08064b9", "type": "electric_scooter", "bike_id": "c0cb0175bc802445c81bb31ac08064b9", "rental_uris": {"ios": "https://dc.lft.to/lastmile_qr_scan", "android": "https://dc.lft.to/lastmile_qr_scan"}, "fusion_lat": 0.0}, {"lat": 38.91507883333333, "lon": -77.015718, "is_disabled": 0, "fusion_lon": 0.0, "is_reserved": 0, "name": "45b30ec997b1642d333808015c93ce20", "type": "electric_scooter", "bike_id": "45b30ec997b1642d333808015c93ce20", "rental_uris": {"ios": "https://dc.lft.to/lastmile_qr_scan", "android": "https://dc.lft.to/lastmile_qr_scan"}, "fusion_lat": 0.0}, {"lat": 38.8967395, "lon": -76.93208116666666, "is_disabled": 0, "fusion_lon": 0.0, "is_reserved": 0, "name": "58dee93219d692e125af7bbcd358822b", "type": "electric_scooter", "bike_id": "58dee93219d692e125af7bbcd358822b", "rental_uris": {"ios": "https://dc.lft.to/lastmile_qr_scan", "android": "https://dc.lft.to/lastmile_qr_scan"}, "fusion_lat": 0.0}, {"lat": 38.920491, "lon": -77.041889, "is_disabled": 0, "fusion_lon": 0.0, "is_reserved": 0, "name": "916fa4f5c40cf8856fd17efbfd046ec9", "type": "electric_scooter", "bike_id": "916fa4f5c40cf8856fd17efbfd046ec9", "rental_uris": {"ios": "https://dc.lft.to/lastmile_qr_scan", "android": "https://dc.lft.to/lastmile_qr_scan"}, "fusion_lat": 0.0}, {"lat": 38.910311, "lon": -77.04255916666666, "is_disabled": 0, "fusion_lon": 0.0, "is_reserved": 0, "name": "9f387404d3e17042fc7a16347f86ee6d", "type": "electric_scooter", "bike_id": "9f387404d3e17042fc7a16347f86ee6d", "rental_uris": {"ios": "https://dc.lft.to/lastmile_qr_scan", "android": "https://dc.lft.to/lastmile_qr_scan"}, "fusion_lat": 0.0}, {"lat": 38.92462116666667, "lon": -77.02249, "is_disabled": 0, "fusion_lon": 0.0, "is_reserved": 0, "name": "31fd9319946384788c735c9b3d9e3283", "type": "electric_scooter", "bike_id": "31fd9319946384788c735c9b3d9e3283", "rental_uris": {"ios": "https://dc.lft.to/lastmile_qr_scan", "android": "https://dc.lft.to/lastmile_qr_scan"}, "fusion_lat": 0.0}, {"lat": 38.901654666666666, "lon": -77.02696733333333, "is_disabled": 0, "fusion_lon": 0.0, "is_reserved": 0, "name": "0cb00d8bde41b625a3291ed4ef688b2e", "type": "electric_scooter", "bike_id": "0cb00d8bde41b625a3291ed4ef688b2e", "rental_uris": {"ios": "https://dc.lft.to/lastmile_qr_scan", "android": "https://dc.lft.to/lastmile_qr_scan"}, "fusion_lat": 0.0}, {"lat": 38.9096025, "lon": -77.04617466666667, "is_disabled": 0, "fusion_lon": 0.0, "is_reserved": 0, "name": "73f473f945fee836634e804a1328d9eb", "type": "electric_scooter", "bike_id": "73f473f945fee836634e804a1328d9eb", "rental_uris": {"ios": "https://dc.lft.to/lastmile_qr_scan", "android": "https://dc.lft.to/lastmile_qr_scan"}, "fusion_lat": 0.0}, {"lat": 38.88758416666667, "lon": -76.98692366666667, "is_disabled": 0, "fusion_lon": 0.0, "is_reserved": 0, "name": "0fb578602af9042a34c2b833b244620a", "type": "electric_scooter", "bike_id": "0fb578602af9042a34c2b833b244620a", "rental_uris": {"ios": "https://dc.lft.to/lastmile_qr_scan", "android": "https://dc.lft.to/lastmile_qr_scan"}, "fusion_lat": 0.0}, {"lat": 38.90843866666667, "lon": -77.02853733333333, "is_disabled": 0, "fusion_lon": 0.0, "is_reserved": 0, "name": "89551167bda6b203fca0f3fd932ab986", "type": "electric_scooter", "bike_id": "89551167bda6b203fca0f3fd932ab986", "rental_uris": {"ios": "https://dc.lft.to/lastmile_qr_scan", "android": "https://dc.lft.to/lastmile_qr_scan"}, "fusion_lat": 0.0}, {"lat": 38.89757483333333, "lon": -77.0190545, "is_disabled": 0, "fusion_lon": 0.0, "is_reserved": 0, "name": "ab61e3f784ab615c571546a9122b198d", "type": "electric_scooter", "bike_id": "ab61e3f784ab615c571546a9122b198d", "rental_uris": {"ios": "https://dc.lft.to/lastmile_qr_scan", "android": "https://dc.lft.to/lastmile_qr_scan"}, "fusion_lat": 0.0}, {"lat": 38.92445583333333, "lon": -77.0203515, "is_disabled": 0, "fusion_lon": 0.0, "is_reserved": 0, "name": "0d9922bb3b293f5797a954dca2457977", "type": "electric_scooter", "bike_id": "0d9922bb3b293f5797a954dca2457977", "rental_uris": {"ios": "https://dc.lft.to/lastmile_qr_scan", "android": "https://dc.lft.to/lastmile_qr_scan"}, "fusion_lat": 0.0}, {"lat": 38.899939833333335, "lon": -77.00658333333334, "is_disabled": 0, "fusion_lon": 0.0, "is_reserved": 0, "name": "08c1cce61391914d3a08e5d66d2e6b8a", "type": "electric_scooter", "bike_id": "08c1cce61391914d3a08e5d66d2e6b8a", "rental_uris": {"ios": "https://dc.lft.to/lastmile_qr_scan", "android": "https://dc.lft.to/lastmile_qr_scan"}, "fusion_lat": 0.0}, {"lat": 38.9222785, "lon": -77.02018833333334, "is_disabled": 0, "fusion_lon": 0.0, "is_reserved": 0, "name": "09e670a9f4a09f22d16347abd9a169bf", "type": "electric_scooter", "bike_id": "09e670a9f4a09f22d16347abd9a169bf", "rental_uris": {"ios": "https://dc.lft.to/lastmile_qr_scan", "android": "https://dc.lft.to/lastmile_qr_scan"}, "fusion_lat": 0.0}, {"lat": 38.906739333333334, "lon": -77.02693033333334, "is_disabled": 0, "fusion_lon": 0.0, "is_reserved": 0, "name": "5dbafd697bd1b5c32b502ab097d30982", "type": "electric_scooter", "bike_id": "5dbafd697bd1b5c32b502ab097d30982", "rental_uris": {"ios": "https://dc.lft.to/lastmile_qr_scan", "android": "https://dc.lft.to/lastmile_qr_scan"}, "fusion_lat": 0.0}, {"lat": 38.907842, "lon": -77.038706, "is_disabled": 0, "fusion_lon": 0.0, "is_reserved": 0, "name": "2963b4d57e45c3c8f47bc081480daf85", "type": "electric_scooter", "bike_id": "2963b4d57e45c3c8f47bc081480daf85", "rental_uris": {"ios": "https://dc.lft.to/lastmile_qr_scan", "android": "https://dc.lft.to/lastmile_qr_scan"}, "fusion_lat": 0.0}, {"lat": 38.9190015, "lon": -77.03198733333333, "is_disabled": 0, "fusion_lon": 0.0, "is_reserved": 0, "name": "70b8e3cddf241a72e736b4711adea0de", "type": "electric_scooter", "bike_id": "70b8e3cddf241a72e736b4711adea0de", "rental_uris": {"ios": "https://dc.lft.to/lastmile_qr_scan", "android": "https://dc.lft.to/lastmile_qr_scan"}, "fusion_lat": 0.0}, {"lat": 38.92351633333333, "lon": -77.01904683333333, "is_disabled": 0, "fusion_lon": 0.0, "is_reserved": 0, "name": "22278f934536ae9bb026a6d62adeb46f", "type": "electric_scooter", "bike_id": "22278f934536ae9bb026a6d62adeb46f", "rental_uris": {"ios": "https://dc.lft.to/lastmile_qr_scan", "android": "https://dc.lft.to/lastmile_qr_scan"}, "fusion_lat": 0.0}, {"lat": 38.884058333333336, "lon": -77.008127, "is_disabled": 0, "fusion_lon": 0.0, "is_reserved": 0, "name": "0b637cabbdb5216b723a6649a23de624", "type": "electric_scooter", "bike_id": "0b637cabbdb5216b723a6649a23de624", "rental_uris": {"ios": "https://dc.lft.to/lastmile_qr_scan", "android": "https://dc.lft.to/lastmile_qr_scan"}, "fusion_lat": 0.0}, {"lat": 38.92486933333333, "lon": -77.0214225, "is_disabled": 0, "fusion_lon": 0.0, "is_reserved": 0, "name": "e78835d8f019ad13caae4192aa94e72e", "type": "electric_scooter", "bike_id": "e78835d8f019ad13caae4192aa94e72e", "rental_uris": {"ios": "https://dc.lft.to/lastmile_qr_scan", "android": "https://dc.lft.to/lastmile_qr_scan"}, "fusion_lat": 0.0}, {"lat": 38.9071985, "lon": -77.03545416666667, "is_disabled": 0, "fusion_lon": 0.0, "is_reserved": 0, "name": "804590da2bf4b31a5c772e40d5de5fa6", "type": "electric_scooter", "bike_id": "804590da2bf4b31a5c772e40d5de5fa6", "rental_uris": {"ios": "https://dc.lft.to/lastmile_qr_scan", "android": "https://dc.lft.to/lastmile_qr_scan"}, "fusion_lat": 0.0}, {"lat": 38.923419833333334, "lon": -77.01907016666667, "is_disabled": 0, "fusion_lon": 0.0, "is_reserved": 0, "name": "4b6789d4b3ac9a151b443c13f66d30b7", "type": "electric_scooter", "bike_id": "4b6789d4b3ac9a151b443c13f66d30b7", "rental_uris": {"ios": "https://dc.lft.to/lastmile_qr_scan", "android": "https://dc.lft.to/lastmile_qr_scan"}, "fusion_lat": 0.0}, {"lat": 38.90726183333334, "lon": -77.0299495, "is_disabled": 0, "fusion_lon": 0.0, "is_reserved": 0, "name": "dc1b0a244ec8e32ff2de52f563c6ed7c", "type": "electric_scooter", "bike_id": "dc1b0a244ec8e32ff2de52f563c6ed7c", "rental_uris": {"ios": "https://dc.lft.to/lastmile_qr_scan", "android": "https://dc.lft.to/lastmile_qr_scan"}, "fusion_lat": 0.0}, {"lat": 38.92261283333333, "lon": -77.03685616666667, "is_disabled": 0, "fusion_lon": 0.0, "is_reserved": 0, "name": "8dc8765ed992213e554c3495a6ad5d01", "type": "electric_scooter", "bike_id": "8dc8765ed992213e554c3495a6ad5d01", "rental_uris": {"ios": "https://dc.lft.to/lastmile_qr_scan", "android": "https://dc.lft.to/lastmile_qr_scan"}, "fusion_lat": 0.0}, {"lat": 38.93708, "lon": -77.03520716666667, "is_disabled": 0, "fusion_lon": 0.0, "is_reserved": 0, "name": "09f3b987b40dc1ac2593251c6e97e2cf", "type": "electric_scooter", "bike_id": "09f3b987b40dc1ac2593251c6e97e2cf", "rental_uris": {"ios": "https://dc.lft.to/lastmile_qr_scan", "android": "https://dc.lft.to/lastmile_qr_scan"}, "fusion_lat": 0.0}, {"lat": 38.93465783333333, "lon": -77.041397, "is_disabled": 0, "fusion_lon": 0.0, "is_reserved": 0, "name": "02c3a087aa88b61dd880ec42ed7b8799", "type": "electric_scooter", "bike_id": "02c3a087aa88b61dd880ec42ed7b8799", "rental_uris": {"ios": "https://dc.lft.to/lastmile_qr_scan", "android": "https://dc.lft.to/lastmile_qr_scan"}, "fusion_lat": 0.0}, {"lat": 38.8957335, "lon": -76.98319483333333, "is_disabled": 0, "fusion_lon": 0.0, "is_reserved": 0, "name": "085dabc34281203b0bc4d38a73f21004", "type": "electric_scooter", "bike_id": "085dabc34281203b0bc4d38a73f21004", "rental_uris": {"ios": "https://dc.lft.to/lastmile_qr_scan", "android": "https://dc.lft.to/lastmile_qr_scan"}, "fusion_lat": 0.0}, {"lat": 38.93594383333333, "lon": -77.03498783333333, "is_disabled": 0, "fusion_lon": 0.0, "is_reserved": 0, "name": "b3fdb568070d24e3e0f6969e57b833f9", "type": "electric_scooter", "bike_id": "b3fdb568070d24e3e0f6969e57b833f9", "rental_uris": {"ios": "https://dc.lft.to/lastmile_qr_scan", "android": "https://dc.lft.to/lastmile_qr_scan"}, "fusion_lat": 0.0}, {"lat": 38.886965833333335, "lon": -76.993807, "is_disabled": 0, "fusion_lon": 0.0, "is_reserved": 0, "name": "80c127807b5871e8c03cf4876fea5ff0", "type": "electric_scooter", "bike_id": "80c127807b5871e8c03cf4876fea5ff0", "rental_uris": {"ios": "https://dc.lft.to/lastmile_qr_scan", "android": "https://dc.lft.to/lastmile_qr_scan"}, "fusion_lat": 0.0}, {"lat": 38.949154, "lon": -77.01859233333333, "is_disabled": 0, "fusion_lon": 0.0, "is_reserved": 0, "name": "1ed79048b9bd500e8e9dd456a3dceb1e", "type": "electric_scooter", "bike_id": "1ed79048b9bd500e8e9dd456a3dceb1e", "rental_uris": {"ios": "https://dc.lft.to/lastmile_qr_scan", "android": "https://dc.lft.to/lastmile_qr_scan"}, "fusion_lat": 0.0}, {"lat": 38.9637315, "lon": -76.9452965, "is_disabled": 0, "fusion_lon": 0.0, "is_reserved": 0, "name": "ea6b700617894e6d181fc561bb83b15c", "type": "electric_bike", "bike_id": "ea6b700617894e6d181fc561bb83b15c", "rental_uris": {"ios": "https://dc.lft.to/lastmile_qr_scan", "android": "https://dc.lft.to/lastmile_qr_scan"}, "fusion_lat": 0.0}, {"lat": 38.9228235, "lon": -77.03659333333333, "is_disabled": 0, "fusion_lon": 0.0, "is_reserved": 0, "name": "8258717df8ab31c86faf4d867da13459", "type": "electric_scooter", "bike_id": "8258717df8ab31c86faf4d867da13459", "rental_uris": {"ios": "https://dc.lft.to/lastmile_qr_scan", "android": "https://dc.lft.to/lastmile_qr_scan"}, "fusion_lat": 0.0}, {"lat": 38.916073833333336, "lon": -77.0452365, "is_disabled": 0, "fusion_lon": 0.0, "is_reserved": 0, "name": "ddfbeae6fcdb6e137c948581c991a273", "type": "electric_scooter", "bike_id": "ddfbeae6fcdb6e137c948581c991a273", "rental_uris": {"ios": "https://dc.lft.to/lastmile_qr_scan", "android": "https://dc.lft.to/lastmile_qr_scan"}, "fusion_lat": 0.0}, {"lat": 38.916233, "lon": -77.04009933333333, "is_disabled": 0, "fusion_lon": 0.0, "is_reserved": 0, "name": "93927b2c4091ad983f26ff32269842e4", "type": "electric_scooter", "bike_id": "93927b2c4091ad983f26ff32269842e4", "rental_uris": {"ios": "https://dc.lft.to/lastmile_qr_scan", "android": "https://dc.lft.to/lastmile_qr_scan"}, "fusion_lat": 0.0}, {"lat": 38.92556666666667, "lon": -77.0525725, "is_disabled": 0, "fusion_lon": 0.0, "is_reserved": 0, "name": "cd42f81860fcafcdd4e594ce7cc28993", "type": "electric_scooter", "bike_id": "cd42f81860fcafcdd4e594ce7cc28993", "rental_uris": {"ios": "https://dc.lft.to/lastmile_qr_scan", "android": "https://dc.lft.to/lastmile_qr_scan"}, "fusion_lat": 0.0}, {"lat": 38.909581, "lon": -77.04440316666667, "is_disabled": 0, "fusion_lon": 0.0, "is_reserved": 0, "name": "a685751c11647b4311c7100a8d621852", "type": "electric_scooter", "bike_id": "a685751c11647b4311c7100a8d621852", "rental_uris": {"ios": "https://dc.lft.to/lastmile_qr_scan", "android": "https://dc.lft.to/lastmile_qr_scan"}, "fusion_lat": 0.0}, {"lat": 38.9205965, "lon": -77.031809, "is_disabled": 0, "fusion_lon": 0.0, "is_reserved": 0, "name": "46e347979f2dfe55a9ed92d3ab94b92f", "type": "electric_scooter", "bike_id": "46e347979f2dfe55a9ed92d3ab94b92f", "rental_uris": {"ios": "https://dc.lft.to/lastmile_qr_scan", "android": "https://dc.lft.to/lastmile_qr_scan"}, "fusion_lat": 0.0}, {"lat": 38.90210366666667, "lon": -77.02168, "is_disabled": 0, "fusion_lon": 0.0, "is_reserved": 0, "name": "d5cafccf130b6932297c3daa531e832f", "type": "electric_scooter", "bike_id": "d5cafccf130b6932297c3daa531e832f", "rental_uris": {"ios": "https://dc.lft.to/lastmile_qr_scan", "android": "https://dc.lft.to/lastmile_qr_scan"}, "fusion_lat": 0.0}, {"lat": 38.99206216666666, "lon": -77.03220233333333, "is_disabled": 0, "fusion_lon": 0.0, "is_reserved": 0, "name": "584f66b882db50253cd180e54063eb25", "type": "electric_bike", "bike_id": "584f66b882db50253cd180e54063eb25", "rental_uris": {"ios": "https://dc.lft.to/lastmile_qr_scan", "android": "https://dc.lft.to/lastmile_qr_scan"}, "fusion_lat": 0.0}, {"lat": 38.93578816666667, "lon": -77.1086665, "is_disabled": 0, "fusion_lon": 0.0, "is_reserved": 0, "name": "274db1369f16f3fbc07515a951936797", "type": "electric_bike", "bike_id": "274db1369f16f3fbc07515a951936797", "rental_uris": {"ios": "https://dc.lft.to/lastmile_qr_scan", "android": "https://dc.lft.to/lastmile_qr_scan"}, "fusion_lat": 0.0}, {"lat": 38.9384595, "lon": -77.07235216666666, "is_disabled": 0, "fusion_lon": 0.0, "is_reserved": 0, "name": "93c4dc0da7c9a352c59686e019422eeb", "type": "electric_scooter", "bike_id": "93c4dc0da7c9a352c59686e019422eeb", "rental_uris": {"ios": "https://dc.lft.to/lastmile_qr_scan", "android": "https://dc.lft.to/lastmile_qr_scan"}, "fusion_lat": 0.0}, {"lat": 38.89299116666667, "lon": -77.012429, "is_disabled": 0, "fusion_lon": 0.0, "is_reserved": 0, "name": "9ff21f5feef02dd48dd14cfff7a8ee22", "type": "electric_scooter", "bike_id": "9ff21f5feef02dd48dd14cfff7a8ee22", "rental_uris": {"ios": "https://dc.lft.to/lastmile_qr_scan", "android": "https://dc.lft.to/lastmile_qr_scan"}, "fusion_lat": 0.0}, {"lat": 38.90669416666667, "lon": -76.9894385, "is_disabled": 0, "fusion_lon": 0.0, "is_reserved": 0, "name": "5b7c57bacab476b4ec473630880515a8", "type": "electric_scooter", "bike_id": "5b7c57bacab476b4ec473630880515a8", "rental_uris": {"ios": "https://dc.lft.to/lastmile_qr_scan", "android": "https://dc.lft.to/lastmile_qr_scan"}, "fusion_lat": 0.0}, {"lat": 38.96607616666667, "lon": -77.02743666666667, "is_disabled": 0, "fusion_lon": 0.0, "is_reserved": 0, "name": "2e5e8cce7d236b4b1ba0f338e6d9030e", "type": "electric_scooter", "bike_id": "2e5e8cce7d236b4b1ba0f338e6d9030e", "rental_uris": {"ios": "https://dc.lft.to/lastmile_qr_scan", "android": "https://dc.lft.to/lastmile_qr_scan"}, "fusion_lat": 0.0}, {"lat": 38.9329335, "lon": -77.02316416666666, "is_disabled": 0, "fusion_lon": 0.0, "is_reserved": 0, "name": "b534a52411239ea4278aedb6fa12b02d", "type": "electric_bike", "bike_id": "b534a52411239ea4278aedb6fa12b02d", "rental_uris": {"ios": "https://dc.lft.to/lastmile_qr_scan", "android": "https://dc.lft.to/lastmile_qr_scan"}, "fusion_lat": 0.0}, {"lat": 38.9353795, "lon": -77.0575025, "is_disabled": 0, "fusion_lon": 0.0, "is_reserved": 0, "name": "1334922c4f72927c46a379e830121b72", "type": "electric_scooter", "bike_id": "1334922c4f72927c46a379e830121b72", "rental_uris": {"ios": "https://dc.lft.to/lastmile_qr_scan", "android": "https://dc.lft.to/lastmile_qr_scan"}, "fusion_lat": 0.0}, {"lat": 38.973710833333335, "lon": -77.0127115, "is_disabled": 0, "fusion_lon": 0.0, "is_reserved": 0, "name": "79da4c0c4b9a70a062a3f752d831541c", "type": "electric_scooter", "bike_id": "79da4c0c4b9a70a062a3f752d831541c", "rental_uris": {"ios": "https://dc.lft.to/lastmile_qr_scan", "android": "https://dc.lft.to/lastmile_qr_scan"}, "fusion_lat": 0.0}, {"lat": 38.911258833333335, "lon": -77.04186333333334, "is_disabled": 0, "fusion_lon": 0.0, "is_reserved": 0, "name": "8054f473b73b4d3a527cc00d1ea4942e", "type": "electric_scooter", "bike_id": "8054f473b73b4d3a527cc00d1ea4942e", "rental_uris": {"ios": "https://dc.lft.to/lastmile_qr_scan", "android": "https://dc.lft.to/lastmile_qr_scan"}, "fusion_lat": 0.0}, {"lat": 38.9165105, "lon": -77.00944683333333, "is_disabled": 0, "fusion_lon": 0.0, "is_reserved": 0, "name": "1a0b72deb377d8e6ecfbded9a9058052", "type": "electric_scooter", "bike_id": "1a0b72deb377d8e6ecfbded9a9058052", "rental_uris": {"ios": "https://dc.lft.to/lastmile_qr_scan", "android": "https://dc.lft.to/lastmile_qr_scan"}, "fusion_lat": 0.0}, {"lat": 38.93093116666667, "lon": -77.02478866666667, "is_disabled": 0, "fusion_lon": 0.0, "is_reserved": 0, "name": "8eac02d213dc145b3a040c0d6457ccd7", "type": "electric_scooter", "bike_id": "8eac02d213dc145b3a040c0d6457ccd7", "rental_uris": {"ios": "https://dc.lft.to/lastmile_qr_scan", "android": "https://dc.lft.to/lastmile_qr_scan"}, "fusion_lat": 0.0}, {"lat": 38.923012666666665, "lon": -76.99779083333334, "is_disabled": 0, "fusion_lon": 0.0, "is_reserved": 0, "name": "a87ad89ab8f41c7284d41d48238587f3", "type": "electric_scooter", "bike_id": "a87ad89ab8f41c7284d41d48238587f3", "rental_uris": {"ios": "https://dc.lft.to/lastmile_qr_scan", "android": "https://dc.lft.to/lastmile_qr_scan"}, "fusion_lat": 0.0}, {"lat": 38.93908916666667, "lon": -77.02462766666666, "is_disabled": 0, "fusion_lon": 0.0, "is_reserved": 0, "name": "1f087d5046cba502fd2d3d35c44bb488", "type": "electric_scooter", "bike_id": "1f087d5046cba502fd2d3d35c44bb488", "rental_uris": {"ios": "https://dc.lft.to/lastmile_qr_scan", "android": "https://dc.lft.to/lastmile_qr_scan"}, "fusion_lat": 0.0}, {"lat": 38.914777, "lon": -77.04609133333334, "is_disabled": 0, "fusion_lon": 0.0, "is_reserved": 0, "name": "d89d9b59efc986d671404fb0b23c3be7", "type": "electric_scooter", "bike_id": "d89d9b59efc986d671404fb0b23c3be7", "rental_uris": {"ios": "https://dc.lft.to/lastmile_qr_scan", "android": "https://dc.lft.to/lastmile_qr_scan"}, "fusion_lat": 0.0}, {"lat": 38.91919516666667, "lon": -77.034236, "is_disabled": 0, "fusion_lon": 0.0, "is_reserved": 0, "name": "fc408a01fa5bbca47478d0a46885f172", "type": "electric_scooter", "bike_id": "fc408a01fa5bbca47478d0a46885f172", "rental_uris": {"ios": "https://dc.lft.to/lastmile_qr_scan", "android": "https://dc.lft.to/lastmile_qr_scan"}, "fusion_lat": 0.0}, {"lat": 38.91405616666667, "lon": -77.039549, "is_disabled": 0, "fusion_lon": 0.0, "is_reserved": 0, "name": "8b78fda8e53fcd7efd5cb71d127e6317", "type": "electric_scooter", "bike_id": "8b78fda8e53fcd7efd5cb71d127e6317", "rental_uris": {"ios": "https://dc.lft.to/lastmile_qr_scan", "android": "https://dc.lft.to/lastmile_qr_scan"}, "fusion_lat": 0.0}, {"lat": 38.902190166666664, "lon": -77.0458175, "is_disabled": 0, "fusion_lon": 0.0, "is_reserved": 0, "name": "4b52366cc467e85f6a87e6bdaa31cebd", "type": "electric_scooter", "bike_id": "4b52366cc467e85f6a87e6bdaa31cebd", "rental_uris": {"ios": "https://dc.lft.to/lastmile_qr_scan", "android": "https://dc.lft.to/lastmile_qr_scan"}, "fusion_lat": 0.0}, {"lat": 38.900965166666666, "lon": -76.993812, "is_disabled": 0, "fusion_lon": 0.0, "is_reserved": 0, "name": "6b2b48c8d894886ff52de6e5964d4e87", "type": "electric_scooter", "bike_id": "6b2b48c8d894886ff52de6e5964d4e87", "rental_uris": {"ios": "https://dc.lft.to/lastmile_qr_scan", "android": "https://dc.lft.to/lastmile_qr_scan"}, "fusion_lat": 0.0}, {"lat": 38.901270333333336, "lon": -77.0165815, "is_disabled": 0, "fusion_lon": 0.0, "is_reserved": 0, "name": "5f433d74d8d3d39ac94cc7cd73fd2212", "type": "electric_scooter", "bike_id": "5f433d74d8d3d39ac94cc7cd73fd2212", "rental_uris": {"ios": "https://dc.lft.to/lastmile_qr_scan", "android": "https://dc.lft.to/lastmile_qr_scan"}, "fusion_lat": 0.0}, {"lat": 38.9134115, "lon": -77.0122195, "is_disabled": 0, "fusion_lon": 0.0, "is_reserved": 0, "name": "da0b0c896d1f7d8e84e90e48b95614fa", "type": "electric_scooter", "bike_id": "da0b0c896d1f7d8e84e90e48b95614fa", "rental_uris": {"ios": "https://dc.lft.to/lastmile_qr_scan", "android": "https://dc.lft.to/lastmile_qr_scan"}, "fusion_lat": 0.0}, {"lat": 38.90686733333333, "lon": -77.06341366666666, "is_disabled": 0, "fusion_lon": 0.0, "is_reserved": 0, "name": "b7fee8cec60376f892827a1254e80f3c", "type": "electric_scooter", "bike_id": "b7fee8cec60376f892827a1254e80f3c", "rental_uris": {"ios": "https://dc.lft.to/lastmile_qr_scan", "android": "https://dc.lft.to/lastmile_qr_scan"}, "fusion_lat": 0.0}, {"lat": 38.92473783333333, "lon": -77.026597, "is_disabled": 0, "fusion_lon": 0.0, "is_reserved": 0, "name": "dc5fc347d5c7fdbcc77decf490dc55ba", "type": "electric_scooter", "bike_id": "dc5fc347d5c7fdbcc77decf490dc55ba", "rental_uris": {"ios": "https://dc.lft.to/lastmile_qr_scan", "android": "https://dc.lft.to/lastmile_qr_scan"}, "fusion_lat": 0.0}, {"lat": 38.89648416666667, "lon": -77.00916066666667, "is_disabled": 0, "fusion_lon": 0.0, "is_reserved": 0, "name": "d0e6ce42af93d13f7ccb110ff9e50973", "type": "electric_scooter", "bike_id": "d0e6ce42af93d13f7ccb110ff9e50973", "rental_uris": {"ios": "https://dc.lft.to/lastmile_qr_scan", "android": "https://dc.lft.to/lastmile_qr_scan"}, "fusion_lat": 0.0}, {"lat": 38.9142735, "lon": -77.031862, "is_disabled": 0, "fusion_lon": 0.0, "is_reserved": 0, "name": "7244b94a1754616984fd1b7920114279", "type": "electric_scooter", "bike_id": "7244b94a1754616984fd1b7920114279", "rental_uris": {"ios": "https://dc.lft.to/lastmile_qr_scan", "android": "https://dc.lft.to/lastmile_qr_scan"}, "fusion_lat": 0.0}, {"lat": 38.89220383333333, "lon": -77.02756466666666, "is_disabled": 0, "fusion_lon": 0.0, "is_reserved": 0, "name": "f15724190d666f6943c4cd33bc4b1ecd", "type": "electric_scooter", "bike_id": "f15724190d666f6943c4cd33bc4b1ecd", "rental_uris": {"ios": "https://dc.lft.to/lastmile_qr_scan", "android": "https://dc.lft.to/lastmile_qr_scan"}, "fusion_lat": 0.0}, {"lat": 38.9013195, "lon": -77.04428416666667, "is_disabled": 0, "fusion_lon": 0.0, "is_reserved": 0, "name": "6b6047ae06907c3d0453262633ffe2d6", "type": "electric_scooter", "bike_id": "6b6047ae06907c3d0453262633ffe2d6", "rental_uris": {"ios": "https://dc.lft.to/lastmile_qr_scan", "android": "https://dc.lft.to/lastmile_qr_scan"}, "fusion_lat": 0.0}, {"lat": 38.923432166666665, "lon": -77.05179216666667, "is_disabled": 0, "fusion_lon": 0.0, "is_reserved": 0, "name": "9b2232d623a7ec0aa734a424abab3d88", "type": "electric_scooter", "bike_id": "9b2232d623a7ec0aa734a424abab3d88", "rental_uris": {"ios": "https://dc.lft.to/lastmile_qr_scan", "android": "https://dc.lft.to/lastmile_qr_scan"}, "fusion_lat": 0.0}, {"lat": 38.95620733333333, "lon": -77.02835116666667, "is_disabled": 0, "fusion_lon": 0.0, "is_reserved": 0, "name": "991ae775f95b9308660dcf74d6ab1ac2", "type": "electric_scooter", "bike_id": "991ae775f95b9308660dcf74d6ab1ac2", "rental_uris": {"ios": "https://dc.lft.to/lastmile_qr_scan", "android": "https://dc.lft.to/lastmile_qr_scan"}, "fusion_lat": 0.0}, {"lat": 38.9234185, "lon": -77.05230166666666, "is_disabled": 0, "fusion_lon": 0.0, "is_reserved": 0, "name": "8912e54561f21f8ab4528abcb13a845d", "type": "electric_scooter", "bike_id": "8912e54561f21f8ab4528abcb13a845d", "rental_uris": {"ios": "https://dc.lft.to/lastmile_qr_scan", "android": "https://dc.lft.to/lastmile_qr_scan"}, "fusion_lat": 0.0}, {"lat": 38.91660666666667, "lon": -77.03852216666667, "is_disabled": 0, "fusion_lon": 0.0, "is_reserved": 0, "name": "c14b49764727f8c03d3f9367ac3b393a", "type": "electric_scooter", "bike_id": "c14b49764727f8c03d3f9367ac3b393a", "rental_uris": {"ios": "https://dc.lft.to/lastmile_qr_scan", "android": "https://dc.lft.to/lastmile_qr_scan"}, "fusion_lat": 0.0}, {"lat": 38.909726166666665, "lon": -77.03375566666666, "is_disabled": 0, "fusion_lon": 0.0, "is_reserved": 0, "name": "8eb8d4716f5d8f061474a2eba52fc046", "type": "electric_scooter", "bike_id": "8eb8d4716f5d8f061474a2eba52fc046", "rental_uris": {"ios": "https://dc.lft.to/lastmile_qr_scan", "android": "https://dc.lft.to/lastmile_qr_scan"}, "fusion_lat": 0.0}, {"lat": 38.7845405, "lon": -77.01639883333333, "is_disabled": 0, "fusion_lon": 0.0, "is_reserved": 0, "name": "545e07928ff9a9c539773f99d7e8c2f9", "type": "electric_bike", "bike_id": "545e07928ff9a9c539773f99d7e8c2f9", "rental_uris": {"ios": "https://dc.lft.to/lastmile_qr_scan", "android": "https://dc.lft.to/lastmile_qr_scan"}, "fusion_lat": 0.0}, {"lat": 38.908380333333334, "lon": -77.03945666666667, "is_disabled": 0, "fusion_lon": 0.0, "is_reserved": 0, "name": "13e7e63224775b40ce4c50b8812107a1", "type": "electric_scooter", "bike_id": "13e7e63224775b40ce4c50b8812107a1", "rental_uris": {"ios": "https://dc.lft.to/lastmile_qr_scan", "android": "https://dc.lft.to/lastmile_qr_scan"}, "fusion_lat": 0.0}, {"lat": 38.93365383333333, "lon": -77.05733383333333, "is_disabled": 0, "fusion_lon": 0.0, "is_reserved": 0, "name": "2c4ffeccef93087896fad09f1276fe77", "type": "electric_scooter", "bike_id": "2c4ffeccef93087896fad09f1276fe77", "rental_uris": {"ios": "https://dc.lft.to/lastmile_qr_scan", "android": "https://dc.lft.to/lastmile_qr_scan"}, "fusion_lat": 0.0}, {"lat": 38.87956416666667, "lon": -77.00603683333334, "is_disabled": 0, "fusion_lon": 0.0, "is_reserved": 0, "name": "4c4779e9e22e74578f00efef90225ac0", "type": "electric_scooter", "bike_id": "4c4779e9e22e74578f00efef90225ac0", "rental_uris": {"ios": "https://dc.lft.to/lastmile_qr_scan", "android": "https://dc.lft.to/lastmile_qr_scan"}, "fusion_lat": 0.0}, {"lat": 38.9447205, "lon": -77.02241183333334, "is_disabled": 0, "fusion_lon": 0.0, "is_reserved": 0, "name": "17002a025c49a3d26a054685db364608", "type": "electric_bike", "bike_id": "17002a025c49a3d26a054685db364608", "rental_uris": {"ios": "https://dc.lft.to/lastmile_qr_scan", "android": "https://dc.lft.to/lastmile_qr_scan"}, "fusion_lat": 0.0}, {"lat": 38.87495, "lon": -76.9997395, "is_disabled": 0, "fusion_lon": 0.0, "is_reserved": 0, "name": "0d8c8e20090c1f116c9611d492559f2e", "type": "electric_scooter", "bike_id": "0d8c8e20090c1f116c9611d492559f2e", "rental_uris": {"ios": "https://dc.lft.to/lastmile_qr_scan", "android": "https://dc.lft.to/lastmile_qr_scan"}, "fusion_lat": 0.0}, {"lat": 38.904926, "lon": -76.97449866666666, "is_disabled": 0, "fusion_lon": 0.0, "is_reserved": 0, "name": "5bc759f40ac90ec726446080a9004246", "type": "electric_bike", "bike_id": "5bc759f40ac90ec726446080a9004246", "rental_uris": {"ios": "https://dc.lft.to/lastmile_qr_scan", "android": "https://dc.lft.to/lastmile_qr_scan"}, "fusion_lat": 0.0}, {"lat": 38.864751166666665, "lon": -77.07659833333334, "is_disabled": 0, "fusion_lon": 0.0, "is_reserved": 0, "name": "1df21bd83b16806b6bd57fa10ae02e34", "type": "electric_bike", "bike_id": "1df21bd83b16806b6bd57fa10ae02e34", "rental_uris": {"ios": "https://dc.lft.to/lastmile_qr_scan", "android": "https://dc.lft.to/lastmile_qr_scan"}, "fusion_lat": 0.0}, {"lat": 38.91479416666667, "lon": -77.04254616666667, "is_disabled": 0, "fusion_lon": 0.0, "is_reserved": 0, "name": "5f768d91d27e9ff805b992dedb62f986", "type": "electric_scooter", "bike_id": "5f768d91d27e9ff805b992dedb62f986", "rental_uris": {"ios": "https://dc.lft.to/lastmile_qr_scan", "android": "https://dc.lft.to/lastmile_qr_scan"}, "fusion_lat": 0.0}, {"lat": 38.929945833333335, "lon": -77.03804116666667, "is_disabled": 0, "fusion_lon": 0.0, "is_reserved": 0, "name": "c89f62c98ab74792c32f7fc936b0607a", "type": "electric_scooter", "bike_id": "c89f62c98ab74792c32f7fc936b0607a", "rental_uris": {"ios": "https://dc.lft.to/lastmile_qr_scan", "android": "https://dc.lft.to/lastmile_qr_scan"}, "fusion_lat": 0.0}, {"lat": 38.89831616666667, "lon": -77.03371266666667, "is_disabled": 0, "fusion_lon": 0.0, "is_reserved": 0, "name": "f9469684324752f70347505c466f0cb1", "type": "electric_scooter", "bike_id": "f9469684324752f70347505c466f0cb1", "rental_uris": {"ios": "https://dc.lft.to/lastmile_qr_scan", "android": "https://dc.lft.to/lastmile_qr_scan"}, "fusion_lat": 0.0}, {"lat": 38.940219166666665, "lon": -76.97612816666667, "is_disabled": 0, "fusion_lon": 0.0, "is_reserved": 0, "name": "75c066beb40283a287b5556270190b24", "type": "electric_bike", "bike_id": "75c066beb40283a287b5556270190b24", "rental_uris": {"ios": "https://dc.lft.to/lastmile_qr_scan", "android": "https://dc.lft.to/lastmile_qr_scan"}, "fusion_lat": 0.0}, {"lat": 38.9247805, "lon": -77.0265605, "is_disabled": 0, "fusion_lon": 0.0, "is_reserved": 0, "name": "ad789d13e10fb696f5db9cef745800fe", "type": "electric_scooter", "bike_id": "ad789d13e10fb696f5db9cef745800fe", "rental_uris": {"ios": "https://dc.lft.to/lastmile_qr_scan", "android": "https://dc.lft.to/lastmile_qr_scan"}, "fusion_lat": 0.0}, {"lat": 38.916870833333334, "lon": -77.02954216666667, "is_disabled": 0, "fusion_lon": 0.0, "is_reserved": 0, "name": "fb0f4ec7e97eb0e38e44785edf66fd93", "type": "electric_scooter", "bike_id": "fb0f4ec7e97eb0e38e44785edf66fd93", "rental_uris": {"ios": "https://dc.lft.to/lastmile_qr_scan", "android": "https://dc.lft.to/lastmile_qr_scan"}, "fusion_lat": 0.0}, {"lat": 38.900744, "lon": -77.05156283333334, "is_disabled": 0, "fusion_lon": 0.0, "is_reserved": 0, "name": "fd9310ae38dab3b9df02d782b42ae1b9", "type": "electric_scooter", "bike_id": "fd9310ae38dab3b9df02d782b42ae1b9", "rental_uris": {"ios": "https://dc.lft.to/lastmile_qr_scan", "android": "https://dc.lft.to/lastmile_qr_scan"}, "fusion_lat": 0.0}, {"lat": 38.901726833333335, "lon": -76.9808185, "is_disabled": 0, "fusion_lon": 0.0, "is_reserved": 0, "name": "abe00117fc8b53685cb79fabd116d0ab", "type": "electric_scooter", "bike_id": "abe00117fc8b53685cb79fabd116d0ab", "rental_uris": {"ios": "https://dc.lft.to/lastmile_qr_scan", "android": "https://dc.lft.to/lastmile_qr_scan"}, "fusion_lat": 0.0}, {"lat": 38.89725283333333, "lon": -77.0481645, "is_disabled": 0, "fusion_lon": 0.0, "is_reserved": 0, "name": "6d3c8d202343fc72b5559736cba6ad5d", "type": "electric_scooter", "bike_id": "6d3c8d202343fc72b5559736cba6ad5d", "rental_uris": {"ios": "https://dc.lft.to/lastmile_qr_scan", "android": "https://dc.lft.to/lastmile_qr_scan"}, "fusion_lat": 0.0}, {"lat": 38.90243483333333, "lon": -77.01879333333333, "is_disabled": 0, "fusion_lon": 0.0, "is_reserved": 0, "name": "2f8c7b5bcef64c6ad8064a1a49f62832", "type": "electric_scooter", "bike_id": "2f8c7b5bcef64c6ad8064a1a49f62832", "rental_uris": {"ios": "https://dc.lft.to/lastmile_qr_scan", "android": "https://dc.lft.to/lastmile_qr_scan"}, "fusion_lat": 0.0}, {"lat": 38.900962, "lon": -77.05035966666667, "is_disabled": 0, "fusion_lon": 0.0, "is_reserved": 0, "name": "f1d40af60174097f320dbf1b1ea8e30d", "type": "electric_scooter", "bike_id": "f1d40af60174097f320dbf1b1ea8e30d", "rental_uris": {"ios": "https://dc.lft.to/lastmile_qr_scan", "android": "https://dc.lft.to/lastmile_qr_scan"}, "fusion_lat": 0.0}, {"lat": 38.9679605, "lon": -77.02429733333334, "is_disabled": 0, "fusion_lon": 0.0, "is_reserved": 0, "name": "24f6f2c05f64d2a5f679677e0004e047", "type": "electric_scooter", "bike_id": "24f6f2c05f64d2a5f679677e0004e047", "rental_uris": {"ios": "https://dc.lft.to/lastmile_qr_scan", "android": "https://dc.lft.to/lastmile_qr_scan"}, "fusion_lat": 0.0}, {"lat": 38.94184166666667, "lon": -77.02494483333334, "is_disabled": 0, "fusion_lon": 0.0, "is_reserved": 0, "name": "17d1bc0468a300ce2146c79f689aaa44", "type": "electric_scooter", "bike_id": "17d1bc0468a300ce2146c79f689aaa44", "rental_uris": {"ios": "https://dc.lft.to/lastmile_qr_scan", "android": "https://dc.lft.to/lastmile_qr_scan"}, "fusion_lat": 0.0}, {"lat": 38.895425333333336, "lon": -76.98337566666666, "is_disabled": 0, "fusion_lon": 0.0, "is_reserved": 0, "name": "c92bcfeebe747a904371a05b8d109314", "type": "electric_scooter", "bike_id": "c92bcfeebe747a904371a05b8d109314", "rental_uris": {"ios": "https://dc.lft.to/lastmile_qr_scan", "android": "https://dc.lft.to/lastmile_qr_scan"}, "fusion_lat": 0.0}, {"lat": 38.917496666666665, "lon": -77.02493966666667, "is_disabled": 0, "fusion_lon": 0.0, "is_reserved": 0, "name": "e38fca50fa60f1523930550c0a6a31ae", "type": "electric_scooter", "bike_id": "e38fca50fa60f1523930550c0a6a31ae", "rental_uris": {"ios": "https://dc.lft.to/lastmile_qr_scan", "android": "https://dc.lft.to/lastmile_qr_scan"}, "fusion_lat": 0.0}, {"lat": 38.9008025, "lon": -76.929604, "is_disabled": 0, "fusion_lon": 0.0, "is_reserved": 0, "name": "ed4c09b1ae3c3736a9663ec286302228", "type": "electric_scooter", "bike_id": "ed4c09b1ae3c3736a9663ec286302228", "rental_uris": {"ios": "https://dc.lft.to/lastmile_qr_scan", "android": "https://dc.lft.to/lastmile_qr_scan"}, "fusion_lat": 0.0}, {"lat": 38.90027766666667, "lon": -76.99137833333333, "is_disabled": 0, "fusion_lon": 0.0, "is_reserved": 0, "name": "6c55bf6efe6f77e14ef9bca1be723a32", "type": "electric_scooter", "bike_id": "6c55bf6efe6f77e14ef9bca1be723a32", "rental_uris": {"ios": "https://dc.lft.to/lastmile_qr_scan", "android": "https://dc.lft.to/lastmile_qr_scan"}, "fusion_lat": 0.0}, {"lat": 38.842791, "lon": -76.98842483333334, "is_disabled": 0, "fusion_lon": 0.0, "is_reserved": 0, "name": "5b8c3edd602bc91fd92f00ca20b2bd44", "type": "electric_bike", "bike_id": "5b8c3edd602bc91fd92f00ca20b2bd44", "rental_uris": {"ios": "https://dc.lft.to/lastmile_qr_scan", "android": "https://dc.lft.to/lastmile_qr_scan"}, "fusion_lat": 0.0}, {"lat": 38.921632833333334, "lon": -77.03828666666666, "is_disabled": 0, "fusion_lon": 0.0, "is_reserved": 0, "name": "0c1f48d6be5c97374c267b384ed9aab9", "type": "electric_scooter", "bike_id": "0c1f48d6be5c97374c267b384ed9aab9", "rental_uris": {"ios": "https://dc.lft.to/lastmile_qr_scan", "android": "https://dc.lft.to/lastmile_qr_scan"}, "fusion_lat": 0.0}, {"lat": 38.923386, "lon": -77.05227133333334, "is_disabled": 0, "fusion_lon": 0.0, "is_reserved": 0, "name": "abe5efa5210c37fab897bdb11c700b0e", "type": "electric_scooter", "bike_id": "abe5efa5210c37fab897bdb11c700b0e", "rental_uris": {"ios": "https://dc.lft.to/lastmile_qr_scan", "android": "https://dc.lft.to/lastmile_qr_scan"}, "fusion_lat": 0.0}, {"lat": 38.917145, "lon": -77.03548833333333, "is_disabled": 0, "fusion_lon": 0.0, "is_reserved": 0, "name": "a14bccabe3b32352022087f04fe1ecfb", "type": "electric_scooter", "bike_id": "a14bccabe3b32352022087f04fe1ecfb", "rental_uris": {"ios": "https://dc.lft.to/lastmile_qr_scan", "android": "https://dc.lft.to/lastmile_qr_scan"}, "fusion_lat": 0.0}, {"lat": 38.91040483333333, "lon": -77.04001433333333, "is_disabled": 0, "fusion_lon": 0.0, "is_reserved": 0, "name": "567ab875653c78ea838e6f91c05b3e00", "type": "electric_scooter", "bike_id": "567ab875653c78ea838e6f91c05b3e00", "rental_uris": {"ios": "https://dc.lft.to/lastmile_qr_scan", "android": "https://dc.lft.to/lastmile_qr_scan"}, "fusion_lat": 0.0}, {"lat": 38.90460216666666, "lon": -76.9852955, "is_disabled": 0, "fusion_lon": 0.0, "is_reserved": 0, "name": "9a400801551ccb0491c1f493b3ae709a", "type": "electric_scooter", "bike_id": "9a400801551ccb0491c1f493b3ae709a", "rental_uris": {"ios": "https://dc.lft.to/lastmile_qr_scan", "android": "https://dc.lft.to/lastmile_qr_scan"}, "fusion_lat": 0.0}, {"lat": 38.8923085, "lon": -77.04875783333334, "is_disabled": 0, "fusion_lon": 0.0, "is_reserved": 0, "name": "2e7005fbc84a3527b3d6e8b159c35e83", "type": "electric_scooter", "bike_id": "2e7005fbc84a3527b3d6e8b159c35e83", "rental_uris": {"ios": "https://dc.lft.to/lastmile_qr_scan", "android": "https://dc.lft.to/lastmile_qr_scan"}, "fusion_lat": 0.0}, {"lat": 38.91902283333334, "lon": -77.032055, "is_disabled": 0, "fusion_lon": 0.0, "is_reserved": 0, "name": "2e5c2cdd4fc9d9f73f58c13feca5cd5c", "type": "electric_scooter", "bike_id": "2e5c2cdd4fc9d9f73f58c13feca5cd5c", "rental_uris": {"ios": "https://dc.lft.to/lastmile_qr_scan", "android": "https://dc.lft.to/lastmile_qr_scan"}, "fusion_lat": 0.0}, {"lat": 38.961446, "lon": -77.02782333333333, "is_disabled": 0, "fusion_lon": 0.0, "is_reserved": 0, "name": "130cf1171f81137e3432c5ff5351cb71", "type": "electric_scooter", "bike_id": "130cf1171f81137e3432c5ff5351cb71", "rental_uris": {"ios": "https://dc.lft.to/lastmile_qr_scan", "android": "https://dc.lft.to/lastmile_qr_scan"}, "fusion_lat": 0.0}, {"lat": 38.91797233333333, "lon": -77.0271475, "is_disabled": 0, "fusion_lon": 0.0, "is_reserved": 0, "name": "1fd58bf9e2a18120d39a124af74fc1d0", "type": "electric_scooter", "bike_id": "1fd58bf9e2a18120d39a124af74fc1d0", "rental_uris": {"ios": "https://dc.lft.to/lastmile_qr_scan", "android": "https://dc.lft.to/lastmile_qr_scan"}, "fusion_lat": 0.0}, {"lat": 38.9038125, "lon": -76.97615233333333, "is_disabled": 0, "fusion_lon": 0.0, "is_reserved": 0, "name": "28cd149514f44e56deb5eea03614087f", "type": "electric_scooter", "bike_id": "28cd149514f44e56deb5eea03614087f", "rental_uris": {"ios": "https://dc.lft.to/lastmile_qr_scan", "android": "https://dc.lft.to/lastmile_qr_scan"}, "fusion_lat": 0.0}, {"lat": 38.9026305, "lon": -77.005805, "is_disabled": 0, "fusion_lon": 0.0, "is_reserved": 0, "name": "1c08baa287b794e86e16ca4f7b7915ec", "type": "electric_scooter", "bike_id": "1c08baa287b794e86e16ca4f7b7915ec", "rental_uris": {"ios": "https://dc.lft.to/lastmile_qr_scan", "android": "https://dc.lft.to/lastmile_qr_scan"}, "fusion_lat": 0.0}, {"lat": 38.928886, "lon": -77.03258416666667, "is_disabled": 0, "fusion_lon": 0.0, "is_reserved": 0, "name": "44551271a67bd51082940c6d30754c84", "type": "electric_scooter", "bike_id": "44551271a67bd51082940c6d30754c84", "rental_uris": {"ios": "https://dc.lft.to/lastmile_qr_scan", "android": "https://dc.lft.to/lastmile_qr_scan"}, "fusion_lat": 0.0}, {"lat": 38.921335666666664, "lon": -77.00946266666666, "is_disabled": 0, "fusion_lon": 0.0, "is_reserved": 0, "name": "3740484490cfd5f56083847ebf27978f", "type": "electric_scooter", "bike_id": "3740484490cfd5f56083847ebf27978f", "rental_uris": {"ios": "https://dc.lft.to/lastmile_qr_scan", "android": "https://dc.lft.to/lastmile_qr_scan"}, "fusion_lat": 0.0}, {"lat": 38.929065, "lon": -77.07300966666666, "is_disabled": 0, "fusion_lon": 0.0, "is_reserved": 0, "name": "d46526a5b1ac57c501151cb9f92355ab", "type": "electric_scooter", "bike_id": "d46526a5b1ac57c501151cb9f92355ab", "rental_uris": {"ios": "https://dc.lft.to/lastmile_qr_scan", "android": "https://dc.lft.to/lastmile_qr_scan"}, "fusion_lat": 0.0}, {"lat": 38.910083, "lon": -76.99414783333333, "is_disabled": 0, "fusion_lon": 0.0, "is_reserved": 0, "name": "27d948ced990d2a4dd19550e531fa231", "type": "electric_scooter", "bike_id": "27d948ced990d2a4dd19550e531fa231", "rental_uris": {"ios": "https://dc.lft.to/lastmile_qr_scan", "android": "https://dc.lft.to/lastmile_qr_scan"}, "fusion_lat": 0.0}, {"lat": 38.90043583333333, "lon": -77.01317016666667, "is_disabled": 0, "fusion_lon": 0.0, "is_reserved": 0, "name": "270fd57d19d3468129d9525fcbe0815d", "type": "electric_scooter", "bike_id": "270fd57d19d3468129d9525fcbe0815d", "rental_uris": {"ios": "https://dc.lft.to/lastmile_qr_scan", "android": "https://dc.lft.to/lastmile_qr_scan"}, "fusion_lat": 0.0}, {"lat": 38.906977, "lon": -77.03308483333333, "is_disabled": 0, "fusion_lon": 0.0, "is_reserved": 0, "name": "6f011e2ded70fa7ebe3202c6126194dc", "type": "electric_scooter", "bike_id": "6f011e2ded70fa7ebe3202c6126194dc", "rental_uris": {"ios": "https://dc.lft.to/lastmile_qr_scan", "android": "https://dc.lft.to/lastmile_qr_scan"}, "fusion_lat": 0.0}, {"lat": 38.907977, "lon": -77.02947266666666, "is_disabled": 0, "fusion_lon": 0.0, "is_reserved": 0, "name": "4e0c5ebb8bfa2b1f648605a645eb0980", "type": "electric_scooter", "bike_id": "4e0c5ebb8bfa2b1f648605a645eb0980", "rental_uris": {"ios": "https://dc.lft.to/lastmile_qr_scan", "android": "https://dc.lft.to/lastmile_qr_scan"}, "fusion_lat": 0.0}, {"lat": 38.905531, "lon": -77.02499083333333, "is_disabled": 0, "fusion_lon": 0.0, "is_reserved": 0, "name": "f041ca6b9f9172f97cbc6f899040894c", "type": "electric_scooter", "bike_id": "f041ca6b9f9172f97cbc6f899040894c", "rental_uris": {"ios": "https://dc.lft.to/lastmile_qr_scan", "android": "https://dc.lft.to/lastmile_qr_scan"}, "fusion_lat": 0.0}, {"lat": 38.9190695, "lon": -77.031946, "is_disabled": 0, "fusion_lon": 0.0, "is_reserved": 0, "name": "12db00e0f09ad3e8364b294ddadb2793", "type": "electric_scooter", "bike_id": "12db00e0f09ad3e8364b294ddadb2793", "rental_uris": {"ios": "https://dc.lft.to/lastmile_qr_scan", "android": "https://dc.lft.to/lastmile_qr_scan"}, "fusion_lat": 0.0}, {"lat": 38.925495166666664, "lon": -77.00071133333333, "is_disabled": 0, "fusion_lon": 0.0, "is_reserved": 0, "name": "c1b7e5e96e3bab5fdb8e121b63f8b7a9", "type": "electric_scooter", "bike_id": "c1b7e5e96e3bab5fdb8e121b63f8b7a9", "rental_uris": {"ios": "https://dc.lft.to/lastmile_qr_scan", "android": "https://dc.lft.to/lastmile_qr_scan"}, "fusion_lat": 0.0}, {"lat": 38.926551833333335, "lon": -77.03720383333334, "is_disabled": 0, "fusion_lon": 0.0, "is_reserved": 0, "name": "08bbf8c3b9c946c9e66c3bf930d945db", "type": "electric_scooter", "bike_id": "08bbf8c3b9c946c9e66c3bf930d945db", "rental_uris": {"ios": "https://dc.lft.to/lastmile_qr_scan", "android": "https://dc.lft.to/lastmile_qr_scan"}, "fusion_lat": 0.0}, {"lat": 38.91799783333333, "lon": -77.03448233333333, "is_disabled": 0, "fusion_lon": 0.0, "is_reserved": 0, "name": "9e2e83a884115d884baec7c75a1d1f8d", "type": "electric_scooter", "bike_id": "9e2e83a884115d884baec7c75a1d1f8d", "rental_uris": {"ios": "https://dc.lft.to/lastmile_qr_scan", "android": "https://dc.lft.to/lastmile_qr_scan"}, "fusion_lat": 0.0}, {"lat": 38.921032, "lon": -77.03245183333334, "is_disabled": 0, "fusion_lon": 0.0, "is_reserved": 0, "name": "add8d783d65a502c1f3faac35e021552", "type": "electric_scooter", "bike_id": "add8d783d65a502c1f3faac35e021552", "rental_uris": {"ios": "https://dc.lft.to/lastmile_qr_scan", "android": "https://dc.lft.to/lastmile_qr_scan"}, "fusion_lat": 0.0}, {"lat": 38.909252, "lon": -76.99964683333333, "is_disabled": 0, "fusion_lon": 0.0, "is_reserved": 0, "name": "dc25853efe00b7258c01fdef453ec72c", "type": "electric_scooter", "bike_id": "dc25853efe00b7258c01fdef453ec72c", "rental_uris": {"ios": "https://dc.lft.to/lastmile_qr_scan", "android": "https://dc.lft.to/lastmile_qr_scan"}, "fusion_lat": 0.0}, {"lat": 38.893455833333334, "lon": -76.95229283333333, "is_disabled": 0, "fusion_lon": 0.0, "is_reserved": 0, "name": "5f45f9027ac59e302426d6ef8adb660a", "type": "electric_scooter", "bike_id": "5f45f9027ac59e302426d6ef8adb660a", "rental_uris": {"ios": "https://dc.lft.to/lastmile_qr_scan", "android": "https://dc.lft.to/lastmile_qr_scan"}, "fusion_lat": 0.0}, {"lat": 38.89599033333333, "lon": -77.01335433333334, "is_disabled": 0, "fusion_lon": 0.0, "is_reserved": 0, "name": "cedd1ca9e7af6691d4a3dc6b94298984", "type": "electric_scooter", "bike_id": "cedd1ca9e7af6691d4a3dc6b94298984", "rental_uris": {"ios": "https://dc.lft.to/lastmile_qr_scan", "android": "https://dc.lft.to/lastmile_qr_scan"}, "fusion_lat": 0.0}, {"lat": 38.9734925, "lon": -77.0278605, "is_disabled": 0, "fusion_lon": 0.0, "is_reserved": 0, "name": "6537dd0da56d56ab0a96a1ee9302d78d", "type": "electric_scooter", "bike_id": "6537dd0da56d56ab0a96a1ee9302d78d", "rental_uris": {"ios": "https://dc.lft.to/lastmile_qr_scan", "android": "https://dc.lft.to/lastmile_qr_scan"}, "fusion_lat": 0.0}, {"lat": 38.900186166666664, "lon": -76.99449166666666, "is_disabled": 0, "fusion_lon": 0.0, "is_reserved": 0, "name": "a8e49719e6a9227d9b48b1b26446e4ed", "type": "electric_scooter", "bike_id": "a8e49719e6a9227d9b48b1b26446e4ed", "rental_uris": {"ios": "https://dc.lft.to/lastmile_qr_scan", "android": "https://dc.lft.to/lastmile_qr_scan"}, "fusion_lat": 0.0}, {"lat": 38.898715333333335, "lon": -77.05011766666667, "is_disabled": 0, "fusion_lon": 0.0, "is_reserved": 0, "name": "ed932648d97214d44b028c716ccd4cc8", "type": "electric_scooter", "bike_id": "ed932648d97214d44b028c716ccd4cc8", "rental_uris": {"ios": "https://dc.lft.to/lastmile_qr_scan", "android": "https://dc.lft.to/lastmile_qr_scan"}, "fusion_lat": 0.0}, {"lat": 38.87268316666667, "lon": -77.0136205, "is_disabled": 0, "fusion_lon": 0.0, "is_reserved": 0, "name": "63e53d0b4dd5dbc8b1abfdd6e6d5b790", "type": "electric_scooter", "bike_id": "63e53d0b4dd5dbc8b1abfdd6e6d5b790", "rental_uris": {"ios": "https://dc.lft.to/lastmile_qr_scan", "android": "https://dc.lft.to/lastmile_qr_scan"}, "fusion_lat": 0.0}, {"lat": 38.8695555, "lon": -76.97850083333333, "is_disabled": 0, "fusion_lon": 0.0, "is_reserved": 0, "name": "3bd47593e8881d1235234c1c1e5ff66e", "type": "electric_scooter", "bike_id": "3bd47593e8881d1235234c1c1e5ff66e", "rental_uris": {"ios": "https://dc.lft.to/lastmile_qr_scan", "android": "https://dc.lft.to/lastmile_qr_scan"}, "fusion_lat": 0.0}, {"lat": 38.94248866666667, "lon": -77.03629483333333, "is_disabled": 0, "fusion_lon": 0.0, "is_reserved": 0, "name": "46032a57757d8c2e24388b93eeee9e3e", "type": "electric_scooter", "bike_id": "46032a57757d8c2e24388b93eeee9e3e", "rental_uris": {"ios": "https://dc.lft.to/lastmile_qr_scan", "android": "https://dc.lft.to/lastmile_qr_scan"}, "fusion_lat": 0.0}, {"lat": 38.91693266666667, "lon": -77.03766466666667, "is_disabled": 0, "fusion_lon": 0.0, "is_reserved": 0, "name": "18646564ad607184c37d5bca30167ad3", "type": "electric_bike", "bike_id": "18646564ad607184c37d5bca30167ad3", "rental_uris": {"ios": "https://dc.lft.to/lastmile_qr_scan", "android": "https://dc.lft.to/lastmile_qr_scan"}, "fusion_lat": 0.0}, {"lat": 38.87371516666666, "lon": -77.00086883333333, "is_disabled": 0, "fusion_lon": 0.0, "is_reserved": 0, "name": "f6d0166fd76fe72c12d3da070def71fd", "type": "electric_scooter", "bike_id": "f6d0166fd76fe72c12d3da070def71fd", "rental_uris": {"ios": "https://dc.lft.to/lastmile_qr_scan", "android": "https://dc.lft.to/lastmile_qr_scan"}, "fusion_lat": 0.0}, {"lat": 38.89495083333333, "lon": -77.00358533333333, "is_disabled": 0, "fusion_lon": 0.0, "is_reserved": 0, "name": "69384cb87e5d72a4365b4df43ed4d0c3", "type": "electric_scooter", "bike_id": "69384cb87e5d72a4365b4df43ed4d0c3", "rental_uris": {"ios": "https://dc.lft.to/lastmile_qr_scan", "android": "https://dc.lft.to/lastmile_qr_scan"}, "fusion_lat": 0.0}, {"lat": 38.89767166666667, "lon": -77.0269925, "is_disabled": 0, "fusion_lon": 0.0, "is_reserved": 0, "name": "879f00e78a4107c052bdf46df2a1f8dd", "type": "electric_scooter", "bike_id": "879f00e78a4107c052bdf46df2a1f8dd", "rental_uris": {"ios": "https://dc.lft.to/lastmile_qr_scan", "android": "https://dc.lft.to/lastmile_qr_scan"}, "fusion_lat": 0.0}, {"lat": 38.917053, "lon": -77.02392616666667, "is_disabled": 0, "fusion_lon": 0.0, "is_reserved": 0, "name": "0cd098936e2e132e0eb2ed54c5cb8ece", "type": "electric_scooter", "bike_id": "0cd098936e2e132e0eb2ed54c5cb8ece", "rental_uris": {"ios": "https://dc.lft.to/lastmile_qr_scan", "android": "https://dc.lft.to/lastmile_qr_scan"}, "fusion_lat": 0.0}, {"lat": 38.900745, "lon": -77.04913166666667, "is_disabled": 0, "fusion_lon": 0.0, "is_reserved": 0, "name": "1082b335aa7b4c860c468a5ce8313585", "type": "electric_scooter", "bike_id": "1082b335aa7b4c860c468a5ce8313585", "rental_uris": {"ios": "https://dc.lft.to/lastmile_qr_scan", "android": "https://dc.lft.to/lastmile_qr_scan"}, "fusion_lat": 0.0}, {"lat": 38.89235816666667, "lon": -77.0487675, "is_disabled": 0, "fusion_lon": 0.0, "is_reserved": 0, "name": "6989c3d071640fcc21e2d7428b03757b", "type": "electric_scooter", "bike_id": "6989c3d071640fcc21e2d7428b03757b", "rental_uris": {"ios": "https://dc.lft.to/lastmile_qr_scan", "android": "https://dc.lft.to/lastmile_qr_scan"}, "fusion_lat": 0.0}, {"lat": 38.88258233333333, "lon": -77.0055615, "is_disabled": 0, "fusion_lon": 0.0, "is_reserved": 0, "name": "68cc5c93f311d095d87b82b734297ef3", "type": "electric_scooter", "bike_id": "68cc5c93f311d095d87b82b734297ef3", "rental_uris": {"ios": "https://dc.lft.to/lastmile_qr_scan", "android": "https://dc.lft.to/lastmile_qr_scan"}, "fusion_lat": 0.0}, {"lat": 38.954269833333335, "lon": -77.01853233333334, "is_disabled": 0, "fusion_lon": 0.0, "is_reserved": 0, "name": "137a357084717966ca1695df0975fcb4", "type": "electric_scooter", "bike_id": "137a357084717966ca1695df0975fcb4", "rental_uris": {"ios": "https://dc.lft.to/lastmile_qr_scan", "android": "https://dc.lft.to/lastmile_qr_scan"}, "fusion_lat": 0.0}, {"lat": 38.994928333333334, "lon": -77.0779185, "is_disabled": 0, "fusion_lon": 0.0, "is_reserved": 0, "name": "78580e84adad705f4663f86a2a5597b4", "type": "electric_bike", "bike_id": "78580e84adad705f4663f86a2a5597b4", "rental_uris": {"ios": "https://dc.lft.to/lastmile_qr_scan", "android": "https://dc.lft.to/lastmile_qr_scan"}, "fusion_lat": 0.0}, {"lat": 38.91929733333333, "lon": -77.03153583333334, "is_disabled": 0, "fusion_lon": 0.0, "is_reserved": 0, "name": "fdce8571153ea822689a096ff32efc62", "type": "electric_scooter", "bike_id": "fdce8571153ea822689a096ff32efc62", "rental_uris": {"ios": "https://dc.lft.to/lastmile_qr_scan", "android": "https://dc.lft.to/lastmile_qr_scan"}, "fusion_lat": 0.0}, {"lat": 38.920524, "lon": -77.041862, "is_disabled": 0, "fusion_lon": 0.0, "is_reserved": 0, "name": "a50692394618a56bcef5dac5b9d6f6b9", "type": "electric_scooter", "bike_id": "a50692394618a56bcef5dac5b9d6f6b9", "rental_uris": {"ios": "https://dc.lft.to/lastmile_qr_scan", "android": "https://dc.lft.to/lastmile_qr_scan"}, "fusion_lat": 0.0}, {"lat": 38.87687616666667, "lon": -77.003405, "is_disabled": 0, "fusion_lon": 0.0, "is_reserved": 0, "name": "2b526ffad2814bde55e52a11f889215b", "type": "electric_scooter", "bike_id": "2b526ffad2814bde55e52a11f889215b", "rental_uris": {"ios": "https://dc.lft.to/lastmile_qr_scan", "android": "https://dc.lft.to/lastmile_qr_scan"}, "fusion_lat": 0.0}, {"lat": 38.897238, "lon": -77.03302533333333, "is_disabled": 0, "fusion_lon": 0.0, "is_reserved": 0, "name": "f1c87a95ac3f249764842a89ebb5d385", "type": "electric_scooter", "bike_id": "f1c87a95ac3f249764842a89ebb5d385", "rental_uris": {"ios": "https://dc.lft.to/lastmile_qr_scan", "android": "https://dc.lft.to/lastmile_qr_scan"}, "fusion_lat": 0.0}, {"lat": 38.919854666666666, "lon": -77.01784133333334, "is_disabled": 0, "fusion_lon": 0.0, "is_reserved": 0, "name": "b325c8bc526c9fbbd9e28714c93431e6", "type": "electric_scooter", "bike_id": "b325c8bc526c9fbbd9e28714c93431e6", "rental_uris": {"ios": "https://dc.lft.to/lastmile_qr_scan", "android": "https://dc.lft.to/lastmile_qr_scan"}, "fusion_lat": 0.0}, {"lat": 38.90709116666667, "lon": -77.03297533333334, "is_disabled": 0, "fusion_lon": 0.0, "is_reserved": 0, "name": "3df39ca4f5600f30dd6f6067ee59f1e6", "type": "electric_scooter", "bike_id": "3df39ca4f5600f30dd6f6067ee59f1e6", "rental_uris": {"ios": "https://dc.lft.to/lastmile_qr_scan", "android": "https://dc.lft.to/lastmile_qr_scan"}, "fusion_lat": 0.0}, {"lat": 38.90729133333333, "lon": -77.07628333333334, "is_disabled": 0, "fusion_lon": 0.0, "is_reserved": 0, "name": "f7cb66fbbdf55b2070125863521a69c1", "type": "electric_scooter", "bike_id": "f7cb66fbbdf55b2070125863521a69c1", "rental_uris": {"ios": "https://dc.lft.to/lastmile_qr_scan", "android": "https://dc.lft.to/lastmile_qr_scan"}, "fusion_lat": 0.0}, {"lat": 38.91118916666667, "lon": -77.02199416666667, "is_disabled": 0, "fusion_lon": 0.0, "is_reserved": 0, "name": "8d1200e036116f55921ee9af7c2600dd", "type": "electric_scooter", "bike_id": "8d1200e036116f55921ee9af7c2600dd", "rental_uris": {"ios": "https://dc.lft.to/lastmile_qr_scan", "android": "https://dc.lft.to/lastmile_qr_scan"}, "fusion_lat": 0.0}, {"lat": 38.9168105, "lon": -77.03684166666666, "is_disabled": 0, "fusion_lon": 0.0, "is_reserved": 0, "name": "76cd16f29a4e018d7e123a8696557cc0", "type": "electric_scooter", "bike_id": "76cd16f29a4e018d7e123a8696557cc0", "rental_uris": {"ios": "https://dc.lft.to/lastmile_qr_scan", "android": "https://dc.lft.to/lastmile_qr_scan"}, "fusion_lat": 0.0}, {"lat": 38.89218916666667, "lon": -77.043289, "is_disabled": 0, "fusion_lon": 0.0, "is_reserved": 0, "name": "8a362f80a8a0dddb83a07a69294851b0", "type": "electric_scooter", "bike_id": "8a362f80a8a0dddb83a07a69294851b0", "rental_uris": {"ios": "https://dc.lft.to/lastmile_qr_scan", "android": "https://dc.lft.to/lastmile_qr_scan"}, "fusion_lat": 0.0}, {"lat": 38.92949083333333, "lon": -77.02757933333334, "is_disabled": 0, "fusion_lon": 0.0, "is_reserved": 0, "name": "c06e265dada2c6d5d2607c303a913778", "type": "electric_scooter", "bike_id": "c06e265dada2c6d5d2607c303a913778", "rental_uris": {"ios": "https://dc.lft.to/lastmile_qr_scan", "android": "https://dc.lft.to/lastmile_qr_scan"}, "fusion_lat": 0.0}, {"lat": 38.914178666666665, "lon": -77.02177783333333, "is_disabled": 0, "fusion_lon": 0.0, "is_reserved": 0, "name": "2e49b5e5596407b6109d74683f21d810", "type": "electric_scooter", "bike_id": "2e49b5e5596407b6109d74683f21d810", "rental_uris": {"ios": "https://dc.lft.to/lastmile_qr_scan", "android": "https://dc.lft.to/lastmile_qr_scan"}, "fusion_lat": 0.0}, {"lat": 38.90850966666667, "lon": -77.03256833333333, "is_disabled": 0, "fusion_lon": 0.0, "is_reserved": 0, "name": "7250ec1064b4f4fd171b262934f8b643", "type": "electric_scooter", "bike_id": "7250ec1064b4f4fd171b262934f8b643", "rental_uris": {"ios": "https://dc.lft.to/lastmile_qr_scan", "android": "https://dc.lft.to/lastmile_qr_scan"}, "fusion_lat": 0.0}, {"lat": 38.9052105, "lon": -77.06592766666667, "is_disabled": 0, "fusion_lon": 0.0, "is_reserved": 0, "name": "e96b9e7287d147408e5d4de1439dea72", "type": "electric_scooter", "bike_id": "e96b9e7287d147408e5d4de1439dea72", "rental_uris": {"ios": "https://dc.lft.to/lastmile_qr_scan", "android": "https://dc.lft.to/lastmile_qr_scan"}, "fusion_lat": 0.0}, {"lat": 38.900536, "lon": -77.01331616666667, "is_disabled": 0, "fusion_lon": 0.0, "is_reserved": 0, "name": "b521cd4b272d54c03424611f27d54421", "type": "electric_scooter", "bike_id": "b521cd4b272d54c03424611f27d54421", "rental_uris": {"ios": "https://dc.lft.to/lastmile_qr_scan", "android": "https://dc.lft.to/lastmile_qr_scan"}, "fusion_lat": 0.0}, {"lat": 38.90242083333333, "lon": -77.01774183333333, "is_disabled": 0, "fusion_lon": 0.0, "is_reserved": 0, "name": "00f3f75296200dd805280b2c85b94365", "type": "electric_scooter", "bike_id": "00f3f75296200dd805280b2c85b94365", "rental_uris": {"ios": "https://dc.lft.to/lastmile_qr_scan", "android": "https://dc.lft.to/lastmile_qr_scan"}, "fusion_lat": 0.0}, {"lat": 38.8722625, "lon": -77.00578183333333, "is_disabled": 0, "fusion_lon": 0.0, "is_reserved": 0, "name": "bfa5a031fec7da3fb74c39b35762b3d4", "type": "electric_scooter", "bike_id": "bfa5a031fec7da3fb74c39b35762b3d4", "rental_uris": {"ios": "https://dc.lft.to/lastmile_qr_scan", "android": "https://dc.lft.to/lastmile_qr_scan"}, "fusion_lat": 0.0}, {"lat": 38.91266016666667, "lon": -77.0353835, "is_disabled": 0, "fusion_lon": 0.0, "is_reserved": 0, "name": "b617232122787e9bee84c31799a76aa2", "type": "electric_scooter", "bike_id": "b617232122787e9bee84c31799a76aa2", "rental_uris": {"ios": "https://dc.lft.to/lastmile_qr_scan", "android": "https://dc.lft.to/lastmile_qr_scan"}, "fusion_lat": 0.0}, {"lat": 38.88732916666667, "lon": -77.02384066666667, "is_disabled": 0, "fusion_lon": 0.0, "is_reserved": 0, "name": "2cbf021728067975f1312fa175a02ee6", "type": "electric_scooter", "bike_id": "2cbf021728067975f1312fa175a02ee6", "rental_uris": {"ios": "https://dc.lft.to/lastmile_qr_scan", "android": "https://dc.lft.to/lastmile_qr_scan"}, "fusion_lat": 0.0}, {"lat": 38.905096666666665, "lon": -77.04774116666667, "is_disabled": 0, "fusion_lon": 0.0, "is_reserved": 0, "name": "21e0c3a48587eb9c34289c4001034876", "type": "electric_scooter", "bike_id": "21e0c3a48587eb9c34289c4001034876", "rental_uris": {"ios": "https://dc.lft.to/lastmile_qr_scan", "android": "https://dc.lft.to/lastmile_qr_scan"}, "fusion_lat": 0.0}, {"lat": 38.9160055, "lon": -77.04164133333333, "is_disabled": 0, "fusion_lon": 0.0, "is_reserved": 0, "name": "bcca629fc0eac370a973b48f688c24ac", "type": "electric_scooter", "bike_id": "bcca629fc0eac370a973b48f688c24ac", "rental_uris": {"ios": "https://dc.lft.to/lastmile_qr_scan", "android": "https://dc.lft.to/lastmile_qr_scan"}, "fusion_lat": 0.0}, {"lat": 38.846116, "lon": -76.96913316666667, "is_disabled": 0, "fusion_lon": 0.0, "is_reserved": 0, "name": "15e65621a03cd5f7c17d210950ee3cc9", "type": "electric_bike", "bike_id": "15e65621a03cd5f7c17d210950ee3cc9", "rental_uris": {"ios": "https://dc.lft.to/lastmile_qr_scan", "android": "https://dc.lft.to/lastmile_qr_scan"}, "fusion_lat": 0.0}, {"lat": 38.89470766666667, "lon": -76.9859595, "is_disabled": 0, "fusion_lon": 0.0, "is_reserved": 0, "name": "466262c915f1b6bc56f96a155ec0e86f", "type": "electric_scooter", "bike_id": "466262c915f1b6bc56f96a155ec0e86f", "rental_uris": {"ios": "https://dc.lft.to/lastmile_qr_scan", "android": "https://dc.lft.to/lastmile_qr_scan"}, "fusion_lat": 0.0}, {"lat": 38.923076333333334, "lon": -77.03658333333334, "is_disabled": 0, "fusion_lon": 0.0, "is_reserved": 0, "name": "2d74687faccd418b07a1dbeff3b47e60", "type": "electric_scooter", "bike_id": "2d74687faccd418b07a1dbeff3b47e60", "rental_uris": {"ios": "https://dc.lft.to/lastmile_qr_scan", "android": "https://dc.lft.to/lastmile_qr_scan"}, "fusion_lat": 0.0}, {"lat": 38.922363, "lon": -77.03522533333333, "is_disabled": 0, "fusion_lon": 0.0, "is_reserved": 0, "name": "169b4da5f1a20f55dc8b21e2a32d280c", "type": "electric_scooter", "bike_id": "169b4da5f1a20f55dc8b21e2a32d280c", "rental_uris": {"ios": "https://dc.lft.to/lastmile_qr_scan", "android": "https://dc.lft.to/lastmile_qr_scan"}, "fusion_lat": 0.0}, {"lat": 38.80760983333333, "lon": -77.12983616666666, "is_disabled": 0, "fusion_lon": 0.0, "is_reserved": 0, "name": "9d88c73dab9f912583194310dbe47741", "type": "electric_bike", "bike_id": "9d88c73dab9f912583194310dbe47741", "rental_uris": {"ios": "https://dc.lft.to/lastmile_qr_scan", "android": "https://dc.lft.to/lastmile_qr_scan"}, "fusion_lat": 0.0}, {"lat": 38.881777666666665, "lon": -76.99262833333333, "is_disabled": 0, "fusion_lon": 0.0, "is_reserved": 0, "name": "cf3e0cd9282e46fc99e4c37ba0e8d64e", "type": "electric_scooter", "bike_id": "cf3e0cd9282e46fc99e4c37ba0e8d64e", "rental_uris": {"ios": "https://dc.lft.to/lastmile_qr_scan", "android": "https://dc.lft.to/lastmile_qr_scan"}, "fusion_lat": 0.0}, {"lat": 38.895447, "lon": -76.949552, "is_disabled": 0, "fusion_lon": 0.0, "is_reserved": 0, "name": "07ee57d85898f91501b0c426ced57b70", "type": "electric_scooter", "bike_id": "07ee57d85898f91501b0c426ced57b70", "rental_uris": {"ios": "https://dc.lft.to/lastmile_qr_scan", "android": "https://dc.lft.to/lastmile_qr_scan"}, "fusion_lat": 0.0}, {"lat": 38.90559066666667, "lon": -77.00733233333334, "is_disabled": 0, "fusion_lon": 0.0, "is_reserved": 0, "name": "a2462a46fae1bd6ef57cf8acaedfd7e9", "type": "electric_scooter", "bike_id": "a2462a46fae1bd6ef57cf8acaedfd7e9", "rental_uris": {"ios": "https://dc.lft.to/lastmile_qr_scan", "android": "https://dc.lft.to/lastmile_qr_scan"}, "fusion_lat": 0.0}, {"lat": 38.895531166666665, "lon": -76.948734, "is_disabled": 0, "fusion_lon": 0.0, "is_reserved": 0, "name": "6a8ff1e113fab853aa341bb493b31b64", "type": "electric_scooter", "bike_id": "6a8ff1e113fab853aa341bb493b31b64", "rental_uris": {"ios": "https://dc.lft.to/lastmile_qr_scan", "android": "https://dc.lft.to/lastmile_qr_scan"}, "fusion_lat": 0.0}, {"lat": 38.919021666666666, "lon": -77.032132, "is_disabled": 0, "fusion_lon": 0.0, "is_reserved": 0, "name": "c9e770f3c3826fbc0ac125b0a726e826", "type": "electric_scooter", "bike_id": "c9e770f3c3826fbc0ac125b0a726e826", "rental_uris": {"ios": "https://dc.lft.to/lastmile_qr_scan", "android": "https://dc.lft.to/lastmile_qr_scan"}, "fusion_lat": 0.0}, {"lat": 38.878211666666665, "lon": -77.02240616666667, "is_disabled": 0, "fusion_lon": 0.0, "is_reserved": 0, "name": "83d0cb4ddeda93ea3c51359fd5c62310", "type": "electric_scooter", "bike_id": "83d0cb4ddeda93ea3c51359fd5c62310", "rental_uris": {"ios": "https://dc.lft.to/lastmile_qr_scan", "android": "https://dc.lft.to/lastmile_qr_scan"}, "fusion_lat": 0.0}, {"lat": 38.918002333333334, "lon": -77.03443783333333, "is_disabled": 0, "fusion_lon": 0.0, "is_reserved": 0, "name": "f1d0f4026181180b2d5aeeed8abe4c53", "type": "electric_scooter", "bike_id": "f1d0f4026181180b2d5aeeed8abe4c53", "rental_uris": {"ios": "https://dc.lft.to/lastmile_qr_scan", "android": "https://dc.lft.to/lastmile_qr_scan"}, "fusion_lat": 0.0}, {"lat": 38.904189333333335, "lon": -77.02006766666666, "is_disabled": 0, "fusion_lon": 0.0, "is_reserved": 0, "name": "203a26b2e1be955bb75fc80d025c1d03", "type": "electric_scooter", "bike_id": "203a26b2e1be955bb75fc80d025c1d03", "rental_uris": {"ios": "https://dc.lft.to/lastmile_qr_scan", "android": "https://dc.lft.to/lastmile_qr_scan"}, "fusion_lat": 0.0}, {"lat": 38.902199833333334, "lon": -77.04699566666666, "is_disabled": 0, "fusion_lon": 0.0, "is_reserved": 0, "name": "a6c23f4a9b7bf4bedc418b7b7e9d6a29", "type": "electric_scooter", "bike_id": "a6c23f4a9b7bf4bedc418b7b7e9d6a29", "rental_uris": {"ios": "https://dc.lft.to/lastmile_qr_scan", "android": "https://dc.lft.to/lastmile_qr_scan"}, "fusion_lat": 0.0}, {"lat": 38.9170525, "lon": -77.0247755, "is_disabled": 0, "fusion_lon": 0.0, "is_reserved": 0, "name": "85f6fe3afae67f7c8297ffed38ce892d", "type": "electric_scooter", "bike_id": "85f6fe3afae67f7c8297ffed38ce892d", "rental_uris": {"ios": "https://dc.lft.to/lastmile_qr_scan", "android": "https://dc.lft.to/lastmile_qr_scan"}, "fusion_lat": 0.0},