{"data": {"bikes": [{"name": "5418c0f00143c9c1746d591fc5a36f98", "type": "electric_scooter", "lat": 38.9186905, "is_reserved": 0, "lon": -77.0231295, "fusion_lon": 0.0, "is_disabled": 0, "fusion_lat": 0.0, "bike_id": "5418c0f00143c9c1746d591fc5a36f98", "rental_uris": {"ios": "https://dc.lft.to/lastmile_qr_scan", "android": "https://dc.lft.to/lastmile_qr_scan"}}, {"name": "af1438755999d4dbefd2075d46841b41", "type": "electric_scooter", "lat": 38.90800433333333, "is_reserved": 0, "lon": -77.00034216666667, "fusion_lon": 0.0, "is_disabled": 0, "fusion_lat": 0.0, "bike_id": "af1438755999d4dbefd2075d46841b41", "rental_uris": {"ios": "https://dc.lft.to/lastmile_qr_scan", "android": "https://dc.lft.to/lastmile_qr_scan"}}, {"name": "6c6591381e048dbfebc27bc037b9c244", "type": "electric_scooter", "lat": 38.949361, "is_reserved": 0, "lon": -77.01933683333333, "fusion_lon": 0.0, "is_disabled": 0, "fusion_lat": 0.0, "bike_id": "6c6591381e048dbfebc27bc037b9c244", "rental_uris": {"ios": "https://dc.lft.to/lastmile_qr_scan", "android": "https://dc.lft.to/lastmile_qr_scan"}}, {"name": "50a1aa0819544148d761286117abbbab", "type": "electric_scooter", "lat": 38.90981466666667, "is_reserved": 0, "lon": -77.067072, "fusion_lon": 0.0, "is_disabled": 0, "fusion_lat": 0.0, "bike_id": "50a1aa0819544148d761286117abbbab", "rental_uris": {"ios": "https://dc.lft.to/lastmile_qr_scan", "android": "https://dc.lft.to/lastmile_qr_scan"}}, {"name": "b69d465f4cac10bf3a548f0e86371f02", "type": "electric_scooter", "lat": 38.93117383333333, "is_reserved": 0, "lon": -77.02096783333333, "fusion_lon": 0.0, "is_disabled": 0, "fusion_lat": 0.0, "bike_id": "b69d465f4cac10bf3a548f0e86371f02", "rental_uris": {"ios": "https://dc.lft.to/lastmile_qr_scan", "android": "https://dc.lft.to/lastmile_qr_scan"}}, {"name": "fbaa620cf549eacec0a4f355044b4406", "type": "electric_scooter", "lat": 38.92087183333334, "is_reserved": 0, "lon": -77.0238715, "fusion_lon": 0.0, "is_disabled": 0, "fusion_lat": 0.0, "bike_id": "fbaa620cf549eacec0a4f355044b4406", "rental_uris": {"ios": "https://dc.lft.to/lastmile_qr_scan", "android": "https://dc.lft.to/lastmile_qr_scan"}}, {"name": "83b6ae98d7d6a59e9e5f2f83f3acf12f", "type": "electric_scooter", "lat": 38.911264, "is_reserved": 0, "lon": -77.04419316666667, "fusion_lon": 0.0, "is_disabled": 0, "fusion_lat": 0.0, "bike_id": "83b6ae98d7d6a59e9e5f2f83f3acf12f", "rental_uris": {"ios": "https://dc.lft.to/lastmile_qr_scan", "android": "https://dc.lft.to/lastmile_qr_scan"}}, {"name": "bf64cbf60dc0896f5b0e06b36298082d", "type": "electric_scooter", "lat": 38.8965735, "is_reserved": 0, "lon": -76.9485965, "fusion_lon": 0.0, "is_disabled": 0, "fusion_lat": 0.0, "bike_id": "bf64cbf60dc0896f5b0e06b36298082d", "rental_uris": {"ios": "https://dc.lft.to/lastmile_qr_scan", "android": "https://dc.lft.to/lastmile_qr_scan"}}, {"name": "63fc4930dffd42e9b900e98298c22152", "type": "electric_scooter", "lat": 38.903685333333335, "is_reserved": 0, "lon": -77.018685, "fusion_lon": 0.0, "is_disabled": 0, "fusion_lat": 0.0, "bike_id": "63fc4930dffd42e9b900e98298c22152", "rental_uris": {"ios": "https://dc.lft.to/lastmile_qr_scan", "android": "https://dc.lft.to/lastmile_qr_scan"}}, {"name": "260e28aa8f01eae7c212b7b447618cac", "type": "electric_scooter", "lat": 38.916956666666664, "is_reserved": 0, "lon": -77.03589883333333, "fusion_lon": 0.0, "is_disabled": 0, "fusion_lat": 0.0, "bike_id": "260e28aa8f01eae7c212b7b447618cac", "rental_uris": {"ios": "https://dc.lft.to/lastmile_qr_scan", "android": "https://dc.lft.to/lastmile_qr_scan"}}, {"name": "0691decf57421c80ef4585fe62a9adcf", "type": "electric_scooter", "lat": 38.8622205, "is_reserved": 0, "lon": -76.99493166666667, "fusion_lon": 0.0, "is_disabled": 0, "fusion_lat": 0.0, "bike_id": "0691decf57421c80ef4585fe62a9adcf", "rental_uris": {"ios": "https://dc.lft.to/lastmile_qr_scan", "android": "https://dc.lft.to/lastmile_qr_scan"}}, {"name": "2d9ef808b44d8fab65e65b4ba6cafcb0", "type": "electric_scooter", "lat": 38.906265166666664, "is_reserved": 0, "lon": -76.98315083333334, "fusion_lon": 0.0, "is_disabled": 0, "fusion_lat": 0.0, "bike_id": "2d9ef808b44d8fab65e65b4ba6cafcb0", "rental_uris": {"ios": "https://dc.lft.to/lastmile_qr_scan", "android": "https://dc.lft.to/lastmile_qr_scan"}}, {"name": "ddd16268d5c49543aae502c3d2dc1314", "type": "electric_scooter", "lat": 38.919156666666666, "is_reserved": 0, "lon": -77.03190066666667, "fusion_lon": 0.0, "is_disabled": 0, "fusion_lat": 0.0, "bike_id": "ddd16268d5c49543aae502c3d2dc1314", "rental_uris": {"ios": "https://dc.lft.to/lastmile_qr_scan", "android": "https://dc.lft.to/lastmile_qr_scan"}}, {"name": "9bb3134a47e30208956b47db9d2dd367", "type": "electric_scooter", "lat": 38.89105816666667, "is_reserved": 0, "lon": -76.987057, "fusion_lon": 0.0, "is_disabled": 0, "fusion_lat": 0.0, "bike_id": "9bb3134a47e30208956b47db9d2dd367", "rental_uris": {"ios": "https://dc.lft.to/lastmile_qr_scan", "android": "https://dc.lft.to/lastmile_qr_scan"}}, {"name": "49491c913b2f4361c7f5af65ce89cfe8", "type": "electric_scooter", "lat": 38.932611666666666, "is_reserved": 0, "lon": -77.04004333333333, "fusion_lon": 0.0, "is_disabled": 0, "fusion_lat": 0.0, "bike_id": "49491c913b2f4361c7f5af65ce89cfe8", "rental_uris": {"ios": "https://dc.lft.to/lastmile_qr_scan", "android": "https://dc.lft.to/lastmile_qr_scan"}}, {"name": "3ec0adf2eb300cd1cb5cc3270df6bdc3", "type": "electric_scooter", "lat": 38.9049265, "is_reserved": 0, "lon": -77.03548816666667, "fusion_lon": 0.0, "is_disabled": 0, "fusion_lat": 0.0, "bike_id": "3ec0adf2eb300cd1cb5cc3270df6bdc3", "rental_uris": {"ios": "https://dc.lft.to/lastmile_qr_scan", "android": "https://dc.lft.to/lastmile_qr_scan"}}, {"name": "34ce59a2fd17653e143c45c6a80a5cc7", "type": "electric_scooter", "lat": 38.89205483333333, "is_reserved": 0, "lon": -76.98859366666667, "fusion_lon": 0.0, "is_disabled": 0, "fusion_lat": 0.0, "bike_id": "34ce59a2fd17653e143c45c6a80a5cc7", "rental_uris": {"ios": "https://dc.lft.to/lastmile_qr_scan", "android": "https://dc.lft.to/lastmile_qr_scan"}}, {"name": "7100e164febb477a18e234897f56785b", "type": "electric_scooter", "lat": 38.90243233333333, "is_reserved": 0, "lon": -77.00197866666667, "fusion_lon": 0.0, "is_disabled": 0, "fusion_lat": 0.0, "bike_id": "7100e164febb477a18e234897f56785b", "rental_uris": {"ios": "https://dc.lft.to/lastmile_qr_scan", "android": "https://dc.lft.to/lastmile_qr_scan"}}, {"name": "950fbc285424003ce8f6d44b707e0835", "type": "electric_scooter", "lat": 38.904281166666664, "is_reserved": 0, "lon": -77.05147016666666, "fusion_lon": 0.0, "is_disabled": 0, "fusion_lat": 0.0, "bike_id": "950fbc285424003ce8f6d44b707e0835", "rental_uris": {"ios": "https://dc.lft.to/lastmile_qr_scan", "android": "https://dc.lft.to/lastmile_qr_scan"}}, {"name": "4367d95382535a8cef446e870497433b", "type": "electric_bike", "lat": 38.936876166666664, "is_reserved": 0, "lon": -77.05646766666666, "fusion_lon": 0.0, "is_disabled": 0, "fusion_lat": 0.0, "bike_id": "4367d95382535a8cef446e870497433b", "rental_uris": {"ios": "https://dc.lft.to/lastmile_qr_scan", "android": "https://dc.lft.to/lastmile_qr_scan"}}, {"name": "0a2a43c1794c330caf418c3661f0a63f", "type": "electric_scooter", "lat": 38.91863466666667, "is_reserved": 0, "lon": -77.036585, "fusion_lon": 0.0, "is_disabled": 0, "fusion_lat": 0.0, "bike_id": "0a2a43c1794c330caf418c3661f0a63f", "rental_uris": {"ios": "https://dc.lft.to/lastmile_qr_scan", "android": "https://dc.lft.to/lastmile_qr_scan"}}, {"name": "53f62b738ec3aeac9d08025522eb5379", "type": "electric_scooter", "lat": 38.928982166666664, "is_reserved": 0, "lon": -77.03286183333333, "fusion_lon": 0.0, "is_disabled": 0, "fusion_lat": 0.0, "bike_id": "53f62b738ec3aeac9d08025522eb5379", "rental_uris": {"ios": "https://dc.lft.to/lastmile_qr_scan", "android": "https://dc.lft.to/lastmile_qr_scan"}}, {"name": "4cc15445c5a735a8274403bd543b7fd2", "type": "electric_scooter", "lat": 38.85710516666666, "is_reserved": 0, "lon": -76.98134416666667, "fusion_lon": 0.0, "is_disabled": 0, "fusion_lat": 0.0, "bike_id": "4cc15445c5a735a8274403bd543b7fd2", "rental_uris": {"ios": "https://dc.lft.to/lastmile_qr_scan", "android": "https://dc.lft.to/lastmile_qr_scan"}}, {"name": "3a27a65ed257d06e811b6d72d39cdb4e", "type": "electric_scooter", "lat": 38.91354616666667, "is_reserved": 0, "lon": -77.03207416666666, "fusion_lon": 0.0, "is_disabled": 0, "fusion_lat": 0.0, "bike_id": "3a27a65ed257d06e811b6d72d39cdb4e", "rental_uris": {"ios": "https://dc.lft.to/lastmile_qr_scan", "android": "https://dc.lft.to/lastmile_qr_scan"}}, {"name": "99d0ab5d17674d72871292b14e8d459b", "type": "electric_scooter", "lat": 38.935739166666664, "is_reserved": 0, "lon": -76.9910795, "fusion_lon": 0.0, "is_disabled": 0, "fusion_lat": 0.0, "bike_id": "99d0ab5d17674d72871292b14e8d459b", "rental_uris": {"ios": "https://dc.lft.to/lastmile_qr_scan", "android": "https://dc.lft.to/lastmile_qr_scan"}}, {"name": "52c9bd7ad5bbafd1c7ff5025738186cd", "type": "electric_scooter", "lat": 38.90252383333333, "is_reserved": 0, "lon": -77.002564, "fusion_lon": 0.0, "is_disabled": 0, "fusion_lat": 0.0, "bike_id": "52c9bd7ad5bbafd1c7ff5025738186cd", "rental_uris": {"ios": "https://dc.lft.to/lastmile_qr_scan", "android": "https://dc.lft.to/lastmile_qr_scan"}}, {"name": "fcdffaa517d82169b157fa661a4acb25", "type": "electric_scooter", "lat": 38.9223195, "is_reserved": 0, "lon": -77.042494, "fusion_lon": 0.0, "is_disabled": 0, "fusion_lat": 0.0, "bike_id": "fcdffaa517d82169b157fa661a4acb25", "rental_uris": {"ios": "https://dc.lft.to/lastmile_qr_scan", "android": "https://dc.lft.to/lastmile_qr_scan"}}, {"name": "502dae1e1da2e207429bf72df30351f8", "type": "electric_scooter", "lat": 38.92336683333333, "is_reserved": 0, "lon": -77.04172766666667, "fusion_lon": 0.0, "is_disabled": 0, "fusion_lat": 0.0, "bike_id": "502dae1e1da2e207429bf72df30351f8", "rental_uris": {"ios": "https://dc.lft.to/lastmile_qr_scan", "android": "https://dc.lft.to/lastmile_qr_scan"}}, {"name": "7b32ea80b581d4391546395cbd657003", "type": "electric_scooter", "lat": 38.9252705, "is_reserved": 0, "lon": -77.05543183333333, "fusion_lon": 0.0, "is_disabled": 0, "fusion_lat": 0.0, "bike_id": "7b32ea80b581d4391546395cbd657003", "rental_uris": {"ios": "https://dc.lft.to/lastmile_qr_scan", "android": "https://dc.lft.to/lastmile_qr_scan"}}, {"name": "68a7d89a9c34b26a4c9275affd823ab5", "type": "electric_scooter", "lat": 38.901447833333336, "is_reserved": 0, "lon": -76.93065866666667, "fusion_lon": 0.0, "is_disabled": 0, "fusion_lat": 0.0, "bike_id": "68a7d89a9c34b26a4c9275affd823ab5", "rental_uris": {"ios": "https://dc.lft.to/lastmile_qr_scan", "android": "https://dc.lft.to/lastmile_qr_scan"}}, {"name": "8e393351dceb80f3066beca201a246fa", "type": "electric_scooter", "lat": 38.918428666666664, "is_reserved": 0, "lon": -77.02328383333334, "fusion_lon": 0.0, "is_disabled": 0, "fusion_lat": 0.0, "bike_id": "8e393351dceb80f3066beca201a246fa", "rental_uris": {"ios": "https://dc.lft.to/lastmile_qr_scan", "android": "https://dc.lft.to/lastmile_qr_scan"}}, {"name": "21fd0fd8a597111a6cff9fdb63dfed93", "type": "electric_scooter", "lat": 38.922420333333335, "is_reserved": 0, "lon": -77.03351533333333, "fusion_lon": 0.0, "is_disabled": 0, "fusion_lat": 0.0, "bike_id": "21fd0fd8a597111a6cff9fdb63dfed93", "rental_uris": {"ios": "https://dc.lft.to/lastmile_qr_scan", "android": "https://dc.lft.to/lastmile_qr_scan"}}, {"name": "f06c6417cb81d9d4a63f6c362ce92e08", "type": "electric_scooter", "lat": 38.89395433333333, "is_reserved": 0, "lon": -76.948055, "fusion_lon": 0.0, "is_disabled": 0, "fusion_lat": 0.0, "bike_id": "f06c6417cb81d9d4a63f6c362ce92e08", "rental_uris": {"ios": "https://dc.lft.to/lastmile_qr_scan", "android": "https://dc.lft.to/lastmile_qr_scan"}}, {"name": "ba3aaa76e732048c71ee66ee9353f769", "type": "electric_scooter", "lat": 38.91586816666667, "is_reserved": 0, "lon": -77.04466066666667, "fusion_lon": 0.0, "is_disabled": 0, "fusion_lat": 0.0, "bike_id": "ba3aaa76e732048c71ee66ee9353f769", "rental_uris": {"ios": "https://dc.lft.to/lastmile_qr_scan", "android": "https://dc.lft.to/lastmile_qr_scan"}}, {"name": "4678f76ee626c0ee1b44aacfa685e722", "type": "electric_scooter", "lat": 38.8767275, "is_reserved": 0, "lon": -77.00063616666667, "fusion_lon": 0.0, "is_disabled": 0, "fusion_lat": 0.0, "bike_id": "4678f76ee626c0ee1b44aacfa685e722", "rental_uris": {"ios": "https://dc.lft.to/lastmile_qr_scan", "android": "https://dc.lft.to/lastmile_qr_scan"}}, {"name": "e5c209c14e7b47d2ce8494443486e60d", "type": "electric_scooter", "lat": 38.899687166666666, "is_reserved": 0, "lon": -77.0268305, "fusion_lon": 0.0, "is_disabled": 0, "fusion_lat": 0.0, "bike_id": "e5c209c14e7b47d2ce8494443486e60d", "rental_uris": {"ios": "https://dc.lft.to/lastmile_qr_scan", "android": "https://dc.lft.to/lastmile_qr_scan"}}, {"name": "82f5ae2ff60f0c91cb144d2eb78c08d1", "type": "electric_scooter", "lat": 38.89825916666667, "is_reserved": 0, "lon": -77.0291455, "fusion_lon": 0.0, "is_disabled": 0, "fusion_lat": 0.0, "bike_id": "82f5ae2ff60f0c91cb144d2eb78c08d1", "rental_uris": {"ios": "https://dc.lft.to/lastmile_qr_scan", "android": "https://dc.lft.to/lastmile_qr_scan"}}, {"name": "5d211924e8cd0df4389667d63c32776f", "type": "electric_scooter", "lat": 38.90670633333333, "is_reserved": 0, "lon": -77.0270705, "fusion_lon": 0.0, "is_disabled": 0, "fusion_lat": 0.0, "bike_id": "5d211924e8cd0df4389667d63c32776f", "rental_uris": {"ios": "https://dc.lft.to/lastmile_qr_scan", "android": "https://dc.lft.to/lastmile_qr_scan"}}, {"name": "ae130f9445d4e0968e81e435812afc72", "type": "electric_scooter", "lat": 38.9428165, "is_reserved": 0, "lon": -77.02504333333333, "fusion_lon": 0.0, "is_disabled": 0, "fusion_lat": 0.0, "bike_id": "ae130f9445d4e0968e81e435812afc72", "rental_uris": {"ios": "https://dc.lft.to/lastmile_qr_scan", "android": "https://dc.lft.to/lastmile_qr_scan"}}, {"name": "bd52841399bdf9f893d7810748dacc75", "type": "electric_scooter", "lat": 38.93413983333333, "is_reserved": 0, "lon": -77.041835, "fusion_lon": 0.0, "is_disabled": 0, "fusion_lat": 0.0, "bike_id": "bd52841399bdf9f893d7810748dacc75", "rental_uris": {"ios": "https://dc.lft.to/lastmile_qr_scan", "android": "https://dc.lft.to/lastmile_qr_scan"}}, {"name": "f4e73ed48b6f7226f39e716a83e6a9de", "type": "electric_scooter", "lat": 38.899716166666664, "is_reserved": 0, "lon": -76.93775966666666, "fusion_lon": 0.0, "is_disabled": 0, "fusion_lat": 0.0, "bike_id": "f4e73ed48b6f7226f39e716a83e6a9de", "rental_uris": {"ios": "https://dc.lft.to/lastmile_qr_scan", "android": "https://dc.lft.to/lastmile_qr_scan"}}, {"name": "f368ce0b3cecdcae3f6a2952acd95ded", "type": "electric_scooter", "lat": 38.90980666666667, "is_reserved": 0, "lon": -77.00900483333334, "fusion_lon": 0.0, "is_disabled": 0, "fusion_lat": 0.0, "bike_id": "f368ce0b3cecdcae3f6a2952acd95ded", "rental_uris": {"ios": "https://dc.lft.to/lastmile_qr_scan", "android": "https://dc.lft.to/lastmile_qr_scan"}}, {"name": "7f778a0fa65cbc46f21f87e59c8eda55", "type": "electric_scooter", "lat": 38.93496066666667, "is_reserved": 0, "lon": -77.0328025, "fusion_lon": 0.0, "is_disabled": 0, "fusion_lat": 0.0, "bike_id": "7f778a0fa65cbc46f21f87e59c8eda55", "rental_uris": {"ios": "https://dc.lft.to/lastmile_qr_scan", "android": "https://dc.lft.to/lastmile_qr_scan"}}, {"name": "67e1ea3b4802c723574eadc0a7fe52e8", "type": "electric_scooter", "lat": 38.892209666666666, "is_reserved": 0, "lon": -77.0453725, "fusion_lon": 0.0, "is_disabled": 0, "fusion_lat": 0.0, "bike_id": "67e1ea3b4802c723574eadc0a7fe52e8", "rental_uris": {"ios": "https://dc.lft.to/lastmile_qr_scan", "android": "https://dc.lft.to/lastmile_qr_scan"}}, {"name": "a55511c8f8852006324be1cee5a83748", "type": "electric_scooter", "lat": 38.90568566666666, "is_reserved": 0, "lon": -76.98148366666666, "fusion_lon": 0.0, "is_disabled": 0, "fusion_lat": 0.0, "bike_id": "a55511c8f8852006324be1cee5a83748", "rental_uris": {"ios": "https://dc.lft.to/lastmile_qr_scan", "android": "https://dc.lft.to/lastmile_qr_scan"}}, {"name": "bb673d2869f2a1b3c27c17e297e1370b", "type": "electric_scooter", "lat": 38.89746183333333, "is_reserved": 0, "lon": -77.02933566666667, "fusion_lon": 0.0, "is_disabled": 0, "fusion_lat": 0.0, "bike_id": "bb673d2869f2a1b3c27c17e297e1370b", "rental_uris": {"ios": "https://dc.lft.to/lastmile_qr_scan", "android": "https://dc.lft.to/lastmile_qr_scan"}}, {"name": "3da13d6c0024225b66c897b9889d0ee4", "type": "electric_scooter", "lat": 38.866595833333335, "is_reserved": 0, "lon": -76.98885083333333, "fusion_lon": 0.0, "is_disabled": 0, "fusion_lat": 0.0, "bike_id": "3da13d6c0024225b66c897b9889d0ee4", "rental_uris": {"ios": "https://dc.lft.to/lastmile_qr_scan", "android": "https://dc.lft.to/lastmile_qr_scan"}}, {"name": "61c6d4cf260336fa9f57b14513782dc9", "type": "electric_scooter", "lat": 38.894103666666666, "is_reserved": 0, "lon": -77.02981216666667, "fusion_lon": 0.0, "is_disabled": 0, "fusion_lat": 0.0, "bike_id": "61c6d4cf260336fa9f57b14513782dc9", "rental_uris": {"ios": "https://dc.lft.to/lastmile_qr_scan", "android": "https://dc.lft.to/lastmile_qr_scan"}}, {"name": "39492209a5a39521f014238b2d91c1cc", "type": "electric_scooter", "lat": 38.91026866666667, "is_reserved": 0, "lon": -77.0344135, "fusion_lon": 0.0, "is_disabled": 0, "fusion_lat": 0.0, "bike_id": "39492209a5a39521f014238b2d91c1cc", "rental_uris": {"ios": "https://dc.lft.to/lastmile_qr_scan", "android": "https://dc.lft.to/lastmile_qr_scan"}}, {"name": "6f77bb703611dd4d710e1b967ca75ccc", "type": "electric_bike", "lat": 38.952627166666666, "is_reserved": 0, "lon": -77.06986016666667, "fusion_lon": 0.0, "is_disabled": 0, "fusion_lat": 0.0, "bike_id": "6f77bb703611dd4d710e1b967ca75ccc", "rental_uris": {"ios": "https://dc.lft.to/lastmile_qr_scan", "android": "https://dc.lft.to/lastmile_qr_scan"}}, {"name": "23adbb50b7d94ec8ae9527b0cbd4dec5", "type": "electric_scooter", "lat": 38.91118133333333, "is_reserved": 0, "lon": -77.03859166666666, "fusion_lon": 0.0, "is_disabled": 0, "fusion_lat": 0.0, "bike_id": "23adbb50b7d94ec8ae9527b0cbd4dec5", "rental_uris": {"ios": "https://dc.lft.to/lastmile_qr_scan", "android": "https://dc.lft.to/lastmile_qr_scan"}}, {"name": "5b1f38f0419e1e824f7361f6340ee452", "type": "electric_bike", "lat": 38.85853183333333, "is_reserved": 0, "lon": -77.09749516666666, "fusion_lon": 0.0, "is_disabled": 0, "fusion_lat": 0.0, "bike_id": "5b1f38f0419e1e824f7361f6340ee452", "rental_uris": {"ios": "https://dc.lft.to/lastmile_qr_scan", "android": "https://dc.lft.to/lastmile_qr_scan"}}, {"name": "1a099a8ed93db4d8b30ae3ebbd568426", "type": "electric_scooter", "lat": 38.91268783333334, "is_reserved": 0, "lon": -77.03147266666667, "fusion_lon": 0.0, "is_disabled": 0, "fusion_lat": 0.0, "bike_id": "1a099a8ed93db4d8b30ae3ebbd568426", "rental_uris": {"ios": "https://dc.lft.to/lastmile_qr_scan", "android": "https://dc.lft.to/lastmile_qr_scan"}}, {"name": "b6602e2f18627c642acc3ff9427f4b61", "type": "electric_scooter", "lat": 38.9206645, "is_reserved": 0, "lon": -77.02431766666666, "fusion_lon": 0.0, "is_disabled": 0, "fusion_lat": 0.0, "bike_id": "b6602e2f18627c642acc3ff9427f4b61", "rental_uris": {"ios": "https://dc.lft.to/lastmile_qr_scan", "android": "https://dc.lft.to/lastmile_qr_scan"}}, {"name": "8ce12db344b5740783a076f5c41f55dd", "type": "electric_scooter", "lat": 38.909445, "is_reserved": 0, "lon": -77.032121, "fusion_lon": 0.0, "is_disabled": 0, "fusion_lat": 0.0, "bike_id": "8ce12db344b5740783a076f5c41f55dd", "rental_uris": {"ios": "https://dc.lft.to/lastmile_qr_scan", "android": "https://dc.lft.to/lastmile_qr_scan"}}, {"name": "21ea285e531158ebe63b40e7ebb8ab38", "type": "electric_scooter", "lat": 38.89056516666667, "is_reserved": 0, "lon": -76.98223216666666, "fusion_lon": 0.0, "is_disabled": 0, "fusion_lat": 0.0, "bike_id": "21ea285e531158ebe63b40e7ebb8ab38", "rental_uris": {"ios": "https://dc.lft.to/lastmile_qr_scan", "android": "https://dc.lft.to/lastmile_qr_scan"}}, {"name": "3ce2a16712ba9ab3033ea337a885d92f", "type": "electric_scooter", "lat": 38.86525833333334, "is_reserved": 0, "lon": -76.99029966666667, "fusion_lon": 0.0, "is_disabled": 0, "fusion_lat": 0.0, "bike_id": "3ce2a16712ba9ab3033ea337a885d92f", "rental_uris": {"ios": "https://dc.lft.to/lastmile_qr_scan", "android": "https://dc.lft.to/lastmile_qr_scan"}}, {"name": "c4d4187f2c1b352d22a2da584facd8c3", "type": "electric_scooter", "lat": 38.863763166666665, "is_reserved": 0, "lon": -76.99062166666667, "fusion_lon": 0.0, "is_disabled": 0, "fusion_lat": 0.0, "bike_id": "c4d4187f2c1b352d22a2da584facd8c3", "rental_uris": {"ios": "https://dc.lft.to/lastmile_qr_scan", "android": "https://dc.lft.to/lastmile_qr_scan"}}, {"name": "b9ffef22ec859456309c53078183cdd2", "type": "electric_scooter", "lat": 38.9127395, "is_reserved": 0, "lon": -77.03898116666667, "fusion_lon": 0.0, "is_disabled": 0, "fusion_lat": 0.0, "bike_id": "b9ffef22ec859456309c53078183cdd2", "rental_uris": {"ios": "https://dc.lft.to/lastmile_qr_scan", "android": "https://dc.lft.to/lastmile_qr_scan"}}, {"name": "a7cea86af6c7a22b8eb8f42a4cdc129c", "type": "electric_scooter", "lat": 38.93428566666667, "is_reserved": 0, "lon": -77.04425533333334, "fusion_lon": 0.0, "is_disabled": 0, "fusion_lat": 0.0, "bike_id": "a7cea86af6c7a22b8eb8f42a4cdc129c", "rental_uris": {"ios": "https://dc.lft.to/lastmile_qr_scan", "android": "https://dc.lft.to/lastmile_qr_scan"}}, {"name": "0f82712383fa6f607017bf854b6355e6", "type": "electric_scooter", "lat": 38.866572833333336, "is_reserved": 0, "lon": -76.98884633333333, "fusion_lon": 0.0, "is_disabled": 0, "fusion_lat": 0.0, "bike_id": "0f82712383fa6f607017bf854b6355e6", "rental_uris": {"ios": "https://dc.lft.to/lastmile_qr_scan", "android": "https://dc.lft.to/lastmile_qr_scan"}}, {"name": "0eedc14c20ac461ca54069bad064164f", "type": "electric_bike", "lat": 38.908626, "is_reserved": 0, "lon": -77.0807275, "fusion_lon": 0.0, "is_disabled": 0, "fusion_lat": 0.0, "bike_id": "0eedc14c20ac461ca54069bad064164f", "rental_uris": {"ios": "https://dc.lft.to/lastmile_qr_scan", "android": "https://dc.lft.to/lastmile_qr_scan"}}, {"name": "b44aaa2cbe572d388f7a9c74e3e6620f", "type": "electric_scooter", "lat": 38.92509666666667, "is_reserved": 0, "lon": -77.03323733333333, "fusion_lon": 0.0, "is_disabled": 0, "fusion_lat": 0.0, "bike_id": "b44aaa2cbe572d388f7a9c74e3e6620f", "rental_uris": {"ios": "https://dc.lft.to/lastmile_qr_scan", "android": "https://dc.lft.to/lastmile_qr_scan"}}, {"name": "8330d5d3b3675d850123cea11f25696e", "type": "electric_scooter", "lat": 38.92515233333334, "is_reserved": 0, "lon": -77.0017405, "fusion_lon": 0.0, "is_disabled": 0, "fusion_lat": 0.0, "bike_id": "8330d5d3b3675d850123cea11f25696e", "rental_uris": {"ios": "https://dc.lft.to/lastmile_qr_scan", "android": "https://dc.lft.to/lastmile_qr_scan"}}, {"name": "3cae326e3659315a21db1ddfbad46bd8", "type": "electric_scooter", "lat": 38.92356566666667, "is_reserved": 0, "lon": -77.05838833333334, "fusion_lon": 0.0, "is_disabled": 0, "fusion_lat": 0.0, "bike_id": "3cae326e3659315a21db1ddfbad46bd8", "rental_uris": {"ios": "https://dc.lft.to/lastmile_qr_scan", "android": "https://dc.lft.to/lastmile_qr_scan"}}, {"name": "bd059d935232b41fddbeac52ab24931d", "type": "electric_scooter", "lat": 38.92020566666667, "is_reserved": 0, "lon": -77.031554, "fusion_lon": 0.0, "is_disabled": 0, "fusion_lat": 0.0, "bike_id": "bd059d935232b41fddbeac52ab24931d", "rental_uris": {"ios": "https://dc.lft.to/lastmile_qr_scan", "android": "https://dc.lft.to/lastmile_qr_scan"}}, {"name": "159a714bf6e14fc0dc649d3cdfa25099", "type": "electric_scooter", "lat": 38.88376183333333, "is_reserved": 0, "lon": -76.923747, "fusion_lon": 0.0, "is_disabled": 0, "fusion_lat": 0.0, "bike_id": "159a714bf6e14fc0dc649d3cdfa25099", "rental_uris": {"ios": "https://dc.lft.to/lastmile_qr_scan", "android": "https://dc.lft.to/lastmile_qr_scan"}}, {"name": "93ed5a4b28adcccd8a911e0310846e17", "type": "electric_scooter", "lat": 38.919563, "is_reserved": 0, "lon": -77.03375616666666, "fusion_lon": 0.0, "is_disabled": 0, "fusion_lat": 0.0, "bike_id": "93ed5a4b28adcccd8a911e0310846e17", "rental_uris": {"ios": "https://dc.lft.to/lastmile_qr_scan", "android": "https://dc.lft.to/lastmile_qr_scan"}}, {"name": "d89595d5c8495e4cc0ed953c0099c61a", "type": "electric_scooter", "lat": 38.91437366666667, "is_reserved": 0, "lon": -77.0221015, "fusion_lon": 0.0, "is_disabled": 0, "fusion_lat": 0.0, "bike_id": "d89595d5c8495e4cc0ed953c0099c61a", "rental_uris": {"ios": "https://dc.lft.to/lastmile_qr_scan", "android": "https://dc.lft.to/lastmile_qr_scan"}}, {"name": "250dc9a2545477ec7309ab3ec33269e2", "type": "electric_scooter", "lat": 38.8961715, "is_reserved": 0, "lon": -77.009323, "fusion_lon": 0.0, "is_disabled": 0, "fusion_lat": 0.0, "bike_id": "250dc9a2545477ec7309ab3ec33269e2", "rental_uris": {"ios": "https://dc.lft.to/lastmile_qr_scan", "android": "https://dc.lft.to/lastmile_qr_scan"}}, {"name": "a79ce082f140e5be2a02419301c9053f", "type": "electric_scooter", "lat": 38.901305666666666, "is_reserved": 0, "lon": -77.0439825, "fusion_lon": 0.0, "is_disabled": 0, "fusion_lat": 0.0, "bike_id": "a79ce082f140e5be2a02419301c9053f", "rental_uris": {"ios": "https://dc.lft.to/lastmile_qr_scan", "android": "https://dc.lft.to/lastmile_qr_scan"}}, {"name": "35d4decdeae1f652da4dc26cb9552ce3", "type": "electric_scooter", "lat": 38.91908, "is_reserved": 0, "lon": -77.03097633333333, "fusion_lon": 0.0, "is_disabled": 0, "fusion_lat": 0.0, "bike_id": "35d4decdeae1f652da4dc26cb9552ce3", "rental_uris": {"ios": "https://dc.lft.to/lastmile_qr_scan", "android": "https://dc.lft.to/lastmile_qr_scan"}}, {"name": "3f852c22d8a339d76809a19969636f96", "type": "electric_scooter", "lat": 38.9126935, "is_reserved": 0, "lon": -77.03723666666667, "fusion_lon": 0.0, "is_disabled": 0, "fusion_lat": 0.0, "bike_id": "3f852c22d8a339d76809a19969636f96", "rental_uris": {"ios": "https://dc.lft.to/lastmile_qr_scan", "android": "https://dc.lft.to/lastmile_qr_scan"}}, {"name": "2969ccfdfaa0c61b094b4531124b2ad4", "type": "electric_scooter", "lat": 38.90247333333333, "is_reserved": 0, "lon": -77.0460735, "fusion_lon": 0.0, "is_disabled": 0, "fusion_lat": 0.0, "bike_id": "2969ccfdfaa0c61b094b4531124b2ad4", "rental_uris": {"ios": "https://dc.lft.to/lastmile_qr_scan", "android": "https://dc.lft.to/lastmile_qr_scan"}}, {"name": "6cd928bc79931186b3531a84493b3b48", "type": "electric_scooter", "lat": 38.93880166666667, "is_reserved": 0, "lon": -77.02468883333333, "fusion_lon": 0.0, "is_disabled": 0, "fusion_lat": 0.0, "bike_id": "6cd928bc79931186b3531a84493b3b48", "rental_uris": {"ios": "https://dc.lft.to/lastmile_qr_scan", "android": "https://dc.lft.to/lastmile_qr_scan"}}, {"name": "e9ad811ac719f16481e2e8363b526ab1", "type": "electric_scooter", "lat": 38.903953666666666, "is_reserved": 0, "lon": -76.989435, "fusion_lon": 0.0, "is_disabled": 0, "fusion_lat": 0.0, "bike_id": "e9ad811ac719f16481e2e8363b526ab1", "rental_uris": {"ios": "https://dc.lft.to/lastmile_qr_scan", "android": "https://dc.lft.to/lastmile_qr_scan"}}, {"name": "64b5eb73c96ec5d7e922ea16c5a0a345", "type": "electric_scooter", "lat": 38.9262885, "is_reserved": 0, "lon": -77.03791933333333, "fusion_lon": 0.0, "is_disabled": 0, "fusion_lat": 0.0, "bike_id": "64b5eb73c96ec5d7e922ea16c5a0a345", "rental_uris": {"ios": "https://dc.lft.to/lastmile_qr_scan", "android": "https://dc.lft.to/lastmile_qr_scan"}}, {"name": "64bcff25a07103262766d6d569f94887", "type": "electric_scooter", "lat": 38.8771355, "is_reserved": 0, "lon": -76.9938465, "fusion_lon": 0.0, "is_disabled": 0, "fusion_lat": 0.0, "bike_id": "64bcff25a07103262766d6d569f94887", "rental_uris": {"ios": "https://dc.lft.to/lastmile_qr_scan", "android": "https://dc.lft.to/lastmile_qr_scan"}}, {"name": "a00b0fd7dbf4cd594b0a13bc3ba8e019", "type": "electric_scooter", "lat": 38.903685333333335, "is_reserved": 0, "lon": -77.04032616666667, "fusion_lon": 0.0, "is_disabled": 0, "fusion_lat": 0.0, "bike_id": "a00b0fd7dbf4cd594b0a13bc3ba8e019", "rental_uris": {"ios": "https://dc.lft.to/lastmile_qr_scan", "android": "https://dc.lft.to/lastmile_qr_scan"}}, {"name": "7d13f5a70573fb4e56b2c5f970902f03", "type": "electric_scooter", "lat": 38.88772433333333, "is_reserved": 0, "lon": -76.92712116666667, "fusion_lon": 0.0, "is_disabled": 0, "fusion_lat": 0.0, "bike_id": "7d13f5a70573fb4e56b2c5f970902f03", "rental_uris": {"ios": "https://dc.lft.to/lastmile_qr_scan", "android": "https://dc.lft.to/lastmile_qr_scan"}}, {"name": "6cfc0d5104fb515417d39492e5b6ce6c", "type": "electric_scooter", "lat": 38.91330966666666, "is_reserved": 0, "lon": -77.04870016666666, "fusion_lon": 0.0, "is_disabled": 0, "fusion_lat": 0.0, "bike_id": "6cfc0d5104fb515417d39492e5b6ce6c", "rental_uris": {"ios": "https://dc.lft.to/lastmile_qr_scan", "android": "https://dc.lft.to/lastmile_qr_scan"}}, {"name": "b21c65fe0cd359023fca8c1a394679fa", "type": "electric_scooter", "lat": 38.89922466666667, "is_reserved": 0, "lon": -77.03265683333333, "fusion_lon": 0.0, "is_disabled": 0, "fusion_lat": 0.0, "bike_id": "b21c65fe0cd359023fca8c1a394679fa", "rental_uris": {"ios": "https://dc.lft.to/lastmile_qr_scan", "android": "https://dc.lft.to/lastmile_qr_scan"}}, {"name": "9c3135fb592c363907dec33ae6c31100", "type": "electric_scooter", "lat": 38.916989, "is_reserved": 0, "lon": -77.037633, "fusion_lon": 0.0, "is_disabled": 0, "fusion_lat": 0.0, "bike_id": "9c3135fb592c363907dec33ae6c31100", "rental_uris": {"ios": "https://dc.lft.to/lastmile_qr_scan", "android": "https://dc.lft.to/lastmile_qr_scan"}}, {"name": "edd26e58803795688290eaf085709c1a", "type": "electric_scooter", "lat": 38.8999725, "is_reserved": 0, "lon": -77.01033016666666, "fusion_lon": 0.0, "is_disabled": 0, "fusion_lat": 0.0, "bike_id": "edd26e58803795688290eaf085709c1a", "rental_uris": {"ios": "https://dc.lft.to/lastmile_qr_scan", "android": "https://dc.lft.to/lastmile_qr_scan"}}, {"name": "9068b2884077d01ccfbe81681dd5c811", "type": "electric_scooter", "lat": 38.93142316666667, "is_reserved": 0, "lon": -77.03848783333333, "fusion_lon": 0.0, "is_disabled": 0, "fusion_lat": 0.0, "bike_id": "9068b2884077d01ccfbe81681dd5c811", "rental_uris": {"ios": "https://dc.lft.to/lastmile_qr_scan", "android": "https://dc.lft.to/lastmile_qr_scan"}}, {"name": "69da2464eb17ca66d9c2f98f8c0319eb", "type": "electric_bike", "lat": 38.97082316666667, "is_reserved": 0, "lon": -77.06969833333333, "fusion_lon": 0.0, "is_disabled": 0, "fusion_lat": 0.0, "bike_id": "69da2464eb17ca66d9c2f98f8c0319eb", "rental_uris": {"ios": "https://dc.lft.to/lastmile_qr_scan", "android": "https://dc.lft.to/lastmile_qr_scan"}}, {"name": "2392035e8ac7f691d1e2a18b6f4a863a", "type": "electric_scooter", "lat": 38.93499466666667, "is_reserved": 0, "lon": -77.027244, "fusion_lon": 0.0, "is_disabled": 0, "fusion_lat": 0.0, "bike_id": "2392035e8ac7f691d1e2a18b6f4a863a", "rental_uris": {"ios": "https://dc.lft.to/lastmile_qr_scan", "android": "https://dc.lft.to/lastmile_qr_scan"}}, {"name": "f8572cab6caef6f0822d967899287fa7", "type": "electric_scooter", "lat": 38.90353566666667, "is_reserved": 0, "lon": -77.02511833333334, "fusion_lon": 0.0, "is_disabled": 0, "fusion_lat": 0.0, "bike_id": "f8572cab6caef6f0822d967899287fa7", "rental_uris": {"ios": "https://dc.lft.to/lastmile_qr_scan", "android": "https://dc.lft.to/lastmile_qr_scan"}}, {"name": "594a7991d133f8e93becda0d2ada3f00", "type": "electric_scooter", "lat": 38.918169166666665, "is_reserved": 0, "lon": -77.040267, "fusion_lon": 0.0, "is_disabled": 0, "fusion_lat": 0.0, "bike_id": "594a7991d133f8e93becda0d2ada3f00", "rental_uris": {"ios": "https://dc.lft.to/lastmile_qr_scan", "android": "https://dc.lft.to/lastmile_qr_scan"}}, {"name": "3815b885e673bf076dc67ca74054dac0", "type": "electric_scooter", "lat": 38.9483845, "is_reserved": 0, "lon": -77.02552183333333, "fusion_lon": 0.0, "is_disabled": 0, "fusion_lat": 0.0, "bike_id": "3815b885e673bf076dc67ca74054dac0", "rental_uris": {"ios": "https://dc.lft.to/lastmile_qr_scan", "android": "https://dc.lft.to/lastmile_qr_scan"}}, {"name": "00644bacf6313753318127c18edc5bff", "type": "electric_scooter", "lat": 38.877354833333335, "is_reserved": 0, "lon": -76.9727955, "fusion_lon": 0.0, "is_disabled": 0, "fusion_lat": 0.0, "bike_id": "00644bacf6313753318127c18edc5bff", "rental_uris": {"ios": "https://dc.lft.to/lastmile_qr_scan", "android": "https://dc.lft.to/lastmile_qr_scan"}}, {"name": "823e60279af8b1b424a15d18db0f295c", "type": "electric_scooter", "lat": 38.86200916666667, "is_reserved": 0, "lon": -76.99465316666667, "fusion_lon": 0.0, "is_disabled": 0, "fusion_lat": 0.0, "bike_id": "823e60279af8b1b424a15d18db0f295c", "rental_uris": {"ios": "https://dc.lft.to/lastmile_qr_scan", "android": "https://dc.lft.to/lastmile_qr_scan"}}, {"name": "6593c211588b750d3ecbbcdcf83ad2b3", "type": "electric_scooter", "lat": 38.9289455, "is_reserved": 0, "lon": -77.0250155, "fusion_lon": 0.0, "is_disabled": 0, "fusion_lat": 0.0, "bike_id": "6593c211588b750d3ecbbcdcf83ad2b3", "rental_uris": {"ios": "https://dc.lft.to/lastmile_qr_scan", "android": "https://dc.lft.to/lastmile_qr_scan"}}, {"name": "da2210eeb2d757ec7150c00378dab048", "type": "electric_scooter", "lat": 38.8790375, "is_reserved": 0, "lon": -77.01376133333333, "fusion_lon": 0.0, "is_disabled": 0, "fusion_lat": 0.0, "bike_id": "da2210eeb2d757ec7150c00378dab048", "rental_uris": {"ios": "https://dc.lft.to/lastmile_qr_scan", "android": "https://dc.lft.to/lastmile_qr_scan"}}, {"name": "d7fec6f68c0374fac120699d430cf489", "type": "electric_scooter", "lat": 38.89948, "is_reserved": 0, "lon": -77.02165466666666, "fusion_lon": 0.0, "is_disabled": 0, "fusion_lat": 0.0, "bike_id": "d7fec6f68c0374fac120699d430cf489", "rental_uris": {"ios": "https://dc.lft.to/lastmile_qr_scan", "android": "https://dc.lft.to/lastmile_qr_scan"}}, {"name": "dcf497f4c74a3789cbc74c9a5de934fb", "type": "electric_scooter", "lat": 38.91197366666667, "is_reserved": 0, "lon": -77.03219683333333, "fusion_lon": 0.0, "is_disabled": 0, "fusion_lat": 0.0, "bike_id": "dcf497f4c74a3789cbc74c9a5de934fb", "rental_uris": {"ios": "https://dc.lft.to/lastmile_qr_scan", "android": "https://dc.lft.to/lastmile_qr_scan"}}, {"name": "039c8ad338c4178ad072580143d3faf0", "type": "electric_bike", "lat": 38.93672633333333, "is_reserved": 0, "lon": -76.95205466666667, "fusion_lon": 0.0, "is_disabled": 0, "fusion_lat": 0.0, "bike_id": "039c8ad338c4178ad072580143d3faf0", "rental_uris": {"ios": "https://dc.lft.to/lastmile_qr_scan", "android": "https://dc.lft.to/lastmile_qr_scan"}}, {"name": "16178a1a7d2d83bb78e3abf74b29de02", "type": "electric_scooter", "lat": 38.91029066666667, "is_reserved": 0, "lon": -77.03198366666666, "fusion_lon": 0.0, "is_disabled": 0, "fusion_lat": 0.0, "bike_id": "16178a1a7d2d83bb78e3abf74b29de02", "rental_uris": {"ios": "https://dc.lft.to/lastmile_qr_scan", "android": "https://dc.lft.to/lastmile_qr_scan"}}, {"name": "355b41bf1cb0cce2253fc61c2244f915", "type": "electric_scooter", "lat": 38.875673666666664, "is_reserved": 0, "lon": -77.0065465, "fusion_lon": 0.0, "is_disabled": 0, "fusion_lat": 0.0, "bike_id": "355b41bf1cb0cce2253fc61c2244f915", "rental_uris": {"ios": "https://dc.lft.to/lastmile_qr_scan", "android": "https://dc.lft.to/lastmile_qr_scan"}}, {"name": "fab303a80e1cdf49a63437ed081b545e", "type": "electric_scooter", "lat": 38.928799833333336, "is_reserved": 0, "lon": -77.04050766666667, "fusion_lon": 0.0, "is_disabled": 0, "fusion_lat": 0.0, "bike_id": "fab303a80e1cdf49a63437ed081b545e", "rental_uris": {"ios": "https://dc.lft.to/lastmile_qr_scan", "android": "https://dc.lft.to/lastmile_qr_scan"}}, {"name": "17878d9032d7393cd3077b84de17d2ed", "type": "electric_scooter", "lat": 38.90120433333333, "is_reserved": 0, "lon": -77.03043, "fusion_lon": 0.0, "is_disabled": 0, "fusion_lat": 0.0, "bike_id": "17878d9032d7393cd3077b84de17d2ed", "rental_uris": {"ios": "https://dc.lft.to/lastmile_qr_scan", "android": "https://dc.lft.to/lastmile_qr_scan"}}, {"name": "3f27a470f5c15670d22ee195b496a64f", "type": "electric_scooter", "lat": 38.865752666666666, "is_reserved": 0, "lon": -76.98950316666667, "fusion_lon": 0.0, "is_disabled": 0, "fusion_lat": 0.0, "bike_id": "3f27a470f5c15670d22ee195b496a64f", "rental_uris": {"ios": "https://dc.lft.to/lastmile_qr_scan", "android": "https://dc.lft.to/lastmile_qr_scan"}}, {"name": "979ede170cbf5b75f3b90fb554959cf3", "type": "electric_bike", "lat": 38.872874, "is_reserved": 0, "lon": -77.01711716666667, "fusion_lon": 0.0, "is_disabled": 0, "fusion_lat": 0.0, "bike_id": "979ede170cbf5b75f3b90fb554959cf3", "rental_uris": {"ios": "https://dc.lft.to/lastmile_qr_scan", "android": "https://dc.lft.to/lastmile_qr_scan"}}, {"name": "491cb30b179aaf232b78e8d18aaea08c", "type": "electric_scooter", "lat": 38.90084516666667, "is_reserved": 0, "lon": -77.05908916666667, "fusion_lon": 0.0, "is_disabled": 0, "fusion_lat": 0.0, "bike_id": "491cb30b179aaf232b78e8d18aaea08c", "rental_uris": {"ios": "https://dc.lft.to/lastmile_qr_scan", "android": "https://dc.lft.to/lastmile_qr_scan"}}, {"name": "1b0968b0c5465957ddcd5d38c254465d", "type": "electric_bike", "lat": 38.91165383333333, "is_reserved": 0, "lon": -77.0028165, "fusion_lon": 0.0, "is_disabled": 0, "fusion_lat": 0.0, "bike_id": "1b0968b0c5465957ddcd5d38c254465d", "rental_uris": {"ios": "https://dc.lft.to/lastmile_qr_scan", "android": "https://dc.lft.to/lastmile_qr_scan"}}, {"name": "378fd8d407cb7c5f50c98ba7303ae9ac", "type": "electric_scooter", "lat": 38.924875166666666, "is_reserved": 0, "lon": -77.027147, "fusion_lon": 0.0, "is_disabled": 0, "fusion_lat": 0.0, "bike_id": "378fd8d407cb7c5f50c98ba7303ae9ac", "rental_uris": {"ios": "https://dc.lft.to/lastmile_qr_scan", "android": "https://dc.lft.to/lastmile_qr_scan"}}, {"name": "6609862126347076693120381e5dd9d2", "type": "electric_scooter", "lat": 38.922996499999996, "is_reserved": 0, "lon": -77.04194283333334, "fusion_lon": 0.0, "is_disabled": 0, "fusion_lat": 0.0, "bike_id": "6609862126347076693120381e5dd9d2", "rental_uris": {"ios": "https://dc.lft.to/lastmile_qr_scan", "android": "https://dc.lft.to/lastmile_qr_scan"}}, {"name": "f2b0482528359eec58f15971cd11bb26", "type": "electric_scooter", "lat": 38.8992085, "is_reserved": 0, "lon": -76.93384233333333, "fusion_lon": 0.0, "is_disabled": 0, "fusion_lat": 0.0, "bike_id": "f2b0482528359eec58f15971cd11bb26", "rental_uris": {"ios": "https://dc.lft.to/lastmile_qr_scan", "android": "https://dc.lft.to/lastmile_qr_scan"}}, {"name": "b74463561b13c14160a0c2e27ce7102b", "type": "electric_bike", "lat": 38.88044083333333, "is_reserved": 0, "lon": -77.02527183333333, "fusion_lon": 0.0, "is_disabled": 0, "fusion_lat": 0.0, "bike_id": "b74463561b13c14160a0c2e27ce7102b", "rental_uris": {"ios": "https://dc.lft.to/lastmile_qr_scan", "android": "https://dc.lft.to/lastmile_qr_scan"}}, {"name": "d61495e4d6084dad2034a8d5ff350497", "type": "electric_scooter", "lat": 38.903119333333336, "is_reserved": 0, "lon": -76.97647183333333, "fusion_lon": 0.0, "is_disabled": 0, "fusion_lat": 0.0, "bike_id": "d61495e4d6084dad2034a8d5ff350497", "rental_uris": {"ios": "https://dc.lft.to/lastmile_qr_scan", "android": "https://dc.lft.to/lastmile_qr_scan"}}, {"name": "3da79a5b103dbd5767bc1d51b36e004d", "type": "electric_scooter", "lat": 38.95731133333334, "is_reserved": 0, "lon": -77.0240505, "fusion_lon": 0.0, "is_disabled": 0, "fusion_lat": 0.0, "bike_id": "3da79a5b103dbd5767bc1d51b36e004d", "rental_uris": {"ios": "https://dc.lft.to/lastmile_qr_scan", "android": "https://dc.lft.to/lastmile_qr_scan"}}, {"name": "2e8ecd83c5c627e87024d2899c6e4888", "type": "electric_scooter", "lat": 38.92425333333333, "is_reserved": 0, "lon": -77.05183316666667, "fusion_lon": 0.0, "is_disabled": 0, "fusion_lat": 0.0, "bike_id": "2e8ecd83c5c627e87024d2899c6e4888", "rental_uris": {"ios": "https://dc.lft.to/lastmile_qr_scan", "android": "https://dc.lft.to/lastmile_qr_scan"}}, {"name": "cdf2b4af1d08c69be19feacf36f939a9", "type": "electric_bike", "lat": 38.851577, "is_reserved": 0, "lon": -77.12876366666667, "fusion_lon": 0.0, "is_disabled": 0, "fusion_lat": 0.0, "bike_id": "cdf2b4af1d08c69be19feacf36f939a9", "rental_uris": {"ios": "https://dc.lft.to/lastmile_qr_scan", "android": "https://dc.lft.to/lastmile_qr_scan"}}, {"name": "cd1a28329b7b7b8e42317dd10f186608", "type": "electric_scooter", "lat": 38.89476533333333, "is_reserved": 0, "lon": -76.9840035, "fusion_lon": 0.0, "is_disabled": 0, "fusion_lat": 0.0, "bike_id": "cd1a28329b7b7b8e42317dd10f186608", "rental_uris": {"ios": "https://dc.lft.to/lastmile_qr_scan", "android": "https://dc.lft.to/lastmile_qr_scan"}}, {"name": "a97859e37cae7f15e934af2eaf22433e", "type": "electric_scooter", "lat": 38.9431755, "is_reserved": 0, "lon": -77.05916916666666, "fusion_lon": 0.0, "is_disabled": 0, "fusion_lat": 0.0, "bike_id": "a97859e37cae7f15e934af2eaf22433e", "rental_uris": {"ios": "https://dc.lft.to/lastmile_qr_scan", "android": "https://dc.lft.to/lastmile_qr_scan"}}, {"name": "222b9b09850a88d7988ff93694d4bf0a", "type": "electric_scooter", "lat": 38.9360055, "is_reserved": 0, "lon": -77.03650616666667, "fusion_lon": 0.0, "is_disabled": 0, "fusion_lat": 0.0, "bike_id": "222b9b09850a88d7988ff93694d4bf0a", "rental_uris": {"ios": "https://dc.lft.to/lastmile_qr_scan", "android": "https://dc.lft.to/lastmile_qr_scan"}}, {"name": "ba259a3f077531ca38c4575e1d14996e", "type": "electric_scooter", "lat": 38.86948, "is_reserved": 0, "lon": -76.978554, "fusion_lon": 0.0, "is_disabled": 0, "fusion_lat": 0.0, "bike_id": "ba259a3f077531ca38c4575e1d14996e", "rental_uris": {"ios": "https://dc.lft.to/lastmile_qr_scan", "android": "https://dc.lft.to/lastmile_qr_scan"}}, {"name": "82ec7b2d8cad2651085dd583884fb8b3", "type": "electric_scooter", "lat": 38.901089666666664, "is_reserved": 0, "lon": -77.04471683333334, "fusion_lon": 0.0, "is_disabled": 0, "fusion_lat": 0.0, "bike_id": "82ec7b2d8cad2651085dd583884fb8b3", "rental_uris": {"ios": "https://dc.lft.to/lastmile_qr_scan", "android": "https://dc.lft.to/lastmile_qr_scan"}}, {"name": "89dc542db8b7f0a6c72d9642322d112a", "type": "electric_scooter", "lat": 38.8947495, "is_reserved": 0, "lon": -77.0306265, "fusion_lon": 0.0, "is_disabled": 0, "fusion_lat": 0.0, "bike_id": "89dc542db8b7f0a6c72d9642322d112a", "rental_uris": {"ios": "https://dc.lft.to/lastmile_qr_scan", "android": "https://dc.lft.to/lastmile_qr_scan"}}, {"name": "1cda78c1097e20cdc262219b14ffb58d", "type": "electric_scooter", "lat": 38.912114, "is_reserved": 0, "lon": -77.0447635, "fusion_lon": 0.0, "is_disabled": 0, "fusion_lat": 0.0, "bike_id": "1cda78c1097e20cdc262219b14ffb58d", "rental_uris": {"ios": "https://dc.lft.to/lastmile_qr_scan", "android": "https://dc.lft.to/lastmile_qr_scan"}}, {"name": "d09aa2aa36c549d9469cd8f1fd60c9fe", "type": "electric_scooter", "lat": 38.9337855, "is_reserved": 0, "lon": -77.0346525, "fusion_lon": 0.0, "is_disabled": 0, "fusion_lat": 0.0, "bike_id": "d09aa2aa36c549d9469cd8f1fd60c9fe", "rental_uris": {"ios": "https://dc.lft.to/lastmile_qr_scan", "android": "https://dc.lft.to/lastmile_qr_scan"}}, {"name": "c65a117d5ea43e8ba409c054a827a139", "type": "electric_scooter", "lat": 38.95830266666667, "is_reserved": 0, "lon": -77.02925266666666, "fusion_lon": 0.0, "is_disabled": 0, "fusion_lat": 0.0, "bike_id": "c65a117d5ea43e8ba409c054a827a139", "rental_uris": {"ios": "https://dc.lft.to/lastmile_qr_scan", "android": "https://dc.lft.to/lastmile_qr_scan"}}, {"name": "f8736c169dad56a786959a88b8dbfef3", "type": "electric_scooter", "lat": 38.9005975, "is_reserved": 0, "lon": -77.0453385, "fusion_lon": 0.0, "is_disabled": 0, "fusion_lat": 0.0, "bike_id": "f8736c169dad56a786959a88b8dbfef3", "rental_uris": {"ios": "https://dc.lft.to/lastmile_qr_scan", "android": "https://dc.lft.to/lastmile_qr_scan"}}, {"name": "dd030038cc8268942b33b72f553379e7", "type": "electric_scooter", "lat": 38.9170545, "is_reserved": 0, "lon": -77.04173066666667, "fusion_lon": 0.0, "is_disabled": 0, "fusion_lat": 0.0, "bike_id": "dd030038cc8268942b33b72f553379e7", "rental_uris": {"ios": "https://dc.lft.to/lastmile_qr_scan", "android": "https://dc.lft.to/lastmile_qr_scan"}}, {"name": "f8ae20d5716b036935d40e7dd2861e06", "type": "electric_bike", "lat": 38.94832983333333, "is_reserved": 0, "lon": -77.03901066666667, "fusion_lon": 0.0, "is_disabled": 0, "fusion_lat": 0.0, "bike_id": "f8ae20d5716b036935d40e7dd2861e06", "rental_uris": {"ios": "https://dc.lft.to/lastmile_qr_scan", "android": "https://dc.lft.to/lastmile_qr_scan"}}, {"name": "edc6a17da4f5de47b0a006d9a78b0f9e", "type": "electric_scooter", "lat": 38.934164, "is_reserved": 0, "lon": -77.07228916666666, "fusion_lon": 0.0, "is_disabled": 0, "fusion_lat": 0.0, "bike_id": "edc6a17da4f5de47b0a006d9a78b0f9e", "rental_uris": {"ios": "https://dc.lft.to/lastmile_qr_scan", "android": "https://dc.lft.to/lastmile_qr_scan"}}, {"name": "47952b00011d4008ee5081c50303c01f", "type": "electric_scooter", "lat": 38.924022666666666, "is_reserved": 0, "lon": -77.025379, "fusion_lon": 0.0, "is_disabled": 0, "fusion_lat": 0.0, "bike_id": "47952b00011d4008ee5081c50303c01f", "rental_uris": {"ios": "https://dc.lft.to/lastmile_qr_scan", "android": "https://dc.lft.to/lastmile_qr_scan"}}, {"name": "1506f755b8d328e1a90da645b1b95a16", "type": "electric_scooter", "lat": 38.918091833333335, "is_reserved": 0, "lon": -77.03025316666667, "fusion_lon": 0.0, "is_disabled": 0, "fusion_lat": 0.0, "bike_id": "1506f755b8d328e1a90da645b1b95a16", "rental_uris": {"ios": "https://dc.lft.to/lastmile_qr_scan", "android": "https://dc.lft.to/lastmile_qr_scan"}}, {"name": "1044c51504e099b255d6e7d2906c03c6", "type": "electric_scooter", "lat": 38.90433183333333, "is_reserved": 0, "lon": -77.02840066666667, "fusion_lon": 0.0, "is_disabled": 0, "fusion_lat": 0.0, "bike_id": "1044c51504e099b255d6e7d2906c03c6", "rental_uris": {"ios": "https://dc.lft.to/lastmile_qr_scan", "android": "https://dc.lft.to/lastmile_qr_scan"}}, {"name": "4b4bdd54520fdd1873facb6f809647d1", "type": "electric_scooter", "lat": 38.9231535, "is_reserved": 0, "lon": -77.029786, "fusion_lon": 0.0, "is_disabled": 0, "fusion_lat": 0.0, "bike_id": "4b4bdd54520fdd1873facb6f809647d1", "rental_uris": {"ios": "https://dc.lft.to/lastmile_qr_scan", "android": "https://dc.lft.to/lastmile_qr_scan"}}, {"name": "2ae42d6e0f301320df4ad2fc2ddaadac", "type": "electric_bike", "lat": 39.030434166666666, "is_reserved": 0, "lon": -77.09482183333333, "fusion_lon": 0.0, "is_disabled": 0, "fusion_lat": 0.0, "bike_id": "2ae42d6e0f301320df4ad2fc2ddaadac", "rental_uris": {"ios": "https://dc.lft.to/lastmile_qr_scan", "android": "https://dc.lft.to/lastmile_qr_scan"}}, {"name": "06dcea5760f4ec6399e817883d4266fa", "type": "electric_scooter", "lat": 38.91846683333333, "is_reserved": 0, "lon": -77.0614865, "fusion_lon": 0.0, "is_disabled": 0, "fusion_lat": 0.0, "bike_id": "06dcea5760f4ec6399e817883d4266fa", "rental_uris": {"ios": "https://dc.lft.to/lastmile_qr_scan", "android": "https://dc.lft.to/lastmile_qr_scan"}}, {"name": "1b33de7067294789ccf3fb52834215f4", "type": "electric_scooter", "lat": 38.9052945, "is_reserved": 0, "lon": -77.05194733333333, "fusion_lon": 0.0, "is_disabled": 0, "fusion_lat": 0.0, "bike_id": "1b33de7067294789ccf3fb52834215f4", "rental_uris": {"ios": "https://dc.lft.to/lastmile_qr_scan", "android": "https://dc.lft.to/lastmile_qr_scan"}}, {"name": "2a7460001bf2b9c5381bbd16319f30d9", "type": "electric_scooter", "lat": 38.92694083333333, "is_reserved": 0, "lon": -77.020882, "fusion_lon": 0.0, "is_disabled": 0, "fusion_lat": 0.0, "bike_id": "2a7460001bf2b9c5381bbd16319f30d9", "rental_uris": {"ios": "https://dc.lft.to/lastmile_qr_scan", "android": "https://dc.lft.to/lastmile_qr_scan"}}, {"name": "531a9fa6519873971fca19013044eab5", "type": "electric_bike", "lat": 38.9705425, "is_reserved": 0, "lon": -76.9361785, "fusion_lon": 0.0, "is_disabled": 0, "fusion_lat": 0.0, "bike_id": "531a9fa6519873971fca19013044eab5", "rental_uris": {"ios": "https://dc.lft.to/lastmile_qr_scan", "android": "https://dc.lft.to/lastmile_qr_scan"}}, {"name": "99073d8831be7e004189c5364e0eb195", "type": "electric_scooter", "lat": 38.9123655, "is_reserved": 0, "lon": -77.04505466666667, "fusion_lon": 0.0, "is_disabled": 0, "fusion_lat": 0.0, "bike_id": "99073d8831be7e004189c5364e0eb195", "rental_uris": {"ios": "https://dc.lft.to/lastmile_qr_scan", "android": "https://dc.lft.to/lastmile_qr_scan"}}, {"name": "f775ea99f0e7226cac1abbd712beaccb", "type": "electric_bike", "lat": 38.92955333333333, "is_reserved": 0, "lon": -77.032651, "fusion_lon": 0.0, "is_disabled": 0, "fusion_lat": 0.0, "bike_id": "f775ea99f0e7226cac1abbd712beaccb", "rental_uris": {"ios": "https://dc.lft.to/lastmile_qr_scan", "android": "https://dc.lft.to/lastmile_qr_scan"}}, {"name": "0c8827000399653fe2710215415282b1", "type": "electric_scooter", "lat": 38.937144833333335, "is_reserved": 0, "lon": -77.03648816666667, "fusion_lon": 0.0, "is_disabled": 0, "fusion_lat": 0.0, "bike_id": "0c8827000399653fe2710215415282b1", "rental_uris": {"ios": "https://dc.lft.to/lastmile_qr_scan", "android": "https://dc.lft.to/lastmile_qr_scan"}}, {"name": "969ef39b714c9f5fed3d1ef60f452a00", "type": "electric_scooter", "lat": 38.9079935, "is_reserved": 0, "lon": -77.0482135, "fusion_lon": 0.0, "is_disabled": 0, "fusion_lat": 0.0, "bike_id": "969ef39b714c9f5fed3d1ef60f452a00", "rental_uris": {"ios": "https://dc.lft.to/lastmile_qr_scan", "android": "https://dc.lft.to/lastmile_qr_scan"}}, {"name": "fd6b6a1cae64250167c7c56b858bae34", "type": "electric_scooter", "lat": 38.909707166666664, "is_reserved": 0, "lon": -77.036802, "fusion_lon": 0.0, "is_disabled": 0, "fusion_lat": 0.0, "bike_id": "fd6b6a1cae64250167c7c56b858bae34", "rental_uris": {"ios": "https://dc.lft.to/lastmile_qr_scan", "android": "https://dc.lft.to/lastmile_qr_scan"}}, {"name": "79de60bdeb7488d627a5bca158d62c0c", "type": "electric_scooter", "lat": 38.8982875, "is_reserved": 0, "lon": -77.0435575, "fusion_lon": 0.0, "is_disabled": 0, "fusion_lat": 0.0, "bike_id": "79de60bdeb7488d627a5bca158d62c0c", "rental_uris": {"ios": "https://dc.lft.to/lastmile_qr_scan", "android": "https://dc.lft.to/lastmile_qr_scan"}}, {"name": "586d048d136a5aa04d90f037c4f16ee6", "type": "electric_bike", "lat": 39.1056365, "is_reserved": 0, "lon": -77.15264833333333, "fusion_lon": 0.0, "is_disabled": 0, "fusion_lat": 0.0, "bike_id": "586d048d136a5aa04d90f037c4f16ee6", "rental_uris": {"ios": "https://dc.lft.to/lastmile_qr_scan", "android": "https://dc.lft.to/lastmile_qr_scan"}}, {"name": "a267e52a2096f47fefe376c335957eb2", "type": "electric_scooter", "lat": 38.903587333333334, "is_reserved": 0, "lon": -77.043516, "fusion_lon": 0.0, "is_disabled": 0, "fusion_lat": 0.0, "bike_id": "a267e52a2096f47fefe376c335957eb2", "rental_uris": {"ios": "https://dc.lft.to/lastmile_qr_scan", "android": "https://dc.lft.to/lastmile_qr_scan"}}, {"name": "f1344d642b52165ffdf0cd8b2086d594", "type": "electric_scooter", "lat": 38.950889, "is_reserved": 0, "lon": -77.02869166666666, "fusion_lon": 0.0, "is_disabled": 0, "fusion_lat": 0.0, "bike_id": "f1344d642b52165ffdf0cd8b2086d594", "rental_uris": {"ios": "https://dc.lft.to/lastmile_qr_scan", "android": "https://dc.lft.to/lastmile_qr_scan"}}, {"name": "a53933fd64de379c025e4e5aa27777df", "type": "electric_bike", "lat": 38.886746333333335, "is_reserved": 0, "lon": -77.1625885, "fusion_lon": 0.0, "is_disabled": 0, "fusion_lat": 0.0, "bike_id": "a53933fd64de379c025e4e5aa27777df", "rental_uris": {"ios": "https://dc.lft.to/lastmile_qr_scan", "android": "https://dc.lft.to/lastmile_qr_scan"}}, {"name": "6945cab3d6fe6d3ed635120994b35a45", "type": "electric_scooter", "lat": 38.902616, "is_reserved": 0, "lon": -77.05321983333333, "fusion_lon": 0.0, "is_disabled": 0, "fusion_lat": 0.0, "bike_id": "6945cab3d6fe6d3ed635120994b35a45", "rental_uris": {"ios": "https://dc.lft.to/lastmile_qr_scan", "android": "https://dc.lft.to/lastmile_qr_scan"}}, {"name": "9a1e09ef65302d677baee31989df6e36", "type": "electric_scooter", "lat": 38.927488333333336, "is_reserved": 0, "lon": -77.02483033333333, "fusion_lon": 0.0, "is_disabled": 0, "fusion_lat": 0.0, "bike_id": "9a1e09ef65302d677baee31989df6e36", "rental_uris": {"ios": "https://dc.lft.to/lastmile_qr_scan", "android": "https://dc.lft.to/lastmile_qr_scan"}}, {"name": "a2945f49ddb23df809f59f8125ae7038", "type": "electric_scooter", "lat": 38.923553166666665, "is_reserved": 0, "lon": -77.05035616666666, "fusion_lon": 0.0, "is_disabled": 0, "fusion_lat": 0.0, "bike_id": "a2945f49ddb23df809f59f8125ae7038", "rental_uris": {"ios": "https://dc.lft.to/lastmile_qr_scan", "android": "https://dc.lft.to/lastmile_qr_scan"}}, {"name": "176e3491154514f9a57a35b297f44c14", "type": "electric_scooter", "lat": 38.92043783333333, "is_reserved": 0, "lon": -77.0253755, "fusion_lon": 0.0, "is_disabled": 0, "fusion_lat": 0.0, "bike_id": "176e3491154514f9a57a35b297f44c14", "rental_uris": {"ios": "https://dc.lft.to/lastmile_qr_scan", "android": "https://dc.lft.to/lastmile_qr_scan"}}, {"name": "e7f859f579f12a99966eff26e512fd5e", "type": "electric_scooter", "lat": 38.9179345, "is_reserved": 0, "lon": -77.04144433333333, "fusion_lon": 0.0, "is_disabled": 0, "fusion_lat": 0.0, "bike_id": "e7f859f579f12a99966eff26e512fd5e", "rental_uris": {"ios": "https://dc.lft.to/lastmile_qr_scan", "android": "https://dc.lft.to/lastmile_qr_scan"}}, {"name": "e11bdcfa488247eac2c02bf3194233c6", "type": "electric_scooter", "lat": 38.906705333333335, "is_reserved": 0, "lon": -77.00910316666666, "fusion_lon": 0.0, "is_disabled": 0, "fusion_lat": 0.0, "bike_id": "e11bdcfa488247eac2c02bf3194233c6", "rental_uris": {"ios": "https://dc.lft.to/lastmile_qr_scan", "android": "https://dc.lft.to/lastmile_qr_scan"}}, {"name": "d4c7b0da5dbd63157db81c2abb40a0e4", "type": "electric_scooter", "lat": 38.9284375, "is_reserved": 0, "lon": -77.05437166666667, "fusion_lon": 0.0, "is_disabled": 0, "fusion_lat": 0.0, "bike_id": "d4c7b0da5dbd63157db81c2abb40a0e4", "rental_uris": {"ios": "https://dc.lft.to/lastmile_qr_scan", "android": "https://dc.lft.to/lastmile_qr_scan"}}, {"name": "0ba13a7d01d890c13d5ae8604d71345c", "type": "electric_scooter", "lat": 38.90462766666667, "is_reserved": 0, "lon": -77.014266, "fusion_lon": 0.0, "is_disabled": 0, "fusion_lat": 0.0, "bike_id": "0ba13a7d01d890c13d5ae8604d71345c", "rental_uris": {"ios": "https://dc.lft.to/lastmile_qr_scan", "android": "https://dc.lft.to/lastmile_qr_scan"}}, {"name": "19e4324809abac76f6afb4b4ef0634e6", "type": "electric_scooter", "lat": 38.929509333333336, "is_reserved": 0, "lon": -77.02332716666666, "fusion_lon": 0.0, "is_disabled": 0, "fusion_lat": 0.0, "bike_id": "19e4324809abac76f6afb4b4ef0634e6", "rental_uris": {"ios": "https://dc.lft.to/lastmile_qr_scan", "android": "https://dc.lft.to/lastmile_qr_scan"}}, {"name": "fcad53af0d2a26293adc9576e19aa107", "type": "electric_scooter", "lat": 38.89536833333333, "is_reserved": 0, "lon": -77.01120866666666, "fusion_lon": 0.0, "is_disabled": 0, "fusion_lat": 0.0, "bike_id": "fcad53af0d2a26293adc9576e19aa107", "rental_uris": {"ios": "https://dc.lft.to/lastmile_qr_scan", "android": "https://dc.lft.to/lastmile_qr_scan"}}, {"name": "a105888bb3dd29edb5cbdc0d831b02f7", "type": "electric_scooter", "lat": 38.911966666666665, "is_reserved": 0, "lon": -77.06090566666667, "fusion_lon": 0.0, "is_disabled": 0, "fusion_lat": 0.0, "bike_id": "a105888bb3dd29edb5cbdc0d831b02f7", "rental_uris": {"ios": "https://dc.lft.to/lastmile_qr_scan", "android": "https://dc.lft.to/lastmile_qr_scan"}}, {"name": "ea4685360f60acbdd41fab6db134f791", "type": "electric_scooter", "lat": 38.92792016666667, "is_reserved": 0, "lon": -77.03985083333333, "fusion_lon": 0.0, "is_disabled": 0, "fusion_lat": 0.0, "bike_id": "ea4685360f60acbdd41fab6db134f791", "rental_uris": {"ios": "https://dc.lft.to/lastmile_qr_scan", "android": "https://dc.lft.to/lastmile_qr_scan"}}, {"name": "f869c680891a4ebe063afd8104f307e4", "type": "electric_scooter", "lat": 38.9002245, "is_reserved": 0, "lon": -76.99836133333334, "fusion_lon": 0.0, "is_disabled": 0, "fusion_lat": 0.0, "bike_id": "f869c680891a4ebe063afd8104f307e4", "rental_uris": {"ios": "https://dc.lft.to/lastmile_qr_scan", "android": "https://dc.lft.to/lastmile_qr_scan"}}, {"name": "3d4c01d00ce737e2dd820bee46ab31a0", "type": "electric_bike", "lat": 38.95964433333333, "is_reserved": 0, "lon": -77.10092783333333, "fusion_lon": 0.0, "is_disabled": 0, "fusion_lat": 0.0, "bike_id": "3d4c01d00ce737e2dd820bee46ab31a0", "rental_uris": {"ios": "https://dc.lft.to/lastmile_qr_scan", "android": "https://dc.lft.to/lastmile_qr_scan"}}, {"name": "38a74acf317b05ecc66090b0413e3b47", "type": "electric_scooter", "lat": 38.929900833333335, "is_reserved": 0, "lon": -77.02480733333333, "fusion_lon": 0.0, "is_disabled": 0, "fusion_lat": 0.0, "bike_id": "38a74acf317b05ecc66090b0413e3b47", "rental_uris": {"ios": "https://dc.lft.to/lastmile_qr_scan", "android": "https://dc.lft.to/lastmile_qr_scan"}}, {"name": "8d539d6b032c688771f541b20c7cd5a5", "type": "electric_scooter", "lat": 38.90241533333333, "is_reserved": 0, "lon": -77.026944, "fusion_lon": 0.0, "is_disabled": 0, "fusion_lat": 0.0, "bike_id": "8d539d6b032c688771f541b20c7cd5a5", "rental_uris": {"ios": "https://dc.lft.to/lastmile_qr_scan", "android": "https://dc.lft.to/lastmile_qr_scan"}}, {"name": "97e976e60bf1741b3e219b92f6509afb", "type": "electric_scooter", "lat": 38.90406866666667, "is_reserved": 0, "lon": -77.04348966666667, "fusion_lon": 0.0, "is_disabled": 0, "fusion_lat": 0.0, "bike_id": "97e976e60bf1741b3e219b92f6509afb", "rental_uris": {"ios": "https://dc.lft.to/lastmile_qr_scan", "android": "https://dc.lft.to/lastmile_qr_scan"}}, {"name": "a80befb97c99b9d43f7354685174da74", "type": "electric_scooter", "lat": 38.918834, "is_reserved": 0, "lon": -77.03763033333334, "fusion_lon": 0.0, "is_disabled": 0, "fusion_lat": 0.0, "bike_id": "a80befb97c99b9d43f7354685174da74", "rental_uris": {"ios": "https://dc.lft.to/lastmile_qr_scan", "android": "https://dc.lft.to/lastmile_qr_scan"}}, {"name": "498987d5c036b101dc1db41e8eb39533", "type": "electric_bike", "lat": 38.89558866666667, "is_reserved": 0, "lon": -77.12697966666667, "fusion_lon": 0.0, "is_disabled": 0, "fusion_lat": 0.0, "bike_id": "498987d5c036b101dc1db41e8eb39533", "rental_uris": {"ios": "https://dc.lft.to/lastmile_qr_scan", "android": "https://dc.lft.to/lastmile_qr_scan"}}, {"name": "500f1dd0ad3efdf182f132e14014cec6", "type": "electric_scooter", "lat": 38.9172665, "is_reserved": 0, "lon": -77.01866966666667, "fusion_lon": 0.0, "is_disabled": 0, "fusion_lat": 0.0, "bike_id": "500f1dd0ad3efdf182f132e14014cec6", "rental_uris": {"ios": "https://dc.lft.to/lastmile_qr_scan", "android": "https://dc.lft.to/lastmile_qr_scan"}}, {"name": "6b7273837206c2f75c510b4ce581acd3", "type": "electric_bike", "lat": 38.9734745, "is_reserved": 0, "lon": -77.10041216666667, "fusion_lon": 0.0, "is_disabled": 0, "fusion_lat": 0.0, "bike_id": "6b7273837206c2f75c510b4ce581acd3", "rental_uris": {"ios": "https://dc.lft.to/lastmile_qr_scan", "android": "https://dc.lft.to/lastmile_qr_scan"}}, {"name": "8af04e5f9dfe6b05b1f63c863b7e23e4", "type": "electric_scooter", "lat": 38.9096535, "is_reserved": 0, "lon": -77.04790216666666, "fusion_lon": 0.0, "is_disabled": 0, "fusion_lat": 0.0, "bike_id": "8af04e5f9dfe6b05b1f63c863b7e23e4", "rental_uris": {"ios": "https://dc.lft.to/lastmile_qr_scan", "android": "https://dc.lft.to/lastmile_qr_scan"}}, {"name": "7fb01ab1acac0227c2c198bed0f008af", "type": "electric_scooter", "lat": 38.897409833333334, "is_reserved": 0, "lon": -77.00986366666666, "fusion_lon": 0.0, "is_disabled": 0, "fusion_lat": 0.0, "bike_id": "7fb01ab1acac0227c2c198bed0f008af", "rental_uris": {"ios": "https://dc.lft.to/lastmile_qr_scan", "android": "https://dc.lft.to/lastmile_qr_scan"}}, {"name": "0b73aa3f820348224ee59af92a392cff", "type": "electric_bike", "lat": 38.90297133333333, "is_reserved": 0, "lon": -76.944378, "fusion_lon": 0.0, "is_disabled": 0, "fusion_lat": 0.0, "bike_id": "0b73aa3f820348224ee59af92a392cff", "rental_uris": {"ios": "https://dc.lft.to/lastmile_qr_scan", "android": "https://dc.lft.to/lastmile_qr_scan"}}, {"name": "baef0181e6a879cbbf6be08be13a4e92", "type": "electric_scooter", "lat": 38.944687333333334, "is_reserved": 0, "lon": -77.063747, "fusion_lon": 0.0, "is_disabled": 0, "fusion_lat": 0.0, "bike_id": "baef0181e6a879cbbf6be08be13a4e92", "rental_uris": {"ios": "https://dc.lft.to/lastmile_qr_scan", "android": "https://dc.lft.to/lastmile_qr_scan"}}, {"name": "995018b31acc4f5f381ea702c5049b3a", "type": "electric_scooter", "lat": 38.95529616666666, "is_reserved": 0, "lon": -77.02466716666666, "fusion_lon": 0.0, "is_disabled": 0, "fusion_lat": 0.0, "bike_id": "995018b31acc4f5f381ea702c5049b3a", "rental_uris": {"ios": "https://dc.lft.to/lastmile_qr_scan", "android": "https://dc.lft.to/lastmile_qr_scan"}}, {"name": "a40061a3b5e171e666b9f7d216ff2824", "type": "electric_scooter", "lat": 38.856322666666664, "is_reserved": 0, "lon": -76.9745315, "fusion_lon": 0.0, "is_disabled": 0, "fusion_lat": 0.0, "bike_id": "a40061a3b5e171e666b9f7d216ff2824", "rental_uris": {"ios": "https://dc.lft.to/lastmile_qr_scan", "android": "https://dc.lft.to/lastmile_qr_scan"}}, {"name": "102553c7d0f0840cadab0feeba85f68e", "type": "electric_scooter", "lat": 38.93049166666667, "is_reserved": 0, "lon": -77.02354883333334, "fusion_lon": 0.0, "is_disabled": 0, "fusion_lat": 0.0, "bike_id": "102553c7d0f0840cadab0feeba85f68e", "rental_uris": {"ios": "https://dc.lft.to/lastmile_qr_scan", "android": "https://dc.lft.to/lastmile_qr_scan"}}, {"name": "3b736c272b1c2061913329f2d7da3e75", "type": "electric_scooter", "lat": 38.898767, "is_reserved": 0, "lon": -76.93161433333333, "fusion_lon": 0.0, "is_disabled": 0, "fusion_lat": 0.0, "bike_id": "3b736c272b1c2061913329f2d7da3e75", "rental_uris": {"ios": "https://dc.lft.to/lastmile_qr_scan", "android": "https://dc.lft.to/lastmile_qr_scan"}}, {"name": "d1bea565d43cd8f28289e67c99e9ad8d", "type": "electric_scooter", "lat": 38.941803666666665, "is_reserved": 0, "lon": -77.04132783333333, "fusion_lon": 0.0, "is_disabled": 0, "fusion_lat": 0.0, "bike_id": "d1bea565d43cd8f28289e67c99e9ad8d", "rental_uris": {"ios": "https://dc.lft.to/lastmile_qr_scan", "android": "https://dc.lft.to/lastmile_qr_scan"}}, {"name": "3c593992b71399799c396a3557e56181", "type": "electric_bike", "lat": 38.94898216666667, "is_reserved": 0, "lon": -76.96371133333334, "fusion_lon": 0.0, "is_disabled": 0, "fusion_lat": 0.0, "bike_id": "3c593992b71399799c396a3557e56181", "rental_uris": {"ios": "https://dc.lft.to/lastmile_qr_scan", "android": "https://dc.lft.to/lastmile_qr_scan"}}, {"name": "b9af06527cb9f457f3e5ec3c95ef6d8c", "type": "electric_bike", "lat": 38.99824683333333, "is_reserved": 0, "lon": -76.88352716666667, "fusion_lon": 0.0, "is_disabled": 0, "fusion_lat": 0.0, "bike_id": "b9af06527cb9f457f3e5ec3c95ef6d8c", "rental_uris": {"ios": "https://dc.lft.to/lastmile_qr_scan", "android": "https://dc.lft.to/lastmile_qr_scan"}}, {"name": "332190dd85997ca650869dafd9c4e2f5", "type": "electric_scooter", "lat": 38.92902566666667, "is_reserved": 0, "lon": -77.05457266666667, "fusion_lon": 0.0, "is_disabled": 0, "fusion_lat": 0.0, "bike_id": "332190dd85997ca650869dafd9c4e2f5", "rental_uris": {"ios": "https://dc.lft.to/lastmile_qr_scan", "android": "https://dc.lft.to/lastmile_qr_scan"}}, {"name": "559ad4b1b31fbfe7152e315a89dd7555", "type": "electric_scooter", "lat": 38.903387333333335, "is_reserved": 0, "lon": -77.06656916666667, "fusion_lon": 0.0, "is_disabled": 0, "fusion_lat": 0.0, "bike_id": "559ad4b1b31fbfe7152e315a89dd7555", "rental_uris": {"ios": "https://dc.lft.to/lastmile_qr_scan", "android": "https://dc.lft.to/lastmile_qr_scan"}}, {"name": "2cafacc4ec0843965dfc8e16cdf3d544", "type": "electric_scooter", "lat": 38.91839, "is_reserved": 0, "lon": -77.02601116666666, "fusion_lon": 0.0, "is_disabled": 0, "fusion_lat": 0.0, "bike_id": "2cafacc4ec0843965dfc8e16cdf3d544", "rental_uris": {"ios": "https://dc.lft.to/lastmile_qr_scan", "android": "https://dc.lft.to/lastmile_qr_scan"}}, {"name": "6c7ca7ac7d4282a15172308a96c16df8", "type": "electric_scooter", "lat": 38.90128766666667, "is_reserved": 0, "lon": -77.0397575, "fusion_lon": 0.0, "is_disabled": 0, "fusion_lat": 0.0, "bike_id": "6c7ca7ac7d4282a15172308a96c16df8", "rental_uris": {"ios": "https://dc.lft.to/lastmile_qr_scan", "android": "https://dc.lft.to/lastmile_qr_scan"}}, {"name": "6a4c6d0bcb0ba08f27fdaabd27620079", "type": "electric_scooter", "lat": 38.911033833333335, "is_reserved": 0, "lon": -77.00217483333333, "fusion_lon": 0.0, "is_disabled": 0, "fusion_lat": 0.0, "bike_id": "6a4c6d0bcb0ba08f27fdaabd27620079", "rental_uris": {"ios": "https://dc.lft.to/lastmile_qr_scan", "android": "https://dc.lft.to/lastmile_qr_scan"}}, {"name": "691d8087764db4d6fa1c595c2284fd27", "type": "electric_scooter", "lat": 38.919899666666666, "is_reserved": 0, "lon": -77.03971666666666, "fusion_lon": 0.0, "is_disabled": 0, "fusion_lat": 0.0, "bike_id": "691d8087764db4d6fa1c595c2284fd27", "rental_uris": {"ios": "https://dc.lft.to/lastmile_qr_scan", "android": "https://dc.lft.to/lastmile_qr_scan"}}, {"name": "85089797d15c2270e9f712006c18e0fc", "type": "electric_scooter", "lat": 38.90388183333334, "is_reserved": 0, "lon": -77.0111385, "fusion_lon": 0.0, "is_disabled": 0, "fusion_lat": 0.0, "bike_id": "85089797d15c2270e9f712006c18e0fc", "rental_uris": {"ios": "https://dc.lft.to/lastmile_qr_scan", "android": "https://dc.lft.to/lastmile_qr_scan"}}, {"name": "fe67433404213588606b143fd661d34c", "type": "electric_scooter", "lat": 38.910229333333334, "is_reserved": 0, "lon": -77.04801116666667, "fusion_lon": 0.0, "is_disabled": 0, "fusion_lat": 0.0, "bike_id": "fe67433404213588606b143fd661d34c", "rental_uris": {"ios": "https://dc.lft.to/lastmile_qr_scan", "android": "https://dc.lft.to/lastmile_qr_scan"}}, {"name": "77dbb19f1a9349618d416e67e3fcb2e7", "type": "electric_scooter", "lat": 38.90712666666667, "is_reserved": 0, "lon": -77.02502083333333, "fusion_lon": 0.0, "is_disabled": 0, "fusion_lat": 0.0, "bike_id": "77dbb19f1a9349618d416e67e3fcb2e7", "rental_uris": {"ios": "https://dc.lft.to/lastmile_qr_scan", "android": "https://dc.lft.to/lastmile_qr_scan"}}, {"name": "67296d3dd64828bf370de8a9d290f3dc", "type": "electric_scooter", "lat": 38.929288666666665, "is_reserved": 0, "lon": -77.0233795, "fusion_lon": 0.0, "is_disabled": 0, "fusion_lat": 0.0, "bike_id": "67296d3dd64828bf370de8a9d290f3dc", "rental_uris": {"ios": "https://dc.lft.to/lastmile_qr_scan", "android": "https://dc.lft.to/lastmile_qr_scan"}}, {"name": "c4685257ab8a4bbb2948cf2f99c0d1b9", "type": "electric_scooter", "lat": 38.90332566666667, "is_reserved": 0, "lon": -76.98971616666667, "fusion_lon": 0.0, "is_disabled": 0, "fusion_lat": 0.0, "bike_id": "c4685257ab8a4bbb2948cf2f99c0d1b9", "rental_uris": {"ios": "https://dc.lft.to/lastmile_qr_scan", "android": "https://dc.lft.to/lastmile_qr_scan"}}, {"name": "6d42dec155a3e4e049a981420fde669f", "type": "electric_scooter", "lat": 38.91617383333333, "is_reserved": 0, "lon": -77.03201833333334, "fusion_lon": 0.0, "is_disabled": 0, "fusion_lat": 0.0, "bike_id": "6d42dec155a3e4e049a981420fde669f", "rental_uris": {"ios": "https://dc.lft.to/lastmile_qr_scan", "android": "https://dc.lft.to/lastmile_qr_scan"}}, {"name": "104d6127aa8e93b49303522468e93300", "type": "electric_scooter", "lat": 38.911223666666665, "is_reserved": 0, "lon": -77.018127, "fusion_lon": 0.0, "is_disabled": 0, "fusion_lat": 0.0, "bike_id": "104d6127aa8e93b49303522468e93300", "rental_uris": {"ios": "https://dc.lft.to/lastmile_qr_scan", "android": "https://dc.lft.to/lastmile_qr_scan"}}, {"name": "c698360b20843621aa7bc70ab821de53", "type": "electric_scooter", "lat": 38.9248215, "is_reserved": 0, "lon": -77.03055016666667, "fusion_lon": 0.0, "is_disabled": 0, "fusion_lat": 0.0, "bike_id": "c698360b20843621aa7bc70ab821de53", "rental_uris": {"ios": "https://dc.lft.to/lastmile_qr_scan", "android": "https://dc.lft.to/lastmile_qr_scan"}}, {"name": "b588007b6c45de2cfd6d6c8a91516859", "type": "electric_scooter", "lat": 38.91106583333333, "is_reserved": 0, "lon": -77.04500483333334, "fusion_lon": 0.0, "is_disabled": 0, "fusion_lat": 0.0, "bike_id": "b588007b6c45de2cfd6d6c8a91516859", "rental_uris": {"ios": "https://dc.lft.to/lastmile_qr_scan", "android": "https://dc.lft.to/lastmile_qr_scan"}}, {"name": "f452361d640ff4c8d5d2e57ee640edbc", "type": "electric_scooter", "lat": 38.907224166666666, "is_reserved": 0, "lon": -77.01144583333334, "fusion_lon": 0.0, "is_disabled": 0, "fusion_lat": 0.0, "bike_id": "f452361d640ff4c8d5d2e57ee640edbc", "rental_uris": {"ios": "https://dc.lft.to/lastmile_qr_scan", "android": "https://dc.lft.to/lastmile_qr_scan"}}, {"name": "0a868fc2ef5b1ffabb5df0e353fd5823", "type": "electric_scooter", "lat": 38.8821925, "is_reserved": 0, "lon": -76.9417525, "fusion_lon": 0.0, "is_disabled": 0, "fusion_lat": 0.0, "bike_id": "0a868fc2ef5b1ffabb5df0e353fd5823", "rental_uris": {"ios": "https://dc.lft.to/lastmile_qr_scan", "android": "https://dc.lft.to/lastmile_qr_scan"}}, {"name": "847b19b4b8c9f8cf372874b642fcc6f3", "type": "electric_scooter", "lat": 38.94732833333333, "is_reserved": 0, "lon": -77.00004933333334, "fusion_lon": 0.0, "is_disabled": 0, "fusion_lat": 0.0, "bike_id": "847b19b4b8c9f8cf372874b642fcc6f3", "rental_uris": {"ios": "https://dc.lft.to/lastmile_qr_scan", "android": "https://dc.lft.to/lastmile_qr_scan"}}, {"name": "c70a864b63651ed9cf011011a992beef", "type": "electric_scooter", "lat": 38.864196, "is_reserved": 0, "lon": -76.9857675, "fusion_lon": 0.0, "is_disabled": 0, "fusion_lat": 0.0, "bike_id": "c70a864b63651ed9cf011011a992beef", "rental_uris": {"ios": "https://dc.lft.to/lastmile_qr_scan", "android": "https://dc.lft.to/lastmile_qr_scan"}}, {"name": "12d49d61c14163d0670503cafacf0ee8", "type": "electric_bike", "lat": 38.88636, "is_reserved": 0, "lon": -76.9547, "fusion_lon": 0.0, "is_disabled": 0, "fusion_lat": 0.0, "bike_id": "12d49d61c14163d0670503cafacf0ee8", "rental_uris": {"ios": "https://dc.lft.to/lastmile_qr_scan", "android": "https://dc.lft.to/lastmile_qr_scan"}}, {"name": "d333306ae81cae83badee400815808e6", "type": "electric_scooter", "lat": 38.93175633333333, "is_reserved": 0, "lon": -77.02352316666666, "fusion_lon": 0.0, "is_disabled": 0, "fusion_lat": 0.0, "bike_id": "d333306ae81cae83badee400815808e6", "rental_uris": {"ios": "https://dc.lft.to/lastmile_qr_scan", "android": "https://dc.lft.to/lastmile_qr_scan"}}, {"name": "7b2a60c5c7ae4c7abbda774898555499", "type": "electric_scooter", "lat": 38.92871783333333, "is_reserved": 0, "lon": -77.0321945, "fusion_lon": 0.0, "is_disabled": 0, "fusion_lat": 0.0, "bike_id": "7b2a60c5c7ae4c7abbda774898555499", "rental_uris": {"ios": "https://dc.lft.to/lastmile_qr_scan", "android": "https://dc.lft.to/lastmile_qr_scan"}}, {"name": "1ab7c24b741e81e041ec6b89852d24b6", "type": "electric_scooter", "lat": 38.90717316666667, "is_reserved": 0, "lon": -77.02503833333333, "fusion_lon": 0.0, "is_disabled": 0, "fusion_lat": 0.0, "bike_id": "1ab7c24b741e81e041ec6b89852d24b6", "rental_uris": {"ios": "https://dc.lft.to/lastmile_qr_scan", "android": "https://dc.lft.to/lastmile_qr_scan"}}, {"name": "2f9456a7df3d9c550de3970cd8733aef", "type": "electric_bike", "lat": 38.896849, "is_reserved": 0, "lon": -76.94062933333333, "fusion_lon": 0.0, "is_disabled": 0, "fusion_lat": 0.0, "bike_id": "2f9456a7df3d9c550de3970cd8733aef", "rental_uris": {"ios": "https://dc.lft.to/lastmile_qr_scan", "android": "https://dc.lft.to/lastmile_qr_scan"}}, {"name": "57cd166710703269ff97b77b465c10eb", "type": "electric_scooter", "lat": 38.917576833333335, "is_reserved": 0, "lon": -77.027055, "fusion_lon": 0.0, "is_disabled": 0, "fusion_lat": 0.0, "bike_id": "57cd166710703269ff97b77b465c10eb", "rental_uris": {"ios": "https://dc.lft.to/lastmile_qr_scan", "android": "https://dc.lft.to/lastmile_qr_scan"}}, {"name": "1138d6967acc2316d9144bd3072116a6", "type": "electric_scooter", "lat": 38.910775, "is_reserved": 0, "lon": -77.0447465, "fusion_lon": 0.0, "is_disabled": 0, "fusion_lat": 0.0, "bike_id": "1138d6967acc2316d9144bd3072116a6", "rental_uris": {"ios": "https://dc.lft.to/lastmile_qr_scan", "android": "https://dc.lft.to/lastmile_qr_scan"}}, {"name": "fe7afe9d70dcbb5ae0aded78ea155d34", "type": "electric_scooter", "lat": 38.89582266666667, "is_reserved": 0, "lon": -77.02327116666666, "fusion_lon": 0.0, "is_disabled": 0, "fusion_lat": 0.0, "bike_id": "fe7afe9d70dcbb5ae0aded78ea155d34", "rental_uris": {"ios": "https://dc.lft.to/lastmile_qr_scan", "android": "https://dc.lft.to/lastmile_qr_scan"}}, {"name": "17f867ed384329d2205486b1726c5f0e", "type": "electric_scooter", "lat": 38.92316566666667, "is_reserved": 0, "lon": -77.04218833333333, "fusion_lon": 0.0, "is_disabled": 0, "fusion_lat": 0.0, "bike_id": "17f867ed384329d2205486b1726c5f0e", "rental_uris": {"ios": "https://dc.lft.to/lastmile_qr_scan", "android": "https://dc.lft.to/lastmile_qr_scan"}}, {"name": "b9763468135628a3b24369d550aba054", "type": "electric_scooter", "lat": 38.933612833333335, "is_reserved": 0, "lon": -77.0572935, "fusion_lon": 0.0, "is_disabled": 0, "fusion_lat": 0.0, "bike_id": "b9763468135628a3b24369d550aba054", "rental_uris": {"ios": "https://dc.lft.to/lastmile_qr_scan", "android": "https://dc.lft.to/lastmile_qr_scan"}}, {"name": "ebec00a6cf043f6750fac2c25eaa7715", "type": "electric_scooter", "lat": 38.90142683333333, "is_reserved": 0, "lon": -77.00072833333333, "fusion_lon": 0.0, "is_disabled": 0, "fusion_lat": 0.0, "bike_id": "ebec00a6cf043f6750fac2c25eaa7715", "rental_uris": {"ios": "https://dc.lft.to/lastmile_qr_scan", "android": "https://dc.lft.to/lastmile_qr_scan"}}, {"name": "ac7b8211d146dfff15ad4ffa80885332", "type": "electric_scooter", "lat": 38.906849, "is_reserved": 0, "lon": -77.02690216666667, "fusion_lon": 0.0, "is_disabled": 0, "fusion_lat": 0.0, "bike_id": "ac7b8211d146dfff15ad4ffa80885332", "rental_uris": {"ios": "https://dc.lft.to/lastmile_qr_scan", "android": "https://dc.lft.to/lastmile_qr_scan"}}, {"name": "7ba5ec3fcd4e7d1071d8d5b65f8a9394", "type": "electric_scooter", "lat": 38.907918333333335, "is_reserved": 0, "lon": -77.0487565, "fusion_lon": 0.0, "is_disabled": 0, "fusion_lat": 0.0, "bike_id": "7ba5ec3fcd4e7d1071d8d5b65f8a9394", "rental_uris": {"ios": "https://dc.lft.to/lastmile_qr_scan", "android": "https://dc.lft.to/lastmile_qr_scan"}}, {"name": "f676c685266a10fb3bd3b95c2e758ffa", "type": "electric_bike", "lat": 38.88404283333333, "is_reserved": 0, "lon": -76.96058266666667, "fusion_lon": 0.0, "is_disabled": 0, "fusion_lat": 0.0, "bike_id": "f676c685266a10fb3bd3b95c2e758ffa", "rental_uris": {"ios": "https://dc.lft.to/lastmile_qr_scan", "android": "https://dc.lft.to/lastmile_qr_scan"}}, {"name": "ed085843b218706e3f98244bf181f3f2", "type": "electric_scooter", "lat": 38.934331, "is_reserved": 0, "lon": -77.0398915, "fusion_lon": 0.0, "is_disabled": 0, "fusion_lat": 0.0, "bike_id": "ed085843b218706e3f98244bf181f3f2", "rental_uris": {"ios": "https://dc.lft.to/lastmile_qr_scan", "android": "https://dc.lft.to/lastmile_qr_scan"}}, {"name": "61c3d8d590853a1721ee19cb477acaa3", "type": "electric_scooter", "lat": 38.91873666666667, "is_reserved": 0, "lon": -77.03504633333333, "fusion_lon": 0.0, "is_disabled": 0, "fusion_lat": 0.0, "bike_id": "61c3d8d590853a1721ee19cb477acaa3", "rental_uris": {"ios": "https://dc.lft.to/lastmile_qr_scan", "android": "https://dc.lft.to/lastmile_qr_scan"}}, {"name": "05b2ff445cd9b967c1b901c9ed623e31", "type": "electric_scooter", "lat": 38.8921745, "is_reserved": 0, "lon": -77.03090583333334, "fusion_lon": 0.0, "is_disabled": 0, "fusion_lat": 0.0, "bike_id": "05b2ff445cd9b967c1b901c9ed623e31", "rental_uris": {"ios": "https://dc.lft.to/lastmile_qr_scan", "android": "https://dc.lft.to/lastmile_qr_scan"}}, {"name": "b2298d574bcbe58b06a511a3efcb7707", "type": "electric_bike", "lat": 38.950769333333334, "is_reserved": 0, "lon": -77.0119635, "fusion_lon": 0.0, "is_disabled": 0, "fusion_lat": 0.0, "bike_id": "b2298d574bcbe58b06a511a3efcb7707", "rental_uris": {"ios": "https://dc.lft.to/lastmile_qr_scan", "android": "https://dc.lft.to/lastmile_qr_scan"}}, {"name": "4a4c160b59cc78022acb5b0d9f13f203", "type": "electric_scooter", "lat": 38.93717516666667, "is_reserved": 0, "lon": -77.02436133333333, "fusion_lon": 0.0, "is_disabled": 0, "fusion_lat": 0.0, "bike_id": "4a4c160b59cc78022acb5b0d9f13f203", "rental_uris": {"ios": "https://dc.lft.to/lastmile_qr_scan", "android": "https://dc.lft.to/lastmile_qr_scan"}}, {"name": "dc1d3e0c0c7f5f2895e2e28c5597a979", "type": "electric_scooter", "lat": 38.9008635, "is_reserved": 0, "lon": -77.002027, "fusion_lon": 0.0, "is_disabled": 0, "fusion_lat": 0.0, "bike_id": "dc1d3e0c0c7f5f2895e2e28c5597a979", "rental_uris": {"ios": "https://dc.lft.to/lastmile_qr_scan", "android": "https://dc.lft.to/lastmile_qr_scan"}}, {"name": "c0f08d64c04174fccdc854d4b28d5e88", "type": "electric_scooter", "lat": 38.92823283333333, "is_reserved": 0, "lon": -77.02259133333334, "fusion_lon": 0.0, "is_disabled": 0, "fusion_lat": 0.0, "bike_id": "c0f08d64c04174fccdc854d4b28d5e88", "rental_uris": {"ios": "https://dc.lft.to/lastmile_qr_scan", "android": "https://dc.lft.to/lastmile_qr_scan"}}, {"name": "d48393967969ebc2738684bb8d18601b", "type": "electric_scooter", "lat": 38.89661866666667, "is_reserved": 0, "lon": -77.011868, "fusion_lon": 0.0, "is_disabled": 0, "fusion_lat": 0.0, "bike_id": "d48393967969ebc2738684bb8d18601b", "rental_uris": {"ios": "https://dc.lft.to/lastmile_qr_scan", "android": "https://dc.lft.to/lastmile_qr_scan"}}, {"name": "82593076b523135d6c681fc1885b5fe2", "type": "electric_scooter", "lat": 38.90140933333333, "is_reserved": 0, "lon": -77.046848, "fusion_lon": 0.0, "is_disabled": 0, "fusion_lat": 0.0, "bike_id": "82593076b523135d6c681fc1885b5fe2", "rental_uris": {"ios": "https://dc.lft.to/lastmile_qr_scan", "android": "https://dc.lft.to/lastmile_qr_scan"}}, {"name": "ad9a488e235a795193a796fea067b0e1", "type": "electric_bike", "lat": 38.831372333333334, "is_reserved": 0, "lon": -77.11340983333334, "fusion_lon": 0.0, "is_disabled": 0, "fusion_lat": 0.0, "bike_id": "ad9a488e235a795193a796fea067b0e1", "rental_uris": {"ios": "https://dc.lft.to/lastmile_qr_scan", "android": "https://dc.lft.to/lastmile_qr_scan"}}, {"name": "975188a6c3947ba4f1225b19a1e67a77", "type": "electric_scooter", "lat": 38.915638666666666, "is_reserved": 0, "lon": -77.02946033333333, "fusion_lon": 0.0, "is_disabled": 0, "fusion_lat": 0.0, "bike_id": "975188a6c3947ba4f1225b19a1e67a77", "rental_uris": {"ios": "https://dc.lft.to/lastmile_qr_scan", "android": "https://dc.lft.to/lastmile_qr_scan"}}, {"name": "6a27ce944a1a0f0741ca11e997366b74", "type": "electric_bike", "lat": 39.0519535, "is_reserved": 0, "lon": -77.10919016666666, "fusion_lon": 0.0, "is_disabled": 0, "fusion_lat": 0.0, "bike_id": "6a27ce944a1a0f0741ca11e997366b74", "rental_uris": {"ios": "https://dc.lft.to/lastmile_qr_scan", "android": "https://dc.lft.to/lastmile_qr_scan"}}, {"name": "11f77923f9335f0179fb0ef6ae1d78a0", "type": "electric_scooter", "lat": 38.930746666666664, "is_reserved": 0, "lon": -77.038066, "fusion_lon": 0.0, "is_disabled": 0, "fusion_lat": 0.0, "bike_id": "11f77923f9335f0179fb0ef6ae1d78a0", "rental_uris": {"ios": "https://dc.lft.to/lastmile_qr_scan", "android": "https://dc.lft.to/lastmile_qr_scan"}}, {"name": "55dc501dedfc02527bb124a8f52cc5d3", "type": "electric_scooter", "lat": 38.914012, "is_reserved": 0, "lon": -77.03910133333333, "fusion_lon": 0.0, "is_disabled": 0, "fusion_lat": 0.0, "bike_id": "55dc501dedfc02527bb124a8f52cc5d3", "rental_uris": {"ios": "https://dc.lft.to/lastmile_qr_scan", "android": "https://dc.lft.to/lastmile_qr_scan"}}, {"name": "82dc2d39cb529d483cc17f77bc90c836", "type": "electric_scooter", "lat": 38.84421833333333, "is_reserved": 0, "lon": -76.997776, "fusion_lon": 0.0, "is_disabled": 0, "fusion_lat": 0.0, "bike_id": "82dc2d39cb529d483cc17f77bc90c836", "rental_uris": {"ios": "https://dc.lft.to/lastmile_qr_scan", "android": "https://dc.lft.to/lastmile_qr_scan"}}, {"name": "f9f34860b1ce5a6c0273c82e1dc5c6a7", "type": "electric_scooter", "lat": 38.86240816666667, "is_reserved": 0, "lon": -76.9949685, "fusion_lon": 0.0, "is_disabled": 0, "fusion_lat": 0.0, "bike_id": "f9f34860b1ce5a6c0273c82e1dc5c6a7", "rental_uris": {"ios": "https://dc.lft.to/lastmile_qr_scan", "android": "https://dc.lft.to/lastmile_qr_scan"}}, {"name": "b66d9a9af0f18ad4e4195c88d18213ef", "type": "electric_scooter", "lat": 38.87197666666667, "is_reserved": 0, "lon": -77.00578366666667, "fusion_lon": 0.0, "is_disabled": 0, "fusion_lat": 0.0, "bike_id": "b66d9a9af0f18ad4e4195c88d18213ef", "rental_uris": {"ios": "https://dc.lft.to/lastmile_qr_scan", "android": "https://dc.lft.to/lastmile_qr_scan"}}, {"name": "cee646fe6e94a9dac89af615ee308ec2", "type": "electric_scooter", "lat": 38.93383266666667, "is_reserved": 0, "lon": -77.02735283333334, "fusion_lon": 0.0, "is_disabled": 0, "fusion_lat": 0.0, "bike_id": "cee646fe6e94a9dac89af615ee308ec2", "rental_uris": {"ios": "https://dc.lft.to/lastmile_qr_scan", "android": "https://dc.lft.to/lastmile_qr_scan"}}, {"name": "6bcdc7d5922b05b28271e2167c1f98cb", "type": "electric_bike", "lat": 38.84156566666667, "is_reserved": 0, "lon": -77.0888935, "fusion_lon": 0.0, "is_disabled": 0, "fusion_lat": 0.0, "bike_id": "6bcdc7d5922b05b28271e2167c1f98cb", "rental_uris": {"ios": "https://dc.lft.to/lastmile_qr_scan", "android": "https://dc.lft.to/lastmile_qr_scan"}}, {"name": "f2f4aa106ba0da7d760222cd2ab6bc1f", "type": "electric_scooter", "lat": 38.89883433333333, "is_reserved": 0, "lon": -76.93173116666667, "fusion_lon": 0.0, "is_disabled": 0, "fusion_lat": 0.0, "bike_id": "f2f4aa106ba0da7d760222cd2ab6bc1f", "rental_uris": {"ios": "https://dc.lft.to/lastmile_qr_scan", "android": "https://dc.lft.to/lastmile_qr_scan"}}, {"name": "464959bd74b3b4a57d578ed769cd9caa", "type": "electric_scooter", "lat": 38.90141766666667, "is_reserved": 0, "lon": -76.99120383333333, "fusion_lon": 0.0, "is_disabled": 0, "fusion_lat": 0.0, "bike_id": "464959bd74b3b4a57d578ed769cd9caa", "rental_uris": {"ios": "https://dc.lft.to/lastmile_qr_scan", "android": "https://dc.lft.to/lastmile_qr_scan"}}, {"name": "7c4025baf76ee95081ee030be3549269", "type": "electric_scooter", "lat": 38.92073283333333, "is_reserved": 0, "lon": -77.0322345, "fusion_lon": 0.0, "is_disabled": 0, "fusion_lat": 0.0, "bike_id": "7c4025baf76ee95081ee030be3549269", "rental_uris": {"ios": "https://dc.lft.to/lastmile_qr_scan", "android": "https://dc.lft.to/lastmile_qr_scan"}}, {"name": "532d302dda50ffde8a9ae95a6031efaf", "type": "electric_scooter", "lat": 38.89948116666667, "is_reserved": 0, "lon": -77.05269666666666, "fusion_lon": 0.0, "is_disabled": 0, "fusion_lat": 0.0, "bike_id": "532d302dda50ffde8a9ae95a6031efaf", "rental_uris": {"ios": "https://dc.lft.to/lastmile_qr_scan", "android": "https://dc.lft.to/lastmile_qr_scan"}}, {"name": "b6555a5d176cfaecadc7206321336015", "type": "electric_scooter", "lat": 38.90133683333333, "is_reserved": 0, "lon": -77.03341983333334, "fusion_lon": 0.0, "is_disabled": 0, "fusion_lat": 0.0, "bike_id": "b6555a5d176cfaecadc7206321336015", "rental_uris": {"ios": "https://dc.lft.to/lastmile_qr_scan", "android": "https://dc.lft.to/lastmile_qr_scan"}}, {"name": "2a7bf5b6ea041285000fce94ad0eaadb", "type": "electric_scooter", "lat": 38.92709116666666, "is_reserved": 0, "lon": -77.03960683333334, "fusion_lon": 0.0, "is_disabled": 0, "fusion_lat": 0.0, "bike_id": "2a7bf5b6ea041285000fce94ad0eaadb", "rental_uris": {"ios": "https://dc.lft.to/lastmile_qr_scan", "android": "https://dc.lft.to/lastmile_qr_scan"}}, {"name": "e45fb85adedabf0cdcf653b7e58ea54d", "type": "electric_bike", "lat": 38.838196333333336, "is_reserved": 0, "lon": -76.99678666666667, "fusion_lon": 0.0, "is_disabled": 0, "fusion_lat": 0.0, "bike_id": "e45fb85adedabf0cdcf653b7e58ea54d", "rental_uris": {"ios": "https://dc.lft.to/lastmile_qr_scan", "android": "https://dc.lft.to/lastmile_qr_scan"}}, {"name": "d6ef51e5ccb7ccb46b57c0b651ffe181", "type": "electric_scooter", "lat": 38.897389833333335, "is_reserved": 0, "lon": -76.93843533333333, "fusion_lon": 0.0, "is_disabled": 0, "fusion_lat": 0.0, "bike_id": "d6ef51e5ccb7ccb46b57c0b651ffe181", "rental_uris": {"ios": "https://dc.lft.to/lastmile_qr_scan", "android": "https://dc.lft.to/lastmile_qr_scan"}}, {"name": "f4ec0a745f47b1f5b4f9f50bb247835d", "type": "electric_scooter", "lat": 38.92151666666667, "is_reserved": 0, "lon": -77.0422605, "fusion_lon": 0.0, "is_disabled": 0, "fusion_lat": 0.0, "bike_id": "f4ec0a745f47b1f5b4f9f50bb247835d", "rental_uris": {"ios": "https://dc.lft.to/lastmile_qr_scan", "android": "https://dc.lft.to/lastmile_qr_scan"}}, {"name": "0a12a0fa078174f41f246a5a8ec4df90", "type": "electric_scooter", "lat": 38.905852333333335, "is_reserved": 0, "lon": -77.065199, "fusion_lon": 0.0, "is_disabled": 0, "fusion_lat": 0.0, "bike_id": "0a12a0fa078174f41f246a5a8ec4df90", "rental_uris": {"ios": "https://dc.lft.to/lastmile_qr_scan", "android": "https://dc.lft.to/lastmile_qr_scan"}}, {"name": "35ab15a081723d040df3c7517c1f50a1", "type": "electric_bike", "lat": 38.888438, "is_reserved": 0, "lon": -77.08274583333333, "fusion_lon": 0.0, "is_disabled": 0, "fusion_lat": 0.0, "bike_id": "35ab15a081723d040df3c7517c1f50a1", "rental_uris": {"ios": "https://dc.lft.to/lastmile_qr_scan", "android": "https://dc.lft.to/lastmile_qr_scan"}}, {"name": "5ba9069eeac591d4f6eba437a8e34233", "type": "electric_scooter", "lat": 38.894838, "is_reserved": 0, "lon": -76.99517466666667, "fusion_lon": 0.0, "is_disabled": 0, "fusion_lat": 0.0, "bike_id": "5ba9069eeac591d4f6eba437a8e34233", "rental_uris": {"ios": "https://dc.lft.to/lastmile_qr_scan", "android": "https://dc.lft.to/lastmile_qr_scan"}}, {"name": "70023df8a07321313c7c91cb0a4e0fff", "type": "electric_scooter", "lat": 38.9329155, "is_reserved": 0, "lon": -77.039829, "fusion_lon": 0.0, "is_disabled": 0, "fusion_lat": 0.0, "bike_id": "70023df8a07321313c7c91cb0a4e0fff", "rental_uris": {"ios": "https://dc.lft.to/lastmile_qr_scan", "android": "https://dc.lft.to/lastmile_qr_scan"}}, {"name": "3a2b291cf07b265f87d865a777775af9", "type": "electric_scooter", "lat": 38.912746, "is_reserved": 0, "lon": -77.0294565, "fusion_lon": 0.0, "is_disabled": 0, "fusion_lat": 0.0, "bike_id": "3a2b291cf07b265f87d865a777775af9", "rental_uris": {"ios": "https://dc.lft.to/lastmile_qr_scan", "android": "https://dc.lft.to/lastmile_qr_scan"}}, {"name": "3acad5fdd45f91897d90752abf77ce48", "type": "electric_scooter", "lat": 38.86519883333333, "is_reserved": 0, "lon": -76.99028366666667, "fusion_lon": 0.0, "is_disabled": 0, "fusion_lat": 0.0, "bike_id": "3acad5fdd45f91897d90752abf77ce48", "rental_uris": {"ios": "https://dc.lft.to/lastmile_qr_scan", "android": "https://dc.lft.to/lastmile_qr_scan"}}, {"name": "ddb6c935387e4d8768e1835e9a02e8ee", "type": "electric_scooter", "lat": 38.89467483333333, "is_reserved": 0, "lon": -77.01926533333334, "fusion_lon": 0.0, "is_disabled": 0, "fusion_lat": 0.0, "bike_id": "ddb6c935387e4d8768e1835e9a02e8ee", "rental_uris": {"ios": "https://dc.lft.to/lastmile_qr_scan", "android": "https://dc.lft.to/lastmile_qr_scan"}}, {"name": "98f09a9b2dbfa1be6aa0ffea573cf70a", "type": "electric_scooter", "lat": 38.886907, "is_reserved": 0, "lon": -76.95759533333333, "fusion_lon": 0.0, "is_disabled": 0, "fusion_lat": 0.0, "bike_id": "98f09a9b2dbfa1be6aa0ffea573cf70a", "rental_uris": {"ios": "https://dc.lft.to/lastmile_qr_scan", "android": "https://dc.lft.to/lastmile_qr_scan"}}, {"name": "4987a7e14aeee3aaaf4e70ecb413b9b7", "type": "electric_scooter", "lat": 38.905128, "is_reserved": 0, "lon": -77.06943133333333, "fusion_lon": 0.0, "is_disabled": 0, "fusion_lat": 0.0, "bike_id": "4987a7e14aeee3aaaf4e70ecb413b9b7", "rental_uris": {"ios": "https://dc.lft.to/lastmile_qr_scan", "android": "https://dc.lft.to/lastmile_qr_scan"}}, {"name": "3c31b73d5d5a0a7d682ef781159dbcd5", "type": "electric_scooter", "lat": 38.923250833333334, "is_reserved": 0, "lon": -77.039575, "fusion_lon": 0.0, "is_disabled": 0, "fusion_lat": 0.0, "bike_id": "3c31b73d5d5a0a7d682ef781159dbcd5", "rental_uris": {"ios": "https://dc.lft.to/lastmile_qr_scan", "android": "https://dc.lft.to/lastmile_qr_scan"}}, {"name": "b23d895480fd36e9417b96ea7b9f6ea3", "type": "electric_scooter", "lat": 38.920606, "is_reserved": 0, "lon": -77.03426933333333, "fusion_lon": 0.0, "is_disabled": 0, "fusion_lat": 0.0, "bike_id": "b23d895480fd36e9417b96ea7b9f6ea3", "rental_uris": {"ios": "https://dc.lft.to/lastmile_qr_scan", "android": "https://dc.lft.to/lastmile_qr_scan"}}, {"name": "16f88575866b7079e2e19a15d183f05f", "type": "electric_scooter", "lat": 38.92979066666667, "is_reserved": 0, "lon": -77.016575, "fusion_lon": 0.0, "is_disabled": 0, "fusion_lat": 0.0, "bike_id": "16f88575866b7079e2e19a15d183f05f", "rental_uris": {"ios": "https://dc.lft.to/lastmile_qr_scan", "android": "https://dc.lft.to/lastmile_qr_scan"}}, {"name": "034bf7611a01c30b5127cfdc8d385f0d", "type": "electric_scooter", "lat": 38.9110605, "is_reserved": 0, "lon": -77.01058983333333, "fusion_lon": 0.0, "is_disabled": 0, "fusion_lat": 0.0, "bike_id": "034bf7611a01c30b5127cfdc8d385f0d", "rental_uris": {"ios": "https://dc.lft.to/lastmile_qr_scan", "android": "https://dc.lft.to/lastmile_qr_scan"}}, {"name": "2c92f532b26f6d562a3da6b538920e09", "type": "electric_scooter", "lat": 38.909512666666664, "is_reserved": 0, "lon": -77.0232025, "fusion_lon": 0.0, "is_disabled": 0, "fusion_lat": 0.0, "bike_id": "2c92f532b26f6d562a3da6b538920e09", "rental_uris": {"ios": "https://dc.lft.to/lastmile_qr_scan", "android": "https://dc.lft.to/lastmile_qr_scan"}}, {"name": "f34d7fceacbe436ae3162102e2e257ad", "type": "electric_scooter", "lat": 38.91024483333333, "is_reserved": 0, "lon": -77.052715, "fusion_lon": 0.0, "is_disabled": 0, "fusion_lat": 0.0, "bike_id": "f34d7fceacbe436ae3162102e2e257ad", "rental_uris": {"ios": "https://dc.lft.to/lastmile_qr_scan", "android": "https://dc.lft.to/lastmile_qr_scan"}}, {"name": "a93120d674377910aede849b1c23a18b", "type": "electric_scooter", "lat": 38.900607, "is_reserved": 0, "lon": -77.04908833333333, "fusion_lon": 0.0, "is_disabled": 0, "fusion_lat": 0.0, "bike_id": "a93120d674377910aede849b1c23a18b", "rental_uris": {"ios": "https://dc.lft.to/lastmile_qr_scan", "android": "https://dc.lft.to/lastmile_qr_scan"}}, {"name": "85d23ab8ae3a1d9a21da4498e665353a", "type": "electric_scooter", "lat": 38.92088016666666, "is_reserved": 0, "lon": -77.023891, "fusion_lon": 0.0, "is_disabled": 0, "fusion_lat": 0.0, "bike_id": "85d23ab8ae3a1d9a21da4498e665353a", "rental_uris": {"ios": "https://dc.lft.to/lastmile_qr_scan", "android": "https://dc.lft.to/lastmile_qr_scan"}}, {"name": "3415bd9d6b53ffca1578de9e34523e00", "type": "electric_scooter", "lat": 38.9420925, "is_reserved": 0, "lon": -77.015009, "fusion_lon": 0.0, "is_disabled": 0, "fusion_lat": 0.0, "bike_id": "3415bd9d6b53ffca1578de9e34523e00", "rental_uris": {"ios": "https://dc.lft.to/lastmile_qr_scan", "android": "https://dc.lft.to/lastmile_qr_scan"}}, {"name": "ee34bea864ca41001e5790c7486dcec0", "type": "electric_scooter", "lat": 38.892322666666665, "is_reserved": 0, "lon": -77.03208316666667, "fusion_lon": 0.0, "is_disabled": 0, "fusion_lat": 0.0, "bike_id": "ee34bea864ca41001e5790c7486dcec0", "rental_uris": {"ios": "https://dc.lft.to/lastmile_qr_scan", "android": "https://dc.lft.to/lastmile_qr_scan"}}, {"name": "2995f9f3d22ba4c35e8b289d8a2f2f3e", "type": "electric_scooter", "lat": 38.922414833333335, "is_reserved": 0, "lon": -77.03087833333333, "fusion_lon": 0.0, "is_disabled": 0, "fusion_lat": 0.0, "bike_id": "2995f9f3d22ba4c35e8b289d8a2f2f3e", "rental_uris": {"ios": "https://dc.lft.to/lastmile_qr_scan", "android": "https://dc.lft.to/lastmile_qr_scan"}}, {"name": "9428229574d53b624c36bf5644d31b08", "type": "electric_scooter", "lat": 38.90798933333333, "is_reserved": 0, "lon": -76.99698, "fusion_lon": 0.0, "is_disabled": 0, "fusion_lat": 0.0, "bike_id": "9428229574d53b624c36bf5644d31b08", "rental_uris": {"ios": "https://dc.lft.to/lastmile_qr_scan", "android": "https://dc.lft.to/lastmile_qr_scan"}}, {"name": "2449b12742c7a55ba33cb123540f7657", "type": "electric_scooter", "lat": 38.91015433333333, "is_reserved": 0, "lon": -77.02199733333333, "fusion_lon": 0.0, "is_disabled": 0, "fusion_lat": 0.0, "bike_id": "2449b12742c7a55ba33cb123540f7657", "rental_uris": {"ios": "https://dc.lft.to/lastmile_qr_scan", "android": "https://dc.lft.to/lastmile_qr_scan"}}, {"name": "528570f86f542b8d3e61f4660712e288", "type": "electric_scooter", "lat": 38.89731483333333, "is_reserved": 0, "lon": -77.05569033333333, "fusion_lon": 0.0, "is_disabled": 0, "fusion_lat": 0.0, "bike_id": "528570f86f542b8d3e61f4660712e288", "rental_uris": {"ios": "https://dc.lft.to/lastmile_qr_scan", "android": "https://dc.lft.to/lastmile_qr_scan"}}, {"name": "3eb080f7b1ed8e5c3d6cc41a373faeef", "type": "electric_scooter", "lat": 38.89688, "is_reserved": 0, "lon": -76.99622883333333, "fusion_lon": 0.0, "is_disabled": 0, "fusion_lat": 0.0, "bike_id": "3eb080f7b1ed8e5c3d6cc41a373faeef", "rental_uris": {"ios": "https://dc.lft.to/lastmile_qr_scan", "android": "https://dc.lft.to/lastmile_qr_scan"}}, {"name": "483116354cbf31dfefb8f06736650876", "type": "electric_scooter", "lat": 38.91122683333333, "is_reserved": 0, "lon": -77.03739516666667, "fusion_lon": 0.0, "is_disabled": 0, "fusion_lat": 0.0, "bike_id": "483116354cbf31dfefb8f06736650876", "rental_uris": {"ios": "https://dc.lft.to/lastmile_qr_scan", "android": "https://dc.lft.to/lastmile_qr_scan"}}, {"name": "9b6914a1ef1bb836d78d2c8021ed6490", "type": "electric_scooter", "lat": 38.936082166666665, "is_reserved": 0, "lon": -77.05864016666666, "fusion_lon": 0.0, "is_disabled": 0, "fusion_lat": 0.0, "bike_id": "9b6914a1ef1bb836d78d2c8021ed6490", "rental_uris": {"ios": "https://dc.lft.to/lastmile_qr_scan", "android": "https://dc.lft.to/lastmile_qr_scan"}}, {"name": "62580a5b956d2eeb402b7e6e9487d015", "type": "electric_scooter", "lat": 38.923096, "is_reserved": 0, "lon": -77.04463383333334, "fusion_lon": 0.0, "is_disabled": 0, "fusion_lat": 0.0, "bike_id": "62580a5b956d2eeb402b7e6e9487d015", "rental_uris": {"ios": "https://dc.lft.to/lastmile_qr_scan", "android": "https://dc.lft.to/lastmile_qr_scan"}}, {"name": "5f77050b90ba07c142bb5b755cd75c47", "type": "electric_scooter", "lat": 38.900658166666666, "is_reserved": 0, "lon": -77.04531933333334, "fusion_lon": 0.0, "is_disabled": 0, "fusion_lat": 0.0, "bike_id": "5f77050b90ba07c142bb5b755cd75c47", "rental_uris": {"ios": "https://dc.lft.to/lastmile_qr_scan", "android": "https://dc.lft.to/lastmile_qr_scan"}}, {"name": "c9c4392baa31f8ed21bd78b0bbffbd4b", "type": "electric_scooter", "lat": 38.913392333333334, "is_reserved": 0, "lon": -77.03205083333333, "fusion_lon": 0.0, "is_disabled": 0, "fusion_lat": 0.0, "bike_id": "c9c4392baa31f8ed21bd78b0bbffbd4b", "rental_uris": {"ios": "https://dc.lft.to/lastmile_qr_scan", "android": "https://dc.lft.to/lastmile_qr_scan"}}, {"name": "f649b135c4211bb117c511a5bbe35d99", "type": "electric_scooter", "lat": 38.90122233333334, "is_reserved": 0, "lon": -77.0422945, "fusion_lon": 0.0, "is_disabled": 0, "fusion_lat": 0.0, "bike_id": "f649b135c4211bb117c511a5bbe35d99", "rental_uris": {"ios": "https://dc.lft.to/lastmile_qr_scan", "android": "https://dc.lft.to/lastmile_qr_scan"}}, {"name": "c214d381e0153dc463654a9691a651c9", "type": "electric_scooter", "lat": 38.89412183333334, "is_reserved": 0, "lon": -77.02181783333333, "fusion_lon": 0.0, "is_disabled": 0, "fusion_lat": 0.0, "bike_id": "c214d381e0153dc463654a9691a651c9", "rental_uris": {"ios": "https://dc.lft.to/lastmile_qr_scan", "android": "https://dc.lft.to/lastmile_qr_scan"}}, {"name": "5f2bf61b11dafe3902fe47455e854bba", "type": "electric_bike", "lat": 38.93550466666667, "is_reserved": 0, "lon": -77.03707116666666, "fusion_lon": 0.0, "is_disabled": 0, "fusion_lat": 0.0, "bike_id": "5f2bf61b11dafe3902fe47455e854bba", "rental_uris": {"ios": "https://dc.lft.to/lastmile_qr_scan", "android": "https://dc.lft.to/lastmile_qr_scan"}}, {"name": "2c973af97522617c9144d4cc2342ca3f", "type": "electric_scooter", "lat": 38.877525, "is_reserved": 0, "lon": -77.008116, "fusion_lon": 0.0, "is_disabled": 0, "fusion_lat": 0.0, "bike_id": "2c973af97522617c9144d4cc2342ca3f", "rental_uris": {"ios": "https://dc.lft.to/lastmile_qr_scan", "android": "https://dc.lft.to/lastmile_qr_scan"}}, {"name": "57e4ffcd98661d94c9a1557e21832aed", "type": "electric_scooter", "lat": 38.90953183333333, "is_reserved": 0, "lon": -77.0394, "fusion_lon": 0.0, "is_disabled": 0, "fusion_lat": 0.0, "bike_id": "57e4ffcd98661d94c9a1557e21832aed", "rental_uris": {"ios": "https://dc.lft.to/lastmile_qr_scan", "android": "https://dc.lft.to/lastmile_qr_scan"}}, {"name": "661a34c710d90cc11cdb8f3290665bca", "type": "electric_scooter", "lat": 38.9199955, "is_reserved": 0, "lon": -76.95809466666667, "fusion_lon": 0.0, "is_disabled": 0, "fusion_lat": 0.0, "bike_id": "661a34c710d90cc11cdb8f3290665bca", "rental_uris": {"ios": "https://dc.lft.to/lastmile_qr_scan", "android": "https://dc.lft.to/lastmile_qr_scan"}}, {"name": "7a5cb2640b648a8e0691c786c63e1521", "type": "electric_scooter", "lat": 38.92339666666667, "is_reserved": 0, "lon": -77.04173883333333, "fusion_lon": 0.0, "is_disabled": 0, "fusion_lat": 0.0, "bike_id": "7a5cb2640b648a8e0691c786c63e1521", "rental_uris": {"ios": "https://dc.lft.to/lastmile_qr_scan", "android": "https://dc.lft.to/lastmile_qr_scan"}}, {"name": "61129bf7593b57e3c65e91ae17d4b4ff", "type": "electric_scooter", "lat": 38.9190005, "is_reserved": 0, "lon": -77.0417375, "fusion_lon": 0.0, "is_disabled": 0, "fusion_lat": 0.0, "bike_id": "61129bf7593b57e3c65e91ae17d4b4ff", "rental_uris": {"ios": "https://dc.lft.to/lastmile_qr_scan", "android": "https://dc.lft.to/lastmile_qr_scan"}}, {"name": "35f8981b65087ecde0e415c98e5f0ae5", "type": "electric_scooter", "lat": 38.89550883333333, "is_reserved": 0, "lon": -76.92660433333333, "fusion_lon": 0.0, "is_disabled": 0, "fusion_lat": 0.0, "bike_id": "35f8981b65087ecde0e415c98e5f0ae5", "rental_uris": {"ios": "https://dc.lft.to/lastmile_qr_scan", "android": "https://dc.lft.to/lastmile_qr_scan"}}, {"name": "35dbd75ca11a59a6d1cef42ad7b5807b", "type": "electric_scooter", "lat": 38.90244283333333, "is_reserved": 0, "lon": -77.0265555, "fusion_lon": 0.0, "is_disabled": 0, "fusion_lat": 0.0, "bike_id": "35dbd75ca11a59a6d1cef42ad7b5807b", "rental_uris": {"ios": "https://dc.lft.to/lastmile_qr_scan", "android": "https://dc.lft.to/lastmile_qr_scan"}}, {"name": "a487aee39ff2edb31ec0ea569f1d488f", "type": "electric_scooter", "lat": 38.910210166666666, "is_reserved": 0, "lon": -77.03448083333333, "fusion_lon": 0.0, "is_disabled": 0, "fusion_lat": 0.0, "bike_id": "a487aee39ff2edb31ec0ea569f1d488f", "rental_uris": {"ios": "https://dc.lft.to/lastmile_qr_scan", "android": "https://dc.lft.to/lastmile_qr_scan"}}, {"name": "86c5096e9312cf705d9df1365133e90d", "type": "electric_scooter", "lat": 38.9053435, "is_reserved": 0, "lon": -77.02190566666667, "fusion_lon": 0.0, "is_disabled": 0, "fusion_lat": 0.0, "bike_id": "86c5096e9312cf705d9df1365133e90d", "rental_uris": {"ios": "https://dc.lft.to/lastmile_qr_scan", "android": "https://dc.lft.to/lastmile_qr_scan"}}, {"name": "615e6eed37716f793990703294b5894d", "type": "electric_scooter", "lat": 38.933497833333334, "is_reserved": 0, "lon": -77.05863133333334, "fusion_lon": 0.0, "is_disabled": 0, "fusion_lat": 0.0, "bike_id": "615e6eed37716f793990703294b5894d", "rental_uris": {"ios": "https://dc.lft.to/lastmile_qr_scan", "android": "https://dc.lft.to/lastmile_qr_scan"}}, {"name": "19218ed1ef4f3506ab4a4cb86bee320a", "type": "electric_scooter", "lat": 38.900367833333334, "is_reserved": 0, "lon": -77.025953, "fusion_lon": 0.0, "is_disabled": 0, "fusion_lat": 0.0, "bike_id": "19218ed1ef4f3506ab4a4cb86bee320a", "rental_uris": {"ios": "https://dc.lft.to/lastmile_qr_scan", "android": "https://dc.lft.to/lastmile_qr_scan"}}, {"name": "eae12b047184ae6560a62c13069c6789", "type": "electric_scooter", "lat": 38.86249883333333, "is_reserved": 0, "lon": -76.99531016666667, "fusion_lon": 0.0, "is_disabled": 0, "fusion_lat": 0.0, "bike_id": "eae12b047184ae6560a62c13069c6789", "rental_uris": {"ios": "https://dc.lft.to/lastmile_qr_scan", "android": "https://dc.lft.to/lastmile_qr_scan"}},