{"data": {"bikes": [{"rental_uris": {"ios": "https://dc.lft.to/lastmile_qr_scan", "android": "https://dc.lft.to/lastmile_qr_scan"}, "type": "electric_scooter", "lon": -77.08662016666666, "lat": 38.934756166666666, "fusion_lon": 0.0, "name": "f9569efc0026977f975583bb9e9ff178", "bike_id": "f9569efc0026977f975583bb9e9ff178", "is_reserved": 0, "fusion_lat": 0.0, "is_disabled": 0}, {"rental_uris": {"ios": "https://dc.lft.to/lastmile_qr_scan", "android": "https://dc.lft.to/lastmile_qr_scan"}, "type": "electric_scooter", "lon": -77.0296995, "lat": 38.9005005, "fusion_lon": 0.0, "name": "9b55335d77758413225e93413bbe9081", "bike_id": "9b55335d77758413225e93413bbe9081", "is_reserved": 0, "fusion_lat": 0.0, "is_disabled": 0}, {"rental_uris": {"ios": "https://dc.lft.to/lastmile_qr_scan", "android": "https://dc.lft.to/lastmile_qr_scan"}, "type": "electric_scooter", "lon": -77.02742816666667, "lat": 38.89233983333333, "fusion_lon": 0.0, "name": "e830b647487919e9b5f66caebc28222e", "bike_id": "e830b647487919e9b5f66caebc28222e", "is_reserved": 0, "fusion_lat": 0.0, "is_disabled": 0}, {"rental_uris": {"ios": "https://dc.lft.to/lastmile_qr_scan", "android": "https://dc.lft.to/lastmile_qr_scan"}, "type": "electric_scooter", "lon": -76.93753416666667, "lat": 38.890458833333334, "fusion_lon": 0.0, "name": "06b74d1aa9b16cab0c97d3e0b6a46eaf", "bike_id": "06b74d1aa9b16cab0c97d3e0b6a46eaf", "is_reserved": 0, "fusion_lat": 0.0, "is_disabled": 0}, {"rental_uris": {"ios": "https://dc.lft.to/lastmile_qr_scan", "android": "https://dc.lft.to/lastmile_qr_scan"}, "type": "electric_scooter", "lon": -77.03202933333333, "lat": 38.920617166666666, "fusion_lon": 0.0, "name": "82f3e7561e7efc2f4d853a2aad24f3ef", "bike_id": "82f3e7561e7efc2f4d853a2aad24f3ef", "is_reserved": 0, "fusion_lat": 0.0, "is_disabled": 0}, {"rental_uris": {"ios": "https://dc.lft.to/lastmile_qr_scan", "android": "https://dc.lft.to/lastmile_qr_scan"}, "type": "electric_scooter", "lon": -76.9881525, "lat": 38.86381133333333, "fusion_lon": 0.0, "name": "9f41f137ca75a45e7ab1797585aacae9", "bike_id": "9f41f137ca75a45e7ab1797585aacae9", "is_reserved": 0, "fusion_lat": 0.0, "is_disabled": 0}, {"rental_uris": {"ios": "https://dc.lft.to/lastmile_qr_scan", "android": "https://dc.lft.to/lastmile_qr_scan"}, "type": "electric_bike", "lon": -76.990237, "lat": 38.83586566666666, "fusion_lon": 0.0, "name": "b60b13d9b2634691178e0c5083b0ca6c", "bike_id": "b60b13d9b2634691178e0c5083b0ca6c", "is_reserved": 0, "fusion_lat": 0.0, "is_disabled": 0}, {"rental_uris": {"ios": "https://dc.lft.to/lastmile_qr_scan", "android": "https://dc.lft.to/lastmile_qr_scan"}, "type": "electric_scooter", "lon": -77.04121966666666, "lat": 38.90623866666667, "fusion_lon": 0.0, "name": "12c615c757efda3045c5e40d3511254e", "bike_id": "12c615c757efda3045c5e40d3511254e", "is_reserved": 0, "fusion_lat": 0.0, "is_disabled": 0}, {"rental_uris": {"ios": "https://dc.lft.to/lastmile_qr_scan", "android": "https://dc.lft.to/lastmile_qr_scan"}, "type": "electric_scooter", "lon": -77.00134283333334, "lat": 38.894709166666665, "fusion_lon": 0.0, "name": "709902a7a03ded3c6f808f680501036b", "bike_id": "709902a7a03ded3c6f808f680501036b", "is_reserved": 0, "fusion_lat": 0.0, "is_disabled": 0}, {"rental_uris": {"ios": "https://dc.lft.to/lastmile_qr_scan", "android": "https://dc.lft.to/lastmile_qr_scan"}, "type": "electric_scooter", "lon": -76.93009033333334, "lat": 38.898238666666664, "fusion_lon": 0.0, "name": "aea00e8123d3cf0702b90cc3287ae71e", "bike_id": "aea00e8123d3cf0702b90cc3287ae71e", "is_reserved": 0, "fusion_lat": 0.0, "is_disabled": 0}, {"rental_uris": {"ios": "https://dc.lft.to/lastmile_qr_scan", "android": "https://dc.lft.to/lastmile_qr_scan"}, "type": "electric_scooter", "lon": -77.0160385, "lat": 38.89978266666667, "fusion_lon": 0.0, "name": "e169c87a42181864389c53127c0927c9", "bike_id": "e169c87a42181864389c53127c0927c9", "is_reserved": 0, "fusion_lat": 0.0, "is_disabled": 0}, {"rental_uris": {"ios": "https://dc.lft.to/lastmile_qr_scan", "android": "https://dc.lft.to/lastmile_qr_scan"}, "type": "electric_scooter", "lon": -77.06428183333334, "lat": 38.93624533333333, "fusion_lon": 0.0, "name": "5c552509a67bd63ad877bf8403a08ad6", "bike_id": "5c552509a67bd63ad877bf8403a08ad6", "is_reserved": 0, "fusion_lat": 0.0, "is_disabled": 0}, {"rental_uris": {"ios": "https://dc.lft.to/lastmile_qr_scan", "android": "https://dc.lft.to/lastmile_qr_scan"}, "type": "electric_scooter", "lon": -77.01312183333333, "lat": 38.943259166666664, "fusion_lon": 0.0, "name": "5d595832ed03aa586525d551894520ba", "bike_id": "5d595832ed03aa586525d551894520ba", "is_reserved": 0, "fusion_lat": 0.0, "is_disabled": 0}, {"rental_uris": {"ios": "https://dc.lft.to/lastmile_qr_scan", "android": "https://dc.lft.to/lastmile_qr_scan"}, "type": "electric_scooter", "lon": -77.04825216666667, "lat": 38.909493, "fusion_lon": 0.0, "name": "0999612aebd2655d8e1c97b320326e58", "bike_id": "0999612aebd2655d8e1c97b320326e58", "is_reserved": 0, "fusion_lat": 0.0, "is_disabled": 0}, {"rental_uris": {"ios": "https://dc.lft.to/lastmile_qr_scan", "android": "https://dc.lft.to/lastmile_qr_scan"}, "type": "electric_scooter", "lon": -77.022374, "lat": 38.915495, "fusion_lon": 0.0, "name": "a7f263be203a5bf43608b29790be5436", "bike_id": "a7f263be203a5bf43608b29790be5436", "is_reserved": 0, "fusion_lat": 0.0, "is_disabled": 0}, {"rental_uris": {"ios": "https://dc.lft.to/lastmile_qr_scan", "android": "https://dc.lft.to/lastmile_qr_scan"}, "type": "electric_scooter", "lon": -77.019104, "lat": 38.923695, "fusion_lon": 0.0, "name": "7d911f95c25670dbc340c9f42b035dcd", "bike_id": "7d911f95c25670dbc340c9f42b035dcd", "is_reserved": 0, "fusion_lat": 0.0, "is_disabled": 0}, {"rental_uris": {"ios": "https://dc.lft.to/lastmile_qr_scan", "android": "https://dc.lft.to/lastmile_qr_scan"}, "type": "electric_scooter", "lon": -77.0448185, "lat": 38.90055433333333, "fusion_lon": 0.0, "name": "26a36f18802c5f792ada8d9c11efe458", "bike_id": "26a36f18802c5f792ada8d9c11efe458", "is_reserved": 0, "fusion_lat": 0.0, "is_disabled": 0}, {"rental_uris": {"ios": "https://dc.lft.to/lastmile_qr_scan", "android": "https://dc.lft.to/lastmile_qr_scan"}, "type": "electric_scooter", "lon": -77.03722816666667, "lat": 38.90763283333333, "fusion_lon": 0.0, "name": "f6bf76afde02dc8894a1a3e6b27c7ea5", "bike_id": "f6bf76afde02dc8894a1a3e6b27c7ea5", "is_reserved": 0, "fusion_lat": 0.0, "is_disabled": 0}, {"rental_uris": {"ios": "https://dc.lft.to/lastmile_qr_scan", "android": "https://dc.lft.to/lastmile_qr_scan"}, "type": "electric_scooter", "lon": -77.0183565, "lat": 38.914824, "fusion_lon": 0.0, "name": "065d9e2aeec86ecc5841ddcc1fc3af72", "bike_id": "065d9e2aeec86ecc5841ddcc1fc3af72", "is_reserved": 0, "fusion_lat": 0.0, "is_disabled": 0}, {"rental_uris": {"ios": "https://dc.lft.to/lastmile_qr_scan", "android": "https://dc.lft.to/lastmile_qr_scan"}, "type": "electric_scooter", "lon": -77.04591816666667, "lat": 38.89751616666667, "fusion_lon": 0.0, "name": "17cc03ec51ffb8dee6300314efcec99f", "bike_id": "17cc03ec51ffb8dee6300314efcec99f", "is_reserved": 0, "fusion_lat": 0.0, "is_disabled": 0}, {"rental_uris": {"ios": "https://dc.lft.to/lastmile_qr_scan", "android": "https://dc.lft.to/lastmile_qr_scan"}, "type": "electric_bike", "lon": -77.1009995, "lat": 38.989465833333334, "fusion_lon": 0.0, "name": "9333b50237689ba94e651f371e2aa510", "bike_id": "9333b50237689ba94e651f371e2aa510", "is_reserved": 0, "fusion_lat": 0.0, "is_disabled": 0}, {"rental_uris": {"ios": "https://dc.lft.to/lastmile_qr_scan", "android": "https://dc.lft.to/lastmile_qr_scan"}, "type": "electric_scooter", "lon": -77.00048666666666, "lat": 38.88460033333333, "fusion_lon": 0.0, "name": "dcdfef1ab40ab1aa2592e7d907ee297e", "bike_id": "dcdfef1ab40ab1aa2592e7d907ee297e", "is_reserved": 0, "fusion_lat": 0.0, "is_disabled": 0}, {"rental_uris": {"ios": "https://dc.lft.to/lastmile_qr_scan", "android": "https://dc.lft.to/lastmile_qr_scan"}, "type": "electric_scooter", "lon": -76.988899, "lat": 38.913447833333336, "fusion_lon": 0.0, "name": "314fdb1e6c704929900e812ee834cd35", "bike_id": "314fdb1e6c704929900e812ee834cd35", "is_reserved": 0, "fusion_lat": 0.0, "is_disabled": 0}, {"rental_uris": {"ios": "https://dc.lft.to/lastmile_qr_scan", "android": "https://dc.lft.to/lastmile_qr_scan"}, "type": "electric_scooter", "lon": -77.0203265, "lat": 38.9244175, "fusion_lon": 0.0, "name": "248d303ab35cb53c21dfa0e0c42f7022", "bike_id": "248d303ab35cb53c21dfa0e0c42f7022", "is_reserved": 0, "fusion_lat": 0.0, "is_disabled": 0}, {"rental_uris": {"ios": "https://dc.lft.to/lastmile_qr_scan", "android": "https://dc.lft.to/lastmile_qr_scan"}, "type": "electric_scooter", "lon": -77.0321635, "lat": 38.936149666666665, "fusion_lon": 0.0, "name": "0c8d14a24dca07e4754f4e13eacfbb77", "bike_id": "0c8d14a24dca07e4754f4e13eacfbb77", "is_reserved": 0, "fusion_lat": 0.0, "is_disabled": 0}, {"rental_uris": {"ios": "https://dc.lft.to/lastmile_qr_scan", "android": "https://dc.lft.to/lastmile_qr_scan"}, "type": "electric_scooter", "lon": -77.00581816666667, "lat": 38.87547683333333, "fusion_lon": 0.0, "name": "b617111b015062030bd01667084f2edd", "bike_id": "b617111b015062030bd01667084f2edd", "is_reserved": 0, "fusion_lat": 0.0, "is_disabled": 0}, {"rental_uris": {"ios": "https://dc.lft.to/lastmile_qr_scan", "android": "https://dc.lft.to/lastmile_qr_scan"}, "type": "electric_scooter", "lon": -77.02988, "lat": 38.901306, "fusion_lon": 0.0, "name": "a3f5f73ddc2bd604989b01dab89de307", "bike_id": "a3f5f73ddc2bd604989b01dab89de307", "is_reserved": 0, "fusion_lat": 0.0, "is_disabled": 0}, {"rental_uris": {"ios": "https://dc.lft.to/lastmile_qr_scan", "android": "https://dc.lft.to/lastmile_qr_scan"}, "type": "electric_scooter", "lon": -77.034213, "lat": 38.93535833333333, "fusion_lon": 0.0, "name": "ee6e88ab61787a5141f35a943d533406", "bike_id": "ee6e88ab61787a5141f35a943d533406", "is_reserved": 0, "fusion_lat": 0.0, "is_disabled": 0}, {"rental_uris": {"ios": "https://dc.lft.to/lastmile_qr_scan", "android": "https://dc.lft.to/lastmile_qr_scan"}, "type": "electric_scooter", "lon": -77.03202216666666, "lat": 38.903681166666665, "fusion_lon": 0.0, "name": "28db5646337acf4e23de26b008b748d5", "bike_id": "28db5646337acf4e23de26b008b748d5", "is_reserved": 0, "fusion_lat": 0.0, "is_disabled": 0}, {"rental_uris": {"ios": "https://dc.lft.to/lastmile_qr_scan", "android": "https://dc.lft.to/lastmile_qr_scan"}, "type": "electric_scooter", "lon": -77.0292535, "lat": 38.898124833333334, "fusion_lon": 0.0, "name": "903dc0c60592c72f6e1869c0d2e926f8", "bike_id": "903dc0c60592c72f6e1869c0d2e926f8", "is_reserved": 0, "fusion_lat": 0.0, "is_disabled": 0}, {"rental_uris": {"ios": "https://dc.lft.to/lastmile_qr_scan", "android": "https://dc.lft.to/lastmile_qr_scan"}, "type": "electric_scooter", "lon": -77.061726, "lat": 38.905303, "fusion_lon": 0.0, "name": "3423b1e10122f560fd2f647030851350", "bike_id": "3423b1e10122f560fd2f647030851350", "is_reserved": 0, "fusion_lat": 0.0, "is_disabled": 0}, {"rental_uris": {"ios": "https://dc.lft.to/lastmile_qr_scan", "android": "https://dc.lft.to/lastmile_qr_scan"}, "type": "electric_scooter", "lon": -76.9939685, "lat": 38.910091, "fusion_lon": 0.0, "name": "3e2de44ee75b2da112aa3b20fcdd7a70", "bike_id": "3e2de44ee75b2da112aa3b20fcdd7a70", "is_reserved": 0, "fusion_lat": 0.0, "is_disabled": 0}, {"rental_uris": {"ios": "https://dc.lft.to/lastmile_qr_scan", "android": "https://dc.lft.to/lastmile_qr_scan"}, "type": "electric_scooter", "lon": -77.00286016666666, "lat": 38.901259, "fusion_lon": 0.0, "name": "a8b70481593b93046edcfaa4fb92c3bd", "bike_id": "a8b70481593b93046edcfaa4fb92c3bd", "is_reserved": 0, "fusion_lat": 0.0, "is_disabled": 0}, {"rental_uris": {"ios": "https://dc.lft.to/lastmile_qr_scan", "android": "https://dc.lft.to/lastmile_qr_scan"}, "type": "electric_scooter", "lon": -76.99513116666667, "lat": 38.877657166666665, "fusion_lon": 0.0, "name": "d7d092faef763340d1b10be3b92b4434", "bike_id": "d7d092faef763340d1b10be3b92b4434", "is_reserved": 0, "fusion_lat": 0.0, "is_disabled": 0}, {"rental_uris": {"ios": "https://dc.lft.to/lastmile_qr_scan", "android": "https://dc.lft.to/lastmile_qr_scan"}, "type": "electric_scooter", "lon": -77.03724316666667, "lat": 38.9265345, "fusion_lon": 0.0, "name": "51f71017c6b2b9a26c2cd9bf20c1388a", "bike_id": "51f71017c6b2b9a26c2cd9bf20c1388a", "is_reserved": 0, "fusion_lat": 0.0, "is_disabled": 0}, {"rental_uris": {"ios": "https://dc.lft.to/lastmile_qr_scan", "android": "https://dc.lft.to/lastmile_qr_scan"}, "type": "electric_scooter", "lon": -77.021799, "lat": 38.91127516666667, "fusion_lon": 0.0, "name": "f16de4cfbbd308d41366555ef472b963", "bike_id": "f16de4cfbbd308d41366555ef472b963", "is_reserved": 0, "fusion_lat": 0.0, "is_disabled": 0}, {"rental_uris": {"ios": "https://dc.lft.to/lastmile_qr_scan", "android": "https://dc.lft.to/lastmile_qr_scan"}, "type": "electric_scooter", "lon": -77.0269845, "lat": 38.91952083333334, "fusion_lon": 0.0, "name": "89ee1206de7883a139fd96669b13ab6d", "bike_id": "89ee1206de7883a139fd96669b13ab6d", "is_reserved": 0, "fusion_lat": 0.0, "is_disabled": 0}, {"rental_uris": {"ios": "https://dc.lft.to/lastmile_qr_scan", "android": "https://dc.lft.to/lastmile_qr_scan"}, "type": "electric_scooter", "lon": -77.04484833333333, "lat": 38.915927833333335, "fusion_lon": 0.0, "name": "54415f2f8a2df9febf34bb1cf5c871f7", "bike_id": "54415f2f8a2df9febf34bb1cf5c871f7", "is_reserved": 0, "fusion_lat": 0.0, "is_disabled": 0}, {"rental_uris": {"ios": "https://dc.lft.to/lastmile_qr_scan", "android": "https://dc.lft.to/lastmile_qr_scan"}, "type": "electric_scooter", "lon": -77.0609325, "lat": 38.90526116666667, "fusion_lon": 0.0, "name": "9ef14f3597770a5f5ac8d6df2f8b02cc", "bike_id": "9ef14f3597770a5f5ac8d6df2f8b02cc", "is_reserved": 0, "fusion_lat": 0.0, "is_disabled": 0}, {"rental_uris": {"ios": "https://dc.lft.to/lastmile_qr_scan", "android": "https://dc.lft.to/lastmile_qr_scan"}, "type": "electric_scooter", "lon": -76.93750633333333, "lat": 38.8904995, "fusion_lon": 0.0, "name": "9e7d876ea2f09bf0ce81fe7ab6aa01dc", "bike_id": "9e7d876ea2f09bf0ce81fe7ab6aa01dc", "is_reserved": 0, "fusion_lat": 0.0, "is_disabled": 0}, {"rental_uris": {"ios": "https://dc.lft.to/lastmile_qr_scan", "android": "https://dc.lft.to/lastmile_qr_scan"}, "type": "electric_scooter", "lon": -77.02581316666667, "lat": 38.92679416666667, "fusion_lon": 0.0, "name": "29f2a7b7ed50531356318895fc8e16d0", "bike_id": "29f2a7b7ed50531356318895fc8e16d0", "is_reserved": 0, "fusion_lat": 0.0, "is_disabled": 0}, {"rental_uris": {"ios": "https://dc.lft.to/lastmile_qr_scan", "android": "https://dc.lft.to/lastmile_qr_scan"}, "type": "electric_scooter", "lon": -77.0447325, "lat": 38.892173, "fusion_lon": 0.0, "name": "6b0cd015c84bbe8eca2b5fce9fafe3e0", "bike_id": "6b0cd015c84bbe8eca2b5fce9fafe3e0", "is_reserved": 0, "fusion_lat": 0.0, "is_disabled": 0}, {"rental_uris": {"ios": "https://dc.lft.to/lastmile_qr_scan", "android": "https://dc.lft.to/lastmile_qr_scan"}, "type": "electric_bike", "lon": -77.05041766666666, "lat": 39.0389495, "fusion_lon": 0.0, "name": "bcfe1a2e1cd7f316b259a02cd1597667", "bike_id": "bcfe1a2e1cd7f316b259a02cd1597667", "is_reserved": 0, "fusion_lat": 0.0, "is_disabled": 0}, {"rental_uris": {"ios": "https://dc.lft.to/lastmile_qr_scan", "android": "https://dc.lft.to/lastmile_qr_scan"}, "type": "electric_scooter", "lon": -77.04500483333334, "lat": 38.914831666666664, "fusion_lon": 0.0, "name": "d13ca0e4e11224affdc95449dc62f858", "bike_id": "d13ca0e4e11224affdc95449dc62f858", "is_reserved": 0, "fusion_lat": 0.0, "is_disabled": 0}, {"rental_uris": {"ios": "https://dc.lft.to/lastmile_qr_scan", "android": "https://dc.lft.to/lastmile_qr_scan"}, "type": "electric_scooter", "lon": -77.03382833333333, "lat": 38.921603166666664, "fusion_lon": 0.0, "name": "be4e6cb752561b62c952531787521fc8", "bike_id": "be4e6cb752561b62c952531787521fc8", "is_reserved": 0, "fusion_lat": 0.0, "is_disabled": 0}, {"rental_uris": {"ios": "https://dc.lft.to/lastmile_qr_scan", "android": "https://dc.lft.to/lastmile_qr_scan"}, "type": "electric_scooter", "lon": -77.02459133333333, "lat": 38.93711183333333, "fusion_lon": 0.0, "name": "9190960ac78700f6f896f9651cece543", "bike_id": "9190960ac78700f6f896f9651cece543", "is_reserved": 0, "fusion_lat": 0.0, "is_disabled": 0}, {"rental_uris": {"ios": "https://dc.lft.to/lastmile_qr_scan", "android": "https://dc.lft.to/lastmile_qr_scan"}, "type": "electric_scooter", "lon": -76.98549516666667, "lat": 38.9004295, "fusion_lon": 0.0, "name": "dbcbc481db3ac52ac284296da200593a", "bike_id": "dbcbc481db3ac52ac284296da200593a", "is_reserved": 0, "fusion_lat": 0.0, "is_disabled": 0}, {"rental_uris": {"ios": "https://dc.lft.to/lastmile_qr_scan", "android": "https://dc.lft.to/lastmile_qr_scan"}, "type": "electric_scooter", "lon": -77.03531483333333, "lat": 38.9214955, "fusion_lon": 0.0, "name": "63c5c0d55af3737f2c44bbf4ec55a43f", "bike_id": "63c5c0d55af3737f2c44bbf4ec55a43f", "is_reserved": 0, "fusion_lat": 0.0, "is_disabled": 0}, {"rental_uris": {"ios": "https://dc.lft.to/lastmile_qr_scan", "android": "https://dc.lft.to/lastmile_qr_scan"}, "type": "electric_scooter", "lon": -77.04616966666667, "lat": 38.9219065, "fusion_lon": 0.0, "name": "e856331738335dfe31b5aaaf533d1adb", "bike_id": "e856331738335dfe31b5aaaf533d1adb", "is_reserved": 0, "fusion_lat": 0.0, "is_disabled": 0}, {"rental_uris": {"ios": "https://dc.lft.to/lastmile_qr_scan", "android": "https://dc.lft.to/lastmile_qr_scan"}, "type": "electric_scooter", "lon": -76.93923583333333, "lat": 38.8821825, "fusion_lon": 0.0, "name": "c76ef53bd20b9e7dccd6a3041ef964c8", "bike_id": "c76ef53bd20b9e7dccd6a3041ef964c8", "is_reserved": 0, "fusion_lat": 0.0, "is_disabled": 0}, {"rental_uris": {"ios": "https://dc.lft.to/lastmile_qr_scan", "android": "https://dc.lft.to/lastmile_qr_scan"}, "type": "electric_scooter", "lon": -76.99772066666667, "lat": 38.89423766666667, "fusion_lon": 0.0, "name": "965f2d05d55411fdf37a6b55ded8ed6e", "bike_id": "965f2d05d55411fdf37a6b55ded8ed6e", "is_reserved": 0, "fusion_lat": 0.0, "is_disabled": 0}, {"rental_uris": {"ios": "https://dc.lft.to/lastmile_qr_scan", "android": "https://dc.lft.to/lastmile_qr_scan"}, "type": "electric_scooter", "lon": -77.02202433333333, "lat": 38.924748666666666, "fusion_lon": 0.0, "name": "8b6771772265100651c2b90e28bc69b9", "bike_id": "8b6771772265100651c2b90e28bc69b9", "is_reserved": 0, "fusion_lat": 0.0, "is_disabled": 0}, {"rental_uris": {"ios": "https://dc.lft.to/lastmile_qr_scan", "android": "https://dc.lft.to/lastmile_qr_scan"}, "type": "electric_scooter", "lon": -77.052054, "lat": 38.924729166666665, "fusion_lon": 0.0, "name": "55593a3cfc73963d353770b880c25330", "bike_id": "55593a3cfc73963d353770b880c25330", "is_reserved": 0, "fusion_lat": 0.0, "is_disabled": 0}, {"rental_uris": {"ios": "https://dc.lft.to/lastmile_qr_scan", "android": "https://dc.lft.to/lastmile_qr_scan"}, "type": "electric_scooter", "lon": -77.04865816666667, "lat": 38.89219766666667, "fusion_lon": 0.0, "name": "e0bc88dd9169d1a464244df55c3233cf", "bike_id": "e0bc88dd9169d1a464244df55c3233cf", "is_reserved": 0, "fusion_lat": 0.0, "is_disabled": 0}, {"rental_uris": {"ios": "https://dc.lft.to/lastmile_qr_scan", "android": "https://dc.lft.to/lastmile_qr_scan"}, "type": "electric_scooter", "lon": -77.00885616666666, "lat": 38.88378083333333, "fusion_lon": 0.0, "name": "b9036d3c5b0378a0893ad0739e5ca650", "bike_id": "b9036d3c5b0378a0893ad0739e5ca650", "is_reserved": 0, "fusion_lat": 0.0, "is_disabled": 0}, {"rental_uris": {"ios": "https://dc.lft.to/lastmile_qr_scan", "android": "https://dc.lft.to/lastmile_qr_scan"}, "type": "electric_bike", "lon": -76.91088283333333, "lat": 38.8831775, "fusion_lon": 0.0, "name": "f1c2097c938ab3f49519ff61a87aba46", "bike_id": "f1c2097c938ab3f49519ff61a87aba46", "is_reserved": 0, "fusion_lat": 0.0, "is_disabled": 0}, {"rental_uris": {"ios": "https://dc.lft.to/lastmile_qr_scan", "android": "https://dc.lft.to/lastmile_qr_scan"}, "type": "electric_scooter", "lon": -77.00066266666667, "lat": 38.907259833333335, "fusion_lon": 0.0, "name": "7d215915fd2132d834397b983d050f6c", "bike_id": "7d215915fd2132d834397b983d050f6c", "is_reserved": 0, "fusion_lat": 0.0, "is_disabled": 0}, {"rental_uris": {"ios": "https://dc.lft.to/lastmile_qr_scan", "android": "https://dc.lft.to/lastmile_qr_scan"}, "type": "electric_scooter", "lon": -77.01997533333333, "lat": 38.91364383333333, "fusion_lon": 0.0, "name": "8799673c491dd10d64f6839cafeaccae", "bike_id": "8799673c491dd10d64f6839cafeaccae", "is_reserved": 0, "fusion_lat": 0.0, "is_disabled": 0}, {"rental_uris": {"ios": "https://dc.lft.to/lastmile_qr_scan", "android": "https://dc.lft.to/lastmile_qr_scan"}, "type": "electric_scooter", "lon": -77.04351083333333, "lat": 38.900142, "fusion_lon": 0.0, "name": "650d376f1df55a2de7f05896e4dce06a", "bike_id": "650d376f1df55a2de7f05896e4dce06a", "is_reserved": 0, "fusion_lat": 0.0, "is_disabled": 0}, {"rental_uris": {"ios": "https://dc.lft.to/lastmile_qr_scan", "android": "https://dc.lft.to/lastmile_qr_scan"}, "type": "electric_scooter", "lon": -76.93973083333333, "lat": 38.888136, "fusion_lon": 0.0, "name": "988b8221db8ae62eabd9306e803554d4", "bike_id": "988b8221db8ae62eabd9306e803554d4", "is_reserved": 0, "fusion_lat": 0.0, "is_disabled": 0}, {"rental_uris": {"ios": "https://dc.lft.to/lastmile_qr_scan", "android": "https://dc.lft.to/lastmile_qr_scan"}, "type": "electric_scooter", "lon": -77.03793216666666, "lat": 38.92509283333333, "fusion_lon": 0.0, "name": "2fcfa1884a7d1cb7847b4bfe93127a2b", "bike_id": "2fcfa1884a7d1cb7847b4bfe93127a2b", "is_reserved": 0, "fusion_lat": 0.0, "is_disabled": 0}, {"rental_uris": {"ios": "https://dc.lft.to/lastmile_qr_scan", "android": "https://dc.lft.to/lastmile_qr_scan"}, "type": "electric_bike", "lon": -76.99493766666667, "lat": 38.969168333333336, "fusion_lon": 0.0, "name": "9eea244b6a609907e6369fbc63255354", "bike_id": "9eea244b6a609907e6369fbc63255354", "is_reserved": 0, "fusion_lat": 0.0, "is_disabled": 0}, {"rental_uris": {"ios": "https://dc.lft.to/lastmile_qr_scan", "android": "https://dc.lft.to/lastmile_qr_scan"}, "type": "electric_scooter", "lon": -77.04229666666667, "lat": 38.921677833333334, "fusion_lon": 0.0, "name": "e0e46adc359f1464c771d60c09fedb9d", "bike_id": "e0e46adc359f1464c771d60c09fedb9d", "is_reserved": 0, "fusion_lat": 0.0, "is_disabled": 0}, {"rental_uris": {"ios": "https://dc.lft.to/lastmile_qr_scan", "android": "https://dc.lft.to/lastmile_qr_scan"}, "type": "electric_scooter", "lon": -77.02202466666667, "lat": 38.924714, "fusion_lon": 0.0, "name": "6551dab0a580f9dfbdb939ce2ec7bdac", "bike_id": "6551dab0a580f9dfbdb939ce2ec7bdac", "is_reserved": 0, "fusion_lat": 0.0, "is_disabled": 0}, {"rental_uris": {"ios": "https://dc.lft.to/lastmile_qr_scan", "android": "https://dc.lft.to/lastmile_qr_scan"}, "type": "electric_scooter", "lon": -77.00642233333333, "lat": 38.8718505, "fusion_lon": 0.0, "name": "b2de76ef2eaf72b9d97dc2667b0cc0d9", "bike_id": "b2de76ef2eaf72b9d97dc2667b0cc0d9", "is_reserved": 0, "fusion_lat": 0.0, "is_disabled": 0}, {"rental_uris": {"ios": "https://dc.lft.to/lastmile_qr_scan", "android": "https://dc.lft.to/lastmile_qr_scan"}, "type": "electric_scooter", "lon": -77.04445983333333, "lat": 38.91022233333333, "fusion_lon": 0.0, "name": "b3d1140bca282519c27adcd3b887b896", "bike_id": "b3d1140bca282519c27adcd3b887b896", "is_reserved": 0, "fusion_lat": 0.0, "is_disabled": 0}, {"rental_uris": {"ios": "https://dc.lft.to/lastmile_qr_scan", "android": "https://dc.lft.to/lastmile_qr_scan"}, "type": "electric_scooter", "lon": -77.03212283333333, "lat": 38.9132615, "fusion_lon": 0.0, "name": "8d174a26b22579dc41f3ded93fc58939", "bike_id": "8d174a26b22579dc41f3ded93fc58939", "is_reserved": 0, "fusion_lat": 0.0, "is_disabled": 0}, {"rental_uris": {"ios": "https://dc.lft.to/lastmile_qr_scan", "android": "https://dc.lft.to/lastmile_qr_scan"}, "type": "electric_scooter", "lon": -77.02235116666667, "lat": 38.926166, "fusion_lon": 0.0, "name": "2b01ef8577bdb38a891ed2bef2d2ac29", "bike_id": "2b01ef8577bdb38a891ed2bef2d2ac29", "is_reserved": 0, "fusion_lat": 0.0, "is_disabled": 0}, {"rental_uris": {"ios": "https://dc.lft.to/lastmile_qr_scan", "android": "https://dc.lft.to/lastmile_qr_scan"}, "type": "electric_scooter", "lon": -77.040186, "lat": 38.924467666666665, "fusion_lon": 0.0, "name": "b3bd0e37e2859c172f6248eb63b9f99a", "bike_id": "b3bd0e37e2859c172f6248eb63b9f99a", "is_reserved": 0, "fusion_lat": 0.0, "is_disabled": 0}, {"rental_uris": {"ios": "https://dc.lft.to/lastmile_qr_scan", "android": "https://dc.lft.to/lastmile_qr_scan"}, "type": "electric_scooter", "lon": -77.04351866666667, "lat": 38.90621133333333, "fusion_lon": 0.0, "name": "a0d0ec9e42b4bebab8921d67ac7749df", "bike_id": "a0d0ec9e42b4bebab8921d67ac7749df", "is_reserved": 0, "fusion_lat": 0.0, "is_disabled": 0}, {"rental_uris": {"ios": "https://dc.lft.to/lastmile_qr_scan", "android": "https://dc.lft.to/lastmile_qr_scan"}, "type": "electric_scooter", "lon": -77.05158366666667, "lat": 38.92383983333333, "fusion_lon": 0.0, "name": "5258d4ef4dcd732372c9b532eca6f66f", "bike_id": "5258d4ef4dcd732372c9b532eca6f66f", "is_reserved": 0, "fusion_lat": 0.0, "is_disabled": 0}, {"rental_uris": {"ios": "https://dc.lft.to/lastmile_qr_scan", "android": "https://dc.lft.to/lastmile_qr_scan"}, "type": "electric_scooter", "lon": -77.022191, "lat": 38.924686, "fusion_lon": 0.0, "name": "150c6d1e6275627b06a0ee3a31e041b0", "bike_id": "150c6d1e6275627b06a0ee3a31e041b0", "is_reserved": 0, "fusion_lat": 0.0, "is_disabled": 0}, {"rental_uris": {"ios": "https://dc.lft.to/lastmile_qr_scan", "android": "https://dc.lft.to/lastmile_qr_scan"}, "type": "electric_scooter", "lon": -77.03861066666667, "lat": 38.932103833333336, "fusion_lon": 0.0, "name": "f2809f9e69272104e794fc5ed1c10f0b", "bike_id": "f2809f9e69272104e794fc5ed1c10f0b", "is_reserved": 0, "fusion_lat": 0.0, "is_disabled": 0}, {"rental_uris": {"ios": "https://dc.lft.to/lastmile_qr_scan", "android": "https://dc.lft.to/lastmile_qr_scan"}, "type": "electric_bike", "lon": -77.00729766666667, "lat": 38.950644, "fusion_lon": 0.0, "name": "30e77177e0dea7432f4599954c3565cc", "bike_id": "30e77177e0dea7432f4599954c3565cc", "is_reserved": 0, "fusion_lat": 0.0, "is_disabled": 0}, {"rental_uris": {"ios": "https://dc.lft.to/lastmile_qr_scan", "android": "https://dc.lft.to/lastmile_qr_scan"}, "type": "electric_scooter", "lon": -77.03661116666666, "lat": 38.920996, "fusion_lon": 0.0, "name": "51135480e8aba89b2663890dd644189d", "bike_id": "51135480e8aba89b2663890dd644189d", "is_reserved": 0, "fusion_lat": 0.0, "is_disabled": 0}, {"rental_uris": {"ios": "https://dc.lft.to/lastmile_qr_scan", "android": "https://dc.lft.to/lastmile_qr_scan"}, "type": "electric_scooter", "lon": -77.0560075, "lat": 38.9369935, "fusion_lon": 0.0, "name": "26d1fd1dd8683058830281a4cc8557aa", "bike_id": "26d1fd1dd8683058830281a4cc8557aa", "is_reserved": 0, "fusion_lat": 0.0, "is_disabled": 0}, {"rental_uris": {"ios": "https://dc.lft.to/lastmile_qr_scan", "android": "https://dc.lft.to/lastmile_qr_scan"}, "type": "electric_scooter", "lon": -76.93260783333334, "lat": 38.8877245, "fusion_lon": 0.0, "name": "b8bb7fc27bf26e3967ed8c8088b05b41", "bike_id": "b8bb7fc27bf26e3967ed8c8088b05b41", "is_reserved": 0, "fusion_lat": 0.0, "is_disabled": 0}, {"rental_uris": {"ios": "https://dc.lft.to/lastmile_qr_scan", "android": "https://dc.lft.to/lastmile_qr_scan"}, "type": "electric_scooter", "lon": -77.02113966666667, "lat": 38.9246845, "fusion_lon": 0.0, "name": "af8acfd92884ab0a6d621c1096da402e", "bike_id": "af8acfd92884ab0a6d621c1096da402e", "is_reserved": 0, "fusion_lat": 0.0, "is_disabled": 0}, {"rental_uris": {"ios": "https://dc.lft.to/lastmile_qr_scan", "android": "https://dc.lft.to/lastmile_qr_scan"}, "type": "electric_scooter", "lon": -77.04538033333333, "lat": 38.913278, "fusion_lon": 0.0, "name": "e563d56a7399a7d19e4e138548eae05d", "bike_id": "e563d56a7399a7d19e4e138548eae05d", "is_reserved": 0, "fusion_lat": 0.0, "is_disabled": 0}, {"rental_uris": {"ios": "https://dc.lft.to/lastmile_qr_scan", "android": "https://dc.lft.to/lastmile_qr_scan"}, "type": "electric_scooter", "lon": -77.05430616666666, "lat": 38.9235945, "fusion_lon": 0.0, "name": "ad52f33a9602c28e00ce8715cb8fcef8", "bike_id": "ad52f33a9602c28e00ce8715cb8fcef8", "is_reserved": 0, "fusion_lat": 0.0, "is_disabled": 0}, {"rental_uris": {"ios": "https://dc.lft.to/lastmile_qr_scan", "android": "https://dc.lft.to/lastmile_qr_scan"}, "type": "electric_scooter", "lon": -77.0280015, "lat": 38.91667983333333, "fusion_lon": 0.0, "name": "88f982817827f4e53894c72fdd2958a8", "bike_id": "88f982817827f4e53894c72fdd2958a8", "is_reserved": 0, "fusion_lat": 0.0, "is_disabled": 0}, {"rental_uris": {"ios": "https://dc.lft.to/lastmile_qr_scan", "android": "https://dc.lft.to/lastmile_qr_scan"}, "type": "electric_scooter", "lon": -77.03189116666667, "lat": 38.919057, "fusion_lon": 0.0, "name": "5512ff83dd6cb177dd1b8eff9561afde", "bike_id": "5512ff83dd6cb177dd1b8eff9561afde", "is_reserved": 0, "fusion_lat": 0.0, "is_disabled": 0}, {"rental_uris": {"ios": "https://dc.lft.to/lastmile_qr_scan", "android": "https://dc.lft.to/lastmile_qr_scan"}, "type": "electric_scooter", "lon": -77.04641316666667, "lat": 38.892182, "fusion_lon": 0.0, "name": "1982af4b475bc557b85d7ee8376b2755", "bike_id": "1982af4b475bc557b85d7ee8376b2755", "is_reserved": 0, "fusion_lat": 0.0, "is_disabled": 0}, {"rental_uris": {"ios": "https://dc.lft.to/lastmile_qr_scan", "android": "https://dc.lft.to/lastmile_qr_scan"}, "type": "electric_scooter", "lon": -77.02182316666666, "lat": 38.8870215, "fusion_lon": 0.0, "name": "75ee4a182d0a3b9e8cc9e696348a9b60", "bike_id": "75ee4a182d0a3b9e8cc9e696348a9b60", "is_reserved": 0, "fusion_lat": 0.0, "is_disabled": 0}, {"rental_uris": {"ios": "https://dc.lft.to/lastmile_qr_scan", "android": "https://dc.lft.to/lastmile_qr_scan"}, "type": "electric_scooter", "lon": -77.02667016666666, "lat": 38.902748, "fusion_lon": 0.0, "name": "2a88ef2023cb96fe1b89ed48dbc8b537", "bike_id": "2a88ef2023cb96fe1b89ed48dbc8b537", "is_reserved": 0, "fusion_lat": 0.0, "is_disabled": 0}, {"rental_uris": {"ios": "https://dc.lft.to/lastmile_qr_scan", "android": "https://dc.lft.to/lastmile_qr_scan"}, "type": "electric_scooter", "lon": -77.0499895, "lat": 38.89229566666667, "fusion_lon": 0.0, "name": "e55e2dd14ad36a607542124b03470859", "bike_id": "e55e2dd14ad36a607542124b03470859", "is_reserved": 0, "fusion_lat": 0.0, "is_disabled": 0}, {"rental_uris": {"ios": "https://dc.lft.to/lastmile_qr_scan", "android": "https://dc.lft.to/lastmile_qr_scan"}, "type": "electric_scooter", "lon": -77.04806016666667, "lat": 38.89592016666667, "fusion_lon": 0.0, "name": "6fd0c2e3010ad085241d503c33ce0c38", "bike_id": "6fd0c2e3010ad085241d503c33ce0c38", "is_reserved": 0, "fusion_lat": 0.0, "is_disabled": 0}, {"rental_uris": {"ios": "https://dc.lft.to/lastmile_qr_scan", "android": "https://dc.lft.to/lastmile_qr_scan"}, "type": "electric_scooter", "lon": -77.04350366666667, "lat": 38.90068016666667, "fusion_lon": 0.0, "name": "3bea62323bbc894833c384a1f316686b", "bike_id": "3bea62323bbc894833c384a1f316686b", "is_reserved": 0, "fusion_lat": 0.0, "is_disabled": 0}, {"rental_uris": {"ios": "https://dc.lft.to/lastmile_qr_scan", "android": "https://dc.lft.to/lastmile_qr_scan"}, "type": "electric_bike", "lon": -77.05437333333333, "lat": 38.7846045, "fusion_lon": 0.0, "name": "ee761f3dfb635e41650b635369561c36", "bike_id": "ee761f3dfb635e41650b635369561c36", "is_reserved": 0, "fusion_lat": 0.0, "is_disabled": 0}, {"rental_uris": {"ios": "https://dc.lft.to/lastmile_qr_scan", "android": "https://dc.lft.to/lastmile_qr_scan"}, "type": "electric_scooter", "lon": -77.044701, "lat": 38.89220233333333, "fusion_lon": 0.0, "name": "6489030d0d5c3261309b0d4d44eb10a6", "bike_id": "6489030d0d5c3261309b0d4d44eb10a6", "is_reserved": 0, "fusion_lat": 0.0, "is_disabled": 0}, {"rental_uris": {"ios": "https://dc.lft.to/lastmile_qr_scan", "android": "https://dc.lft.to/lastmile_qr_scan"}, "type": "electric_scooter", "lon": -77.01357516666667, "lat": 38.96224383333333, "fusion_lon": 0.0, "name": "6b7e6a81211258196572a13986156e33", "bike_id": "6b7e6a81211258196572a13986156e33", "is_reserved": 0, "fusion_lat": 0.0, "is_disabled": 0}, {"rental_uris": {"ios": "https://dc.lft.to/lastmile_qr_scan", "android": "https://dc.lft.to/lastmile_qr_scan"}, "type": "electric_scooter", "lon": -77.0456755, "lat": 38.902476166666666, "fusion_lon": 0.0, "name": "424a56c1ab90701df8a3c3c8ab82ba1c", "bike_id": "424a56c1ab90701df8a3c3c8ab82ba1c", "is_reserved": 0, "fusion_lat": 0.0, "is_disabled": 0}, {"rental_uris": {"ios": "https://dc.lft.to/lastmile_qr_scan", "android": "https://dc.lft.to/lastmile_qr_scan"}, "type": "electric_bike", "lon": -77.02507666666666, "lat": 38.932868166666665, "fusion_lon": 0.0, "name": "d00a3cf96b46a8029dc0001e5cddc264", "bike_id": "d00a3cf96b46a8029dc0001e5cddc264", "is_reserved": 0, "fusion_lat": 0.0, "is_disabled": 0}, {"rental_uris": {"ios": "https://dc.lft.to/lastmile_qr_scan", "android": "https://dc.lft.to/lastmile_qr_scan"}, "type": "electric_scooter", "lon": -77.03261033333334, "lat": 38.92974183333333, "fusion_lon": 0.0, "name": "c1de877ee44362a0769ff1349d569832", "bike_id": "c1de877ee44362a0769ff1349d569832", "is_reserved": 0, "fusion_lat": 0.0, "is_disabled": 0}, {"rental_uris": {"ios": "https://dc.lft.to/lastmile_qr_scan", "android": "https://dc.lft.to/lastmile_qr_scan"}, "type": "electric_scooter", "lon": -77.00634966666667, "lat": 38.871166833333334, "fusion_lon": 0.0, "name": "59bbc705b6df20a2799f2ae5bcf5e7e3", "bike_id": "59bbc705b6df20a2799f2ae5bcf5e7e3", "is_reserved": 0, "fusion_lat": 0.0, "is_disabled": 0}, {"rental_uris": {"ios": "https://dc.lft.to/lastmile_qr_scan", "android": "https://dc.lft.to/lastmile_qr_scan"}, "type": "electric_scooter", "lon": -77.04055366666667, "lat": 38.90444866666667, "fusion_lon": 0.0, "name": "b922624ddc26c29fe07ee9552a369dc2", "bike_id": "b922624ddc26c29fe07ee9552a369dc2", "is_reserved": 0, "fusion_lat": 0.0, "is_disabled": 0}, {"rental_uris": {"ios": "https://dc.lft.to/lastmile_qr_scan", "android": "https://dc.lft.to/lastmile_qr_scan"}, "type": "electric_scooter", "lon": -77.04531116666666, "lat": 38.908577333333334, "fusion_lon": 0.0, "name": "389bea23f588adf3d04e269cc1f615d8", "bike_id": "389bea23f588adf3d04e269cc1f615d8", "is_reserved": 0, "fusion_lat": 0.0, "is_disabled": 0}, {"rental_uris": {"ios": "https://dc.lft.to/lastmile_qr_scan", "android": "https://dc.lft.to/lastmile_qr_scan"}, "type": "electric_scooter", "lon": -77.0069845, "lat": 38.915659166666664, "fusion_lon": 0.0, "name": "2b6c3f42de14b9c97a2f08cafade5d48", "bike_id": "2b6c3f42de14b9c97a2f08cafade5d48", "is_reserved": 0, "fusion_lat": 0.0, "is_disabled": 0}, {"rental_uris": {"ios": "https://dc.lft.to/lastmile_qr_scan", "android": "https://dc.lft.to/lastmile_qr_scan"}, "type": "electric_scooter", "lon": -77.029457, "lat": 38.90506716666667, "fusion_lon": 0.0, "name": "cca10005efba0f8141ee53cb6eea084c", "bike_id": "cca10005efba0f8141ee53cb6eea084c", "is_reserved": 0, "fusion_lat": 0.0, "is_disabled": 0}, {"rental_uris": {"ios": "https://dc.lft.to/lastmile_qr_scan", "android": "https://dc.lft.to/lastmile_qr_scan"}, "type": "electric_scooter", "lon": -77.01947, "lat": 38.92291266666667, "fusion_lon": 0.0, "name": "8b954707e6b9f78234c7be9559850a65", "bike_id": "8b954707e6b9f78234c7be9559850a65", "is_reserved": 0, "fusion_lat": 0.0, "is_disabled": 0}, {"rental_uris": {"ios": "https://dc.lft.to/lastmile_qr_scan", "android": "https://dc.lft.to/lastmile_qr_scan"}, "type": "electric_bike", "lon": -76.98147383333334, "lat": 39.007203, "fusion_lon": 0.0, "name": "9b9f62f59830e0839c388ce46f4528f3", "bike_id": "9b9f62f59830e0839c388ce46f4528f3", "is_reserved": 0, "fusion_lat": 0.0, "is_disabled": 0}, {"rental_uris": {"ios": "https://dc.lft.to/lastmile_qr_scan", "android": "https://dc.lft.to/lastmile_qr_scan"}, "type": "electric_scooter", "lon": -77.04651566666666, "lat": 38.9029545, "fusion_lon": 0.0, "name": "7dee7e18e079103569c3d5b1cd0e793f", "bike_id": "7dee7e18e079103569c3d5b1cd0e793f", "is_reserved": 0, "fusion_lat": 0.0, "is_disabled": 0}, {"rental_uris": {"ios": "https://dc.lft.to/lastmile_qr_scan", "android": "https://dc.lft.to/lastmile_qr_scan"}, "type": "electric_scooter", "lon": -77.02281, "lat": 38.92509866666666, "fusion_lon": 0.0, "name": "2f945741fe7963fe9a83889dfceb8e11", "bike_id": "2f945741fe7963fe9a83889dfceb8e11", "is_reserved": 0, "fusion_lat": 0.0, "is_disabled": 0}, {"rental_uris": {"ios": "https://dc.lft.to/lastmile_qr_scan", "android": "https://dc.lft.to/lastmile_qr_scan"}, "type": "electric_scooter", "lon": -77.01007233333333, "lat": 38.86714083333333, "fusion_lon": 0.0, "name": "4c836a259e1f48045c24836e44a13127", "bike_id": "4c836a259e1f48045c24836e44a13127", "is_reserved": 0, "fusion_lat": 0.0, "is_disabled": 0}, {"rental_uris": {"ios": "https://dc.lft.to/lastmile_qr_scan", "android": "https://dc.lft.to/lastmile_qr_scan"}, "type": "electric_bike", "lon": -77.078043, "lat": 38.848962, "fusion_lon": 0.0, "name": "fcdb61e923f8fc49606f18ac12f0011d", "bike_id": "fcdb61e923f8fc49606f18ac12f0011d", "is_reserved": 0, "fusion_lat": 0.0, "is_disabled": 0}, {"rental_uris": {"ios": "https://dc.lft.to/lastmile_qr_scan", "android": "https://dc.lft.to/lastmile_qr_scan"}, "type": "electric_scooter", "lon": -77.0175045, "lat": 38.90029633333333, "fusion_lon": 0.0, "name": "3389cd4b218207509e2542f9d3e28690", "bike_id": "3389cd4b218207509e2542f9d3e28690", "is_reserved": 0, "fusion_lat": 0.0, "is_disabled": 0}, {"rental_uris": {"ios": "https://dc.lft.to/lastmile_qr_scan", "android": "https://dc.lft.to/lastmile_qr_scan"}, "type": "electric_scooter", "lon": -77.03529833333333, "lat": 38.924699, "fusion_lon": 0.0, "name": "05e8b7de457e8bd1630aa66e8a472d6e", "bike_id": "05e8b7de457e8bd1630aa66e8a472d6e", "is_reserved": 0, "fusion_lat": 0.0, "is_disabled": 0}, {"rental_uris": {"ios": "https://dc.lft.to/lastmile_qr_scan", "android": "https://dc.lft.to/lastmile_qr_scan"}, "type": "electric_bike", "lon": -76.93183483333334, "lat": 38.898777833333334, "fusion_lon": 0.0, "name": "aeea8b877c5d06813655b131077d06a5", "bike_id": "aeea8b877c5d06813655b131077d06a5", "is_reserved": 0, "fusion_lat": 0.0, "is_disabled": 0}, {"rental_uris": {"ios": "https://dc.lft.to/lastmile_qr_scan", "android": "https://dc.lft.to/lastmile_qr_scan"}, "type": "electric_scooter", "lon": -77.00369566666667, "lat": 38.87937316666667, "fusion_lon": 0.0, "name": "0ebf641c53252f0245be78bb04a345c0", "bike_id": "0ebf641c53252f0245be78bb04a345c0", "is_reserved": 0, "fusion_lat": 0.0, "is_disabled": 0}, {"rental_uris": {"ios": "https://dc.lft.to/lastmile_qr_scan", "android": "https://dc.lft.to/lastmile_qr_scan"}, "type": "electric_scooter", "lon": -76.94286066666666, "lat": 38.88339716666667, "fusion_lon": 0.0, "name": "76a151538f6826b8ee6c0bba94c24e13", "bike_id": "76a151538f6826b8ee6c0bba94c24e13", "is_reserved": 0, "fusion_lat": 0.0, "is_disabled": 0}, {"rental_uris": {"ios": "https://dc.lft.to/lastmile_qr_scan", "android": "https://dc.lft.to/lastmile_qr_scan"}, "type": "electric_scooter", "lon": -77.046396, "lat": 38.8921815, "fusion_lon": 0.0, "name": "1c0d06db462489edac555a3341863f78", "bike_id": "1c0d06db462489edac555a3341863f78", "is_reserved": 0, "fusion_lat": 0.0, "is_disabled": 0}, {"rental_uris": {"ios": "https://dc.lft.to/lastmile_qr_scan", "android": "https://dc.lft.to/lastmile_qr_scan"}, "type": "electric_scooter", "lon": -77.0183485, "lat": 38.942011666666666, "fusion_lon": 0.0, "name": "4749ba28962221c93eccab97109bd779", "bike_id": "4749ba28962221c93eccab97109bd779", "is_reserved": 0, "fusion_lat": 0.0, "is_disabled": 0}, {"rental_uris": {"ios": "https://dc.lft.to/lastmile_qr_scan", "android": "https://dc.lft.to/lastmile_qr_scan"}, "type": "electric_scooter", "lon": -77.00342383333333, "lat": 38.896192166666665, "fusion_lon": 0.0, "name": "a61100a125f2b6596e66fcd35876d5cc", "bike_id": "a61100a125f2b6596e66fcd35876d5cc", "is_reserved": 0, "fusion_lat": 0.0, "is_disabled": 0}, {"rental_uris": {"ios": "https://dc.lft.to/lastmile_qr_scan", "android": "https://dc.lft.to/lastmile_qr_scan"}, "type": "electric_scooter", "lon": -76.94844083333334, "lat": 38.89581916666667, "fusion_lon": 0.0, "name": "4e0ba7ea27d4949d5286ee91b19af3f0", "bike_id": "4e0ba7ea27d4949d5286ee91b19af3f0", "is_reserved": 0, "fusion_lat": 0.0, "is_disabled": 0}, {"rental_uris": {"ios": "https://dc.lft.to/lastmile_qr_scan", "android": "https://dc.lft.to/lastmile_qr_scan"}, "type": "electric_scooter", "lon": -77.02529366666667, "lat": 38.938634, "fusion_lon": 0.0, "name": "8bd101a312606bf03b19a1921b2f1a68", "bike_id": "8bd101a312606bf03b19a1921b2f1a68", "is_reserved": 0, "fusion_lat": 0.0, "is_disabled": 0}, {"rental_uris": {"ios": "https://dc.lft.to/lastmile_qr_scan", "android": "https://dc.lft.to/lastmile_qr_scan"}, "type": "electric_scooter", "lon": -77.02452066666666, "lat": 38.9077245, "fusion_lon": 0.0, "name": "03b6990dabf263ba34eade638205bb5f", "bike_id": "03b6990dabf263ba34eade638205bb5f", "is_reserved": 0, "fusion_lat": 0.0, "is_disabled": 0}, {"rental_uris": {"ios": "https://dc.lft.to/lastmile_qr_scan", "android": "https://dc.lft.to/lastmile_qr_scan"}, "type": "electric_scooter", "lon": -77.02010233333333, "lat": 38.87683216666667, "fusion_lon": 0.0, "name": "d581a643d65e3e0190dd12c1b05b94bf", "bike_id": "d581a643d65e3e0190dd12c1b05b94bf", "is_reserved": 0, "fusion_lat": 0.0, "is_disabled": 0}, {"rental_uris": {"ios": "https://dc.lft.to/lastmile_qr_scan", "android": "https://dc.lft.to/lastmile_qr_scan"}, "type": "electric_scooter", "lon": -77.031782, "lat": 38.911226, "fusion_lon": 0.0, "name": "dcd715dd40f2730a272d3f00ef4f7fd1", "bike_id": "dcd715dd40f2730a272d3f00ef4f7fd1", "is_reserved": 0, "fusion_lat": 0.0, "is_disabled": 0}, {"rental_uris": {"ios": "https://dc.lft.to/lastmile_qr_scan", "android": "https://dc.lft.to/lastmile_qr_scan"}, "type": "electric_bike", "lon": -76.86847616666667, "lat": 38.893990333333335, "fusion_lon": 0.0, "name": "66e2af2c8f1771a3359a682b7cf2646a", "bike_id": "66e2af2c8f1771a3359a682b7cf2646a", "is_reserved": 0, "fusion_lat": 0.0, "is_disabled": 0}, {"rental_uris": {"ios": "https://dc.lft.to/lastmile_qr_scan", "android": "https://dc.lft.to/lastmile_qr_scan"}, "type": "electric_scooter", "lon": -77.04379433333334, "lat": 38.920718666666666, "fusion_lon": 0.0, "name": "36d8b79dbbe35ec6bdb7337fbeb4778e", "bike_id": "36d8b79dbbe35ec6bdb7337fbeb4778e", "is_reserved": 0, "fusion_lat": 0.0, "is_disabled": 0}, {"rental_uris": {"ios": "https://dc.lft.to/lastmile_qr_scan", "android": "https://dc.lft.to/lastmile_qr_scan"}, "type": "electric_scooter", "lon": -77.03307233333334, "lat": 38.903618333333334, "fusion_lon": 0.0, "name": "b901952108818a564a3c2bcfc15df1fb", "bike_id": "b901952108818a564a3c2bcfc15df1fb", "is_reserved": 0, "fusion_lat": 0.0, "is_disabled": 0}, {"rental_uris": {"ios": "https://dc.lft.to/lastmile_qr_scan", "android": "https://dc.lft.to/lastmile_qr_scan"}, "type": "electric_scooter", "lon": -77.05528933333333, "lat": 38.927966833333336, "fusion_lon": 0.0, "name": "e5b25ebfaf8ed7524584f4a2546962a5", "bike_id": "e5b25ebfaf8ed7524584f4a2546962a5", "is_reserved": 0, "fusion_lat": 0.0, "is_disabled": 0}, {"rental_uris": {"ios": "https://dc.lft.to/lastmile_qr_scan", "android": "https://dc.lft.to/lastmile_qr_scan"}, "type": "electric_scooter", "lon": -77.03708866666666, "lat": 38.935058833333336, "fusion_lon": 0.0, "name": "f881deb3ce439febadd7b0f7320a22b3", "bike_id": "f881deb3ce439febadd7b0f7320a22b3", "is_reserved": 0, "fusion_lat": 0.0, "is_disabled": 0}, {"rental_uris": {"ios": "https://dc.lft.to/lastmile_qr_scan", "android": "https://dc.lft.to/lastmile_qr_scan"}, "type": "electric_scooter", "lon": -76.98105233333334, "lat": 38.903924833333335, "fusion_lon": 0.0, "name": "f8358f563be0a1a15b4769ceb7055a7a", "bike_id": "f8358f563be0a1a15b4769ceb7055a7a", "is_reserved": 0, "fusion_lat": 0.0, "is_disabled": 0}, {"rental_uris": {"ios": "https://dc.lft.to/lastmile_qr_scan", "android": "https://dc.lft.to/lastmile_qr_scan"}, "type": "electric_scooter", "lon": -77.00644166666666, "lat": 38.87186583333333, "fusion_lon": 0.0, "name": "c288b95250fde82e2490281b22b702d9", "bike_id": "c288b95250fde82e2490281b22b702d9", "is_reserved": 0, "fusion_lat": 0.0, "is_disabled": 0}, {"rental_uris": {"ios": "https://dc.lft.to/lastmile_qr_scan", "android": "https://dc.lft.to/lastmile_qr_scan"}, "type": "electric_scooter", "lon": -77.03971083333333, "lat": 38.92451716666667, "fusion_lon": 0.0, "name": "30e607d9741bc9c95368d6cf734edb60", "bike_id": "30e607d9741bc9c95368d6cf734edb60", "is_reserved": 0, "fusion_lat": 0.0, "is_disabled": 0}, {"rental_uris": {"ios": "https://dc.lft.to/lastmile_qr_scan", "android": "https://dc.lft.to/lastmile_qr_scan"}, "type": "electric_scooter", "lon": -77.01947883333334, "lat": 38.924197, "fusion_lon": 0.0, "name": "56a77bdfacf74aa1284ce4b8cebc7790", "bike_id": "56a77bdfacf74aa1284ce4b8cebc7790", "is_reserved": 0, "fusion_lat": 0.0, "is_disabled": 0}, {"rental_uris": {"ios": "https://dc.lft.to/lastmile_qr_scan", "android": "https://dc.lft.to/lastmile_qr_scan"}, "type": "electric_scooter", "lon": -77.036024, "lat": 38.90755216666667, "fusion_lon": 0.0, "name": "afcf24fa42d93edd549bbb81efe1a4c6", "bike_id": "afcf24fa42d93edd549bbb81efe1a4c6", "is_reserved": 0, "fusion_lat": 0.0, "is_disabled": 0}, {"rental_uris": {"ios": "https://dc.lft.to/lastmile_qr_scan", "android": "https://dc.lft.to/lastmile_qr_scan"}, "type": "electric_scooter", "lon": -77.0487055, "lat": 38.8922235, "fusion_lon": 0.0, "name": "977043153f210b83bfa62637734e157b", "bike_id": "977043153f210b83bfa62637734e157b", "is_reserved": 0, "fusion_lat": 0.0, "is_disabled": 0}, {"rental_uris": {"ios": "https://dc.lft.to/lastmile_qr_scan", "android": "https://dc.lft.to/lastmile_qr_scan"}, "type": "electric_scooter", "lon": -77.04518916666666, "lat": 38.911105, "fusion_lon": 0.0, "name": "93398a38b5e81be5b3568cdc2e2fcaae", "bike_id": "93398a38b5e81be5b3568cdc2e2fcaae", "is_reserved": 0, "fusion_lat": 0.0, "is_disabled": 0}, {"rental_uris": {"ios": "https://dc.lft.to/lastmile_qr_scan", "android": "https://dc.lft.to/lastmile_qr_scan"}, "type": "electric_bike", "lon": -76.94898233333333, "lat": 38.84221566666667, "fusion_lon": 0.0, "name": "80c1c82813398df714a41e40e9ab749b", "bike_id": "80c1c82813398df714a41e40e9ab749b", "is_reserved": 0, "fusion_lat": 0.0, "is_disabled": 0}, {"rental_uris": {"ios": "https://dc.lft.to/lastmile_qr_scan", "android": "https://dc.lft.to/lastmile_qr_scan"}, "type": "electric_scooter", "lon": -76.99375616666667, "lat": 38.85221, "fusion_lon": 0.0, "name": "dd72cd5126aa73fb2c176843414b7332", "bike_id": "dd72cd5126aa73fb2c176843414b7332", "is_reserved": 0, "fusion_lat": 0.0, "is_disabled": 0}, {"rental_uris": {"ios": "https://dc.lft.to/lastmile_qr_scan", "android": "https://dc.lft.to/lastmile_qr_scan"}, "type": "electric_scooter", "lon": -77.05682333333333, "lat": 38.92332783333333, "fusion_lon": 0.0, "name": "745bb8f1eb7a67760fd686969bb4ea46", "bike_id": "745bb8f1eb7a67760fd686969bb4ea46", "is_reserved": 0, "fusion_lat": 0.0, "is_disabled": 0}, {"rental_uris": {"ios": "https://dc.lft.to/lastmile_qr_scan", "android": "https://dc.lft.to/lastmile_qr_scan"}, "type": "electric_scooter", "lon": -77.042785, "lat": 38.911156166666665, "fusion_lon": 0.0, "name": "9c12b629c950abfbdc13c8a8c1c367fd", "bike_id": "9c12b629c950abfbdc13c8a8c1c367fd", "is_reserved": 0, "fusion_lat": 0.0, "is_disabled": 0}, {"rental_uris": {"ios": "https://dc.lft.to/lastmile_qr_scan", "android": "https://dc.lft.to/lastmile_qr_scan"}, "type": "electric_scooter", "lon": -77.03205616666666, "lat": 38.90811033333333, "fusion_lon": 0.0, "name": "ec38f26140965da37b1141e4805a5ec7", "bike_id": "ec38f26140965da37b1141e4805a5ec7", "is_reserved": 0, "fusion_lat": 0.0, "is_disabled": 0}, {"rental_uris": {"ios": "https://dc.lft.to/lastmile_qr_scan", "android": "https://dc.lft.to/lastmile_qr_scan"}, "type": "electric_scooter", "lon": -77.0195105, "lat": 38.92438333333333, "fusion_lon": 0.0, "name": "0f99a20fca2059a4fa1de66cecd030e8", "bike_id": "0f99a20fca2059a4fa1de66cecd030e8", "is_reserved": 0, "fusion_lat": 0.0, "is_disabled": 0}, {"rental_uris": {"ios": "https://dc.lft.to/lastmile_qr_scan", "android": "https://dc.lft.to/lastmile_qr_scan"}, "type": "electric_scooter", "lon": -77.02261766666666, "lat": 38.92402883333333, "fusion_lon": 0.0, "name": "e25b8c0f35d3b0aa496c7d58af433b38", "bike_id": "e25b8c0f35d3b0aa496c7d58af433b38", "is_reserved": 0, "fusion_lat": 0.0, "is_disabled": 0}, {"rental_uris": {"ios": "https://dc.lft.to/lastmile_qr_scan", "android": "https://dc.lft.to/lastmile_qr_scan"}, "type": "electric_scooter", "lon": -77.00755033333333, "lat": 38.95379283333333, "fusion_lon": 0.0, "name": "c54b58cb260405a672ae5e89f9c94004", "bike_id": "c54b58cb260405a672ae5e89f9c94004", "is_reserved": 0, "fusion_lat": 0.0, "is_disabled": 0}, {"rental_uris": {"ios": "https://dc.lft.to/lastmile_qr_scan", "android": "https://dc.lft.to/lastmile_qr_scan"}, "type": "electric_scooter", "lon": -77.03181583333334, "lat": 38.908002, "fusion_lon": 0.0, "name": "6f76411505ba4653eec5dcc92f0e260d", "bike_id": "6f76411505ba4653eec5dcc92f0e260d", "is_reserved": 0, "fusion_lat": 0.0, "is_disabled": 0}, {"rental_uris": {"ios": "https://dc.lft.to/lastmile_qr_scan", "android": "https://dc.lft.to/lastmile_qr_scan"}, "type": "electric_scooter", "lon": -77.027159, "lat": 38.899738, "fusion_lon": 0.0, "name": "8308bc0cd3b4a27b24dc5dece7751072", "bike_id": "8308bc0cd3b4a27b24dc5dece7751072", "is_reserved": 0, "fusion_lat": 0.0, "is_disabled": 0}, {"rental_uris": {"ios": "https://dc.lft.to/lastmile_qr_scan", "android": "https://dc.lft.to/lastmile_qr_scan"}, "type": "electric_scooter", "lon": -77.0392715, "lat": 38.92495616666667, "fusion_lon": 0.0, "name": "a84b54f28ab2a98ac859b6c76370a37a", "bike_id": "a84b54f28ab2a98ac859b6c76370a37a", "is_reserved": 0, "fusion_lat": 0.0, "is_disabled": 0}, {"rental_uris": {"ios": "https://dc.lft.to/lastmile_qr_scan", "android": "https://dc.lft.to/lastmile_qr_scan"}, "type": "electric_scooter", "lon": -77.03177466666666, "lat": 38.88673883333333, "fusion_lon": 0.0, "name": "84c6fc66a4368c491e952413d3358377", "bike_id": "84c6fc66a4368c491e952413d3358377", "is_reserved": 0, "fusion_lat": 0.0, "is_disabled": 0}, {"rental_uris": {"ios": "https://dc.lft.to/lastmile_qr_scan", "android": "https://dc.lft.to/lastmile_qr_scan"}, "type": "electric_scooter", "lon": -76.9480365, "lat": 38.896489, "fusion_lon": 0.0, "name": "1cf7b4b5a9b68da605daeb2991525cc3", "bike_id": "1cf7b4b5a9b68da605daeb2991525cc3", "is_reserved": 0, "fusion_lat": 0.0, "is_disabled": 0}, {"rental_uris": {"ios": "https://dc.lft.to/lastmile_qr_scan", "android": "https://dc.lft.to/lastmile_qr_scan"}, "type": "electric_scooter", "lon": -77.03710933333333, "lat": 38.926365833333335, "fusion_lon": 0.0, "name": "5cf98d92e65817075a763df9e1ac94e1", "bike_id": "5cf98d92e65817075a763df9e1ac94e1", "is_reserved": 0, "fusion_lat": 0.0, "is_disabled": 0}, {"rental_uris": {"ios": "https://dc.lft.to/lastmile_qr_scan", "android": "https://dc.lft.to/lastmile_qr_scan"}, "type": "electric_scooter", "lon": -77.04271766666666, "lat": 38.892185833333336, "fusion_lon": 0.0, "name": "3862c3a0c215c1a8989e676d7302ce71", "bike_id": "3862c3a0c215c1a8989e676d7302ce71", "is_reserved": 0, "fusion_lat": 0.0, "is_disabled": 0}, {"rental_uris": {"ios": "https://dc.lft.to/lastmile_qr_scan", "android": "https://dc.lft.to/lastmile_qr_scan"}, "type": "electric_bike", "lon": -77.09522283333334, "lat": 38.838105, "fusion_lon": 0.0, "name": "8784957009caabc8037133bd3063107b", "bike_id": "8784957009caabc8037133bd3063107b", "is_reserved": 0, "fusion_lat": 0.0, "is_disabled": 0}, {"rental_uris": {"ios": "https://dc.lft.to/lastmile_qr_scan", "android": "https://dc.lft.to/lastmile_qr_scan"}, "type": "electric_scooter", "lon": -77.042537, "lat": 38.92063, "fusion_lon": 0.0, "name": "375e681bae0178886e40319ea4e07739", "bike_id": "375e681bae0178886e40319ea4e07739", "is_reserved": 0, "fusion_lat": 0.0, "is_disabled": 0}, {"rental_uris": {"ios": "https://dc.lft.to/lastmile_qr_scan", "android": "https://dc.lft.to/lastmile_qr_scan"}, "type": "electric_scooter", "lon": -77.03553183333334, "lat": 38.924127666666664, "fusion_lon": 0.0, "name": "b7fa85a294d3dc4139b4aef20a96aa48", "bike_id": "b7fa85a294d3dc4139b4aef20a96aa48", "is_reserved": 0, "fusion_lat": 0.0, "is_disabled": 0}, {"rental_uris": {"ios": "https://dc.lft.to/lastmile_qr_scan", "android": "https://dc.lft.to/lastmile_qr_scan"}, "type": "electric_scooter", "lon": -76.927866, "lat": 38.8968575, "fusion_lon": 0.0, "name": "57c1cfbc2527182d809058d4b608209f", "bike_id": "57c1cfbc2527182d809058d4b608209f", "is_reserved": 0, "fusion_lat": 0.0, "is_disabled": 0}, {"rental_uris": {"ios": "https://dc.lft.to/lastmile_qr_scan", "android": "https://dc.lft.to/lastmile_qr_scan"}, "type": "electric_scooter", "lon": -77.038266, "lat": 38.91692366666667, "fusion_lon": 0.0, "name": "607bf45cb3ee079905245cfc3207dd6f", "bike_id": "607bf45cb3ee079905245cfc3207dd6f", "is_reserved": 0, "fusion_lat": 0.0, "is_disabled": 0}, {"rental_uris": {"ios": "https://dc.lft.to/lastmile_qr_scan", "android": "https://dc.lft.to/lastmile_qr_scan"}, "type": "electric_scooter", "lon": -77.02534383333334, "lat": 38.920958, "fusion_lon": 0.0, "name": "00b75648c3779f1ca4e6f808ad787dc2", "bike_id": "00b75648c3779f1ca4e6f808ad787dc2", "is_reserved": 0, "fusion_lat": 0.0, "is_disabled": 0}, {"rental_uris": {"ios": "https://dc.lft.to/lastmile_qr_scan", "android": "https://dc.lft.to/lastmile_qr_scan"}, "type": "electric_scooter", "lon": -77.04363716666667, "lat": 38.90091283333334, "fusion_lon": 0.0, "name": "adbbd8d261c894ee7bfda5aedfc6165a", "bike_id": "adbbd8d261c894ee7bfda5aedfc6165a", "is_reserved": 0, "fusion_lat": 0.0, "is_disabled": 0}, {"rental_uris": {"ios": "https://dc.lft.to/lastmile_qr_scan", "android": "https://dc.lft.to/lastmile_qr_scan"}, "type": "electric_scooter", "lon": -77.042287, "lat": 38.89723, "fusion_lon": 0.0, "name": "062b2e93bd2581877f35aebba725e1e8", "bike_id": "062b2e93bd2581877f35aebba725e1e8", "is_reserved": 0, "fusion_lat": 0.0, "is_disabled": 0}, {"rental_uris": {"ios": "https://dc.lft.to/lastmile_qr_scan", "android": "https://dc.lft.to/lastmile_qr_scan"}, "type": "electric_scooter", "lon": -76.97347433333333, "lat": 38.9040365, "fusion_lon": 0.0, "name": "61c3980c6c85d5a5393ab60f4dbbaed6", "bike_id": "61c3980c6c85d5a5393ab60f4dbbaed6", "is_reserved": 0, "fusion_lat": 0.0, "is_disabled": 0}, {"rental_uris": {"ios": "https://dc.lft.to/lastmile_qr_scan", "android": "https://dc.lft.to/lastmile_qr_scan"}, "type": "electric_scooter", "lon": -76.983366, "lat": 38.89545866666667, "fusion_lon": 0.0, "name": "26c8d5f0fbc5a8abd719d44fd918e3fa", "bike_id": "26c8d5f0fbc5a8abd719d44fd918e3fa", "is_reserved": 0, "fusion_lat": 0.0, "is_disabled": 0}, {"rental_uris": {"ios": "https://dc.lft.to/lastmile_qr_scan", "android": "https://dc.lft.to/lastmile_qr_scan"}, "type": "electric_scooter", "lon": -77.06785716666667, "lat": 38.915586166666664, "fusion_lon": 0.0, "name": "dd33081857c4ef50e7e542766c344cd8", "bike_id": "dd33081857c4ef50e7e542766c344cd8", "is_reserved": 0, "fusion_lat": 0.0, "is_disabled": 0}, {"rental_uris": {"ios": "https://dc.lft.to/lastmile_qr_scan", "android": "https://dc.lft.to/lastmile_qr_scan"}, "type": "electric_scooter", "lon": -77.02715833333333, "lat": 38.91797416666667, "fusion_lon": 0.0, "name": "36c557d8e8116c8306a786f80374aa51", "bike_id": "36c557d8e8116c8306a786f80374aa51", "is_reserved": 0, "fusion_lat": 0.0, "is_disabled": 0}, {"rental_uris": {"ios": "https://dc.lft.to/lastmile_qr_scan", "android": "https://dc.lft.to/lastmile_qr_scan"}, "type": "electric_scooter", "lon": -77.07020883333334, "lat": 38.906228, "fusion_lon": 0.0, "name": "733856ad55d8893d28615037d5b048d9", "bike_id": "733856ad55d8893d28615037d5b048d9", "is_reserved": 0, "fusion_lat": 0.0, "is_disabled": 0}, {"rental_uris": {"ios": "https://dc.lft.to/lastmile_qr_scan", "android": "https://dc.lft.to/lastmile_qr_scan"}, "type": "electric_scooter", "lon": -76.9373845, "lat": 38.890040166666665, "fusion_lon": 0.0, "name": "ae238052bed3cc7401c2a30c199fdc38", "bike_id": "ae238052bed3cc7401c2a30c199fdc38", "is_reserved": 0, "fusion_lat": 0.0, "is_disabled": 0}, {"rental_uris": {"ios": "https://dc.lft.to/lastmile_qr_scan", "android": "https://dc.lft.to/lastmile_qr_scan"}, "type": "electric_scooter", "lon": -77.0319715, "lat": 38.918667, "fusion_lon": 0.0, "name": "870e2d69bdcb3225b57d6b1f844a1f28", "bike_id": "870e2d69bdcb3225b57d6b1f844a1f28", "is_reserved": 0, "fusion_lat": 0.0, "is_disabled": 0}, {"rental_uris": {"ios": "https://dc.lft.to/lastmile_qr_scan", "android": "https://dc.lft.to/lastmile_qr_scan"}, "type": "electric_scooter", "lon": -76.9956415, "lat": 38.876451333333335, "fusion_lon": 0.0, "name": "7270b95707ae5a96505b8a611eff4bb6", "bike_id": "7270b95707ae5a96505b8a611eff4bb6", "is_reserved": 0, "fusion_lat": 0.0, "is_disabled": 0}, {"rental_uris": {"ios": "https://dc.lft.to/lastmile_qr_scan", "android": "https://dc.lft.to/lastmile_qr_scan"}, "type": "electric_scooter", "lon": -77.03852516666667, "lat": 38.916654333333334, "fusion_lon": 0.0, "name": "6a2e571ee4823d23c6f0ca0dc015538b", "bike_id": "6a2e571ee4823d23c6f0ca0dc015538b", "is_reserved": 0, "fusion_lat": 0.0, "is_disabled": 0}, {"rental_uris": {"ios": "https://dc.lft.to/lastmile_qr_scan", "android": "https://dc.lft.to/lastmile_qr_scan"}, "type": "electric_scooter", "lon": -77.04001683333334, "lat": 38.93296733333333, "fusion_lon": 0.0, "name": "b0bca57298709abc0c877280a92e51a0", "bike_id": "b0bca57298709abc0c877280a92e51a0", "is_reserved": 0, "fusion_lat": 0.0, "is_disabled": 0}, {"rental_uris": {"ios": "https://dc.lft.to/lastmile_qr_scan", "android": "https://dc.lft.to/lastmile_qr_scan"}, "type": "electric_bike", "lon": -76.97081533333333, "lat": 38.95067183333333, "fusion_lon": 0.0, "name": "0300f5f3fc33f171b35cbc69a10f592e", "bike_id": "0300f5f3fc33f171b35cbc69a10f592e", "is_reserved": 0, "fusion_lat": 0.0, "is_disabled": 0}, {"rental_uris": {"ios": "https://dc.lft.to/lastmile_qr_scan", "android": "https://dc.lft.to/lastmile_qr_scan"}, "type": "electric_scooter", "lon": -76.9905095, "lat": 38.9012395, "fusion_lon": 0.0, "name": "69d5e9278661a223e8285607a86a97ea", "bike_id": "69d5e9278661a223e8285607a86a97ea", "is_reserved": 0, "fusion_lat": 0.0, "is_disabled": 0}, {"rental_uris": {"ios": "https://dc.lft.to/lastmile_qr_scan", "android": "https://dc.lft.to/lastmile_qr_scan"}, "type": "electric_bike", "lon": -77.09957716666666, "lat": 38.8578975, "fusion_lon": 0.0, "name": "bc9930f450cec24bf6a9a6cf913799e1", "bike_id": "bc9930f450cec24bf6a9a6cf913799e1", "is_reserved": 0, "fusion_lat": 0.0, "is_disabled": 0}, {"rental_uris": {"ios": "https://dc.lft.to/lastmile_qr_scan", "android": "https://dc.lft.to/lastmile_qr_scan"}, "type": "electric_scooter", "lon": -77.06400966666666, "lat": 38.944441833333336, "fusion_lon": 0.0, "name": "5dd2e35b64d1e1632f0bc08a59aaba04", "bike_id": "5dd2e35b64d1e1632f0bc08a59aaba04", "is_reserved": 0, "fusion_lat": 0.0, "is_disabled": 0}, {"rental_uris": {"ios": "https://dc.lft.to/lastmile_qr_scan", "android": "https://dc.lft.to/lastmile_qr_scan"}, "type": "electric_scooter", "lon": -77.04347316666667, "lat": 38.9043825, "fusion_lon": 0.0, "name": "17f7504cadda1913069f8ed015fa5a6b", "bike_id": "17f7504cadda1913069f8ed015fa5a6b", "is_reserved": 0, "fusion_lat": 0.0, "is_disabled": 0}, {"rental_uris": {"ios": "https://dc.lft.to/lastmile_qr_scan", "android": "https://dc.lft.to/lastmile_qr_scan"}, "type": "electric_scooter", "lon": -76.99362533333333, "lat": 38.9012175, "fusion_lon": 0.0, "name": "4ac7574413d619507b58ba35271c76f0", "bike_id": "4ac7574413d619507b58ba35271c76f0", "is_reserved": 0, "fusion_lat": 0.0, "is_disabled": 0}, {"rental_uris": {"ios": "https://dc.lft.to/lastmile_qr_scan", "android": "https://dc.lft.to/lastmile_qr_scan"}, "type": "electric_scooter", "lon": -77.02391366666667, "lat": 38.909912, "fusion_lon": 0.0, "name": "cbaa58a197b709032e6863b273dd8673", "bike_id": "cbaa58a197b709032e6863b273dd8673", "is_reserved": 0, "fusion_lat": 0.0, "is_disabled": 0}, {"rental_uris": {"ios": "https://dc.lft.to/lastmile_qr_scan", "android": "https://dc.lft.to/lastmile_qr_scan"}, "type": "electric_scooter", "lon": -77.01950116666667, "lat": 38.9281225, "fusion_lon": 0.0, "name": "e46b76befb8c4f5e07c7bc505e25befc", "bike_id": "e46b76befb8c4f5e07c7bc505e25befc", "is_reserved": 0, "fusion_lat": 0.0, "is_disabled": 0}, {"rental_uris": {"ios": "https://dc.lft.to/lastmile_qr_scan", "android": "https://dc.lft.to/lastmile_qr_scan"}, "type": "electric_scooter", "lon": -77.02573, "lat": 38.887455833333334, "fusion_lon": 0.0, "name": "5f5496a6911b4fc050270bdeebd057f7", "bike_id": "5f5496a6911b4fc050270bdeebd057f7", "is_reserved": 0, "fusion_lat": 0.0, "is_disabled": 0}, {"rental_uris": {"ios": "https://dc.lft.to/lastmile_qr_scan", "android": "https://dc.lft.to/lastmile_qr_scan"}, "type": "electric_scooter", "lon": -77.01760666666667, "lat": 38.876862833333334, "fusion_lon": 0.0, "name": "d57b8b35a524d48ebf672fb06c1910f5", "bike_id": "d57b8b35a524d48ebf672fb06c1910f5", "is_reserved": 0, "fusion_lat": 0.0, "is_disabled": 0}, {"rental_uris": {"ios": "https://dc.lft.to/lastmile_qr_scan", "android": "https://dc.lft.to/lastmile_qr_scan"}, "type": "electric_scooter", "lon": -76.93173683333333, "lat": 38.89885016666667, "fusion_lon": 0.0, "name": "f218fb68d402285a4bc787af2594e1c3", "bike_id": "f218fb68d402285a4bc787af2594e1c3", "is_reserved": 0, "fusion_lat": 0.0, "is_disabled": 0}, {"rental_uris": {"ios": "https://dc.lft.to/lastmile_qr_scan", "android": "https://dc.lft.to/lastmile_qr_scan"}, "type": "electric_scooter", "lon": -77.029764, "lat": 38.8990015, "fusion_lon": 0.0, "name": "8d89c84abc6112893db68736ccb601f3", "bike_id": "8d89c84abc6112893db68736ccb601f3", "is_reserved": 0, "fusion_lat": 0.0, "is_disabled": 0}, {"rental_uris": {"ios": "https://dc.lft.to/lastmile_qr_scan", "android": "https://dc.lft.to/lastmile_qr_scan"}, "type": "electric_scooter", "lon": -76.92106266666667, "lat": 38.889890666666666, "fusion_lon": 0.0, "name": "1261becef880cc85b591ed7a3332e7ef", "bike_id": "1261becef880cc85b591ed7a3332e7ef", "is_reserved": 0, "fusion_lat": 0.0, "is_disabled": 0}, {"rental_uris": {"ios": "https://dc.lft.to/lastmile_qr_scan", "android": "https://dc.lft.to/lastmile_qr_scan"}, "type": "electric_bike", "lon": -77.0504445, "lat": 38.8928175, "fusion_lon": 0.0, "name": "7b853d2059bc7bef373aa3fcb2f78a27", "bike_id": "7b853d2059bc7bef373aa3fcb2f78a27", "is_reserved": 0, "fusion_lat": 0.0, "is_disabled": 0}, {"rental_uris": {"ios": "https://dc.lft.to/lastmile_qr_scan", "android": "https://dc.lft.to/lastmile_qr_scan"}, "type": "electric_bike", "lon": -77.16246766666667, "lat": 38.8868775, "fusion_lon": 0.0, "name": "feb3abac23104d91cf7dbf322ef02d2d", "bike_id": "feb3abac23104d91cf7dbf322ef02d2d", "is_reserved": 0, "fusion_lat": 0.0, "is_disabled": 0}, {"rental_uris": {"ios": "https://dc.lft.to/lastmile_qr_scan", "android": "https://dc.lft.to/lastmile_qr_scan"}, "type": "electric_scooter", "lon": -77.04464, "lat": 38.919165166666666, "fusion_lon": 0.0, "name": "b93ef7b632d08b3bf7d8a469a18eb813", "bike_id": "b93ef7b632d08b3bf7d8a469a18eb813", "is_reserved": 0, "fusion_lat": 0.0, "is_disabled": 0}, {"rental_uris": {"ios": "https://dc.lft.to/lastmile_qr_scan", "android": "https://dc.lft.to/lastmile_qr_scan"}, "type": "electric_scooter", "lon": -77.03205333333334, "lat": 38.91313316666667, "fusion_lon": 0.0, "name": "120b6dbc2d0199cde2365de3c541ee98", "bike_id": "120b6dbc2d0199cde2365de3c541ee98", "is_reserved": 0, "fusion_lat": 0.0, "is_disabled": 0}, {"rental_uris": {"ios": "https://dc.lft.to/lastmile_qr_scan", "android": "https://dc.lft.to/lastmile_qr_scan"}, "type": "electric_scooter", "lon": -77.03499433333333, "lat": 38.9162435, "fusion_lon": 0.0, "name": "e8103fe03ee1a3c80c85c7e6f05fe402", "bike_id": "e8103fe03ee1a3c80c85c7e6f05fe402", "is_reserved": 0, "fusion_lat": 0.0, "is_disabled": 0}, {"rental_uris": {"ios": "https://dc.lft.to/lastmile_qr_scan", "android": "https://dc.lft.to/lastmile_qr_scan"}, "type": "electric_scooter", "lon": -77.03465983333334, "lat": 38.90675066666667, "fusion_lon": 0.0, "name": "5d6d71fc4effa00e65a3067b15c9c22e", "bike_id": "5d6d71fc4effa00e65a3067b15c9c22e", "is_reserved": 0, "fusion_lat": 0.0, "is_disabled": 0}, {"rental_uris": {"ios": "https://dc.lft.to/lastmile_qr_scan", "android": "https://dc.lft.to/lastmile_qr_scan"}, "type": "electric_scooter", "lon": -76.9979145, "lat": 38.87498816666667, "fusion_lon": 0.0, "name": "4e3f388e57b2e4cf9fe65690bbf21b86", "bike_id": "4e3f388e57b2e4cf9fe65690bbf21b86", "is_reserved": 0, "fusion_lat": 0.0, "is_disabled": 0}, {"rental_uris": {"ios": "https://dc.lft.to/lastmile_qr_scan", "android": "https://dc.lft.to/lastmile_qr_scan"}, "type": "electric_scooter", "lon": -77.032829, "lat": 38.96408366666667, "fusion_lon": 0.0, "name": "6d616c0047709a544ea51b3a56adc616", "bike_id": "6d616c0047709a544ea51b3a56adc616", "is_reserved": 0, "fusion_lat": 0.0, "is_disabled": 0}, {"rental_uris": {"ios": "https://dc.lft.to/lastmile_qr_scan", "android": "https://dc.lft.to/lastmile_qr_scan"}, "type": "electric_scooter", "lon": -77.034035, "lat": 38.923955666666664, "fusion_lon": 0.0, "name": "82815619f5120336850414232718347f", "bike_id": "82815619f5120336850414232718347f", "is_reserved": 0, "fusion_lat": 0.0, "is_disabled": 0}, {"rental_uris": {"ios": "https://dc.lft.to/lastmile_qr_scan", "android": "https://dc.lft.to/lastmile_qr_scan"}, "type": "electric_scooter", "lon": -77.04104616666666, "lat": 38.903559333333334, "fusion_lon": 0.0, "name": "5200b00a9c3dba0d91db678e5dcd4977", "bike_id": "5200b00a9c3dba0d91db678e5dcd4977", "is_reserved": 0, "fusion_lat": 0.0, "is_disabled": 0}, {"rental_uris": {"ios": "https://dc.lft.to/lastmile_qr_scan", "android": "https://dc.lft.to/lastmile_qr_scan"}, "type": "electric_scooter", "lon": -77.030377, "lat": 38.90238333333333, "fusion_lon": 0.0, "name": "a47a3b6291fd6536add48146e03718fa", "bike_id": "a47a3b6291fd6536add48146e03718fa", "is_reserved": 0, "fusion_lat": 0.0, "is_disabled": 0}, {"rental_uris": {"ios": "https://dc.lft.to/lastmile_qr_scan", "android": "https://dc.lft.to/lastmile_qr_scan"}, "type": "electric_scooter", "lon": -77.04754133333333, "lat": 38.900827, "fusion_lon": 0.0, "name": "cb699be9fe5b1fe376f0b993417b5ab3", "bike_id": "cb699be9fe5b1fe376f0b993417b5ab3", "is_reserved": 0, "fusion_lat": 0.0, "is_disabled": 0}, {"rental_uris": {"ios": "https://dc.lft.to/lastmile_qr_scan", "android": "https://dc.lft.to/lastmile_qr_scan"}, "type": "electric_scooter", "lon": -77.02966483333333, "lat": 38.92686633333334, "fusion_lon": 0.0, "name": "0dbf4e02cc18b59fc509d3c1560b3277", "bike_id": "0dbf4e02cc18b59fc509d3c1560b3277", "is_reserved": 0, "fusion_lat": 0.0, "is_disabled": 0}, {"rental_uris": {"ios": "https://dc.lft.to/lastmile_qr_scan", "android": "https://dc.lft.to/lastmile_qr_scan"}, "type": "electric_scooter", "lon": -77.02298233333333, "lat": 38.895056333333336, "fusion_lon": 0.0, "name": "e0f41768bdba59be6454c1edce4b011d", "bike_id": "e0f41768bdba59be6454c1edce4b011d", "is_reserved": 0, "fusion_lat": 0.0, "is_disabled": 0}, {"rental_uris": {"ios": "https://dc.lft.to/lastmile_qr_scan", "android": "https://dc.lft.to/lastmile_qr_scan"}, "type": "electric_scooter", "lon": -77.00930216666667, "lat": 38.89986533333333, "fusion_lon": 0.0, "name": "6b48140930ee08f28f67c69bcdf9a816", "bike_id": "6b48140930ee08f28f67c69bcdf9a816", "is_reserved": 0, "fusion_lat": 0.0, "is_disabled": 0}, {"rental_uris": {"ios": "https://dc.lft.to/lastmile_qr_scan", "android": "https://dc.lft.to/lastmile_qr_scan"}, "type": "electric_scooter", "lon": -77.02277466666666, "lat": 38.928234833333335, "fusion_lon": 0.0, "name": "9fb89a70d9da9992d1364331662d3574", "bike_id": "9fb89a70d9da9992d1364331662d3574", "is_reserved": 0, "fusion_lat": 0.0, "is_disabled": 0}, {"rental_uris": {"ios": "https://dc.lft.to/lastmile_qr_scan", "android": "https://dc.lft.to/lastmile_qr_scan"}, "type": "electric_scooter", "lon": -77.02372883333334, "lat": 38.9021595, "fusion_lon": 0.0, "name": "b9e7f97eed50d3bf084715f3600be0c0", "bike_id": "b9e7f97eed50d3bf084715f3600be0c0", "is_reserved": 0, "fusion_lat": 0.0, "is_disabled": 0}, {"rental_uris": {"ios": "https://dc.lft.to/lastmile_qr_scan", "android": "https://dc.lft.to/lastmile_qr_scan"}, "type": "electric_scooter", "lon": -77.02029733333333, "lat": 38.92421133333333, "fusion_lon": 0.0, "name": "408085f259cdb5ba794ff9359229df9b", "bike_id": "408085f259cdb5ba794ff9359229df9b", "is_reserved": 0, "fusion_lat": 0.0, "is_disabled": 0}, {"rental_uris": {"ios": "https://dc.lft.to/lastmile_qr_scan", "android": "https://dc.lft.to/lastmile_qr_scan"}, "type": "electric_scooter", "lon": -77.03726233333333, "lat": 38.9171195, "fusion_lon": 0.0, "name": "829dc7a1e71fd80a69e7c6e19408cf61", "bike_id": "829dc7a1e71fd80a69e7c6e19408cf61", "is_reserved": 0, "fusion_lat": 0.0, "is_disabled": 0}, {"rental_uris": {"ios": "https://dc.lft.to/lastmile_qr_scan", "android": "https://dc.lft.to/lastmile_qr_scan"}, "type": "electric_bike", "lon": -77.11040916666667, "lat": 38.87063233333333, "fusion_lon": 0.0, "name": "70fe3c50082ec32cb6b0208072c0df75", "bike_id": "70fe3c50082ec32cb6b0208072c0df75", "is_reserved": 0, "fusion_lat": 0.0, "is_disabled": 0}, {"rental_uris": {"ios": "https://dc.lft.to/lastmile_qr_scan", "android": "https://dc.lft.to/lastmile_qr_scan"}, "type": "electric_scooter", "lon": -77.04339366666666, "lat": 38.904065, "fusion_lon": 0.0, "name": "1432cf6499d51aa45bb54093c44e2ee8", "bike_id": "1432cf6499d51aa45bb54093c44e2ee8", "is_reserved": 0, "fusion_lat": 0.0, "is_disabled": 0}, {"rental_uris": {"ios": "https://dc.lft.to/lastmile_qr_scan", "android": "https://dc.lft.to/lastmile_qr_scan"}, "type": "electric_scooter", "lon": -77.02958633333333, "lat": 38.92383533333334, "fusion_lon": 0.0, "name": "908ee10aec5fa18a56a96b8e741e7c34", "bike_id": "908ee10aec5fa18a56a96b8e741e7c34", "is_reserved": 0, "fusion_lat": 0.0, "is_disabled": 0}, {"rental_uris": {"ios": "https://dc.lft.to/lastmile_qr_scan", "android": "https://dc.lft.to/lastmile_qr_scan"}, "type": "electric_scooter", "lon": -77.01891583333334, "lat": 38.918812, "fusion_lon": 0.0, "name": "bbbca3c1d1bdb28a1aec63da23fdf8d7", "bike_id": "bbbca3c1d1bdb28a1aec63da23fdf8d7", "is_reserved": 0, "fusion_lat": 0.0, "is_disabled": 0}, {"rental_uris": {"ios": "https://dc.lft.to/lastmile_qr_scan", "android": "https://dc.lft.to/lastmile_qr_scan"}, "type": "electric_scooter", "lon": -77.02166966666667, "lat": 38.8922025, "fusion_lon": 0.0, "name": "bfc519bcc673d69fb02c68050cd314dd", "bike_id": "bfc519bcc673d69fb02c68050cd314dd", "is_reserved": 0, "fusion_lat": 0.0, "is_disabled": 0}, {"rental_uris": {"ios": "https://dc.lft.to/lastmile_qr_scan", "android": "https://dc.lft.to/lastmile_qr_scan"}, "type": "electric_scooter", "lon": -76.982304, "lat": 38.8647515, "fusion_lon": 0.0, "name": "9649407f38a1e3a7f6bd51b96c85b59b", "bike_id": "9649407f38a1e3a7f6bd51b96c85b59b", "is_reserved": 0, "fusion_lat": 0.0, "is_disabled": 0}, {"rental_uris": {"ios": "https://dc.lft.to/lastmile_qr_scan", "android": "https://dc.lft.to/lastmile_qr_scan"}, "type": "electric_scooter", "lon": -77.02582466666667, "lat": 38.926765, "fusion_lon": 0.0, "name": "b82e06bcec3475d847108be06bb65f1e", "bike_id": "b82e06bcec3475d847108be06bb65f1e", "is_reserved": 0, "fusion_lat": 0.0, "is_disabled": 0}, {"rental_uris": {"ios": "https://dc.lft.to/lastmile_qr_scan", "android": "https://dc.lft.to/lastmile_qr_scan"}, "type": "electric_scooter", "lon": -77.02732683333333, "lat": 38.923884, "fusion_lon": 0.0, "name": "79cfe3a254a2e287c52b76aeecb92ed7", "bike_id": "79cfe3a254a2e287c52b76aeecb92ed7", "is_reserved": 0, "fusion_lat": 0.0, "is_disabled": 0}, {"rental_uris": {"ios": "https://dc.lft.to/lastmile_qr_scan", "android": "https://dc.lft.to/lastmile_qr_scan"}, "type": "electric_scooter", "lon": -77.0365785, "lat": 38.922385166666665, "fusion_lon": 0.0, "name": "cf9dd8ce4d7757e5ab4d7e6f47f8aca1", "bike_id": "cf9dd8ce4d7757e5ab4d7e6f47f8aca1", "is_reserved": 0, "fusion_lat": 0.0, "is_disabled": 0}, {"rental_uris": {"ios": "https://dc.lft.to/lastmile_qr_scan", "android": "https://dc.lft.to/lastmile_qr_scan"}, "type": "electric_scooter", "lon": -77.04656516666667, "lat": 38.90988433333333, "fusion_lon": 0.0, "name": "af045845ad703300ba33d1386104434d", "bike_id": "af045845ad703300ba33d1386104434d", "is_reserved": 0, "fusion_lat": 0.0, "is_disabled": 0}, {"rental_uris": {"ios": "https://dc.lft.to/lastmile_qr_scan", "android": "https://dc.lft.to/lastmile_qr_scan"}, "type": "electric_scooter", "lon": -76.98133666666666, "lat": 38.857117, "fusion_lon": 0.0, "name": "170776e08d7d55ccf64793a36aae4a4b", "bike_id": "170776e08d7d55ccf64793a36aae4a4b", "is_reserved": 0, "fusion_lat": 0.0, "is_disabled": 0}, {"rental_uris": {"ios": "https://dc.lft.to/lastmile_qr_scan", "android": "https://dc.lft.to/lastmile_qr_scan"}, "type": "electric_scooter", "lon": -76.99730883333334, "lat": 38.8994165, "fusion_lon": 0.0, "name": "95a14a6f5e9ab78db57d00a074e056c0", "bike_id": "95a14a6f5e9ab78db57d00a074e056c0", "is_reserved": 0, "fusion_lat": 0.0, "is_disabled": 0}, {"rental_uris": {"ios": "https://dc.lft.to/lastmile_qr_scan", "android": "https://dc.lft.to/lastmile_qr_scan"}, "type": "electric_scooter", "lon": -77.0323355, "lat": 38.92989683333333, "fusion_lon": 0.0, "name": "e4482d00bd5ccf8570e156ad860006dc", "bike_id": "e4482d00bd5ccf8570e156ad860006dc", "is_reserved": 0, "fusion_lat": 0.0, "is_disabled": 0}, {"rental_uris": {"ios": "https://dc.lft.to/lastmile_qr_scan", "android": "https://dc.lft.to/lastmile_qr_scan"}, "type": "electric_scooter", "lon": -77.00975566666666, "lat": 38.907023, "fusion_lon": 0.0, "name": "26bd08521c985581325b2f210f6dd466", "bike_id": "26bd08521c985581325b2f210f6dd466", "is_reserved": 0, "fusion_lat": 0.0, "is_disabled": 0}, {"rental_uris": {"ios": "https://dc.lft.to/lastmile_qr_scan", "android": "https://dc.lft.to/lastmile_qr_scan"}, "type": "electric_scooter", "lon": -77.03726866666666, "lat": 38.91704516666667, "fusion_lon": 0.0, "name": "347c6704e7e23ab8e8b8088aad707c23", "bike_id": "347c6704e7e23ab8e8b8088aad707c23", "is_reserved": 0, "fusion_lat": 0.0, "is_disabled": 0}, {"rental_uris": {"ios": "https://dc.lft.to/lastmile_qr_scan", "android": "https://dc.lft.to/lastmile_qr_scan"}, "type": "electric_bike", "lon": -77.01355733333334, "lat": 39.029249166666666, "fusion_lon": 0.0, "name": "fb2855db41b26693a5647ffb34b46e2f", "bike_id": "fb2855db41b26693a5647ffb34b46e2f", "is_reserved": 0, "fusion_lat": 0.0, "is_disabled": 0}, {"rental_uris": {"ios": "https://dc.lft.to/lastmile_qr_scan", "android": "https://dc.lft.to/lastmile_qr_scan"}, "type": "electric_scooter", "lon": -76.989863, "lat": 38.90938666666667, "fusion_lon": 0.0, "name": "2e3dd268bb0aa8a0237279fe98c723ac", "bike_id": "2e3dd268bb0aa8a0237279fe98c723ac", "is_reserved": 0, "fusion_lat": 0.0, "is_disabled": 0}, {"rental_uris": {"ios": "https://dc.lft.to/lastmile_qr_scan", "android": "https://dc.lft.to/lastmile_qr_scan"}, "type": "electric_scooter", "lon": -77.03379166666667, "lat": 38.90815116666667, "fusion_lon": 0.0, "name": "c8cb62a0f601ca4088894cd191a36bb9", "bike_id": "c8cb62a0f601ca4088894cd191a36bb9", "is_reserved": 0, "fusion_lat": 0.0, "is_disabled": 0}, {"rental_uris": {"ios": "https://dc.lft.to/lastmile_qr_scan", "android": "https://dc.lft.to/lastmile_qr_scan"}, "type": "electric_scooter", "lon": -76.98061566666667, "lat": 38.901526833333335, "fusion_lon": 0.0, "name": "d281d0b0540a9f778828682ed214c92b", "bike_id": "d281d0b0540a9f778828682ed214c92b", "is_reserved": 0, "fusion_lat": 0.0, "is_disabled": 0}, {"rental_uris": {"ios": "https://dc.lft.to/lastmile_qr_scan", "android": "https://dc.lft.to/lastmile_qr_scan"}, "type": "electric_scooter", "lon": -77.015786, "lat": 38.91684383333333, "fusion_lon": 0.0, "name": "fb57415fcd1f3a1a3650e7265346ba9c", "bike_id": "fb57415fcd1f3a1a3650e7265346ba9c", "is_reserved": 0, "fusion_lat": 0.0, "is_disabled": 0}, {"rental_uris": {"ios": "https://dc.lft.to/lastmile_qr_scan", "android": "https://dc.lft.to/lastmile_qr_scan"}, "type": "electric_scooter", "lon": -76.97704416666667, "lat": 38.88822016666667, "fusion_lon": 0.0, "name": "f8d5e0325da60a18e49ceae6949fd512", "bike_id": "f8d5e0325da60a18e49ceae6949fd512", "is_reserved": 0, "fusion_lat": 0.0, "is_disabled": 0}, {"rental_uris": {"ios": "https://dc.lft.to/lastmile_qr_scan", "android": "https://dc.lft.to/lastmile_qr_scan"}, "type": "electric_scooter", "lon": -77.044656, "lat": 38.896120333333336, "fusion_lon": 0.0, "name": "b65728bdd7df3e8f8baf7803dfb07a97", "bike_id": "b65728bdd7df3e8f8baf7803dfb07a97", "is_reserved": 0, "fusion_lat": 0.0, "is_disabled": 0}, {"rental_uris": {"ios": "https://dc.lft.to/lastmile_qr_scan", "android": "https://dc.lft.to/lastmile_qr_scan"}, "type": "electric_scooter", "lon": -76.98332533333334, "lat": 38.8870465, "fusion_lon": 0.0, "name": "082dce688efd183afc5b205bb20715fe", "bike_id": "082dce688efd183afc5b205bb20715fe", "is_reserved": 0, "fusion_lat": 0.0, "is_disabled": 0}, {"rental_uris": {"ios": "https://dc.lft.to/lastmile_qr_scan", "android": "https://dc.lft.to/lastmile_qr_scan"}, "type": "electric_scooter", "lon": -77.00570166666667, "lat": 38.88504016666667, "fusion_lon": 0.0, "name": "d25625c34674b1a3426c16a71798ad5a", "bike_id": "d25625c34674b1a3426c16a71798ad5a", "is_reserved": 0, "fusion_lat": 0.0, "is_disabled": 0}, {"rental_uris": {"ios": "https://dc.lft.to/lastmile_qr_scan", "android": "https://dc.lft.to/lastmile_qr_scan"}, "type": "electric_scooter", "lon": -77.02748916666667, "lat": 38.92679016666666, "fusion_lon": 0.0, "name": "30083dcc0eee8812680f32bc26dd8c71", "bike_id": "30083dcc0eee8812680f32bc26dd8c71", "is_reserved": 0, "fusion_lat": 0.0, "is_disabled": 0}, {"rental_uris": {"ios": "https://dc.lft.to/lastmile_qr_scan", "android": "https://dc.lft.to/lastmile_qr_scan"}, "type": "electric_scooter", "lon": -77.00528333333334, "lat": 38.88057033333333, "fusion_lon": 0.0, "name": "5e74e26a6037bfa78ab74482b559d960", "bike_id": "5e74e26a6037bfa78ab74482b559d960", "is_reserved": 0, "fusion_lat": 0.0, "is_disabled": 0}, {"rental_uris": {"ios": "https://dc.lft.to/lastmile_qr_scan", "android": "https://dc.lft.to/lastmile_qr_scan"}, "type": "electric_scooter", "lon": -76.98834466666666, "lat": 38.90039983333333, "fusion_lon": 0.0, "name": "e4551e8d2ba72b2d0cdec4d7920c5dcc", "bike_id": "e4551e8d2ba72b2d0cdec4d7920c5dcc", "is_reserved": 0, "fusion_lat": 0.0, "is_disabled": 0}, {"rental_uris": {"ios": "https://dc.lft.to/lastmile_qr_scan", "android": "https://dc.lft.to/lastmile_qr_scan"}, "type": "electric_scooter", "lon": -77.02125983333333, "lat": 38.92275216666667, "fusion_lon": 0.0, "name": "e62985d1347a4f53a3e3fe2da3ba870b", "bike_id": "e62985d1347a4f53a3e3fe2da3ba870b", "is_reserved": 0, "fusion_lat": 0.0, "is_disabled": 0}, {"rental_uris": {"ios": "https://dc.lft.to/lastmile_qr_scan", "android": "https://dc.lft.to/lastmile_qr_scan"}, "type": "electric_scooter", "lon": -77.03206466666667, "lat": 38.92757783333333, "fusion_lon": 0.0, "name": "cd128791f4c1c4931c5f62e0a57bda7b", "bike_id": "cd128791f4c1c4931c5f62e0a57bda7b", "is_reserved": 0, "fusion_lat": 0.0, "is_disabled": 0}, {"rental_uris": {"ios": "https://dc.lft.to/lastmile_qr_scan", "android": "https://dc.lft.to/lastmile_qr_scan"}, "type": "electric_scooter", "lon": -77.03642416666666, "lat": 38.904431833333334, "fusion_lon": 0.0, "name": "838ff360f78f471c0d099ccf59328189", "bike_id": "838ff360f78f471c0d099ccf59328189", "is_reserved": 0, "fusion_lat": 0.0, "is_disabled": 0}, {"rental_uris": {"ios": "https://dc.lft.to/lastmile_qr_scan", "android": "https://dc.lft.to/lastmile_qr_scan"}, "type": "electric_scooter", "lon": -77.0227775, "lat": 38.92469583333333, "fusion_lon": 0.0, "name": "049917c966a0231b1081cdefa3f827f1", "bike_id": "049917c966a0231b1081cdefa3f827f1", "is_reserved": 0, "fusion_lat": 0.0, "is_disabled": 0}, {"rental_uris": {"ios": "https://dc.lft.to/lastmile_qr_scan", "android": "https://dc.lft.to/lastmile_qr_scan"}, "type": "electric_bike", "lon": -76.90859333333333, "lat": 38.9989395, "fusion_lon": 0.0, "name": "9f8399c1e9d9851a1b3a6adad4a20053", "bike_id": "9f8399c1e9d9851a1b3a6adad4a20053", "is_reserved": 0, "fusion_lat": 0.0, "is_disabled": 0}, {"rental_uris": {"ios": "https://dc.lft.to/lastmile_qr_scan", "android": "https://dc.lft.to/lastmile_qr_scan"}, "type": "electric_scooter", "lon": -76.98062583333333, "lat": 38.901570666666665, "fusion_lon": 0.0, "name": "f7d3923933f93c3185d7aed11e47be63", "bike_id": "f7d3923933f93c3185d7aed11e47be63", "is_reserved": 0, "fusion_lat": 0.0, "is_disabled": 0}, {"rental_uris": {"ios": "https://dc.lft.to/lastmile_qr_scan", "android": "https://dc.lft.to/lastmile_qr_scan"}, "type": "electric_scooter", "lon": -76.99118883333334, "lat": 38.89707533333333, "fusion_lon": 0.0, "name": "a55e3aa95068197adcdc2eb70ce14e5b", "bike_id": "a55e3aa95068197adcdc2eb70ce14e5b", "is_reserved": 0, "fusion_lat": 0.0, "is_disabled": 0}, {"rental_uris": {"ios": "https://dc.lft.to/lastmile_qr_scan", "android": "https://dc.lft.to/lastmile_qr_scan"}, "type": "electric_scooter", "lon": -76.99622083333334, "lat": 38.92786916666667, "fusion_lon": 0.0, "name": "ec29150324ae4aa46cb0e5563f05bfc3", "bike_id": "ec29150324ae4aa46cb0e5563f05bfc3", "is_reserved": 0, "fusion_lat": 0.0, "is_disabled": 0}, {"rental_uris": {"ios": "https://dc.lft.to/lastmile_qr_scan", "android": "https://dc.lft.to/lastmile_qr_scan"}, "type": "electric_scooter", "lon": -77.00428666666667, "lat": 38.90396333333333, "fusion_lon": 0.0, "name": "1a731934f5649a388f8a12172a7af434", "bike_id": "1a731934f5649a388f8a12172a7af434", "is_reserved": 0, "fusion_lat": 0.0, "is_disabled": 0}, {"rental_uris": {"ios": "https://dc.lft.to/lastmile_qr_scan", "android": "https://dc.lft.to/lastmile_qr_scan"}, "type": "electric_scooter", "lon": -77.032887, "lat": 38.93242933333333, "fusion_lon": 0.0, "name": "90fabd69bf343e91a06437010b045c59", "bike_id": "90fabd69bf343e91a06437010b045c59", "is_reserved": 0, "fusion_lat": 0.0, "is_disabled": 0}, {"rental_uris": {"ios": "https://dc.lft.to/lastmile_qr_scan", "android": "https://dc.lft.to/lastmile_qr_scan"}, "type": "electric_bike", "lon": -77.22909833333334, "lat": 38.870400833333335, "fusion_lon": 0.0, "name": "7c68dac5041c288a2f4d73582bbbf273", "bike_id": "7c68dac5041c288a2f4d73582bbbf273", "is_reserved": 0, "fusion_lat": 0.0, "is_disabled": 0}, {"rental_uris": {"ios": "https://dc.lft.to/lastmile_qr_scan", "android": "https://dc.lft.to/lastmile_qr_scan"}, "type": "electric_scooter", "lon": -77.032192, "lat": 38.896359333333336, "fusion_lon": 0.0, "name": "cedbc560eb0a20b4c1f6052553e0154f", "bike_id": "cedbc560eb0a20b4c1f6052553e0154f", "is_reserved": 0, "fusion_lat": 0.0, "is_disabled": 0}, {"rental_uris": {"ios": "https://dc.lft.to/lastmile_qr_scan", "android": "https://dc.lft.to/lastmile_qr_scan"}, "type": "electric_scooter", "lon": -77.03060566666667, "lat": 38.923800166666666, "fusion_lon": 0.0, "name": "367834a538e0a90947389142e0414229", "bike_id": "367834a538e0a90947389142e0414229", "is_reserved": 0, "fusion_lat": 0.0, "is_disabled": 0}, {"rental_uris": {"ios": "https://dc.lft.to/lastmile_qr_scan", "android": "https://dc.lft.to/lastmile_qr_scan"}, "type": "electric_scooter", "lon": -76.98756616666667, "lat": 38.900274333333336, "fusion_lon": 0.0, "name": "2ed5705bd13e39d10419c4777ff30e1f", "bike_id": "2ed5705bd13e39d10419c4777ff30e1f", "is_reserved": 0, "fusion_lat": 0.0, "is_disabled": 0}, {"rental_uris": {"ios": "https://dc.lft.to/lastmile_qr_scan", "android": "https://dc.lft.to/lastmile_qr_scan"}, "type": "electric_scooter", "lon": -77.02200333333333, "lat": 38.914637166666665, "fusion_lon": 0.0, "name": "88448a4d520631133300d8a7f85371da", "bike_id": "88448a4d520631133300d8a7f85371da", "is_reserved": 0, "fusion_lat": 0.0, "is_disabled": 0}, {"rental_uris": {"ios": "https://dc.lft.to/lastmile_qr_scan", "android": "https://dc.lft.to/lastmile_qr_scan"}, "type": "electric_scooter", "lon": -76.99954916666667, "lat": 38.925656833333335, "fusion_lon": 0.0, "name": "6a923c9b442486254510068d43616014", "bike_id": "6a923c9b442486254510068d43616014", "is_reserved": 0, "fusion_lat": 0.0, "is_disabled": 0}, {"rental_uris": {"ios": "https://dc.lft.to/lastmile_qr_scan", "android": "https://dc.lft.to/lastmile_qr_scan"}, "type": "electric_scooter", "lon": -77.03862633333334, "lat": 38.91264116666667, "fusion_lon": 0.0, "name": "9fbdb6007614f3e2192b6b4e916219c8", "bike_id": "9fbdb6007614f3e2192b6b4e916219c8", "is_reserved": 0, "fusion_lat": 0.0, "is_disabled": 0}, {"rental_uris": {"ios": "https://dc.lft.to/lastmile_qr_scan", "android": "https://dc.lft.to/lastmile_qr_scan"}, "type": "electric_scooter", "lon": -77.0257075, "lat": 38.882934666666664, "fusion_lon": 0.0, "name": "6564a13ee279929786f0a0992780e932", "bike_id": "6564a13ee279929786f0a0992780e932", "is_reserved": 0, "fusion_lat": 0.0, "is_disabled": 0}, {"rental_uris": {"ios": "https://dc.lft.to/lastmile_qr_scan", "android": "https://dc.lft.to/lastmile_qr_scan"}, "type": "electric_bike", "lon": -76.97216083333333, "lat": 38.900328, "fusion_lon": 0.0, "name": "560d204d93ab8fc8b451e1a076772f9b", "bike_id": "560d204d93ab8fc8b451e1a076772f9b", "is_reserved": 0, "fusion_lat": 0.0, "is_disabled": 0}, {"rental_uris": {"ios": "https://dc.lft.to/lastmile_qr_scan", "android": "https://dc.lft.to/lastmile_qr_scan"}, "type": "electric_bike", "lon": -77.12886866666666, "lat": 38.90596433333333, "fusion_lon": 0.0, "name": "9e4cd733bbd997ba6362d96d65b08883", "bike_id": "9e4cd733bbd997ba6362d96d65b08883", "is_reserved": 0, "fusion_lat": 0.0, "is_disabled": 0}, {"rental_uris": {"ios": "https://dc.lft.to/lastmile_qr_scan", "android": "https://dc.lft.to/lastmile_qr_scan"}, "type": "electric_scooter", "lon": -77.0468495, "lat": 38.89735483333333, "fusion_lon": 0.0, "name": "1aa65d7d9f57a748161adc7ca8e3e202", "bike_id": "1aa65d7d9f57a748161adc7ca8e3e202", "is_reserved": 0, "fusion_lat": 0.0, "is_disabled": 0}, {"rental_uris": {"ios": "https://dc.lft.to/lastmile_qr_scan", "android": "https://dc.lft.to/lastmile_qr_scan"}, "type": "electric_scooter", "lon": -77.01174, "lat": 38.880717833333335, "fusion_lon": 0.0, "name": "2a8e6845939f1f576a2ea86f1cf152c3", "bike_id": "2a8e6845939f1f576a2ea86f1cf152c3", "is_reserved": 0, "fusion_lat": 0.0, "is_disabled": 0}, {"rental_uris": {"ios": "https://dc.lft.to/lastmile_qr_scan", "android": "https://dc.lft.to/lastmile_qr_scan"}, "type": "electric_scooter", "lon": -77.0590235, "lat": 38.901704, "fusion_lon": 0.0, "name": "0f7f909cb90f0dee87de5e47fb32ae50", "bike_id": "0f7f909cb90f0dee87de5e47fb32ae50", "is_reserved": 0, "fusion_lat": 0.0, "is_disabled": 0}, {"rental_uris": {"ios": "https://dc.lft.to/lastmile_qr_scan", "android": "https://dc.lft.to/lastmile_qr_scan"}, "type": "electric_scooter", "lon": -77.02276433333333, "lat": 38.928236166666665, "fusion_lon": 0.0, "name": "206fdf55d0af01e7e0a528631667c722", "bike_id": "206fdf55d0af01e7e0a528631667c722", "is_reserved": 0, "fusion_lat": 0.0, "is_disabled": 0}, {"rental_uris": {"ios": "https://dc.lft.to/lastmile_qr_scan", "android": "https://dc.lft.to/lastmile_qr_scan"}, "type": "electric_scooter", "lon": -77.085826, "lat": 38.933529666666665, "fusion_lon": 0.0, "name": "f2c621f28556943215d71c7098f836ef", "bike_id": "f2c621f28556943215d71c7098f836ef", "is_reserved": 0, "fusion_lat": 0.0, "is_disabled": 0}, {"rental_uris": {"ios": "https://dc.lft.to/lastmile_qr_scan", "android": "https://dc.lft.to/lastmile_qr_scan"}, "type": "electric_scooter", "lon": -77.05324066666667, "lat": 38.904380833333335, "fusion_lon": 0.0, "name": "6729ae393be14f33237a96366010a02b", "bike_id": "6729ae393be14f33237a96366010a02b", "is_reserved": 0, "fusion_lat": 0.0, "is_disabled": 0}, {"rental_uris": {"ios": "https://dc.lft.to/lastmile_qr_scan", "android": "https://dc.lft.to/lastmile_qr_scan"}, "type": "electric_scooter", "lon": -77.03480866666666, "lat": 38.92879166666667, "fusion_lon": 0.0, "name": "c25b2429100d5084151f26c39b57e373", "bike_id": "c25b2429100d5084151f26c39b57e373", "is_reserved": 0, "fusion_lat": 0.0, "is_disabled": 0}, {"rental_uris": {"ios": "https://dc.lft.to/lastmile_qr_scan", "android": "https://dc.lft.to/lastmile_qr_scan"}, "type": "electric_scooter", "lon": -76.93388183333333, "lat": 38.89908283333333, "fusion_lon": 0.0, "name": "a03acb4ecbb980142da634b66e958cad", "bike_id": "a03acb4ecbb980142da634b66e958cad", "is_reserved": 0, "fusion_lat": 0.0, "is_disabled": 0}, {"rental_uris": {"ios": "https://dc.lft.to/lastmile_qr_scan", "android": "https://dc.lft.to/lastmile_qr_scan"}, "type": "electric_scooter", "lon": -77.04223816666666, "lat": 38.922861833333336, "fusion_lon": 0.0, "name": "367763703d9bc8f0c6b04db60a3fd1c7", "bike_id": "367763703d9bc8f0c6b04db60a3fd1c7", "is_reserved": 0, "fusion_lat": 0.0, "is_disabled": 0}, {"rental_uris": {"ios": "https://dc.lft.to/lastmile_qr_scan", "android": "https://dc.lft.to/lastmile_qr_scan"}, "type": "electric_scooter", "lon": -77.03904966666667, "lat": 38.91274166666667, "fusion_lon": 0.0, "name": "24958ca20ad4f55526307810cba9428e", "bike_id": "24958ca20ad4f55526307810cba9428e", "is_reserved": 0, "fusion_lat": 0.0, "is_disabled": 0}, {"rental_uris": {"ios": "https://dc.lft.to/lastmile_qr_scan", "android": "https://dc.lft.to/lastmile_qr_scan"}, "type": "electric_scooter", "lon": -76.93176616666666, "lat": 38.8988525, "fusion_lon": 0.0, "name": "2063d7f276d11e89ebed2853fca82e11", "bike_id": "2063d7f276d11e89ebed2853fca82e11", "is_reserved": 0, "fusion_lat": 0.0, "is_disabled": 0}, {"rental_uris": {"ios": "https://dc.lft.to/lastmile_qr_scan", "android": "https://dc.lft.to/lastmile_qr_scan"}, "type": "electric_scooter", "lon": -77.033581, "lat": 38.90722783333333, "fusion_lon": 0.0, "name": "c431a194ac1458af5a13c809aba40d66", "bike_id": "c431a194ac1458af5a13c809aba40d66", "is_reserved": 0, "fusion_lat": 0.0, "is_disabled": 0}, {"rental_uris": {"ios": "https://dc.lft.to/lastmile_qr_scan", "android": "https://dc.lft.to/lastmile_qr_scan"}, "type": "electric_scooter", "lon": -77.0467235, "lat": 38.911409666666664, "fusion_lon": 0.0, "name": "a4221f74ef2893b26a5e1d1859d1c530", "bike_id": "a4221f74ef2893b26a5e1d1859d1c530", "is_reserved": 0, "fusion_lat": 0.0, "is_disabled": 0}, {"rental_uris": {"ios": "https://dc.lft.to/lastmile_qr_scan", "android": "https://dc.lft.to/lastmile_qr_scan"}, "type": "electric_scooter", "lon": -77.03929366666667, "lat": 38.92471366666667, "fusion_lon": 0.0, "name": "dcf2d99cc3a8982b450e2ae15078619f", "bike_id": "dcf2d99cc3a8982b450e2ae15078619f", "is_reserved": 0, "fusion_lat": 0.0, "is_disabled": 0}, {"rental_uris": {"ios": "https://dc.lft.to/lastmile_qr_scan", "android": "https://dc.lft.to/lastmile_qr_scan"}, "type": "electric_scooter", "lon": -77.033096, "lat": 38.9035895, "fusion_lon": 0.0, "name": "50f7eab793aa00a39a6d61cd9c48da8d", "bike_id": "50f7eab793aa00a39a6d61cd9c48da8d", "is_reserved": 0, "fusion_lat": 0.0, "is_disabled": 0}, {"rental_uris": {"ios": "https://dc.lft.to/lastmile_qr_scan", "android": "https://dc.lft.to/lastmile_qr_scan"}, "type": "electric_scooter", "lon": -77.02981466666667, "lat": 38.89909383333333, "fusion_lon": 0.0, "name": "b171faaad32813cdf292907c58ec5718", "bike_id": "b171faaad32813cdf292907c58ec5718", "is_reserved": 0, "fusion_lat": 0.0, "is_disabled": 0}, {"rental_uris": {"ios": "https://dc.lft.to/lastmile_qr_scan", "android": "https://dc.lft.to/lastmile_qr_scan"}, "type": "electric_scooter", "lon": -77.04862233333333, "lat": 38.89965883333333, "fusion_lon": 0.0, "name": "ed4f9a26adfcce64fc50998d66363ea1", "bike_id": "ed4f9a26adfcce64fc50998d66363ea1", "is_reserved": 0, "fusion_lat": 0.0, "is_disabled": 0}, {"rental_uris": {"ios": "https://dc.lft.to/lastmile_qr_scan", "android": "https://dc.lft.to/lastmile_qr_scan"}, "type": "electric_scooter", "lon": -77.0376535, "lat": 38.907798666666665, "fusion_lon": 0.0, "name": "b3caefd91977994333277fea89e070f9", "bike_id": "b3caefd91977994333277fea89e070f9", "is_reserved": 0, "fusion_lat": 0.0, "is_disabled": 0}, {"rental_uris": {"ios": "https://dc.lft.to/lastmile_qr_scan", "android": "https://dc.lft.to/lastmile_qr_scan"}, "type": "electric_scooter", "lon": -77.0332945, "lat": 38.91267533333333, "fusion_lon": 0.0, "name": "0450514f6283aa3973ed34eee0b4bc8b", "bike_id": "0450514f6283aa3973ed34eee0b4bc8b", "is_reserved": 0, "fusion_lat": 0.0, "is_disabled": 0}, {"rental_uris": {"ios": "https://dc.lft.to/lastmile_qr_scan", "android": "https://dc.lft.to/lastmile_qr_scan"}, "type": "electric_scooter", "lon": -77.07530133333333, "lat": 38.90880533333333, "fusion_lon": 0.0, "name": "69f79950ab318fe21a53810e8e775c6e", "bike_id": "69f79950ab318fe21a53810e8e775c6e", "is_reserved": 0, "fusion_lat": 0.0, "is_disabled": 0}, {"rental_uris": {"ios": "https://dc.lft.to/lastmile_qr_scan", "android": "https://dc.lft.to/lastmile_qr_scan"}, "type": "electric_scooter", "lon": -77.04133433333334, "lat": 38.92498066666667, "fusion_lon": 0.0, "name": "d36ef1a860b1eed286447eab5e37adcb", "bike_id": "d36ef1a860b1eed286447eab5e37adcb", "is_reserved": 0, "fusion_lat": 0.0, "is_disabled": 0}, {"rental_uris": {"ios": "https://dc.lft.to/lastmile_qr_scan", "android": "https://dc.lft.to/lastmile_qr_scan"}, "type": "electric_scooter", "lon": -77.03207633333334, "lat": 38.917305, "fusion_lon": 0.0, "name": "0e46646fa5c137e3f54e664791f1f2a7", "bike_id": "0e46646fa5c137e3f54e664791f1f2a7", "is_reserved": 0, "fusion_lat": 0.0, "is_disabled": 0}, {"rental_uris": {"ios": "https://dc.lft.to/lastmile_qr_scan", "android": "https://dc.lft.to/lastmile_qr_scan"}, "type": "electric_scooter", "lon": -77.03340216666666, "lat": 38.9028315, "fusion_lon": 0.0, "name": "9ccd42a9956c36942c5573c9f3822c1e", "bike_id": "9ccd42a9956c36942c5573c9f3822c1e", "is_reserved": 0, "fusion_lat": 0.0, "is_disabled": 0}, {"rental_uris": {"ios": "https://dc.lft.to/lastmile_qr_scan", "android": "https://dc.lft.to/lastmile_qr_scan"}, "type": "electric_scooter", "lon": -77.0613355, "lat": 38.941018666666665, "fusion_lon": 0.0, "name": "e8bdfed6fd16cdcea85361dbbf015ab7", "bike_id": "e8bdfed6fd16cdcea85361dbbf015ab7", "is_reserved": 0, "fusion_lat": 0.0, "is_disabled": 0}, {"rental_uris": {"ios": "https://dc.lft.to/lastmile_qr_scan", "android": "https://dc.lft.to/lastmile_qr_scan"}, "type": "electric_scooter", "lon": -77.03654866666666, "lat": 38.94178383333333, "fusion_lon": 0.0, "name": "bb9ed4b9f774a85afea437b1a745be69", "bike_id": "bb9ed4b9f774a85afea437b1a745be69", "is_reserved": 0, "fusion_lat": 0.0, "is_disabled": 0}, {"rental_uris": {"ios": "https://dc.lft.to/lastmile_qr_scan", "android": "https://dc.lft.to/lastmile_qr_scan"}, "type": "electric_scooter", "lon": -77.07261166666666, "lat": 38.90897233333333, "fusion_lon": 0.0, "name": "558b5f69b820773f1cf9b89a35d14a2f", "bike_id": "558b5f69b820773f1cf9b89a35d14a2f", "is_reserved": 0, "fusion_lat": 0.0, "is_disabled": 0}, {"rental_uris": {"ios": "https://dc.lft.to/lastmile_qr_scan", "android": "https://dc.lft.to/lastmile_qr_scan"}, "type": "electric_scooter", "lon": -77.03078783333333, "lat": 38.92791066666667, "fusion_lon": 0.0, "name": "e90fb47722401b34fe52ef7f4c00d84e", "bike_id": "e90fb47722401b34fe52ef7f4c00d84e", "is_reserved": 0, "fusion_lat": 0.0, "is_disabled": 0}, {"rental_uris": {"ios": "https://dc.lft.to/lastmile_qr_scan", "android": "https://dc.lft.to/lastmile_qr_scan"}, "type": "electric_scooter", "lon": -77.03375766666667, "lat": 38.90956966666667, "fusion_lon": 0.0, "name": "54928c3884ef31eecd8aa8bcb226d74c", "bike_id": "54928c3884ef31eecd8aa8bcb226d74c", "is_reserved": 0, "fusion_lat": 0.0, "is_disabled": 0}, {"rental_uris": {"ios": "https://dc.lft.to/lastmile_qr_scan", "android": "https://dc.lft.to/lastmile_qr_scan"}, "type": "electric_scooter", "lon": -77.00721766666666, "lat": 38.915568666666665, "fusion_lon": 0.0, "name": "f274e8ea299fbfa4cd1942bc54baedab", "bike_id": "f274e8ea299fbfa4cd1942bc54baedab", "is_reserved": 0, "fusion_lat": 0.0, "is_disabled": 0}, {"rental_uris": {"ios": "https://dc.lft.to/lastmile_qr_scan", "android": "https://dc.lft.to/lastmile_qr_scan"}, "type": "electric_scooter", "lon": -77.01953933333333, "lat": 38.92314833333333, "fusion_lon": 0.0, "name": "76d7ae44d1d051a018a5c9d8d87e645f", "bike_id": "76d7ae44d1d051a018a5c9d8d87e645f", "is_reserved": 0, "fusion_lat": 0.0, "is_disabled": 0}, {"rental_uris": {"ios": "https://dc.lft.to/lastmile_qr_scan", "android": "https://dc.lft.to/lastmile_qr_scan"}, "type": "electric_scooter", "lon": -76.98488066666667, "lat": 38.90057683333333, "fusion_lon": 0.0, "name": "57b7ce9b2c5113464486c65e9765f215", "bike_id": "57b7ce9b2c5113464486c65e9765f215", "is_reserved": 0, "fusion_lat": 0.0, "is_disabled": 0}, {"rental_uris": {"ios": "https://dc.lft.to/lastmile_qr_scan", "android": "https://dc.lft.to/lastmile_qr_scan"}, "type": "electric_scooter", "lon": -77.04308066666667, "lat": 38.92387383333333, "fusion_lon": 0.0, "name": "6421efbf6171cbfd7d34cd19f2c7f9ac", "bike_id": "6421efbf6171cbfd7d34cd19f2c7f9ac", "is_reserved": 0, "fusion_lat": 0.0, "is_disabled": 0}, {"rental_uris": {"ios": "https://dc.lft.to/lastmile_qr_scan", "android": "https://dc.lft.to/lastmile_qr_scan"}, "type": "electric_scooter", "lon": -76.93925816666666, "lat": 38.89329266666667, "fusion_lon": 0.0, "name": "0f355f5171989af3f2cc093bd5a9b9c9", "bike_id": "0f355f5171989af3f2cc093bd5a9b9c9", "is_reserved": 0, "fusion_lat": 0.0, "is_disabled": 0}, {"rental_uris": {"ios": "https://dc.lft.to/lastmile_qr_scan", "android": "https://dc.lft.to/lastmile_qr_scan"}, "type": "electric_scooter", "lon": -77.00122166666667, "lat": 38.90174966666667, "fusion_lon": 0.0, "name": "43953662d0e1320fe151a6540716639b", "bike_id": "43953662d0e1320fe151a6540716639b", "is_reserved": 0, "fusion_lat": 0.0, "is_disabled": 0}, {"rental_uris": {"ios": "https://dc.lft.to/lastmile_qr_scan", "android": "https://dc.lft.to/lastmile_qr_scan"}, "type": "electric_scooter", "lon": -77.01384383333334, "lat": 38.8974095, "fusion_lon": 0.0, "name": "23a70547655733de10d039854bd5781e", "bike_id": "23a70547655733de10d039854bd5781e", "is_reserved": 0, "fusion_lat": 0.0, "is_disabled": 0}, {"rental_uris": {"ios": "https://dc.lft.to/lastmile_qr_scan", "android": "https://dc.lft.to/lastmile_qr_scan"}, "type": "electric_scooter", "lon": -77.0269635, "lat": 38.89768983333333, "fusion_lon": 0.0, "name": "137b499c2977d484e64729bbdf878e41", "bike_id": "137b499c2977d484e64729bbdf878e41", "is_reserved": 0, "fusion_lat": 0.0, "is_disabled": 0}, {"rental_uris": {"ios": "https://dc.lft.to/lastmile_qr_scan", "android": "https://dc.lft.to/lastmile_qr_scan"}, "type": "electric_scooter", "lon": -76.98468416666667, "lat": 38.90929533333333, "fusion_lon": 0.0, "name": "72fa9bd25df5b337262c715d4f7792eb", "bike_id": "72fa9bd25df5b337262c715d4f7792eb", "is_reserved": 0, "fusion_lat": 0.0, "is_disabled": 0}, {"rental_uris": {"ios": "https://dc.lft.to/lastmile_qr_scan", "android": "https://dc.lft.to/lastmile_qr_scan"}, "type": "electric_scooter", "lon": -77.04007383333334, "lat": 38.896331333333336, "fusion_lon": 0.0, "name": "48e1368bf60305f6d5cd4ef824521e9e", "bike_id": "48e1368bf60305f6d5cd4ef824521e9e", "is_reserved": 0, "fusion_lat": 0.0, "is_disabled": 0}, {"rental_uris": {"ios": "https://dc.lft.to/lastmile_qr_scan", "android": "https://dc.lft.to/lastmile_qr_scan"}, "type": "electric_scooter", "lon": -77.03809, "lat": 38.90121033333333, "fusion_lon": 0.0, "name": "fdb9e903bdf4298cba26b1d26a6f5626", "bike_id": "fdb9e903bdf4298cba26b1d26a6f5626", "is_reserved": 0, "fusion_lat": 0.0, "is_disabled": 0}, {"rental_uris": {"ios": "https://dc.lft.to/lastmile_qr_scan", "android": "https://dc.lft.to/lastmile_qr_scan"}, "type": "electric_scooter", "lon": -77.056806, "lat": 38.923332, "fusion_lon": 0.0, "name": "042087d473210f9406d0ac9378061d6c", "bike_id": "042087d473210f9406d0ac9378061d6c", "is_reserved": 0, "fusion_lat": 0.0, "is_disabled": 0},