{"data": {"bikes": [{"is_disabled": 0, "fusion_lon": 0.0, "fusion_lat": 0.0, "lat": 38.94786883333333, "type": "electric_scooter", "lon": -77.09278966666666, "bike_id": "c236530c9d45ba9b395f92c4ab148b75", "rental_uris": {"android": "https://dc.lft.to/lastmile_qr_scan", "ios": "https://dc.lft.to/lastmile_qr_scan"}, "name": "c236530c9d45ba9b395f92c4ab148b75", "is_reserved": 0}, {"is_disabled": 0, "fusion_lon": 0.0, "fusion_lat": 0.0, "lat": 38.905406666666664, "type": "electric_scooter", "lon": -77.02982733333333, "bike_id": "a36c6e0a26b2ebdbbd17e2103cbf7576", "rental_uris": {"android": "https://dc.lft.to/lastmile_qr_scan", "ios": "https://dc.lft.to/lastmile_qr_scan"}, "name": "a36c6e0a26b2ebdbbd17e2103cbf7576", "is_reserved": 0}, {"is_disabled": 0, "fusion_lon": 0.0, "fusion_lat": 0.0, "lat": 38.86580566666667, "type": "electric_scooter", "lon": -76.9904935, "bike_id": "12079cf8d7c874fc1e6f85b6b3420afe", "rental_uris": {"android": "https://dc.lft.to/lastmile_qr_scan", "ios": "https://dc.lft.to/lastmile_qr_scan"}, "name": "12079cf8d7c874fc1e6f85b6b3420afe", "is_reserved": 0}, {"is_disabled": 0, "fusion_lon": 0.0, "fusion_lat": 0.0, "lat": 38.91878416666667, "type": "electric_scooter", "lon": -77.04728166666666, "bike_id": "47244af35e959da31dd1b432b176665c", "rental_uris": {"android": "https://dc.lft.to/lastmile_qr_scan", "ios": "https://dc.lft.to/lastmile_qr_scan"}, "name": "47244af35e959da31dd1b432b176665c", "is_reserved": 0}, {"is_disabled": 0, "fusion_lon": 0.0, "fusion_lat": 0.0, "lat": 38.89954516666667, "type": "electric_scooter", "lon": -77.046191, "bike_id": "f93f5e4910450357a53a98c25c0d796e", "rental_uris": {"android": "https://dc.lft.to/lastmile_qr_scan", "ios": "https://dc.lft.to/lastmile_qr_scan"}, "name": "f93f5e4910450357a53a98c25c0d796e", "is_reserved": 0}, {"is_disabled": 0, "fusion_lon": 0.0, "fusion_lat": 0.0, "lat": 38.9156585, "type": "electric_scooter", "lon": -77.03273616666667, "bike_id": "3e85c788415c80ab403c6ff4ab008361", "rental_uris": {"android": "https://dc.lft.to/lastmile_qr_scan", "ios": "https://dc.lft.to/lastmile_qr_scan"}, "name": "3e85c788415c80ab403c6ff4ab008361", "is_reserved": 0}, {"is_disabled": 0, "fusion_lon": 0.0, "fusion_lat": 0.0, "lat": 38.896215833333336, "type": "electric_scooter", "lon": -76.9963345, "bike_id": "048ed6304650fc86746f6c8723fcd7b1", "rental_uris": {"android": "https://dc.lft.to/lastmile_qr_scan", "ios": "https://dc.lft.to/lastmile_qr_scan"}, "name": "048ed6304650fc86746f6c8723fcd7b1", "is_reserved": 0}, {"is_disabled": 0, "fusion_lon": 0.0, "fusion_lat": 0.0, "lat": 38.91872566666667, "type": "electric_bike", "lon": -76.96122266666667, "bike_id": "7d16ec5eee5eaf8e4402b0a252a3fcbc", "rental_uris": {"android": "https://dc.lft.to/lastmile_qr_scan", "ios": "https://dc.lft.to/lastmile_qr_scan"}, "name": "7d16ec5eee5eaf8e4402b0a252a3fcbc", "is_reserved": 0}, {"is_disabled": 0, "fusion_lon": 0.0, "fusion_lat": 0.0, "lat": 38.912611, "type": "electric_scooter", "lon": -77.032692, "bike_id": "8710647352fc3629c8f19d68914118fb", "rental_uris": {"android": "https://dc.lft.to/lastmile_qr_scan", "ios": "https://dc.lft.to/lastmile_qr_scan"}, "name": "8710647352fc3629c8f19d68914118fb", "is_reserved": 0}, {"is_disabled": 0, "fusion_lon": 0.0, "fusion_lat": 0.0, "lat": 38.93180516666666, "type": "electric_scooter", "lon": -77.02828666666667, "bike_id": "d3a6243dfbb54e95a773e1b612ab9cf2", "rental_uris": {"android": "https://dc.lft.to/lastmile_qr_scan", "ios": "https://dc.lft.to/lastmile_qr_scan"}, "name": "d3a6243dfbb54e95a773e1b612ab9cf2", "is_reserved": 0}, {"is_disabled": 0, "fusion_lon": 0.0, "fusion_lat": 0.0, "lat": 38.901772666666666, "type": "electric_scooter", "lon": -76.92822833333334, "bike_id": "52551015f991ca3506539df14dcd1c1a", "rental_uris": {"android": "https://dc.lft.to/lastmile_qr_scan", "ios": "https://dc.lft.to/lastmile_qr_scan"}, "name": "52551015f991ca3506539df14dcd1c1a", "is_reserved": 0}, {"is_disabled": 0, "fusion_lon": 0.0, "fusion_lat": 0.0, "lat": 38.91706716666667, "type": "electric_scooter", "lon": -77.03229816666666, "bike_id": "debaaeedac32833785b1b4eda72f8e3c", "rental_uris": {"android": "https://dc.lft.to/lastmile_qr_scan", "ios": "https://dc.lft.to/lastmile_qr_scan"}, "name": "debaaeedac32833785b1b4eda72f8e3c", "is_reserved": 0}, {"is_disabled": 0, "fusion_lon": 0.0, "fusion_lat": 0.0, "lat": 38.910927666666666, "type": "electric_scooter", "lon": -77.038488, "bike_id": "b8aa756efd55aba0c019ca2092f37776", "rental_uris": {"android": "https://dc.lft.to/lastmile_qr_scan", "ios": "https://dc.lft.to/lastmile_qr_scan"}, "name": "b8aa756efd55aba0c019ca2092f37776", "is_reserved": 0}, {"is_disabled": 0, "fusion_lon": 0.0, "fusion_lat": 0.0, "lat": 38.9149665, "type": "electric_scooter", "lon": -76.98372233333333, "bike_id": "58b124ca1b3e7f75147e939e5fc1b802", "rental_uris": {"android": "https://dc.lft.to/lastmile_qr_scan", "ios": "https://dc.lft.to/lastmile_qr_scan"}, "name": "58b124ca1b3e7f75147e939e5fc1b802", "is_reserved": 0}, {"is_disabled": 0, "fusion_lon": 0.0, "fusion_lat": 0.0, "lat": 38.9056805, "type": "electric_scooter", "lon": -77.02477316666666, "bike_id": "04429d638dc9eae4fd26d58963f8dbbb", "rental_uris": {"android": "https://dc.lft.to/lastmile_qr_scan", "ios": "https://dc.lft.to/lastmile_qr_scan"}, "name": "04429d638dc9eae4fd26d58963f8dbbb", "is_reserved": 0}, {"is_disabled": 0, "fusion_lon": 0.0, "fusion_lat": 0.0, "lat": 38.911950833333336, "type": "electric_scooter", "lon": -77.038595, "bike_id": "7c6d594372d8c1c8db5476beac3da954", "rental_uris": {"android": "https://dc.lft.to/lastmile_qr_scan", "ios": "https://dc.lft.to/lastmile_qr_scan"}, "name": "7c6d594372d8c1c8db5476beac3da954", "is_reserved": 0}, {"is_disabled": 0, "fusion_lon": 0.0, "fusion_lat": 0.0, "lat": 38.87807266666667, "type": "electric_scooter", "lon": -77.01426583333334, "bike_id": "506b21bf48328b7d5272e3c2ef6a4825", "rental_uris": {"android": "https://dc.lft.to/lastmile_qr_scan", "ios": "https://dc.lft.to/lastmile_qr_scan"}, "name": "506b21bf48328b7d5272e3c2ef6a4825", "is_reserved": 0}, {"is_disabled": 0, "fusion_lon": 0.0, "fusion_lat": 0.0, "lat": 38.90077933333333, "type": "electric_bike", "lon": -77.0122125, "bike_id": "5fe5fb6e0ae2aa784793aa104a514534", "rental_uris": {"android": "https://dc.lft.to/lastmile_qr_scan", "ios": "https://dc.lft.to/lastmile_qr_scan"}, "name": "5fe5fb6e0ae2aa784793aa104a514534", "is_reserved": 0}, {"is_disabled": 0, "fusion_lon": 0.0, "fusion_lat": 0.0, "lat": 38.92954966666667, "type": "electric_scooter", "lon": -77.02340416666667, "bike_id": "207381673826eed7463f028e575f9b36", "rental_uris": {"android": "https://dc.lft.to/lastmile_qr_scan", "ios": "https://dc.lft.to/lastmile_qr_scan"}, "name": "207381673826eed7463f028e575f9b36", "is_reserved": 0}, {"is_disabled": 0, "fusion_lon": 0.0, "fusion_lat": 0.0, "lat": 38.91747933333333, "type": "electric_scooter", "lon": -77.04154483333333, "bike_id": "9c15c70014325bcf68067c496bd160d4", "rental_uris": {"android": "https://dc.lft.to/lastmile_qr_scan", "ios": "https://dc.lft.to/lastmile_qr_scan"}, "name": "9c15c70014325bcf68067c496bd160d4", "is_reserved": 0}, {"is_disabled": 0, "fusion_lon": 0.0, "fusion_lat": 0.0, "lat": 38.924319, "type": "electric_scooter", "lon": -77.05171033333333, "bike_id": "9d289d3dd8d2f30ada00f97e8804a2e8", "rental_uris": {"android": "https://dc.lft.to/lastmile_qr_scan", "ios": "https://dc.lft.to/lastmile_qr_scan"}, "name": "9d289d3dd8d2f30ada00f97e8804a2e8", "is_reserved": 0}, {"is_disabled": 0, "fusion_lon": 0.0, "fusion_lat": 0.0, "lat": 38.9148245, "type": "electric_scooter", "lon": -77.06635083333333, "bike_id": "5a08a82cc14b14d45b72b288e8c70f4e", "rental_uris": {"android": "https://dc.lft.to/lastmile_qr_scan", "ios": "https://dc.lft.to/lastmile_qr_scan"}, "name": "5a08a82cc14b14d45b72b288e8c70f4e", "is_reserved": 0}, {"is_disabled": 0, "fusion_lon": 0.0, "fusion_lat": 0.0, "lat": 38.917110666666666, "type": "electric_scooter", "lon": -77.04303433333334, "bike_id": "7bfa8f82eb19f676a9707b3b082b32f8", "rental_uris": {"android": "https://dc.lft.to/lastmile_qr_scan", "ios": "https://dc.lft.to/lastmile_qr_scan"}, "name": "7bfa8f82eb19f676a9707b3b082b32f8", "is_reserved": 0}, {"is_disabled": 0, "fusion_lon": 0.0, "fusion_lat": 0.0, "lat": 38.91858083333333, "type": "electric_bike", "lon": -76.9609065, "bike_id": "70942dfe96b0b6c085cb5a89c4de2c41", "rental_uris": {"android": "https://dc.lft.to/lastmile_qr_scan", "ios": "https://dc.lft.to/lastmile_qr_scan"}, "name": "70942dfe96b0b6c085cb5a89c4de2c41", "is_reserved": 0}, {"is_disabled": 0, "fusion_lon": 0.0, "fusion_lat": 0.0, "lat": 38.83939183333333, "type": "electric_bike", "lon": -77.07900666666667, "bike_id": "3accf69e0fe628b6507d3280beb21f8c", "rental_uris": {"android": "https://dc.lft.to/lastmile_qr_scan", "ios": "https://dc.lft.to/lastmile_qr_scan"}, "name": "3accf69e0fe628b6507d3280beb21f8c", "is_reserved": 0}, {"is_disabled": 0, "fusion_lon": 0.0, "fusion_lat": 0.0, "lat": 38.928419166666664, "type": "electric_scooter", "lon": -77.05624583333334, "bike_id": "1222d9e6bec553fa8626467424ea0b61", "rental_uris": {"android": "https://dc.lft.to/lastmile_qr_scan", "ios": "https://dc.lft.to/lastmile_qr_scan"}, "name": "1222d9e6bec553fa8626467424ea0b61", "is_reserved": 0}, {"is_disabled": 0, "fusion_lon": 0.0, "fusion_lat": 0.0, "lat": 38.93276, "type": "electric_scooter", "lon": -76.97422083333333, "bike_id": "a44ee619a3ba1fce988873a5658f5777", "rental_uris": {"android": "https://dc.lft.to/lastmile_qr_scan", "ios": "https://dc.lft.to/lastmile_qr_scan"}, "name": "a44ee619a3ba1fce988873a5658f5777", "is_reserved": 0}, {"is_disabled": 0, "fusion_lon": 0.0, "fusion_lat": 0.0, "lat": 38.905459666666665, "type": "electric_scooter", "lon": -77.04992533333333, "bike_id": "b143ce9d24ca73ef0c00e9cd89459fed", "rental_uris": {"android": "https://dc.lft.to/lastmile_qr_scan", "ios": "https://dc.lft.to/lastmile_qr_scan"}, "name": "b143ce9d24ca73ef0c00e9cd89459fed", "is_reserved": 0}, {"is_disabled": 0, "fusion_lon": 0.0, "fusion_lat": 0.0, "lat": 38.93201066666666, "type": "electric_scooter", "lon": -77.02350066666666, "bike_id": "258e520ce23aae882d288b3a5fb43b3f", "rental_uris": {"android": "https://dc.lft.to/lastmile_qr_scan", "ios": "https://dc.lft.to/lastmile_qr_scan"}, "name": "258e520ce23aae882d288b3a5fb43b3f", "is_reserved": 0}, {"is_disabled": 0, "fusion_lon": 0.0, "fusion_lat": 0.0, "lat": 38.908284333333334, "type": "electric_bike", "lon": -76.99693616666667, "bike_id": "0cf444207a1947ff07d583e381f64e85", "rental_uris": {"android": "https://dc.lft.to/lastmile_qr_scan", "ios": "https://dc.lft.to/lastmile_qr_scan"}, "name": "0cf444207a1947ff07d583e381f64e85", "is_reserved": 0}, {"is_disabled": 0, "fusion_lon": 0.0, "fusion_lat": 0.0, "lat": 38.8877095, "type": "electric_scooter", "lon": -77.01547, "bike_id": "f9073049dbf18ff795eced0d850eaa65", "rental_uris": {"android": "https://dc.lft.to/lastmile_qr_scan", "ios": "https://dc.lft.to/lastmile_qr_scan"}, "name": "f9073049dbf18ff795eced0d850eaa65", "is_reserved": 0}, {"is_disabled": 0, "fusion_lon": 0.0, "fusion_lat": 0.0, "lat": 38.86973733333333, "type": "electric_scooter", "lon": -77.012272, "bike_id": "0893ecfd92072d26c350752136d02621", "rental_uris": {"android": "https://dc.lft.to/lastmile_qr_scan", "ios": "https://dc.lft.to/lastmile_qr_scan"}, "name": "0893ecfd92072d26c350752136d02621", "is_reserved": 0}, {"is_disabled": 0, "fusion_lon": 0.0, "fusion_lat": 0.0, "lat": 38.926352666666666, "type": "electric_scooter", "lon": -77.038636, "bike_id": "f55aba94de663bc9ace81e137d43511a", "rental_uris": {"android": "https://dc.lft.to/lastmile_qr_scan", "ios": "https://dc.lft.to/lastmile_qr_scan"}, "name": "f55aba94de663bc9ace81e137d43511a", "is_reserved": 0}, {"is_disabled": 0, "fusion_lon": 0.0, "fusion_lat": 0.0, "lat": 38.924274833333335, "type": "electric_scooter", "lon": -77.04479566666667, "bike_id": "70d39fe337a004c8fe71f10f8a2f3bef", "rental_uris": {"android": "https://dc.lft.to/lastmile_qr_scan", "ios": "https://dc.lft.to/lastmile_qr_scan"}, "name": "70d39fe337a004c8fe71f10f8a2f3bef", "is_reserved": 0}, {"is_disabled": 0, "fusion_lon": 0.0, "fusion_lat": 0.0, "lat": 38.895790166666664, "type": "electric_scooter", "lon": -77.02310883333334, "bike_id": "9f704ffbb328a48a27a55df7c889eb7e", "rental_uris": {"android": "https://dc.lft.to/lastmile_qr_scan", "ios": "https://dc.lft.to/lastmile_qr_scan"}, "name": "9f704ffbb328a48a27a55df7c889eb7e", "is_reserved": 0}, {"is_disabled": 0, "fusion_lon": 0.0, "fusion_lat": 0.0, "lat": 38.894968666666664, "type": "electric_scooter", "lon": -77.02291466666667, "bike_id": "369523bc40670f374efbcabad706a5da", "rental_uris": {"android": "https://dc.lft.to/lastmile_qr_scan", "ios": "https://dc.lft.to/lastmile_qr_scan"}, "name": "369523bc40670f374efbcabad706a5da", "is_reserved": 0}, {"is_disabled": 0, "fusion_lon": 0.0, "fusion_lat": 0.0, "lat": 38.91172616666667, "type": "electric_scooter", "lon": -77.0270075, "bike_id": "d38387b94b286c6c6600924e4512acc7", "rental_uris": {"android": "https://dc.lft.to/lastmile_qr_scan", "ios": "https://dc.lft.to/lastmile_qr_scan"}, "name": "d38387b94b286c6c6600924e4512acc7", "is_reserved": 0}, {"is_disabled": 0, "fusion_lon": 0.0, "fusion_lat": 0.0, "lat": 38.93551266666667, "type": "electric_scooter", "lon": -77.058129, "bike_id": "692cee15ddf380da92c20b0d80563b06", "rental_uris": {"android": "https://dc.lft.to/lastmile_qr_scan", "ios": "https://dc.lft.to/lastmile_qr_scan"}, "name": "692cee15ddf380da92c20b0d80563b06", "is_reserved": 0}, {"is_disabled": 0, "fusion_lon": 0.0, "fusion_lat": 0.0, "lat": 38.944927666666665, "type": "electric_bike", "lon": -76.98664916666667, "bike_id": "d142f4a4d5a5d804ff065657038bbaa8", "rental_uris": {"android": "https://dc.lft.to/lastmile_qr_scan", "ios": "https://dc.lft.to/lastmile_qr_scan"}, "name": "d142f4a4d5a5d804ff065657038bbaa8", "is_reserved": 0}, {"is_disabled": 0, "fusion_lon": 0.0, "fusion_lat": 0.0, "lat": 39.03879966666667, "type": "electric_bike", "lon": -77.10912733333333, "bike_id": "819a85581189656a123e5a7598849b98", "rental_uris": {"android": "https://dc.lft.to/lastmile_qr_scan", "ios": "https://dc.lft.to/lastmile_qr_scan"}, "name": "819a85581189656a123e5a7598849b98", "is_reserved": 0}, {"is_disabled": 0, "fusion_lon": 0.0, "fusion_lat": 0.0, "lat": 38.869463, "type": "electric_scooter", "lon": -77.01374816666667, "bike_id": "a0e0b48a66f342c11b3b7116d346ea8d", "rental_uris": {"android": "https://dc.lft.to/lastmile_qr_scan", "ios": "https://dc.lft.to/lastmile_qr_scan"}, "name": "a0e0b48a66f342c11b3b7116d346ea8d", "is_reserved": 0}, {"is_disabled": 0, "fusion_lon": 0.0, "fusion_lat": 0.0, "lat": 38.92216783333333, "type": "electric_scooter", "lon": -77.04334983333334, "bike_id": "6ceed7c1c93efa203a158de0aaf8a9c2", "rental_uris": {"android": "https://dc.lft.to/lastmile_qr_scan", "ios": "https://dc.lft.to/lastmile_qr_scan"}, "name": "6ceed7c1c93efa203a158de0aaf8a9c2", "is_reserved": 0}, {"is_disabled": 0, "fusion_lon": 0.0, "fusion_lat": 0.0, "lat": 38.892116, "type": "electric_bike", "lon": -76.98555883333333, "bike_id": "482a8234aaf405ae4b64c0819c017eee", "rental_uris": {"android": "https://dc.lft.to/lastmile_qr_scan", "ios": "https://dc.lft.to/lastmile_qr_scan"}, "name": "482a8234aaf405ae4b64c0819c017eee", "is_reserved": 0}, {"is_disabled": 0, "fusion_lon": 0.0, "fusion_lat": 0.0, "lat": 38.88576033333333, "type": "electric_scooter", "lon": -76.91908783333334, "bike_id": "daac99d5cb2303ebe282ed5d3fe26a46", "rental_uris": {"android": "https://dc.lft.to/lastmile_qr_scan", "ios": "https://dc.lft.to/lastmile_qr_scan"}, "name": "daac99d5cb2303ebe282ed5d3fe26a46", "is_reserved": 0}, {"is_disabled": 0, "fusion_lon": 0.0, "fusion_lat": 0.0, "lat": 38.898256333333336, "type": "electric_scooter", "lon": -77.029461, "bike_id": "1771ec48ec3a976505e2c64a9ba23a98", "rental_uris": {"android": "https://dc.lft.to/lastmile_qr_scan", "ios": "https://dc.lft.to/lastmile_qr_scan"}, "name": "1771ec48ec3a976505e2c64a9ba23a98", "is_reserved": 0}, {"is_disabled": 0, "fusion_lon": 0.0, "fusion_lat": 0.0, "lat": 38.93670266666667, "type": "electric_bike", "lon": -76.95206233333333, "bike_id": "5681ea16061817b5195c8244846902d2", "rental_uris": {"android": "https://dc.lft.to/lastmile_qr_scan", "ios": "https://dc.lft.to/lastmile_qr_scan"}, "name": "5681ea16061817b5195c8244846902d2", "is_reserved": 0}, {"is_disabled": 0, "fusion_lon": 0.0, "fusion_lat": 0.0, "lat": 38.95604766666666, "type": "electric_scooter", "lon": -77.02790533333334, "bike_id": "d4e20705aa75f472072a1a6eb59194dc", "rental_uris": {"android": "https://dc.lft.to/lastmile_qr_scan", "ios": "https://dc.lft.to/lastmile_qr_scan"}, "name": "d4e20705aa75f472072a1a6eb59194dc", "is_reserved": 0}, {"is_disabled": 0, "fusion_lon": 0.0, "fusion_lat": 0.0, "lat": 38.938618166666664, "type": "electric_scooter", "lon": -77.026499, "bike_id": "39890f668a52d7110f2925debdcc47cf", "rental_uris": {"android": "https://dc.lft.to/lastmile_qr_scan", "ios": "https://dc.lft.to/lastmile_qr_scan"}, "name": "39890f668a52d7110f2925debdcc47cf", "is_reserved": 0}, {"is_disabled": 0, "fusion_lon": 0.0, "fusion_lat": 0.0, "lat": 38.95324433333333, "type": "electric_scooter", "lon": -77.06852466666666, "bike_id": "aa193085b3433367acbfb1d7cf0e3b51", "rental_uris": {"android": "https://dc.lft.to/lastmile_qr_scan", "ios": "https://dc.lft.to/lastmile_qr_scan"}, "name": "aa193085b3433367acbfb1d7cf0e3b51", "is_reserved": 0}, {"is_disabled": 0, "fusion_lon": 0.0, "fusion_lat": 0.0, "lat": 38.828733, "type": "electric_bike", "lon": -77.11219633333333, "bike_id": "49203689e6e078679867a04dac8d8866", "rental_uris": {"android": "https://dc.lft.to/lastmile_qr_scan", "ios": "https://dc.lft.to/lastmile_qr_scan"}, "name": "49203689e6e078679867a04dac8d8866", "is_reserved": 0}, {"is_disabled": 0, "fusion_lon": 0.0, "fusion_lat": 0.0, "lat": 38.92554333333333, "type": "electric_scooter", "lon": -77.05297566666667, "bike_id": "b3bcccf36fc57238eb22d8736c0bfb87", "rental_uris": {"android": "https://dc.lft.to/lastmile_qr_scan", "ios": "https://dc.lft.to/lastmile_qr_scan"}, "name": "b3bcccf36fc57238eb22d8736c0bfb87", "is_reserved": 0}, {"is_disabled": 0, "fusion_lon": 0.0, "fusion_lat": 0.0, "lat": 38.9169745, "type": "electric_scooter", "lon": -77.02836783333333, "bike_id": "e2356f1fcd608b63f67655726607d8dd", "rental_uris": {"android": "https://dc.lft.to/lastmile_qr_scan", "ios": "https://dc.lft.to/lastmile_qr_scan"}, "name": "e2356f1fcd608b63f67655726607d8dd", "is_reserved": 0}, {"is_disabled": 0, "fusion_lon": 0.0, "fusion_lat": 0.0, "lat": 38.915524166666664, "type": "electric_scooter", "lon": -77.04629816666667, "bike_id": "62b91227f5c1357b24ce6cfdfac34a7a", "rental_uris": {"android": "https://dc.lft.to/lastmile_qr_scan", "ios": "https://dc.lft.to/lastmile_qr_scan"}, "name": "62b91227f5c1357b24ce6cfdfac34a7a", "is_reserved": 0}, {"is_disabled": 0, "fusion_lon": 0.0, "fusion_lat": 0.0, "lat": 38.9156445, "type": "electric_scooter", "lon": -77.03233016666667, "bike_id": "f8255cc1e6b5e311b8c844f38a0b51ed", "rental_uris": {"android": "https://dc.lft.to/lastmile_qr_scan", "ios": "https://dc.lft.to/lastmile_qr_scan"}, "name": "f8255cc1e6b5e311b8c844f38a0b51ed", "is_reserved": 0}, {"is_disabled": 0, "fusion_lon": 0.0, "fusion_lat": 0.0, "lat": 38.90243683333333, "type": "electric_scooter", "lon": -77.061111, "bike_id": "1956ddd86a55a7e4688e413115473442", "rental_uris": {"android": "https://dc.lft.to/lastmile_qr_scan", "ios": "https://dc.lft.to/lastmile_qr_scan"}, "name": "1956ddd86a55a7e4688e413115473442", "is_reserved": 0}, {"is_disabled": 0, "fusion_lon": 0.0, "fusion_lat": 0.0, "lat": 38.92143683333333, "type": "electric_scooter", "lon": -77.02179233333334, "bike_id": "d389576d7f40618ff0e1cf9daec52842", "rental_uris": {"android": "https://dc.lft.to/lastmile_qr_scan", "ios": "https://dc.lft.to/lastmile_qr_scan"}, "name": "d389576d7f40618ff0e1cf9daec52842", "is_reserved": 0}, {"is_disabled": 0, "fusion_lon": 0.0, "fusion_lat": 0.0, "lat": 39.000169, "type": "electric_bike", "lon": -76.8728625, "bike_id": "c81a7292f6a0b9167f160f6f55f8e7ec", "rental_uris": {"android": "https://dc.lft.to/lastmile_qr_scan", "ios": "https://dc.lft.to/lastmile_qr_scan"}, "name": "c81a7292f6a0b9167f160f6f55f8e7ec", "is_reserved": 0}, {"is_disabled": 0, "fusion_lon": 0.0, "fusion_lat": 0.0, "lat": 38.937089666666665, "type": "electric_scooter", "lon": -77.02428466666667, "bike_id": "97103298287ea84516ee6bcee56968b8", "rental_uris": {"android": "https://dc.lft.to/lastmile_qr_scan", "ios": "https://dc.lft.to/lastmile_qr_scan"}, "name": "97103298287ea84516ee6bcee56968b8", "is_reserved": 0}, {"is_disabled": 0, "fusion_lon": 0.0, "fusion_lat": 0.0, "lat": 38.92228866666667, "type": "electric_scooter", "lon": -76.97534316666666, "bike_id": "6c3fbd96bde0d7c5f2512dbedaa5d50f", "rental_uris": {"android": "https://dc.lft.to/lastmile_qr_scan", "ios": "https://dc.lft.to/lastmile_qr_scan"}, "name": "6c3fbd96bde0d7c5f2512dbedaa5d50f", "is_reserved": 0}, {"is_disabled": 0, "fusion_lon": 0.0, "fusion_lat": 0.0, "lat": 38.897270166666665, "type": "electric_scooter", "lon": -77.0232525, "bike_id": "d211f6be5d793ec1f762861080d87ab9", "rental_uris": {"android": "https://dc.lft.to/lastmile_qr_scan", "ios": "https://dc.lft.to/lastmile_qr_scan"}, "name": "d211f6be5d793ec1f762861080d87ab9", "is_reserved": 0}, {"is_disabled": 0, "fusion_lon": 0.0, "fusion_lat": 0.0, "lat": 38.90968866666667, "type": "electric_scooter", "lon": -77.03730616666667, "bike_id": "e8fb67c92b186d0767fa7d63b164321e", "rental_uris": {"android": "https://dc.lft.to/lastmile_qr_scan", "ios": "https://dc.lft.to/lastmile_qr_scan"}, "name": "e8fb67c92b186d0767fa7d63b164321e", "is_reserved": 0}, {"is_disabled": 0, "fusion_lon": 0.0, "fusion_lat": 0.0, "lat": 38.884517833333334, "type": "electric_scooter", "lon": -76.95215783333333, "bike_id": "d5ff96ad277b9cf976660714db4402b2", "rental_uris": {"android": "https://dc.lft.to/lastmile_qr_scan", "ios": "https://dc.lft.to/lastmile_qr_scan"}, "name": "d5ff96ad277b9cf976660714db4402b2", "is_reserved": 0}, {"is_disabled": 0, "fusion_lon": 0.0, "fusion_lat": 0.0, "lat": 38.9107735, "type": "electric_scooter", "lon": -77.01508933333334, "bike_id": "4259ed276a78dd6a7cb3167e57b8abec", "rental_uris": {"android": "https://dc.lft.to/lastmile_qr_scan", "ios": "https://dc.lft.to/lastmile_qr_scan"}, "name": "4259ed276a78dd6a7cb3167e57b8abec", "is_reserved": 0}, {"is_disabled": 0, "fusion_lon": 0.0, "fusion_lat": 0.0, "lat": 38.926703833333335, "type": "electric_scooter", "lon": -77.1031545, "bike_id": "55f4d0a0f8b4d62ff695f8b88575b4a4", "rental_uris": {"android": "https://dc.lft.to/lastmile_qr_scan", "ios": "https://dc.lft.to/lastmile_qr_scan"}, "name": "55f4d0a0f8b4d62ff695f8b88575b4a4", "is_reserved": 0}, {"is_disabled": 0, "fusion_lon": 0.0, "fusion_lat": 0.0, "lat": 38.91313316666667, "type": "electric_scooter", "lon": -76.98477716666666, "bike_id": "abad6d2caf76ff6e3a52fc619cd5a0e6", "rental_uris": {"android": "https://dc.lft.to/lastmile_qr_scan", "ios": "https://dc.lft.to/lastmile_qr_scan"}, "name": "abad6d2caf76ff6e3a52fc619cd5a0e6", "is_reserved": 0}, {"is_disabled": 0, "fusion_lon": 0.0, "fusion_lat": 0.0, "lat": 38.918207833333334, "type": "electric_scooter", "lon": -77.03449516666667, "bike_id": "c8e19b046c363bd78cc69ae701bb41ae", "rental_uris": {"android": "https://dc.lft.to/lastmile_qr_scan", "ios": "https://dc.lft.to/lastmile_qr_scan"}, "name": "c8e19b046c363bd78cc69ae701bb41ae", "is_reserved": 0}, {"is_disabled": 0, "fusion_lon": 0.0, "fusion_lat": 0.0, "lat": 38.9196135, "type": "electric_scooter", "lon": -77.02712166666667, "bike_id": "5cd4308160ce33809e52f4738e513009", "rental_uris": {"android": "https://dc.lft.to/lastmile_qr_scan", "ios": "https://dc.lft.to/lastmile_qr_scan"}, "name": "5cd4308160ce33809e52f4738e513009", "is_reserved": 0}, {"is_disabled": 0, "fusion_lon": 0.0, "fusion_lat": 0.0, "lat": 38.93699566666667, "type": "electric_bike", "lon": -77.029822, "bike_id": "dd30b1984cf97e5c59ce3ddf8219c711", "rental_uris": {"android": "https://dc.lft.to/lastmile_qr_scan", "ios": "https://dc.lft.to/lastmile_qr_scan"}, "name": "dd30b1984cf97e5c59ce3ddf8219c711", "is_reserved": 0}, {"is_disabled": 0, "fusion_lon": 0.0, "fusion_lat": 0.0, "lat": 38.8680525, "type": "electric_scooter", "lon": -77.011722, "bike_id": "aca756fd9e67f230f8a79e3ac57c4075", "rental_uris": {"android": "https://dc.lft.to/lastmile_qr_scan", "ios": "https://dc.lft.to/lastmile_qr_scan"}, "name": "aca756fd9e67f230f8a79e3ac57c4075", "is_reserved": 0}, {"is_disabled": 0, "fusion_lon": 0.0, "fusion_lat": 0.0, "lat": 38.888519333333335, "type": "electric_bike", "lon": -76.977005, "bike_id": "6ad9d48df0b1b80fbc2b2cc4d41ac80f", "rental_uris": {"android": "https://dc.lft.to/lastmile_qr_scan", "ios": "https://dc.lft.to/lastmile_qr_scan"}, "name": "6ad9d48df0b1b80fbc2b2cc4d41ac80f", "is_reserved": 0}, {"is_disabled": 0, "fusion_lon": 0.0, "fusion_lat": 0.0, "lat": 39.05456683333333, "type": "electric_bike", "lon": -77.14325983333333, "bike_id": "a96f05a371a4621d18c6e0f9815201ce", "rental_uris": {"android": "https://dc.lft.to/lastmile_qr_scan", "ios": "https://dc.lft.to/lastmile_qr_scan"}, "name": "a96f05a371a4621d18c6e0f9815201ce", "is_reserved": 0}, {"is_disabled": 0, "fusion_lon": 0.0, "fusion_lat": 0.0, "lat": 38.7762195, "type": "electric_bike", "lon": -77.08347283333333, "bike_id": "260c97e19b9fd9df9b0d8de1a2a46dbd", "rental_uris": {"android": "https://dc.lft.to/lastmile_qr_scan", "ios": "https://dc.lft.to/lastmile_qr_scan"}, "name": "260c97e19b9fd9df9b0d8de1a2a46dbd", "is_reserved": 0}, {"is_disabled": 0, "fusion_lon": 0.0, "fusion_lat": 0.0, "lat": 38.908527, "type": "electric_scooter", "lon": -77.05506083333333, "bike_id": "757bc386b7718b30b1581a210d136a44", "rental_uris": {"android": "https://dc.lft.to/lastmile_qr_scan", "ios": "https://dc.lft.to/lastmile_qr_scan"}, "name": "757bc386b7718b30b1581a210d136a44", "is_reserved": 0}, {"is_disabled": 0, "fusion_lon": 0.0, "fusion_lat": 0.0, "lat": 38.90508833333333, "type": "electric_scooter", "lon": -76.98241133333333, "bike_id": "a7e2c97747a7b9018220b57ea32eb684", "rental_uris": {"android": "https://dc.lft.to/lastmile_qr_scan", "ios": "https://dc.lft.to/lastmile_qr_scan"}, "name": "a7e2c97747a7b9018220b57ea32eb684", "is_reserved": 0}, {"is_disabled": 0, "fusion_lon": 0.0, "fusion_lat": 0.0, "lat": 38.887453, "type": "electric_scooter", "lon": -77.01433483333334, "bike_id": "f54a209e2db19b1d1b57e6a8c6749026", "rental_uris": {"android": "https://dc.lft.to/lastmile_qr_scan", "ios": "https://dc.lft.to/lastmile_qr_scan"}, "name": "f54a209e2db19b1d1b57e6a8c6749026", "is_reserved": 0}, {"is_disabled": 0, "fusion_lon": 0.0, "fusion_lat": 0.0, "lat": 38.896091166666665, "type": "electric_scooter", "lon": -77.00932583333334, "bike_id": "6455378a411d9e5d5c839046146a3fc6", "rental_uris": {"android": "https://dc.lft.to/lastmile_qr_scan", "ios": "https://dc.lft.to/lastmile_qr_scan"}, "name": "6455378a411d9e5d5c839046146a3fc6", "is_reserved": 0}, {"is_disabled": 0, "fusion_lon": 0.0, "fusion_lat": 0.0, "lat": 38.893894333333336, "type": "electric_scooter", "lon": -76.94993466666666, "bike_id": "2323dabeffc3c7272ff61fcd2a2427f2", "rental_uris": {"android": "https://dc.lft.to/lastmile_qr_scan", "ios": "https://dc.lft.to/lastmile_qr_scan"}, "name": "2323dabeffc3c7272ff61fcd2a2427f2", "is_reserved": 0}, {"is_disabled": 0, "fusion_lon": 0.0, "fusion_lat": 0.0, "lat": 38.91755066666666, "type": "electric_scooter", "lon": -77.032108, "bike_id": "8c0a589d7d06a43789413a7fb78a3f94", "rental_uris": {"android": "https://dc.lft.to/lastmile_qr_scan", "ios": "https://dc.lft.to/lastmile_qr_scan"}, "name": "8c0a589d7d06a43789413a7fb78a3f94", "is_reserved": 0}, {"is_disabled": 0, "fusion_lon": 0.0, "fusion_lat": 0.0, "lat": 38.88953433333333, "type": "electric_scooter", "lon": -76.99143916666667, "bike_id": "820ac621ce2fd0170e2a7528f69a7b61", "rental_uris": {"android": "https://dc.lft.to/lastmile_qr_scan", "ios": "https://dc.lft.to/lastmile_qr_scan"}, "name": "820ac621ce2fd0170e2a7528f69a7b61", "is_reserved": 0}, {"is_disabled": 0, "fusion_lon": 0.0, "fusion_lat": 0.0, "lat": 38.895281, "type": "electric_scooter", "lon": -77.03350016666667, "bike_id": "d5ca2193fbd5a8b1fd93365389629007", "rental_uris": {"android": "https://dc.lft.to/lastmile_qr_scan", "ios": "https://dc.lft.to/lastmile_qr_scan"}, "name": "d5ca2193fbd5a8b1fd93365389629007", "is_reserved": 0}, {"is_disabled": 0, "fusion_lon": 0.0, "fusion_lat": 0.0, "lat": 38.92839083333333, "type": "electric_scooter", "lon": -77.05542883333334, "bike_id": "1a86fd413a226303cebaff10ff18ec47", "rental_uris": {"android": "https://dc.lft.to/lastmile_qr_scan", "ios": "https://dc.lft.to/lastmile_qr_scan"}, "name": "1a86fd413a226303cebaff10ff18ec47", "is_reserved": 0}, {"is_disabled": 0, "fusion_lon": 0.0, "fusion_lat": 0.0, "lat": 38.9103865, "type": "electric_scooter", "lon": -77.038011, "bike_id": "75a1e37b403a1a3a9569c775bd113871", "rental_uris": {"android": "https://dc.lft.to/lastmile_qr_scan", "ios": "https://dc.lft.to/lastmile_qr_scan"}, "name": "75a1e37b403a1a3a9569c775bd113871", "is_reserved": 0}, {"is_disabled": 0, "fusion_lon": 0.0, "fusion_lat": 0.0, "lat": 38.8990095, "type": "electric_scooter", "lon": -76.9338535, "bike_id": "cae5011f589fa8128df2f7251133cb41", "rental_uris": {"android": "https://dc.lft.to/lastmile_qr_scan", "ios": "https://dc.lft.to/lastmile_qr_scan"}, "name": "cae5011f589fa8128df2f7251133cb41", "is_reserved": 0}, {"is_disabled": 0, "fusion_lon": 0.0, "fusion_lat": 0.0, "lat": 38.88751033333333, "type": "electric_scooter", "lon": -76.996149, "bike_id": "9dd6fb7e0072ab785ae196a10e2df87f", "rental_uris": {"android": "https://dc.lft.to/lastmile_qr_scan", "ios": "https://dc.lft.to/lastmile_qr_scan"}, "name": "9dd6fb7e0072ab785ae196a10e2df87f", "is_reserved": 0}, {"is_disabled": 0, "fusion_lon": 0.0, "fusion_lat": 0.0, "lat": 38.88733633333333, "type": "electric_scooter", "lon": -77.015279, "bike_id": "8b820fce509951c70e6648a42aef0cec", "rental_uris": {"android": "https://dc.lft.to/lastmile_qr_scan", "ios": "https://dc.lft.to/lastmile_qr_scan"}, "name": "8b820fce509951c70e6648a42aef0cec", "is_reserved": 0}, {"is_disabled": 0, "fusion_lon": 0.0, "fusion_lat": 0.0, "lat": 38.935567666666664, "type": "electric_scooter", "lon": -77.02965266666666, "bike_id": "cee24287a052a717b461faf0a05db34d", "rental_uris": {"android": "https://dc.lft.to/lastmile_qr_scan", "ios": "https://dc.lft.to/lastmile_qr_scan"}, "name": "cee24287a052a717b461faf0a05db34d", "is_reserved": 0}, {"is_disabled": 0, "fusion_lon": 0.0, "fusion_lat": 0.0, "lat": 38.900477, "type": "electric_scooter", "lon": -77.00071366666667, "bike_id": "d91b29b48273fba31d3c26bc60174f5d", "rental_uris": {"android": "https://dc.lft.to/lastmile_qr_scan", "ios": "https://dc.lft.to/lastmile_qr_scan"}, "name": "d91b29b48273fba31d3c26bc60174f5d", "is_reserved": 0}, {"is_disabled": 0, "fusion_lon": 0.0, "fusion_lat": 0.0, "lat": 38.88000516666666, "type": "electric_scooter", "lon": -76.98528933333333, "bike_id": "87daf693eed4bec3f35cb3062a09524b", "rental_uris": {"android": "https://dc.lft.to/lastmile_qr_scan", "ios": "https://dc.lft.to/lastmile_qr_scan"}, "name": "87daf693eed4bec3f35cb3062a09524b", "is_reserved": 0}, {"is_disabled": 0, "fusion_lon": 0.0, "fusion_lat": 0.0, "lat": 38.924201, "type": "electric_scooter", "lon": -77.056318, "bike_id": "4b82fa36a6178ed3171fea8bd066cbff", "rental_uris": {"android": "https://dc.lft.to/lastmile_qr_scan", "ios": "https://dc.lft.to/lastmile_qr_scan"}, "name": "4b82fa36a6178ed3171fea8bd066cbff", "is_reserved": 0}, {"is_disabled": 0, "fusion_lon": 0.0, "fusion_lat": 0.0, "lat": 38.96912966666667, "type": "electric_bike", "lon": -77.02622766666667, "bike_id": "d058f7e059ccf842627278809ec9035f", "rental_uris": {"android": "https://dc.lft.to/lastmile_qr_scan", "ios": "https://dc.lft.to/lastmile_qr_scan"}, "name": "d058f7e059ccf842627278809ec9035f", "is_reserved": 0}, {"is_disabled": 0, "fusion_lon": 0.0, "fusion_lat": 0.0, "lat": 38.98662483333333, "type": "electric_scooter", "lon": -77.0264595, "bike_id": "bbfca32db2bc8d3ebbd99ff52039c679", "rental_uris": {"android": "https://dc.lft.to/lastmile_qr_scan", "ios": "https://dc.lft.to/lastmile_qr_scan"}, "name": "bbfca32db2bc8d3ebbd99ff52039c679", "is_reserved": 0}, {"is_disabled": 0, "fusion_lon": 0.0, "fusion_lat": 0.0, "lat": 38.914735666666665, "type": "electric_scooter", "lon": -77.04381933333333, "bike_id": "10de2921ed9faee102e5b70d16bbcbdd", "rental_uris": {"android": "https://dc.lft.to/lastmile_qr_scan", "ios": "https://dc.lft.to/lastmile_qr_scan"}, "name": "10de2921ed9faee102e5b70d16bbcbdd", "is_reserved": 0}, {"is_disabled": 0, "fusion_lon": 0.0, "fusion_lat": 0.0, "lat": 38.89208466666667, "type": "electric_scooter", "lon": -76.98797166666667, "bike_id": "e339aa5e8f583fae6e42e235477ed42c", "rental_uris": {"android": "https://dc.lft.to/lastmile_qr_scan", "ios": "https://dc.lft.to/lastmile_qr_scan"}, "name": "e339aa5e8f583fae6e42e235477ed42c", "is_reserved": 0}, {"is_disabled": 0, "fusion_lon": 0.0, "fusion_lat": 0.0, "lat": 38.9169125, "type": "electric_scooter", "lon": -77.03216316666666, "bike_id": "adf2843de721bfb9f88ebbbe952ba460", "rental_uris": {"android": "https://dc.lft.to/lastmile_qr_scan", "ios": "https://dc.lft.to/lastmile_qr_scan"}, "name": "adf2843de721bfb9f88ebbbe952ba460", "is_reserved": 0}, {"is_disabled": 0, "fusion_lon": 0.0, "fusion_lat": 0.0, "lat": 38.91853733333333, "type": "electric_bike", "lon": -76.96177083333333, "bike_id": "6e6ea68a3c2d92c74e12ef7660f64dc8", "rental_uris": {"android": "https://dc.lft.to/lastmile_qr_scan", "ios": "https://dc.lft.to/lastmile_qr_scan"}, "name": "6e6ea68a3c2d92c74e12ef7660f64dc8", "is_reserved": 0}, {"is_disabled": 0, "fusion_lon": 0.0, "fusion_lat": 0.0, "lat": 38.914900833333334, "type": "electric_scooter", "lon": -77.01983883333334, "bike_id": "eb85ced27655ce53e3f9e6efeaeafa1d", "rental_uris": {"android": "https://dc.lft.to/lastmile_qr_scan", "ios": "https://dc.lft.to/lastmile_qr_scan"}, "name": "eb85ced27655ce53e3f9e6efeaeafa1d", "is_reserved": 0}, {"is_disabled": 0, "fusion_lon": 0.0, "fusion_lat": 0.0, "lat": 38.932727666666665, "type": "electric_scooter", "lon": -76.99690116666666, "bike_id": "bfed42ae05ad3e7ac144a6ae901e9bd1", "rental_uris": {"android": "https://dc.lft.to/lastmile_qr_scan", "ios": "https://dc.lft.to/lastmile_qr_scan"}, "name": "bfed42ae05ad3e7ac144a6ae901e9bd1", "is_reserved": 0}, {"is_disabled": 0, "fusion_lon": 0.0, "fusion_lat": 0.0, "lat": 38.89965133333333, "type": "electric_scooter", "lon": -77.02665466666667, "bike_id": "7ce6f20bfe69cfcfacc24005d543c568", "rental_uris": {"android": "https://dc.lft.to/lastmile_qr_scan", "ios": "https://dc.lft.to/lastmile_qr_scan"}, "name": "7ce6f20bfe69cfcfacc24005d543c568", "is_reserved": 0}, {"is_disabled": 0, "fusion_lon": 0.0, "fusion_lat": 0.0, "lat": 38.905368333333335, "type": "electric_scooter", "lon": -77.05033083333333, "bike_id": "ca71587d70be2c18643a31284b439722", "rental_uris": {"android": "https://dc.lft.to/lastmile_qr_scan", "ios": "https://dc.lft.to/lastmile_qr_scan"}, "name": "ca71587d70be2c18643a31284b439722", "is_reserved": 0}, {"is_disabled": 0, "fusion_lon": 0.0, "fusion_lat": 0.0, "lat": 38.94558833333333, "type": "electric_bike", "lon": -77.05105883333333, "bike_id": "a459aa222a880d8df4cd9df8bcbcafd2", "rental_uris": {"android": "https://dc.lft.to/lastmile_qr_scan", "ios": "https://dc.lft.to/lastmile_qr_scan"}, "name": "a459aa222a880d8df4cd9df8bcbcafd2", "is_reserved": 0}, {"is_disabled": 0, "fusion_lon": 0.0, "fusion_lat": 0.0, "lat": 38.9001595, "type": "electric_scooter", "lon": -77.0524245, "bike_id": "2096d074162c7403cd27e5e5db0092c3", "rental_uris": {"android": "https://dc.lft.to/lastmile_qr_scan", "ios": "https://dc.lft.to/lastmile_qr_scan"}, "name": "2096d074162c7403cd27e5e5db0092c3", "is_reserved": 0}, {"is_disabled": 0, "fusion_lon": 0.0, "fusion_lat": 0.0, "lat": 38.928126666666664, "type": "electric_scooter", "lon": -77.023478, "bike_id": "47e58915ccfdad794808828658ad55e5", "rental_uris": {"android": "https://dc.lft.to/lastmile_qr_scan", "ios": "https://dc.lft.to/lastmile_qr_scan"}, "name": "47e58915ccfdad794808828658ad55e5", "is_reserved": 0}, {"is_disabled": 0, "fusion_lon": 0.0, "fusion_lat": 0.0, "lat": 38.9068495, "type": "electric_scooter", "lon": -77.07559883333333, "bike_id": "b5151368683355e212b0dfbd71618ab1", "rental_uris": {"android": "https://dc.lft.to/lastmile_qr_scan", "ios": "https://dc.lft.to/lastmile_qr_scan"}, "name": "b5151368683355e212b0dfbd71618ab1", "is_reserved": 0}, {"is_disabled": 0, "fusion_lon": 0.0, "fusion_lat": 0.0, "lat": 38.90005416666666, "type": "electric_scooter", "lon": -77.03946983333333, "bike_id": "d1a0fd911e6b64e2e2ee48284a464e4f", "rental_uris": {"android": "https://dc.lft.to/lastmile_qr_scan", "ios": "https://dc.lft.to/lastmile_qr_scan"}, "name": "d1a0fd911e6b64e2e2ee48284a464e4f", "is_reserved": 0}, {"is_disabled": 0, "fusion_lon": 0.0, "fusion_lat": 0.0, "lat": 38.91589316666666, "type": "electric_scooter", "lon": -77.0212855, "bike_id": "83d6bd2cbb184a677559a870b7975eb7", "rental_uris": {"android": "https://dc.lft.to/lastmile_qr_scan", "ios": "https://dc.lft.to/lastmile_qr_scan"}, "name": "83d6bd2cbb184a677559a870b7975eb7", "is_reserved": 0}, {"is_disabled": 0, "fusion_lon": 0.0, "fusion_lat": 0.0, "lat": 38.90821716666667, "type": "electric_scooter", "lon": -77.0433795, "bike_id": "e1e87c4a273364d9b767123f9c1d9565", "rental_uris": {"android": "https://dc.lft.to/lastmile_qr_scan", "ios": "https://dc.lft.to/lastmile_qr_scan"}, "name": "e1e87c4a273364d9b767123f9c1d9565", "is_reserved": 0}, {"is_disabled": 0, "fusion_lon": 0.0, "fusion_lat": 0.0, "lat": 38.94471133333333, "type": "electric_bike", "lon": -77.00648883333334, "bike_id": "152419a75e091471bf6f9c7c176bf105", "rental_uris": {"android": "https://dc.lft.to/lastmile_qr_scan", "ios": "https://dc.lft.to/lastmile_qr_scan"}, "name": "152419a75e091471bf6f9c7c176bf105", "is_reserved": 0}, {"is_disabled": 0, "fusion_lon": 0.0, "fusion_lat": 0.0, "lat": 38.92483466666667, "type": "electric_scooter", "lon": -77.03732333333333, "bike_id": "bae92cfb21a04ba4154a10ca2c632515", "rental_uris": {"android": "https://dc.lft.to/lastmile_qr_scan", "ios": "https://dc.lft.to/lastmile_qr_scan"}, "name": "bae92cfb21a04ba4154a10ca2c632515", "is_reserved": 0}, {"is_disabled": 0, "fusion_lon": 0.0, "fusion_lat": 0.0, "lat": 38.88679533333333, "type": "electric_scooter", "lon": -76.95478766666666, "bike_id": "3bc309aaf50d39b6eb0484cdeb1314f9", "rental_uris": {"android": "https://dc.lft.to/lastmile_qr_scan", "ios": "https://dc.lft.to/lastmile_qr_scan"}, "name": "3bc309aaf50d39b6eb0484cdeb1314f9", "is_reserved": 0}, {"is_disabled": 0, "fusion_lon": 0.0, "fusion_lat": 0.0, "lat": 38.9172945, "type": "electric_scooter", "lon": -77.03202883333333, "bike_id": "e3121a6b580a91cc26aa7f87305bef05", "rental_uris": {"android": "https://dc.lft.to/lastmile_qr_scan", "ios": "https://dc.lft.to/lastmile_qr_scan"}, "name": "e3121a6b580a91cc26aa7f87305bef05", "is_reserved": 0}, {"is_disabled": 0, "fusion_lon": 0.0, "fusion_lat": 0.0, "lat": 38.90168416666667, "type": "electric_scooter", "lon": -77.01831133333333, "bike_id": "f4eb56ffcf74997fcf1c07d922389a9f", "rental_uris": {"android": "https://dc.lft.to/lastmile_qr_scan", "ios": "https://dc.lft.to/lastmile_qr_scan"}, "name": "f4eb56ffcf74997fcf1c07d922389a9f", "is_reserved": 0}, {"is_disabled": 0, "fusion_lon": 0.0, "fusion_lat": 0.0, "lat": 38.909757, "type": "electric_scooter", "lon": -77.0406, "bike_id": "faf87a1dae7b3c42366989ba4a265690", "rental_uris": {"android": "https://dc.lft.to/lastmile_qr_scan", "ios": "https://dc.lft.to/lastmile_qr_scan"}, "name": "faf87a1dae7b3c42366989ba4a265690", "is_reserved": 0}, {"is_disabled": 0, "fusion_lon": 0.0, "fusion_lat": 0.0, "lat": 38.90814316666667, "type": "electric_scooter", "lon": -77.07035833333333, "bike_id": "cb840d03f9e904236038c744b5999c9b", "rental_uris": {"android": "https://dc.lft.to/lastmile_qr_scan", "ios": "https://dc.lft.to/lastmile_qr_scan"}, "name": "cb840d03f9e904236038c744b5999c9b", "is_reserved": 0}, {"is_disabled": 0, "fusion_lon": 0.0, "fusion_lat": 0.0, "lat": 38.91166333333334, "type": "electric_scooter", "lon": -77.04857866666667, "bike_id": "e16fa27e36d54dc5969efe9aa4b9c558", "rental_uris": {"android": "https://dc.lft.to/lastmile_qr_scan", "ios": "https://dc.lft.to/lastmile_qr_scan"}, "name": "e16fa27e36d54dc5969efe9aa4b9c558", "is_reserved": 0}, {"is_disabled": 0, "fusion_lon": 0.0, "fusion_lat": 0.0, "lat": 38.91567516666667, "type": "electric_scooter", "lon": -77.032054, "bike_id": "f44fa64755a79ca2c34ebc700aae959f", "rental_uris": {"android": "https://dc.lft.to/lastmile_qr_scan", "ios": "https://dc.lft.to/lastmile_qr_scan"}, "name": "f44fa64755a79ca2c34ebc700aae959f", "is_reserved": 0}, {"is_disabled": 0, "fusion_lon": 0.0, "fusion_lat": 0.0, "lat": 38.94753466666667, "type": "electric_scooter", "lon": -77.02976966666667, "bike_id": "892703c884dd998125ae39d767feb0c3", "rental_uris": {"android": "https://dc.lft.to/lastmile_qr_scan", "ios": "https://dc.lft.to/lastmile_qr_scan"}, "name": "892703c884dd998125ae39d767feb0c3", "is_reserved": 0}, {"is_disabled": 0, "fusion_lon": 0.0, "fusion_lat": 0.0, "lat": 38.93109183333333, "type": "electric_scooter", "lon": -77.01246116666667, "bike_id": "23a982418c61208e57aa7d0c961bdc37", "rental_uris": {"android": "https://dc.lft.to/lastmile_qr_scan", "ios": "https://dc.lft.to/lastmile_qr_scan"}, "name": "23a982418c61208e57aa7d0c961bdc37", "is_reserved": 0}, {"is_disabled": 0, "fusion_lon": 0.0, "fusion_lat": 0.0, "lat": 38.927487, "type": "electric_scooter", "lon": -77.02480716666666, "bike_id": "1947c1b99911440d11118224086ce353", "rental_uris": {"android": "https://dc.lft.to/lastmile_qr_scan", "ios": "https://dc.lft.to/lastmile_qr_scan"}, "name": "1947c1b99911440d11118224086ce353", "is_reserved": 0}, {"is_disabled": 0, "fusion_lon": 0.0, "fusion_lat": 0.0, "lat": 38.89840216666666, "type": "electric_scooter", "lon": -77.03193533333334, "bike_id": "5b9da22ae85371d6ff399388c8b2fb86", "rental_uris": {"android": "https://dc.lft.to/lastmile_qr_scan", "ios": "https://dc.lft.to/lastmile_qr_scan"}, "name": "5b9da22ae85371d6ff399388c8b2fb86", "is_reserved": 0}, {"is_disabled": 0, "fusion_lon": 0.0, "fusion_lat": 0.0, "lat": 38.92444166666667, "type": "electric_bike", "lon": -77.00211083333333, "bike_id": "38c09566e857be7cfddea1915259ce01", "rental_uris": {"android": "https://dc.lft.to/lastmile_qr_scan", "ios": "https://dc.lft.to/lastmile_qr_scan"}, "name": "38c09566e857be7cfddea1915259ce01", "is_reserved": 0}, {"is_disabled": 0, "fusion_lon": 0.0, "fusion_lat": 0.0, "lat": 38.85063783333333, "type": "electric_bike", "lon": -76.97331616666666, "bike_id": "e2b673591662da6b9b203eebaa1b26e1", "rental_uris": {"android": "https://dc.lft.to/lastmile_qr_scan", "ios": "https://dc.lft.to/lastmile_qr_scan"}, "name": "e2b673591662da6b9b203eebaa1b26e1", "is_reserved": 0}, {"is_disabled": 0, "fusion_lon": 0.0, "fusion_lat": 0.0, "lat": 38.9036885, "type": "electric_scooter", "lon": -77.035074, "bike_id": "7bf22494ea55cc6974d1b5c926532ff1", "rental_uris": {"android": "https://dc.lft.to/lastmile_qr_scan", "ios": "https://dc.lft.to/lastmile_qr_scan"}, "name": "7bf22494ea55cc6974d1b5c926532ff1", "is_reserved": 0}, {"is_disabled": 0, "fusion_lon": 0.0, "fusion_lat": 0.0, "lat": 38.9094985, "type": "electric_scooter", "lon": -77.04655466666667, "bike_id": "fc2c8b11f65951988b7583ed731b9eb2", "rental_uris": {"android": "https://dc.lft.to/lastmile_qr_scan", "ios": "https://dc.lft.to/lastmile_qr_scan"}, "name": "fc2c8b11f65951988b7583ed731b9eb2", "is_reserved": 0}, {"is_disabled": 0, "fusion_lon": 0.0, "fusion_lat": 0.0, "lat": 38.913959166666665, "type": "electric_scooter", "lon": -77.03848383333333, "bike_id": "dd6a3b2de7b7d790d4dadd5752d80d6a", "rental_uris": {"android": "https://dc.lft.to/lastmile_qr_scan", "ios": "https://dc.lft.to/lastmile_qr_scan"}, "name": "dd6a3b2de7b7d790d4dadd5752d80d6a", "is_reserved": 0}, {"is_disabled": 0, "fusion_lon": 0.0, "fusion_lat": 0.0, "lat": 38.90571466666667, "type": "electric_scooter", "lon": -77.00725816666667, "bike_id": "bbf9395921ff6d88a6b6ea7954a46704", "rental_uris": {"android": "https://dc.lft.to/lastmile_qr_scan", "ios": "https://dc.lft.to/lastmile_qr_scan"}, "name": "bbf9395921ff6d88a6b6ea7954a46704", "is_reserved": 0}, {"is_disabled": 0, "fusion_lon": 0.0, "fusion_lat": 0.0, "lat": 38.956282, "type": "electric_scooter", "lon": -77.0297965, "bike_id": "36874c818c4eb2e62fc94ab21e03dd46", "rental_uris": {"android": "https://dc.lft.to/lastmile_qr_scan", "ios": "https://dc.lft.to/lastmile_qr_scan"}, "name": "36874c818c4eb2e62fc94ab21e03dd46", "is_reserved": 0}, {"is_disabled": 0, "fusion_lon": 0.0, "fusion_lat": 0.0, "lat": 38.9520185, "type": "electric_bike", "lon": -77.0237055, "bike_id": "c0b33be5580814f6db633d54f4b20b65", "rental_uris": {"android": "https://dc.lft.to/lastmile_qr_scan", "ios": "https://dc.lft.to/lastmile_qr_scan"}, "name": "c0b33be5580814f6db633d54f4b20b65", "is_reserved": 0}, {"is_disabled": 0, "fusion_lon": 0.0, "fusion_lat": 0.0, "lat": 38.89600333333333, "type": "electric_scooter", "lon": -77.0112095, "bike_id": "73fba201ff1d76b130ab51014b859016", "rental_uris": {"android": "https://dc.lft.to/lastmile_qr_scan", "ios": "https://dc.lft.to/lastmile_qr_scan"}, "name": "73fba201ff1d76b130ab51014b859016", "is_reserved": 0}, {"is_disabled": 0, "fusion_lon": 0.0, "fusion_lat": 0.0, "lat": 38.9012035, "type": "electric_scooter", "lon": -77.01748566666667, "bike_id": "3067dd078208264263cdd21026a3fc2a", "rental_uris": {"android": "https://dc.lft.to/lastmile_qr_scan", "ios": "https://dc.lft.to/lastmile_qr_scan"}, "name": "3067dd078208264263cdd21026a3fc2a", "is_reserved": 0}, {"is_disabled": 0, "fusion_lon": 0.0, "fusion_lat": 0.0, "lat": 38.90953016666667, "type": "electric_bike", "lon": -76.997559, "bike_id": "16dafedb6e236df0182d7a340a90f2eb", "rental_uris": {"android": "https://dc.lft.to/lastmile_qr_scan", "ios": "https://dc.lft.to/lastmile_qr_scan"}, "name": "16dafedb6e236df0182d7a340a90f2eb", "is_reserved": 0}, {"is_disabled": 0, "fusion_lon": 0.0, "fusion_lat": 0.0, "lat": 38.921246833333335, "type": "electric_scooter", "lon": -77.03655283333333, "bike_id": "5cdf53ff9d973064e9323c1cb391b445", "rental_uris": {"android": "https://dc.lft.to/lastmile_qr_scan", "ios": "https://dc.lft.to/lastmile_qr_scan"}, "name": "5cdf53ff9d973064e9323c1cb391b445", "is_reserved": 0}, {"is_disabled": 0, "fusion_lon": 0.0, "fusion_lat": 0.0, "lat": 38.90052166666667, "type": "electric_scooter", "lon": -77.00216983333334, "bike_id": "6f492eb166cca0109ef921c143154ad4", "rental_uris": {"android": "https://dc.lft.to/lastmile_qr_scan", "ios": "https://dc.lft.to/lastmile_qr_scan"}, "name": "6f492eb166cca0109ef921c143154ad4", "is_reserved": 0}, {"is_disabled": 0, "fusion_lon": 0.0, "fusion_lat": 0.0, "lat": 38.91800333333333, "type": "electric_scooter", "lon": -77.04038533333333, "bike_id": "2c697d7478e6427b2b5786931ebe04b7", "rental_uris": {"android": "https://dc.lft.to/lastmile_qr_scan", "ios": "https://dc.lft.to/lastmile_qr_scan"}, "name": "2c697d7478e6427b2b5786931ebe04b7", "is_reserved": 0}, {"is_disabled": 0, "fusion_lon": 0.0, "fusion_lat": 0.0, "lat": 38.9156365, "type": "electric_scooter", "lon": -77.03269366666666, "bike_id": "7d64012d8fc2a22cf2369f1dbeeb1479", "rental_uris": {"android": "https://dc.lft.to/lastmile_qr_scan", "ios": "https://dc.lft.to/lastmile_qr_scan"}, "name": "7d64012d8fc2a22cf2369f1dbeeb1479", "is_reserved": 0}, {"is_disabled": 0, "fusion_lon": 0.0, "fusion_lat": 0.0, "lat": 38.855098, "type": "electric_bike", "lon": -76.95838733333333, "bike_id": "6f755b10e9894e9ae44e26832c3c27c7", "rental_uris": {"android": "https://dc.lft.to/lastmile_qr_scan", "ios": "https://dc.lft.to/lastmile_qr_scan"}, "name": "6f755b10e9894e9ae44e26832c3c27c7", "is_reserved": 0}, {"is_disabled": 0, "fusion_lon": 0.0, "fusion_lat": 0.0, "lat": 38.944421, "type": "electric_scooter", "lon": -77.0635765, "bike_id": "0ab5a1863577dbbd602503fc59ced682", "rental_uris": {"android": "https://dc.lft.to/lastmile_qr_scan", "ios": "https://dc.lft.to/lastmile_qr_scan"}, "name": "0ab5a1863577dbbd602503fc59ced682", "is_reserved": 0}, {"is_disabled": 0, "fusion_lon": 0.0, "fusion_lat": 0.0, "lat": 38.92755616666667, "type": "electric_scooter", "lon": -77.005865, "bike_id": "c9dc27b23632a62e93671303447e7863", "rental_uris": {"android": "https://dc.lft.to/lastmile_qr_scan", "ios": "https://dc.lft.to/lastmile_qr_scan"}, "name": "c9dc27b23632a62e93671303447e7863", "is_reserved": 0}, {"is_disabled": 0, "fusion_lon": 0.0, "fusion_lat": 0.0, "lat": 38.9193525, "type": "electric_scooter", "lon": -76.98071066666667, "bike_id": "46831deaa0b215227ca62259ce335e76", "rental_uris": {"android": "https://dc.lft.to/lastmile_qr_scan", "ios": "https://dc.lft.to/lastmile_qr_scan"}, "name": "46831deaa0b215227ca62259ce335e76", "is_reserved": 0}, {"is_disabled": 0, "fusion_lon": 0.0, "fusion_lat": 0.0, "lat": 38.8764615, "type": "electric_scooter", "lon": -77.0057645, "bike_id": "23e4559d8d305309e26a3dd16fa7012a", "rental_uris": {"android": "https://dc.lft.to/lastmile_qr_scan", "ios": "https://dc.lft.to/lastmile_qr_scan"}, "name": "23e4559d8d305309e26a3dd16fa7012a", "is_reserved": 0}, {"is_disabled": 0, "fusion_lon": 0.0, "fusion_lat": 0.0, "lat": 38.940774166666664, "type": "electric_scooter", "lon": -77.02114533333334, "bike_id": "4957eb004126e698b54809676e48f04f", "rental_uris": {"android": "https://dc.lft.to/lastmile_qr_scan", "ios": "https://dc.lft.to/lastmile_qr_scan"}, "name": "4957eb004126e698b54809676e48f04f", "is_reserved": 0}, {"is_disabled": 0, "fusion_lon": 0.0, "fusion_lat": 0.0, "lat": 38.909587333333334, "type": "electric_scooter", "lon": -77.01571233333334, "bike_id": "45856994aaa0995f557d4d7d3f695494", "rental_uris": {"android": "https://dc.lft.to/lastmile_qr_scan", "ios": "https://dc.lft.to/lastmile_qr_scan"}, "name": "45856994aaa0995f557d4d7d3f695494", "is_reserved": 0}, {"is_disabled": 0, "fusion_lon": 0.0, "fusion_lat": 0.0, "lat": 38.93175016666667, "type": "electric_scooter", "lon": -77.02819, "bike_id": "951304157791ec1c5abddaa0457a5c5a", "rental_uris": {"android": "https://dc.lft.to/lastmile_qr_scan", "ios": "https://dc.lft.to/lastmile_qr_scan"}, "name": "951304157791ec1c5abddaa0457a5c5a", "is_reserved": 0}, {"is_disabled": 0, "fusion_lon": 0.0, "fusion_lat": 0.0, "lat": 38.912675166666666, "type": "electric_scooter", "lon": -77.03148083333333, "bike_id": "68464968e4f4e57be57760008af7f9b2", "rental_uris": {"android": "https://dc.lft.to/lastmile_qr_scan", "ios": "https://dc.lft.to/lastmile_qr_scan"}, "name": "68464968e4f4e57be57760008af7f9b2", "is_reserved": 0}, {"is_disabled": 0, "fusion_lon": 0.0, "fusion_lat": 0.0, "lat": 38.911171333333336, "type": "electric_scooter", "lon": -77.037199, "bike_id": "77b4e65c076946daca135d58c363e185", "rental_uris": {"android": "https://dc.lft.to/lastmile_qr_scan", "ios": "https://dc.lft.to/lastmile_qr_scan"}, "name": "77b4e65c076946daca135d58c363e185", "is_reserved": 0}, {"is_disabled": 0, "fusion_lon": 0.0, "fusion_lat": 0.0, "lat": 38.90842983333334, "type": "electric_scooter", "lon": -77.02343566666667, "bike_id": "1e40d4dd5297c33f76ff01ab0e929cc4", "rental_uris": {"android": "https://dc.lft.to/lastmile_qr_scan", "ios": "https://dc.lft.to/lastmile_qr_scan"}, "name": "1e40d4dd5297c33f76ff01ab0e929cc4", "is_reserved": 0}, {"is_disabled": 0, "fusion_lon": 0.0, "fusion_lat": 0.0, "lat": 38.932373166666665, "type": "electric_scooter", "lon": -77.02852283333333, "bike_id": "d1b7371db57384840814021741fdba19", "rental_uris": {"android": "https://dc.lft.to/lastmile_qr_scan", "ios": "https://dc.lft.to/lastmile_qr_scan"}, "name": "d1b7371db57384840814021741fdba19", "is_reserved": 0}, {"is_disabled": 0, "fusion_lon": 0.0, "fusion_lat": 0.0, "lat": 38.93229766666666, "type": "electric_scooter", "lon": -76.999331, "bike_id": "3f004de29f8314498a52bed0e22d7a77", "rental_uris": {"android": "https://dc.lft.to/lastmile_qr_scan", "ios": "https://dc.lft.to/lastmile_qr_scan"}, "name": "3f004de29f8314498a52bed0e22d7a77", "is_reserved": 0}, {"is_disabled": 0, "fusion_lon": 0.0, "fusion_lat": 0.0, "lat": 38.9125485, "type": "electric_scooter", "lon": -77.037486, "bike_id": "d848c1b3f1e1969dd1702162fb1faeea", "rental_uris": {"android": "https://dc.lft.to/lastmile_qr_scan", "ios": "https://dc.lft.to/lastmile_qr_scan"}, "name": "d848c1b3f1e1969dd1702162fb1faeea", "is_reserved": 0}, {"is_disabled": 0, "fusion_lon": 0.0, "fusion_lat": 0.0, "lat": 38.88495533333333, "type": "electric_scooter", "lon": -77.02506516666666, "bike_id": "16b4c2fbb619d2ad4f31d2ab74623a0c", "rental_uris": {"android": "https://dc.lft.to/lastmile_qr_scan", "ios": "https://dc.lft.to/lastmile_qr_scan"}, "name": "16b4c2fbb619d2ad4f31d2ab74623a0c", "is_reserved": 0}, {"is_disabled": 0, "fusion_lon": 0.0, "fusion_lat": 0.0, "lat": 38.93854183333333, "type": "electric_scooter", "lon": -77.024739, "bike_id": "da4628855a9a2ab3b46dc6d99f0083ea", "rental_uris": {"android": "https://dc.lft.to/lastmile_qr_scan", "ios": "https://dc.lft.to/lastmile_qr_scan"}, "name": "da4628855a9a2ab3b46dc6d99f0083ea", "is_reserved": 0}, {"is_disabled": 0, "fusion_lon": 0.0, "fusion_lat": 0.0, "lat": 38.907085, "type": "electric_scooter", "lon": -77.02401783333333, "bike_id": "6fb2d7931867ddc9314d85df10d4cd3a", "rental_uris": {"android": "https://dc.lft.to/lastmile_qr_scan", "ios": "https://dc.lft.to/lastmile_qr_scan"}, "name": "6fb2d7931867ddc9314d85df10d4cd3a", "is_reserved": 0}, {"is_disabled": 0, "fusion_lon": 0.0, "fusion_lat": 0.0, "lat": 38.95310933333333, "type": "electric_scooter", "lon": -77.03600383333334, "bike_id": "5422c06f31c7ecc1faff883d5fac252b", "rental_uris": {"android": "https://dc.lft.to/lastmile_qr_scan", "ios": "https://dc.lft.to/lastmile_qr_scan"}, "name": "5422c06f31c7ecc1faff883d5fac252b", "is_reserved": 0}, {"is_disabled": 0, "fusion_lon": 0.0, "fusion_lat": 0.0, "lat": 38.90308616666667, "type": "electric_scooter", "lon": -77.0195415, "bike_id": "f6771f60399dad3336e2fd8e8d6f7487", "rental_uris": {"android": "https://dc.lft.to/lastmile_qr_scan", "ios": "https://dc.lft.to/lastmile_qr_scan"}, "name": "f6771f60399dad3336e2fd8e8d6f7487", "is_reserved": 0}, {"is_disabled": 0, "fusion_lon": 0.0, "fusion_lat": 0.0, "lat": 38.91086283333333, "type": "electric_scooter", "lon": -77.03841466666667, "bike_id": "563d12ac96584d1c3c30549db22040bd", "rental_uris": {"android": "https://dc.lft.to/lastmile_qr_scan", "ios": "https://dc.lft.to/lastmile_qr_scan"}, "name": "563d12ac96584d1c3c30549db22040bd", "is_reserved": 0}, {"is_disabled": 0, "fusion_lon": 0.0, "fusion_lat": 0.0, "lat": 38.89960816666667, "type": "electric_scooter", "lon": -77.04613983333333, "bike_id": "77b13ff8782f88b519f7209b77026a2b", "rental_uris": {"android": "https://dc.lft.to/lastmile_qr_scan", "ios": "https://dc.lft.to/lastmile_qr_scan"}, "name": "77b13ff8782f88b519f7209b77026a2b", "is_reserved": 0}, {"is_disabled": 0, "fusion_lon": 0.0, "fusion_lat": 0.0, "lat": 38.920996833333334, "type": "electric_scooter", "lon": -77.03054, "bike_id": "68105df976bf5af6cd30037867545378", "rental_uris": {"android": "https://dc.lft.to/lastmile_qr_scan", "ios": "https://dc.lft.to/lastmile_qr_scan"}, "name": "68105df976bf5af6cd30037867545378", "is_reserved": 0}, {"is_disabled": 0, "fusion_lon": 0.0, "fusion_lat": 0.0, "lat": 38.908266166666664, "type": "electric_scooter", "lon": -77.04161, "bike_id": "6901bf31b09b451ff0ae6a2e741e9834", "rental_uris": {"android": "https://dc.lft.to/lastmile_qr_scan", "ios": "https://dc.lft.to/lastmile_qr_scan"}, "name": "6901bf31b09b451ff0ae6a2e741e9834", "is_reserved": 0}, {"is_disabled": 0, "fusion_lon": 0.0, "fusion_lat": 0.0, "lat": 38.9314965, "type": "electric_scooter", "lon": -77.03452766666666, "bike_id": "66cd57fd4d0dc8c0a284e34a0b269508", "rental_uris": {"android": "https://dc.lft.to/lastmile_qr_scan", "ios": "https://dc.lft.to/lastmile_qr_scan"}, "name": "66cd57fd4d0dc8c0a284e34a0b269508", "is_reserved": 0}, {"is_disabled": 0, "fusion_lon": 0.0, "fusion_lat": 0.0, "lat": 38.87644383333333, "type": "electric_scooter", "lon": -77.0156805, "bike_id": "f986e14d26fdcd72a757af6d097e9b50", "rental_uris": {"android": "https://dc.lft.to/lastmile_qr_scan", "ios": "https://dc.lft.to/lastmile_qr_scan"}, "name": "f986e14d26fdcd72a757af6d097e9b50", "is_reserved": 0}, {"is_disabled": 0, "fusion_lon": 0.0, "fusion_lat": 0.0, "lat": 38.90969316666666, "type": "electric_scooter", "lon": -77.080766, "bike_id": "f88e4c6afdc7481610e2062458ff24df", "rental_uris": {"android": "https://dc.lft.to/lastmile_qr_scan", "ios": "https://dc.lft.to/lastmile_qr_scan"}, "name": "f88e4c6afdc7481610e2062458ff24df", "is_reserved": 0}, {"is_disabled": 0, "fusion_lon": 0.0, "fusion_lat": 0.0, "lat": 38.90447416666667, "type": "electric_scooter", "lon": -77.028915, "bike_id": "38380ed2a4b46b9eb6d3a33ac85c9f2b", "rental_uris": {"android": "https://dc.lft.to/lastmile_qr_scan", "ios": "https://dc.lft.to/lastmile_qr_scan"}, "name": "38380ed2a4b46b9eb6d3a33ac85c9f2b", "is_reserved": 0}, {"is_disabled": 0, "fusion_lon": 0.0, "fusion_lat": 0.0, "lat": 38.89825033333334, "type": "electric_scooter", "lon": -76.94653666666666, "bike_id": "8e463f0f19f88002cefaaf13bac3c32f", "rental_uris": {"android": "https://dc.lft.to/lastmile_qr_scan", "ios": "https://dc.lft.to/lastmile_qr_scan"}, "name": "8e463f0f19f88002cefaaf13bac3c32f", "is_reserved": 0}, {"is_disabled": 0, "fusion_lon": 0.0, "fusion_lat": 0.0, "lat": 38.882208166666665, "type": "electric_bike", "lon": -77.11292783333333, "bike_id": "fd297473909d5e53fe116e7aa533b04c", "rental_uris": {"android": "https://dc.lft.to/lastmile_qr_scan", "ios": "https://dc.lft.to/lastmile_qr_scan"}, "name": "fd297473909d5e53fe116e7aa533b04c", "is_reserved": 0}, {"is_disabled": 0, "fusion_lon": 0.0, "fusion_lat": 0.0, "lat": 38.931030166666666, "type": "electric_scooter", "lon": -77.038355, "bike_id": "0c81756e9ee9f69b64af8087ffce0d9e", "rental_uris": {"android": "https://dc.lft.to/lastmile_qr_scan", "ios": "https://dc.lft.to/lastmile_qr_scan"}, "name": "0c81756e9ee9f69b64af8087ffce0d9e", "is_reserved": 0}, {"is_disabled": 0, "fusion_lon": 0.0, "fusion_lat": 0.0, "lat": 38.90046366666667, "type": "electric_scooter", "lon": -77.0006405, "bike_id": "04572cc6e72724c1a3012dc22bf5b17d", "rental_uris": {"android": "https://dc.lft.to/lastmile_qr_scan", "ios": "https://dc.lft.to/lastmile_qr_scan"}, "name": "04572cc6e72724c1a3012dc22bf5b17d", "is_reserved": 0}, {"is_disabled": 0, "fusion_lon": 0.0, "fusion_lat": 0.0, "lat": 38.907894666666664, "type": "electric_scooter", "lon": -77.04353116666667, "bike_id": "9e3e9c1ea5d80fc17538a20e57f7e820", "rental_uris": {"android": "https://dc.lft.to/lastmile_qr_scan", "ios": "https://dc.lft.to/lastmile_qr_scan"}, "name": "9e3e9c1ea5d80fc17538a20e57f7e820", "is_reserved": 0}, {"is_disabled": 0, "fusion_lon": 0.0, "fusion_lat": 0.0, "lat": 38.91689733333333, "type": "electric_scooter", "lon": -77.02878083333333, "bike_id": "db1601be34405747b126b8610902faed", "rental_uris": {"android": "https://dc.lft.to/lastmile_qr_scan", "ios": "https://dc.lft.to/lastmile_qr_scan"}, "name": "db1601be34405747b126b8610902faed", "is_reserved": 0}, {"is_disabled": 0, "fusion_lon": 0.0, "fusion_lat": 0.0, "lat": 38.90945583333333, "type": "electric_scooter", "lon": -77.01525466666666, "bike_id": "9bf36ea5a56f86e3e12b0b6d1a7dfc61", "rental_uris": {"android": "https://dc.lft.to/lastmile_qr_scan", "ios": "https://dc.lft.to/lastmile_qr_scan"}, "name": "9bf36ea5a56f86e3e12b0b6d1a7dfc61", "is_reserved": 0}, {"is_disabled": 0, "fusion_lon": 0.0, "fusion_lat": 0.0, "lat": 38.892207666666664, "type": "electric_scooter", "lon": -77.01559783333333, "bike_id": "1c3d8f61f3e3418f80fd2df6ce5227fc", "rental_uris": {"android": "https://dc.lft.to/lastmile_qr_scan", "ios": "https://dc.lft.to/lastmile_qr_scan"}, "name": "1c3d8f61f3e3418f80fd2df6ce5227fc", "is_reserved": 0}, {"is_disabled": 0, "fusion_lon": 0.0, "fusion_lat": 0.0, "lat": 38.88640916666667, "type": "electric_scooter", "lon": -77.0225755, "bike_id": "8c59684c9287f21704e53919d7186865", "rental_uris": {"android": "https://dc.lft.to/lastmile_qr_scan", "ios": "https://dc.lft.to/lastmile_qr_scan"}, "name": "8c59684c9287f21704e53919d7186865", "is_reserved": 0}, {"is_disabled": 0, "fusion_lon": 0.0, "fusion_lat": 0.0, "lat": 38.892592, "type": "electric_scooter", "lon": -76.94156916666667, "bike_id": "bb14c7d15af611a8d4d5195fe2e80dd1", "rental_uris": {"android": "https://dc.lft.to/lastmile_qr_scan", "ios": "https://dc.lft.to/lastmile_qr_scan"}, "name": "bb14c7d15af611a8d4d5195fe2e80dd1", "is_reserved": 0}, {"is_disabled": 0, "fusion_lon": 0.0, "fusion_lat": 0.0, "lat": 38.9187005, "type": "electric_scooter", "lon": -77.04187233333333, "bike_id": "66fcd8a56b7b210320716169ebe92392", "rental_uris": {"android": "https://dc.lft.to/lastmile_qr_scan", "ios": "https://dc.lft.to/lastmile_qr_scan"}, "name": "66fcd8a56b7b210320716169ebe92392", "is_reserved": 0}, {"is_disabled": 0, "fusion_lon": 0.0, "fusion_lat": 0.0, "lat": 38.90536383333333, "type": "electric_scooter", "lon": -77.02193183333333, "bike_id": "65a8d61a86d67a80bd7a94641df3a08e", "rental_uris": {"android": "https://dc.lft.to/lastmile_qr_scan", "ios": "https://dc.lft.to/lastmile_qr_scan"}, "name": "65a8d61a86d67a80bd7a94641df3a08e", "is_reserved": 0}, {"is_disabled": 0, "fusion_lon": 0.0, "fusion_lat": 0.0, "lat": 38.8529885, "type": "electric_scooter", "lon": -76.98407916666666, "bike_id": "876039cf34c9a7a2696613a5c58603ff", "rental_uris": {"android": "https://dc.lft.to/lastmile_qr_scan", "ios": "https://dc.lft.to/lastmile_qr_scan"}, "name": "876039cf34c9a7a2696613a5c58603ff", "is_reserved": 0}, {"is_disabled": 0, "fusion_lon": 0.0, "fusion_lat": 0.0, "lat": 38.896709333333334, "type": "electric_scooter", "lon": -76.94720216666667, "bike_id": "feb81dd9f75ca1d349d479539d47c81d", "rental_uris": {"android": "https://dc.lft.to/lastmile_qr_scan", "ios": "https://dc.lft.to/lastmile_qr_scan"}, "name": "feb81dd9f75ca1d349d479539d47c81d", "is_reserved": 0}, {"is_disabled": 0, "fusion_lon": 0.0, "fusion_lat": 0.0, "lat": 38.89257583333333, "type": "electric_scooter", "lon": -77.03179866666666, "bike_id": "d31b2f684e7ae3732dd92b420483b6d5", "rental_uris": {"android": "https://dc.lft.to/lastmile_qr_scan", "ios": "https://dc.lft.to/lastmile_qr_scan"}, "name": "d31b2f684e7ae3732dd92b420483b6d5", "is_reserved": 0}, {"is_disabled": 0, "fusion_lon": 0.0, "fusion_lat": 0.0, "lat": 38.915405666666665, "type": "electric_scooter", "lon": -77.01972233333333, "bike_id": "64957933c59e94e859466496f18adbd8", "rental_uris": {"android": "https://dc.lft.to/lastmile_qr_scan", "ios": "https://dc.lft.to/lastmile_qr_scan"}, "name": "64957933c59e94e859466496f18adbd8", "is_reserved": 0}, {"is_disabled": 0, "fusion_lon": 0.0, "fusion_lat": 0.0, "lat": 38.90040416666667, "type": "electric_scooter", "lon": -77.0123215, "bike_id": "c9eece0a97192e2a7234f7245fed5155", "rental_uris": {"android": "https://dc.lft.to/lastmile_qr_scan", "ios": "https://dc.lft.to/lastmile_qr_scan"}, "name": "c9eece0a97192e2a7234f7245fed5155", "is_reserved": 0}, {"is_disabled": 0, "fusion_lon": 0.0, "fusion_lat": 0.0, "lat": 38.9172825, "type": "electric_scooter", "lon": -77.04173416666667, "bike_id": "f8e128966fe58f2066b00e324970fbd9", "rental_uris": {"android": "https://dc.lft.to/lastmile_qr_scan", "ios": "https://dc.lft.to/lastmile_qr_scan"}, "name": "f8e128966fe58f2066b00e324970fbd9", "is_reserved": 0}, {"is_disabled": 0, "fusion_lon": 0.0, "fusion_lat": 0.0, "lat": 38.93399866666667, "type": "electric_scooter", "lon": -77.02736916666667, "bike_id": "eb69d6e90b28e72d7d65884ce2acebd1", "rental_uris": {"android": "https://dc.lft.to/lastmile_qr_scan", "ios": "https://dc.lft.to/lastmile_qr_scan"}, "name": "eb69d6e90b28e72d7d65884ce2acebd1", "is_reserved": 0}, {"is_disabled": 0, "fusion_lon": 0.0, "fusion_lat": 0.0, "lat": 38.90074416666667, "type": "electric_scooter", "lon": -77.03476183333333, "bike_id": "6fa99c0bf04636e30eaa5930a5ecd5af", "rental_uris": {"android": "https://dc.lft.to/lastmile_qr_scan", "ios": "https://dc.lft.to/lastmile_qr_scan"}, "name": "6fa99c0bf04636e30eaa5930a5ecd5af", "is_reserved": 0}, {"is_disabled": 0, "fusion_lon": 0.0, "fusion_lat": 0.0, "lat": 38.895201666666665, "type": "electric_scooter", "lon": -77.028077, "bike_id": "f400dc00c40530941262c540678da8b3", "rental_uris": {"android": "https://dc.lft.to/lastmile_qr_scan", "ios": "https://dc.lft.to/lastmile_qr_scan"}, "name": "f400dc00c40530941262c540678da8b3", "is_reserved": 0}, {"is_disabled": 0, "fusion_lon": 0.0, "fusion_lat": 0.0, "lat": 38.966062666666666, "type": "electric_bike", "lon": -76.98332, "bike_id": "5cdc84bfb1dadbf12540c00bf370617d", "rental_uris": {"android": "https://dc.lft.to/lastmile_qr_scan", "ios": "https://dc.lft.to/lastmile_qr_scan"}, "name": "5cdc84bfb1dadbf12540c00bf370617d", "is_reserved": 0}, {"is_disabled": 0, "fusion_lon": 0.0, "fusion_lat": 0.0, "lat": 38.84842483333333, "type": "electric_bike", "lon": -77.080462, "bike_id": "dc1222a85a73f747f6f20ad3c732bbfb", "rental_uris": {"android": "https://dc.lft.to/lastmile_qr_scan", "ios": "https://dc.lft.to/lastmile_qr_scan"}, "name": "dc1222a85a73f747f6f20ad3c732bbfb", "is_reserved": 0}, {"is_disabled": 0, "fusion_lon": 0.0, "fusion_lat": 0.0, "lat": 38.935623, "type": "electric_scooter", "lon": -77.07356216666666, "bike_id": "507f132fc2f4eb7598713bef73922eae", "rental_uris": {"android": "https://dc.lft.to/lastmile_qr_scan", "ios": "https://dc.lft.to/lastmile_qr_scan"}, "name": "507f132fc2f4eb7598713bef73922eae", "is_reserved": 0}, {"is_disabled": 0, "fusion_lon": 0.0, "fusion_lat": 0.0, "lat": 38.90190783333333, "type": "electric_scooter", "lon": -77.02085583333333, "bike_id": "bf3e0d4dcc6286aa884e6d0d38a0c070", "rental_uris": {"android": "https://dc.lft.to/lastmile_qr_scan", "ios": "https://dc.lft.to/lastmile_qr_scan"}, "name": "bf3e0d4dcc6286aa884e6d0d38a0c070", "is_reserved": 0}, {"is_disabled": 0, "fusion_lon": 0.0, "fusion_lat": 0.0, "lat": 38.9178785, "type": "electric_scooter", "lon": -77.03654116666667, "bike_id": "cf2157c0b70df0879a4d9d83bfb3459a", "rental_uris": {"android": "https://dc.lft.to/lastmile_qr_scan", "ios": "https://dc.lft.to/lastmile_qr_scan"}, "name": "cf2157c0b70df0879a4d9d83bfb3459a", "is_reserved": 0}, {"is_disabled": 0, "fusion_lon": 0.0, "fusion_lat": 0.0, "lat": 38.875729666666665, "type": "electric_scooter", "lon": -77.01992833333334, "bike_id": "813b789d1d270a0eb82693303e93242c", "rental_uris": {"android": "https://dc.lft.to/lastmile_qr_scan", "ios": "https://dc.lft.to/lastmile_qr_scan"}, "name": "813b789d1d270a0eb82693303e93242c", "is_reserved": 0}, {"is_disabled": 0, "fusion_lon": 0.0, "fusion_lat": 0.0, "lat": 38.91709016666667, "type": "electric_scooter", "lon": -77.03234316666666, "bike_id": "a9564117b31d4cf370976d9657779202", "rental_uris": {"android": "https://dc.lft.to/lastmile_qr_scan", "ios": "https://dc.lft.to/lastmile_qr_scan"}, "name": "a9564117b31d4cf370976d9657779202", "is_reserved": 0}, {"is_disabled": 0, "fusion_lon": 0.0, "fusion_lat": 0.0, "lat": 38.9112045, "type": "electric_scooter", "lon": -77.03730983333334, "bike_id": "9a328a853a513abc63a5e432818010b7", "rental_uris": {"android": "https://dc.lft.to/lastmile_qr_scan", "ios": "https://dc.lft.to/lastmile_qr_scan"}, "name": "9a328a853a513abc63a5e432818010b7", "is_reserved": 0}, {"is_disabled": 0, "fusion_lon": 0.0, "fusion_lat": 0.0, "lat": 38.89743266666667, "type": "electric_scooter", "lon": -77.04801483333334, "bike_id": "60b18f36d14f4c3d3f82d755b42bc3bd", "rental_uris": {"android": "https://dc.lft.to/lastmile_qr_scan", "ios": "https://dc.lft.to/lastmile_qr_scan"}, "name": "60b18f36d14f4c3d3f82d755b42bc3bd", "is_reserved": 0}, {"is_disabled": 0, "fusion_lon": 0.0, "fusion_lat": 0.0, "lat": 38.94996483333333, "type": "electric_bike", "lon": -77.35312, "bike_id": "f5558f360aca915255595121b672811e", "rental_uris": {"android": "https://dc.lft.to/lastmile_qr_scan", "ios": "https://dc.lft.to/lastmile_qr_scan"}, "name": "f5558f360aca915255595121b672811e", "is_reserved": 0}, {"is_disabled": 0, "fusion_lon": 0.0, "fusion_lat": 0.0, "lat": 38.876725666666665, "type": "electric_scooter", "lon": -76.93194266666667, "bike_id": "f52d8b9a6ec01eb309fae30e7b1e28ab", "rental_uris": {"android": "https://dc.lft.to/lastmile_qr_scan", "ios": "https://dc.lft.to/lastmile_qr_scan"}, "name": "f52d8b9a6ec01eb309fae30e7b1e28ab", "is_reserved": 0}, {"is_disabled": 0, "fusion_lon": 0.0, "fusion_lat": 0.0, "lat": 38.90040616666667, "type": "electric_scooter", "lon": -77.018764, "bike_id": "fb7ef8da8ce6e8b70a2ab72ae6193ec2", "rental_uris": {"android": "https://dc.lft.to/lastmile_qr_scan", "ios": "https://dc.lft.to/lastmile_qr_scan"}, "name": "fb7ef8da8ce6e8b70a2ab72ae6193ec2", "is_reserved": 0}, {"is_disabled": 0, "fusion_lon": 0.0, "fusion_lat": 0.0, "lat": 38.87825266666667, "type": "electric_scooter", "lon": -76.9631455, "bike_id": "85da10f4e59be6125df98b064e45a4d9", "rental_uris": {"android": "https://dc.lft.to/lastmile_qr_scan", "ios": "https://dc.lft.to/lastmile_qr_scan"}, "name": "85da10f4e59be6125df98b064e45a4d9", "is_reserved": 0}, {"is_disabled": 0, "fusion_lon": 0.0, "fusion_lat": 0.0, "lat": 38.899881, "type": "electric_scooter", "lon": -76.99488083333334, "bike_id": "995231595b03339686d6a682d2fa6fa7", "rental_uris": {"android": "https://dc.lft.to/lastmile_qr_scan", "ios": "https://dc.lft.to/lastmile_qr_scan"}, "name": "995231595b03339686d6a682d2fa6fa7", "is_reserved": 0}, {"is_disabled": 0, "fusion_lon": 0.0, "fusion_lat": 0.0, "lat": 38.93758833333333, "type": "electric_scooter", "lon": -77.02499383333334, "bike_id": "ca09b77a9eb2d5341a4da2996fd5b7e4", "rental_uris": {"android": "https://dc.lft.to/lastmile_qr_scan", "ios": "https://dc.lft.to/lastmile_qr_scan"}, "name": "ca09b77a9eb2d5341a4da2996fd5b7e4", "is_reserved": 0}, {"is_disabled": 0, "fusion_lon": 0.0, "fusion_lat": 0.0, "lat": 38.8873005, "type": "electric_scooter", "lon": -77.01531516666667, "bike_id": "34fcce65207a288cb8a0f97a8705f794", "rental_uris": {"android": "https://dc.lft.to/lastmile_qr_scan", "ios": "https://dc.lft.to/lastmile_qr_scan"}, "name": "34fcce65207a288cb8a0f97a8705f794", "is_reserved": 0}, {"is_disabled": 0, "fusion_lon": 0.0, "fusion_lat": 0.0, "lat": 38.93250833333333, "type": "electric_scooter", "lon": -77.03278716666667, "bike_id": "67e75e8f7ac5a61f5a217b59a12453a3", "rental_uris": {"android": "https://dc.lft.to/lastmile_qr_scan", "ios": "https://dc.lft.to/lastmile_qr_scan"}, "name": "67e75e8f7ac5a61f5a217b59a12453a3", "is_reserved": 0}, {"is_disabled": 0, "fusion_lon": 0.0, "fusion_lat": 0.0, "lat": 38.90681716666667, "type": "electric_bike", "lon": -76.95195783333334, "bike_id": "832c4b95be19a4243a619a2984048d20", "rental_uris": {"android": "https://dc.lft.to/lastmile_qr_scan", "ios": "https://dc.lft.to/lastmile_qr_scan"}, "name": "832c4b95be19a4243a619a2984048d20", "is_reserved": 0}, {"is_disabled": 0, "fusion_lon": 0.0, "fusion_lat": 0.0, "lat": 38.90013016666666, "type": "electric_scooter", "lon": -77.0524435, "bike_id": "7f0a6ae89506bd13c30cbb80d076a4f1", "rental_uris": {"android": "https://dc.lft.to/lastmile_qr_scan", "ios": "https://dc.lft.to/lastmile_qr_scan"}, "name": "7f0a6ae89506bd13c30cbb80d076a4f1", "is_reserved": 0}, {"is_disabled": 0, "fusion_lon": 0.0, "fusion_lat": 0.0, "lat": 38.92946466666667, "type": "electric_scooter", "lon": -77.018894, "bike_id": "7ec8c431bec60f2fa03eb6890d9f5031", "rental_uris": {"android": "https://dc.lft.to/lastmile_qr_scan", "ios": "https://dc.lft.to/lastmile_qr_scan"}, "name": "7ec8c431bec60f2fa03eb6890d9f5031", "is_reserved": 0}, {"is_disabled": 0, "fusion_lon": 0.0, "fusion_lat": 0.0, "lat": 38.90802083333333, "type": "electric_scooter", "lon": -77.031825, "bike_id": "be74447bd3c7986d5bdfa33df758c96e", "rental_uris": {"android": "https://dc.lft.to/lastmile_qr_scan", "ios": "https://dc.lft.to/lastmile_qr_scan"}, "name": "be74447bd3c7986d5bdfa33df758c96e", "is_reserved": 0}, {"is_disabled": 0, "fusion_lon": 0.0, "fusion_lat": 0.0, "lat": 38.90865516666667, "type": "electric_scooter", "lon": -77.02696616666667, "bike_id": "f70ee228586ef7daa380ffdbeb9fdf20", "rental_uris": {"android": "https://dc.lft.to/lastmile_qr_scan", "ios": "https://dc.lft.to/lastmile_qr_scan"}, "name": "f70ee228586ef7daa380ffdbeb9fdf20", "is_reserved": 0}, {"is_disabled": 0, "fusion_lon": 0.0, "fusion_lat": 0.0, "lat": 38.9577335, "type": "electric_bike", "lon": -76.94095766666666, "bike_id": "e7dd20b8eba4dc2fab9d0ccd4e279393", "rental_uris": {"android": "https://dc.lft.to/lastmile_qr_scan", "ios": "https://dc.lft.to/lastmile_qr_scan"}, "name": "e7dd20b8eba4dc2fab9d0ccd4e279393", "is_reserved": 0}, {"is_disabled": 0, "fusion_lon": 0.0, "fusion_lat": 0.0, "lat": 38.91625066666667, "type": "electric_scooter", "lon": -77.021516, "bike_id": "77f2aa28e62d1dba96dcf09d827baa59", "rental_uris": {"android": "https://dc.lft.to/lastmile_qr_scan", "ios": "https://dc.lft.to/lastmile_qr_scan"}, "name": "77f2aa28e62d1dba96dcf09d827baa59", "is_reserved": 0}, {"is_disabled": 0, "fusion_lon": 0.0, "fusion_lat": 0.0, "lat": 38.9195175, "type": "electric_scooter", "lon": -77.016499, "bike_id": "d171750d241bfa5c876ecb07c0cbbc8d", "rental_uris": {"android": "https://dc.lft.to/lastmile_qr_scan", "ios": "https://dc.lft.to/lastmile_qr_scan"}, "name": "d171750d241bfa5c876ecb07c0cbbc8d", "is_reserved": 0}, {"is_disabled": 0, "fusion_lon": 0.0, "fusion_lat": 0.0, "lat": 38.919535833333335, "type": "electric_scooter", "lon": -77.00079516666666, "bike_id": "e294e18d14308d02c0ddf4b9e125387c", "rental_uris": {"android": "https://dc.lft.to/lastmile_qr_scan", "ios": "https://dc.lft.to/lastmile_qr_scan"}, "name": "e294e18d14308d02c0ddf4b9e125387c", "is_reserved": 0}, {"is_disabled": 0, "fusion_lon": 0.0, "fusion_lat": 0.0, "lat": 38.89360166666667, "type": "electric_scooter", "lon": -76.9401585, "bike_id": "675b02d654a45aa50301a4e5aee0346f", "rental_uris": {"android": "https://dc.lft.to/lastmile_qr_scan", "ios": "https://dc.lft.to/lastmile_qr_scan"}, "name": "675b02d654a45aa50301a4e5aee0346f", "is_reserved": 0}, {"is_disabled": 0, "fusion_lon": 0.0, "fusion_lat": 0.0, "lat": 38.880208833333334, "type": "electric_bike", "lon": -76.96071116666667, "bike_id": "5eda6c7fca3f20aa5b20f3eb898f3624", "rental_uris": {"android": "https://dc.lft.to/lastmile_qr_scan", "ios": "https://dc.lft.to/lastmile_qr_scan"}, "name": "5eda6c7fca3f20aa5b20f3eb898f3624", "is_reserved": 0}, {"is_disabled": 0, "fusion_lon": 0.0, "fusion_lat": 0.0, "lat": 38.91031666666667, "type": "electric_scooter", "lon": -77.01376766666667, "bike_id": "26bf7a9d75d69ab70d9431dd99f5b2ff", "rental_uris": {"android": "https://dc.lft.to/lastmile_qr_scan", "ios": "https://dc.lft.to/lastmile_qr_scan"}, "name": "26bf7a9d75d69ab70d9431dd99f5b2ff", "is_reserved": 0}, {"is_disabled": 0, "fusion_lon": 0.0, "fusion_lat": 0.0, "lat": 38.90362316666667, "type": "electric_scooter", "lon": -77.00224616666667, "bike_id": "d63e7904bdcfa8eb36328e23fbd7623e", "rental_uris": {"android": "https://dc.lft.to/lastmile_qr_scan", "ios": "https://dc.lft.to/lastmile_qr_scan"}, "name": "d63e7904bdcfa8eb36328e23fbd7623e", "is_reserved": 0}, {"is_disabled": 0, "fusion_lon": 0.0, "fusion_lat": 0.0, "lat": 38.916471, "type": "electric_scooter", "lon": -77.02183416666666, "bike_id": "8d2b433cb92aef28c3cb5dda522956c1", "rental_uris": {"android": "https://dc.lft.to/lastmile_qr_scan", "ios": "https://dc.lft.to/lastmile_qr_scan"}, "name": "8d2b433cb92aef28c3cb5dda522956c1", "is_reserved": 0}, {"is_disabled": 0, "fusion_lon": 0.0, "fusion_lat": 0.0, "lat": 38.8950425, "type": "electric_scooter", "lon": -77.01124416666667, "bike_id": "906bbc356a868dcc6dcaff77dc789f94", "rental_uris": {"android": "https://dc.lft.to/lastmile_qr_scan", "ios": "https://dc.lft.to/lastmile_qr_scan"}, "name": "906bbc356a868dcc6dcaff77dc789f94", "is_reserved": 0}, {"is_disabled": 0, "fusion_lon": 0.0, "fusion_lat": 0.0, "lat": 38.919143166666665, "type": "electric_scooter", "lon": -77.0301815, "bike_id": "1270eb37f30d82033fdb2b708b7fa565", "rental_uris": {"android": "https://dc.lft.to/lastmile_qr_scan", "ios": "https://dc.lft.to/lastmile_qr_scan"}, "name": "1270eb37f30d82033fdb2b708b7fa565", "is_reserved": 0}, {"is_disabled": 0, "fusion_lon": 0.0, "fusion_lat": 0.0, "lat": 38.90921916666667, "type": "electric_scooter", "lon": -77.032028, "bike_id": "a87ce14d4341cb3dbc63fabbfc324f41", "rental_uris": {"android": "https://dc.lft.to/lastmile_qr_scan", "ios": "https://dc.lft.to/lastmile_qr_scan"}, "name": "a87ce14d4341cb3dbc63fabbfc324f41", "is_reserved": 0}, {"is_disabled": 0, "fusion_lon": 0.0, "fusion_lat": 0.0, "lat": 38.94982066666667, "type": "electric_scooter", "lon": -77.027014, "bike_id": "bcd418e24c5e1a41ede9a0802dc93284", "rental_uris": {"android": "https://dc.lft.to/lastmile_qr_scan", "ios": "https://dc.lft.to/lastmile_qr_scan"}, "name": "bcd418e24c5e1a41ede9a0802dc93284", "is_reserved": 0}, {"is_disabled": 0, "fusion_lon": 0.0, "fusion_lat": 0.0, "lat": 38.89161, "type": "electric_scooter", "lon": -77.01540683333333, "bike_id": "4f5ed313d549e05bc1e5f42c372d4e7e", "rental_uris": {"android": "https://dc.lft.to/lastmile_qr_scan", "ios": "https://dc.lft.to/lastmile_qr_scan"}, "name": "4f5ed313d549e05bc1e5f42c372d4e7e", "is_reserved": 0}, {"is_disabled": 0, "fusion_lon": 0.0, "fusion_lat": 0.0, "lat": 38.892204, "type": "electric_scooter", "lon": -77.0226205, "bike_id": "338903ea34baae176f16d41553197d09", "rental_uris": {"android": "https://dc.lft.to/lastmile_qr_scan", "ios": "https://dc.lft.to/lastmile_qr_scan"}, "name": "338903ea34baae176f16d41553197d09", "is_reserved": 0}, {"is_disabled": 0, "fusion_lon": 0.0, "fusion_lat": 0.0, "lat": 38.90702783333333, "type": "electric_scooter", "lon": -76.9869415, "bike_id": "bc05b8dfeadc6f79f9fb14d610606a91", "rental_uris": {"android": "https://dc.lft.to/lastmile_qr_scan", "ios": "https://dc.lft.to/lastmile_qr_scan"}, "name": "bc05b8dfeadc6f79f9fb14d610606a91", "is_reserved": 0}, {"is_disabled": 0, "fusion_lon": 0.0, "fusion_lat": 0.0, "lat": 38.928490333333336, "type": "electric_scooter", "lon": -77.01410083333333, "bike_id": "d1d952461b7269ec85c87777fbdd03f8", "rental_uris": {"android": "https://dc.lft.to/lastmile_qr_scan", "ios": "https://dc.lft.to/lastmile_qr_scan"}, "name": "d1d952461b7269ec85c87777fbdd03f8", "is_reserved": 0}, {"is_disabled": 0, "fusion_lon": 0.0, "fusion_lat": 0.0, "lat": 38.925330833333334, "type": "electric_scooter", "lon": -77.07657333333333, "bike_id": "48d9496be8c72aa4872929a25fa88558", "rental_uris": {"android": "https://dc.lft.to/lastmile_qr_scan", "ios": "https://dc.lft.to/lastmile_qr_scan"}, "name": "48d9496be8c72aa4872929a25fa88558", "is_reserved": 0}, {"is_disabled": 0, "fusion_lon": 0.0, "fusion_lat": 0.0, "lat": 38.90458566666667, "type": "electric_scooter", "lon": -77.034487, "bike_id": "04d94e48afc60ffd32b00f072cea4d02", "rental_uris": {"android": "https://dc.lft.to/lastmile_qr_scan", "ios": "https://dc.lft.to/lastmile_qr_scan"}, "name": "04d94e48afc60ffd32b00f072cea4d02", "is_reserved": 0}, {"is_disabled": 0, "fusion_lon": 0.0, "fusion_lat": 0.0, "lat": 38.8948015, "type": "electric_scooter", "lon": -76.994119, "bike_id": "c4f42368d348aa42da3b22044e7676ed", "rental_uris": {"android": "https://dc.lft.to/lastmile_qr_scan", "ios": "https://dc.lft.to/lastmile_qr_scan"}, "name": "c4f42368d348aa42da3b22044e7676ed", "is_reserved": 0}, {"is_disabled": 0, "fusion_lon": 0.0, "fusion_lat": 0.0, "lat": 38.899524166666666, "type": "electric_scooter", "lon": -77.04789966666667, "bike_id": "e04bb9ba0de8570f8a03b1e3ce6fa67e", "rental_uris": {"android": "https://dc.lft.to/lastmile_qr_scan", "ios": "https://dc.lft.to/lastmile_qr_scan"}, "name": "e04bb9ba0de8570f8a03b1e3ce6fa67e", "is_reserved": 0}, {"is_disabled": 0, "fusion_lon": 0.0, "fusion_lat": 0.0, "lat": 38.91194016666667, "type": "electric_scooter", "lon": -77.00467633333334, "bike_id": "2325cb43260f884e779483095d4ff89e", "rental_uris": {"android": "https://dc.lft.to/lastmile_qr_scan", "ios": "https://dc.lft.to/lastmile_qr_scan"}, "name": "2325cb43260f884e779483095d4ff89e", "is_reserved": 0}, {"is_disabled": 0, "fusion_lon": 0.0, "fusion_lat": 0.0, "lat": 38.914017666666666, "type": "electric_scooter", "lon": -77.013093, "bike_id": "9ea4cb3196f63f796316ac029746e5b2", "rental_uris": {"android": "https://dc.lft.to/lastmile_qr_scan", "ios": "https://dc.lft.to/lastmile_qr_scan"}, "name": "9ea4cb3196f63f796316ac029746e5b2", "is_reserved": 0}, {"is_disabled": 0, "fusion_lon": 0.0, "fusion_lat": 0.0, "lat": 38.94492983333333, "type": "electric_bike", "lon": -77.00682716666667, "bike_id": "f067aff636f11678775719b6e308be2e", "rental_uris": {"android": "https://dc.lft.to/lastmile_qr_scan", "ios": "https://dc.lft.to/lastmile_qr_scan"}, "name": "f067aff636f11678775719b6e308be2e", "is_reserved": 0}, {"is_disabled": 0, "fusion_lon": 0.0, "fusion_lat": 0.0, "lat": 38.8925125, "type": "electric_scooter", "lon": -76.9985295, "bike_id": "eccbefd6e4de213a948c2192db5d6450", "rental_uris": {"android": "https://dc.lft.to/lastmile_qr_scan", "ios": "https://dc.lft.to/lastmile_qr_scan"}, "name": "eccbefd6e4de213a948c2192db5d6450", "is_reserved": 0}, {"is_disabled": 0, "fusion_lon": 0.0, "fusion_lat": 0.0, "lat": 38.86592066666667, "type": "electric_bike", "lon": -76.9322855, "bike_id": "e3d5cfbcec520a75f518e7efbdd1aed4", "rental_uris": {"android": "https://dc.lft.to/lastmile_qr_scan", "ios": "https://dc.lft.to/lastmile_qr_scan"}, "name": "e3d5cfbcec520a75f518e7efbdd1aed4", "is_reserved": 0}, {"is_disabled": 0, "fusion_lon": 0.0, "fusion_lat": 0.0, "lat": 38.852099333333335, "type": "electric_bike", "lon": -77.12759016666666, "bike_id": "79c064ac80851750ac679d9df65e35da", "rental_uris": {"android": "https://dc.lft.to/lastmile_qr_scan", "ios": "https://dc.lft.to/lastmile_qr_scan"}, "name": "79c064ac80851750ac679d9df65e35da", "is_reserved": 0}, {"is_disabled": 0, "fusion_lon": 0.0, "fusion_lat": 0.0, "lat": 38.9155725, "type": "electric_scooter", "lon": -77.03871283333334, "bike_id": "2338c29ceef124185aeeb29d71a83bef", "rental_uris": {"android": "https://dc.lft.to/lastmile_qr_scan", "ios": "https://dc.lft.to/lastmile_qr_scan"}, "name": "2338c29ceef124185aeeb29d71a83bef", "is_reserved": 0}, {"is_disabled": 0, "fusion_lon": 0.0, "fusion_lat": 0.0, "lat": 38.8996735, "type": "electric_scooter", "lon": -76.987163, "bike_id": "3e1708cacc7538c3f8a2adec57ba7440", "rental_uris": {"android": "https://dc.lft.to/lastmile_qr_scan", "ios": "https://dc.lft.to/lastmile_qr_scan"}, "name": "3e1708cacc7538c3f8a2adec57ba7440", "is_reserved": 0}, {"is_disabled": 0, "fusion_lon": 0.0, "fusion_lat": 0.0, "lat": 38.89750383333333, "type": "electric_scooter", "lon": -77.05109016666667, "bike_id": "63d85d70eab75af7532c0f4e85c74116", "rental_uris": {"android": "https://dc.lft.to/lastmile_qr_scan", "ios": "https://dc.lft.to/lastmile_qr_scan"}, "name": "63d85d70eab75af7532c0f4e85c74116", "is_reserved": 0}, {"is_disabled": 0, "fusion_lon": 0.0, "fusion_lat": 0.0, "lat": 38.90795516666667, "type": "electric_scooter", "lon": -77.04408716666667, "bike_id": "8fe5b0afd40416294cb2899c3e56abe6", "rental_uris": {"android": "https://dc.lft.to/lastmile_qr_scan", "ios": "https://dc.lft.to/lastmile_qr_scan"}, "name": "8fe5b0afd40416294cb2899c3e56abe6", "is_reserved": 0}, {"is_disabled": 0, "fusion_lon": 0.0, "fusion_lat": 0.0, "lat": 38.9182135, "type": "electric_scooter", "lon": -77.028858, "bike_id": "071559717aefc978dbab800d987babad", "rental_uris": {"android": "https://dc.lft.to/lastmile_qr_scan", "ios": "https://dc.lft.to/lastmile_qr_scan"}, "name": "071559717aefc978dbab800d987babad", "is_reserved": 0}, {"is_disabled": 0, "fusion_lon": 0.0, "fusion_lat": 0.0, "lat": 38.922483, "type": "electric_scooter", "lon": -77.030757, "bike_id": "c6168b46bb4f75a35fa9f9732c9ce6c2", "rental_uris": {"android": "https://dc.lft.to/lastmile_qr_scan", "ios": "https://dc.lft.to/lastmile_qr_scan"}, "name": "c6168b46bb4f75a35fa9f9732c9ce6c2", "is_reserved": 0}, {"is_disabled": 0, "fusion_lon": 0.0, "fusion_lat": 0.0, "lat": 38.9455145, "type": "electric_scooter", "lon": -77.04243166666667, "bike_id": "adf7d0293550bffdf6531ca9d5f1758e", "rental_uris": {"android": "https://dc.lft.to/lastmile_qr_scan", "ios": "https://dc.lft.to/lastmile_qr_scan"}, "name": "adf7d0293550bffdf6531ca9d5f1758e", "is_reserved": 0}, {"is_disabled": 0, "fusion_lon": 0.0, "fusion_lat": 0.0, "lat": 38.87922283333333, "type": "electric_scooter", "lon": -77.00050383333334, "bike_id": "2c8c2ac91fb327b472e40000bc9e44fb", "rental_uris": {"android": "https://dc.lft.to/lastmile_qr_scan", "ios": "https://dc.lft.to/lastmile_qr_scan"}, "name": "2c8c2ac91fb327b472e40000bc9e44fb", "is_reserved": 0}, {"is_disabled": 0, "fusion_lon": 0.0, "fusion_lat": 0.0, "lat": 38.83353183333333, "type": "electric_bike", "lon": -76.96556983333333, "bike_id": "c39e83af6d775a722124da7b4297cb5f", "rental_uris": {"android": "https://dc.lft.to/lastmile_qr_scan", "ios": "https://dc.lft.to/lastmile_qr_scan"}, "name": "c39e83af6d775a722124da7b4297cb5f", "is_reserved": 0}, {"is_disabled": 0, "fusion_lon": 0.0, "fusion_lat": 0.0, "lat": 38.9047915, "type": "electric_scooter", "lon": -77.038704, "bike_id": "a120c02af9597e78ab0aa9ec1fc9f260", "rental_uris": {"android": "https://dc.lft.to/lastmile_qr_scan", "ios": "https://dc.lft.to/lastmile_qr_scan"}, "name": "a120c02af9597e78ab0aa9ec1fc9f260", "is_reserved": 0}, {"is_disabled": 0, "fusion_lon": 0.0, "fusion_lat": 0.0, "lat": 38.950574333333336, "type": "electric_bike", "lon": -76.96736566666667, "bike_id": "f4e37e7f51fb2c363fec8374aa34ed6a", "rental_uris": {"android": "https://dc.lft.to/lastmile_qr_scan", "ios": "https://dc.lft.to/lastmile_qr_scan"}, "name": "f4e37e7f51fb2c363fec8374aa34ed6a", "is_reserved": 0}, {"is_disabled": 0, "fusion_lon": 0.0, "fusion_lat": 0.0, "lat": 38.91850066666667, "type": "electric_bike", "lon": -76.96089983333333, "bike_id": "5d36e7c05a7048ac7d2c54318efb881a", "rental_uris": {"android": "https://dc.lft.to/lastmile_qr_scan", "ios": "https://dc.lft.to/lastmile_qr_scan"}, "name": "5d36e7c05a7048ac7d2c54318efb881a", "is_reserved": 0}, {"is_disabled": 0, "fusion_lon": 0.0, "fusion_lat": 0.0, "lat": 38.89233016666667, "type": "electric_scooter", "lon": -77.03176983333333, "bike_id": "ffcf4aa6a507d5816547c66b1ad26017", "rental_uris": {"android": "https://dc.lft.to/lastmile_qr_scan", "ios": "https://dc.lft.to/lastmile_qr_scan"}, "name": "ffcf4aa6a507d5816547c66b1ad26017", "is_reserved": 0}, {"is_disabled": 0, "fusion_lon": 0.0, "fusion_lat": 0.0, "lat": 38.88250333333333, "type": "electric_scooter", "lon": -77.00344883333334, "bike_id": "1538c17517a2e04b776e39904a616e05", "rental_uris": {"android": "https://dc.lft.to/lastmile_qr_scan", "ios": "https://dc.lft.to/lastmile_qr_scan"}, "name": "1538c17517a2e04b776e39904a616e05", "is_reserved": 0}, {"is_disabled": 0, "fusion_lon": 0.0, "fusion_lat": 0.0, "lat": 38.8684415, "type": "electric_bike", "lon": -77.097298, "bike_id": "2e50ad53d8477158e33f6ebd5a7fc816", "rental_uris": {"android": "https://dc.lft.to/lastmile_qr_scan", "ios": "https://dc.lft.to/lastmile_qr_scan"}, "name": "2e50ad53d8477158e33f6ebd5a7fc816", "is_reserved": 0}, {"is_disabled": 0, "fusion_lon": 0.0, "fusion_lat": 0.0, "lat": 38.869091, "type": "electric_scooter", "lon": -77.01376966666666, "bike_id": "f729239caeafc997b3fd0660e8a8a7c8", "rental_uris": {"android": "https://dc.lft.to/lastmile_qr_scan", "ios": "https://dc.lft.to/lastmile_qr_scan"}, "name": "f729239caeafc997b3fd0660e8a8a7c8", "is_reserved": 0}, {"is_disabled": 0, "fusion_lon": 0.0, "fusion_lat": 0.0, "lat": 38.963069, "type": "electric_bike", "lon": -77.05762016666667, "bike_id": "87bf1771be0030ac9c5557a2e4ee53e6", "rental_uris": {"android": "https://dc.lft.to/lastmile_qr_scan", "ios": "https://dc.lft.to/lastmile_qr_scan"}, "name": "87bf1771be0030ac9c5557a2e4ee53e6", "is_reserved": 0}, {"is_disabled": 0, "fusion_lon": 0.0, "fusion_lat": 0.0, "lat": 38.901249166666666, "type": "electric_scooter", "lon": -77.03048783333334, "bike_id": "5a23d19418595881bf492810022fc239", "rental_uris": {"android": "https://dc.lft.to/lastmile_qr_scan", "ios": "https://dc.lft.to/lastmile_qr_scan"}, "name": "5a23d19418595881bf492810022fc239", "is_reserved": 0}, {"is_disabled": 0, "fusion_lon": 0.0, "fusion_lat": 0.0, "lat": 38.88127033333333, "type": "electric_scooter", "lon": -77.0208115, "bike_id": "3280bce93599ea2fd4494a080a4dd65b", "rental_uris": {"android": "https://dc.lft.to/lastmile_qr_scan", "ios": "https://dc.lft.to/lastmile_qr_scan"}, "name": "3280bce93599ea2fd4494a080a4dd65b", "is_reserved": 0}, {"is_disabled": 0, "fusion_lon": 0.0, "fusion_lat": 0.0, "lat": 38.89747933333334, "type": "electric_scooter", "lon": -77.02673833333333, "bike_id": "c6974bb3ea5fe70f736eb785b6e0fe8c", "rental_uris": {"android": "https://dc.lft.to/lastmile_qr_scan", "ios": "https://dc.lft.to/lastmile_qr_scan"}, "name": "c6974bb3ea5fe70f736eb785b6e0fe8c", "is_reserved": 0}, {"is_disabled": 0, "fusion_lon": 0.0, "fusion_lat": 0.0, "lat": 38.923433333333335, "type": "electric_bike", "lon": -76.992448, "bike_id": "966b0ddc76c563126a2ace770d725e52", "rental_uris": {"android": "https://dc.lft.to/lastmile_qr_scan", "ios": "https://dc.lft.to/lastmile_qr_scan"}, "name": "966b0ddc76c563126a2ace770d725e52", "is_reserved": 0}, {"is_disabled": 0, "fusion_lon": 0.0, "fusion_lat": 0.0, "lat": 38.89663, "type": "electric_scooter", "lon": -77.011898, "bike_id": "c61ceec5fffb8f387264273c046be8c3", "rental_uris": {"android": "https://dc.lft.to/lastmile_qr_scan", "ios": "https://dc.lft.to/lastmile_qr_scan"}, "name": "c61ceec5fffb8f387264273c046be8c3", "is_reserved": 0}, {"is_disabled": 0, "fusion_lon": 0.0, "fusion_lat": 0.0, "lat": 38.90362316666667, "type": "electric_scooter", "lon": -77.02232533333333, "bike_id": "c843e5208741aa8d26ee25f911c13ec4", "rental_uris": {"android": "https://dc.lft.to/lastmile_qr_scan", "ios": "https://dc.lft.to/lastmile_qr_scan"}, "name": "c843e5208741aa8d26ee25f911c13ec4", "is_reserved": 0}, {"is_disabled": 0, "fusion_lon": 0.0, "fusion_lat": 0.0, "lat": 38.884126333333334, "type": "electric_scooter", "lon": -77.032989, "bike_id": "09a062acf26f431647b8767a3271c3a2", "rental_uris": {"android": "https://dc.lft.to/lastmile_qr_scan", "ios": "https://dc.lft.to/lastmile_qr_scan"}, "name": "09a062acf26f431647b8767a3271c3a2", "is_reserved": 0}, {"is_disabled": 0, "fusion_lon": 0.0, "fusion_lat": 0.0, "lat": 38.9908055, "type": "electric_bike", "lon": -77.0237485, "bike_id": "8646d1ea7459d458e9ee94972443099e", "rental_uris": {"android": "https://dc.lft.to/lastmile_qr_scan", "ios": "https://dc.lft.to/lastmile_qr_scan"}, "name": "8646d1ea7459d458e9ee94972443099e", "is_reserved": 0}, {"is_disabled": 0, "fusion_lon": 0.0, "fusion_lat": 0.0, "lat": 38.9179005, "type": "electric_scooter", "lon": -77.04361316666666, "bike_id": "a5972fa54f02fe56de0a6f4af065fb20", "rental_uris": {"android": "https://dc.lft.to/lastmile_qr_scan", "ios": "https://dc.lft.to/lastmile_qr_scan"}, "name": "a5972fa54f02fe56de0a6f4af065fb20", "is_reserved": 0}, {"is_disabled": 0, "fusion_lon": 0.0, "fusion_lat": 0.0, "lat": 38.9052265, "type": "electric_scooter", "lon": -77.04743, "bike_id": "1552ed3f2a133bce53d113072b56277a", "rental_uris": {"android": "https://dc.lft.to/lastmile_qr_scan", "ios": "https://dc.lft.to/lastmile_qr_scan"}, "name": "1552ed3f2a133bce53d113072b56277a", "is_reserved": 0}, {"is_disabled": 0, "fusion_lon": 0.0, "fusion_lat": 0.0, "lat": 38.90974333333333, "type": "electric_bike", "lon": -77.088277, "bike_id": "315f700f3e0c4dd75abff7217ff06d12", "rental_uris": {"android": "https://dc.lft.to/lastmile_qr_scan", "ios": "https://dc.lft.to/lastmile_qr_scan"}, "name": "315f700f3e0c4dd75abff7217ff06d12", "is_reserved": 0}, {"is_disabled": 0, "fusion_lon": 0.0, "fusion_lat": 0.0, "lat": 38.905132333333334, "type": "electric_scooter", "lon": -77.03448283333333, "bike_id": "af077eb5817747cd241a054440a52749", "rental_uris": {"android": "https://dc.lft.to/lastmile_qr_scan", "ios": "https://dc.lft.to/lastmile_qr_scan"}, "name": "af077eb5817747cd241a054440a52749", "is_reserved": 0}, {"is_disabled": 0, "fusion_lon": 0.0, "fusion_lat": 0.0, "lat": 38.90369116666667, "type": "electric_scooter", "lon": -77.0162365, "bike_id": "714337c695f7a2484296b3a077bd6aac", "rental_uris": {"android": "https://dc.lft.to/lastmile_qr_scan", "ios": "https://dc.lft.to/lastmile_qr_scan"}, "name": "714337c695f7a2484296b3a077bd6aac", "is_reserved": 0}, {"is_disabled": 0, "fusion_lon": 0.0, "fusion_lat": 0.0, "lat": 38.88737166666667, "type": "electric_scooter", "lon": -77.015355, "bike_id": "a4a3f15556ea017a7106b4bce9b5aaf8", "rental_uris": {"android": "https://dc.lft.to/lastmile_qr_scan", "ios": "https://dc.lft.to/lastmile_qr_scan"}, "name": "a4a3f15556ea017a7106b4bce9b5aaf8", "is_reserved": 0}, {"is_disabled": 0, "fusion_lon": 0.0, "fusion_lat": 0.0, "lat": 38.89910016666666, "type": "electric_scooter", "lon": -77.03283533333334, "bike_id": "b0887d0af3f2f9f4bef7fccbf5ee1333", "rental_uris": {"android": "https://dc.lft.to/lastmile_qr_scan", "ios": "https://dc.lft.to/lastmile_qr_scan"}, "name": "b0887d0af3f2f9f4bef7fccbf5ee1333", "is_reserved": 0}, {"is_disabled": 0, "fusion_lon": 0.0, "fusion_lat": 0.0, "lat": 38.90159516666667, "type": "electric_scooter", "lon": -77.04005133333334, "bike_id": "e647375205c1a542baf83f5592fd7a63", "rental_uris": {"android": "https://dc.lft.to/lastmile_qr_scan", "ios": "https://dc.lft.to/lastmile_qr_scan"}, "name": "e647375205c1a542baf83f5592fd7a63", "is_reserved": 0}, {"is_disabled": 0, "fusion_lon": 0.0, "fusion_lat": 0.0, "lat": 38.893530166666665, "type": "electric_scooter", "lon": -76.9846695, "bike_id": "9b7570f1514c5cf217e03657c6905e18", "rental_uris": {"android": "https://dc.lft.to/lastmile_qr_scan", "ios": "https://dc.lft.to/lastmile_qr_scan"}, "name": "9b7570f1514c5cf217e03657c6905e18", "is_reserved": 0}, {"is_disabled": 0, "fusion_lon": 0.0, "fusion_lat": 0.0, "lat": 38.880163333333336, "type": "electric_scooter", "lon": -76.98235383333333, "bike_id": "fefe1841e525548f7dcb903319d2e6f6", "rental_uris": {"android": "https://dc.lft.to/lastmile_qr_scan", "ios": "https://dc.lft.to/lastmile_qr_scan"}, "name": "fefe1841e525548f7dcb903319d2e6f6", "is_reserved": 0}, {"is_disabled": 0, "fusion_lon": 0.0, "fusion_lat": 0.0, "lat": 38.924879, "type": "electric_scooter", "lon": -77.028151, "bike_id": "a6381a615172308310be8334b510ed4f", "rental_uris": {"android": "https://dc.lft.to/lastmile_qr_scan", "ios": "https://dc.lft.to/lastmile_qr_scan"}, "name": "a6381a615172308310be8334b510ed4f", "is_reserved": 0}, {"is_disabled": 0, "fusion_lon": 0.0, "fusion_lat": 0.0, "lat": 38.901397333333335, "type": "electric_scooter", "lon": -77.01201116666667, "bike_id": "df9324c1092c679de08c23618cbb4150", "rental_uris": {"android": "https://dc.lft.to/lastmile_qr_scan", "ios": "https://dc.lft.to/lastmile_qr_scan"}, "name": "df9324c1092c679de08c23618cbb4150", "is_reserved": 0}, {"is_disabled": 0, "fusion_lon": 0.0, "fusion_lat": 0.0, "lat": 38.84195883333334, "type": "electric_bike", "lon": -77.10684416666666, "bike_id": "f256131c9d171ac804ed9ff3fdb93679", "rental_uris": {"android": "https://dc.lft.to/lastmile_qr_scan", "ios": "https://dc.lft.to/lastmile_qr_scan"}, "name": "f256131c9d171ac804ed9ff3fdb93679", "is_reserved": 0}, {"is_disabled": 0, "fusion_lon": 0.0, "fusion_lat": 0.0, "lat": 38.923323333333336, "type": "electric_scooter", "lon": -77.03588566666667, "bike_id": "9e336a35133e66975ab68085b277d3e5", "rental_uris": {"android": "https://dc.lft.to/lastmile_qr_scan", "ios": "https://dc.lft.to/lastmile_qr_scan"}, "name": "9e336a35133e66975ab68085b277d3e5", "is_reserved": 0}, {"is_disabled": 0, "fusion_lon": 0.0, "fusion_lat": 0.0, "lat": 38.89523616666666, "type": "electric_scooter", "lon": -77.02945366666667, "bike_id": "7501317931c3b1d0a3ef0cb58b313bf8", "rental_uris": {"android": "https://dc.lft.to/lastmile_qr_scan", "ios": "https://dc.lft.to/lastmile_qr_scan"}, "name": "7501317931c3b1d0a3ef0cb58b313bf8", "is_reserved": 0}, {"is_disabled": 0, "fusion_lon": 0.0, "fusion_lat": 0.0, "lat": 38.924786833333336, "type": "electric_scooter", "lon": -77.02713116666666, "bike_id": "90d4101b7513fec185a2a478192a606b", "rental_uris": {"android": "https://dc.lft.to/lastmile_qr_scan", "ios": "https://dc.lft.to/lastmile_qr_scan"}, "name": "90d4101b7513fec185a2a478192a606b", "is_reserved": 0}, {"is_disabled": 0, "fusion_lon": 0.0, "fusion_lat": 0.0, "lat": 38.96761033333333, "type": "electric_bike", "lon": -77.091629, "bike_id": "7e47ea54293c6574d06049edddb03f58", "rental_uris": {"android": "https://dc.lft.to/lastmile_qr_scan", "ios": "https://dc.lft.to/lastmile_qr_scan"}, "name": "7e47ea54293c6574d06049edddb03f58", "is_reserved": 0}, {"is_disabled": 0, "fusion_lon": 0.0, "fusion_lat": 0.0, "lat": 38.912673, "type": "electric_scooter", "lon": -77.047794, "bike_id": "752031dca5d36dddd6ee344bdbeb2a58", "rental_uris": {"android": "https://dc.lft.to/lastmile_qr_scan", "ios": "https://dc.lft.to/lastmile_qr_scan"}, "name": "752031dca5d36dddd6ee344bdbeb2a58", "is_reserved": 0}, {"is_disabled": 0, "fusion_lon": 0.0, "fusion_lat": 0.0, "lat": 38.912644, "type": "electric_scooter", "lon": -77.0169475, "bike_id": "a8e2d398064ff1011c4d88a163f94e25", "rental_uris": {"android": "https://dc.lft.to/lastmile_qr_scan", "ios": "https://dc.lft.to/lastmile_qr_scan"}, "name": "a8e2d398064ff1011c4d88a163f94e25", "is_reserved": 0}, {"is_disabled": 0, "fusion_lon": 0.0, "fusion_lat": 0.0, "lat": 38.998405166666664, "type": "electric_bike", "lon": -77.028526, "bike_id": "92b267a031475f7105223f3d3530b2d9", "rental_uris": {"android": "https://dc.lft.to/lastmile_qr_scan", "ios": "https://dc.lft.to/lastmile_qr_scan"}, "name": "92b267a031475f7105223f3d3530b2d9", "is_reserved": 0}, {"is_disabled": 0, "fusion_lon": 0.0, "fusion_lat": 0.0, "lat": 38.91561016666667, "type": "electric_scooter", "lon": -77.041742, "bike_id": "fecbedc15e274c8589ad94c5cfd502da", "rental_uris": {"android": "https://dc.lft.to/lastmile_qr_scan", "ios": "https://dc.lft.to/lastmile_qr_scan"}, "name": "fecbedc15e274c8589ad94c5cfd502da", "is_reserved": 0}, {"is_disabled": 0, "fusion_lon": 0.0, "fusion_lat": 0.0, "lat": 38.928397333333336, "type": "electric_scooter", "lon": -77.014118, "bike_id": "432756a49a1a4d1d49124e4516f2edd7", "rental_uris": {"android": "https://dc.lft.to/lastmile_qr_scan", "ios": "https://dc.lft.to/lastmile_qr_scan"}, "name": "432756a49a1a4d1d49124e4516f2edd7", "is_reserved": 0}, {"is_disabled": 0, "fusion_lon": 0.0, "fusion_lat": 0.0, "lat": 38.8974035, "type": "electric_scooter", "lon": -77.02619633333333, "bike_id": "21fb303a5ce9f3badffd031c0ff0e3ff", "rental_uris": {"android": "https://dc.lft.to/lastmile_qr_scan", "ios": "https://dc.lft.to/lastmile_qr_scan"}, "name": "21fb303a5ce9f3badffd031c0ff0e3ff", "is_reserved": 0}, {"is_disabled": 0, "fusion_lon": 0.0, "fusion_lat": 0.0, "lat": 38.858077, "type": "electric_scooter", "lon": -76.9865715, "bike_id": "90ebfba0f49b0050c3cd280f4d02f230", "rental_uris": {"android": "https://dc.lft.to/lastmile_qr_scan", "ios": "https://dc.lft.to/lastmile_qr_scan"}, "name": "90ebfba0f49b0050c3cd280f4d02f230", "is_reserved": 0}, {"is_disabled": 0, "fusion_lon": 0.0, "fusion_lat": 0.0, "lat": 38.888638, "type": "electric_scooter", "lon": -76.97737416666666, "bike_id": "f42c370e67416b884f05889c23323048", "rental_uris": {"android": "https://dc.lft.to/lastmile_qr_scan", "ios": "https://dc.lft.to/lastmile_qr_scan"}, "name": "f42c370e67416b884f05889c23323048", "is_reserved": 0}, {"is_disabled": 0, "fusion_lon": 0.0, "fusion_lat": 0.0, "lat": 38.8950205, "type": "electric_scooter", "lon": -77.02195316666666, "bike_id": "cbd2d1c6416d6b13b7be971564ee1e48", "rental_uris": {"android": "https://dc.lft.to/lastmile_qr_scan", "ios": "https://dc.lft.to/lastmile_qr_scan"}, "name": "cbd2d1c6416d6b13b7be971564ee1e48", "is_reserved": 0},