{"data": {"bikes": [{"lon": -76.97561283333333, "bike_id": "2bd121f68ba43c78ca567396090f3d5a", "lat": 38.92458033333333, "fusion_lon": 0.0, "fusion_lat": 0.0, "type": "electric_bike", "name": "2bd121f68ba43c78ca567396090f3d5a", "is_disabled": 0, "rental_uris": {"ios": "https://dc.lft.to/lastmile_qr_scan", "android": "https://dc.lft.to/lastmile_qr_scan"}, "is_reserved": 0}, {"lon": -77.02324383333334, "bike_id": "fa5f1967b0098c37c59714a37e69dd45", "lat": 38.93527783333333, "fusion_lon": 0.0, "fusion_lat": 0.0, "type": "electric_scooter", "name": "fa5f1967b0098c37c59714a37e69dd45", "is_disabled": 0, "rental_uris": {"ios": "https://dc.lft.to/lastmile_qr_scan", "android": "https://dc.lft.to/lastmile_qr_scan"}, "is_reserved": 0}, {"lon": -77.00403633333333, "bike_id": "daa2d45adb8674c5107a7b5be7d15186", "lat": 38.9213385, "fusion_lon": 0.0, "fusion_lat": 0.0, "type": "electric_scooter", "name": "daa2d45adb8674c5107a7b5be7d15186", "is_disabled": 0, "rental_uris": {"ios": "https://dc.lft.to/lastmile_qr_scan", "android": "https://dc.lft.to/lastmile_qr_scan"}, "is_reserved": 0}, {"lon": -76.95012666666666, "bike_id": "415fa2544c87eca3231b356ac73fb966", "lat": 38.89383466666666, "fusion_lon": 0.0, "fusion_lat": 0.0, "type": "electric_scooter", "name": "415fa2544c87eca3231b356ac73fb966", "is_disabled": 0, "rental_uris": {"ios": "https://dc.lft.to/lastmile_qr_scan", "android": "https://dc.lft.to/lastmile_qr_scan"}, "is_reserved": 0}, {"lon": -77.0158255, "bike_id": "3a09fe8e5748e22addcf49a605bb601a", "lat": 38.88296966666667, "fusion_lon": 0.0, "fusion_lat": 0.0, "type": "electric_scooter", "name": "3a09fe8e5748e22addcf49a605bb601a", "is_disabled": 0, "rental_uris": {"ios": "https://dc.lft.to/lastmile_qr_scan", "android": "https://dc.lft.to/lastmile_qr_scan"}, "is_reserved": 0}, {"lon": -76.997583, "bike_id": "11123167c2911468fd333f9f0345d479", "lat": 38.9500655, "fusion_lon": 0.0, "fusion_lat": 0.0, "type": "electric_bike", "name": "11123167c2911468fd333f9f0345d479", "is_disabled": 0, "rental_uris": {"ios": "https://dc.lft.to/lastmile_qr_scan", "android": "https://dc.lft.to/lastmile_qr_scan"}, "is_reserved": 0}, {"lon": -77.03272633333333, "bike_id": "f78d7e4b4f08423486f5ebe912f06754", "lat": 38.93767916666667, "fusion_lon": 0.0, "fusion_lat": 0.0, "type": "electric_scooter", "name": "f78d7e4b4f08423486f5ebe912f06754", "is_disabled": 0, "rental_uris": {"ios": "https://dc.lft.to/lastmile_qr_scan", "android": "https://dc.lft.to/lastmile_qr_scan"}, "is_reserved": 0}, {"lon": -77.01092716666666, "bike_id": "6512bb309bd3c0fdd5dfe7110d3035f3", "lat": 38.90863816666667, "fusion_lon": 0.0, "fusion_lat": 0.0, "type": "electric_scooter", "name": "6512bb309bd3c0fdd5dfe7110d3035f3", "is_disabled": 0, "rental_uris": {"ios": "https://dc.lft.to/lastmile_qr_scan", "android": "https://dc.lft.to/lastmile_qr_scan"}, "is_reserved": 0}, {"lon": -77.03257566666667, "bike_id": "bb50d04d786c04a95df57eb34f0555b0", "lat": 38.9313575, "fusion_lon": 0.0, "fusion_lat": 0.0, "type": "electric_scooter", "name": "bb50d04d786c04a95df57eb34f0555b0", "is_disabled": 0, "rental_uris": {"ios": "https://dc.lft.to/lastmile_qr_scan", "android": "https://dc.lft.to/lastmile_qr_scan"}, "is_reserved": 0}, {"lon": -77.01441733333333, "bike_id": "fb9edfd4ab67611b8a6955d521c060f0", "lat": 38.90540166666667, "fusion_lon": 0.0, "fusion_lat": 0.0, "type": "electric_scooter", "name": "fb9edfd4ab67611b8a6955d521c060f0", "is_disabled": 0, "rental_uris": {"ios": "https://dc.lft.to/lastmile_qr_scan", "android": "https://dc.lft.to/lastmile_qr_scan"}, "is_reserved": 0}, {"lon": -76.97859233333334, "bike_id": "3debe3c3321689eb1a30b656983140c8", "lat": 38.9072415, "fusion_lon": 0.0, "fusion_lat": 0.0, "type": "electric_scooter", "name": "3debe3c3321689eb1a30b656983140c8", "is_disabled": 0, "rental_uris": {"ios": "https://dc.lft.to/lastmile_qr_scan", "android": "https://dc.lft.to/lastmile_qr_scan"}, "is_reserved": 0}, {"lon": -77.02090783333334, "bike_id": "e457addce2a66b892ea8aa800fbace35", "lat": 38.92910783333333, "fusion_lon": 0.0, "fusion_lat": 0.0, "type": "electric_scooter", "name": "e457addce2a66b892ea8aa800fbace35", "is_disabled": 0, "rental_uris": {"ios": "https://dc.lft.to/lastmile_qr_scan", "android": "https://dc.lft.to/lastmile_qr_scan"}, "is_reserved": 0}, {"lon": -77.04206266666667, "bike_id": "88baee073edaae5a542ec9c106c0414b", "lat": 38.92057233333333, "fusion_lon": 0.0, "fusion_lat": 0.0, "type": "electric_scooter", "name": "88baee073edaae5a542ec9c106c0414b", "is_disabled": 0, "rental_uris": {"ios": "https://dc.lft.to/lastmile_qr_scan", "android": "https://dc.lft.to/lastmile_qr_scan"}, "is_reserved": 0}, {"lon": -77.057375, "bike_id": "146c0e0b1f9d3a30a862018306113632", "lat": 38.93376466666667, "fusion_lon": 0.0, "fusion_lat": 0.0, "type": "electric_scooter", "name": "146c0e0b1f9d3a30a862018306113632", "is_disabled": 0, "rental_uris": {"ios": "https://dc.lft.to/lastmile_qr_scan", "android": "https://dc.lft.to/lastmile_qr_scan"}, "is_reserved": 0}, {"lon": -76.9823095, "bike_id": "33df92c740f8c4141b1a2416fd1b47ac", "lat": 38.916782833333336, "fusion_lon": 0.0, "fusion_lat": 0.0, "type": "electric_scooter", "name": "33df92c740f8c4141b1a2416fd1b47ac", "is_disabled": 0, "rental_uris": {"ios": "https://dc.lft.to/lastmile_qr_scan", "android": "https://dc.lft.to/lastmile_qr_scan"}, "is_reserved": 0}, {"lon": -77.04416933333333, "bike_id": "c1f199c2882d2531e2729fe964fd457a", "lat": 38.921253166666666, "fusion_lon": 0.0, "fusion_lat": 0.0, "type": "electric_scooter", "name": "c1f199c2882d2531e2729fe964fd457a", "is_disabled": 0, "rental_uris": {"ios": "https://dc.lft.to/lastmile_qr_scan", "android": "https://dc.lft.to/lastmile_qr_scan"}, "is_reserved": 0}, {"lon": -76.99525066666666, "bike_id": "80b32ddae78e90d47d8b77d32d492394", "lat": 38.883730166666666, "fusion_lon": 0.0, "fusion_lat": 0.0, "type": "electric_scooter", "name": "80b32ddae78e90d47d8b77d32d492394", "is_disabled": 0, "rental_uris": {"ios": "https://dc.lft.to/lastmile_qr_scan", "android": "https://dc.lft.to/lastmile_qr_scan"}, "is_reserved": 0}, {"lon": -76.99510383333333, "bike_id": "17c4724ed1b761390dfe0e0c8b046a56", "lat": 38.87782416666667, "fusion_lon": 0.0, "fusion_lat": 0.0, "type": "electric_scooter", "name": "17c4724ed1b761390dfe0e0c8b046a56", "is_disabled": 0, "rental_uris": {"ios": "https://dc.lft.to/lastmile_qr_scan", "android": "https://dc.lft.to/lastmile_qr_scan"}, "is_reserved": 0}, {"lon": -77.00050766666666, "bike_id": "fe1584c5dfb6a8351e44378e00252c37", "lat": 38.895089, "fusion_lon": 0.0, "fusion_lat": 0.0, "type": "electric_scooter", "name": "fe1584c5dfb6a8351e44378e00252c37", "is_disabled": 0, "rental_uris": {"ios": "https://dc.lft.to/lastmile_qr_scan", "android": "https://dc.lft.to/lastmile_qr_scan"}, "is_reserved": 0}, {"lon": -77.03772616666667, "bike_id": "97d4d1498b303b56b5adcbe01cf00e8d", "lat": 38.907767666666665, "fusion_lon": 0.0, "fusion_lat": 0.0, "type": "electric_scooter", "name": "97d4d1498b303b56b5adcbe01cf00e8d", "is_disabled": 0, "rental_uris": {"ios": "https://dc.lft.to/lastmile_qr_scan", "android": "https://dc.lft.to/lastmile_qr_scan"}, "is_reserved": 0}, {"lon": -77.030875, "bike_id": "128c39c4ee81b3322064cd3c9780e964", "lat": 38.9285145, "fusion_lon": 0.0, "fusion_lat": 0.0, "type": "electric_scooter", "name": "128c39c4ee81b3322064cd3c9780e964", "is_disabled": 0, "rental_uris": {"ios": "https://dc.lft.to/lastmile_qr_scan", "android": "https://dc.lft.to/lastmile_qr_scan"}, "is_reserved": 0}, {"lon": -77.012103, "bike_id": "2e58bb7140a9c5da03919add3d6941f4", "lat": 38.92122366666667, "fusion_lon": 0.0, "fusion_lat": 0.0, "type": "electric_scooter", "name": "2e58bb7140a9c5da03919add3d6941f4", "is_disabled": 0, "rental_uris": {"ios": "https://dc.lft.to/lastmile_qr_scan", "android": "https://dc.lft.to/lastmile_qr_scan"}, "is_reserved": 0}, {"lon": -77.05157683333333, "bike_id": "2eefa75046f8ed2061f1f553740f7ffe", "lat": 39.04308733333333, "fusion_lon": 0.0, "fusion_lat": 0.0, "type": "electric_bike", "name": "2eefa75046f8ed2061f1f553740f7ffe", "is_disabled": 0, "rental_uris": {"ios": "https://dc.lft.to/lastmile_qr_scan", "android": "https://dc.lft.to/lastmile_qr_scan"}, "is_reserved": 0}, {"lon": -77.03180283333333, "bike_id": "b4d40ede61eea3e5dbb9d16e650c1b22", "lat": 38.936871833333335, "fusion_lon": 0.0, "fusion_lat": 0.0, "type": "electric_scooter", "name": "b4d40ede61eea3e5dbb9d16e650c1b22", "is_disabled": 0, "rental_uris": {"ios": "https://dc.lft.to/lastmile_qr_scan", "android": "https://dc.lft.to/lastmile_qr_scan"}, "is_reserved": 0}, {"lon": -76.97315083333334, "bike_id": "8a9064f0a5ce51020b2a4166adcf5e3f", "lat": 38.865818833333336, "fusion_lon": 0.0, "fusion_lat": 0.0, "type": "electric_scooter", "name": "8a9064f0a5ce51020b2a4166adcf5e3f", "is_disabled": 0, "rental_uris": {"ios": "https://dc.lft.to/lastmile_qr_scan", "android": "https://dc.lft.to/lastmile_qr_scan"}, "is_reserved": 0}, {"lon": -77.025743, "bike_id": "0b176f5458656733eec007f05f9d11cf", "lat": 38.93082583333333, "fusion_lon": 0.0, "fusion_lat": 0.0, "type": "electric_scooter", "name": "0b176f5458656733eec007f05f9d11cf", "is_disabled": 0, "rental_uris": {"ios": "https://dc.lft.to/lastmile_qr_scan", "android": "https://dc.lft.to/lastmile_qr_scan"}, "is_reserved": 0}, {"lon": -77.01873916666666, "bike_id": "0064f59f0eb0c8252a87451b7a5f6f96", "lat": 38.91826116666667, "fusion_lon": 0.0, "fusion_lat": 0.0, "type": "electric_scooter", "name": "0064f59f0eb0c8252a87451b7a5f6f96", "is_disabled": 0, "rental_uris": {"ios": "https://dc.lft.to/lastmile_qr_scan", "android": "https://dc.lft.to/lastmile_qr_scan"}, "is_reserved": 0}, {"lon": -77.033437, "bike_id": "8dfd8404708c22cda4640f2be1fccd16", "lat": 38.907301333333336, "fusion_lon": 0.0, "fusion_lat": 0.0, "type": "electric_scooter", "name": "8dfd8404708c22cda4640f2be1fccd16", "is_disabled": 0, "rental_uris": {"ios": "https://dc.lft.to/lastmile_qr_scan", "android": "https://dc.lft.to/lastmile_qr_scan"}, "is_reserved": 0}, {"lon": -77.11168066666667, "bike_id": "6c43b588bac0fd2503787bc349e3ac5d", "lat": 38.85515766666666, "fusion_lon": 0.0, "fusion_lat": 0.0, "type": "electric_bike", "name": "6c43b588bac0fd2503787bc349e3ac5d", "is_disabled": 0, "rental_uris": {"ios": "https://dc.lft.to/lastmile_qr_scan", "android": "https://dc.lft.to/lastmile_qr_scan"}, "is_reserved": 0}, {"lon": -77.07254383333333, "bike_id": "481a4e319443c89d355663872c9def2e", "lat": 38.93492916666667, "fusion_lon": 0.0, "fusion_lat": 0.0, "type": "electric_scooter", "name": "481a4e319443c89d355663872c9def2e", "is_disabled": 0, "rental_uris": {"ios": "https://dc.lft.to/lastmile_qr_scan", "android": "https://dc.lft.to/lastmile_qr_scan"}, "is_reserved": 0}, {"lon": -77.10494666666666, "bike_id": "214393d8ebe8bbd277aac09f4223326e", "lat": 38.856126833333335, "fusion_lon": 0.0, "fusion_lat": 0.0, "type": "electric_bike", "name": "214393d8ebe8bbd277aac09f4223326e", "is_disabled": 0, "rental_uris": {"ios": "https://dc.lft.to/lastmile_qr_scan", "android": "https://dc.lft.to/lastmile_qr_scan"}, "is_reserved": 0}, {"lon": -76.93011, "bike_id": "be8800229b28a9f861c74c28835b40f8", "lat": 38.891941333333335, "fusion_lon": 0.0, "fusion_lat": 0.0, "type": "electric_scooter", "name": "be8800229b28a9f861c74c28835b40f8", "is_disabled": 0, "rental_uris": {"ios": "https://dc.lft.to/lastmile_qr_scan", "android": "https://dc.lft.to/lastmile_qr_scan"}, "is_reserved": 0}, {"lon": -77.05697283333333, "bike_id": "12af68467e469c4d8316c5b798642bc4", "lat": 38.937231833333335, "fusion_lon": 0.0, "fusion_lat": 0.0, "type": "electric_scooter", "name": "12af68467e469c4d8316c5b798642bc4", "is_disabled": 0, "rental_uris": {"ios": "https://dc.lft.to/lastmile_qr_scan", "android": "https://dc.lft.to/lastmile_qr_scan"}, "is_reserved": 0}, {"lon": -77.006278, "bike_id": "c31eb58fef7012f6d23d68a7baddc139", "lat": 38.91255833333334, "fusion_lon": 0.0, "fusion_lat": 0.0, "type": "electric_scooter", "name": "c31eb58fef7012f6d23d68a7baddc139", "is_disabled": 0, "rental_uris": {"ios": "https://dc.lft.to/lastmile_qr_scan", "android": "https://dc.lft.to/lastmile_qr_scan"}, "is_reserved": 0}, {"lon": -77.0551945, "bike_id": "b596acc5438b9a70313f1e84f8727d46", "lat": 38.8995785, "fusion_lon": 0.0, "fusion_lat": 0.0, "type": "electric_scooter", "name": "b596acc5438b9a70313f1e84f8727d46", "is_disabled": 0, "rental_uris": {"ios": "https://dc.lft.to/lastmile_qr_scan", "android": "https://dc.lft.to/lastmile_qr_scan"}, "is_reserved": 0}, {"lon": -76.98229383333333, "bike_id": "b71a7e6a3f55dcfbbf8c720d3e87a576", "lat": 38.88649133333333, "fusion_lon": 0.0, "fusion_lat": 0.0, "type": "electric_scooter", "name": "b71a7e6a3f55dcfbbf8c720d3e87a576", "is_disabled": 0, "rental_uris": {"ios": "https://dc.lft.to/lastmile_qr_scan", "android": "https://dc.lft.to/lastmile_qr_scan"}, "is_reserved": 0}, {"lon": -77.03466216666666, "bike_id": "86ddb251f626cbdd2475d9325fce024e", "lat": 38.921575833333335, "fusion_lon": 0.0, "fusion_lat": 0.0, "type": "electric_scooter", "name": "86ddb251f626cbdd2475d9325fce024e", "is_disabled": 0, "rental_uris": {"ios": "https://dc.lft.to/lastmile_qr_scan", "android": "https://dc.lft.to/lastmile_qr_scan"}, "is_reserved": 0}, {"lon": -77.1309935, "bike_id": "70367db564495c0f2c9292161d080e5f", "lat": 39.024424833333335, "fusion_lon": 0.0, "fusion_lat": 0.0, "type": "electric_bike", "name": "70367db564495c0f2c9292161d080e5f", "is_disabled": 0, "rental_uris": {"ios": "https://dc.lft.to/lastmile_qr_scan", "android": "https://dc.lft.to/lastmile_qr_scan"}, "is_reserved": 0}, {"lon": -77.00355066666667, "bike_id": "d234a52ea097b39dcd9d1ad82da1baa3", "lat": 38.88715083333334, "fusion_lon": 0.0, "fusion_lat": 0.0, "type": "electric_scooter", "name": "d234a52ea097b39dcd9d1ad82da1baa3", "is_disabled": 0, "rental_uris": {"ios": "https://dc.lft.to/lastmile_qr_scan", "android": "https://dc.lft.to/lastmile_qr_scan"}, "is_reserved": 0}, {"lon": -77.050922, "bike_id": "c95080764a983f3c4a63c4beeda13a69", "lat": 38.90062283333334, "fusion_lon": 0.0, "fusion_lat": 0.0, "type": "electric_scooter", "name": "c95080764a983f3c4a63c4beeda13a69", "is_disabled": 0, "rental_uris": {"ios": "https://dc.lft.to/lastmile_qr_scan", "android": "https://dc.lft.to/lastmile_qr_scan"}, "is_reserved": 0}, {"lon": -77.03290833333334, "bike_id": "a30e06dedffcafb5d95e25a966169f79", "lat": 38.90970433333333, "fusion_lon": 0.0, "fusion_lat": 0.0, "type": "electric_scooter", "name": "a30e06dedffcafb5d95e25a966169f79", "is_disabled": 0, "rental_uris": {"ios": "https://dc.lft.to/lastmile_qr_scan", "android": "https://dc.lft.to/lastmile_qr_scan"}, "is_reserved": 0}, {"lon": -77.02960083333333, "bike_id": "fa25ac787f556aae2430c145cb10be41", "lat": 38.90659183333333, "fusion_lon": 0.0, "fusion_lat": 0.0, "type": "electric_scooter", "name": "fa25ac787f556aae2430c145cb10be41", "is_disabled": 0, "rental_uris": {"ios": "https://dc.lft.to/lastmile_qr_scan", "android": "https://dc.lft.to/lastmile_qr_scan"}, "is_reserved": 0}, {"lon": -77.003615, "bike_id": "613d3beb67c2b1f0e81d79c3fa146c51", "lat": 38.8973265, "fusion_lon": 0.0, "fusion_lat": 0.0, "type": "electric_scooter", "name": "613d3beb67c2b1f0e81d79c3fa146c51", "is_disabled": 0, "rental_uris": {"ios": "https://dc.lft.to/lastmile_qr_scan", "android": "https://dc.lft.to/lastmile_qr_scan"}, "is_reserved": 0}, {"lon": -76.98016233333334, "bike_id": "a455ea83489b8d3ba3dfa886e473c069", "lat": 38.90337183333333, "fusion_lon": 0.0, "fusion_lat": 0.0, "type": "electric_scooter", "name": "a455ea83489b8d3ba3dfa886e473c069", "is_disabled": 0, "rental_uris": {"ios": "https://dc.lft.to/lastmile_qr_scan", "android": "https://dc.lft.to/lastmile_qr_scan"}, "is_reserved": 0}, {"lon": -77.02068916666667, "bike_id": "4e380e8778eec86091eb995b76e8fcc7", "lat": 38.93262266666667, "fusion_lon": 0.0, "fusion_lat": 0.0, "type": "electric_bike", "name": "4e380e8778eec86091eb995b76e8fcc7", "is_disabled": 0, "rental_uris": {"ios": "https://dc.lft.to/lastmile_qr_scan", "android": "https://dc.lft.to/lastmile_qr_scan"}, "is_reserved": 0}, {"lon": -77.0542675, "bike_id": "0bdb5e6d0be9082d58f4f6cf8d2c9625", "lat": 38.928404, "fusion_lon": 0.0, "fusion_lat": 0.0, "type": "electric_scooter", "name": "0bdb5e6d0be9082d58f4f6cf8d2c9625", "is_disabled": 0, "rental_uris": {"ios": "https://dc.lft.to/lastmile_qr_scan", "android": "https://dc.lft.to/lastmile_qr_scan"}, "is_reserved": 0}, {"lon": -77.01922266666666, "bike_id": "700a7a2787b8f77c6970c7edbbc1b22d", "lat": 38.922163, "fusion_lon": 0.0, "fusion_lat": 0.0, "type": "electric_scooter", "name": "700a7a2787b8f77c6970c7edbbc1b22d", "is_disabled": 0, "rental_uris": {"ios": "https://dc.lft.to/lastmile_qr_scan", "android": "https://dc.lft.to/lastmile_qr_scan"}, "is_reserved": 0}, {"lon": -77.03866516666666, "bike_id": "e014b529847555d761e7b6e27a3f73c3", "lat": 38.94503666666667, "fusion_lon": 0.0, "fusion_lat": 0.0, "type": "electric_scooter", "name": "e014b529847555d761e7b6e27a3f73c3", "is_disabled": 0, "rental_uris": {"ios": "https://dc.lft.to/lastmile_qr_scan", "android": "https://dc.lft.to/lastmile_qr_scan"}, "is_reserved": 0}, {"lon": -77.03413583333334, "bike_id": "92360688f52ca18d6e6868004f555303", "lat": 38.902707166666666, "fusion_lon": 0.0, "fusion_lat": 0.0, "type": "electric_scooter", "name": "92360688f52ca18d6e6868004f555303", "is_disabled": 0, "rental_uris": {"ios": "https://dc.lft.to/lastmile_qr_scan", "android": "https://dc.lft.to/lastmile_qr_scan"}, "is_reserved": 0}, {"lon": -76.93534666666666, "bike_id": "7b31b68437c7b318e3a4d1767a63dd89", "lat": 38.896803166666665, "fusion_lon": 0.0, "fusion_lat": 0.0, "type": "electric_scooter", "name": "7b31b68437c7b318e3a4d1767a63dd89", "is_disabled": 0, "rental_uris": {"ios": "https://dc.lft.to/lastmile_qr_scan", "android": "https://dc.lft.to/lastmile_qr_scan"}, "is_reserved": 0}, {"lon": -76.98104233333333, "bike_id": "eda63525d7706b0d8121e8dd2a1275b1", "lat": 38.89552616666667, "fusion_lon": 0.0, "fusion_lat": 0.0, "type": "electric_scooter", "name": "eda63525d7706b0d8121e8dd2a1275b1", "is_disabled": 0, "rental_uris": {"ios": "https://dc.lft.to/lastmile_qr_scan", "android": "https://dc.lft.to/lastmile_qr_scan"}, "is_reserved": 0}, {"lon": -77.02714133333333, "bike_id": "d42885862ab4de24234c19cc907b7dcb", "lat": 38.92471066666667, "fusion_lon": 0.0, "fusion_lat": 0.0, "type": "electric_scooter", "name": "d42885862ab4de24234c19cc907b7dcb", "is_disabled": 0, "rental_uris": {"ios": "https://dc.lft.to/lastmile_qr_scan", "android": "https://dc.lft.to/lastmile_qr_scan"}, "is_reserved": 0}, {"lon": -76.96154566666667, "bike_id": "2b0e1da05c5cd9ff9f9c4f74221152a7", "lat": 38.883598666666664, "fusion_lon": 0.0, "fusion_lat": 0.0, "type": "electric_scooter", "name": "2b0e1da05c5cd9ff9f9c4f74221152a7", "is_disabled": 0, "rental_uris": {"ios": "https://dc.lft.to/lastmile_qr_scan", "android": "https://dc.lft.to/lastmile_qr_scan"}, "is_reserved": 0}, {"lon": -77.03181633333334, "bike_id": "cad0d77cf46174b9c4db7c439592ff33", "lat": 38.919118, "fusion_lon": 0.0, "fusion_lat": 0.0, "type": "electric_scooter", "name": "cad0d77cf46174b9c4db7c439592ff33", "is_disabled": 0, "rental_uris": {"ios": "https://dc.lft.to/lastmile_qr_scan", "android": "https://dc.lft.to/lastmile_qr_scan"}, "is_reserved": 0}, {"lon": -76.99047583333333, "bike_id": "84c31adb351b6d5a40c7c850040a05a4", "lat": 38.88759016666667, "fusion_lon": 0.0, "fusion_lat": 0.0, "type": "electric_scooter", "name": "84c31adb351b6d5a40c7c850040a05a4", "is_disabled": 0, "rental_uris": {"ios": "https://dc.lft.to/lastmile_qr_scan", "android": "https://dc.lft.to/lastmile_qr_scan"}, "is_reserved": 0}, {"lon": -76.967866, "bike_id": "43e2e7aedf7da95bd6eafad407c6c77d", "lat": 38.86853116666666, "fusion_lon": 0.0, "fusion_lat": 0.0, "type": "electric_scooter", "name": "43e2e7aedf7da95bd6eafad407c6c77d", "is_disabled": 0, "rental_uris": {"ios": "https://dc.lft.to/lastmile_qr_scan", "android": "https://dc.lft.to/lastmile_qr_scan"}, "is_reserved": 0}, {"lon": -77.008038, "bike_id": "31223352e1faefa8074f447b8a566b3c", "lat": 38.90573583333333, "fusion_lon": 0.0, "fusion_lat": 0.0, "type": "electric_scooter", "name": "31223352e1faefa8074f447b8a566b3c", "is_disabled": 0, "rental_uris": {"ios": "https://dc.lft.to/lastmile_qr_scan", "android": "https://dc.lft.to/lastmile_qr_scan"}, "is_reserved": 0}, {"lon": -77.03267366666667, "bike_id": "9e615c25297b45b8ccadb064677569f6", "lat": 38.93206083333333, "fusion_lon": 0.0, "fusion_lat": 0.0, "type": "electric_scooter", "name": "9e615c25297b45b8ccadb064677569f6", "is_disabled": 0, "rental_uris": {"ios": "https://dc.lft.to/lastmile_qr_scan", "android": "https://dc.lft.to/lastmile_qr_scan"}, "is_reserved": 0}, {"lon": -77.022727, "bike_id": "caa48ec03536ded07f6a3f675c9323f9", "lat": 38.91269666666667, "fusion_lon": 0.0, "fusion_lat": 0.0, "type": "electric_scooter", "name": "caa48ec03536ded07f6a3f675c9323f9", "is_disabled": 0, "rental_uris": {"ios": "https://dc.lft.to/lastmile_qr_scan", "android": "https://dc.lft.to/lastmile_qr_scan"}, "is_reserved": 0}, {"lon": -77.11593316666666, "bike_id": "edba9e1580fa5c1d570f03aab39d3ae2", "lat": 39.07495383333333, "fusion_lon": 0.0, "fusion_lat": 0.0, "type": "electric_bike", "name": "edba9e1580fa5c1d570f03aab39d3ae2", "is_disabled": 0, "rental_uris": {"ios": "https://dc.lft.to/lastmile_qr_scan", "android": "https://dc.lft.to/lastmile_qr_scan"}, "is_reserved": 0}, {"lon": -77.036556, "bike_id": "bf658500cf462ca33e1b3d95c9efe317", "lat": 38.9029575, "fusion_lon": 0.0, "fusion_lat": 0.0, "type": "electric_scooter", "name": "bf658500cf462ca33e1b3d95c9efe317", "is_disabled": 0, "rental_uris": {"ios": "https://dc.lft.to/lastmile_qr_scan", "android": "https://dc.lft.to/lastmile_qr_scan"}, "is_reserved": 0}, {"lon": -76.9691235, "bike_id": "264c8fc60e599492d65eb4ec09503e87", "lat": 38.846118833333335, "fusion_lon": 0.0, "fusion_lat": 0.0, "type": "electric_bike", "name": "264c8fc60e599492d65eb4ec09503e87", "is_disabled": 0, "rental_uris": {"ios": "https://dc.lft.to/lastmile_qr_scan", "android": "https://dc.lft.to/lastmile_qr_scan"}, "is_reserved": 0}, {"lon": -77.0266485, "bike_id": "695526b2e317e3aed53557a819ca12ae", "lat": 38.925832666666665, "fusion_lon": 0.0, "fusion_lat": 0.0, "type": "electric_scooter", "name": "695526b2e317e3aed53557a819ca12ae", "is_disabled": 0, "rental_uris": {"ios": "https://dc.lft.to/lastmile_qr_scan", "android": "https://dc.lft.to/lastmile_qr_scan"}, "is_reserved": 0}, {"lon": -77.03870016666667, "bike_id": "ce5ab4748ae5917a933c66fa100b7657", "lat": 38.903564, "fusion_lon": 0.0, "fusion_lat": 0.0, "type": "electric_scooter", "name": "ce5ab4748ae5917a933c66fa100b7657", "is_disabled": 0, "rental_uris": {"ios": "https://dc.lft.to/lastmile_qr_scan", "android": "https://dc.lft.to/lastmile_qr_scan"}, "is_reserved": 0}, {"lon": -76.99928433333334, "bike_id": "5eaa45ebc314b6704d76be47fd3511df", "lat": 38.843154, "fusion_lon": 0.0, "fusion_lat": 0.0, "type": "electric_scooter", "name": "5eaa45ebc314b6704d76be47fd3511df", "is_disabled": 0, "rental_uris": {"ios": "https://dc.lft.to/lastmile_qr_scan", "android": "https://dc.lft.to/lastmile_qr_scan"}, "is_reserved": 0}, {"lon": -76.99055916666667, "bike_id": "7abb056851db89363087841944e24c6f", "lat": 38.863797, "fusion_lon": 0.0, "fusion_lat": 0.0, "type": "electric_scooter", "name": "7abb056851db89363087841944e24c6f", "is_disabled": 0, "rental_uris": {"ios": "https://dc.lft.to/lastmile_qr_scan", "android": "https://dc.lft.to/lastmile_qr_scan"}, "is_reserved": 0}, {"lon": -77.03640033333333, "bike_id": "c9b6c3efd83f42a147a30f78801201e2", "lat": 38.91248066666667, "fusion_lon": 0.0, "fusion_lat": 0.0, "type": "electric_scooter", "name": "c9b6c3efd83f42a147a30f78801201e2", "is_disabled": 0, "rental_uris": {"ios": "https://dc.lft.to/lastmile_qr_scan", "android": "https://dc.lft.to/lastmile_qr_scan"}, "is_reserved": 0}, {"lon": -76.99071016666667, "bike_id": "3eb6781ea7adb0c437678e0019193232", "lat": 38.927496, "fusion_lon": 0.0, "fusion_lat": 0.0, "type": "electric_scooter", "name": "3eb6781ea7adb0c437678e0019193232", "is_disabled": 0, "rental_uris": {"ios": "https://dc.lft.to/lastmile_qr_scan", "android": "https://dc.lft.to/lastmile_qr_scan"}, "is_reserved": 0}, {"lon": -77.0318435, "bike_id": "622491d09dc342cec0dfc85b337bca45", "lat": 38.913495833333336, "fusion_lon": 0.0, "fusion_lat": 0.0, "type": "electric_scooter", "name": "622491d09dc342cec0dfc85b337bca45", "is_disabled": 0, "rental_uris": {"ios": "https://dc.lft.to/lastmile_qr_scan", "android": "https://dc.lft.to/lastmile_qr_scan"}, "is_reserved": 0}, {"lon": -77.0732135, "bike_id": "414cd820b4b33abf290b69bfbf83aed9", "lat": 38.92411833333333, "fusion_lon": 0.0, "fusion_lat": 0.0, "type": "electric_scooter", "name": "414cd820b4b33abf290b69bfbf83aed9", "is_disabled": 0, "rental_uris": {"ios": "https://dc.lft.to/lastmile_qr_scan", "android": "https://dc.lft.to/lastmile_qr_scan"}, "is_reserved": 0}, {"lon": -77.0137045, "bike_id": "0be69d6b986146aac93b34c13ffe8af7", "lat": 38.886795166666666, "fusion_lon": 0.0, "fusion_lat": 0.0, "type": "electric_scooter", "name": "0be69d6b986146aac93b34c13ffe8af7", "is_disabled": 0, "rental_uris": {"ios": "https://dc.lft.to/lastmile_qr_scan", "android": "https://dc.lft.to/lastmile_qr_scan"}, "is_reserved": 0}, {"lon": -77.00985016666667, "bike_id": "55f9b2cfc8234a24a2ca26717182c78c", "lat": 38.89494883333333, "fusion_lon": 0.0, "fusion_lat": 0.0, "type": "electric_scooter", "name": "55f9b2cfc8234a24a2ca26717182c78c", "is_disabled": 0, "rental_uris": {"ios": "https://dc.lft.to/lastmile_qr_scan", "android": "https://dc.lft.to/lastmile_qr_scan"}, "is_reserved": 0}, {"lon": -76.98348383333334, "bike_id": "cedc1de12fdc163f537da12ab49e74ce", "lat": 38.90454233333333, "fusion_lon": 0.0, "fusion_lat": 0.0, "type": "electric_scooter", "name": "cedc1de12fdc163f537da12ab49e74ce", "is_disabled": 0, "rental_uris": {"ios": "https://dc.lft.to/lastmile_qr_scan", "android": "https://dc.lft.to/lastmile_qr_scan"}, "is_reserved": 0}, {"lon": -77.03326016666666, "bike_id": "d9e3d765b4e6da24903d64b7166716e3", "lat": 38.919741333333334, "fusion_lon": 0.0, "fusion_lat": 0.0, "type": "electric_scooter", "name": "d9e3d765b4e6da24903d64b7166716e3", "is_disabled": 0, "rental_uris": {"ios": "https://dc.lft.to/lastmile_qr_scan", "android": "https://dc.lft.to/lastmile_qr_scan"}, "is_reserved": 0}, {"lon": -77.021869, "bike_id": "50a53eb505689da2631eb4630e2b1814", "lat": 38.9003585, "fusion_lon": 0.0, "fusion_lat": 0.0, "type": "electric_scooter", "name": "50a53eb505689da2631eb4630e2b1814", "is_disabled": 0, "rental_uris": {"ios": "https://dc.lft.to/lastmile_qr_scan", "android": "https://dc.lft.to/lastmile_qr_scan"}, "is_reserved": 0}, {"lon": -77.05857466666667, "bike_id": "18b428f39db8e2bb280df3211d47ca43", "lat": 38.936056666666666, "fusion_lon": 0.0, "fusion_lat": 0.0, "type": "electric_scooter", "name": "18b428f39db8e2bb280df3211d47ca43", "is_disabled": 0, "rental_uris": {"ios": "https://dc.lft.to/lastmile_qr_scan", "android": "https://dc.lft.to/lastmile_qr_scan"}, "is_reserved": 0}, {"lon": -76.94924066666667, "bike_id": "d3a20f35f763db14a6cd629e30be321f", "lat": 38.89356083333333, "fusion_lon": 0.0, "fusion_lat": 0.0, "type": "electric_scooter", "name": "d3a20f35f763db14a6cd629e30be321f", "is_disabled": 0, "rental_uris": {"ios": "https://dc.lft.to/lastmile_qr_scan", "android": "https://dc.lft.to/lastmile_qr_scan"}, "is_reserved": 0}, {"lon": -77.04019716666667, "bike_id": "9b97329f17916437d021569ec0e091b4", "lat": 38.92395, "fusion_lon": 0.0, "fusion_lat": 0.0, "type": "electric_scooter", "name": "9b97329f17916437d021569ec0e091b4", "is_disabled": 0, "rental_uris": {"ios": "https://dc.lft.to/lastmile_qr_scan", "android": "https://dc.lft.to/lastmile_qr_scan"}, "is_reserved": 0}, {"lon": -77.00018466666667, "bike_id": "6d043059c72529b12a9f698523c79a75", "lat": 38.91979166666667, "fusion_lon": 0.0, "fusion_lat": 0.0, "type": "electric_scooter", "name": "6d043059c72529b12a9f698523c79a75", "is_disabled": 0, "rental_uris": {"ios": "https://dc.lft.to/lastmile_qr_scan", "android": "https://dc.lft.to/lastmile_qr_scan"}, "is_reserved": 0}, {"lon": -77.07432316666667, "bike_id": "40aaccc58e1cf4de89cb1abcdbfe0d26", "lat": 38.999474, "fusion_lon": 0.0, "fusion_lat": 0.0, "type": "electric_bike", "name": "40aaccc58e1cf4de89cb1abcdbfe0d26", "is_disabled": 0, "rental_uris": {"ios": "https://dc.lft.to/lastmile_qr_scan", "android": "https://dc.lft.to/lastmile_qr_scan"}, "is_reserved": 0}, {"lon": -77.020283, "bike_id": "b717c6a422442850151a19322ef1d2a3", "lat": 38.924434166666664, "fusion_lon": 0.0, "fusion_lat": 0.0, "type": "electric_scooter", "name": "b717c6a422442850151a19322ef1d2a3", "is_disabled": 0, "rental_uris": {"ios": "https://dc.lft.to/lastmile_qr_scan", "android": "https://dc.lft.to/lastmile_qr_scan"}, "is_reserved": 0}, {"lon": -77.00603666666666, "bike_id": "6ed9f8faf14b13e83d91614729df699a", "lat": 38.906405666666664, "fusion_lon": 0.0, "fusion_lat": 0.0, "type": "electric_bike", "name": "6ed9f8faf14b13e83d91614729df699a", "is_disabled": 0, "rental_uris": {"ios": "https://dc.lft.to/lastmile_qr_scan", "android": "https://dc.lft.to/lastmile_qr_scan"}, "is_reserved": 0}, {"lon": -76.98720333333333, "bike_id": "ed7cc219d5216002acf797e4d88c4ae6", "lat": 38.8663035, "fusion_lon": 0.0, "fusion_lat": 0.0, "type": "electric_scooter", "name": "ed7cc219d5216002acf797e4d88c4ae6", "is_disabled": 0, "rental_uris": {"ios": "https://dc.lft.to/lastmile_qr_scan", "android": "https://dc.lft.to/lastmile_qr_scan"}, "is_reserved": 0}, {"lon": -77.02532833333333, "bike_id": "6ad431b51aacf855ba1a4c06abaa6469", "lat": 38.927458, "fusion_lon": 0.0, "fusion_lat": 0.0, "type": "electric_scooter", "name": "6ad431b51aacf855ba1a4c06abaa6469", "is_disabled": 0, "rental_uris": {"ios": "https://dc.lft.to/lastmile_qr_scan", "android": "https://dc.lft.to/lastmile_qr_scan"}, "is_reserved": 0}, {"lon": -77.03432416666666, "bike_id": "2f4e69b84e66598e1443bab041494287", "lat": 38.91929433333333, "fusion_lon": 0.0, "fusion_lat": 0.0, "type": "electric_scooter", "name": "2f4e69b84e66598e1443bab041494287", "is_disabled": 0, "rental_uris": {"ios": "https://dc.lft.to/lastmile_qr_scan", "android": "https://dc.lft.to/lastmile_qr_scan"}, "is_reserved": 0}, {"lon": -77.04225783333334, "bike_id": "0d7c66e221b4d39704f288d5622a4b9f", "lat": 38.91701033333333, "fusion_lon": 0.0, "fusion_lat": 0.0, "type": "electric_scooter", "name": "0d7c66e221b4d39704f288d5622a4b9f", "is_disabled": 0, "rental_uris": {"ios": "https://dc.lft.to/lastmile_qr_scan", "android": "https://dc.lft.to/lastmile_qr_scan"}, "is_reserved": 0}, {"lon": -77.01011066666666, "bike_id": "1c91d9ba30160894eff182932b481868", "lat": 38.89478183333333, "fusion_lon": 0.0, "fusion_lat": 0.0, "type": "electric_scooter", "name": "1c91d9ba30160894eff182932b481868", "is_disabled": 0, "rental_uris": {"ios": "https://dc.lft.to/lastmile_qr_scan", "android": "https://dc.lft.to/lastmile_qr_scan"}, "is_reserved": 0}, {"lon": -77.02626416666666, "bike_id": "ed24c180c7af125543ff4579054b4d5c", "lat": 38.9622125, "fusion_lon": 0.0, "fusion_lat": 0.0, "type": "electric_bike", "name": "ed24c180c7af125543ff4579054b4d5c", "is_disabled": 0, "rental_uris": {"ios": "https://dc.lft.to/lastmile_qr_scan", "android": "https://dc.lft.to/lastmile_qr_scan"}, "is_reserved": 0}, {"lon": -76.99531283333333, "bike_id": "501a04b43ed955ca6280b4ce1e4e3b44", "lat": 38.883736, "fusion_lon": 0.0, "fusion_lat": 0.0, "type": "electric_scooter", "name": "501a04b43ed955ca6280b4ce1e4e3b44", "is_disabled": 0, "rental_uris": {"ios": "https://dc.lft.to/lastmile_qr_scan", "android": "https://dc.lft.to/lastmile_qr_scan"}, "is_reserved": 0}, {"lon": -77.01907233333333, "bike_id": "f4c9d65be9bf55257ba37ea7f3ed7367", "lat": 38.886218166666666, "fusion_lon": 0.0, "fusion_lat": 0.0, "type": "electric_scooter", "name": "f4c9d65be9bf55257ba37ea7f3ed7367", "is_disabled": 0, "rental_uris": {"ios": "https://dc.lft.to/lastmile_qr_scan", "android": "https://dc.lft.to/lastmile_qr_scan"}, "is_reserved": 0}, {"lon": -77.0236985, "bike_id": "7146e3c280e1084ac7c2e1d0c7ed5f60", "lat": 38.89222383333333, "fusion_lon": 0.0, "fusion_lat": 0.0, "type": "electric_scooter", "name": "7146e3c280e1084ac7c2e1d0c7ed5f60", "is_disabled": 0, "rental_uris": {"ios": "https://dc.lft.to/lastmile_qr_scan", "android": "https://dc.lft.to/lastmile_qr_scan"}, "is_reserved": 0}, {"lon": -77.05429633333334, "bike_id": "8def48143baf5c1837eda48cfae06dea", "lat": 38.92847166666667, "fusion_lon": 0.0, "fusion_lat": 0.0, "type": "electric_scooter", "name": "8def48143baf5c1837eda48cfae06dea", "is_disabled": 0, "rental_uris": {"ios": "https://dc.lft.to/lastmile_qr_scan", "android": "https://dc.lft.to/lastmile_qr_scan"}, "is_reserved": 0}, {"lon": -76.99680283333333, "bike_id": "541bbeead8a45f5516c2c1ef1c6ae516", "lat": 38.86018266666667, "fusion_lon": 0.0, "fusion_lat": 0.0, "type": "electric_scooter", "name": "541bbeead8a45f5516c2c1ef1c6ae516", "is_disabled": 0, "rental_uris": {"ios": "https://dc.lft.to/lastmile_qr_scan", "android": "https://dc.lft.to/lastmile_qr_scan"}, "is_reserved": 0}, {"lon": -77.04784883333333, "bike_id": "646e04d8a56e22136ca14cdc75756bdf", "lat": 38.8294265, "fusion_lon": 0.0, "fusion_lat": 0.0, "type": "electric_bike", "name": "646e04d8a56e22136ca14cdc75756bdf", "is_disabled": 0, "rental_uris": {"ios": "https://dc.lft.to/lastmile_qr_scan", "android": "https://dc.lft.to/lastmile_qr_scan"}, "is_reserved": 0}, {"lon": -77.0507015, "bike_id": "0ee3e8c6e05c040ad125bac08040388f", "lat": 38.907272666666664, "fusion_lon": 0.0, "fusion_lat": 0.0, "type": "electric_scooter", "name": "0ee3e8c6e05c040ad125bac08040388f", "is_disabled": 0, "rental_uris": {"ios": "https://dc.lft.to/lastmile_qr_scan", "android": "https://dc.lft.to/lastmile_qr_scan"}, "is_reserved": 0}, {"lon": -77.07117533333333, "bike_id": "8b94d6c07e128b3a7e5a147b5eb95483", "lat": 38.919753, "fusion_lon": 0.0, "fusion_lat": 0.0, "type": "electric_scooter", "name": "8b94d6c07e128b3a7e5a147b5eb95483", "is_disabled": 0, "rental_uris": {"ios": "https://dc.lft.to/lastmile_qr_scan", "android": "https://dc.lft.to/lastmile_qr_scan"}, "is_reserved": 0}, {"lon": -77.03659583333334, "bike_id": "c9dcd383079ec17991a9001a864eb278", "lat": 38.92115483333333, "fusion_lon": 0.0, "fusion_lat": 0.0, "type": "electric_scooter", "name": "c9dcd383079ec17991a9001a864eb278", "is_disabled": 0, "rental_uris": {"ios": "https://dc.lft.to/lastmile_qr_scan", "android": "https://dc.lft.to/lastmile_qr_scan"}, "is_reserved": 0}, {"lon": -76.97524666666666, "bike_id": "683963c6f5a1b21391e40de5e83d14df", "lat": 38.966991666666665, "fusion_lon": 0.0, "fusion_lat": 0.0, "type": "electric_bike", "name": "683963c6f5a1b21391e40de5e83d14df", "is_disabled": 0, "rental_uris": {"ios": "https://dc.lft.to/lastmile_qr_scan", "android": "https://dc.lft.to/lastmile_qr_scan"}, "is_reserved": 0}, {"lon": -77.0488055, "bike_id": "062301b20768d04d9ee3bf06de3baf08", "lat": 38.904051833333334, "fusion_lon": 0.0, "fusion_lat": 0.0, "type": "electric_scooter", "name": "062301b20768d04d9ee3bf06de3baf08", "is_disabled": 0, "rental_uris": {"ios": "https://dc.lft.to/lastmile_qr_scan", "android": "https://dc.lft.to/lastmile_qr_scan"}, "is_reserved": 0}, {"lon": -77.053131, "bike_id": "d32d923577d689d807917ed9333a59b8", "lat": 38.900763166666664, "fusion_lon": 0.0, "fusion_lat": 0.0, "type": "electric_scooter", "name": "d32d923577d689d807917ed9333a59b8", "is_disabled": 0, "rental_uris": {"ios": "https://dc.lft.to/lastmile_qr_scan", "android": "https://dc.lft.to/lastmile_qr_scan"}, "is_reserved": 0}, {"lon": -76.99646983333334, "bike_id": "76de4139fc3fd013fcbc83ac78003abc", "lat": 38.98821783333333, "fusion_lon": 0.0, "fusion_lat": 0.0, "type": "electric_bike", "name": "76de4139fc3fd013fcbc83ac78003abc", "is_disabled": 0, "rental_uris": {"ios": "https://dc.lft.to/lastmile_qr_scan", "android": "https://dc.lft.to/lastmile_qr_scan"}, "is_reserved": 0}, {"lon": -77.020873, "bike_id": "067af7d4162995132d15e4efa3cf07fb", "lat": 38.957420166666665, "fusion_lon": 0.0, "fusion_lat": 0.0, "type": "electric_scooter", "name": "067af7d4162995132d15e4efa3cf07fb", "is_disabled": 0, "rental_uris": {"ios": "https://dc.lft.to/lastmile_qr_scan", "android": "https://dc.lft.to/lastmile_qr_scan"}, "is_reserved": 0}, {"lon": -77.041558, "bike_id": "9e27f09ddf63269d572c56bf1a1bb793", "lat": 38.907388833333336, "fusion_lon": 0.0, "fusion_lat": 0.0, "type": "electric_scooter", "name": "9e27f09ddf63269d572c56bf1a1bb793", "is_disabled": 0, "rental_uris": {"ios": "https://dc.lft.to/lastmile_qr_scan", "android": "https://dc.lft.to/lastmile_qr_scan"}, "is_reserved": 0}, {"lon": -76.98086783333333, "bike_id": "ddaf50348b027e5f9582e0acc9d9446b", "lat": 38.88427933333333, "fusion_lon": 0.0, "fusion_lat": 0.0, "type": "electric_scooter", "name": "ddaf50348b027e5f9582e0acc9d9446b", "is_disabled": 0, "rental_uris": {"ios": "https://dc.lft.to/lastmile_qr_scan", "android": "https://dc.lft.to/lastmile_qr_scan"}, "is_reserved": 0}, {"lon": -77.048943, "bike_id": "d37f0d624389f82d32605e08f8403b6f", "lat": 38.9161535, "fusion_lon": 0.0, "fusion_lat": 0.0, "type": "electric_scooter", "name": "d37f0d624389f82d32605e08f8403b6f", "is_disabled": 0, "rental_uris": {"ios": "https://dc.lft.to/lastmile_qr_scan", "android": "https://dc.lft.to/lastmile_qr_scan"}, "is_reserved": 0}, {"lon": -77.03225033333334, "bike_id": "3332c6e4782e4e68657dccf1c8ad6557", "lat": 38.89224016666667, "fusion_lon": 0.0, "fusion_lat": 0.0, "type": "electric_scooter", "name": "3332c6e4782e4e68657dccf1c8ad6557", "is_disabled": 0, "rental_uris": {"ios": "https://dc.lft.to/lastmile_qr_scan", "android": "https://dc.lft.to/lastmile_qr_scan"}, "is_reserved": 0}, {"lon": -77.03637616666667, "bike_id": "06d0e83bdb89ada4e7f7f3dc65c984b8", "lat": 38.912363, "fusion_lon": 0.0, "fusion_lat": 0.0, "type": "electric_scooter", "name": "06d0e83bdb89ada4e7f7f3dc65c984b8", "is_disabled": 0, "rental_uris": {"ios": "https://dc.lft.to/lastmile_qr_scan", "android": "https://dc.lft.to/lastmile_qr_scan"}, "is_reserved": 0}, {"lon": -76.983557, "bike_id": "3004dd8449a2001749a589773407c9b2", "lat": 38.902887666666665, "fusion_lon": 0.0, "fusion_lat": 0.0, "type": "electric_scooter", "name": "3004dd8449a2001749a589773407c9b2", "is_disabled": 0, "rental_uris": {"ios": "https://dc.lft.to/lastmile_qr_scan", "android": "https://dc.lft.to/lastmile_qr_scan"}, "is_reserved": 0}, {"lon": -77.05861916666667, "bike_id": "c7bf24e1e514b9f727a582825945ddc4", "lat": 38.936079, "fusion_lon": 0.0, "fusion_lat": 0.0, "type": "electric_scooter", "name": "c7bf24e1e514b9f727a582825945ddc4", "is_disabled": 0, "rental_uris": {"ios": "https://dc.lft.to/lastmile_qr_scan", "android": "https://dc.lft.to/lastmile_qr_scan"}, "is_reserved": 0}, {"lon": -76.97335566666666, "bike_id": "9e0b410cdbfd3547102fba689668307c", "lat": 38.86523866666667, "fusion_lon": 0.0, "fusion_lat": 0.0, "type": "electric_bike", "name": "9e0b410cdbfd3547102fba689668307c", "is_disabled": 0, "rental_uris": {"ios": "https://dc.lft.to/lastmile_qr_scan", "android": "https://dc.lft.to/lastmile_qr_scan"}, "is_reserved": 0}, {"lon": -77.02181266666666, "bike_id": "a3994bf6a0fb8750d2245619cb0f6d71", "lat": 38.8935775, "fusion_lon": 0.0, "fusion_lat": 0.0, "type": "electric_scooter", "name": "a3994bf6a0fb8750d2245619cb0f6d71", "is_disabled": 0, "rental_uris": {"ios": "https://dc.lft.to/lastmile_qr_scan", "android": "https://dc.lft.to/lastmile_qr_scan"}, "is_reserved": 0}, {"lon": -77.03480933333333, "bike_id": "8e4e90d633d3acb2dc54d566d8295c7d", "lat": 38.91935983333333, "fusion_lon": 0.0, "fusion_lat": 0.0, "type": "electric_scooter", "name": "8e4e90d633d3acb2dc54d566d8295c7d", "is_disabled": 0, "rental_uris": {"ios": "https://dc.lft.to/lastmile_qr_scan", "android": "https://dc.lft.to/lastmile_qr_scan"}, "is_reserved": 0}, {"lon": -76.99271716666667, "bike_id": "4ba4a38bfbf0800c38518ee9a732eaf6", "lat": 38.89611766666667, "fusion_lon": 0.0, "fusion_lat": 0.0, "type": "electric_scooter", "name": "4ba4a38bfbf0800c38518ee9a732eaf6", "is_disabled": 0, "rental_uris": {"ios": "https://dc.lft.to/lastmile_qr_scan", "android": "https://dc.lft.to/lastmile_qr_scan"}, "is_reserved": 0}, {"lon": -76.9733285, "bike_id": "26cbbd50afbdbaccb7fccf924d892fd4", "lat": 38.90484283333333, "fusion_lon": 0.0, "fusion_lat": 0.0, "type": "electric_bike", "name": "26cbbd50afbdbaccb7fccf924d892fd4", "is_disabled": 0, "rental_uris": {"ios": "https://dc.lft.to/lastmile_qr_scan", "android": "https://dc.lft.to/lastmile_qr_scan"}, "is_reserved": 0}, {"lon": -76.97904866666667, "bike_id": "18c0ab09ccd002a16d26df5d63c82337", "lat": 38.92465383333333, "fusion_lon": 0.0, "fusion_lat": 0.0, "type": "electric_bike", "name": "18c0ab09ccd002a16d26df5d63c82337", "is_disabled": 0, "rental_uris": {"ios": "https://dc.lft.to/lastmile_qr_scan", "android": "https://dc.lft.to/lastmile_qr_scan"}, "is_reserved": 0}, {"lon": -77.017859, "bike_id": "4c72533acf0f92fa44944240977611ad", "lat": 38.9008635, "fusion_lon": 0.0, "fusion_lat": 0.0, "type": "electric_scooter", "name": "4c72533acf0f92fa44944240977611ad", "is_disabled": 0, "rental_uris": {"ios": "https://dc.lft.to/lastmile_qr_scan", "android": "https://dc.lft.to/lastmile_qr_scan"}, "is_reserved": 0}, {"lon": -76.99796483333333, "bike_id": "cca428aefb009406c717c3b597b8830e", "lat": 38.956421166666665, "fusion_lon": 0.0, "fusion_lat": 0.0, "type": "electric_bike", "name": "cca428aefb009406c717c3b597b8830e", "is_disabled": 0, "rental_uris": {"ios": "https://dc.lft.to/lastmile_qr_scan", "android": "https://dc.lft.to/lastmile_qr_scan"}, "is_reserved": 0}, {"lon": -77.03289133333334, "bike_id": "f03826e178f3ee7a22cc53f7bf90b604", "lat": 38.95651566666667, "fusion_lon": 0.0, "fusion_lat": 0.0, "type": "electric_scooter", "name": "f03826e178f3ee7a22cc53f7bf90b604", "is_disabled": 0, "rental_uris": {"ios": "https://dc.lft.to/lastmile_qr_scan", "android": "https://dc.lft.to/lastmile_qr_scan"}, "is_reserved": 0}, {"lon": -77.000438, "bike_id": "5bf2c98716b0abe34590da879c9c416b", "lat": 38.874498, "fusion_lon": 0.0, "fusion_lat": 0.0, "type": "electric_scooter", "name": "5bf2c98716b0abe34590da879c9c416b", "is_disabled": 0, "rental_uris": {"ios": "https://dc.lft.to/lastmile_qr_scan", "android": "https://dc.lft.to/lastmile_qr_scan"}, "is_reserved": 0}, {"lon": -77.02398216666667, "bike_id": "f70f95c9f45d59c1f412f983b6cac457", "lat": 38.881342, "fusion_lon": 0.0, "fusion_lat": 0.0, "type": "electric_scooter", "name": "f70f95c9f45d59c1f412f983b6cac457", "is_disabled": 0, "rental_uris": {"ios": "https://dc.lft.to/lastmile_qr_scan", "android": "https://dc.lft.to/lastmile_qr_scan"}, "is_reserved": 0}, {"lon": -77.03030666666666, "bike_id": "8d24fb366d741892b5d576892c3b9bb8", "lat": 38.9311, "fusion_lon": 0.0, "fusion_lat": 0.0, "type": "electric_scooter", "name": "8d24fb366d741892b5d576892c3b9bb8", "is_disabled": 0, "rental_uris": {"ios": "https://dc.lft.to/lastmile_qr_scan", "android": "https://dc.lft.to/lastmile_qr_scan"}, "is_reserved": 0}, {"lon": -77.04720616666667, "bike_id": "348a335fa0beacb070b11c0f5141ebea", "lat": 38.899602333333334, "fusion_lon": 0.0, "fusion_lat": 0.0, "type": "electric_scooter", "name": "348a335fa0beacb070b11c0f5141ebea", "is_disabled": 0, "rental_uris": {"ios": "https://dc.lft.to/lastmile_qr_scan", "android": "https://dc.lft.to/lastmile_qr_scan"}, "is_reserved": 0}, {"lon": -77.03179483333334, "bike_id": "7825f78199859ffe211c58318a7c929e", "lat": 38.89223716666667, "fusion_lon": 0.0, "fusion_lat": 0.0, "type": "electric_scooter", "name": "7825f78199859ffe211c58318a7c929e", "is_disabled": 0, "rental_uris": {"ios": "https://dc.lft.to/lastmile_qr_scan", "android": "https://dc.lft.to/lastmile_qr_scan"}, "is_reserved": 0}, {"lon": -77.05735, "bike_id": "2aeef5fc45c6a4afb35abff5277e936b", "lat": 38.93361616666667, "fusion_lon": 0.0, "fusion_lat": 0.0, "type": "electric_scooter", "name": "2aeef5fc45c6a4afb35abff5277e936b", "is_disabled": 0, "rental_uris": {"ios": "https://dc.lft.to/lastmile_qr_scan", "android": "https://dc.lft.to/lastmile_qr_scan"}, "is_reserved": 0}, {"lon": -77.0464775, "bike_id": "bfce5ce3a78d64a42e000174abafd564", "lat": 38.914315333333334, "fusion_lon": 0.0, "fusion_lat": 0.0, "type": "electric_scooter", "name": "bfce5ce3a78d64a42e000174abafd564", "is_disabled": 0, "rental_uris": {"ios": "https://dc.lft.to/lastmile_qr_scan", "android": "https://dc.lft.to/lastmile_qr_scan"}, "is_reserved": 0}, {"lon": -77.04500933333334, "bike_id": "6e54e9d9e60422b13173c3b3a694509d", "lat": 38.91118783333334, "fusion_lon": 0.0, "fusion_lat": 0.0, "type": "electric_scooter", "name": "6e54e9d9e60422b13173c3b3a694509d", "is_disabled": 0, "rental_uris": {"ios": "https://dc.lft.to/lastmile_qr_scan", "android": "https://dc.lft.to/lastmile_qr_scan"}, "is_reserved": 0}, {"lon": -77.07004866666666, "bike_id": "061e9a00edcbb66723b427bc09f86fd2", "lat": 38.958531666666666, "fusion_lon": 0.0, "fusion_lat": 0.0, "type": "electric_scooter", "name": "061e9a00edcbb66723b427bc09f86fd2", "is_disabled": 0, "rental_uris": {"ios": "https://dc.lft.to/lastmile_qr_scan", "android": "https://dc.lft.to/lastmile_qr_scan"}, "is_reserved": 0}, {"lon": -77.03664766666667, "bike_id": "c13bec86f4615db8c799291bedc4ea72", "lat": 38.923300833333336, "fusion_lon": 0.0, "fusion_lat": 0.0, "type": "electric_scooter", "name": "c13bec86f4615db8c799291bedc4ea72", "is_disabled": 0, "rental_uris": {"ios": "https://dc.lft.to/lastmile_qr_scan", "android": "https://dc.lft.to/lastmile_qr_scan"}, "is_reserved": 0}, {"lon": -77.03946183333333, "bike_id": "5fd7a481d293681ab23574a674a06529", "lat": 38.90053366666667, "fusion_lon": 0.0, "fusion_lat": 0.0, "type": "electric_scooter", "name": "5fd7a481d293681ab23574a674a06529", "is_disabled": 0, "rental_uris": {"ios": "https://dc.lft.to/lastmile_qr_scan", "android": "https://dc.lft.to/lastmile_qr_scan"}, "is_reserved": 0}, {"lon": -76.99952383333333, "bike_id": "6c116b9953a4b894c5248d40e433f674", "lat": 38.898206, "fusion_lon": 0.0, "fusion_lat": 0.0, "type": "electric_scooter", "name": "6c116b9953a4b894c5248d40e433f674", "is_disabled": 0, "rental_uris": {"ios": "https://dc.lft.to/lastmile_qr_scan", "android": "https://dc.lft.to/lastmile_qr_scan"}, "is_reserved": 0}, {"lon": -77.00578733333333, "bike_id": "e8c34f15c9416123111c63d5b9b04d94", "lat": 38.83592016666667, "fusion_lon": 0.0, "fusion_lat": 0.0, "type": "electric_scooter", "name": "e8c34f15c9416123111c63d5b9b04d94", "is_disabled": 0, "rental_uris": {"ios": "https://dc.lft.to/lastmile_qr_scan", "android": "https://dc.lft.to/lastmile_qr_scan"}, "is_reserved": 0}, {"lon": -77.01305033333334, "bike_id": "8639211e054c8f25d85a20c694b1620d", "lat": 38.943219166666665, "fusion_lon": 0.0, "fusion_lat": 0.0, "type": "electric_scooter", "name": "8639211e054c8f25d85a20c694b1620d", "is_disabled": 0, "rental_uris": {"ios": "https://dc.lft.to/lastmile_qr_scan", "android": "https://dc.lft.to/lastmile_qr_scan"}, "is_reserved": 0}, {"lon": -77.03204116666667, "bike_id": "5e2f46d6d6c150cab30a282f11d813d8", "lat": 38.919288333333334, "fusion_lon": 0.0, "fusion_lat": 0.0, "type": "electric_scooter", "name": "5e2f46d6d6c150cab30a282f11d813d8", "is_disabled": 0, "rental_uris": {"ios": "https://dc.lft.to/lastmile_qr_scan", "android": "https://dc.lft.to/lastmile_qr_scan"}, "is_reserved": 0}, {"lon": -77.0487785, "bike_id": "f74fe9909e8b8b67c1e1cf35ed10ccd6", "lat": 38.892284333333336, "fusion_lon": 0.0, "fusion_lat": 0.0, "type": "electric_scooter", "name": "f74fe9909e8b8b67c1e1cf35ed10ccd6", "is_disabled": 0, "rental_uris": {"ios": "https://dc.lft.to/lastmile_qr_scan", "android": "https://dc.lft.to/lastmile_qr_scan"}, "is_reserved": 0}, {"lon": -76.99379333333333, "bike_id": "cee157afef5989957a7fb27ba1dcae06", "lat": 38.97189683333333, "fusion_lon": 0.0, "fusion_lat": 0.0, "type": "electric_bike", "name": "cee157afef5989957a7fb27ba1dcae06", "is_disabled": 0, "rental_uris": {"ios": "https://dc.lft.to/lastmile_qr_scan", "android": "https://dc.lft.to/lastmile_qr_scan"}, "is_reserved": 0}, {"lon": -76.98102016666667, "bike_id": "25d9b98425255a748ad46136d75d7011", "lat": 38.90528366666667, "fusion_lon": 0.0, "fusion_lat": 0.0, "type": "electric_scooter", "name": "25d9b98425255a748ad46136d75d7011", "is_disabled": 0, "rental_uris": {"ios": "https://dc.lft.to/lastmile_qr_scan", "android": "https://dc.lft.to/lastmile_qr_scan"}, "is_reserved": 0}, {"lon": -77.0258635, "bike_id": "5365fbd179a9acf94ef46da775445c14", "lat": 38.90496383333333, "fusion_lon": 0.0, "fusion_lat": 0.0, "type": "electric_scooter", "name": "5365fbd179a9acf94ef46da775445c14", "is_disabled": 0, "rental_uris": {"ios": "https://dc.lft.to/lastmile_qr_scan", "android": "https://dc.lft.to/lastmile_qr_scan"}, "is_reserved": 0}, {"lon": -77.03173966666667, "bike_id": "6b5c41306b265b8eed5b9308847865bf", "lat": 38.887349666666665, "fusion_lon": 0.0, "fusion_lat": 0.0, "type": "electric_scooter", "name": "6b5c41306b265b8eed5b9308847865bf", "is_disabled": 0, "rental_uris": {"ios": "https://dc.lft.to/lastmile_qr_scan", "android": "https://dc.lft.to/lastmile_qr_scan"}, "is_reserved": 0}, {"lon": -76.98648033333333, "bike_id": "748ba7f1e324a94c66cbfbfcd9e28cce", "lat": 38.89829133333333, "fusion_lon": 0.0, "fusion_lat": 0.0, "type": "electric_scooter", "name": "748ba7f1e324a94c66cbfbfcd9e28cce", "is_disabled": 0, "rental_uris": {"ios": "https://dc.lft.to/lastmile_qr_scan", "android": "https://dc.lft.to/lastmile_qr_scan"}, "is_reserved": 0}, {"lon": -77.035924, "bike_id": "614d63645278da3e030c6f184a3f1e70", "lat": 38.93657366666667, "fusion_lon": 0.0, "fusion_lat": 0.0, "type": "electric_scooter", "name": "614d63645278da3e030c6f184a3f1e70", "is_disabled": 0, "rental_uris": {"ios": "https://dc.lft.to/lastmile_qr_scan", "android": "https://dc.lft.to/lastmile_qr_scan"}, "is_reserved": 0}, {"lon": -77.02166033333333, "bike_id": "da2907bfde8eae2322b78ae3e6528dae", "lat": 38.897306, "fusion_lon": 0.0, "fusion_lat": 0.0, "type": "electric_scooter", "name": "da2907bfde8eae2322b78ae3e6528dae", "is_disabled": 0, "rental_uris": {"ios": "https://dc.lft.to/lastmile_qr_scan", "android": "https://dc.lft.to/lastmile_qr_scan"}, "is_reserved": 0}, {"lon": -77.00956883333333, "bike_id": "4d1f2bc7b48046960ab32af127770e25", "lat": 38.953401, "fusion_lon": 0.0, "fusion_lat": 0.0, "type": "electric_bike", "name": "4d1f2bc7b48046960ab32af127770e25", "is_disabled": 0, "rental_uris": {"ios": "https://dc.lft.to/lastmile_qr_scan", "android": "https://dc.lft.to/lastmile_qr_scan"}, "is_reserved": 0}, {"lon": -77.02894633333334, "bike_id": "e7584dfd3ebe8c9039359c1f1a77306c", "lat": 38.9281575, "fusion_lon": 0.0, "fusion_lat": 0.0, "type": "electric_scooter", "name": "e7584dfd3ebe8c9039359c1f1a77306c", "is_disabled": 0, "rental_uris": {"ios": "https://dc.lft.to/lastmile_qr_scan", "android": "https://dc.lft.to/lastmile_qr_scan"}, "is_reserved": 0}, {"lon": -77.03262683333334, "bike_id": "17792bff206dfd729fcf3e08cc12b2b4", "lat": 38.937620333333335, "fusion_lon": 0.0, "fusion_lat": 0.0, "type": "electric_scooter", "name": "17792bff206dfd729fcf3e08cc12b2b4", "is_disabled": 0, "rental_uris": {"ios": "https://dc.lft.to/lastmile_qr_scan", "android": "https://dc.lft.to/lastmile_qr_scan"}, "is_reserved": 0}, {"lon": -77.04551733333334, "bike_id": "4f83eb74e5b20e58f826b3b27423e04f", "lat": 38.913468, "fusion_lon": 0.0, "fusion_lat": 0.0, "type": "electric_scooter", "name": "4f83eb74e5b20e58f826b3b27423e04f", "is_disabled": 0, "rental_uris": {"ios": "https://dc.lft.to/lastmile_qr_scan", "android": "https://dc.lft.to/lastmile_qr_scan"}, "is_reserved": 0}, {"lon": -77.1222245, "bike_id": "4fdafc6b38348e0798598bd24c6dad55", "lat": 38.85308216666667, "fusion_lon": 0.0, "fusion_lat": 0.0, "type": "electric_bike", "name": "4fdafc6b38348e0798598bd24c6dad55", "is_disabled": 0, "rental_uris": {"ios": "https://dc.lft.to/lastmile_qr_scan", "android": "https://dc.lft.to/lastmile_qr_scan"}, "is_reserved": 0}, {"lon": -77.0145535, "bike_id": "4ceceb5ec4c75d9129267a0245019e3c", "lat": 38.90517633333333, "fusion_lon": 0.0, "fusion_lat": 0.0, "type": "electric_scooter", "name": "4ceceb5ec4c75d9129267a0245019e3c", "is_disabled": 0, "rental_uris": {"ios": "https://dc.lft.to/lastmile_qr_scan", "android": "https://dc.lft.to/lastmile_qr_scan"}, "is_reserved": 0}, {"lon": -77.01149483333333, "bike_id": "82ff8cb6f643dee40ecd375cb67e2732", "lat": 38.895773166666665, "fusion_lon": 0.0, "fusion_lat": 0.0, "type": "electric_scooter", "name": "82ff8cb6f643dee40ecd375cb67e2732", "is_disabled": 0, "rental_uris": {"ios": "https://dc.lft.to/lastmile_qr_scan", "android": "https://dc.lft.to/lastmile_qr_scan"}, "is_reserved": 0}, {"lon": -76.98848, "bike_id": "3e6fbfed827b3920d2aee7fc69f0f64e", "lat": 38.90131866666667, "fusion_lon": 0.0, "fusion_lat": 0.0, "type": "electric_scooter", "name": "3e6fbfed827b3920d2aee7fc69f0f64e", "is_disabled": 0, "rental_uris": {"ios": "https://dc.lft.to/lastmile_qr_scan", "android": "https://dc.lft.to/lastmile_qr_scan"}, "is_reserved": 0}, {"lon": -77.03216583333334, "bike_id": "8ed5bcc62536025140a7aadd3e86cf8e", "lat": 38.8921855, "fusion_lon": 0.0, "fusion_lat": 0.0, "type": "electric_scooter", "name": "8ed5bcc62536025140a7aadd3e86cf8e", "is_disabled": 0, "rental_uris": {"ios": "https://dc.lft.to/lastmile_qr_scan", "android": "https://dc.lft.to/lastmile_qr_scan"}, "is_reserved": 0}, {"lon": -77.03504666666667, "bike_id": "52cd42e193a4ca9d433d89827f1aa6b8", "lat": 38.90046866666667, "fusion_lon": 0.0, "fusion_lat": 0.0, "type": "electric_scooter", "name": "52cd42e193a4ca9d433d89827f1aa6b8", "is_disabled": 0, "rental_uris": {"ios": "https://dc.lft.to/lastmile_qr_scan", "android": "https://dc.lft.to/lastmile_qr_scan"}, "is_reserved": 0}, {"lon": -77.03527266666667, "bike_id": "c6d90d9036b7e110cbbb361f0e79fe89", "lat": 38.923406, "fusion_lon": 0.0, "fusion_lat": 0.0, "type": "electric_scooter", "name": "c6d90d9036b7e110cbbb361f0e79fe89", "is_disabled": 0, "rental_uris": {"ios": "https://dc.lft.to/lastmile_qr_scan", "android": "https://dc.lft.to/lastmile_qr_scan"}, "is_reserved": 0}, {"lon": -77.04071433333333, "bike_id": "218781ea40e0069aad6903e77bdfd264", "lat": 38.914894, "fusion_lon": 0.0, "fusion_lat": 0.0, "type": "electric_scooter", "name": "218781ea40e0069aad6903e77bdfd264", "is_disabled": 0, "rental_uris": {"ios": "https://dc.lft.to/lastmile_qr_scan", "android": "https://dc.lft.to/lastmile_qr_scan"}, "is_reserved": 0}, {"lon": -77.0153465, "bike_id": "88f53b15d1f315724551582ec4455001", "lat": 38.90978583333333, "fusion_lon": 0.0, "fusion_lat": 0.0, "type": "electric_bike", "name": "88f53b15d1f315724551582ec4455001", "is_disabled": 0, "rental_uris": {"ios": "https://dc.lft.to/lastmile_qr_scan", "android": "https://dc.lft.to/lastmile_qr_scan"}, "is_reserved": 0}, {"lon": -76.977599, "bike_id": "62eb306b52abbc02b7dff05118ce2564", "lat": 38.864458, "fusion_lon": 0.0, "fusion_lat": 0.0, "type": "electric_scooter", "name": "62eb306b52abbc02b7dff05118ce2564", "is_disabled": 0, "rental_uris": {"ios": "https://dc.lft.to/lastmile_qr_scan", "android": "https://dc.lft.to/lastmile_qr_scan"}, "is_reserved": 0}, {"lon": -77.03210533333333, "bike_id": "89a170bf1e8df7651ac234c4b46bb945", "lat": 38.944087, "fusion_lon": 0.0, "fusion_lat": 0.0, "type": "electric_scooter", "name": "89a170bf1e8df7651ac234c4b46bb945", "is_disabled": 0, "rental_uris": {"ios": "https://dc.lft.to/lastmile_qr_scan", "android": "https://dc.lft.to/lastmile_qr_scan"}, "is_reserved": 0}, {"lon": -77.03663583333334, "bike_id": "432eced7f60569fb62ca76b1401988f0", "lat": 38.920879666666664, "fusion_lon": 0.0, "fusion_lat": 0.0, "type": "electric_scooter", "name": "432eced7f60569fb62ca76b1401988f0", "is_disabled": 0, "rental_uris": {"ios": "https://dc.lft.to/lastmile_qr_scan", "android": "https://dc.lft.to/lastmile_qr_scan"}, "is_reserved": 0}, {"lon": -77.04340266666667, "bike_id": "fd1194c380799db086c428545647ad89", "lat": 38.900567833333334, "fusion_lon": 0.0, "fusion_lat": 0.0, "type": "electric_scooter", "name": "fd1194c380799db086c428545647ad89", "is_disabled": 0, "rental_uris": {"ios": "https://dc.lft.to/lastmile_qr_scan", "android": "https://dc.lft.to/lastmile_qr_scan"}, "is_reserved": 0}, {"lon": -77.0376945, "bike_id": "74f7a45e72be8c02a8597d929318fb73", "lat": 38.929482, "fusion_lon": 0.0, "fusion_lat": 0.0, "type": "electric_scooter", "name": "74f7a45e72be8c02a8597d929318fb73", "is_disabled": 0, "rental_uris": {"ios": "https://dc.lft.to/lastmile_qr_scan", "android": "https://dc.lft.to/lastmile_qr_scan"}, "is_reserved": 0}, {"lon": -77.023813, "bike_id": "f12f9f2c34e236bed05d29019a3bdbb5", "lat": 38.902062, "fusion_lon": 0.0, "fusion_lat": 0.0, "type": "electric_scooter", "name": "f12f9f2c34e236bed05d29019a3bdbb5", "is_disabled": 0, "rental_uris": {"ios": "https://dc.lft.to/lastmile_qr_scan", "android": "https://dc.lft.to/lastmile_qr_scan"}, "is_reserved": 0}, {"lon": -77.000691, "bike_id": "75ed10e8d4c2be72f9102474547542d0", "lat": 38.897342333333334, "fusion_lon": 0.0, "fusion_lat": 0.0, "type": "electric_scooter", "name": "75ed10e8d4c2be72f9102474547542d0", "is_disabled": 0, "rental_uris": {"ios": "https://dc.lft.to/lastmile_qr_scan", "android": "https://dc.lft.to/lastmile_qr_scan"}, "is_reserved": 0}, {"lon": -77.00048333333334, "bike_id": "81c6be4dddf6a0e01375f2c86158cf78", "lat": 38.968106166666665, "fusion_lon": 0.0, "fusion_lat": 0.0, "type": "electric_bike", "name": "81c6be4dddf6a0e01375f2c86158cf78", "is_disabled": 0, "rental_uris": {"ios": "https://dc.lft.to/lastmile_qr_scan", "android": "https://dc.lft.to/lastmile_qr_scan"}, "is_reserved": 0}, {"lon": -77.00547583333334, "bike_id": "d0845848d0a2cd6f39b93b08f87cdb19", "lat": 38.87459466666667, "fusion_lon": 0.0, "fusion_lat": 0.0, "type": "electric_scooter", "name": "d0845848d0a2cd6f39b93b08f87cdb19", "is_disabled": 0, "rental_uris": {"ios": "https://dc.lft.to/lastmile_qr_scan", "android": "https://dc.lft.to/lastmile_qr_scan"}, "is_reserved": 0}, {"lon": -77.0541165, "bike_id": "134b60ae5e985c937434a5bd148cd5be", "lat": 38.901402, "fusion_lon": 0.0, "fusion_lat": 0.0, "type": "electric_scooter", "name": "134b60ae5e985c937434a5bd148cd5be", "is_disabled": 0, "rental_uris": {"ios": "https://dc.lft.to/lastmile_qr_scan", "android": "https://dc.lft.to/lastmile_qr_scan"}, "is_reserved": 0}, {"lon": -77.03442216666667, "bike_id": "2a1fc06b30e4849ca547deb628601dc9", "lat": 38.91801, "fusion_lon": 0.0, "fusion_lat": 0.0, "type": "electric_scooter", "name": "2a1fc06b30e4849ca547deb628601dc9", "is_disabled": 0, "rental_uris": {"ios": "https://dc.lft.to/lastmile_qr_scan", "android": "https://dc.lft.to/lastmile_qr_scan"}, "is_reserved": 0}, {"lon": -77.03437333333333, "bike_id": "ea176bf30b8fc4bd766c931b01dd29a8", "lat": 38.91802083333333, "fusion_lon": 0.0, "fusion_lat": 0.0, "type": "electric_scooter", "name": "ea176bf30b8fc4bd766c931b01dd29a8", "is_disabled": 0, "rental_uris": {"ios": "https://dc.lft.to/lastmile_qr_scan", "android": "https://dc.lft.to/lastmile_qr_scan"}, "is_reserved": 0}, {"lon": -77.0334445, "bike_id": "b11f5e9ea7a2418695099d5087592a6c", "lat": 38.89725416666667, "fusion_lon": 0.0, "fusion_lat": 0.0, "type": "electric_scooter", "name": "b11f5e9ea7a2418695099d5087592a6c", "is_disabled": 0, "rental_uris": {"ios": "https://dc.lft.to/lastmile_qr_scan", "android": "https://dc.lft.to/lastmile_qr_scan"}, "is_reserved": 0}, {"lon": -77.0162515, "bike_id": "1770d768a132493faee63a471e08f75a", "lat": 38.900993166666666, "fusion_lon": 0.0, "fusion_lat": 0.0, "type": "electric_scooter", "name": "1770d768a132493faee63a471e08f75a", "is_disabled": 0, "rental_uris": {"ios": "https://dc.lft.to/lastmile_qr_scan", "android": "https://dc.lft.to/lastmile_qr_scan"}, "is_reserved": 0}, {"lon": -77.04340133333334, "bike_id": "c59a4ed091e5f9c039af295341bebd9c", "lat": 38.929649833333336, "fusion_lon": 0.0, "fusion_lat": 0.0, "type": "electric_scooter", "name": "c59a4ed091e5f9c039af295341bebd9c", "is_disabled": 0, "rental_uris": {"ios": "https://dc.lft.to/lastmile_qr_scan", "android": "https://dc.lft.to/lastmile_qr_scan"}, "is_reserved": 0}, {"lon": -77.03182466666667, "bike_id": "e4d23280036cc21ec951ad94083db5c9", "lat": 38.887332666666666, "fusion_lon": 0.0, "fusion_lat": 0.0, "type": "electric_scooter", "name": "e4d23280036cc21ec951ad94083db5c9", "is_disabled": 0, "rental_uris": {"ios": "https://dc.lft.to/lastmile_qr_scan", "android": "https://dc.lft.to/lastmile_qr_scan"}, "is_reserved": 0}, {"lon": -77.02837783333334, "bike_id": "9c337039f37b650ccf1f4ed1d788e4ac", "lat": 38.902322833333336, "fusion_lon": 0.0, "fusion_lat": 0.0, "type": "electric_scooter", "name": "9c337039f37b650ccf1f4ed1d788e4ac", "is_disabled": 0, "rental_uris": {"ios": "https://dc.lft.to/lastmile_qr_scan", "android": "https://dc.lft.to/lastmile_qr_scan"}, "is_reserved": 0}, {"lon": -76.98371566666667, "bike_id": "90f554d4c74cf7e53081ac88e93ace5e", "lat": 38.899779833333334, "fusion_lon": 0.0, "fusion_lat": 0.0, "type": "electric_scooter", "name": "90f554d4c74cf7e53081ac88e93ace5e", "is_disabled": 0, "rental_uris": {"ios": "https://dc.lft.to/lastmile_qr_scan", "android": "https://dc.lft.to/lastmile_qr_scan"}, "is_reserved": 0}, {"lon": -77.02296566666666, "bike_id": "093d9f1739f6a6ec561ba3566b3ea788", "lat": 38.909792, "fusion_lon": 0.0, "fusion_lat": 0.0, "type": "electric_scooter", "name": "093d9f1739f6a6ec561ba3566b3ea788", "is_disabled": 0, "rental_uris": {"ios": "https://dc.lft.to/lastmile_qr_scan", "android": "https://dc.lft.to/lastmile_qr_scan"}, "is_reserved": 0}, {"lon": -77.02978866666666, "bike_id": "9ff50d0e740c1e5daa57610060154bf3", "lat": 38.932846, "fusion_lon": 0.0, "fusion_lat": 0.0, "type": "electric_scooter", "name": "9ff50d0e740c1e5daa57610060154bf3", "is_disabled": 0, "rental_uris": {"ios": "https://dc.lft.to/lastmile_qr_scan", "android": "https://dc.lft.to/lastmile_qr_scan"}, "is_reserved": 0}, {"lon": -76.93360116666666, "bike_id": "6db3af8f127d84b5913a3e4577dd2949", "lat": 38.899174333333335, "fusion_lon": 0.0, "fusion_lat": 0.0, "type": "electric_scooter", "name": "6db3af8f127d84b5913a3e4577dd2949", "is_disabled": 0, "rental_uris": {"ios": "https://dc.lft.to/lastmile_qr_scan", "android": "https://dc.lft.to/lastmile_qr_scan"}, "is_reserved": 0}, {"lon": -77.06756966666667, "bike_id": "158cc73048fe5c510e683d7eee031828", "lat": 38.90339083333333, "fusion_lon": 0.0, "fusion_lat": 0.0, "type": "electric_scooter", "name": "158cc73048fe5c510e683d7eee031828", "is_disabled": 0, "rental_uris": {"ios": "https://dc.lft.to/lastmile_qr_scan", "android": "https://dc.lft.to/lastmile_qr_scan"}, "is_reserved": 0}, {"lon": -77.07323166666667, "bike_id": "ad1b551722365350b090925595b628db", "lat": 38.924998, "fusion_lon": 0.0, "fusion_lat": 0.0, "type": "electric_bike", "name": "ad1b551722365350b090925595b628db", "is_disabled": 0, "rental_uris": {"ios": "https://dc.lft.to/lastmile_qr_scan", "android": "https://dc.lft.to/lastmile_qr_scan"}, "is_reserved": 0}, {"lon": -77.03663683333333, "bike_id": "143e968819948fafd3a583bba4774a28", "lat": 38.92267616666667, "fusion_lon": 0.0, "fusion_lat": 0.0, "type": "electric_scooter", "name": "143e968819948fafd3a583bba4774a28", "is_disabled": 0, "rental_uris": {"ios": "https://dc.lft.to/lastmile_qr_scan", "android": "https://dc.lft.to/lastmile_qr_scan"}, "is_reserved": 0}, {"lon": -77.03945583333334, "bike_id": "f20dec3c5028bee7e2804c9153856393", "lat": 38.93065133333333, "fusion_lon": 0.0, "fusion_lat": 0.0, "type": "electric_scooter", "name": "f20dec3c5028bee7e2804c9153856393", "is_disabled": 0, "rental_uris": {"ios": "https://dc.lft.to/lastmile_qr_scan", "android": "https://dc.lft.to/lastmile_qr_scan"}, "is_reserved": 0}, {"lon": -77.00647216666667, "bike_id": "a73a36128d21bc0d6cd2380b78f9394f", "lat": 38.92619833333333, "fusion_lon": 0.0, "fusion_lat": 0.0, "type": "electric_scooter", "name": "a73a36128d21bc0d6cd2380b78f9394f", "is_disabled": 0, "rental_uris": {"ios": "https://dc.lft.to/lastmile_qr_scan", "android": "https://dc.lft.to/lastmile_qr_scan"}, "is_reserved": 0}, {"lon": -77.03396816666667, "bike_id": "9b02139c21847bb9fc3d0751262e1ea0", "lat": 38.905453333333334, "fusion_lon": 0.0, "fusion_lat": 0.0, "type": "electric_scooter", "name": "9b02139c21847bb9fc3d0751262e1ea0", "is_disabled": 0, "rental_uris": {"ios": "https://dc.lft.to/lastmile_qr_scan", "android": "https://dc.lft.to/lastmile_qr_scan"}, "is_reserved": 0}, {"lon": -77.06518516666667, "bike_id": "473abba6192bcc266d2e05e5b7bd5b44", "lat": 38.903940666666664, "fusion_lon": 0.0, "fusion_lat": 0.0, "type": "electric_scooter", "name": "473abba6192bcc266d2e05e5b7bd5b44", "is_disabled": 0, "rental_uris": {"ios": "https://dc.lft.to/lastmile_qr_scan", "android": "https://dc.lft.to/lastmile_qr_scan"}, "is_reserved": 0}, {"lon": -76.9654845, "bike_id": "cbea9440b359b50d22a00999f766d4c9", "lat": 38.918508333333335, "fusion_lon": 0.0, "fusion_lat": 0.0, "type": "electric_scooter", "name": "cbea9440b359b50d22a00999f766d4c9", "is_disabled": 0, "rental_uris": {"ios": "https://dc.lft.to/lastmile_qr_scan", "android": "https://dc.lft.to/lastmile_qr_scan"}, "is_reserved": 0}, {"lon": -77.01290283333333, "bike_id": "4c61a5d11e7ca772db7163ba0d40ff20", "lat": 38.92018733333333, "fusion_lon": 0.0, "fusion_lat": 0.0, "type": "electric_scooter", "name": "4c61a5d11e7ca772db7163ba0d40ff20", "is_disabled": 0, "rental_uris": {"ios": "https://dc.lft.to/lastmile_qr_scan", "android": "https://dc.lft.to/lastmile_qr_scan"}, "is_reserved": 0}, {"lon": -76.99019733333333, "bike_id": "cf9cef9ce601501ecb78b07a4e65cf07", "lat": 38.866449833333334, "fusion_lon": 0.0, "fusion_lat": 0.0, "type": "electric_scooter", "name": "cf9cef9ce601501ecb78b07a4e65cf07", "is_disabled": 0, "rental_uris": {"ios": "https://dc.lft.to/lastmile_qr_scan", "android": "https://dc.lft.to/lastmile_qr_scan"}, "is_reserved": 0}, {"lon": -77.03867983333333, "bike_id": "e461deb991bc1d148b1e578f190dff09", "lat": 38.915638666666666, "fusion_lon": 0.0, "fusion_lat": 0.0, "type": "electric_scooter", "name": "e461deb991bc1d148b1e578f190dff09", "is_disabled": 0, "rental_uris": {"ios": "https://dc.lft.to/lastmile_qr_scan", "android": "https://dc.lft.to/lastmile_qr_scan"}, "is_reserved": 0}, {"lon": -76.9908865, "bike_id": "562e8a1b2de665cc8c2ca4d89e60bd61", "lat": 38.862436333333335, "fusion_lon": 0.0, "fusion_lat": 0.0, "type": "electric_bike", "name": "562e8a1b2de665cc8c2ca4d89e60bd61", "is_disabled": 0, "rental_uris": {"ios": "https://dc.lft.to/lastmile_qr_scan", "android": "https://dc.lft.to/lastmile_qr_scan"}, "is_reserved": 0}, {"lon": -77.08071283333334, "bike_id": "4c5fb559ba447bfa86725eb181aa6e0d", "lat": 39.052793666666666, "fusion_lon": 0.0, "fusion_lat": 0.0, "type": "electric_bike", "name": "4c5fb559ba447bfa86725eb181aa6e0d", "is_disabled": 0, "rental_uris": {"ios": "https://dc.lft.to/lastmile_qr_scan", "android": "https://dc.lft.to/lastmile_qr_scan"}, "is_reserved": 0}, {"lon": -76.99530266666666, "bike_id": "156c695cb52bef18bc4bec7530ad6e0a", "lat": 38.883746333333335, "fusion_lon": 0.0, "fusion_lat": 0.0, "type": "electric_scooter", "name": "156c695cb52bef18bc4bec7530ad6e0a", "is_disabled": 0, "rental_uris": {"ios": "https://dc.lft.to/lastmile_qr_scan", "android": "https://dc.lft.to/lastmile_qr_scan"}, "is_reserved": 0}, {"lon": -77.01938866666667, "bike_id": "45b545543eef08c8c91a3d23d60202ad", "lat": 38.93531433333333, "fusion_lon": 0.0, "fusion_lat": 0.0, "type": "electric_scooter", "name": "45b545543eef08c8c91a3d23d60202ad", "is_disabled": 0, "rental_uris": {"ios": "https://dc.lft.to/lastmile_qr_scan", "android": "https://dc.lft.to/lastmile_qr_scan"}, "is_reserved": 0}, {"lon": -77.04868183333333, "bike_id": "6d60b143af508f81a58de16cd44cc97d", "lat": 38.892205833333335, "fusion_lon": 0.0, "fusion_lat": 0.0, "type": "electric_scooter", "name": "6d60b143af508f81a58de16cd44cc97d", "is_disabled": 0, "rental_uris": {"ios": "https://dc.lft.to/lastmile_qr_scan", "android": "https://dc.lft.to/lastmile_qr_scan"}, "is_reserved": 0}, {"lon": -77.03438216666666, "bike_id": "4202055bc5d2535dd7c91ab1ad0165bc", "lat": 38.909773, "fusion_lon": 0.0, "fusion_lat": 0.0, "type": "electric_scooter", "name": "4202055bc5d2535dd7c91ab1ad0165bc", "is_disabled": 0, "rental_uris": {"ios": "https://dc.lft.to/lastmile_qr_scan", "android": "https://dc.lft.to/lastmile_qr_scan"}, "is_reserved": 0}, {"lon": -77.00239733333333, "bike_id": "50fb112aa8a252b927ff5f17684ffa7c", "lat": 38.900333833333335, "fusion_lon": 0.0, "fusion_lat": 0.0, "type": "electric_scooter", "name": "50fb112aa8a252b927ff5f17684ffa7c", "is_disabled": 0, "rental_uris": {"ios": "https://dc.lft.to/lastmile_qr_scan", "android": "https://dc.lft.to/lastmile_qr_scan"}, "is_reserved": 0}, {"lon": -76.97479933333334, "bike_id": "9377a5d3a275b3bb1ccbb5d39f1a857f", "lat": 38.903533333333336, "fusion_lon": 0.0, "fusion_lat": 0.0, "type": "electric_scooter", "name": "9377a5d3a275b3bb1ccbb5d39f1a857f", "is_disabled": 0, "rental_uris": {"ios": "https://dc.lft.to/lastmile_qr_scan", "android": "https://dc.lft.to/lastmile_qr_scan"}, "is_reserved": 0}, {"lon": -76.99858833333333, "bike_id": "a0cbc1cc8efbf8fa923146abc1832cf9", "lat": 38.90106316666667, "fusion_lon": 0.0, "fusion_lat": 0.0, "type": "electric_scooter", "name": "a0cbc1cc8efbf8fa923146abc1832cf9", "is_disabled": 0, "rental_uris": {"ios": "https://dc.lft.to/lastmile_qr_scan", "android": "https://dc.lft.to/lastmile_qr_scan"}, "is_reserved": 0}, {"lon": -77.03180816666666, "bike_id": "7877500d9e7d4f30dc8b9c35bb932e08", "lat": 38.919234333333335, "fusion_lon": 0.0, "fusion_lat": 0.0, "type": "electric_scooter", "name": "7877500d9e7d4f30dc8b9c35bb932e08", "is_disabled": 0, "rental_uris": {"ios": "https://dc.lft.to/lastmile_qr_scan", "android": "https://dc.lft.to/lastmile_qr_scan"}, "is_reserved": 0}, {"lon": -77.036629, "bike_id": "d3a9605ed892d2056c620cace73a649c", "lat": 38.929868666666664, "fusion_lon": 0.0, "fusion_lat": 0.0, "type": "electric_scooter", "name": "d3a9605ed892d2056c620cace73a649c", "is_disabled": 0, "rental_uris": {"ios": "https://dc.lft.to/lastmile_qr_scan", "android": "https://dc.lft.to/lastmile_qr_scan"}, "is_reserved": 0}, {"lon": -77.02609983333333, "bike_id": "df71289e76a61f74b4f4326da8793949", "lat": 38.900352, "fusion_lon": 0.0, "fusion_lat": 0.0, "type": "electric_scooter", "name": "df71289e76a61f74b4f4326da8793949", "is_disabled": 0, "rental_uris": {"ios": "https://dc.lft.to/lastmile_qr_scan", "android": "https://dc.lft.to/lastmile_qr_scan"}, "is_reserved": 0}, {"lon": -77.05153616666666, "bike_id": "adcff259fa07bfed28072646de4007ac", "lat": 38.89869816666667, "fusion_lon": 0.0, "fusion_lat": 0.0, "type": "electric_scooter", "name": "adcff259fa07bfed28072646de4007ac", "is_disabled": 0, "rental_uris": {"ios": "https://dc.lft.to/lastmile_qr_scan", "android": "https://dc.lft.to/lastmile_qr_scan"}, "is_reserved": 0}, {"lon": -76.9950945, "bike_id": "d793591e760782e8d3dee8baa7bc8244", "lat": 38.8791665, "fusion_lon": 0.0, "fusion_lat": 0.0, "type": "electric_scooter", "name": "d793591e760782e8d3dee8baa7bc8244", "is_disabled": 0, "rental_uris": {"ios": "https://dc.lft.to/lastmile_qr_scan", "android": "https://dc.lft.to/lastmile_qr_scan"}, "is_reserved": 0}, {"lon": -77.049784, "bike_id": "6a7c2199890f432f1889fe4a7f64d806", "lat": 39.06297133333333, "fusion_lon": 0.0, "fusion_lat": 0.0, "type": "electric_bike", "name": "6a7c2199890f432f1889fe4a7f64d806", "is_disabled": 0, "rental_uris": {"ios": "https://dc.lft.to/lastmile_qr_scan", "android": "https://dc.lft.to/lastmile_qr_scan"}, "is_reserved": 0}, {"lon": -77.076629, "bike_id": "d5f6c44e310abcd7d53131b0b05c13b8", "lat": 38.862853333333334, "fusion_lon": 0.0, "fusion_lat": 0.0, "type": "electric_bike", "name": "d5f6c44e310abcd7d53131b0b05c13b8", "is_disabled": 0, "rental_uris": {"ios": "https://dc.lft.to/lastmile_qr_scan", "android": "https://dc.lft.to/lastmile_qr_scan"}, "is_reserved": 0}, {"lon": -77.02440116666666, "bike_id": "a88309300df7528b022ce4fbbdfb776f", "lat": 38.922666666666665, "fusion_lon": 0.0, "fusion_lat": 0.0, "type": "electric_scooter", "name": "a88309300df7528b022ce4fbbdfb776f", "is_disabled": 0, "rental_uris": {"ios": "https://dc.lft.to/lastmile_qr_scan", "android": "https://dc.lft.to/lastmile_qr_scan"}, "is_reserved": 0}, {"lon": -76.99010133333333, "bike_id": "cae4622188e7949287153a580a02d784", "lat": 38.94598333333333, "fusion_lon": 0.0, "fusion_lat": 0.0, "type": "electric_scooter", "name": "cae4622188e7949287153a580a02d784", "is_disabled": 0, "rental_uris": {"ios": "https://dc.lft.to/lastmile_qr_scan", "android": "https://dc.lft.to/lastmile_qr_scan"}, "is_reserved": 0}, {"lon": -76.99366666666667, "bike_id": "9a24b68c7b4c1318a363fe3d342ff105", "lat": 38.940262, "fusion_lon": 0.0, "fusion_lat": 0.0, "type": "electric_scooter", "name": "9a24b68c7b4c1318a363fe3d342ff105", "is_disabled": 0, "rental_uris": {"ios": "https://dc.lft.to/lastmile_qr_scan", "android": "https://dc.lft.to/lastmile_qr_scan"}, "is_reserved": 0}, {"lon": -77.03869083333333, "bike_id": "e4c155265e0e74abcb7a0cd752456038", "lat": 38.92013683333333, "fusion_lon": 0.0, "fusion_lat": 0.0, "type": "electric_scooter", "name": "e4c155265e0e74abcb7a0cd752456038", "is_disabled": 0, "rental_uris": {"ios": "https://dc.lft.to/lastmile_qr_scan", "android": "https://dc.lft.to/lastmile_qr_scan"}, "is_reserved": 0}, {"lon": -76.99483833333333, "bike_id": "ec2525245a66b8b1a242faa247820253", "lat": 38.879540166666665, "fusion_lon": 0.0, "fusion_lat": 0.0, "type": "electric_scooter", "name": "ec2525245a66b8b1a242faa247820253", "is_disabled": 0, "rental_uris": {"ios": "https://dc.lft.to/lastmile_qr_scan", "android": "https://dc.lft.to/lastmile_qr_scan"}, "is_reserved": 0}, {"lon": -77.031811, "bike_id": "c7529cb764b0f5de69499621ba6ffdee", "lat": 38.92109083333333, "fusion_lon": 0.0, "fusion_lat": 0.0, "type": "electric_scooter", "name": "c7529cb764b0f5de69499621ba6ffdee", "is_disabled": 0, "rental_uris": {"ios": "https://dc.lft.to/lastmile_qr_scan", "android": "https://dc.lft.to/lastmile_qr_scan"}, "is_reserved": 0}, {"lon": -77.04486166666666, "bike_id": "21b0117701f20e3e03ef5f85d2a19d7f", "lat": 38.924242666666665, "fusion_lon": 0.0, "fusion_lat": 0.0, "type": "electric_scooter", "name": "21b0117701f20e3e03ef5f85d2a19d7f", "is_disabled": 0, "rental_uris": {"ios": "https://dc.lft.to/lastmile_qr_scan", "android": "https://dc.lft.to/lastmile_qr_scan"}, "is_reserved": 0}, {"lon": -77.052099, "bike_id": "2f8a3b84d4e5a7dde5c7d901729dd150", "lat": 38.89955716666667, "fusion_lon": 0.0, "fusion_lat": 0.0, "type": "electric_scooter", "name": "2f8a3b84d4e5a7dde5c7d901729dd150", "is_disabled": 0, "rental_uris": {"ios": "https://dc.lft.to/lastmile_qr_scan", "android": "https://dc.lft.to/lastmile_qr_scan"}, "is_reserved": 0}, {"lon": -77.03518783333334, "bike_id": "14515e95e242a87145446f3b0954847b", "lat": 38.92195916666667, "fusion_lon": 0.0, "fusion_lat": 0.0, "type": "electric_scooter", "name": "14515e95e242a87145446f3b0954847b", "is_disabled": 0, "rental_uris": {"ios": "https://dc.lft.to/lastmile_qr_scan", "android": "https://dc.lft.to/lastmile_qr_scan"}, "is_reserved": 0}, {"lon": -77.00202016666667, "bike_id": "165fa23842bf7fe38d291298f38f613e", "lat": 38.90238733333333, "fusion_lon": 0.0, "fusion_lat": 0.0, "type": "electric_scooter", "name": "165fa23842bf7fe38d291298f38f613e", "is_disabled": 0, "rental_uris": {"ios": "https://dc.lft.to/lastmile_qr_scan", "android": "https://dc.lft.to/lastmile_qr_scan"}, "is_reserved": 0}, {"lon": -77.02746066666667, "bike_id": "9a2a2d5d60fe38f568e7ae1331734bf7", "lat": 38.94185183333333, "fusion_lon": 0.0, "fusion_lat": 0.0, "type": "electric_scooter", "name": "9a2a2d5d60fe38f568e7ae1331734bf7", "is_disabled": 0, "rental_uris": {"ios": "https://dc.lft.to/lastmile_qr_scan", "android": "https://dc.lft.to/lastmile_qr_scan"}, "is_reserved": 0}, {"lon": -77.03048433333333, "bike_id": "e80f0be6130c52dfb91ed2cae42abfd0", "lat": 38.88411883333333, "fusion_lon": 0.0, "fusion_lat": 0.0, "type": "electric_scooter", "name": "e80f0be6130c52dfb91ed2cae42abfd0", "is_disabled": 0, "rental_uris": {"ios": "https://dc.lft.to/lastmile_qr_scan", "android": "https://dc.lft.to/lastmile_qr_scan"}, "is_reserved": 0}, {"lon": -77.02382983333334, "bike_id": "49c3ddbc52b76552f6786301f1429569", "lat": 38.906319833333335, "fusion_lon": 0.0, "fusion_lat": 0.0, "type": "electric_scooter", "name": "49c3ddbc52b76552f6786301f1429569", "is_disabled": 0, "rental_uris": {"ios": "https://dc.lft.to/lastmile_qr_scan", "android": "https://dc.lft.to/lastmile_qr_scan"}, "is_reserved": 0}, {"lon": -77.03501133333333, "bike_id": "1181f59bff278e65439ec9fe6eb0e67e", "lat": 38.911909666666666, "fusion_lon": 0.0, "fusion_lat": 0.0, "type": "electric_scooter", "name": "1181f59bff278e65439ec9fe6eb0e67e", "is_disabled": 0, "rental_uris": {"ios": "https://dc.lft.to/lastmile_qr_scan", "android": "https://dc.lft.to/lastmile_qr_scan"}, "is_reserved": 0}, {"lon": -76.93279066666666, "bike_id": "1fa3c3cf8527a2b09e7cb867e13bb183", "lat": 38.95422683333334, "fusion_lon": 0.0, "fusion_lat": 0.0, "type": "electric_bike", "name": "1fa3c3cf8527a2b09e7cb867e13bb183", "is_disabled": 0, "rental_uris": {"ios": "https://dc.lft.to/lastmile_qr_scan", "android": "https://dc.lft.to/lastmile_qr_scan"}, "is_reserved": 0}, {"lon": -77.01632616666667, "bike_id": "cd1e08e61426123a4f6345fd02352e3c", "lat": 38.89983933333333, "fusion_lon": 0.0, "fusion_lat": 0.0, "type": "electric_scooter", "name": "cd1e08e61426123a4f6345fd02352e3c", "is_disabled": 0, "rental_uris": {"ios": "https://dc.lft.to/lastmile_qr_scan", "android": "https://dc.lft.to/lastmile_qr_scan"}, "is_reserved": 0}, {"lon": -77.020926, "bike_id": "8ae819d5b4f7333680ec51bc826f6130", "lat": 38.929117833333336, "fusion_lon": 0.0, "fusion_lat": 0.0, "type": "electric_scooter", "name": "8ae819d5b4f7333680ec51bc826f6130", "is_disabled": 0, "rental_uris": {"ios": "https://dc.lft.to/lastmile_qr_scan", "android": "https://dc.lft.to/lastmile_qr_scan"}, "is_reserved": 0}, {"lon": -77.03217116666667, "bike_id": "d9ebb143356d5a1b6c1a7aeeb0cea396", "lat": 38.9361295, "fusion_lon": 0.0, "fusion_lat": 0.0, "type": "electric_scooter", "name": "d9ebb143356d5a1b6c1a7aeeb0cea396", "is_disabled": 0, "rental_uris": {"ios": "https://dc.lft.to/lastmile_qr_scan", "android": "https://dc.lft.to/lastmile_qr_scan"}, "is_reserved": 0}, {"lon": -77.05590266666667, "bike_id": "77c6d3e1485ce79ff4128c16fc70b8df", "lat": 38.93705516666667, "fusion_lon": 0.0, "fusion_lat": 0.0, "type": "electric_scooter", "name": "77c6d3e1485ce79ff4128c16fc70b8df", "is_disabled": 0, "rental_uris": {"ios": "https://dc.lft.to/lastmile_qr_scan", "android": "https://dc.lft.to/lastmile_qr_scan"}, "is_reserved": 0}, {"lon": -77.01779066666667, "bike_id": "cf2eb1d8d128df5c3b0b9f611f37b835", "lat": 38.903845833333335, "fusion_lon": 0.0, "fusion_lat": 0.0, "type": "electric_scooter", "name": "cf2eb1d8d128df5c3b0b9f611f37b835", "is_disabled": 0, "rental_uris": {"ios": "https://dc.lft.to/lastmile_qr_scan", "android": "https://dc.lft.to/lastmile_qr_scan"}, "is_reserved": 0}, {"lon": -77.03631733333333, "bike_id": "10a7ecdc96174f0015234e8841320857", "lat": 38.91562533333333, "fusion_lon": 0.0, "fusion_lat": 0.0, "type": "electric_scooter", "name": "10a7ecdc96174f0015234e8841320857", "is_disabled": 0, "rental_uris": {"ios": "https://dc.lft.to/lastmile_qr_scan", "android": "https://dc.lft.to/lastmile_qr_scan"}, "is_reserved": 0}, {"lon": -77.07354133333334, "bike_id": "e3518b294485a10a18a86b5c76f6d2d6", "lat": 38.93355716666667, "fusion_lon": 0.0, "fusion_lat": 0.0, "type": "electric_scooter", "name": "e3518b294485a10a18a86b5c76f6d2d6", "is_disabled": 0, "rental_uris": {"ios": "https://dc.lft.to/lastmile_qr_scan", "android": "https://dc.lft.to/lastmile_qr_scan"}, "is_reserved": 0}, {"lon": -77.00536716666667, "bike_id": "20f97b716f092a9a518677bba1c8d849", "lat": 38.87543983333333, "fusion_lon": 0.0, "fusion_lat": 0.0, "type": "electric_scooter", "name": "20f97b716f092a9a518677bba1c8d849", "is_disabled": 0, "rental_uris": {"ios": "https://dc.lft.to/lastmile_qr_scan", "android": "https://dc.lft.to/lastmile_qr_scan"}, "is_reserved": 0}, {"lon": -77.0012855, "bike_id": "89f28f93d2ad640806b16030ad4208c4", "lat": 38.878179333333335, "fusion_lon": 0.0, "fusion_lat": 0.0, "type": "electric_scooter", "name": "89f28f93d2ad640806b16030ad4208c4", "is_disabled": 0, "rental_uris": {"ios": "https://dc.lft.to/lastmile_qr_scan", "android": "https://dc.lft.to/lastmile_qr_scan"}, "is_reserved": 0}, {"lon": -77.04690983333333, "bike_id": "2842b8137bbce297ba58a6b7e631a949", "lat": 38.9167235, "fusion_lon": 0.0, "fusion_lat": 0.0, "type": "electric_bike", "name": "2842b8137bbce297ba58a6b7e631a949", "is_disabled": 0, "rental_uris": {"ios": "https://dc.lft.to/lastmile_qr_scan", "android": "https://dc.lft.to/lastmile_qr_scan"}, "is_reserved": 0}, {"lon": -77.045045, "bike_id": "ee8fa558ec3b2d0ec6ff8d0602c44cff", "lat": 38.91124716666667, "fusion_lon": 0.0, "fusion_lat": 0.0, "type": "electric_scooter", "name": "ee8fa558ec3b2d0ec6ff8d0602c44cff", "is_disabled": 0, "rental_uris": {"ios": "https://dc.lft.to/lastmile_qr_scan", "android": "https://dc.lft.to/lastmile_qr_scan"}, "is_reserved": 0}, {"lon": -76.948926, "bike_id": "c61afd413da9f337e39c280b7d4d376b", "lat": 38.895339, "fusion_lon": 0.0, "fusion_lat": 0.0, "type": "electric_scooter", "name": "c61afd413da9f337e39c280b7d4d376b", "is_disabled": 0, "rental_uris": {"ios": "https://dc.lft.to/lastmile_qr_scan", "android": "https://dc.lft.to/lastmile_qr_scan"}, "is_reserved": 0}, {"lon": -77.01872833333333, "bike_id": "3591ef8a219da180b39f40180f1c9ce0", "lat": 38.901433833333336, "fusion_lon": 0.0, "fusion_lat": 0.0, "type": "electric_scooter", "name": "3591ef8a219da180b39f40180f1c9ce0", "is_disabled": 0, "rental_uris": {"ios": "https://dc.lft.to/lastmile_qr_scan", "android": "https://dc.lft.to/lastmile_qr_scan"}, "is_reserved": 0}, {"lon": -77.0882195, "bike_id": "fc9832d554ad1de15fcf745012d705c2", "lat": 38.909805166666665, "fusion_lon": 0.0, "fusion_lat": 0.0, "type": "electric_scooter", "name": "fc9832d554ad1de15fcf745012d705c2", "is_disabled": 0, "rental_uris": {"ios": "https://dc.lft.to/lastmile_qr_scan", "android": "https://dc.lft.to/lastmile_qr_scan"}, "is_reserved": 0}, {"lon": -77.00221216666667, "bike_id": "c1b88d64f1683edca465bf7f4abf349a", "lat": 38.900409333333336, "fusion_lon": 0.0, "fusion_lat": 0.0, "type": "electric_scooter", "name": "c1b88d64f1683edca465bf7f4abf349a", "is_disabled": 0, "rental_uris": {"ios": "https://dc.lft.to/lastmile_qr_scan", "android": "https://dc.lft.to/lastmile_qr_scan"}, "is_reserved": 0}, {"lon": -77.02389366666667, "bike_id": "9373c3682cadb67d25c9826459de75f1", "lat": 38.9098795, "fusion_lon": 0.0, "fusion_lat": 0.0, "type": "electric_scooter", "name": "9373c3682cadb67d25c9826459de75f1", "is_disabled": 0, "rental_uris": {"ios": "https://dc.lft.to/lastmile_qr_scan", "android": "https://dc.lft.to/lastmile_qr_scan"}, "is_reserved": 0}, {"lon": -77.00728933333333, "bike_id": "781a171c1a813b55d94e3ccbf515b5b2", "lat": 38.95061333333334, "fusion_lon": 0.0, "fusion_lat": 0.0, "type": "electric_bike", "name": "781a171c1a813b55d94e3ccbf515b5b2", "is_disabled": 0, "rental_uris": {"ios": "https://dc.lft.to/lastmile_qr_scan", "android": "https://dc.lft.to/lastmile_qr_scan"}, "is_reserved": 0}, {"lon": -76.99277533333333, "bike_id": "1013f69327028ce41fb22734a2f9745b", "lat": 38.8976675, "fusion_lon": 0.0, "fusion_lat": 0.0, "type": "electric_scooter", "name": "1013f69327028ce41fb22734a2f9745b", "is_disabled": 0, "rental_uris": {"ios": "https://dc.lft.to/lastmile_qr_scan", "android": "https://dc.lft.to/lastmile_qr_scan"}, "is_reserved": 0}, {"lon": -76.98330533333333, "bike_id": "e1e45d38fbfe9006861d709b8a364b6b", "lat": 38.900982, "fusion_lon": 0.0, "fusion_lat": 0.0, "type": "electric_scooter", "name": "e1e45d38fbfe9006861d709b8a364b6b", "is_disabled": 0, "rental_uris": {"ios": "https://dc.lft.to/lastmile_qr_scan", "android": "https://dc.lft.to/lastmile_qr_scan"}, "is_reserved": 0}, {"lon": -77.031825, "bike_id": "979347e515efaa9fa82ffa4892c7e338", "lat": 38.91906933333333, "fusion_lon": 0.0, "fusion_lat": 0.0, "type": "electric_scooter", "name": "979347e515efaa9fa82ffa4892c7e338", "is_disabled": 0, "rental_uris": {"ios": "https://dc.lft.to/lastmile_qr_scan", "android": "https://dc.lft.to/lastmile_qr_scan"}, "is_reserved": 0}, {"lon": -77.0352465, "bike_id": "e80ff870fb526848b50da2acf1a075ab", "lat": 38.927305, "fusion_lon": 0.0, "fusion_lat": 0.0, "type": "electric_scooter", "name": "e80ff870fb526848b50da2acf1a075ab", "is_disabled": 0, "rental_uris": {"ios": "https://dc.lft.to/lastmile_qr_scan", "android": "https://dc.lft.to/lastmile_qr_scan"}, "is_reserved": 0}, {"lon": -77.029814, "bike_id": "c34b99c4dd7d45ecee422f2a063f6fe8", "lat": 38.935039833333335, "fusion_lon": 0.0, "fusion_lat": 0.0, "type": "electric_scooter", "name": "c34b99c4dd7d45ecee422f2a063f6fe8", "is_disabled": 0, "rental_uris": {"ios": "https://dc.lft.to/lastmile_qr_scan", "android": "https://dc.lft.to/lastmile_qr_scan"}, "is_reserved": 0}, {"lon": -76.97823283333334, "bike_id": "e1a6089de5cdbf878aa432cdb6476f5e", "lat": 38.84373316666667, "fusion_lon": 0.0, "fusion_lat": 0.0, "type": "electric_bike", "name": "e1a6089de5cdbf878aa432cdb6476f5e", "is_disabled": 0, "rental_uris": {"ios": "https://dc.lft.to/lastmile_qr_scan", "android": "https://dc.lft.to/lastmile_qr_scan"}, "is_reserved": 0}, {"lon": -77.02308416666666, "bike_id": "6e51361e9934c8fb9feebbc94cde930f", "lat": 38.90884233333333, "fusion_lon": 0.0, "fusion_lat": 0.0, "type": "electric_scooter", "name": "6e51361e9934c8fb9feebbc94cde930f", "is_disabled": 0, "rental_uris": {"ios": "https://dc.lft.to/lastmile_qr_scan", "android": "https://dc.lft.to/lastmile_qr_scan"}, "is_reserved": 0}, {"lon": -77.08338083333334, "bike_id": "0e8785c98fe3f4e6cb474397fcee8f8a", "lat": 38.854418333333335, "fusion_lon": 0.0, "fusion_lat": 0.0, "type": "electric_bike", "name": "0e8785c98fe3f4e6cb474397fcee8f8a", "is_disabled": 0, "rental_uris": {"ios": "https://dc.lft.to/lastmile_qr_scan", "android": "https://dc.lft.to/lastmile_qr_scan"}, "is_reserved": 0}, {"lon": -77.02494866666666, "bike_id": "e60a2f05de4614248558daba25687c3f", "lat": 38.90412283333333, "fusion_lon": 0.0, "fusion_lat": 0.0, "type": "electric_scooter", "name": "e60a2f05de4614248558daba25687c3f", "is_disabled": 0, "rental_uris": {"ios": "https://dc.lft.to/lastmile_qr_scan", "android": "https://dc.lft.to/lastmile_qr_scan"}, "is_reserved": 0}, {"lon": -77.02613466666666, "bike_id": "fe77cce5641e5550fd9d622c74262907", "lat": 38.9258665, "fusion_lon": 0.0, "fusion_lat": 0.0, "type": "electric_scooter", "name": "fe77cce5641e5550fd9d622c74262907", "is_disabled": 0, "rental_uris": {"ios": "https://dc.lft.to/lastmile_qr_scan", "android": "https://dc.lft.to/lastmile_qr_scan"}, "is_reserved": 0}, {"lon": -77.01194733333334, "bike_id": "7660a98716b75bbcce9a003dfd7b1c10", "lat": 38.90010733333333, "fusion_lon": 0.0, "fusion_lat": 0.0, "type": "electric_scooter", "name": "7660a98716b75bbcce9a003dfd7b1c10", "is_disabled": 0, "rental_uris": {"ios": "https://dc.lft.to/lastmile_qr_scan", "android": "https://dc.lft.to/lastmile_qr_scan"}, "is_reserved": 0}, {"lon": -77.02983233333333, "bike_id": "951ea8e168fe97bfd19e468a88be39a7", "lat": 38.9290295, "fusion_lon": 0.0, "fusion_lat": 0.0, "type": "electric_scooter", "name": "951ea8e168fe97bfd19e468a88be39a7", "is_disabled": 0, "rental_uris": {"ios": "https://dc.lft.to/lastmile_qr_scan", "android": "https://dc.lft.to/lastmile_qr_scan"}, "is_reserved": 0}, {"lon": -77.01817683333333, "bike_id": "684dd72c7b59d0bb9be87498ba1b6ad7", "lat": 38.900775833333334, "fusion_lon": 0.0, "fusion_lat": 0.0, "type": "electric_scooter", "name": "684dd72c7b59d0bb9be87498ba1b6ad7", "is_disabled": 0, "rental_uris": {"ios": "https://dc.lft.to/lastmile_qr_scan", "android": "https://dc.lft.to/lastmile_qr_scan"}, "is_reserved": 0}, {"lon": -77.01726, "bike_id": "cb0d75628332f5817f8c863ac6b2c2d5", "lat": 38.905623, "fusion_lon": 0.0, "fusion_lat": 0.0, "type": "electric_scooter", "name": "cb0d75628332f5817f8c863ac6b2c2d5", "is_disabled": 0, "rental_uris": {"ios": "https://dc.lft.to/lastmile_qr_scan", "android": "https://dc.lft.to/lastmile_qr_scan"}, "is_reserved": 0}, {"lon": -77.03583316666666, "bike_id": "d23df59959589e240082d695007f33f3", "lat": 38.992277, "fusion_lon": 0.0, "fusion_lat": 0.0, "type": "electric_scooter", "name": "d23df59959589e240082d695007f33f3", "is_disabled": 0, "rental_uris": {"ios": "https://dc.lft.to/lastmile_qr_scan", "android": "https://dc.lft.to/lastmile_qr_scan"}, "is_reserved": 0}, {"lon": -77.04168666666666, "bike_id": "2fed4ac9d6050cccd874ca5c63dfacdd", "lat": 38.93146483333334, "fusion_lon": 0.0, "fusion_lat": 0.0, "type": "electric_scooter", "name": "2fed4ac9d6050cccd874ca5c63dfacdd", "is_disabled": 0, "rental_uris": {"ios": "https://dc.lft.to/lastmile_qr_scan", "android": "https://dc.lft.to/lastmile_qr_scan"}, "is_reserved": 0}, {"lon": -77.026049, "bike_id": "c1d3b087ff1895a6fd0206f688f57fa8", "lat": 38.90574083333333, "fusion_lon": 0.0, "fusion_lat": 0.0, "type": "electric_scooter", "name": "c1d3b087ff1895a6fd0206f688f57fa8", "is_disabled": 0, "rental_uris": {"ios": "https://dc.lft.to/lastmile_qr_scan", "android": "https://dc.lft.to/lastmile_qr_scan"}, "is_reserved": 0}, {"lon": -77.03499233333334, "bike_id": "111c9a01a5998025e340f972a2cd9c99", "lat": 38.932750666666664, "fusion_lon": 0.0, "fusion_lat": 0.0, "type": "electric_scooter", "name": "111c9a01a5998025e340f972a2cd9c99", "is_disabled": 0, "rental_uris": {"ios": "https://dc.lft.to/lastmile_qr_scan", "android": "https://dc.lft.to/lastmile_qr_scan"}, "is_reserved": 0}, {"lon": -76.94190733333333, "bike_id": "c9003f90bbb5742fa6dfc1bd2dae15c9", "lat": 38.893086333333336, "fusion_lon": 0.0, "fusion_lat": 0.0, "type": "electric_bike", "name": "c9003f90bbb5742fa6dfc1bd2dae15c9", "is_disabled": 0, "rental_uris": {"ios": "https://dc.lft.to/lastmile_qr_scan", "android": "https://dc.lft.to/lastmile_qr_scan"}, "is_reserved": 0}, {"lon": -77.01623583333334, "bike_id": "2538897b76f9216504f7067c655d690e", "lat": 38.908696666666664, "fusion_lon": 0.0, "fusion_lat": 0.0, "type": "electric_scooter", "name": "2538897b76f9216504f7067c655d690e", "is_disabled": 0, "rental_uris": {"ios": "https://dc.lft.to/lastmile_qr_scan", "android": "https://dc.lft.to/lastmile_qr_scan"}, "is_reserved": 0}, {"lon": -77.04863933333333, "bike_id": "1b09ee4978a42a30d0be91ae0ab8ba76", "lat": 38.9095795, "fusion_lon": 0.0, "fusion_lat": 0.0, "type": "electric_scooter", "name": "1b09ee4978a42a30d0be91ae0ab8ba76", "is_disabled": 0, "rental_uris": {"ios": "https://dc.lft.to/lastmile_qr_scan", "android": "https://dc.lft.to/lastmile_qr_scan"}, "is_reserved": 0}, {"lon": -76.99870583333333, "bike_id": "bbf00bd06de2a9ebee71d368547247ee", "lat": 38.900274333333336, "fusion_lon": 0.0, "fusion_lat": 0.0, "type": "electric_scooter", "name": "bbf00bd06de2a9ebee71d368547247ee", "is_disabled": 0, "rental_uris": {"ios": "https://dc.lft.to/lastmile_qr_scan", "android": "https://dc.lft.to/lastmile_qr_scan"}, "is_reserved": 0}, {"lon": -77.02802383333334, "bike_id": "e0a7207264c1214158ed404f2a69a6f8", "lat": 38.95642683333333, "fusion_lon": 0.0, "fusion_lat": 0.0, "type": "electric_bike", "name": "e0a7207264c1214158ed404f2a69a6f8", "is_disabled": 0, "rental_uris": {"ios": "https://dc.lft.to/lastmile_qr_scan", "android": "https://dc.lft.to/lastmile_qr_scan"}, "is_reserved": 0}, {"lon": -77.002134, "bike_id": "7a6307afb57708810856dbdd6fcb40c9", "lat": 38.914662, "fusion_lon": 0.0, "fusion_lat": 0.0, "type": "electric_scooter", "name": "7a6307afb57708810856dbdd6fcb40c9", "is_disabled": 0, "rental_uris": {"ios": "https://dc.lft.to/lastmile_qr_scan", "android": "https://dc.lft.to/lastmile_qr_scan"}, "is_reserved": 0}, {"lon": -77.0447945, "bike_id": "dc616b0321c69baee166b16211a82557", "lat": 38.913650833333335, "fusion_lon": 0.0, "fusion_lat": 0.0, "type": "electric_scooter", "name": "dc616b0321c69baee166b16211a82557", "is_disabled": 0, "rental_uris": {"ios": "https://dc.lft.to/lastmile_qr_scan", "android": "https://dc.lft.to/lastmile_qr_scan"}, "is_reserved": 0}, {"lon": -77.04200283333333, "bike_id": "d7b42649b1885d3746992f5999ab8bce", "lat": 38.92058566666667, "fusion_lon": 0.0, "fusion_lat": 0.0, "type": "electric_scooter", "name": "d7b42649b1885d3746992f5999ab8bce", "is_disabled": 0, "rental_uris": {"ios": "https://dc.lft.to/lastmile_qr_scan", "android": "https://dc.lft.to/lastmile_qr_scan"}, "is_reserved": 0}, {"lon": -77.04423816666667, "bike_id": "ed1a77a04726f39b8de1f39f15e4de60", "lat": 38.92121, "fusion_lon": 0.0, "fusion_lat": 0.0, "type": "electric_scooter", "name": "ed1a77a04726f39b8de1f39f15e4de60", "is_disabled": 0, "rental_uris": {"ios": "https://dc.lft.to/lastmile_qr_scan", "android": "https://dc.lft.to/lastmile_qr_scan"}, "is_reserved": 0}, {"lon": -77.00791616666666, "bike_id": "d054473d16565afeec02abbc53a27a5e", "lat": 38.9492225, "fusion_lon": 0.0, "fusion_lat": 0.0, "type": "electric_bike", "name": "d054473d16565afeec02abbc53a27a5e", "is_disabled": 0, "rental_uris": {"ios": "https://dc.lft.to/lastmile_qr_scan", "android": "https://dc.lft.to/lastmile_qr_scan"}, "is_reserved": 0}, {"lon": -77.04006566666666, "bike_id": "b28cc787d00c3b06a2401339325666cb", "lat": 38.91000316666667, "fusion_lon": 0.0, "fusion_lat": 0.0, "type": "electric_scooter", "name": "b28cc787d00c3b06a2401339325666cb", "is_disabled": 0, "rental_uris": {"ios": "https://dc.lft.to/lastmile_qr_scan", "android": "https://dc.lft.to/lastmile_qr_scan"}, "is_reserved": 0}, {"lon": -77.03448316666666, "bike_id": "567e289c9bce779a685f2f12a2ec2f64", "lat": 38.920006666666666, "fusion_lon": 0.0, "fusion_lat": 0.0, "type": "electric_scooter", "name": "567e289c9bce779a685f2f12a2ec2f64", "is_disabled": 0, "rental_uris": {"ios": "https://dc.lft.to/lastmile_qr_scan", "android": "https://dc.lft.to/lastmile_qr_scan"}, "is_reserved": 0}, {"lon": -77.0362805, "bike_id": "1922240126ecd0411710c9b276d6ef00", "lat": 38.9315585, "fusion_lon": 0.0, "fusion_lat": 0.0, "type": "electric_scooter", "name": "1922240126ecd0411710c9b276d6ef00", "is_disabled": 0, "rental_uris": {"ios": "https://dc.lft.to/lastmile_qr_scan", "android": "https://dc.lft.to/lastmile_qr_scan"}, "is_reserved": 0}, {"lon": -76.978214, "bike_id": "4b13057f6c1f907eb8b5d515c68c3c03", "lat": 38.90673866666667, "fusion_lon": 0.0, "fusion_lat": 0.0, "type": "electric_scooter", "name": "4b13057f6c1f907eb8b5d515c68c3c03", "is_disabled": 0, "rental_uris": {"ios": "https://dc.lft.to/lastmile_qr_scan", "android": "https://dc.lft.to/lastmile_qr_scan"}, "is_reserved": 0}, {"lon": -77.0145955, "bike_id": "aa5189a82fdb094174661a2c3685ed38", "lat": 38.917714833333335, "fusion_lon": 0.0, "fusion_lat": 0.0, "type": "electric_scooter", "name": "aa5189a82fdb094174661a2c3685ed38", "is_disabled": 0, "rental_uris": {"ios": "https://dc.lft.to/lastmile_qr_scan", "android": "https://dc.lft.to/lastmile_qr_scan"}, "is_reserved": 0}, {"lon": -77.1084555, "bike_id": "f3000456911b1a7e4196324dddba8412", "lat": 38.81200716666667, "fusion_lon": 0.0, "fusion_lat": 0.0, "type": "electric_bike", "name": "f3000456911b1a7e4196324dddba8412", "is_disabled": 0, "rental_uris": {"ios": "https://dc.lft.to/lastmile_qr_scan", "android": "https://dc.lft.to/lastmile_qr_scan"}, "is_reserved": 0}, {"lon": -77.02562483333334, "bike_id": "50106c94a7ae8078087db5aa8cf07c4a", "lat": 38.91490133333333, "fusion_lon": 0.0, "fusion_lat": 0.0, "type": "electric_scooter", "name": "50106c94a7ae8078087db5aa8cf07c4a", "is_disabled": 0, "rental_uris": {"ios": "https://dc.lft.to/lastmile_qr_scan", "android": "https://dc.lft.to/lastmile_qr_scan"}, "is_reserved": 0}, {"lon": -76.99177366666666, "bike_id": "40d4934cd0c31f4a926823cc2ec4fe08", "lat": 38.905054, "fusion_lon": 0.0, "fusion_lat": 0.0, "type": "electric_scooter", "name": "40d4934cd0c31f4a926823cc2ec4fe08", "is_disabled": 0, "rental_uris": {"ios": "https://dc.lft.to/lastmile_qr_scan", "android": "https://dc.lft.to/lastmile_qr_scan"}, "is_reserved": 0}, {"lon": -77.02971166666667, "bike_id": "ffd1de962ac94ab46d05c0ad64b0ed0d", "lat": 38.904975666666665, "fusion_lon": 0.0, "fusion_lat": 0.0, "type": "electric_scooter", "name": "ffd1de962ac94ab46d05c0ad64b0ed0d", "is_disabled": 0, "rental_uris": {"ios": "https://dc.lft.to/lastmile_qr_scan", "android": "https://dc.lft.to/lastmile_qr_scan"}, "is_reserved": 0}, {"lon": -77.03577683333333, "bike_id": "2ab6b36aae20fd7a08da63c1d9778293", "lat": 38.934774, "fusion_lon": 0.0, "fusion_lat": 0.0, "type": "electric_scooter", "name": "2ab6b36aae20fd7a08da63c1d9778293", "is_disabled": 0, "rental_uris": {"ios": "https://dc.lft.to/lastmile_qr_scan", "android": "https://dc.lft.to/lastmile_qr_scan"}, "is_reserved": 0}, {"lon": -76.89540416666667, "bike_id": "da59d1daa9a59a4ce0417031df21843d", "lat": 38.9455415, "fusion_lon": 0.0, "fusion_lat": 0.0, "type": "electric_bike", "name": "da59d1daa9a59a4ce0417031df21843d", "is_disabled": 0, "rental_uris": {"ios": "https://dc.lft.to/lastmile_qr_scan", "android": "https://dc.lft.to/lastmile_qr_scan"}, "is_reserved": 0}, {"lon": -77.071222, "bike_id": "ea1bff39d68477e92a242b0daf3bba87", "lat": 38.919742, "fusion_lon": 0.0, "fusion_lat": 0.0, "type": "electric_scooter", "name": "ea1bff39d68477e92a242b0daf3bba87", "is_disabled": 0, "rental_uris": {"ios": "https://dc.lft.to/lastmile_qr_scan", "android": "https://dc.lft.to/lastmile_qr_scan"}, "is_reserved": 0}, {"lon": -77.01940083333334, "bike_id": "e2f901a9d2da8846ef6cecad4238eec8", "lat": 38.936870166666665, "fusion_lon": 0.0, "fusion_lat": 0.0, "type": "electric_scooter", "name": "e2f901a9d2da8846ef6cecad4238eec8", "is_disabled": 0, "rental_uris": {"ios": "https://dc.lft.to/lastmile_qr_scan", "android": "https://dc.lft.to/lastmile_qr_scan"}, "is_reserved": 0}, {"lon": -76.99529733333334, "bike_id": "0e681c1845868e9479c4c022e18b8a72", "lat": 38.88373633333333, "fusion_lon": 0.0, "fusion_lat": 0.0, "type": "electric_scooter", "name": "0e681c1845868e9479c4c022e18b8a72", "is_disabled": 0, "rental_uris": {"ios": "https://dc.lft.to/lastmile_qr_scan", "android": "https://dc.lft.to/lastmile_qr_scan"}, "is_reserved": 0}, {"lon": -77.038557, "bike_id": "60d6fcd15d112e815bd1eb60dc9856ce", "lat": 38.9156705, "fusion_lon": 0.0, "fusion_lat": 0.0, "type": "electric_scooter", "name": "60d6fcd15d112e815bd1eb60dc9856ce", "is_disabled": 0, "rental_uris": {"ios": "https://dc.lft.to/lastmile_qr_scan", "android": "https://dc.lft.to/lastmile_qr_scan"}, "is_reserved": 0}, {"lon": -77.03668333333333, "bike_id": "d45b6d98d026bd75599c1ae1c3a452c8", "lat": 38.91816716666666, "fusion_lon": 0.0, "fusion_lat": 0.0, "type": "electric_scooter", "name": "d45b6d98d026bd75599c1ae1c3a452c8", "is_disabled": 0, "rental_uris": {"ios": "https://dc.lft.to/lastmile_qr_scan", "android": "https://dc.lft.to/lastmile_qr_scan"}, "is_reserved": 0}, {"lon": -76.93188216666667, "bike_id": "dabcf02f3b2761e6bf7ea549331b6bc1", "lat": 38.89878066666667, "fusion_lon": 0.0, "fusion_lat": 0.0, "type": "electric_scooter", "name": "dabcf02f3b2761e6bf7ea549331b6bc1", "is_disabled": 0, "rental_uris": {"ios": "https://dc.lft.to/lastmile_qr_scan", "android": "https://dc.lft.to/lastmile_qr_scan"}, "is_reserved": 0}, {"lon": -77.04696066666666, "bike_id": "dee15d263a733f12b410ecae22704924", "lat": 38.9206365, "fusion_lon": 0.0, "fusion_lat": 0.0, "type": "electric_scooter", "name": "dee15d263a733f12b410ecae22704924", "is_disabled": 0, "rental_uris": {"ios": "https://dc.lft.to/lastmile_qr_scan", "android": "https://dc.lft.to/lastmile_qr_scan"}, "is_reserved": 0}, {"lon": -76.98545766666666, "bike_id": "6fcaf6cbbf5cd133fde38be394c9eb3f", "lat": 38.89655333333333, "fusion_lon": 0.0, "fusion_lat": 0.0, "type": "electric_scooter", "name": "6fcaf6cbbf5cd133fde38be394c9eb3f", "is_disabled": 0, "rental_uris": {"ios": "https://dc.lft.to/lastmile_qr_scan", "android": "https://dc.lft.to/lastmile_qr_scan"}, "is_reserved": 0},