{"data": {"bikes": [{"bike_id": "6a02b550b6502f9007bf08410046308c", "type": "electric_scooter", "is_disabled": 0, "lat": 38.88878616666667, "rental_uris": {"ios": "https://dc.lft.to/lastmile_qr_scan", "android": "https://dc.lft.to/lastmile_qr_scan"}, "is_reserved": 0, "fusion_lon": 0.0, "fusion_lat": 0.0, "lon": -76.9903685, "name": "6a02b550b6502f9007bf08410046308c"}, {"bike_id": "0311c374f1b0af9a56bc9c39bd5b270e", "type": "electric_bike", "is_disabled": 0, "lat": 38.990897, "rental_uris": {"ios": "https://dc.lft.to/lastmile_qr_scan", "android": "https://dc.lft.to/lastmile_qr_scan"}, "is_reserved": 0, "fusion_lon": 0.0, "fusion_lat": 0.0, "lon": -76.87496033333333, "name": "0311c374f1b0af9a56bc9c39bd5b270e"}, {"bike_id": "886eb64de32abe606a9b27d08811ef99", "type": "electric_scooter", "is_disabled": 0, "lat": 38.92354, "rental_uris": {"ios": "https://dc.lft.to/lastmile_qr_scan", "android": "https://dc.lft.to/lastmile_qr_scan"}, "is_reserved": 0, "fusion_lon": 0.0, "fusion_lat": 0.0, "lon": -77.073129, "name": "886eb64de32abe606a9b27d08811ef99"}, {"bike_id": "de64a0c49c1e99f762e01fd8be9f3712", "type": "electric_scooter", "is_disabled": 0, "lat": 38.917058, "rental_uris": {"ios": "https://dc.lft.to/lastmile_qr_scan", "android": "https://dc.lft.to/lastmile_qr_scan"}, "is_reserved": 0, "fusion_lon": 0.0, "fusion_lat": 0.0, "lon": -77.03114083333334, "name": "de64a0c49c1e99f762e01fd8be9f3712"}, {"bike_id": "e684d56cc0e6d0d150b90df56068c3fc", "type": "electric_scooter", "is_disabled": 0, "lat": 38.8923175, "rental_uris": {"ios": "https://dc.lft.to/lastmile_qr_scan", "android": "https://dc.lft.to/lastmile_qr_scan"}, "is_reserved": 0, "fusion_lon": 0.0, "fusion_lat": 0.0, "lon": -77.04997133333333, "name": "e684d56cc0e6d0d150b90df56068c3fc"}, {"bike_id": "35a00e3f24c0523178d5037007a748ba", "type": "electric_scooter", "is_disabled": 0, "lat": 38.920053, "rental_uris": {"ios": "https://dc.lft.to/lastmile_qr_scan", "android": "https://dc.lft.to/lastmile_qr_scan"}, "is_reserved": 0, "fusion_lon": 0.0, "fusion_lat": 0.0, "lon": -77.02390016666666, "name": "35a00e3f24c0523178d5037007a748ba"}, {"bike_id": "1c786ad861706b7876c65bebaf1061ab", "type": "electric_scooter", "is_disabled": 0, "lat": 38.909694333333334, "rental_uris": {"ios": "https://dc.lft.to/lastmile_qr_scan", "android": "https://dc.lft.to/lastmile_qr_scan"}, "is_reserved": 0, "fusion_lon": 0.0, "fusion_lat": 0.0, "lon": -77.023066, "name": "1c786ad861706b7876c65bebaf1061ab"}, {"bike_id": "b97959d692902f8439f87f5807483798", "type": "electric_scooter", "is_disabled": 0, "lat": 38.92074983333333, "rental_uris": {"ios": "https://dc.lft.to/lastmile_qr_scan", "android": "https://dc.lft.to/lastmile_qr_scan"}, "is_reserved": 0, "fusion_lon": 0.0, "fusion_lat": 0.0, "lon": -77.0250665, "name": "b97959d692902f8439f87f5807483798"}, {"bike_id": "7214898e55e28174a6ead546c6018016", "type": "electric_scooter", "is_disabled": 0, "lat": 38.89612783333333, "rental_uris": {"ios": "https://dc.lft.to/lastmile_qr_scan", "android": "https://dc.lft.to/lastmile_qr_scan"}, "is_reserved": 0, "fusion_lon": 0.0, "fusion_lat": 0.0, "lon": -77.0268885, "name": "7214898e55e28174a6ead546c6018016"}, {"bike_id": "f9a128091b3c1ead6b4a48d6d0e00f6c", "type": "electric_scooter", "is_disabled": 0, "lat": 38.92756516666667, "rental_uris": {"ios": "https://dc.lft.to/lastmile_qr_scan", "android": "https://dc.lft.to/lastmile_qr_scan"}, "is_reserved": 0, "fusion_lon": 0.0, "fusion_lat": 0.0, "lon": -77.0327505, "name": "f9a128091b3c1ead6b4a48d6d0e00f6c"}, {"bike_id": "e83b483bde09eaf594558d257c06d5f5", "type": "electric_scooter", "is_disabled": 0, "lat": 38.897331666666666, "rental_uris": {"ios": "https://dc.lft.to/lastmile_qr_scan", "android": "https://dc.lft.to/lastmile_qr_scan"}, "is_reserved": 0, "fusion_lon": 0.0, "fusion_lat": 0.0, "lon": -77.00369216666667, "name": "e83b483bde09eaf594558d257c06d5f5"}, {"bike_id": "9a31c1e4d8536f563f868ab1cdcd050b", "type": "electric_scooter", "is_disabled": 0, "lat": 38.843178333333334, "rental_uris": {"ios": "https://dc.lft.to/lastmile_qr_scan", "android": "https://dc.lft.to/lastmile_qr_scan"}, "is_reserved": 0, "fusion_lon": 0.0, "fusion_lat": 0.0, "lon": -76.99927733333334, "name": "9a31c1e4d8536f563f868ab1cdcd050b"}, {"bike_id": "17c9fd2d3d6695f8f46c5f285a275b45", "type": "electric_scooter", "is_disabled": 0, "lat": 38.904984, "rental_uris": {"ios": "https://dc.lft.to/lastmile_qr_scan", "android": "https://dc.lft.to/lastmile_qr_scan"}, "is_reserved": 0, "fusion_lon": 0.0, "fusion_lat": 0.0, "lon": -77.0600575, "name": "17c9fd2d3d6695f8f46c5f285a275b45"}, {"bike_id": "2d41803353d05fc5019577c9939b4806", "type": "electric_scooter", "is_disabled": 0, "lat": 38.894981, "rental_uris": {"ios": "https://dc.lft.to/lastmile_qr_scan", "android": "https://dc.lft.to/lastmile_qr_scan"}, "is_reserved": 0, "fusion_lon": 0.0, "fusion_lat": 0.0, "lon": -76.98838566666667, "name": "2d41803353d05fc5019577c9939b4806"}, {"bike_id": "a9b672d0c19d8e943e75ba8be0fc08f7", "type": "electric_scooter", "is_disabled": 0, "lat": 38.906565, "rental_uris": {"ios": "https://dc.lft.to/lastmile_qr_scan", "android": "https://dc.lft.to/lastmile_qr_scan"}, "is_reserved": 0, "fusion_lon": 0.0, "fusion_lat": 0.0, "lon": -77.05146116666667, "name": "a9b672d0c19d8e943e75ba8be0fc08f7"}, {"bike_id": "c16f41741286d3c1ac6327010cba5fd5", "type": "electric_scooter", "is_disabled": 0, "lat": 38.883454666666665, "rental_uris": {"ios": "https://dc.lft.to/lastmile_qr_scan", "android": "https://dc.lft.to/lastmile_qr_scan"}, "is_reserved": 0, "fusion_lon": 0.0, "fusion_lat": 0.0, "lon": -76.99508566666667, "name": "c16f41741286d3c1ac6327010cba5fd5"}, {"bike_id": "569d3e0b2ce29dbee80fc5af22e55603", "type": "electric_scooter", "is_disabled": 0, "lat": 38.91715716666667, "rental_uris": {"ios": "https://dc.lft.to/lastmile_qr_scan", "android": "https://dc.lft.to/lastmile_qr_scan"}, "is_reserved": 0, "fusion_lon": 0.0, "fusion_lat": 0.0, "lon": -77.03663583333334, "name": "569d3e0b2ce29dbee80fc5af22e55603"}, {"bike_id": "72a892cd4026f104e08604a03f371053", "type": "electric_scooter", "is_disabled": 0, "lat": 38.93705933333333, "rental_uris": {"ios": "https://dc.lft.to/lastmile_qr_scan", "android": "https://dc.lft.to/lastmile_qr_scan"}, "is_reserved": 0, "fusion_lon": 0.0, "fusion_lat": 0.0, "lon": -77.03282783333333, "name": "72a892cd4026f104e08604a03f371053"}, {"bike_id": "b4dbd32e18f539f356bb5544d1ee344b", "type": "electric_scooter", "is_disabled": 0, "lat": 38.920053, "rental_uris": {"ios": "https://dc.lft.to/lastmile_qr_scan", "android": "https://dc.lft.to/lastmile_qr_scan"}, "is_reserved": 0, "fusion_lon": 0.0, "fusion_lat": 0.0, "lon": -77.02383416666666, "name": "b4dbd32e18f539f356bb5544d1ee344b"}, {"bike_id": "8129dc0fef34eb85653d8410b2436c70", "type": "electric_scooter", "is_disabled": 0, "lat": 38.90120783333333, "rental_uris": {"ios": "https://dc.lft.to/lastmile_qr_scan", "android": "https://dc.lft.to/lastmile_qr_scan"}, "is_reserved": 0, "fusion_lon": 0.0, "fusion_lat": 0.0, "lon": -77.0163385, "name": "8129dc0fef34eb85653d8410b2436c70"}, {"bike_id": "a7cc54fba77537a01f58916ee7f8cef2", "type": "electric_bike", "is_disabled": 0, "lat": 39.03707416666666, "rental_uris": {"ios": "https://dc.lft.to/lastmile_qr_scan", "android": "https://dc.lft.to/lastmile_qr_scan"}, "is_reserved": 0, "fusion_lon": 0.0, "fusion_lat": 0.0, "lon": -77.02858966666666, "name": "a7cc54fba77537a01f58916ee7f8cef2"}, {"bike_id": "88481bf5e0eff1f06c346f80715a340b", "type": "electric_scooter", "is_disabled": 0, "lat": 38.903484166666665, "rental_uris": {"ios": "https://dc.lft.to/lastmile_qr_scan", "android": "https://dc.lft.to/lastmile_qr_scan"}, "is_reserved": 0, "fusion_lon": 0.0, "fusion_lat": 0.0, "lon": -76.98506033333334, "name": "88481bf5e0eff1f06c346f80715a340b"}, {"bike_id": "a36f7d183c393f2ea60c5324d83c4b5f", "type": "electric_bike", "is_disabled": 0, "lat": 38.95504233333333, "rental_uris": {"ios": "https://dc.lft.to/lastmile_qr_scan", "android": "https://dc.lft.to/lastmile_qr_scan"}, "is_reserved": 0, "fusion_lon": 0.0, "fusion_lat": 0.0, "lon": -76.993555, "name": "a36f7d183c393f2ea60c5324d83c4b5f"}, {"bike_id": "815199b8ffd3c738e60381775386d53e", "type": "electric_scooter", "is_disabled": 0, "lat": 38.914528, "rental_uris": {"ios": "https://dc.lft.to/lastmile_qr_scan", "android": "https://dc.lft.to/lastmile_qr_scan"}, "is_reserved": 0, "fusion_lon": 0.0, "fusion_lat": 0.0, "lon": -77.0218665, "name": "815199b8ffd3c738e60381775386d53e"}, {"bike_id": "feb8dd566d1d263be2a6fe0db1001f10", "type": "electric_scooter", "is_disabled": 0, "lat": 38.95936716666667, "rental_uris": {"ios": "https://dc.lft.to/lastmile_qr_scan", "android": "https://dc.lft.to/lastmile_qr_scan"}, "is_reserved": 0, "fusion_lon": 0.0, "fusion_lat": 0.0, "lon": -77.03117666666667, "name": "feb8dd566d1d263be2a6fe0db1001f10"}, {"bike_id": "e96ec7e4207f140ee260398bd6efc1d2", "type": "electric_scooter", "is_disabled": 0, "lat": 38.9420215, "rental_uris": {"ios": "https://dc.lft.to/lastmile_qr_scan", "android": "https://dc.lft.to/lastmile_qr_scan"}, "is_reserved": 0, "fusion_lon": 0.0, "fusion_lat": 0.0, "lon": -77.023507, "name": "e96ec7e4207f140ee260398bd6efc1d2"}, {"bike_id": "242a8242813acfb9a1d67ceac0014b67", "type": "electric_scooter", "is_disabled": 0, "lat": 38.87648033333333, "rental_uris": {"ios": "https://dc.lft.to/lastmile_qr_scan", "android": "https://dc.lft.to/lastmile_qr_scan"}, "is_reserved": 0, "fusion_lon": 0.0, "fusion_lat": 0.0, "lon": -76.96504366666667, "name": "242a8242813acfb9a1d67ceac0014b67"}, {"bike_id": "87bd89406e2b02a904d24df4bb8ea93a", "type": "electric_scooter", "is_disabled": 0, "lat": 38.909842833333336, "rental_uris": {"ios": "https://dc.lft.to/lastmile_qr_scan", "android": "https://dc.lft.to/lastmile_qr_scan"}, "is_reserved": 0, "fusion_lon": 0.0, "fusion_lat": 0.0, "lon": -77.03441583333333, "name": "87bd89406e2b02a904d24df4bb8ea93a"}, {"bike_id": "20f2587474cf2b90f8ab964ccb9b9d66", "type": "electric_scooter", "is_disabled": 0, "lat": 38.924551666666666, "rental_uris": {"ios": "https://dc.lft.to/lastmile_qr_scan", "android": "https://dc.lft.to/lastmile_qr_scan"}, "is_reserved": 0, "fusion_lon": 0.0, "fusion_lat": 0.0, "lon": -77.02962033333333, "name": "20f2587474cf2b90f8ab964ccb9b9d66"}, {"bike_id": "9fcdc83a54e8245ff6517b07a44de6b3", "type": "electric_scooter", "is_disabled": 0, "lat": 38.904319, "rental_uris": {"ios": "https://dc.lft.to/lastmile_qr_scan", "android": "https://dc.lft.to/lastmile_qr_scan"}, "is_reserved": 0, "fusion_lon": 0.0, "fusion_lat": 0.0, "lon": -77.03471466666667, "name": "9fcdc83a54e8245ff6517b07a44de6b3"}, {"bike_id": "f26657eba0359470d550f23c05fc7ccc", "type": "electric_scooter", "is_disabled": 0, "lat": 38.916780333333335, "rental_uris": {"ios": "https://dc.lft.to/lastmile_qr_scan", "android": "https://dc.lft.to/lastmile_qr_scan"}, "is_reserved": 0, "fusion_lon": 0.0, "fusion_lat": 0.0, "lon": -77.02971816666667, "name": "f26657eba0359470d550f23c05fc7ccc"}, {"bike_id": "1dd43d44b8dffded2ecf72dae99f878e", "type": "electric_bike", "is_disabled": 0, "lat": 38.83670333333333, "rental_uris": {"ios": "https://dc.lft.to/lastmile_qr_scan", "android": "https://dc.lft.to/lastmile_qr_scan"}, "is_reserved": 0, "fusion_lon": 0.0, "fusion_lat": 0.0, "lon": -76.99360316666667, "name": "1dd43d44b8dffded2ecf72dae99f878e"}, {"bike_id": "30835b5483b793b172b241900f499b34", "type": "electric_scooter", "is_disabled": 0, "lat": 38.93476183333333, "rental_uris": {"ios": "https://dc.lft.to/lastmile_qr_scan", "android": "https://dc.lft.to/lastmile_qr_scan"}, "is_reserved": 0, "fusion_lon": 0.0, "fusion_lat": 0.0, "lon": -77.02614233333334, "name": "30835b5483b793b172b241900f499b34"}, {"bike_id": "e38957cb58704715144655090d6c130f", "type": "electric_scooter", "is_disabled": 0, "lat": 38.9354575, "rental_uris": {"ios": "https://dc.lft.to/lastmile_qr_scan", "android": "https://dc.lft.to/lastmile_qr_scan"}, "is_reserved": 0, "fusion_lon": 0.0, "fusion_lat": 0.0, "lon": -77.05828833333334, "name": "e38957cb58704715144655090d6c130f"}, {"bike_id": "d0a08a26abdaf5fe4d3fa3987df5831f", "type": "electric_scooter", "is_disabled": 0, "lat": 38.9125045, "rental_uris": {"ios": "https://dc.lft.to/lastmile_qr_scan", "android": "https://dc.lft.to/lastmile_qr_scan"}, "is_reserved": 0, "fusion_lon": 0.0, "fusion_lat": 0.0, "lon": -77.03859066666666, "name": "d0a08a26abdaf5fe4d3fa3987df5831f"}, {"bike_id": "6060ba947564057bace85d887dc49fae", "type": "electric_scooter", "is_disabled": 0, "lat": 38.906439666666664, "rental_uris": {"ios": "https://dc.lft.to/lastmile_qr_scan", "android": "https://dc.lft.to/lastmile_qr_scan"}, "is_reserved": 0, "fusion_lon": 0.0, "fusion_lat": 0.0, "lon": -77.017293, "name": "6060ba947564057bace85d887dc49fae"}, {"bike_id": "b193b0e814a202d83df8a70e230329be", "type": "electric_scooter", "is_disabled": 0, "lat": 38.9008885, "rental_uris": {"ios": "https://dc.lft.to/lastmile_qr_scan", "android": "https://dc.lft.to/lastmile_qr_scan"}, "is_reserved": 0, "fusion_lon": 0.0, "fusion_lat": 0.0, "lon": -77.03103916666667, "name": "b193b0e814a202d83df8a70e230329be"}, {"bike_id": "e876b5cef60ea6094e7710e592c60aa3", "type": "electric_scooter", "is_disabled": 0, "lat": 38.89938033333333, "rental_uris": {"ios": "https://dc.lft.to/lastmile_qr_scan", "android": "https://dc.lft.to/lastmile_qr_scan"}, "is_reserved": 0, "fusion_lon": 0.0, "fusion_lat": 0.0, "lon": -77.04775883333333, "name": "e876b5cef60ea6094e7710e592c60aa3"}, {"bike_id": "9705be161ec67bec252b119c595380d1", "type": "electric_scooter", "is_disabled": 0, "lat": 38.902730166666665, "rental_uris": {"ios": "https://dc.lft.to/lastmile_qr_scan", "android": "https://dc.lft.to/lastmile_qr_scan"}, "is_reserved": 0, "fusion_lon": 0.0, "fusion_lat": 0.0, "lon": -77.03386883333333, "name": "9705be161ec67bec252b119c595380d1"}, {"bike_id": "65a052dadf184fe93eb78c47b9f5c087", "type": "electric_scooter", "is_disabled": 0, "lat": 38.914035166666665, "rental_uris": {"ios": "https://dc.lft.to/lastmile_qr_scan", "android": "https://dc.lft.to/lastmile_qr_scan"}, "is_reserved": 0, "fusion_lon": 0.0, "fusion_lat": 0.0, "lon": -77.03145783333333, "name": "65a052dadf184fe93eb78c47b9f5c087"}, {"bike_id": "b57559f81be22c1510a6a71341276a14", "type": "electric_scooter", "is_disabled": 0, "lat": 38.907243333333334, "rental_uris": {"ios": "https://dc.lft.to/lastmile_qr_scan", "android": "https://dc.lft.to/lastmile_qr_scan"}, "is_reserved": 0, "fusion_lon": 0.0, "fusion_lat": 0.0, "lon": -77.02987933333333, "name": "b57559f81be22c1510a6a71341276a14"}, {"bike_id": "ed788dc65883a768c0c4e8353a214ef0", "type": "electric_scooter", "is_disabled": 0, "lat": 38.918829, "rental_uris": {"ios": "https://dc.lft.to/lastmile_qr_scan", "android": "https://dc.lft.to/lastmile_qr_scan"}, "is_reserved": 0, "fusion_lon": 0.0, "fusion_lat": 0.0, "lon": -77.02956, "name": "ed788dc65883a768c0c4e8353a214ef0"}, {"bike_id": "464055374275edc755650a31a5ad62e8", "type": "electric_bike", "is_disabled": 0, "lat": 38.9244745, "rental_uris": {"ios": "https://dc.lft.to/lastmile_qr_scan", "android": "https://dc.lft.to/lastmile_qr_scan"}, "is_reserved": 0, "fusion_lon": 0.0, "fusion_lat": 0.0, "lon": -77.22569466666667, "name": "464055374275edc755650a31a5ad62e8"}, {"bike_id": "d87dc86114c6fb0ccc37bfb946ef06b7", "type": "electric_scooter", "is_disabled": 0, "lat": 38.90680483333333, "rental_uris": {"ios": "https://dc.lft.to/lastmile_qr_scan", "android": "https://dc.lft.to/lastmile_qr_scan"}, "is_reserved": 0, "fusion_lon": 0.0, "fusion_lat": 0.0, "lon": -77.02693033333334, "name": "d87dc86114c6fb0ccc37bfb946ef06b7"}, {"bike_id": "0a420469d0999ef0c41ca7e3aca3ecdf", "type": "electric_scooter", "is_disabled": 0, "lat": 38.91479983333333, "rental_uris": {"ios": "https://dc.lft.to/lastmile_qr_scan", "android": "https://dc.lft.to/lastmile_qr_scan"}, "is_reserved": 0, "fusion_lon": 0.0, "fusion_lat": 0.0, "lon": -77.00283333333333, "name": "0a420469d0999ef0c41ca7e3aca3ecdf"}, {"bike_id": "251435f5d93f823d8a12b3a3ab7c3e66", "type": "electric_scooter", "is_disabled": 0, "lat": 38.93026233333333, "rental_uris": {"ios": "https://dc.lft.to/lastmile_qr_scan", "android": "https://dc.lft.to/lastmile_qr_scan"}, "is_reserved": 0, "fusion_lon": 0.0, "fusion_lat": 0.0, "lon": -77.06634966666667, "name": "251435f5d93f823d8a12b3a3ab7c3e66"}, {"bike_id": "fa7a8ef458542c0c7cdef145e7f01ed1", "type": "electric_scooter", "is_disabled": 0, "lat": 38.9395655, "rental_uris": {"ios": "https://dc.lft.to/lastmile_qr_scan", "android": "https://dc.lft.to/lastmile_qr_scan"}, "is_reserved": 0, "fusion_lon": 0.0, "fusion_lat": 0.0, "lon": -77.07253316666667, "name": "fa7a8ef458542c0c7cdef145e7f01ed1"}, {"bike_id": "54678d9fc540279ff5ac55a7dd038158", "type": "electric_scooter", "is_disabled": 0, "lat": 38.9071415, "rental_uris": {"ios": "https://dc.lft.to/lastmile_qr_scan", "android": "https://dc.lft.to/lastmile_qr_scan"}, "is_reserved": 0, "fusion_lon": 0.0, "fusion_lat": 0.0, "lon": -77.00034733333334, "name": "54678d9fc540279ff5ac55a7dd038158"}, {"bike_id": "a065408b66159910c1b3388f38dd636a", "type": "electric_scooter", "is_disabled": 0, "lat": 38.909805, "rental_uris": {"ios": "https://dc.lft.to/lastmile_qr_scan", "android": "https://dc.lft.to/lastmile_qr_scan"}, "is_reserved": 0, "fusion_lon": 0.0, "fusion_lat": 0.0, "lon": -77.03442616666666, "name": "a065408b66159910c1b3388f38dd636a"}, {"bike_id": "df8fa21c3529cf51bf9d56ae140dab4f", "type": "electric_scooter", "is_disabled": 0, "lat": 38.899250333333335, "rental_uris": {"ios": "https://dc.lft.to/lastmile_qr_scan", "android": "https://dc.lft.to/lastmile_qr_scan"}, "is_reserved": 0, "fusion_lon": 0.0, "fusion_lat": 0.0, "lon": -77.0536775, "name": "df8fa21c3529cf51bf9d56ae140dab4f"}, {"bike_id": "58431c50d95fbe7e5342a3f41cb850ce", "type": "electric_scooter", "is_disabled": 0, "lat": 38.90558633333333, "rental_uris": {"ios": "https://dc.lft.to/lastmile_qr_scan", "android": "https://dc.lft.to/lastmile_qr_scan"}, "is_reserved": 0, "fusion_lon": 0.0, "fusion_lat": 0.0, "lon": -77.02200916666666, "name": "58431c50d95fbe7e5342a3f41cb850ce"}, {"bike_id": "2236b52fc5ba9b48de560d0c6f3f0fb4", "type": "electric_bike", "is_disabled": 0, "lat": 38.920289833333335, "rental_uris": {"ios": "https://dc.lft.to/lastmile_qr_scan", "android": "https://dc.lft.to/lastmile_qr_scan"}, "is_reserved": 0, "fusion_lon": 0.0, "fusion_lat": 0.0, "lon": -77.01794733333334, "name": "2236b52fc5ba9b48de560d0c6f3f0fb4"}, {"bike_id": "2bdc564efaa7d79eadeef04241200d08", "type": "electric_scooter", "is_disabled": 0, "lat": 38.891189833333335, "rental_uris": {"ios": "https://dc.lft.to/lastmile_qr_scan", "android": "https://dc.lft.to/lastmile_qr_scan"}, "is_reserved": 0, "fusion_lon": 0.0, "fusion_lat": 0.0, "lon": -76.991543, "name": "2bdc564efaa7d79eadeef04241200d08"}, {"bike_id": "70543c77ffe5844420590b70afa799ed", "type": "electric_scooter", "is_disabled": 0, "lat": 38.90136183333333, "rental_uris": {"ios": "https://dc.lft.to/lastmile_qr_scan", "android": "https://dc.lft.to/lastmile_qr_scan"}, "is_reserved": 0, "fusion_lon": 0.0, "fusion_lat": 0.0, "lon": -77.0381825, "name": "70543c77ffe5844420590b70afa799ed"}, {"bike_id": "14732262ab16283d76a285d50492dc10", "type": "electric_scooter", "is_disabled": 0, "lat": 38.918963, "rental_uris": {"ios": "https://dc.lft.to/lastmile_qr_scan", "android": "https://dc.lft.to/lastmile_qr_scan"}, "is_reserved": 0, "fusion_lon": 0.0, "fusion_lat": 0.0, "lon": -77.04614133333334, "name": "14732262ab16283d76a285d50492dc10"}, {"bike_id": "71a2755633db260e041031287a4c145e", "type": "electric_scooter", "is_disabled": 0, "lat": 38.8847665, "rental_uris": {"ios": "https://dc.lft.to/lastmile_qr_scan", "android": "https://dc.lft.to/lastmile_qr_scan"}, "is_reserved": 0, "fusion_lon": 0.0, "fusion_lat": 0.0, "lon": -77.0236925, "name": "71a2755633db260e041031287a4c145e"}, {"bike_id": "225c537796af0ddeac3649fbe3909e1c", "type": "electric_scooter", "is_disabled": 0, "lat": 38.92080083333333, "rental_uris": {"ios": "https://dc.lft.to/lastmile_qr_scan", "android": "https://dc.lft.to/lastmile_qr_scan"}, "is_reserved": 0, "fusion_lon": 0.0, "fusion_lat": 0.0, "lon": -77.01457133333334, "name": "225c537796af0ddeac3649fbe3909e1c"}, {"bike_id": "82bf8cd0115079432cefc701902313bb", "type": "electric_scooter", "is_disabled": 0, "lat": 38.90266916666667, "rental_uris": {"ios": "https://dc.lft.to/lastmile_qr_scan", "android": "https://dc.lft.to/lastmile_qr_scan"}, "is_reserved": 0, "fusion_lon": 0.0, "fusion_lat": 0.0, "lon": -77.00324833333333, "name": "82bf8cd0115079432cefc701902313bb"}, {"bike_id": "ae57c4042a6eda97deb0b791faf1d5bc", "type": "electric_scooter", "is_disabled": 0, "lat": 38.903009, "rental_uris": {"ios": "https://dc.lft.to/lastmile_qr_scan", "android": "https://dc.lft.to/lastmile_qr_scan"}, "is_reserved": 0, "fusion_lon": 0.0, "fusion_lat": 0.0, "lon": -77.02431033333333, "name": "ae57c4042a6eda97deb0b791faf1d5bc"}, {"bike_id": "a8314ffa78e6953df904dd29e231814d", "type": "electric_scooter", "is_disabled": 0, "lat": 38.90843866666667, "rental_uris": {"ios": "https://dc.lft.to/lastmile_qr_scan", "android": "https://dc.lft.to/lastmile_qr_scan"}, "is_reserved": 0, "fusion_lon": 0.0, "fusion_lat": 0.0, "lon": -77.0386285, "name": "a8314ffa78e6953df904dd29e231814d"}, {"bike_id": "2f4c21102fa167831bad84a40daba3f0", "type": "electric_scooter", "is_disabled": 0, "lat": 38.915651, "rental_uris": {"ios": "https://dc.lft.to/lastmile_qr_scan", "android": "https://dc.lft.to/lastmile_qr_scan"}, "is_reserved": 0, "fusion_lon": 0.0, "fusion_lat": 0.0, "lon": -77.031218, "name": "2f4c21102fa167831bad84a40daba3f0"}, {"bike_id": "05cc0bd7eb28951f98e256fa3efb628e", "type": "electric_scooter", "is_disabled": 0, "lat": 38.90565816666667, "rental_uris": {"ios": "https://dc.lft.to/lastmile_qr_scan", "android": "https://dc.lft.to/lastmile_qr_scan"}, "is_reserved": 0, "fusion_lon": 0.0, "fusion_lat": 0.0, "lon": -77.0283935, "name": "05cc0bd7eb28951f98e256fa3efb628e"}, {"bike_id": "f86af4c1e8a660d487a657fe51bc021a", "type": "electric_scooter", "is_disabled": 0, "lat": 38.866893833333336, "rental_uris": {"ios": "https://dc.lft.to/lastmile_qr_scan", "android": "https://dc.lft.to/lastmile_qr_scan"}, "is_reserved": 0, "fusion_lon": 0.0, "fusion_lat": 0.0, "lon": -76.9857515, "name": "f86af4c1e8a660d487a657fe51bc021a"}, {"bike_id": "508939063466b3a6649ff8fc78b33489", "type": "electric_scooter", "is_disabled": 0, "lat": 38.908957, "rental_uris": {"ios": "https://dc.lft.to/lastmile_qr_scan", "android": "https://dc.lft.to/lastmile_qr_scan"}, "is_reserved": 0, "fusion_lon": 0.0, "fusion_lat": 0.0, "lon": -76.99853366666666, "name": "508939063466b3a6649ff8fc78b33489"}, {"bike_id": "3a7a28d1a7ae7bbd4f4934f772581422", "type": "electric_scooter", "is_disabled": 0, "lat": 38.900196, "rental_uris": {"ios": "https://dc.lft.to/lastmile_qr_scan", "android": "https://dc.lft.to/lastmile_qr_scan"}, "is_reserved": 0, "fusion_lon": 0.0, "fusion_lat": 0.0, "lon": -77.0416345, "name": "3a7a28d1a7ae7bbd4f4934f772581422"}, {"bike_id": "fd81ecedc38723e33c36e2ae21906147", "type": "electric_scooter", "is_disabled": 0, "lat": 38.917106833333335, "rental_uris": {"ios": "https://dc.lft.to/lastmile_qr_scan", "android": "https://dc.lft.to/lastmile_qr_scan"}, "is_reserved": 0, "fusion_lon": 0.0, "fusion_lat": 0.0, "lon": -77.00651716666667, "name": "fd81ecedc38723e33c36e2ae21906147"}, {"bike_id": "1e0a8392f5958ea960a7f7c0cde7d4c7", "type": "electric_scooter", "is_disabled": 0, "lat": 38.91327, "rental_uris": {"ios": "https://dc.lft.to/lastmile_qr_scan", "android": "https://dc.lft.to/lastmile_qr_scan"}, "is_reserved": 0, "fusion_lon": 0.0, "fusion_lat": 0.0, "lon": -77.04335766666667, "name": "1e0a8392f5958ea960a7f7c0cde7d4c7"}, {"bike_id": "f84f4229990c3e43adabcd66544a58c7", "type": "electric_scooter", "is_disabled": 0, "lat": 38.90678483333333, "rental_uris": {"ios": "https://dc.lft.to/lastmile_qr_scan", "android": "https://dc.lft.to/lastmile_qr_scan"}, "is_reserved": 0, "fusion_lon": 0.0, "fusion_lat": 0.0, "lon": -77.03831033333333, "name": "f84f4229990c3e43adabcd66544a58c7"}, {"bike_id": "38363382926ad38e905702966ab0dd09", "type": "electric_bike", "is_disabled": 0, "lat": 39.052837, "rental_uris": {"ios": "https://dc.lft.to/lastmile_qr_scan", "android": "https://dc.lft.to/lastmile_qr_scan"}, "is_reserved": 0, "fusion_lon": 0.0, "fusion_lat": 0.0, "lon": -77.0806955, "name": "38363382926ad38e905702966ab0dd09"}, {"bike_id": "bd5411005fe886445f08edb16bdcc3e3", "type": "electric_scooter", "is_disabled": 0, "lat": 38.91050516666667, "rental_uris": {"ios": "https://dc.lft.to/lastmile_qr_scan", "android": "https://dc.lft.to/lastmile_qr_scan"}, "is_reserved": 0, "fusion_lon": 0.0, "fusion_lat": 0.0, "lon": -77.02683183333333, "name": "bd5411005fe886445f08edb16bdcc3e3"}, {"bike_id": "48978bf679835a4f7500fde38a8b3142", "type": "electric_scooter", "is_disabled": 0, "lat": 38.91423233333333, "rental_uris": {"ios": "https://dc.lft.to/lastmile_qr_scan", "android": "https://dc.lft.to/lastmile_qr_scan"}, "is_reserved": 0, "fusion_lon": 0.0, "fusion_lat": 0.0, "lon": -77.02176983333334, "name": "48978bf679835a4f7500fde38a8b3142"}, {"bike_id": "63fcb2e46cb440f977506c43e652ac2a", "type": "electric_scooter", "is_disabled": 0, "lat": 38.86702616666667, "rental_uris": {"ios": "https://dc.lft.to/lastmile_qr_scan", "android": "https://dc.lft.to/lastmile_qr_scan"}, "is_reserved": 0, "fusion_lon": 0.0, "fusion_lat": 0.0, "lon": -76.98720783333333, "name": "63fcb2e46cb440f977506c43e652ac2a"}, {"bike_id": "2aeeefbf1175f4aa6b5276332767897b", "type": "electric_scooter", "is_disabled": 0, "lat": 38.94090766666667, "rental_uris": {"ios": "https://dc.lft.to/lastmile_qr_scan", "android": "https://dc.lft.to/lastmile_qr_scan"}, "is_reserved": 0, "fusion_lon": 0.0, "fusion_lat": 0.0, "lon": -77.0272315, "name": "2aeeefbf1175f4aa6b5276332767897b"}, {"bike_id": "75b712e58f9a1dd4b59601d319678610", "type": "electric_scooter", "is_disabled": 0, "lat": 38.870955333333335, "rental_uris": {"ios": "https://dc.lft.to/lastmile_qr_scan", "android": "https://dc.lft.to/lastmile_qr_scan"}, "is_reserved": 0, "fusion_lon": 0.0, "fusion_lat": 0.0, "lon": -76.96584233333333, "name": "75b712e58f9a1dd4b59601d319678610"}, {"bike_id": "dd5edaa6281894e363b01d5ae3eb8af3", "type": "electric_scooter", "is_disabled": 0, "lat": 38.878308, "rental_uris": {"ios": "https://dc.lft.to/lastmile_qr_scan", "android": "https://dc.lft.to/lastmile_qr_scan"}, "is_reserved": 0, "fusion_lon": 0.0, "fusion_lat": 0.0, "lon": -76.96306883333334, "name": "dd5edaa6281894e363b01d5ae3eb8af3"}, {"bike_id": "3553aea33e57faa007c3dbd6b2ab1dc9", "type": "electric_scooter", "is_disabled": 0, "lat": 38.9182715, "rental_uris": {"ios": "https://dc.lft.to/lastmile_qr_scan", "android": "https://dc.lft.to/lastmile_qr_scan"}, "is_reserved": 0, "fusion_lon": 0.0, "fusion_lat": 0.0, "lon": -77.0494155, "name": "3553aea33e57faa007c3dbd6b2ab1dc9"}, {"bike_id": "b9c9d640d96d01291ee3e530eb73f0e8", "type": "electric_scooter", "is_disabled": 0, "lat": 38.90515333333333, "rental_uris": {"ios": "https://dc.lft.to/lastmile_qr_scan", "android": "https://dc.lft.to/lastmile_qr_scan"}, "is_reserved": 0, "fusion_lon": 0.0, "fusion_lat": 0.0, "lon": -77.02977433333334, "name": "b9c9d640d96d01291ee3e530eb73f0e8"}, {"bike_id": "7d32c6d97f22c7896a35e373c0f36c97", "type": "electric_scooter", "is_disabled": 0, "lat": 38.930803833333336, "rental_uris": {"ios": "https://dc.lft.to/lastmile_qr_scan", "android": "https://dc.lft.to/lastmile_qr_scan"}, "is_reserved": 0, "fusion_lon": 0.0, "fusion_lat": 0.0, "lon": -77.02793333333334, "name": "7d32c6d97f22c7896a35e373c0f36c97"}, {"bike_id": "4be42363f567eccf47b3cccae9a0458a", "type": "electric_scooter", "is_disabled": 0, "lat": 38.9290485, "rental_uris": {"ios": "https://dc.lft.to/lastmile_qr_scan", "android": "https://dc.lft.to/lastmile_qr_scan"}, "is_reserved": 0, "fusion_lon": 0.0, "fusion_lat": 0.0, "lon": -77.01659733333334, "name": "4be42363f567eccf47b3cccae9a0458a"}, {"bike_id": "cbd5cea56d555f99db9f29604a2e8dfe", "type": "electric_bike", "is_disabled": 0, "lat": 38.915662, "rental_uris": {"ios": "https://dc.lft.to/lastmile_qr_scan", "android": "https://dc.lft.to/lastmile_qr_scan"}, "is_reserved": 0, "fusion_lon": 0.0, "fusion_lat": 0.0, "lon": -77.022741, "name": "cbd5cea56d555f99db9f29604a2e8dfe"}, {"bike_id": "ddf9a7419efb94ae2977e152346a593f", "type": "electric_scooter", "is_disabled": 0, "lat": 38.92877716666667, "rental_uris": {"ios": "https://dc.lft.to/lastmile_qr_scan", "android": "https://dc.lft.to/lastmile_qr_scan"}, "is_reserved": 0, "fusion_lon": 0.0, "fusion_lat": 0.0, "lon": -77.01231066666666, "name": "ddf9a7419efb94ae2977e152346a593f"}, {"bike_id": "24fc6c689b376a08008a1423f360d263", "type": "electric_bike", "is_disabled": 0, "lat": 39.014817, "rental_uris": {"ios": "https://dc.lft.to/lastmile_qr_scan", "android": "https://dc.lft.to/lastmile_qr_scan"}, "is_reserved": 0, "fusion_lon": 0.0, "fusion_lat": 0.0, "lon": -77.054956, "name": "24fc6c689b376a08008a1423f360d263"}, {"bike_id": "be5712f7cf2c42187e05c2f976c3f20d", "type": "electric_scooter", "is_disabled": 0, "lat": 38.900421333333334, "rental_uris": {"ios": "https://dc.lft.to/lastmile_qr_scan", "android": "https://dc.lft.to/lastmile_qr_scan"}, "is_reserved": 0, "fusion_lon": 0.0, "fusion_lat": 0.0, "lon": -77.01790933333334, "name": "be5712f7cf2c42187e05c2f976c3f20d"}, {"bike_id": "51c5762f3ab7a62fbe5aee90fb2084bf", "type": "electric_scooter", "is_disabled": 0, "lat": 38.901946833333334, "rental_uris": {"ios": "https://dc.lft.to/lastmile_qr_scan", "android": "https://dc.lft.to/lastmile_qr_scan"}, "is_reserved": 0, "fusion_lon": 0.0, "fusion_lat": 0.0, "lon": -77.01300233333333, "name": "51c5762f3ab7a62fbe5aee90fb2084bf"}, {"bike_id": "18d1e30d3082c3c40f6b9b20900737ae", "type": "electric_scooter", "is_disabled": 0, "lat": 38.9161805, "rental_uris": {"ios": "https://dc.lft.to/lastmile_qr_scan", "android": "https://dc.lft.to/lastmile_qr_scan"}, "is_reserved": 0, "fusion_lon": 0.0, "fusion_lat": 0.0, "lon": -77.03190483333333, "name": "18d1e30d3082c3c40f6b9b20900737ae"}, {"bike_id": "03ee14b8964c69f38b8d10a99992a263", "type": "electric_scooter", "is_disabled": 0, "lat": 38.884944833333336, "rental_uris": {"ios": "https://dc.lft.to/lastmile_qr_scan", "android": "https://dc.lft.to/lastmile_qr_scan"}, "is_reserved": 0, "fusion_lon": 0.0, "fusion_lat": 0.0, "lon": -77.015079, "name": "03ee14b8964c69f38b8d10a99992a263"}, {"bike_id": "f6e5815b20a9688715f2d0996a40184c", "type": "electric_scooter", "is_disabled": 0, "lat": 38.9110285, "rental_uris": {"ios": "https://dc.lft.to/lastmile_qr_scan", "android": "https://dc.lft.to/lastmile_qr_scan"}, "is_reserved": 0, "fusion_lon": 0.0, "fusion_lat": 0.0, "lon": -77.04478983333334, "name": "f6e5815b20a9688715f2d0996a40184c"}, {"bike_id": "b72762a2cf1e5cbe283f15c200b518b0", "type": "electric_scooter", "is_disabled": 0, "lat": 38.92797933333333, "rental_uris": {"ios": "https://dc.lft.to/lastmile_qr_scan", "android": "https://dc.lft.to/lastmile_qr_scan"}, "is_reserved": 0, "fusion_lon": 0.0, "fusion_lat": 0.0, "lon": -77.021323, "name": "b72762a2cf1e5cbe283f15c200b518b0"}, {"bike_id": "d957217232df5f0ceb8777760105faf7", "type": "electric_scooter", "is_disabled": 0, "lat": 38.86221533333333, "rental_uris": {"ios": "https://dc.lft.to/lastmile_qr_scan", "android": "https://dc.lft.to/lastmile_qr_scan"}, "is_reserved": 0, "fusion_lon": 0.0, "fusion_lat": 0.0, "lon": -76.99484733333334, "name": "d957217232df5f0ceb8777760105faf7"}, {"bike_id": "a2ea546cd62d6c4bb2a9ded753b94177", "type": "electric_scooter", "is_disabled": 0, "lat": 38.93122116666667, "rental_uris": {"ios": "https://dc.lft.to/lastmile_qr_scan", "android": "https://dc.lft.to/lastmile_qr_scan"}, "is_reserved": 0, "fusion_lon": 0.0, "fusion_lat": 0.0, "lon": -77.02069733333333, "name": "a2ea546cd62d6c4bb2a9ded753b94177"}, {"bike_id": "da58d15319a826e1a1c1445d1b8ebc85", "type": "electric_scooter", "is_disabled": 0, "lat": 38.905896166666665, "rental_uris": {"ios": "https://dc.lft.to/lastmile_qr_scan", "android": "https://dc.lft.to/lastmile_qr_scan"}, "is_reserved": 0, "fusion_lon": 0.0, "fusion_lat": 0.0, "lon": -77.0218585, "name": "da58d15319a826e1a1c1445d1b8ebc85"}, {"bike_id": "9db06649d1ff96a675ec5c738f7b3191", "type": "electric_scooter", "is_disabled": 0, "lat": 38.916785, "rental_uris": {"ios": "https://dc.lft.to/lastmile_qr_scan", "android": "https://dc.lft.to/lastmile_qr_scan"}, "is_reserved": 0, "fusion_lon": 0.0, "fusion_lat": 0.0, "lon": -77.029583, "name": "9db06649d1ff96a675ec5c738f7b3191"}, {"bike_id": "4b73db46e1fe555224d91a6d9521c7dd", "type": "electric_scooter", "is_disabled": 0, "lat": 38.902706, "rental_uris": {"ios": "https://dc.lft.to/lastmile_qr_scan", "android": "https://dc.lft.to/lastmile_qr_scan"}, "is_reserved": 0, "fusion_lon": 0.0, "fusion_lat": 0.0, "lon": -77.01965366666667, "name": "4b73db46e1fe555224d91a6d9521c7dd"}, {"bike_id": "44797591392ada6c844fba324d3faa6c", "type": "electric_scooter", "is_disabled": 0, "lat": 38.92067433333333, "rental_uris": {"ios": "https://dc.lft.to/lastmile_qr_scan", "android": "https://dc.lft.to/lastmile_qr_scan"}, "is_reserved": 0, "fusion_lon": 0.0, "fusion_lat": 0.0, "lon": -77.03467333333333, "name": "44797591392ada6c844fba324d3faa6c"}, {"bike_id": "199fba03d8d95e14822cbebdc9e53ef4", "type": "electric_scooter", "is_disabled": 0, "lat": 38.95688533333333, "rental_uris": {"ios": "https://dc.lft.to/lastmile_qr_scan", "android": "https://dc.lft.to/lastmile_qr_scan"}, "is_reserved": 0, "fusion_lon": 0.0, "fusion_lat": 0.0, "lon": -77.02400166666666, "name": "199fba03d8d95e14822cbebdc9e53ef4"}, {"bike_id": "b08e08f7004ec6660150f99f401fa54c", "type": "electric_scooter", "is_disabled": 0, "lat": 38.90727016666666, "rental_uris": {"ios": "https://dc.lft.to/lastmile_qr_scan", "android": "https://dc.lft.to/lastmile_qr_scan"}, "is_reserved": 0, "fusion_lon": 0.0, "fusion_lat": 0.0, "lon": -77.0532775, "name": "b08e08f7004ec6660150f99f401fa54c"}, {"bike_id": "a8886c2103352276ab9692dc564a5b3a", "type": "electric_scooter", "is_disabled": 0, "lat": 38.858929333333336, "rental_uris": {"ios": "https://dc.lft.to/lastmile_qr_scan", "android": "https://dc.lft.to/lastmile_qr_scan"}, "is_reserved": 0, "fusion_lon": 0.0, "fusion_lat": 0.0, "lon": -76.9972775, "name": "a8886c2103352276ab9692dc564a5b3a"}, {"bike_id": "d352cc07225d485415210bbbc87713e6", "type": "electric_scooter", "is_disabled": 0, "lat": 38.902812833333336, "rental_uris": {"ios": "https://dc.lft.to/lastmile_qr_scan", "android": "https://dc.lft.to/lastmile_qr_scan"}, "is_reserved": 0, "fusion_lon": 0.0, "fusion_lat": 0.0, "lon": -77.00344283333334, "name": "d352cc07225d485415210bbbc87713e6"}, {"bike_id": "e16327c22a0d1299ce47118d5d062b4a", "type": "electric_bike", "is_disabled": 0, "lat": 38.863419666666665, "rental_uris": {"ios": "https://dc.lft.to/lastmile_qr_scan", "android": "https://dc.lft.to/lastmile_qr_scan"}, "is_reserved": 0, "fusion_lon": 0.0, "fusion_lat": 0.0, "lon": -76.98733666666666, "name": "e16327c22a0d1299ce47118d5d062b4a"}, {"bike_id": "759cdae9d3baf41d2dcef8f01c51fc3e", "type": "electric_scooter", "is_disabled": 0, "lat": 38.91195366666667, "rental_uris": {"ios": "https://dc.lft.to/lastmile_qr_scan", "android": "https://dc.lft.to/lastmile_qr_scan"}, "is_reserved": 0, "fusion_lon": 0.0, "fusion_lat": 0.0, "lon": -77.00379866666667, "name": "759cdae9d3baf41d2dcef8f01c51fc3e"}, {"bike_id": "8e4afa3ba78aa12f737029f9fd150503", "type": "electric_scooter", "is_disabled": 0, "lat": 38.9184745, "rental_uris": {"ios": "https://dc.lft.to/lastmile_qr_scan", "android": "https://dc.lft.to/lastmile_qr_scan"}, "is_reserved": 0, "fusion_lon": 0.0, "fusion_lat": 0.0, "lon": -77.03882966666667, "name": "8e4afa3ba78aa12f737029f9fd150503"}, {"bike_id": "5f8725545723094e44d894e7058ae1eb", "type": "electric_scooter", "is_disabled": 0, "lat": 38.916315166666664, "rental_uris": {"ios": "https://dc.lft.to/lastmile_qr_scan", "android": "https://dc.lft.to/lastmile_qr_scan"}, "is_reserved": 0, "fusion_lon": 0.0, "fusion_lat": 0.0, "lon": -77.0397615, "name": "5f8725545723094e44d894e7058ae1eb"}, {"bike_id": "28bc360184a0e517090d157707c269ed", "type": "electric_scooter", "is_disabled": 0, "lat": 38.9224245, "rental_uris": {"ios": "https://dc.lft.to/lastmile_qr_scan", "android": "https://dc.lft.to/lastmile_qr_scan"}, "is_reserved": 0, "fusion_lon": 0.0, "fusion_lat": 0.0, "lon": -77.02951533333334, "name": "28bc360184a0e517090d157707c269ed"}, {"bike_id": "7fe147c2dc41e083bd1eaa6b1b7752e6", "type": "electric_scooter", "is_disabled": 0, "lat": 38.899877000000004, "rental_uris": {"ios": "https://dc.lft.to/lastmile_qr_scan", "android": "https://dc.lft.to/lastmile_qr_scan"}, "is_reserved": 0, "fusion_lon": 0.0, "fusion_lat": 0.0, "lon": -76.9500165, "name": "7fe147c2dc41e083bd1eaa6b1b7752e6"}, {"bike_id": "a1ce41f012302ce8be45eddb025bafc4", "type": "electric_scooter", "is_disabled": 0, "lat": 38.893468166666665, "rental_uris": {"ios": "https://dc.lft.to/lastmile_qr_scan", "android": "https://dc.lft.to/lastmile_qr_scan"}, "is_reserved": 0, "fusion_lon": 0.0, "fusion_lat": 0.0, "lon": -76.99382933333334, "name": "a1ce41f012302ce8be45eddb025bafc4"}, {"bike_id": "556bcaae953b629301a26e2ac8b8a2e0", "type": "electric_scooter", "is_disabled": 0, "lat": 38.93174416666667, "rental_uris": {"ios": "https://dc.lft.to/lastmile_qr_scan", "android": "https://dc.lft.to/lastmile_qr_scan"}, "is_reserved": 0, "fusion_lon": 0.0, "fusion_lat": 0.0, "lon": -77.02817783333333, "name": "556bcaae953b629301a26e2ac8b8a2e0"}, {"bike_id": "7308f9083c7582ce2978978bed376e78", "type": "electric_scooter", "is_disabled": 0, "lat": 38.91630416666667, "rental_uris": {"ios": "https://dc.lft.to/lastmile_qr_scan", "android": "https://dc.lft.to/lastmile_qr_scan"}, "is_reserved": 0, "fusion_lon": 0.0, "fusion_lat": 0.0, "lon": -77.02960533333334, "name": "7308f9083c7582ce2978978bed376e78"}, {"bike_id": "c59f8cdfae4117bd7a03beb8ba150f0d", "type": "electric_scooter", "is_disabled": 0, "lat": 38.937687333333336, "rental_uris": {"ios": "https://dc.lft.to/lastmile_qr_scan", "android": "https://dc.lft.to/lastmile_qr_scan"}, "is_reserved": 0, "fusion_lon": 0.0, "fusion_lat": 0.0, "lon": -77.01970116666666, "name": "c59f8cdfae4117bd7a03beb8ba150f0d"}, {"bike_id": "7d2efa2bf0f26294851d9b1942b9fbbd", "type": "electric_scooter", "is_disabled": 0, "lat": 38.88972966666667, "rental_uris": {"ios": "https://dc.lft.to/lastmile_qr_scan", "android": "https://dc.lft.to/lastmile_qr_scan"}, "is_reserved": 0, "fusion_lon": 0.0, "fusion_lat": 0.0, "lon": -76.9824165, "name": "7d2efa2bf0f26294851d9b1942b9fbbd"}, {"bike_id": "9c421347c94bbbda368cc0e68871f1e8", "type": "electric_scooter", "is_disabled": 0, "lat": 38.9219545, "rental_uris": {"ios": "https://dc.lft.to/lastmile_qr_scan", "android": "https://dc.lft.to/lastmile_qr_scan"}, "is_reserved": 0, "fusion_lon": 0.0, "fusion_lat": 0.0, "lon": -77.03516416666666, "name": "9c421347c94bbbda368cc0e68871f1e8"}, {"bike_id": "b5ace5a90be596e336fcce37613c69f5", "type": "electric_scooter", "is_disabled": 0, "lat": 38.9170055, "rental_uris": {"ios": "https://dc.lft.to/lastmile_qr_scan", "android": "https://dc.lft.to/lastmile_qr_scan"}, "is_reserved": 0, "fusion_lon": 0.0, "fusion_lat": 0.0, "lon": -77.01071516666667, "name": "b5ace5a90be596e336fcce37613c69f5"}, {"bike_id": "d619cdc1cec28d6dfd559170a74424e5", "type": "electric_scooter", "is_disabled": 0, "lat": 38.954075, "rental_uris": {"ios": "https://dc.lft.to/lastmile_qr_scan", "android": "https://dc.lft.to/lastmile_qr_scan"}, "is_reserved": 0, "fusion_lon": 0.0, "fusion_lat": 0.0, "lon": -76.99857466666667, "name": "d619cdc1cec28d6dfd559170a74424e5"}, {"bike_id": "02bc90bde80aa4f97615fe4d549552e1", "type": "electric_scooter", "is_disabled": 0, "lat": 38.92016183333333, "rental_uris": {"ios": "https://dc.lft.to/lastmile_qr_scan", "android": "https://dc.lft.to/lastmile_qr_scan"}, "is_reserved": 0, "fusion_lon": 0.0, "fusion_lat": 0.0, "lon": -77.02806416666667, "name": "02bc90bde80aa4f97615fe4d549552e1"}, {"bike_id": "6311214dfed1b5e00bf0fe579bdff149", "type": "electric_scooter", "is_disabled": 0, "lat": 38.9333675, "rental_uris": {"ios": "https://dc.lft.to/lastmile_qr_scan", "android": "https://dc.lft.to/lastmile_qr_scan"}, "is_reserved": 0, "fusion_lon": 0.0, "fusion_lat": 0.0, "lon": -77.03878083333333, "name": "6311214dfed1b5e00bf0fe579bdff149"}, {"bike_id": "679732afb45587534cc40e01071790cd", "type": "electric_scooter", "is_disabled": 0, "lat": 38.92663, "rental_uris": {"ios": "https://dc.lft.to/lastmile_qr_scan", "android": "https://dc.lft.to/lastmile_qr_scan"}, "is_reserved": 0, "fusion_lon": 0.0, "fusion_lat": 0.0, "lon": -77.03729533333333, "name": "679732afb45587534cc40e01071790cd"}, {"bike_id": "6e650ad0aa8629dd73e3f998f2427b5e", "type": "electric_scooter", "is_disabled": 0, "lat": 38.915631, "rental_uris": {"ios": "https://dc.lft.to/lastmile_qr_scan", "android": "https://dc.lft.to/lastmile_qr_scan"}, "is_reserved": 0, "fusion_lon": 0.0, "fusion_lat": 0.0, "lon": -77.03138, "name": "6e650ad0aa8629dd73e3f998f2427b5e"}, {"bike_id": "1284f2e36470e1f7e68c7168f291f348", "type": "electric_scooter", "is_disabled": 0, "lat": 38.93369833333333, "rental_uris": {"ios": "https://dc.lft.to/lastmile_qr_scan", "android": "https://dc.lft.to/lastmile_qr_scan"}, "is_reserved": 0, "fusion_lon": 0.0, "fusion_lat": 0.0, "lon": -77.03987166666667, "name": "1284f2e36470e1f7e68c7168f291f348"}, {"bike_id": "fcdbff949c17dbd0e30c3af5cd4d7888", "type": "electric_scooter", "is_disabled": 0, "lat": 38.9067785, "rental_uris": {"ios": "https://dc.lft.to/lastmile_qr_scan", "android": "https://dc.lft.to/lastmile_qr_scan"}, "is_reserved": 0, "fusion_lon": 0.0, "fusion_lat": 0.0, "lon": -77.07173233333333, "name": "fcdbff949c17dbd0e30c3af5cd4d7888"}, {"bike_id": "bed5afbf37607cb0a3edb99a30b4a3e9", "type": "electric_scooter", "is_disabled": 0, "lat": 38.86247316666667, "rental_uris": {"ios": "https://dc.lft.to/lastmile_qr_scan", "android": "https://dc.lft.to/lastmile_qr_scan"}, "is_reserved": 0, "fusion_lon": 0.0, "fusion_lat": 0.0, "lon": -76.99503283333334, "name": "bed5afbf37607cb0a3edb99a30b4a3e9"}, {"bike_id": "030a089828aa6a66ea8d41eac17e9dd5", "type": "electric_bike", "is_disabled": 0, "lat": 38.900958333333335, "rental_uris": {"ios": "https://dc.lft.to/lastmile_qr_scan", "android": "https://dc.lft.to/lastmile_qr_scan"}, "is_reserved": 0, "fusion_lon": 0.0, "fusion_lat": 0.0, "lon": -77.039327, "name": "030a089828aa6a66ea8d41eac17e9dd5"}, {"bike_id": "a028ffec83121f8200c33c62ef377098", "type": "electric_scooter", "is_disabled": 0, "lat": 38.88067016666667, "rental_uris": {"ios": "https://dc.lft.to/lastmile_qr_scan", "android": "https://dc.lft.to/lastmile_qr_scan"}, "is_reserved": 0, "fusion_lon": 0.0, "fusion_lat": 0.0, "lon": -76.93217066666666, "name": "a028ffec83121f8200c33c62ef377098"}, {"bike_id": "e9d38d7e0d711ee365e4d3040b5bc0f3", "type": "electric_scooter", "is_disabled": 0, "lat": 38.911373833333336, "rental_uris": {"ios": "https://dc.lft.to/lastmile_qr_scan", "android": "https://dc.lft.to/lastmile_qr_scan"}, "is_reserved": 0, "fusion_lon": 0.0, "fusion_lat": 0.0, "lon": -77.06538783333333, "name": "e9d38d7e0d711ee365e4d3040b5bc0f3"}, {"bike_id": "9176f3a892e54192927d4bc23fde3dcc", "type": "electric_scooter", "is_disabled": 0, "lat": 38.895510333333334, "rental_uris": {"ios": "https://dc.lft.to/lastmile_qr_scan", "android": "https://dc.lft.to/lastmile_qr_scan"}, "is_reserved": 0, "fusion_lon": 0.0, "fusion_lat": 0.0, "lon": -76.92953183333333, "name": "9176f3a892e54192927d4bc23fde3dcc"}, {"bike_id": "b3d367a315fb09489b342f906f202c4e", "type": "electric_scooter", "is_disabled": 0, "lat": 38.905683833333335, "rental_uris": {"ios": "https://dc.lft.to/lastmile_qr_scan", "android": "https://dc.lft.to/lastmile_qr_scan"}, "is_reserved": 0, "fusion_lon": 0.0, "fusion_lat": 0.0, "lon": -76.98143133333333, "name": "b3d367a315fb09489b342f906f202c4e"}, {"bike_id": "75e047686c6360650603545d9fc76a61", "type": "electric_scooter", "is_disabled": 0, "lat": 38.92678, "rental_uris": {"ios": "https://dc.lft.to/lastmile_qr_scan", "android": "https://dc.lft.to/lastmile_qr_scan"}, "is_reserved": 0, "fusion_lon": 0.0, "fusion_lat": 0.0, "lon": -77.04356283333334, "name": "75e047686c6360650603545d9fc76a61"}, {"bike_id": "e8c437a212072dcbc87c542d7735543d", "type": "electric_scooter", "is_disabled": 0, "lat": 38.88411083333333, "rental_uris": {"ios": "https://dc.lft.to/lastmile_qr_scan", "android": "https://dc.lft.to/lastmile_qr_scan"}, "is_reserved": 0, "fusion_lon": 0.0, "fusion_lat": 0.0, "lon": -77.03169566666666, "name": "e8c437a212072dcbc87c542d7735543d"}, {"bike_id": "7b013bf060215dd9d70f76029d2323d4", "type": "electric_scooter", "is_disabled": 0, "lat": 38.93511766666666, "rental_uris": {"ios": "https://dc.lft.to/lastmile_qr_scan", "android": "https://dc.lft.to/lastmile_qr_scan"}, "is_reserved": 0, "fusion_lon": 0.0, "fusion_lat": 0.0, "lon": -77.03289833333334, "name": "7b013bf060215dd9d70f76029d2323d4"}, {"bike_id": "6fe0c06e0387b4fe9f0a1962f19a79c3", "type": "electric_scooter", "is_disabled": 0, "lat": 38.9329725, "rental_uris": {"ios": "https://dc.lft.to/lastmile_qr_scan", "android": "https://dc.lft.to/lastmile_qr_scan"}, "is_reserved": 0, "fusion_lon": 0.0, "fusion_lat": 0.0, "lon": -77.04118866666667, "name": "6fe0c06e0387b4fe9f0a1962f19a79c3"}, {"bike_id": "ff48b19b601ab8336a8bb544a26cc8a8", "type": "electric_scooter", "is_disabled": 0, "lat": 38.90213983333334, "rental_uris": {"ios": "https://dc.lft.to/lastmile_qr_scan", "android": "https://dc.lft.to/lastmile_qr_scan"}, "is_reserved": 0, "fusion_lon": 0.0, "fusion_lat": 0.0, "lon": -77.023757, "name": "ff48b19b601ab8336a8bb544a26cc8a8"}, {"bike_id": "85a3bfd1959b57370003a4e1451fc77d", "type": "electric_bike", "is_disabled": 0, "lat": 38.8578935, "rental_uris": {"ios": "https://dc.lft.to/lastmile_qr_scan", "android": "https://dc.lft.to/lastmile_qr_scan"}, "is_reserved": 0, "fusion_lon": 0.0, "fusion_lat": 0.0, "lon": -77.120189, "name": "85a3bfd1959b57370003a4e1451fc77d"}, {"bike_id": "8678daf57c7b6ba72c81dc9c7fdd2735", "type": "electric_scooter", "is_disabled": 0, "lat": 38.921625666666664, "rental_uris": {"ios": "https://dc.lft.to/lastmile_qr_scan", "android": "https://dc.lft.to/lastmile_qr_scan"}, "is_reserved": 0, "fusion_lon": 0.0, "fusion_lat": 0.0, "lon": -77.0336985, "name": "8678daf57c7b6ba72c81dc9c7fdd2735"}, {"bike_id": "d8b31f81b2bc04073b51396ccc14e49a", "type": "electric_scooter", "is_disabled": 0, "lat": 38.917948, "rental_uris": {"ios": "https://dc.lft.to/lastmile_qr_scan", "android": "https://dc.lft.to/lastmile_qr_scan"}, "is_reserved": 0, "fusion_lon": 0.0, "fusion_lat": 0.0, "lon": -77.02707166666667, "name": "d8b31f81b2bc04073b51396ccc14e49a"}, {"bike_id": "57345fb9065f887a578d97c6b1b8b57c", "type": "electric_bike", "is_disabled": 0, "lat": 38.88349766666666, "rental_uris": {"ios": "https://dc.lft.to/lastmile_qr_scan", "android": "https://dc.lft.to/lastmile_qr_scan"}, "is_reserved": 0, "fusion_lon": 0.0, "fusion_lat": 0.0, "lon": -76.93629066666666, "name": "57345fb9065f887a578d97c6b1b8b57c"}, {"bike_id": "b26c28b594d834c96c130eda7b4de5ad", "type": "electric_scooter", "is_disabled": 0, "lat": 38.9156675, "rental_uris": {"ios": "https://dc.lft.to/lastmile_qr_scan", "android": "https://dc.lft.to/lastmile_qr_scan"}, "is_reserved": 0, "fusion_lon": 0.0, "fusion_lat": 0.0, "lon": -77.04282283333333, "name": "b26c28b594d834c96c130eda7b4de5ad"}, {"bike_id": "a7a5147a57446ccdbff00b74accc727a", "type": "electric_scooter", "is_disabled": 0, "lat": 38.911112833333334, "rental_uris": {"ios": "https://dc.lft.to/lastmile_qr_scan", "android": "https://dc.lft.to/lastmile_qr_scan"}, "is_reserved": 0, "fusion_lon": 0.0, "fusion_lat": 0.0, "lon": -77.03292883333333, "name": "a7a5147a57446ccdbff00b74accc727a"}, {"bike_id": "1a984115a63ff09828664440d6ae6975", "type": "electric_scooter", "is_disabled": 0, "lat": 38.89538133333333, "rental_uris": {"ios": "https://dc.lft.to/lastmile_qr_scan", "android": "https://dc.lft.to/lastmile_qr_scan"}, "is_reserved": 0, "fusion_lon": 0.0, "fusion_lat": 0.0, "lon": -76.94891866666667, "name": "1a984115a63ff09828664440d6ae6975"}, {"bike_id": "bf557779fa873e9cf4e36bee2a40c9dd", "type": "electric_scooter", "is_disabled": 0, "lat": 38.9124015, "rental_uris": {"ios": "https://dc.lft.to/lastmile_qr_scan", "android": "https://dc.lft.to/lastmile_qr_scan"}, "is_reserved": 0, "fusion_lon": 0.0, "fusion_lat": 0.0, "lon": -77.00919433333334, "name": "bf557779fa873e9cf4e36bee2a40c9dd"}, {"bike_id": "cdf2a38951071019bb25608a5be4bdba", "type": "electric_scooter", "is_disabled": 0, "lat": 38.949103666666666, "rental_uris": {"ios": "https://dc.lft.to/lastmile_qr_scan", "android": "https://dc.lft.to/lastmile_qr_scan"}, "is_reserved": 0, "fusion_lon": 0.0, "fusion_lat": 0.0, "lon": -77.00646333333333, "name": "cdf2a38951071019bb25608a5be4bdba"}, {"bike_id": "57d4676f34a7cda87124f3f616f188cc", "type": "electric_scooter", "is_disabled": 0, "lat": 38.91661033333333, "rental_uris": {"ios": "https://dc.lft.to/lastmile_qr_scan", "android": "https://dc.lft.to/lastmile_qr_scan"}, "is_reserved": 0, "fusion_lon": 0.0, "fusion_lat": 0.0, "lon": -77.02888616666667, "name": "57d4676f34a7cda87124f3f616f188cc"}, {"bike_id": "a05f35b392fe8e2711782c3acae6982d", "type": "electric_scooter", "is_disabled": 0, "lat": 38.92903966666667, "rental_uris": {"ios": "https://dc.lft.to/lastmile_qr_scan", "android": "https://dc.lft.to/lastmile_qr_scan"}, "is_reserved": 0, "fusion_lon": 0.0, "fusion_lat": 0.0, "lon": -77.03232783333333, "name": "a05f35b392fe8e2711782c3acae6982d"}, {"bike_id": "a56e91e5620ee45be7b99f8ad7b61f0a", "type": "electric_scooter", "is_disabled": 0, "lat": 38.924088166666664, "rental_uris": {"ios": "https://dc.lft.to/lastmile_qr_scan", "android": "https://dc.lft.to/lastmile_qr_scan"}, "is_reserved": 0, "fusion_lon": 0.0, "fusion_lat": 0.0, "lon": -77.02982116666666, "name": "a56e91e5620ee45be7b99f8ad7b61f0a"}, {"bike_id": "40d6fea94e5e8fc5d93013b6a1c0743c", "type": "electric_scooter", "is_disabled": 0, "lat": 38.906518166666665, "rental_uris": {"ios": "https://dc.lft.to/lastmile_qr_scan", "android": "https://dc.lft.to/lastmile_qr_scan"}, "is_reserved": 0, "fusion_lon": 0.0, "fusion_lat": 0.0, "lon": -77.0531695, "name": "40d6fea94e5e8fc5d93013b6a1c0743c"}, {"bike_id": "69614ea12cd473b4f737c8f4e3227f63", "type": "electric_scooter", "is_disabled": 0, "lat": 38.93288583333333, "rental_uris": {"ios": "https://dc.lft.to/lastmile_qr_scan", "android": "https://dc.lft.to/lastmile_qr_scan"}, "is_reserved": 0, "fusion_lon": 0.0, "fusion_lat": 0.0, "lon": -77.036169, "name": "69614ea12cd473b4f737c8f4e3227f63"}, {"bike_id": "999a4d86ad8016350b3b66dfe70bf963", "type": "electric_scooter", "is_disabled": 0, "lat": 38.9086555, "rental_uris": {"ios": "https://dc.lft.to/lastmile_qr_scan", "android": "https://dc.lft.to/lastmile_qr_scan"}, "is_reserved": 0, "fusion_lon": 0.0, "fusion_lat": 0.0, "lon": -77.0282725, "name": "999a4d86ad8016350b3b66dfe70bf963"}, {"bike_id": "74108dba51838f79eff49bbb88fd567a", "type": "electric_scooter", "is_disabled": 0, "lat": 38.91044183333333, "rental_uris": {"ios": "https://dc.lft.to/lastmile_qr_scan", "android": "https://dc.lft.to/lastmile_qr_scan"}, "is_reserved": 0, "fusion_lon": 0.0, "fusion_lat": 0.0, "lon": -77.01022883333333, "name": "74108dba51838f79eff49bbb88fd567a"}, {"bike_id": "fab08ba9face4308b4cd8d374d97040f", "type": "electric_scooter", "is_disabled": 0, "lat": 38.91600583333334, "rental_uris": {"ios": "https://dc.lft.to/lastmile_qr_scan", "android": "https://dc.lft.to/lastmile_qr_scan"}, "is_reserved": 0, "fusion_lon": 0.0, "fusion_lat": 0.0, "lon": -77.01226483333333, "name": "fab08ba9face4308b4cd8d374d97040f"}, {"bike_id": "334e1c12947bbf541f917b60fddaca5c", "type": "electric_scooter", "is_disabled": 0, "lat": 38.92470433333333, "rental_uris": {"ios": "https://dc.lft.to/lastmile_qr_scan", "android": "https://dc.lft.to/lastmile_qr_scan"}, "is_reserved": 0, "fusion_lon": 0.0, "fusion_lat": 0.0, "lon": -77.05231616666667, "name": "334e1c12947bbf541f917b60fddaca5c"}, {"bike_id": "22a3555ecbe5031f52d0ca19485839cc", "type": "electric_scooter", "is_disabled": 0, "lat": 38.917991, "rental_uris": {"ios": "https://dc.lft.to/lastmile_qr_scan", "android": "https://dc.lft.to/lastmile_qr_scan"}, "is_reserved": 0, "fusion_lon": 0.0, "fusion_lat": 0.0, "lon": -77.03436833333333, "name": "22a3555ecbe5031f52d0ca19485839cc"}, {"bike_id": "0bbb5bfeb68b4897fe8281498091e16b", "type": "electric_scooter", "is_disabled": 0, "lat": 38.93957733333333, "rental_uris": {"ios": "https://dc.lft.to/lastmile_qr_scan", "android": "https://dc.lft.to/lastmile_qr_scan"}, "is_reserved": 0, "fusion_lon": 0.0, "fusion_lat": 0.0, "lon": -77.03665983333333, "name": "0bbb5bfeb68b4897fe8281498091e16b"}, {"bike_id": "911dc5bdc54f3f383171a5c049c83e9c", "type": "electric_bike", "is_disabled": 0, "lat": 39.055034, "rental_uris": {"ios": "https://dc.lft.to/lastmile_qr_scan", "android": "https://dc.lft.to/lastmile_qr_scan"}, "is_reserved": 0, "fusion_lon": 0.0, "fusion_lat": 0.0, "lon": -77.0465025, "name": "911dc5bdc54f3f383171a5c049c83e9c"}, {"bike_id": "d37577b3d49bc7d71b434681e680a7d1", "type": "electric_scooter", "is_disabled": 0, "lat": 38.9261275, "rental_uris": {"ios": "https://dc.lft.to/lastmile_qr_scan", "android": "https://dc.lft.to/lastmile_qr_scan"}, "is_reserved": 0, "fusion_lon": 0.0, "fusion_lat": 0.0, "lon": -77.0215925, "name": "d37577b3d49bc7d71b434681e680a7d1"}, {"bike_id": "dd2ef5690779d14f820e2a4ddccc841a", "type": "electric_scooter", "is_disabled": 0, "lat": 38.93520483333333, "rental_uris": {"ios": "https://dc.lft.to/lastmile_qr_scan", "android": "https://dc.lft.to/lastmile_qr_scan"}, "is_reserved": 0, "fusion_lon": 0.0, "fusion_lat": 0.0, "lon": -77.030839, "name": "dd2ef5690779d14f820e2a4ddccc841a"}, {"bike_id": "87a358a143a567deb8807abf2d788538", "type": "electric_scooter", "is_disabled": 0, "lat": 38.90265133333333, "rental_uris": {"ios": "https://dc.lft.to/lastmile_qr_scan", "android": "https://dc.lft.to/lastmile_qr_scan"}, "is_reserved": 0, "fusion_lon": 0.0, "fusion_lat": 0.0, "lon": -77.03387566666666, "name": "87a358a143a567deb8807abf2d788538"}, {"bike_id": "3aa4fc7beaeec69cef3e649d645cc969", "type": "electric_scooter", "is_disabled": 0, "lat": 38.902779833333334, "rental_uris": {"ios": "https://dc.lft.to/lastmile_qr_scan", "android": "https://dc.lft.to/lastmile_qr_scan"}, "is_reserved": 0, "fusion_lon": 0.0, "fusion_lat": 0.0, "lon": -77.05803466666667, "name": "3aa4fc7beaeec69cef3e649d645cc969"}, {"bike_id": "0d51bce80564bbec821371cab6260f1b", "type": "electric_scooter", "is_disabled": 0, "lat": 38.870710833333334, "rental_uris": {"ios": "https://dc.lft.to/lastmile_qr_scan", "android": "https://dc.lft.to/lastmile_qr_scan"}, "is_reserved": 0, "fusion_lon": 0.0, "fusion_lat": 0.0, "lon": -76.98133033333333, "name": "0d51bce80564bbec821371cab6260f1b"}, {"bike_id": "cba9579a8b2d680e6a7c2ddce8802070", "type": "electric_bike", "is_disabled": 0, "lat": 38.929698333333334, "rental_uris": {"ios": "https://dc.lft.to/lastmile_qr_scan", "android": "https://dc.lft.to/lastmile_qr_scan"}, "is_reserved": 0, "fusion_lon": 0.0, "fusion_lat": 0.0, "lon": -77.18565466666666, "name": "cba9579a8b2d680e6a7c2ddce8802070"}, {"bike_id": "9d5a1cad84df29c081fd414725b012d0", "type": "electric_scooter", "is_disabled": 0, "lat": 38.9215125, "rental_uris": {"ios": "https://dc.lft.to/lastmile_qr_scan", "android": "https://dc.lft.to/lastmile_qr_scan"}, "is_reserved": 0, "fusion_lon": 0.0, "fusion_lat": 0.0, "lon": -77.03865016666667, "name": "9d5a1cad84df29c081fd414725b012d0"}, {"bike_id": "45351c5da9dfca2bfec474a598c5881f", "type": "electric_scooter", "is_disabled": 0, "lat": 38.93323216666667, "rental_uris": {"ios": "https://dc.lft.to/lastmile_qr_scan", "android": "https://dc.lft.to/lastmile_qr_scan"}, "is_reserved": 0, "fusion_lon": 0.0, "fusion_lat": 0.0, "lon": -77.072319, "name": "45351c5da9dfca2bfec474a598c5881f"}, {"bike_id": "4899671598f1c09c2f7ce59955c36fa0", "type": "electric_scooter", "is_disabled": 0, "lat": 38.93399616666667, "rental_uris": {"ios": "https://dc.lft.to/lastmile_qr_scan", "android": "https://dc.lft.to/lastmile_qr_scan"}, "is_reserved": 0, "fusion_lon": 0.0, "fusion_lat": 0.0, "lon": -77.03990683333333, "name": "4899671598f1c09c2f7ce59955c36fa0"}, {"bike_id": "ad9cd9d52fd88ff76b0c37c392dba7ae", "type": "electric_scooter", "is_disabled": 0, "lat": 38.91274083333333, "rental_uris": {"ios": "https://dc.lft.to/lastmile_qr_scan", "android": "https://dc.lft.to/lastmile_qr_scan"}, "is_reserved": 0, "fusion_lon": 0.0, "fusion_lat": 0.0, "lon": -77.02212433333334, "name": "ad9cd9d52fd88ff76b0c37c392dba7ae"}, {"bike_id": "b52ff8197bdca0178d42b4ab341b2ee2", "type": "electric_scooter", "is_disabled": 0, "lat": 38.90066616666667, "rental_uris": {"ios": "https://dc.lft.to/lastmile_qr_scan", "android": "https://dc.lft.to/lastmile_qr_scan"}, "is_reserved": 0, "fusion_lon": 0.0, "fusion_lat": 0.0, "lon": -76.92744883333333, "name": "b52ff8197bdca0178d42b4ab341b2ee2"}, {"bike_id": "33952b75a27808c23544bc40f25153c0", "type": "electric_scooter", "is_disabled": 0, "lat": 38.964071, "rental_uris": {"ios": "https://dc.lft.to/lastmile_qr_scan", "android": "https://dc.lft.to/lastmile_qr_scan"}, "is_reserved": 0, "fusion_lon": 0.0, "fusion_lat": 0.0, "lon": -77.02767833333333, "name": "33952b75a27808c23544bc40f25153c0"}, {"bike_id": "272c6b8d66001dbffa1396684ffcffbd", "type": "electric_bike", "is_disabled": 0, "lat": 39.02682816666667, "rental_uris": {"ios": "https://dc.lft.to/lastmile_qr_scan", "android": "https://dc.lft.to/lastmile_qr_scan"}, "is_reserved": 0, "fusion_lon": 0.0, "fusion_lat": 0.0, "lon": -77.02600633333333, "name": "272c6b8d66001dbffa1396684ffcffbd"}, {"bike_id": "f100d5121ee75c59a629f5b45945e9bd", "type": "electric_scooter", "is_disabled": 0, "lat": 38.90020916666667, "rental_uris": {"ios": "https://dc.lft.to/lastmile_qr_scan", "android": "https://dc.lft.to/lastmile_qr_scan"}, "is_reserved": 0, "fusion_lon": 0.0, "fusion_lat": 0.0, "lon": -77.02426266666667, "name": "f100d5121ee75c59a629f5b45945e9bd"}, {"bike_id": "35b9ab50fba54292d6d479af3ba6968f", "type": "electric_scooter", "is_disabled": 0, "lat": 38.876294333333334, "rental_uris": {"ios": "https://dc.lft.to/lastmile_qr_scan", "android": "https://dc.lft.to/lastmile_qr_scan"}, "is_reserved": 0, "fusion_lon": 0.0, "fusion_lat": 0.0, "lon": -76.965251, "name": "35b9ab50fba54292d6d479af3ba6968f"}, {"bike_id": "ccf81ebf96a3ef1a70d389a1922b92ce", "type": "electric_scooter", "is_disabled": 0, "lat": 38.911585333333335, "rental_uris": {"ios": "https://dc.lft.to/lastmile_qr_scan", "android": "https://dc.lft.to/lastmile_qr_scan"}, "is_reserved": 0, "fusion_lon": 0.0, "fusion_lat": 0.0, "lon": -77.02289416666666, "name": "ccf81ebf96a3ef1a70d389a1922b92ce"}, {"bike_id": "c692cab18bfde8b4f12b8d5168b8c2e6", "type": "electric_scooter", "is_disabled": 0, "lat": 38.90981333333333, "rental_uris": {"ios": "https://dc.lft.to/lastmile_qr_scan", "android": "https://dc.lft.to/lastmile_qr_scan"}, "is_reserved": 0, "fusion_lon": 0.0, "fusion_lat": 0.0, "lon": -77.03365916666667, "name": "c692cab18bfde8b4f12b8d5168b8c2e6"}, {"bike_id": "32892e81e5d714560c20eaf9e791b572", "type": "electric_scooter", "is_disabled": 0, "lat": 38.907251, "rental_uris": {"ios": "https://dc.lft.to/lastmile_qr_scan", "android": "https://dc.lft.to/lastmile_qr_scan"}, "is_reserved": 0, "fusion_lon": 0.0, "fusion_lat": 0.0, "lon": -77.02983033333334, "name": "32892e81e5d714560c20eaf9e791b572"}, {"bike_id": "11392db273d928e448786e2c3738b2aa", "type": "electric_scooter", "is_disabled": 0, "lat": 38.9055005, "rental_uris": {"ios": "https://dc.lft.to/lastmile_qr_scan", "android": "https://dc.lft.to/lastmile_qr_scan"}, "is_reserved": 0, "fusion_lon": 0.0, "fusion_lat": 0.0, "lon": -77.00582866666667, "name": "11392db273d928e448786e2c3738b2aa"}, {"bike_id": "0bccdb57e9c43e0231256b2bff0a55cd", "type": "electric_scooter", "is_disabled": 0, "lat": 38.9127385, "rental_uris": {"ios": "https://dc.lft.to/lastmile_qr_scan", "android": "https://dc.lft.to/lastmile_qr_scan"}, "is_reserved": 0, "fusion_lon": 0.0, "fusion_lat": 0.0, "lon": -77.0226585, "name": "0bccdb57e9c43e0231256b2bff0a55cd"}, {"bike_id": "885b76a85aa3002ea0d6de2f73dc570a", "type": "electric_scooter", "is_disabled": 0, "lat": 38.90312933333333, "rental_uris": {"ios": "https://dc.lft.to/lastmile_qr_scan", "android": "https://dc.lft.to/lastmile_qr_scan"}, "is_reserved": 0, "fusion_lon": 0.0, "fusion_lat": 0.0, "lon": -76.98358916666666, "name": "885b76a85aa3002ea0d6de2f73dc570a"}, {"bike_id": "abbdcd3cb744f6f91c595ad7c3c363a9", "type": "electric_scooter", "is_disabled": 0, "lat": 38.91697966666667, "rental_uris": {"ios": "https://dc.lft.to/lastmile_qr_scan", "android": "https://dc.lft.to/lastmile_qr_scan"}, "is_reserved": 0, "fusion_lon": 0.0, "fusion_lat": 0.0, "lon": -77.03216966666666, "name": "abbdcd3cb744f6f91c595ad7c3c363a9"}, {"bike_id": "4558b1129cc0816de14d5fd5cb299161", "type": "electric_scooter", "is_disabled": 0, "lat": 38.90773816666667, "rental_uris": {"ios": "https://dc.lft.to/lastmile_qr_scan", "android": "https://dc.lft.to/lastmile_qr_scan"}, "is_reserved": 0, "fusion_lon": 0.0, "fusion_lat": 0.0, "lon": -77.01219033333334, "name": "4558b1129cc0816de14d5fd5cb299161"}, {"bike_id": "8ecc15e4de855a99db8400a55a90bbfd", "type": "electric_scooter", "is_disabled": 0, "lat": 38.925863166666666, "rental_uris": {"ios": "https://dc.lft.to/lastmile_qr_scan", "android": "https://dc.lft.to/lastmile_qr_scan"}, "is_reserved": 0, "fusion_lon": 0.0, "fusion_lat": 0.0, "lon": -77.03922283333333, "name": "8ecc15e4de855a99db8400a55a90bbfd"}, {"bike_id": "0204005e1d77bc0f4ac05898259defe7", "type": "electric_scooter", "is_disabled": 0, "lat": 38.95206566666667, "rental_uris": {"ios": "https://dc.lft.to/lastmile_qr_scan", "android": "https://dc.lft.to/lastmile_qr_scan"}, "is_reserved": 0, "fusion_lon": 0.0, "fusion_lat": 0.0, "lon": -77.06792666666666, "name": "0204005e1d77bc0f4ac05898259defe7"}, {"bike_id": "8d93cdd6b911d2a2c3930eba788c8576", "type": "electric_bike", "is_disabled": 0, "lat": 38.8780265, "rental_uris": {"ios": "https://dc.lft.to/lastmile_qr_scan", "android": "https://dc.lft.to/lastmile_qr_scan"}, "is_reserved": 0, "fusion_lon": 0.0, "fusion_lat": 0.0, "lon": -77.00835283333333, "name": "8d93cdd6b911d2a2c3930eba788c8576"}, {"bike_id": "c5025e434cfb812c4618c35f73b4c781", "type": "electric_scooter", "is_disabled": 0, "lat": 38.93610916666667, "rental_uris": {"ios": "https://dc.lft.to/lastmile_qr_scan", "android": "https://dc.lft.to/lastmile_qr_scan"}, "is_reserved": 0, "fusion_lon": 0.0, "fusion_lat": 0.0, "lon": -77.03802933333333, "name": "c5025e434cfb812c4618c35f73b4c781"}, {"bike_id": "4fa4ade5836279314f55523cd337d6ad", "type": "electric_bike", "is_disabled": 0, "lat": 38.87301883333333, "rental_uris": {"ios": "https://dc.lft.to/lastmile_qr_scan", "android": "https://dc.lft.to/lastmile_qr_scan"}, "is_reserved": 0, "fusion_lon": 0.0, "fusion_lat": 0.0, "lon": -77.13924216666666, "name": "4fa4ade5836279314f55523cd337d6ad"}, {"bike_id": "fe4e09d909512e94cb51d6f5ab27b758", "type": "electric_scooter", "is_disabled": 0, "lat": 38.94201183333333, "rental_uris": {"ios": "https://dc.lft.to/lastmile_qr_scan", "android": "https://dc.lft.to/lastmile_qr_scan"}, "is_reserved": 0, "fusion_lon": 0.0, "fusion_lat": 0.0, "lon": -77.02351733333333, "name": "fe4e09d909512e94cb51d6f5ab27b758"}, {"bike_id": "83693d5a0d628d50e2cc8c6eea884313", "type": "electric_scooter", "is_disabled": 0, "lat": 38.93619066666667, "rental_uris": {"ios": "https://dc.lft.to/lastmile_qr_scan", "android": "https://dc.lft.to/lastmile_qr_scan"}, "is_reserved": 0, "fusion_lon": 0.0, "fusion_lat": 0.0, "lon": -77.06755, "name": "83693d5a0d628d50e2cc8c6eea884313"}, {"bike_id": "f9ecc3dbfb91e4517e279c57e415b6d1", "type": "electric_scooter", "is_disabled": 0, "lat": 38.86774183333333, "rental_uris": {"ios": "https://dc.lft.to/lastmile_qr_scan", "android": "https://dc.lft.to/lastmile_qr_scan"}, "is_reserved": 0, "fusion_lon": 0.0, "fusion_lat": 0.0, "lon": -76.98843483333333, "name": "f9ecc3dbfb91e4517e279c57e415b6d1"}, {"bike_id": "f3d3705f7e2d9fe882bac1f53d95d6d9", "type": "electric_scooter", "is_disabled": 0, "lat": 38.95006716666666, "rental_uris": {"ios": "https://dc.lft.to/lastmile_qr_scan", "android": "https://dc.lft.to/lastmile_qr_scan"}, "is_reserved": 0, "fusion_lon": 0.0, "fusion_lat": 0.0, "lon": -77.015599, "name": "f3d3705f7e2d9fe882bac1f53d95d6d9"}, {"bike_id": "1f007d5c39bba8756069439be8ac390b", "type": "electric_scooter", "is_disabled": 0, "lat": 38.902743666666666, "rental_uris": {"ios": "https://dc.lft.to/lastmile_qr_scan", "android": "https://dc.lft.to/lastmile_qr_scan"}, "is_reserved": 0, "fusion_lon": 0.0, "fusion_lat": 0.0, "lon": -77.0411435, "name": "1f007d5c39bba8756069439be8ac390b"}, {"bike_id": "5d3c16dd892859145e41034cb563ab3c", "type": "electric_scooter", "is_disabled": 0, "lat": 38.9072595, "rental_uris": {"ios": "https://dc.lft.to/lastmile_qr_scan", "android": "https://dc.lft.to/lastmile_qr_scan"}, "is_reserved": 0, "fusion_lon": 0.0, "fusion_lat": 0.0, "lon": -77.04799116666666, "name": "5d3c16dd892859145e41034cb563ab3c"}, {"bike_id": "af586e81d806f4d0d2e65487d5dc62ce", "type": "electric_scooter", "is_disabled": 0, "lat": 38.892685166666666, "rental_uris": {"ios": "https://dc.lft.to/lastmile_qr_scan", "android": "https://dc.lft.to/lastmile_qr_scan"}, "is_reserved": 0, "fusion_lon": 0.0, "fusion_lat": 0.0, "lon": -77.00356983333333, "name": "af586e81d806f4d0d2e65487d5dc62ce"}, {"bike_id": "fa59801f2abe48e939fd3b60d21d064e", "type": "electric_scooter", "is_disabled": 0, "lat": 38.862421499999996, "rental_uris": {"ios": "https://dc.lft.to/lastmile_qr_scan", "android": "https://dc.lft.to/lastmile_qr_scan"}, "is_reserved": 0, "fusion_lon": 0.0, "fusion_lat": 0.0, "lon": -76.9949445, "name": "fa59801f2abe48e939fd3b60d21d064e"}, {"bike_id": "1efa66cd6e15d9c4b3e1c711564d4502", "type": "electric_scooter", "is_disabled": 0, "lat": 38.914128833333336, "rental_uris": {"ios": "https://dc.lft.to/lastmile_qr_scan", "android": "https://dc.lft.to/lastmile_qr_scan"}, "is_reserved": 0, "fusion_lon": 0.0, "fusion_lat": 0.0, "lon": -77.02425833333334, "name": "1efa66cd6e15d9c4b3e1c711564d4502"}, {"bike_id": "0de922ed0c41c621cd869cbe1cc82a20", "type": "electric_scooter", "is_disabled": 0, "lat": 38.90126383333333, "rental_uris": {"ios": "https://dc.lft.to/lastmile_qr_scan", "android": "https://dc.lft.to/lastmile_qr_scan"}, "is_reserved": 0, "fusion_lon": 0.0, "fusion_lat": 0.0, "lon": -77.018353, "name": "0de922ed0c41c621cd869cbe1cc82a20"}, {"bike_id": "566fca9b08a730cda5480487d53fe89e", "type": "electric_scooter", "is_disabled": 0, "lat": 38.890076666666666, "rental_uris": {"ios": "https://dc.lft.to/lastmile_qr_scan", "android": "https://dc.lft.to/lastmile_qr_scan"}, "is_reserved": 0, "fusion_lon": 0.0, "fusion_lat": 0.0, "lon": -76.9374675, "name": "566fca9b08a730cda5480487d53fe89e"}, {"bike_id": "3cb4d45465fdcdd6de5e8546827d49b0", "type": "electric_scooter", "is_disabled": 0, "lat": 38.904373666666665, "rental_uris": {"ios": "https://dc.lft.to/lastmile_qr_scan", "android": "https://dc.lft.to/lastmile_qr_scan"}, "is_reserved": 0, "fusion_lon": 0.0, "fusion_lat": 0.0, "lon": -77.03474733333333, "name": "3cb4d45465fdcdd6de5e8546827d49b0"}, {"bike_id": "4124e759824098797279c64277fdc436", "type": "electric_scooter", "is_disabled": 0, "lat": 38.90265766666667, "rental_uris": {"ios": "https://dc.lft.to/lastmile_qr_scan", "android": "https://dc.lft.to/lastmile_qr_scan"}, "is_reserved": 0, "fusion_lon": 0.0, "fusion_lat": 0.0, "lon": -77.01814683333333, "name": "4124e759824098797279c64277fdc436"}, {"bike_id": "98770715d510aef0b025673c821593f8", "type": "electric_scooter", "is_disabled": 0, "lat": 38.878866333333335, "rental_uris": {"ios": "https://dc.lft.to/lastmile_qr_scan", "android": "https://dc.lft.to/lastmile_qr_scan"}, "is_reserved": 0, "fusion_lon": 0.0, "fusion_lat": 0.0, "lon": -77.02315, "name": "98770715d510aef0b025673c821593f8"}, {"bike_id": "99484e9bd247d180ee576800b9d15a3a", "type": "electric_scooter", "is_disabled": 0, "lat": 38.911138, "rental_uris": {"ios": "https://dc.lft.to/lastmile_qr_scan", "android": "https://dc.lft.to/lastmile_qr_scan"}, "is_reserved": 0, "fusion_lon": 0.0, "fusion_lat": 0.0, "lon": -77.02134183333334, "name": "99484e9bd247d180ee576800b9d15a3a"}, {"bike_id": "e39ccbddf6b700bffcb194138e48d487", "type": "electric_scooter", "is_disabled": 0, "lat": 38.92321666666667, "rental_uris": {"ios": "https://dc.lft.to/lastmile_qr_scan", "android": "https://dc.lft.to/lastmile_qr_scan"}, "is_reserved": 0, "fusion_lon": 0.0, "fusion_lat": 0.0, "lon": -77.03910616666667, "name": "e39ccbddf6b700bffcb194138e48d487"}, {"bike_id": "856419603e93d92af55f07cc1b4a8e87", "type": "electric_scooter", "is_disabled": 0, "lat": 38.886253833333335, "rental_uris": {"ios": "https://dc.lft.to/lastmile_qr_scan", "android": "https://dc.lft.to/lastmile_qr_scan"}, "is_reserved": 0, "fusion_lon": 0.0, "fusion_lat": 0.0, "lon": -76.996137, "name": "856419603e93d92af55f07cc1b4a8e87"}, {"bike_id": "1f4f2c4576cdf54414cb21cca2447e0b", "type": "electric_scooter", "is_disabled": 0, "lat": 38.915584, "rental_uris": {"ios": "https://dc.lft.to/lastmile_qr_scan", "android": "https://dc.lft.to/lastmile_qr_scan"}, "is_reserved": 0, "fusion_lon": 0.0, "fusion_lat": 0.0, "lon": -77.02336566666666, "name": "1f4f2c4576cdf54414cb21cca2447e0b"}, {"bike_id": "aebd3466dddf77048faebf1db921e80f", "type": "electric_scooter", "is_disabled": 0, "lat": 38.916325666666665, "rental_uris": {"ios": "https://dc.lft.to/lastmile_qr_scan", "android": "https://dc.lft.to/lastmile_qr_scan"}, "is_reserved": 0, "fusion_lon": 0.0, "fusion_lat": 0.0, "lon": -77.03201483333333, "name": "aebd3466dddf77048faebf1db921e80f"}, {"bike_id": "3e1ff95c180f483b458ba3ace845b7c0", "type": "electric_scooter", "is_disabled": 0, "lat": 38.926784, "rental_uris": {"ios": "https://dc.lft.to/lastmile_qr_scan", "android": "https://dc.lft.to/lastmile_qr_scan"}, "is_reserved": 0, "fusion_lon": 0.0, "fusion_lat": 0.0, "lon": -77.02779216666667, "name": "3e1ff95c180f483b458ba3ace845b7c0"}, {"bike_id": "a32ffebe6f7bb60b57c505d529b6cbcb", "type": "electric_scooter", "is_disabled": 0, "lat": 38.8843335, "rental_uris": {"ios": "https://dc.lft.to/lastmile_qr_scan", "android": "https://dc.lft.to/lastmile_qr_scan"}, "is_reserved": 0, "fusion_lon": 0.0, "fusion_lat": 0.0, "lon": -76.957467, "name": "a32ffebe6f7bb60b57c505d529b6cbcb"}, {"bike_id": "cdd205c1c5a7fe24117cd53bb2a559f1", "type": "electric_scooter", "is_disabled": 0, "lat": 38.91416483333333, "rental_uris": {"ios": "https://dc.lft.to/lastmile_qr_scan", "android": "https://dc.lft.to/lastmile_qr_scan"}, "is_reserved": 0, "fusion_lon": 0.0, "fusion_lat": 0.0, "lon": -77.04460733333333, "name": "cdd205c1c5a7fe24117cd53bb2a559f1"}, {"bike_id": "c791c973f97ce1fa58cd33b34cd8a9f2", "type": "electric_scooter", "is_disabled": 0, "lat": 38.91011916666667, "rental_uris": {"ios": "https://dc.lft.to/lastmile_qr_scan", "android": "https://dc.lft.to/lastmile_qr_scan"}, "is_reserved": 0, "fusion_lon": 0.0, "fusion_lat": 0.0, "lon": -77.0344225, "name": "c791c973f97ce1fa58cd33b34cd8a9f2"}, {"bike_id": "2d32d62bdeac0e845128edec1446ef09", "type": "electric_bike", "is_disabled": 0, "lat": 38.8693915, "rental_uris": {"ios": "https://dc.lft.to/lastmile_qr_scan", "android": "https://dc.lft.to/lastmile_qr_scan"}, "is_reserved": 0, "fusion_lon": 0.0, "fusion_lat": 0.0, "lon": -77.094675, "name": "2d32d62bdeac0e845128edec1446ef09"}, {"bike_id": "814221fad7d2369547b464c58f6be01c", "type": "electric_scooter", "is_disabled": 0, "lat": 38.931171, "rental_uris": {"ios": "https://dc.lft.to/lastmile_qr_scan", "android": "https://dc.lft.to/lastmile_qr_scan"}, "is_reserved": 0, "fusion_lon": 0.0, "fusion_lat": 0.0, "lon": -77.03812383333333, "name": "814221fad7d2369547b464c58f6be01c"}, {"bike_id": "8349cffad5503daaf0c26562942fa3e8", "type": "electric_scooter", "is_disabled": 0, "lat": 38.9365695, "rental_uris": {"ios": "https://dc.lft.to/lastmile_qr_scan", "android": "https://dc.lft.to/lastmile_qr_scan"}, "is_reserved": 0, "fusion_lon": 0.0, "fusion_lat": 0.0, "lon": -77.02637183333333, "name": "8349cffad5503daaf0c26562942fa3e8"}, {"bike_id": "f96d4ea6c52107a5df662f69f1a19bc4", "type": "electric_scooter", "is_disabled": 0, "lat": 38.9573845, "rental_uris": {"ios": "https://dc.lft.to/lastmile_qr_scan", "android": "https://dc.lft.to/lastmile_qr_scan"}, "is_reserved": 0, "fusion_lon": 0.0, "fusion_lat": 0.0, "lon": -77.0242085, "name": "f96d4ea6c52107a5df662f69f1a19bc4"}, {"bike_id": "40f82eddd77b311e07e1a77ecfecb25c", "type": "electric_scooter", "is_disabled": 0, "lat": 38.9144145, "rental_uris": {"ios": "https://dc.lft.to/lastmile_qr_scan", "android": "https://dc.lft.to/lastmile_qr_scan"}, "is_reserved": 0, "fusion_lon": 0.0, "fusion_lat": 0.0, "lon": -77.02290816666667, "name": "40f82eddd77b311e07e1a77ecfecb25c"}, {"bike_id": "26bba251c3b7bfd894400c87d6ecd5d9", "type": "electric_scooter", "is_disabled": 0, "lat": 38.93070066666667, "rental_uris": {"ios": "https://dc.lft.to/lastmile_qr_scan", "android": "https://dc.lft.to/lastmile_qr_scan"}, "is_reserved": 0, "fusion_lon": 0.0, "fusion_lat": 0.0, "lon": -77.029805, "name": "26bba251c3b7bfd894400c87d6ecd5d9"}, {"bike_id": "e60e387b93eedb586868de04413b4fae", "type": "electric_scooter", "is_disabled": 0, "lat": 38.8884865, "rental_uris": {"ios": "https://dc.lft.to/lastmile_qr_scan", "android": "https://dc.lft.to/lastmile_qr_scan"}, "is_reserved": 0, "fusion_lon": 0.0, "fusion_lat": 0.0, "lon": -76.926827, "name": "e60e387b93eedb586868de04413b4fae"}, {"bike_id": "858fbe4674b4c9bb8360d68d78327676", "type": "electric_scooter", "is_disabled": 0, "lat": 38.88396816666667, "rental_uris": {"ios": "https://dc.lft.to/lastmile_qr_scan", "android": "https://dc.lft.to/lastmile_qr_scan"}, "is_reserved": 0, "fusion_lon": 0.0, "fusion_lat": 0.0, "lon": -76.99551833333334, "name": "858fbe4674b4c9bb8360d68d78327676"}, {"bike_id": "d852265945d58dbcc4d9cd552cdfaf01", "type": "electric_scooter", "is_disabled": 0, "lat": 38.91935683333333, "rental_uris": {"ios": "https://dc.lft.to/lastmile_qr_scan", "android": "https://dc.lft.to/lastmile_qr_scan"}, "is_reserved": 0, "fusion_lon": 0.0, "fusion_lat": 0.0, "lon": -77.07385183333334, "name": "d852265945d58dbcc4d9cd552cdfaf01"}, {"bike_id": "0956d6f12c5f86d2ec3285f54c596e58", "type": "electric_scooter", "is_disabled": 0, "lat": 38.909622166666665, "rental_uris": {"ios": "https://dc.lft.to/lastmile_qr_scan", "android": "https://dc.lft.to/lastmile_qr_scan"}, "is_reserved": 0, "fusion_lon": 0.0, "fusion_lat": 0.0, "lon": -77.02313366666667, "name": "0956d6f12c5f86d2ec3285f54c596e58"}, {"bike_id": "b442ab662025a46096098ec6c2547339", "type": "electric_scooter", "is_disabled": 0, "lat": 38.93310533333333, "rental_uris": {"ios": "https://dc.lft.to/lastmile_qr_scan", "android": "https://dc.lft.to/lastmile_qr_scan"}, "is_reserved": 0, "fusion_lon": 0.0, "fusion_lat": 0.0, "lon": -77.03440366666666, "name": "b442ab662025a46096098ec6c2547339"}, {"bike_id": "4d09800527f064c31831d75f4919722f", "type": "electric_scooter", "is_disabled": 0, "lat": 38.863749, "rental_uris": {"ios": "https://dc.lft.to/lastmile_qr_scan", "android": "https://dc.lft.to/lastmile_qr_scan"}, "is_reserved": 0, "fusion_lon": 0.0, "fusion_lat": 0.0, "lon": -76.99061266666666, "name": "4d09800527f064c31831d75f4919722f"}, {"bike_id": "5639a18f8ce592c98765aa2d0c47f26b", "type": "electric_bike", "is_disabled": 0, "lat": 38.897399166666666, "rental_uris": {"ios": "https://dc.lft.to/lastmile_qr_scan", "android": "https://dc.lft.to/lastmile_qr_scan"}, "is_reserved": 0, "fusion_lon": 0.0, "fusion_lat": 0.0, "lon": -76.9921685, "name": "5639a18f8ce592c98765aa2d0c47f26b"}, {"bike_id": "31759375687328347ee26a24d4a90fa9", "type": "electric_scooter", "is_disabled": 0, "lat": 38.942970333333335, "rental_uris": {"ios": "https://dc.lft.to/lastmile_qr_scan", "android": "https://dc.lft.to/lastmile_qr_scan"}, "is_reserved": 0, "fusion_lon": 0.0, "fusion_lat": 0.0, "lon": -77.077088, "name": "31759375687328347ee26a24d4a90fa9"}, {"bike_id": "0a38d3860b571de26e450d1992c44ee5", "type": "electric_scooter", "is_disabled": 0, "lat": 38.90563733333333, "rental_uris": {"ios": "https://dc.lft.to/lastmile_qr_scan", "android": "https://dc.lft.to/lastmile_qr_scan"}, "is_reserved": 0, "fusion_lon": 0.0, "fusion_lat": 0.0, "lon": -77.005858, "name": "0a38d3860b571de26e450d1992c44ee5"}, {"bike_id": "2497ff5444b2c2a283a3e86c8fc206d6", "type": "electric_scooter", "is_disabled": 0, "lat": 38.94271616666666, "rental_uris": {"ios": "https://dc.lft.to/lastmile_qr_scan", "android": "https://dc.lft.to/lastmile_qr_scan"}, "is_reserved": 0, "fusion_lon": 0.0, "fusion_lat": 0.0, "lon": -77.032558, "name": "2497ff5444b2c2a283a3e86c8fc206d6"}, {"bike_id": "1fe40c65ed7b234e5ebe48d1af4d369e", "type": "electric_scooter", "is_disabled": 0, "lat": 38.9037805, "rental_uris": {"ios": "https://dc.lft.to/lastmile_qr_scan", "android": "https://dc.lft.to/lastmile_qr_scan"}, "is_reserved": 0, "fusion_lon": 0.0, "fusion_lat": 0.0, "lon": -77.043479, "name": "1fe40c65ed7b234e5ebe48d1af4d369e"}, {"bike_id": "b00aea1d203c40eeb0a4739192f8927d", "type": "electric_scooter", "is_disabled": 0, "lat": 38.89525183333333, "rental_uris": {"ios": "https://dc.lft.to/lastmile_qr_scan", "android": "https://dc.lft.to/lastmile_qr_scan"}, "is_reserved": 0, "fusion_lon": 0.0, "fusion_lat": 0.0, "lon": -77.01109816666667, "name": "b00aea1d203c40eeb0a4739192f8927d"}, {"bike_id": "f34430425166331d34d154f2b1faa02e", "type": "electric_scooter", "is_disabled": 0, "lat": 38.918437833333336, "rental_uris": {"ios": "https://dc.lft.to/lastmile_qr_scan", "android": "https://dc.lft.to/lastmile_qr_scan"}, "is_reserved": 0, "fusion_lon": 0.0, "fusion_lat": 0.0, "lon": -77.031918, "name": "f34430425166331d34d154f2b1faa02e"}, {"bike_id": "44e1ffec337fec6885f6aebc73465f73", "type": "electric_scooter", "is_disabled": 0, "lat": 38.9063165, "rental_uris": {"ios": "https://dc.lft.to/lastmile_qr_scan", "android": "https://dc.lft.to/lastmile_qr_scan"}, "is_reserved": 0, "fusion_lon": 0.0, "fusion_lat": 0.0, "lon": -77.055599, "name": "44e1ffec337fec6885f6aebc73465f73"}, {"bike_id": "9e6a5a1acacc40dbf174c33ca6751306", "type": "electric_scooter", "is_disabled": 0, "lat": 38.923713666666664, "rental_uris": {"ios": "https://dc.lft.to/lastmile_qr_scan", "android": "https://dc.lft.to/lastmile_qr_scan"}, "is_reserved": 0, "fusion_lon": 0.0, "fusion_lat": 0.0, "lon": -77.04123883333334, "name": "9e6a5a1acacc40dbf174c33ca6751306"}, {"bike_id": "d0121c935dd121540e7310e902bacd11", "type": "electric_scooter", "is_disabled": 0, "lat": 38.91764216666667, "rental_uris": {"ios": "https://dc.lft.to/lastmile_qr_scan", "android": "https://dc.lft.to/lastmile_qr_scan"}, "is_reserved": 0, "fusion_lon": 0.0, "fusion_lat": 0.0, "lon": -77.0228915, "name": "d0121c935dd121540e7310e902bacd11"}, {"bike_id": "9979e55b55ce6745b255458dd823d7bd", "type": "electric_scooter", "is_disabled": 0, "lat": 38.91874466666667, "rental_uris": {"ios": "https://dc.lft.to/lastmile_qr_scan", "android": "https://dc.lft.to/lastmile_qr_scan"}, "is_reserved": 0, "fusion_lon": 0.0, "fusion_lat": 0.0, "lon": -77.070347, "name": "9979e55b55ce6745b255458dd823d7bd"}, {"bike_id": "642faa966f58f918794e3ac3b8453621", "type": "electric_scooter", "is_disabled": 0, "lat": 38.9079825, "rental_uris": {"ios": "https://dc.lft.to/lastmile_qr_scan", "android": "https://dc.lft.to/lastmile_qr_scan"}, "is_reserved": 0, "fusion_lon": 0.0, "fusion_lat": 0.0, "lon": -77.03808216666667, "name": "642faa966f58f918794e3ac3b8453621"}, {"bike_id": "f8f5d4c2b9efb97c04d72b45d6d6cb02", "type": "electric_scooter", "is_disabled": 0, "lat": 38.9184975, "rental_uris": {"ios": "https://dc.lft.to/lastmile_qr_scan", "android": "https://dc.lft.to/lastmile_qr_scan"}, "is_reserved": 0, "fusion_lon": 0.0, "fusion_lat": 0.0, "lon": -77.03880866666667, "name": "f8f5d4c2b9efb97c04d72b45d6d6cb02"}, {"bike_id": "1075ce031872ddfbf5941662ce89b9df", "type": "electric_scooter", "is_disabled": 0, "lat": 38.90265933333333, "rental_uris": {"ios": "https://dc.lft.to/lastmile_qr_scan", "android": "https://dc.lft.to/lastmile_qr_scan"}, "is_reserved": 0, "fusion_lon": 0.0, "fusion_lat": 0.0, "lon": -77.002101, "name": "1075ce031872ddfbf5941662ce89b9df"}, {"bike_id": "d232b687cfb9de3306f1ddebba120146", "type": "electric_scooter", "is_disabled": 0, "lat": 38.9004835, "rental_uris": {"ios": "https://dc.lft.to/lastmile_qr_scan", "android": "https://dc.lft.to/lastmile_qr_scan"}, "is_reserved": 0, "fusion_lon": 0.0, "fusion_lat": 0.0, "lon": -77.01325283333334, "name": "d232b687cfb9de3306f1ddebba120146"}, {"bike_id": "3d81d6baf0d918086dd14c7ef26a3a7d", "type": "electric_scooter", "is_disabled": 0, "lat": 38.863758, "rental_uris": {"ios": "https://dc.lft.to/lastmile_qr_scan", "android": "https://dc.lft.to/lastmile_qr_scan"}, "is_reserved": 0, "fusion_lon": 0.0, "fusion_lat": 0.0, "lon": -76.99060816666666, "name": "3d81d6baf0d918086dd14c7ef26a3a7d"}, {"bike_id": "8547a84fd44269edbda35a636dbc488b", "type": "electric_scooter", "is_disabled": 0, "lat": 38.9084895, "rental_uris": {"ios": "https://dc.lft.to/lastmile_qr_scan", "android": "https://dc.lft.to/lastmile_qr_scan"}, "is_reserved": 0, "fusion_lon": 0.0, "fusion_lat": 0.0, "lon": -76.99799116666667, "name": "8547a84fd44269edbda35a636dbc488b"}, {"bike_id": "606d2041a98ec6fa210e7eab9c561da0", "type": "electric_scooter", "is_disabled": 0, "lat": 38.898492, "rental_uris": {"ios": "https://dc.lft.to/lastmile_qr_scan", "android": "https://dc.lft.to/lastmile_qr_scan"}, "is_reserved": 0, "fusion_lon": 0.0, "fusion_lat": 0.0, "lon": -76.94633683333333, "name": "606d2041a98ec6fa210e7eab9c561da0"}, {"bike_id": "c76bcd29f58b8a681846f00fc2ff192d", "type": "electric_scooter", "is_disabled": 0, "lat": 38.86684783333333, "rental_uris": {"ios": "https://dc.lft.to/lastmile_qr_scan", "android": "https://dc.lft.to/lastmile_qr_scan"}, "is_reserved": 0, "fusion_lon": 0.0, "fusion_lat": 0.0, "lon": -76.985585, "name": "c76bcd29f58b8a681846f00fc2ff192d"}, {"bike_id": "bc641c1f4e420fd2a1c0083588c1d588", "type": "electric_scooter", "is_disabled": 0, "lat": 38.88377933333334, "rental_uris": {"ios": "https://dc.lft.to/lastmile_qr_scan", "android": "https://dc.lft.to/lastmile_qr_scan"}, "is_reserved": 0, "fusion_lon": 0.0, "fusion_lat": 0.0, "lon": -77.0263025, "name": "bc641c1f4e420fd2a1c0083588c1d588"}, {"bike_id": "3dd82e3134026d51cb56113311f8ce67", "type": "electric_scooter", "is_disabled": 0, "lat": 38.92017333333333, "rental_uris": {"ios": "https://dc.lft.to/lastmile_qr_scan", "android": "https://dc.lft.to/lastmile_qr_scan"}, "is_reserved": 0, "fusion_lon": 0.0, "fusion_lat": 0.0, "lon": -77.03127233333333, "name": "3dd82e3134026d51cb56113311f8ce67"}, {"bike_id": "84ebf8467cc27342016c423c5f6336f2", "type": "electric_scooter", "is_disabled": 0, "lat": 38.90513, "rental_uris": {"ios": "https://dc.lft.to/lastmile_qr_scan", "android": "https://dc.lft.to/lastmile_qr_scan"}, "is_reserved": 0, "fusion_lon": 0.0, "fusion_lat": 0.0, "lon": -77.05124283333333, "name": "84ebf8467cc27342016c423c5f6336f2"}, {"bike_id": "3dc646dd8aa892810ca89132b96b72c0", "type": "electric_scooter", "is_disabled": 0, "lat": 38.90258016666667, "rental_uris": {"ios": "https://dc.lft.to/lastmile_qr_scan", "android": "https://dc.lft.to/lastmile_qr_scan"}, "is_reserved": 0, "fusion_lon": 0.0, "fusion_lat": 0.0, "lon": -77.03973166666667, "name": "3dc646dd8aa892810ca89132b96b72c0"}, {"bike_id": "abda0fb349689f7f6b257f06e06f9921", "type": "electric_scooter", "is_disabled": 0, "lat": 38.91929483333333, "rental_uris": {"ios": "https://dc.lft.to/lastmile_qr_scan", "android": "https://dc.lft.to/lastmile_qr_scan"}, "is_reserved": 0, "fusion_lon": 0.0, "fusion_lat": 0.0, "lon": -77.0424565, "name": "abda0fb349689f7f6b257f06e06f9921"}, {"bike_id": "5ec3f5881c65ab2241889a4615e9acd2", "type": "electric_scooter", "is_disabled": 0, "lat": 38.90583816666667, "rental_uris": {"ios": "https://dc.lft.to/lastmile_qr_scan", "android": "https://dc.lft.to/lastmile_qr_scan"}, "is_reserved": 0, "fusion_lon": 0.0, "fusion_lat": 0.0, "lon": -77.02006666666666, "name": "5ec3f5881c65ab2241889a4615e9acd2"}, {"bike_id": "ec518169c936502589c1166372065f5c", "type": "electric_scooter", "is_disabled": 0, "lat": 38.864206, "rental_uris": {"ios": "https://dc.lft.to/lastmile_qr_scan", "android": "https://dc.lft.to/lastmile_qr_scan"}, "is_reserved": 0, "fusion_lon": 0.0, "fusion_lat": 0.0, "lon": -76.98042333333333, "name": "ec518169c936502589c1166372065f5c"}, {"bike_id": "99010526049c86560c5f97d78085ea79", "type": "electric_scooter", "is_disabled": 0, "lat": 38.901566833333334, "rental_uris": {"ios": "https://dc.lft.to/lastmile_qr_scan", "android": "https://dc.lft.to/lastmile_qr_scan"}, "is_reserved": 0, "fusion_lon": 0.0, "fusion_lat": 0.0, "lon": -76.990182, "name": "99010526049c86560c5f97d78085ea79"}, {"bike_id": "d0d3dd68f94b128fb18047f9613bdf15", "type": "electric_scooter", "is_disabled": 0, "lat": 38.907714166666665, "rental_uris": {"ios": "https://dc.lft.to/lastmile_qr_scan", "android": "https://dc.lft.to/lastmile_qr_scan"}, "is_reserved": 0, "fusion_lon": 0.0, "fusion_lat": 0.0, "lon": -77.0317745, "name": "d0d3dd68f94b128fb18047f9613bdf15"}, {"bike_id": "086dab9c7fed865e79bdda07e651ceb2", "type": "electric_scooter", "is_disabled": 0, "lat": 38.918153, "rental_uris": {"ios": "https://dc.lft.to/lastmile_qr_scan", "android": "https://dc.lft.to/lastmile_qr_scan"}, "is_reserved": 0, "fusion_lon": 0.0, "fusion_lat": 0.0, "lon": -77.0076485, "name": "086dab9c7fed865e79bdda07e651ceb2"}, {"bike_id": "59fdccf91d83aa0e777a63020df8591d", "type": "electric_scooter", "is_disabled": 0, "lat": 38.922618, "rental_uris": {"ios": "https://dc.lft.to/lastmile_qr_scan", "android": "https://dc.lft.to/lastmile_qr_scan"}, "is_reserved": 0, "fusion_lon": 0.0, "fusion_lat": 0.0, "lon": -77.04294533333334, "name": "59fdccf91d83aa0e777a63020df8591d"}, {"bike_id": "beb6b1b2c334d23d964cbdebc3cb8690", "type": "electric_scooter", "is_disabled": 0, "lat": 38.90958966666667, "rental_uris": {"ios": "https://dc.lft.to/lastmile_qr_scan", "android": "https://dc.lft.to/lastmile_qr_scan"}, "is_reserved": 0, "fusion_lon": 0.0, "fusion_lat": 0.0, "lon": -77.04480216666667, "name": "beb6b1b2c334d23d964cbdebc3cb8690"}, {"bike_id": "6ad167dfb259f3252a08f15ac5db4130", "type": "electric_scooter", "is_disabled": 0, "lat": 38.903423833333335, "rental_uris": {"ios": "https://dc.lft.to/lastmile_qr_scan", "android": "https://dc.lft.to/lastmile_qr_scan"}, "is_reserved": 0, "fusion_lon": 0.0, "fusion_lat": 0.0, "lon": -77.0529895, "name": "6ad167dfb259f3252a08f15ac5db4130"}, {"bike_id": "53df3d555c2b9b80c6b29835bbc67d44", "type": "electric_scooter", "is_disabled": 0, "lat": 38.91712166666667, "rental_uris": {"ios": "https://dc.lft.to/lastmile_qr_scan", "android": "https://dc.lft.to/lastmile_qr_scan"}, "is_reserved": 0, "fusion_lon": 0.0, "fusion_lat": 0.0, "lon": -77.0345955, "name": "53df3d555c2b9b80c6b29835bbc67d44"}, {"bike_id": "f274cbb8aac2d750654cd33166cdf628", "type": "electric_scooter", "is_disabled": 0, "lat": 38.908244833333335, "rental_uris": {"ios": "https://dc.lft.to/lastmile_qr_scan", "android": "https://dc.lft.to/lastmile_qr_scan"}, "is_reserved": 0, "fusion_lon": 0.0, "fusion_lat": 0.0, "lon": -77.03441133333334, "name": "f274cbb8aac2d750654cd33166cdf628"}, {"bike_id": "6cd6a9f07b1837fcb80f94a54c812dce", "type": "electric_scooter", "is_disabled": 0, "lat": 38.905334333333336, "rental_uris": {"ios": "https://dc.lft.to/lastmile_qr_scan", "android": "https://dc.lft.to/lastmile_qr_scan"}, "is_reserved": 0, "fusion_lon": 0.0, "fusion_lat": 0.0, "lon": -77.05937883333333, "name": "6cd6a9f07b1837fcb80f94a54c812dce"}, {"bike_id": "fb6c5551f97d0aaa563f5d1d35700c81", "type": "electric_scooter", "is_disabled": 0, "lat": 38.88436016666667, "rental_uris": {"ios": "https://dc.lft.to/lastmile_qr_scan", "android": "https://dc.lft.to/lastmile_qr_scan"}, "is_reserved": 0, "fusion_lon": 0.0, "fusion_lat": 0.0, "lon": -76.9575735, "name": "fb6c5551f97d0aaa563f5d1d35700c81"}, {"bike_id": "6ad51964abb8d69347464ac69898c16a", "type": "electric_scooter", "is_disabled": 0, "lat": 38.898432166666666, "rental_uris": {"ios": "https://dc.lft.to/lastmile_qr_scan", "android": "https://dc.lft.to/lastmile_qr_scan"}, "is_reserved": 0, "fusion_lon": 0.0, "fusion_lat": 0.0, "lon": -77.02530066666667, "name": "6ad51964abb8d69347464ac69898c16a"}, {"bike_id": "6ed033f9127de985461095ab33e90224", "type": "electric_scooter", "is_disabled": 0, "lat": 38.897064666666665, "rental_uris": {"ios": "https://dc.lft.to/lastmile_qr_scan", "android": "https://dc.lft.to/lastmile_qr_scan"}, "is_reserved": 0, "fusion_lon": 0.0, "fusion_lat": 0.0, "lon": -76.93001283333334, "name": "6ed033f9127de985461095ab33e90224"}, {"bike_id": "546ec7e61dc8f48041c90bdda662b6a0", "type": "electric_scooter", "is_disabled": 0, "lat": 38.901216833333336, "rental_uris": {"ios": "https://dc.lft.to/lastmile_qr_scan", "android": "https://dc.lft.to/lastmile_qr_scan"}, "is_reserved": 0, "fusion_lon": 0.0, "fusion_lat": 0.0, "lon": -77.0249105, "name": "546ec7e61dc8f48041c90bdda662b6a0"}, {"bike_id": "c934d3e48e09f33f41f110dce59e4bca", "type": "electric_scooter", "is_disabled": 0, "lat": 38.902446, "rental_uris": {"ios": "https://dc.lft.to/lastmile_qr_scan", "android": "https://dc.lft.to/lastmile_qr_scan"}, "is_reserved": 0, "fusion_lon": 0.0, "fusion_lat": 0.0, "lon": -76.99628116666666, "name": "c934d3e48e09f33f41f110dce59e4bca"}, {"bike_id": "3dba25e2024715a91ae5e9bddbe6fc3b", "type": "electric_scooter", "is_disabled": 0, "lat": 38.907367666666666, "rental_uris": {"ios": "https://dc.lft.to/lastmile_qr_scan", "android": "https://dc.lft.to/lastmile_qr_scan"}, "is_reserved": 0, "fusion_lon": 0.0, "fusion_lat": 0.0, "lon": -77.01318433333333, "name": "3dba25e2024715a91ae5e9bddbe6fc3b"}, {"bike_id": "ea5b6ab66c0036bc6c56c3495dd30a6b", "type": "electric_scooter", "is_disabled": 0, "lat": 38.924856166666665, "rental_uris": {"ios": "https://dc.lft.to/lastmile_qr_scan", "android": "https://dc.lft.to/lastmile_qr_scan"}, "is_reserved": 0, "fusion_lon": 0.0, "fusion_lat": 0.0, "lon": -77.028387, "name": "ea5b6ab66c0036bc6c56c3495dd30a6b"}, {"bike_id": "88501c609265bdbcf2272db28a562a64", "type": "electric_scooter", "is_disabled": 0, "lat": 38.903447666666665, "rental_uris": {"ios": "https://dc.lft.to/lastmile_qr_scan", "android": "https://dc.lft.to/lastmile_qr_scan"}, "is_reserved": 0, "fusion_lon": 0.0, "fusion_lat": 0.0, "lon": -77.03636216666666, "name": "88501c609265bdbcf2272db28a562a64"}, {"bike_id": "ea72d193091e1a68c180ba77026fd6bc", "type": "electric_scooter", "is_disabled": 0, "lat": 38.89853933333333, "rental_uris": {"ios": "https://dc.lft.to/lastmile_qr_scan", "android": "https://dc.lft.to/lastmile_qr_scan"}, "is_reserved": 0, "fusion_lon": 0.0, "fusion_lat": 0.0, "lon": -76.9903295, "name": "ea72d193091e1a68c180ba77026fd6bc"}, {"bike_id": "a2ef09cc9afa1b769b3cb373a47efb0a", "type": "electric_scooter", "is_disabled": 0, "lat": 38.90795983333334, "rental_uris": {"ios": "https://dc.lft.to/lastmile_qr_scan", "android": "https://dc.lft.to/lastmile_qr_scan"}, "is_reserved": 0, "fusion_lon": 0.0, "fusion_lat": 0.0, "lon": -77.0204835, "name": "a2ef09cc9afa1b769b3cb373a47efb0a"}, {"bike_id": "0d7c75a6d2b7867fdfca84041acf8e93", "type": "electric_scooter", "is_disabled": 0, "lat": 38.86253966666666, "rental_uris": {"ios": "https://dc.lft.to/lastmile_qr_scan", "android": "https://dc.lft.to/lastmile_qr_scan"}, "is_reserved": 0, "fusion_lon": 0.0, "fusion_lat": 0.0, "lon": -76.99265383333334, "name": "0d7c75a6d2b7867fdfca84041acf8e93"}, {"bike_id": "7f164ffaba464f6c6c3d70607801caa7", "type": "electric_scooter", "is_disabled": 0, "lat": 38.863746, "rental_uris": {"ios": "https://dc.lft.to/lastmile_qr_scan", "android": "https://dc.lft.to/lastmile_qr_scan"}, "is_reserved": 0, "fusion_lon": 0.0, "fusion_lat": 0.0, "lon": -76.99057783333333, "name": "7f164ffaba464f6c6c3d70607801caa7"}, {"bike_id": "cc59267789595abb264af5a87a047f17", "type": "electric_scooter", "is_disabled": 0, "lat": 38.917100166666664, "rental_uris": {"ios": "https://dc.lft.to/lastmile_qr_scan", "android": "https://dc.lft.to/lastmile_qr_scan"}, "is_reserved": 0, "fusion_lon": 0.0, "fusion_lat": 0.0, "lon": -77.01072033333334, "name": "cc59267789595abb264af5a87a047f17"}, {"bike_id": "a4d4858def8e2b9a9f5a1cf0c71c8005", "type": "electric_scooter", "is_disabled": 0, "lat": 38.9129085, "rental_uris": {"ios": "https://dc.lft.to/lastmile_qr_scan", "android": "https://dc.lft.to/lastmile_qr_scan"}, "is_reserved": 0, "fusion_lon": 0.0, "fusion_lat": 0.0, "lon": -77.019761, "name": "a4d4858def8e2b9a9f5a1cf0c71c8005"}, {"bike_id": "b43d6e582dccd1e3a1ee6a1cd8fb9131", "type": "electric_scooter", "is_disabled": 0, "lat": 38.898208333333336, "rental_uris": {"ios": "https://dc.lft.to/lastmile_qr_scan", "android": "https://dc.lft.to/lastmile_qr_scan"}, "is_reserved": 0, "fusion_lon": 0.0, "fusion_lat": 0.0, "lon": -77.024049, "name": "b43d6e582dccd1e3a1ee6a1cd8fb9131"}, {"bike_id": "0c4969611501773de7d8d8d1be6e71cd", "type": "electric_scooter", "is_disabled": 0, "lat": 38.879225, "rental_uris": {"ios": "https://dc.lft.to/lastmile_qr_scan", "android": "https://dc.lft.to/lastmile_qr_scan"}, "is_reserved": 0, "fusion_lon": 0.0, "fusion_lat": 0.0, "lon": -76.99505316666666, "name": "0c4969611501773de7d8d8d1be6e71cd"}, {"bike_id": "6b4e3f3b7b4b2cf36922f4b56398e70e", "type": "electric_bike", "is_disabled": 0, "lat": 38.9083155, "rental_uris": {"ios": "https://dc.lft.to/lastmile_qr_scan", "android": "https://dc.lft.to/lastmile_qr_scan"}, "is_reserved": 0, "fusion_lon": 0.0, "fusion_lat": 0.0, "lon": -76.94158233333333, "name": "6b4e3f3b7b4b2cf36922f4b56398e70e"}, {"bike_id": "c803b0d23e5dc8b012ddc43729020e6e", "type": "electric_scooter", "is_disabled": 0, "lat": 38.8950815, "rental_uris": {"ios": "https://dc.lft.to/lastmile_qr_scan", "android": "https://dc.lft.to/lastmile_qr_scan"}, "is_reserved": 0, "fusion_lon": 0.0, "fusion_lat": 0.0, "lon": -77.0221055, "name": "c803b0d23e5dc8b012ddc43729020e6e"}, {"bike_id": "6ada79839d5275cd6d8b347e3aafe15d", "type": "electric_scooter", "is_disabled": 0, "lat": 38.889332, "rental_uris": {"ios": "https://dc.lft.to/lastmile_qr_scan", "android": "https://dc.lft.to/lastmile_qr_scan"}, "is_reserved": 0, "fusion_lon": 0.0, "fusion_lat": 0.0, "lon": -77.01503416666667, "name": "6ada79839d5275cd6d8b347e3aafe15d"}, {"bike_id": "01c7887bf08596a953aa0b3fc857b3b1", "type": "electric_bike", "is_disabled": 0, "lat": 38.871977, "rental_uris": {"ios": "https://dc.lft.to/lastmile_qr_scan", "android": "https://dc.lft.to/lastmile_qr_scan"}, "is_reserved": 0, "fusion_lon": 0.0, "fusion_lat": 0.0, "lon": -77.01221383333333, "name": "01c7887bf08596a953aa0b3fc857b3b1"}, {"bike_id": "bcb9717f65e47e5bfdb59cc55a5ceb27", "type": "electric_scooter", "is_disabled": 0, "lat": 38.90686216666667, "rental_uris": {"ios": "https://dc.lft.to/lastmile_qr_scan", "android": "https://dc.lft.to/lastmile_qr_scan"}, "is_reserved": 0, "fusion_lon": 0.0, "fusion_lat": 0.0, "lon": -77.05320716666667, "name": "bcb9717f65e47e5bfdb59cc55a5ceb27"}, {"bike_id": "178c86e9f84801aa63742f73e0e0710c", "type": "electric_scooter", "is_disabled": 0, "lat": 38.91679666666667, "rental_uris": {"ios": "https://dc.lft.to/lastmile_qr_scan", "android": "https://dc.lft.to/lastmile_qr_scan"}, "is_reserved": 0, "fusion_lon": 0.0, "fusion_lat": 0.0, "lon": -77.02959116666666, "name": "178c86e9f84801aa63742f73e0e0710c"}, {"bike_id": "06c3b471f1a3bb83720b1a7d9c293d60", "type": "electric_scooter", "is_disabled": 0, "lat": 38.93114466666667, "rental_uris": {"ios": "https://dc.lft.to/lastmile_qr_scan", "android": "https://dc.lft.to/lastmile_qr_scan"}, "is_reserved": 0, "fusion_lon": 0.0, "fusion_lat": 0.0, "lon": -77.02097366666666, "name": "06c3b471f1a3bb83720b1a7d9c293d60"}, {"bike_id": "890be3ca3d9f7a34cd13115d106b3f6c", "type": "electric_bike", "is_disabled": 0, "lat": 38.89569633333333, "rental_uris": {"ios": "https://dc.lft.to/lastmile_qr_scan", "android": "https://dc.lft.to/lastmile_qr_scan"}, "is_reserved": 0, "fusion_lon": 0.0, "fusion_lat": 0.0, "lon": -77.12736616666666, "name": "890be3ca3d9f7a34cd13115d106b3f6c"}, {"bike_id": "46a59a8957ddbe442b52545aabdd68dd", "type": "electric_scooter", "is_disabled": 0, "lat": 38.90787383333333, "rental_uris": {"ios": "https://dc.lft.to/lastmile_qr_scan", "android": "https://dc.lft.to/lastmile_qr_scan"}, "is_reserved": 0, "fusion_lon": 0.0, "fusion_lat": 0.0, "lon": -77.01109116666667, "name": "46a59a8957ddbe442b52545aabdd68dd"}, {"bike_id": "fb38cecc97b107cb3dba932d5b79ab0c", "type": "electric_bike", "is_disabled": 0, "lat": 38.86879, "rental_uris": {"ios": "https://dc.lft.to/lastmile_qr_scan", "android": "https://dc.lft.to/lastmile_qr_scan"}, "is_reserved": 0, "fusion_lon": 0.0, "fusion_lat": 0.0, "lon": -76.957799, "name": "fb38cecc97b107cb3dba932d5b79ab0c"}, {"bike_id": "534a1b407df4ddba9093a84cdc99046c", "type": "electric_scooter", "is_disabled": 0, "lat": 38.911174833333334, "rental_uris": {"ios": "https://dc.lft.to/lastmile_qr_scan", "android": "https://dc.lft.to/lastmile_qr_scan"}, "is_reserved": 0, "fusion_lon": 0.0, "fusion_lat": 0.0, "lon": -77.03831283333334, "name": "534a1b407df4ddba9093a84cdc99046c"}, {"bike_id": "6976c743c251a26e55571c52690e3133", "type": "electric_bike", "is_disabled": 0, "lat": 38.885938833333334, "rental_uris": {"ios": "https://dc.lft.to/lastmile_qr_scan", "android": "https://dc.lft.to/lastmile_qr_scan"}, "is_reserved": 0, "fusion_lon": 0.0, "fusion_lat": 0.0, "lon": -77.00067183333333, "name": "6976c743c251a26e55571c52690e3133"}, {"bike_id": "777edcaab89f79e58e280b7ac35813cf", "type": "electric_scooter", "is_disabled": 0, "lat": 38.92343366666667, "rental_uris": {"ios": "https://dc.lft.to/lastmile_qr_scan", "android": "https://dc.lft.to/lastmile_qr_scan"}, "is_reserved": 0, "fusion_lon": 0.0, "fusion_lat": 0.0, "lon": -77.05050216666666, "name": "777edcaab89f79e58e280b7ac35813cf"}, {"bike_id": "6956b8c7c164053ca4ab6f652e528eb2", "type": "electric_bike", "is_disabled": 0, "lat": 38.956184666666665, "rental_uris": {"ios": "https://dc.lft.to/lastmile_qr_scan", "android": "https://dc.lft.to/lastmile_qr_scan"}, "is_reserved": 0, "fusion_lon": 0.0, "fusion_lat": 0.0, "lon": -77.025949, "name": "6956b8c7c164053ca4ab6f652e528eb2"}, {"bike_id": "108d98f8705ed8bc717ffff026d7b70b", "type": "electric_scooter", "is_disabled": 0, "lat": 38.921335166666665, "rental_uris": {"ios": "https://dc.lft.to/lastmile_qr_scan", "android": "https://dc.lft.to/lastmile_qr_scan"}, "is_reserved": 0, "fusion_lon": 0.0, "fusion_lat": 0.0, "lon": -77.0442565, "name": "108d98f8705ed8bc717ffff026d7b70b"}, {"bike_id": "ec5ca8cb60ac60308dff70ca3f80eddd", "type": "electric_scooter", "is_disabled": 0, "lat": 38.87098133333333, "rental_uris": {"ios": "https://dc.lft.to/lastmile_qr_scan", "android": "https://dc.lft.to/lastmile_qr_scan"}, "is_reserved": 0, "fusion_lon": 0.0, "fusion_lat": 0.0, "lon": -77.00806383333334, "name": "ec5ca8cb60ac60308dff70ca3f80eddd"}, {"bike_id": "5bb20f125e42a11cbfbe1c60aa89eb59", "type": "electric_scooter", "is_disabled": 0, "lat": 38.90036816666667, "rental_uris": {"ios": "https://dc.lft.to/lastmile_qr_scan", "android": "https://dc.lft.to/lastmile_qr_scan"}, "is_reserved": 0, "fusion_lon": 0.0, "fusion_lat": 0.0, "lon": -77.00694233333333, "name": "5bb20f125e42a11cbfbe1c60aa89eb59"}, {"bike_id": "c874f5750dac69e2421b22796d7ac64f", "type": "electric_scooter", "is_disabled": 0, "lat": 38.9060435, "rental_uris": {"ios": "https://dc.lft.to/lastmile_qr_scan", "android": "https://dc.lft.to/lastmile_qr_scan"}, "is_reserved": 0, "fusion_lon": 0.0, "fusion_lat": 0.0, "lon": -77.06298733333334, "name": "c874f5750dac69e2421b22796d7ac64f"},