{"data": {"bikes": [{"lat": 38.83743483333333, "type": "electric_scooter", "is_disabled": 0, "name": "37b9bcc240eb54c2b908f7732acde1bb", "bike_id": "37b9bcc240eb54c2b908f7732acde1bb", "fusion_lon": 0.0, "rental_uris": {"ios": "https://dc.lft.to/lastmile_qr_scan", "android": "https://dc.lft.to/lastmile_qr_scan"}, "is_reserved": 0, "fusion_lat": 0.0, "lon": -76.99864933333333}, {"lat": 38.93152333333333, "type": "electric_scooter", "is_disabled": 0, "name": "0d55e7eccd0b0ed0ffcddce36e0d9fef", "bike_id": "0d55e7eccd0b0ed0ffcddce36e0d9fef", "fusion_lon": 0.0, "rental_uris": {"ios": "https://dc.lft.to/lastmile_qr_scan", "android": "https://dc.lft.to/lastmile_qr_scan"}, "is_reserved": 0, "fusion_lat": 0.0, "lon": -77.036413}, {"lat": 38.91426383333334, "type": "electric_scooter", "is_disabled": 0, "name": "d1d6e075d0c1e9dc30b4170ed35dfa78", "bike_id": "d1d6e075d0c1e9dc30b4170ed35dfa78", "fusion_lon": 0.0, "rental_uris": {"ios": "https://dc.lft.to/lastmile_qr_scan", "android": "https://dc.lft.to/lastmile_qr_scan"}, "is_reserved": 0, "fusion_lat": 0.0, "lon": -77.028167}, {"lat": 38.8949235, "type": "electric_scooter", "is_disabled": 0, "name": "0f775ff4dc6d2345503a4df4ade984be", "bike_id": "0f775ff4dc6d2345503a4df4ade984be", "fusion_lon": 0.0, "rental_uris": {"ios": "https://dc.lft.to/lastmile_qr_scan", "android": "https://dc.lft.to/lastmile_qr_scan"}, "is_reserved": 0, "fusion_lat": 0.0, "lon": -76.94894616666667}, {"lat": 38.879417, "type": "electric_scooter", "is_disabled": 0, "name": "6fac640debc77e23767862060e13e200", "bike_id": "6fac640debc77e23767862060e13e200", "fusion_lon": 0.0, "rental_uris": {"ios": "https://dc.lft.to/lastmile_qr_scan", "android": "https://dc.lft.to/lastmile_qr_scan"}, "is_reserved": 0, "fusion_lat": 0.0, "lon": -76.98384}, {"lat": 38.9705775, "type": "electric_bike", "is_disabled": 0, "name": "acb9441f2988bdf3a65512054cc43a6c", "bike_id": "acb9441f2988bdf3a65512054cc43a6c", "fusion_lon": 0.0, "rental_uris": {"ios": "https://dc.lft.to/lastmile_qr_scan", "android": "https://dc.lft.to/lastmile_qr_scan"}, "is_reserved": 0, "fusion_lat": 0.0, "lon": -76.936172}, {"lat": 38.931456, "type": "electric_scooter", "is_disabled": 0, "name": "e4a3a000b7d59ef2f49a21ae24d1cbb8", "bike_id": "e4a3a000b7d59ef2f49a21ae24d1cbb8", "fusion_lon": 0.0, "rental_uris": {"ios": "https://dc.lft.to/lastmile_qr_scan", "android": "https://dc.lft.to/lastmile_qr_scan"}, "is_reserved": 0, "fusion_lat": 0.0, "lon": -77.03834633333334}, {"lat": 38.883727666666665, "type": "electric_scooter", "is_disabled": 0, "name": "7b45a08ba2632b8243b88ee3193f3e7b", "bike_id": "7b45a08ba2632b8243b88ee3193f3e7b", "fusion_lon": 0.0, "rental_uris": {"ios": "https://dc.lft.to/lastmile_qr_scan", "android": "https://dc.lft.to/lastmile_qr_scan"}, "is_reserved": 0, "fusion_lat": 0.0, "lon": -76.9951775}, {"lat": 38.90256616666667, "type": "electric_scooter", "is_disabled": 0, "name": "1e7096e617bdc2cef997c8d3dc5a6380", "bike_id": "1e7096e617bdc2cef997c8d3dc5a6380", "fusion_lon": 0.0, "rental_uris": {"ios": "https://dc.lft.to/lastmile_qr_scan", "android": "https://dc.lft.to/lastmile_qr_scan"}, "is_reserved": 0, "fusion_lat": 0.0, "lon": -77.0313995}, {"lat": 38.9033925, "type": "electric_scooter", "is_disabled": 0, "name": "68ba83ce5a32e45736022bc2587d45d5", "bike_id": "68ba83ce5a32e45736022bc2587d45d5", "fusion_lon": 0.0, "rental_uris": {"ios": "https://dc.lft.to/lastmile_qr_scan", "android": "https://dc.lft.to/lastmile_qr_scan"}, "is_reserved": 0, "fusion_lat": 0.0, "lon": -76.97579683333333}, {"lat": 38.894570333333334, "type": "electric_scooter", "is_disabled": 0, "name": "1d1e618b341163360e8dc7e087d02655", "bike_id": "1d1e618b341163360e8dc7e087d02655", "fusion_lon": 0.0, "rental_uris": {"ios": "https://dc.lft.to/lastmile_qr_scan", "android": "https://dc.lft.to/lastmile_qr_scan"}, "is_reserved": 0, "fusion_lat": 0.0, "lon": -77.0337575}, {"lat": 38.88500833333333, "type": "electric_scooter", "is_disabled": 0, "name": "ff23543468816615e2d341aa4a23ceef", "bike_id": "ff23543468816615e2d341aa4a23ceef", "fusion_lon": 0.0, "rental_uris": {"ios": "https://dc.lft.to/lastmile_qr_scan", "android": "https://dc.lft.to/lastmile_qr_scan"}, "is_reserved": 0, "fusion_lat": 0.0, "lon": -77.00896716666666}, {"lat": 39.00387116666667, "type": "electric_bike", "is_disabled": 0, "name": "2c22dd96dbf25ec52eff671d84b24184", "bike_id": "2c22dd96dbf25ec52eff671d84b24184", "fusion_lon": 0.0, "rental_uris": {"ios": "https://dc.lft.to/lastmile_qr_scan", "android": "https://dc.lft.to/lastmile_qr_scan"}, "is_reserved": 0, "fusion_lat": 0.0, "lon": -77.01286916666666}, {"lat": 38.907196666666664, "type": "electric_scooter", "is_disabled": 0, "name": "7adb7e572871c5919cbe96c925bb55e6", "bike_id": "7adb7e572871c5919cbe96c925bb55e6", "fusion_lon": 0.0, "rental_uris": {"ios": "https://dc.lft.to/lastmile_qr_scan", "android": "https://dc.lft.to/lastmile_qr_scan"}, "is_reserved": 0, "fusion_lat": 0.0, "lon": -77.00573416666667}, {"lat": 38.89470583333333, "type": "electric_scooter", "is_disabled": 0, "name": "fc14aed60d73ded0b59485d4822d4d20", "bike_id": "fc14aed60d73ded0b59485d4822d4d20", "fusion_lon": 0.0, "rental_uris": {"ios": "https://dc.lft.to/lastmile_qr_scan", "android": "https://dc.lft.to/lastmile_qr_scan"}, "is_reserved": 0, "fusion_lat": 0.0, "lon": -76.99710433333334}, {"lat": 38.907732833333334, "type": "electric_scooter", "is_disabled": 0, "name": "4014f5d875dbe12d3648727e3af646c7", "bike_id": "4014f5d875dbe12d3648727e3af646c7", "fusion_lon": 0.0, "rental_uris": {"ios": "https://dc.lft.to/lastmile_qr_scan", "android": "https://dc.lft.to/lastmile_qr_scan"}, "is_reserved": 0, "fusion_lat": 0.0, "lon": -77.02186033333334}, {"lat": 38.929146333333335, "type": "electric_scooter", "is_disabled": 0, "name": "9b4d12b8eb46b79d8c1ba40a9ba8169f", "bike_id": "9b4d12b8eb46b79d8c1ba40a9ba8169f", "fusion_lon": 0.0, "rental_uris": {"ios": "https://dc.lft.to/lastmile_qr_scan", "android": "https://dc.lft.to/lastmile_qr_scan"}, "is_reserved": 0, "fusion_lat": 0.0, "lon": -76.99816883333334}, {"lat": 38.9100125, "type": "electric_scooter", "is_disabled": 0, "name": "5bd794350516a48b6ebc98dd841b79cd", "bike_id": "5bd794350516a48b6ebc98dd841b79cd", "fusion_lon": 0.0, "rental_uris": {"ios": "https://dc.lft.to/lastmile_qr_scan", "android": "https://dc.lft.to/lastmile_qr_scan"}, "is_reserved": 0, "fusion_lat": 0.0, "lon": -77.04498866666667}, {"lat": 38.92062633333333, "type": "electric_scooter", "is_disabled": 0, "name": "70024953672119143cef2a4a9d7e1d9c", "bike_id": "70024953672119143cef2a4a9d7e1d9c", "fusion_lon": 0.0, "rental_uris": {"ios": "https://dc.lft.to/lastmile_qr_scan", "android": "https://dc.lft.to/lastmile_qr_scan"}, "is_reserved": 0, "fusion_lat": 0.0, "lon": -77.03796233333334}, {"lat": 38.90044983333333, "type": "electric_scooter", "is_disabled": 0, "name": "f9584bcdfc5ddbb0d02421e0f29cd7db", "bike_id": "f9584bcdfc5ddbb0d02421e0f29cd7db", "fusion_lon": 0.0, "rental_uris": {"ios": "https://dc.lft.to/lastmile_qr_scan", "android": "https://dc.lft.to/lastmile_qr_scan"}, "is_reserved": 0, "fusion_lat": 0.0, "lon": -76.98554433333334}, {"lat": 38.922456, "type": "electric_scooter", "is_disabled": 0, "name": "45e724a8dc9b0781b756aef51d157945", "bike_id": "45e724a8dc9b0781b756aef51d157945", "fusion_lon": 0.0, "rental_uris": {"ios": "https://dc.lft.to/lastmile_qr_scan", "android": "https://dc.lft.to/lastmile_qr_scan"}, "is_reserved": 0, "fusion_lat": 0.0, "lon": -77.04363533333333}, {"lat": 38.89871683333333, "type": "electric_scooter", "is_disabled": 0, "name": "ea318e6a88b85d3f09ff772456e1eb2f", "bike_id": "ea318e6a88b85d3f09ff772456e1eb2f", "fusion_lon": 0.0, "rental_uris": {"ios": "https://dc.lft.to/lastmile_qr_scan", "android": "https://dc.lft.to/lastmile_qr_scan"}, "is_reserved": 0, "fusion_lat": 0.0, "lon": -77.0333545}, {"lat": 38.93697083333333, "type": "electric_scooter", "is_disabled": 0, "name": "2f2fc38060e5864c7bea7188701eb039", "bike_id": "2f2fc38060e5864c7bea7188701eb039", "fusion_lon": 0.0, "rental_uris": {"ios": "https://dc.lft.to/lastmile_qr_scan", "android": "https://dc.lft.to/lastmile_qr_scan"}, "is_reserved": 0, "fusion_lat": 0.0, "lon": -77.03284766666667}, {"lat": 38.896690666666665, "type": "electric_scooter", "is_disabled": 0, "name": "8dd22dd54d632f5474c50a23fec63414", "bike_id": "8dd22dd54d632f5474c50a23fec63414", "fusion_lon": 0.0, "rental_uris": {"ios": "https://dc.lft.to/lastmile_qr_scan", "android": "https://dc.lft.to/lastmile_qr_scan"}, "is_reserved": 0, "fusion_lat": 0.0, "lon": -77.04351466666667}, {"lat": 38.89847183333333, "type": "electric_scooter", "is_disabled": 0, "name": "24f01a33b1589fc65ee13b51b1cc8065", "bike_id": "24f01a33b1589fc65ee13b51b1cc8065", "fusion_lon": 0.0, "rental_uris": {"ios": "https://dc.lft.to/lastmile_qr_scan", "android": "https://dc.lft.to/lastmile_qr_scan"}, "is_reserved": 0, "fusion_lat": 0.0, "lon": -76.99029683333333}, {"lat": 38.9184075, "type": "electric_scooter", "is_disabled": 0, "name": "6ee11825cf6a40e42d33a5d75e7f5213", "bike_id": "6ee11825cf6a40e42d33a5d75e7f5213", "fusion_lon": 0.0, "rental_uris": {"ios": "https://dc.lft.to/lastmile_qr_scan", "android": "https://dc.lft.to/lastmile_qr_scan"}, "is_reserved": 0, "fusion_lat": 0.0, "lon": -77.03190116666667}, {"lat": 38.89231383333333, "type": "electric_scooter", "is_disabled": 0, "name": "7a4b8a50734b282e296871f2c8a183a6", "bike_id": "7a4b8a50734b282e296871f2c8a183a6", "fusion_lon": 0.0, "rental_uris": {"ios": "https://dc.lft.to/lastmile_qr_scan", "android": "https://dc.lft.to/lastmile_qr_scan"}, "is_reserved": 0, "fusion_lat": 0.0, "lon": -77.0321015}, {"lat": 38.891262, "type": "electric_bike", "is_disabled": 0, "name": "860cb37dafdad3a9a1edabcb57d88bfd", "bike_id": "860cb37dafdad3a9a1edabcb57d88bfd", "fusion_lon": 0.0, "rental_uris": {"ios": "https://dc.lft.to/lastmile_qr_scan", "android": "https://dc.lft.to/lastmile_qr_scan"}, "is_reserved": 0, "fusion_lat": 0.0, "lon": -76.9406245}, {"lat": 38.9233645, "type": "electric_scooter", "is_disabled": 0, "name": "a2e80545acbc114be34de5fea43161d4", "bike_id": "a2e80545acbc114be34de5fea43161d4", "fusion_lon": 0.0, "rental_uris": {"ios": "https://dc.lft.to/lastmile_qr_scan", "android": "https://dc.lft.to/lastmile_qr_scan"}, "is_reserved": 0, "fusion_lat": 0.0, "lon": -77.0568155}, {"lat": 38.903750333333335, "type": "electric_scooter", "is_disabled": 0, "name": "ee2a1030f0d222bc23d07cd939054d3a", "bike_id": "ee2a1030f0d222bc23d07cd939054d3a", "fusion_lon": 0.0, "rental_uris": {"ios": "https://dc.lft.to/lastmile_qr_scan", "android": "https://dc.lft.to/lastmile_qr_scan"}, "is_reserved": 0, "fusion_lat": 0.0, "lon": -77.03849083333333}, {"lat": 38.880867333333335, "type": "electric_scooter", "is_disabled": 0, "name": "98344d981e4c10e6bca504b6d636ab14", "bike_id": "98344d981e4c10e6bca504b6d636ab14", "fusion_lon": 0.0, "rental_uris": {"ios": "https://dc.lft.to/lastmile_qr_scan", "android": "https://dc.lft.to/lastmile_qr_scan"}, "is_reserved": 0, "fusion_lat": 0.0, "lon": -77.02613516666666}, {"lat": 38.9162715, "type": "electric_scooter", "is_disabled": 0, "name": "b374923b53f79da8ff42df128e66ee33", "bike_id": "b374923b53f79da8ff42df128e66ee33", "fusion_lon": 0.0, "rental_uris": {"ios": "https://dc.lft.to/lastmile_qr_scan", "android": "https://dc.lft.to/lastmile_qr_scan"}, "is_reserved": 0, "fusion_lat": 0.0, "lon": -77.04868383333333}, {"lat": 38.913539166666666, "type": "electric_scooter", "is_disabled": 0, "name": "c4b8dc909492c4b8d8b9cc9496f279f8", "bike_id": "c4b8dc909492c4b8d8b9cc9496f279f8", "fusion_lon": 0.0, "rental_uris": {"ios": "https://dc.lft.to/lastmile_qr_scan", "android": "https://dc.lft.to/lastmile_qr_scan"}, "is_reserved": 0, "fusion_lat": 0.0, "lon": -77.03354566666667}, {"lat": 38.905752666666665, "type": "electric_scooter", "is_disabled": 0, "name": "722edcbecf08069ceb7c26227357d6b3", "bike_id": "722edcbecf08069ceb7c26227357d6b3", "fusion_lon": 0.0, "rental_uris": {"ios": "https://dc.lft.to/lastmile_qr_scan", "android": "https://dc.lft.to/lastmile_qr_scan"}, "is_reserved": 0, "fusion_lat": 0.0, "lon": -77.00612633333333}, {"lat": 38.892178333333334, "type": "electric_scooter", "is_disabled": 0, "name": "484ece66be61df926795eab6872d59e4", "bike_id": "484ece66be61df926795eab6872d59e4", "fusion_lon": 0.0, "rental_uris": {"ios": "https://dc.lft.to/lastmile_qr_scan", "android": "https://dc.lft.to/lastmile_qr_scan"}, "is_reserved": 0, "fusion_lat": 0.0, "lon": -77.00342233333333}, {"lat": 38.938598, "type": "electric_scooter", "is_disabled": 0, "name": "375151323bcf05bba9b9373c1e6c495e", "bike_id": "375151323bcf05bba9b9373c1e6c495e", "fusion_lon": 0.0, "rental_uris": {"ios": "https://dc.lft.to/lastmile_qr_scan", "android": "https://dc.lft.to/lastmile_qr_scan"}, "is_reserved": 0, "fusion_lat": 0.0, "lon": -76.99436116666666}, {"lat": 38.9319565, "type": "electric_scooter", "is_disabled": 0, "name": "e4cefe5742f3d6b656ad739181be06bd", "bike_id": "e4cefe5742f3d6b656ad739181be06bd", "fusion_lon": 0.0, "rental_uris": {"ios": "https://dc.lft.to/lastmile_qr_scan", "android": "https://dc.lft.to/lastmile_qr_scan"}, "is_reserved": 0, "fusion_lat": 0.0, "lon": -77.03752333333334}, {"lat": 38.896199333333335, "type": "electric_scooter", "is_disabled": 0, "name": "d1129d6a6e7cb74a73fa8b06b37ea27a", "bike_id": "d1129d6a6e7cb74a73fa8b06b37ea27a", "fusion_lon": 0.0, "rental_uris": {"ios": "https://dc.lft.to/lastmile_qr_scan", "android": "https://dc.lft.to/lastmile_qr_scan"}, "is_reserved": 0, "fusion_lat": 0.0, "lon": -77.03222216666667}, {"lat": 38.876882333333334, "type": "electric_scooter", "is_disabled": 0, "name": "50f6fc7a0e680e860416fc0991ce3df1", "bike_id": "50f6fc7a0e680e860416fc0991ce3df1", "fusion_lon": 0.0, "rental_uris": {"ios": "https://dc.lft.to/lastmile_qr_scan", "android": "https://dc.lft.to/lastmile_qr_scan"}, "is_reserved": 0, "fusion_lat": 0.0, "lon": -77.017577}, {"lat": 38.89222566666667, "type": "electric_scooter", "is_disabled": 0, "name": "a2a455059b05837e9fa4d762525dbb25", "bike_id": "a2a455059b05837e9fa4d762525dbb25", "fusion_lon": 0.0, "rental_uris": {"ios": "https://dc.lft.to/lastmile_qr_scan", "android": "https://dc.lft.to/lastmile_qr_scan"}, "is_reserved": 0, "fusion_lat": 0.0, "lon": -77.04469916666666}, {"lat": 38.899414, "type": "electric_scooter", "is_disabled": 0, "name": "05e8a6b5b53b26d52b99aeea8b04ff6e", "bike_id": "05e8a6b5b53b26d52b99aeea8b04ff6e", "fusion_lon": 0.0, "rental_uris": {"ios": "https://dc.lft.to/lastmile_qr_scan", "android": "https://dc.lft.to/lastmile_qr_scan"}, "is_reserved": 0, "fusion_lat": 0.0, "lon": -77.0295285}, {"lat": 38.90592383333333, "type": "electric_scooter", "is_disabled": 0, "name": "8f3ed5e2e47af5442065f7c8ec72d35d", "bike_id": "8f3ed5e2e47af5442065f7c8ec72d35d", "fusion_lon": 0.0, "rental_uris": {"ios": "https://dc.lft.to/lastmile_qr_scan", "android": "https://dc.lft.to/lastmile_qr_scan"}, "is_reserved": 0, "fusion_lat": 0.0, "lon": -77.0343335}, {"lat": 38.9207235, "type": "electric_scooter", "is_disabled": 0, "name": "2b00ece281f8829229118cdddef4f910", "bike_id": "2b00ece281f8829229118cdddef4f910", "fusion_lon": 0.0, "rental_uris": {"ios": "https://dc.lft.to/lastmile_qr_scan", "android": "https://dc.lft.to/lastmile_qr_scan"}, "is_reserved": 0, "fusion_lat": 0.0, "lon": -77.0745545}, {"lat": 38.90520083333333, "type": "electric_scooter", "is_disabled": 0, "name": "3bf80dd1846a763ddf180701e09dec2a", "bike_id": "3bf80dd1846a763ddf180701e09dec2a", "fusion_lon": 0.0, "rental_uris": {"ios": "https://dc.lft.to/lastmile_qr_scan", "android": "https://dc.lft.to/lastmile_qr_scan"}, "is_reserved": 0, "fusion_lat": 0.0, "lon": -77.06332733333333}, {"lat": 38.910802333333336, "type": "electric_scooter", "is_disabled": 0, "name": "f3cc25491f8f1b7d34aac31db77106c4", "bike_id": "f3cc25491f8f1b7d34aac31db77106c4", "fusion_lon": 0.0, "rental_uris": {"ios": "https://dc.lft.to/lastmile_qr_scan", "android": "https://dc.lft.to/lastmile_qr_scan"}, "is_reserved": 0, "fusion_lat": 0.0, "lon": -77.041077}, {"lat": 38.80400916666667, "type": "electric_bike", "is_disabled": 0, "name": "0924a7c814924c4832452692ce0eea9f", "bike_id": "0924a7c814924c4832452692ce0eea9f", "fusion_lon": 0.0, "rental_uris": {"ios": "https://dc.lft.to/lastmile_qr_scan", "android": "https://dc.lft.to/lastmile_qr_scan"}, "is_reserved": 0, "fusion_lat": 0.0, "lon": -77.1133035}, {"lat": 38.931088333333335, "type": "electric_scooter", "is_disabled": 0, "name": "1b7fb2cee29bed79f3248bfedc1f51e9", "bike_id": "1b7fb2cee29bed79f3248bfedc1f51e9", "fusion_lon": 0.0, "rental_uris": {"ios": "https://dc.lft.to/lastmile_qr_scan", "android": "https://dc.lft.to/lastmile_qr_scan"}, "is_reserved": 0, "fusion_lat": 0.0, "lon": -77.0351025}, {"lat": 38.8942025, "type": "electric_scooter", "is_disabled": 0, "name": "4ad481b100c32869c9f06a1c050d3320", "bike_id": "4ad481b100c32869c9f06a1c050d3320", "fusion_lon": 0.0, "rental_uris": {"ios": "https://dc.lft.to/lastmile_qr_scan", "android": "https://dc.lft.to/lastmile_qr_scan"}, "is_reserved": 0, "fusion_lat": 0.0, "lon": -76.99769316666666}, {"lat": 38.90335783333333, "type": "electric_bike", "is_disabled": 0, "name": "dede2a34490435932a696d5b38ab0552", "bike_id": "dede2a34490435932a696d5b38ab0552", "fusion_lon": 0.0, "rental_uris": {"ios": "https://dc.lft.to/lastmile_qr_scan", "android": "https://dc.lft.to/lastmile_qr_scan"}, "is_reserved": 0, "fusion_lat": 0.0, "lon": -76.97531716666667}, {"lat": 38.88238966666667, "type": "electric_scooter", "is_disabled": 0, "name": "0f3a1e6e431295780f05728d3a51210c", "bike_id": "0f3a1e6e431295780f05728d3a51210c", "fusion_lon": 0.0, "rental_uris": {"ios": "https://dc.lft.to/lastmile_qr_scan", "android": "https://dc.lft.to/lastmile_qr_scan"}, "is_reserved": 0, "fusion_lat": 0.0, "lon": -76.99498616666666}, {"lat": 38.91325283333333, "type": "electric_scooter", "is_disabled": 0, "name": "592f1072138aef9277f37c041d1e1bd5", "bike_id": "592f1072138aef9277f37c041d1e1bd5", "fusion_lon": 0.0, "rental_uris": {"ios": "https://dc.lft.to/lastmile_qr_scan", "android": "https://dc.lft.to/lastmile_qr_scan"}, "is_reserved": 0, "fusion_lat": 0.0, "lon": -77.0454245}, {"lat": 38.92075766666667, "type": "electric_scooter", "is_disabled": 0, "name": "b78df922d86f49a87c78c9446427abe4", "bike_id": "b78df922d86f49a87c78c9446427abe4", "fusion_lon": 0.0, "rental_uris": {"ios": "https://dc.lft.to/lastmile_qr_scan", "android": "https://dc.lft.to/lastmile_qr_scan"}, "is_reserved": 0, "fusion_lat": 0.0, "lon": -77.02536466666666}, {"lat": 38.93312733333333, "type": "electric_scooter", "is_disabled": 0, "name": "823d3a9ae762e104d9951fcfe3e8089c", "bike_id": "823d3a9ae762e104d9951fcfe3e8089c", "fusion_lon": 0.0, "rental_uris": {"ios": "https://dc.lft.to/lastmile_qr_scan", "android": "https://dc.lft.to/lastmile_qr_scan"}, "is_reserved": 0, "fusion_lat": 0.0, "lon": -77.03621833333334}, {"lat": 38.917438833333335, "type": "electric_scooter", "is_disabled": 0, "name": "09ef45ae627687c61c1b63f514b67846", "bike_id": "09ef45ae627687c61c1b63f514b67846", "fusion_lon": 0.0, "rental_uris": {"ios": "https://dc.lft.to/lastmile_qr_scan", "android": "https://dc.lft.to/lastmile_qr_scan"}, "is_reserved": 0, "fusion_lat": 0.0, "lon": -77.02285716666667}, {"lat": 38.91586516666667, "type": "electric_scooter", "is_disabled": 0, "name": "2966c917ea54ebdaa687cf0b0ab296b7", "bike_id": "2966c917ea54ebdaa687cf0b0ab296b7", "fusion_lon": 0.0, "rental_uris": {"ios": "https://dc.lft.to/lastmile_qr_scan", "android": "https://dc.lft.to/lastmile_qr_scan"}, "is_reserved": 0, "fusion_lat": 0.0, "lon": -77.044715}, {"lat": 38.92484366666667, "type": "electric_scooter", "is_disabled": 0, "name": "68c72f90852f5948589e4c0816bacc0e", "bike_id": "68c72f90852f5948589e4c0816bacc0e", "fusion_lon": 0.0, "rental_uris": {"ios": "https://dc.lft.to/lastmile_qr_scan", "android": "https://dc.lft.to/lastmile_qr_scan"}, "is_reserved": 0, "fusion_lat": 0.0, "lon": -77.02272533333333}, {"lat": 38.901575, "type": "electric_scooter", "is_disabled": 0, "name": "8ab04f36278d48aacffadb738c7395c1", "bike_id": "8ab04f36278d48aacffadb738c7395c1", "fusion_lon": 0.0, "rental_uris": {"ios": "https://dc.lft.to/lastmile_qr_scan", "android": "https://dc.lft.to/lastmile_qr_scan"}, "is_reserved": 0, "fusion_lat": 0.0, "lon": -77.0361755}, {"lat": 38.88436216666667, "type": "electric_scooter", "is_disabled": 0, "name": "bd21e0a52fa8e7597883f86d14278ae4", "bike_id": "bd21e0a52fa8e7597883f86d14278ae4", "fusion_lon": 0.0, "rental_uris": {"ios": "https://dc.lft.to/lastmile_qr_scan", "android": "https://dc.lft.to/lastmile_qr_scan"}, "is_reserved": 0, "fusion_lat": 0.0, "lon": -76.99589933333333}, {"lat": 38.906643, "type": "electric_scooter", "is_disabled": 0, "name": "30834b429765faa4de18a8f8a07eef6c", "bike_id": "30834b429765faa4de18a8f8a07eef6c", "fusion_lon": 0.0, "rental_uris": {"ios": "https://dc.lft.to/lastmile_qr_scan", "android": "https://dc.lft.to/lastmile_qr_scan"}, "is_reserved": 0, "fusion_lat": 0.0, "lon": -77.02711483333333}, {"lat": 38.924973, "type": "electric_scooter", "is_disabled": 0, "name": "0aa41cf2fb0812ff1c22bf489e56b886", "bike_id": "0aa41cf2fb0812ff1c22bf489e56b886", "fusion_lon": 0.0, "rental_uris": {"ios": "https://dc.lft.to/lastmile_qr_scan", "android": "https://dc.lft.to/lastmile_qr_scan"}, "is_reserved": 0, "fusion_lat": 0.0, "lon": -77.04135566666666}, {"lat": 38.9155035, "type": "electric_scooter", "is_disabled": 0, "name": "56d6edcf6e18a7d343672c084912cc53", "bike_id": "56d6edcf6e18a7d343672c084912cc53", "fusion_lon": 0.0, "rental_uris": {"ios": "https://dc.lft.to/lastmile_qr_scan", "android": "https://dc.lft.to/lastmile_qr_scan"}, "is_reserved": 0, "fusion_lat": 0.0, "lon": -77.00720633333333}, {"lat": 38.927918, "type": "electric_scooter", "is_disabled": 0, "name": "3dce40ccfc19123a45b9bafccc49737f", "bike_id": "3dce40ccfc19123a45b9bafccc49737f", "fusion_lon": 0.0, "rental_uris": {"ios": "https://dc.lft.to/lastmile_qr_scan", "android": "https://dc.lft.to/lastmile_qr_scan"}, "is_reserved": 0, "fusion_lat": 0.0, "lon": -77.0308385}, {"lat": 38.914107333333334, "type": "electric_scooter", "is_disabled": 0, "name": "3fe59fd4df24fc9bea4577c73d411d80", "bike_id": "3fe59fd4df24fc9bea4577c73d411d80", "fusion_lon": 0.0, "rental_uris": {"ios": "https://dc.lft.to/lastmile_qr_scan", "android": "https://dc.lft.to/lastmile_qr_scan"}, "is_reserved": 0, "fusion_lat": 0.0, "lon": -77.01292983333333}, {"lat": 38.905856666666665, "type": "electric_scooter", "is_disabled": 0, "name": "e04a075ac7d06d397fa8d2a748e17e81", "bike_id": "e04a075ac7d06d397fa8d2a748e17e81", "fusion_lon": 0.0, "rental_uris": {"ios": "https://dc.lft.to/lastmile_qr_scan", "android": "https://dc.lft.to/lastmile_qr_scan"}, "is_reserved": 0, "fusion_lat": 0.0, "lon": -77.0400505}, {"lat": 38.92332966666667, "type": "electric_scooter", "is_disabled": 0, "name": "efe1cdf11a907dfb5d4723f0415bc158", "bike_id": "efe1cdf11a907dfb5d4723f0415bc158", "fusion_lon": 0.0, "rental_uris": {"ios": "https://dc.lft.to/lastmile_qr_scan", "android": "https://dc.lft.to/lastmile_qr_scan"}, "is_reserved": 0, "fusion_lat": 0.0, "lon": -77.01903666666666}, {"lat": 38.94103533333333, "type": "electric_scooter", "is_disabled": 0, "name": "56b99d987ab85fb43f0b9b1090507256", "bike_id": "56b99d987ab85fb43f0b9b1090507256", "fusion_lon": 0.0, "rental_uris": {"ios": "https://dc.lft.to/lastmile_qr_scan", "android": "https://dc.lft.to/lastmile_qr_scan"}, "is_reserved": 0, "fusion_lat": 0.0, "lon": -77.06136883333333}, {"lat": 38.921710166666664, "type": "electric_scooter", "is_disabled": 0, "name": "911c1c837a138e469983a42c44a3bd09", "bike_id": "911c1c837a138e469983a42c44a3bd09", "fusion_lon": 0.0, "rental_uris": {"ios": "https://dc.lft.to/lastmile_qr_scan", "android": "https://dc.lft.to/lastmile_qr_scan"}, "is_reserved": 0, "fusion_lat": 0.0, "lon": -77.0422935}, {"lat": 38.93106616666667, "type": "electric_scooter", "is_disabled": 0, "name": "2ad35b88134227cf1822633354792bf6", "bike_id": "2ad35b88134227cf1822633354792bf6", "fusion_lon": 0.0, "rental_uris": {"ios": "https://dc.lft.to/lastmile_qr_scan", "android": "https://dc.lft.to/lastmile_qr_scan"}, "is_reserved": 0, "fusion_lat": 0.0, "lon": -77.037916}, {"lat": 38.9154685, "type": "electric_scooter", "is_disabled": 0, "name": "1492de091fe57a7f8188d09a6c72dadc", "bike_id": "1492de091fe57a7f8188d09a6c72dadc", "fusion_lon": 0.0, "rental_uris": {"ios": "https://dc.lft.to/lastmile_qr_scan", "android": "https://dc.lft.to/lastmile_qr_scan"}, "is_reserved": 0, "fusion_lat": 0.0, "lon": -77.0122265}, {"lat": 38.91297516666667, "type": "electric_scooter", "is_disabled": 0, "name": "af2efb1c56df9eccb790eaa7c1c72648", "bike_id": "af2efb1c56df9eccb790eaa7c1c72648", "fusion_lon": 0.0, "rental_uris": {"ios": "https://dc.lft.to/lastmile_qr_scan", "android": "https://dc.lft.to/lastmile_qr_scan"}, "is_reserved": 0, "fusion_lat": 0.0, "lon": -76.98545616666667}, {"lat": 38.92255766666667, "type": "electric_scooter", "is_disabled": 0, "name": "0f31bd546da0981a2b77923908771091", "bike_id": "0f31bd546da0981a2b77923908771091", "fusion_lon": 0.0, "rental_uris": {"ios": "https://dc.lft.to/lastmile_qr_scan", "android": "https://dc.lft.to/lastmile_qr_scan"}, "is_reserved": 0, "fusion_lat": 0.0, "lon": -77.01951183333334}, {"lat": 38.88706666666667, "type": "electric_scooter", "is_disabled": 0, "name": "3a8a9d669fe8f2b03ffddc0cdb73831c", "bike_id": "3a8a9d669fe8f2b03ffddc0cdb73831c", "fusion_lon": 0.0, "rental_uris": {"ios": "https://dc.lft.to/lastmile_qr_scan", "android": "https://dc.lft.to/lastmile_qr_scan"}, "is_reserved": 0, "fusion_lat": 0.0, "lon": -77.02831866666666}, {"lat": 38.92261416666667, "type": "electric_scooter", "is_disabled": 0, "name": "3e47b0e05b2473dc4b1b97f44a8a5192", "bike_id": "3e47b0e05b2473dc4b1b97f44a8a5192", "fusion_lon": 0.0, "rental_uris": {"ios": "https://dc.lft.to/lastmile_qr_scan", "android": "https://dc.lft.to/lastmile_qr_scan"}, "is_reserved": 0, "fusion_lat": 0.0, "lon": -77.01949316666666}, {"lat": 38.89373166666667, "type": "electric_scooter", "is_disabled": 0, "name": "9e2a3fad59bd0b732dc289e95400f2ec", "bike_id": "9e2a3fad59bd0b732dc289e95400f2ec", "fusion_lon": 0.0, "rental_uris": {"ios": "https://dc.lft.to/lastmile_qr_scan", "android": "https://dc.lft.to/lastmile_qr_scan"}, "is_reserved": 0, "fusion_lat": 0.0, "lon": -77.003406}, {"lat": 38.944485, "type": "electric_scooter", "is_disabled": 0, "name": "3c6057491faeebdd53a3eb9efe59ef49", "bike_id": "3c6057491faeebdd53a3eb9efe59ef49", "fusion_lon": 0.0, "rental_uris": {"ios": "https://dc.lft.to/lastmile_qr_scan", "android": "https://dc.lft.to/lastmile_qr_scan"}, "is_reserved": 0, "fusion_lat": 0.0, "lon": -77.06353233333333}, {"lat": 38.90399466666667, "type": "electric_scooter", "is_disabled": 0, "name": "0c252823a654049da55c8aa63973d05d", "bike_id": "0c252823a654049da55c8aa63973d05d", "fusion_lon": 0.0, "rental_uris": {"ios": "https://dc.lft.to/lastmile_qr_scan", "android": "https://dc.lft.to/lastmile_qr_scan"}, "is_reserved": 0, "fusion_lat": 0.0, "lon": -77.03872116666666}, {"lat": 38.92555083333333, "type": "electric_scooter", "is_disabled": 0, "name": "81bde96cd5d84861c514008ef753b678", "bike_id": "81bde96cd5d84861c514008ef753b678", "fusion_lon": 0.0, "rental_uris": {"ios": "https://dc.lft.to/lastmile_qr_scan", "android": "https://dc.lft.to/lastmile_qr_scan"}, "is_reserved": 0, "fusion_lat": 0.0, "lon": -77.02151466666666}, {"lat": 38.878807333333334, "type": "electric_scooter", "is_disabled": 0, "name": "ce8e7e7426f34cfedf1b1d23759edfe2", "bike_id": "ce8e7e7426f34cfedf1b1d23759edfe2", "fusion_lon": 0.0, "rental_uris": {"ios": "https://dc.lft.to/lastmile_qr_scan", "android": "https://dc.lft.to/lastmile_qr_scan"}, "is_reserved": 0, "fusion_lat": 0.0, "lon": -77.0004565}, {"lat": 38.89613266666667, "type": "electric_scooter", "is_disabled": 0, "name": "764120edac2b81130c9001bc5bdbe50a", "bike_id": "764120edac2b81130c9001bc5bdbe50a", "fusion_lon": 0.0, "rental_uris": {"ios": "https://dc.lft.to/lastmile_qr_scan", "android": "https://dc.lft.to/lastmile_qr_scan"}, "is_reserved": 0, "fusion_lat": 0.0, "lon": -77.046524}, {"lat": 38.944099666666666, "type": "electric_scooter", "is_disabled": 0, "name": "c4cb693f2bdd7f39f3967b1cca500a13", "bike_id": "c4cb693f2bdd7f39f3967b1cca500a13", "fusion_lon": 0.0, "rental_uris": {"ios": "https://dc.lft.to/lastmile_qr_scan", "android": "https://dc.lft.to/lastmile_qr_scan"}, "is_reserved": 0, "fusion_lat": 0.0, "lon": -77.0633095}, {"lat": 38.914126833333334, "type": "electric_scooter", "is_disabled": 0, "name": "29bf45aaac4f41cf3d13ffe1d721c06a", "bike_id": "29bf45aaac4f41cf3d13ffe1d721c06a", "fusion_lon": 0.0, "rental_uris": {"ios": "https://dc.lft.to/lastmile_qr_scan", "android": "https://dc.lft.to/lastmile_qr_scan"}, "is_reserved": 0, "fusion_lat": 0.0, "lon": -77.0316865}, {"lat": 38.913494666666665, "type": "electric_scooter", "is_disabled": 0, "name": "5b69b63250f0c0ca1b6ecf5152c7e667", "bike_id": "5b69b63250f0c0ca1b6ecf5152c7e667", "fusion_lon": 0.0, "rental_uris": {"ios": "https://dc.lft.to/lastmile_qr_scan", "android": "https://dc.lft.to/lastmile_qr_scan"}, "is_reserved": 0, "fusion_lat": 0.0, "lon": -77.031821}, {"lat": 38.92611316666667, "type": "electric_scooter", "is_disabled": 0, "name": "c946a575b204bf687a58ad1772b8251f", "bike_id": "c946a575b204bf687a58ad1772b8251f", "fusion_lon": 0.0, "rental_uris": {"ios": "https://dc.lft.to/lastmile_qr_scan", "android": "https://dc.lft.to/lastmile_qr_scan"}, "is_reserved": 0, "fusion_lat": 0.0, "lon": -77.02165666666667}, {"lat": 38.926066166666665, "type": "electric_scooter", "is_disabled": 0, "name": "297d78ffdaeb295b1d960d5da3b21ab0", "bike_id": "297d78ffdaeb295b1d960d5da3b21ab0", "fusion_lon": 0.0, "rental_uris": {"ios": "https://dc.lft.to/lastmile_qr_scan", "android": "https://dc.lft.to/lastmile_qr_scan"}, "is_reserved": 0, "fusion_lat": 0.0, "lon": -77.02157866666667}, {"lat": 38.92078133333333, "type": "electric_scooter", "is_disabled": 0, "name": "24c99fd0b37f0469b948cb5f9039588e", "bike_id": "24c99fd0b37f0469b948cb5f9039588e", "fusion_lon": 0.0, "rental_uris": {"ios": "https://dc.lft.to/lastmile_qr_scan", "android": "https://dc.lft.to/lastmile_qr_scan"}, "is_reserved": 0, "fusion_lat": 0.0, "lon": -77.02531116666667}, {"lat": 38.893632333333336, "type": "electric_scooter", "is_disabled": 0, "name": "be3b604b01ac32b5debadb2d49dfd1cd", "bike_id": "be3b604b01ac32b5debadb2d49dfd1cd", "fusion_lon": 0.0, "rental_uris": {"ios": "https://dc.lft.to/lastmile_qr_scan", "android": "https://dc.lft.to/lastmile_qr_scan"}, "is_reserved": 0, "fusion_lat": 0.0, "lon": -77.0033425}, {"lat": 38.91921683333333, "type": "electric_scooter", "is_disabled": 0, "name": "58c38a919c1043bd40e3bcc4518f30ad", "bike_id": "58c38a919c1043bd40e3bcc4518f30ad", "fusion_lon": 0.0, "rental_uris": {"ios": "https://dc.lft.to/lastmile_qr_scan", "android": "https://dc.lft.to/lastmile_qr_scan"}, "is_reserved": 0, "fusion_lat": 0.0, "lon": -77.07893433333334}, {"lat": 38.922367333333334, "type": "electric_scooter", "is_disabled": 0, "name": "b3e69ba1142a9327c1b53e325f55de49", "bike_id": "b3e69ba1142a9327c1b53e325f55de49", "fusion_lon": 0.0, "rental_uris": {"ios": "https://dc.lft.to/lastmile_qr_scan", "android": "https://dc.lft.to/lastmile_qr_scan"}, "is_reserved": 0, "fusion_lat": 0.0, "lon": -77.02853766666667}, {"lat": 38.94446133333334, "type": "electric_scooter", "is_disabled": 0, "name": "a5b5d5941fd729ab6f76fae18d8760b0", "bike_id": "a5b5d5941fd729ab6f76fae18d8760b0", "fusion_lon": 0.0, "rental_uris": {"ios": "https://dc.lft.to/lastmile_qr_scan", "android": "https://dc.lft.to/lastmile_qr_scan"}, "is_reserved": 0, "fusion_lat": 0.0, "lon": -77.06357033333333}, {"lat": 38.897286666666666, "type": "electric_scooter", "is_disabled": 0, "name": "279200bce00167f9fad27f4bca2bcd08", "bike_id": "279200bce00167f9fad27f4bca2bcd08", "fusion_lon": 0.0, "rental_uris": {"ios": "https://dc.lft.to/lastmile_qr_scan", "android": "https://dc.lft.to/lastmile_qr_scan"}, "is_reserved": 0, "fusion_lat": 0.0, "lon": -77.031213}, {"lat": 38.8770055, "type": "electric_scooter", "is_disabled": 0, "name": "bafc6b8f237c2ee4d05e372ed4c0179b", "bike_id": "bafc6b8f237c2ee4d05e372ed4c0179b", "fusion_lon": 0.0, "rental_uris": {"ios": "https://dc.lft.to/lastmile_qr_scan", "android": "https://dc.lft.to/lastmile_qr_scan"}, "is_reserved": 0, "fusion_lat": 0.0, "lon": -77.0165085}, {"lat": 38.929687333333334, "type": "electric_scooter", "is_disabled": 0, "name": "1c8ba84cd13f3b854277eab01921c5c3", "bike_id": "1c8ba84cd13f3b854277eab01921c5c3", "fusion_lon": 0.0, "rental_uris": {"ios": "https://dc.lft.to/lastmile_qr_scan", "android": "https://dc.lft.to/lastmile_qr_scan"}, "is_reserved": 0, "fusion_lat": 0.0, "lon": -77.04205083333333}, {"lat": 38.900347333333336, "type": "electric_scooter", "is_disabled": 0, "name": "68d632bd7e4c583accaa33de0ad22257", "bike_id": "68d632bd7e4c583accaa33de0ad22257", "fusion_lon": 0.0, "rental_uris": {"ios": "https://dc.lft.to/lastmile_qr_scan", "android": "https://dc.lft.to/lastmile_qr_scan"}, "is_reserved": 0, "fusion_lat": 0.0, "lon": -77.040912}, {"lat": 38.9021055, "type": "electric_scooter", "is_disabled": 0, "name": "29f5c15dfb579144e63a7da62cee2e4e", "bike_id": "29f5c15dfb579144e63a7da62cee2e4e", "fusion_lon": 0.0, "rental_uris": {"ios": "https://dc.lft.to/lastmile_qr_scan", "android": "https://dc.lft.to/lastmile_qr_scan"}, "is_reserved": 0, "fusion_lat": 0.0, "lon": -77.02257983333334}, {"lat": 38.894748666666665, "type": "electric_scooter", "is_disabled": 0, "name": "1b1081411c7ad478da66fb9bdf48b953", "bike_id": "1b1081411c7ad478da66fb9bdf48b953", "fusion_lon": 0.0, "rental_uris": {"ios": "https://dc.lft.to/lastmile_qr_scan", "android": "https://dc.lft.to/lastmile_qr_scan"}, "is_reserved": 0, "fusion_lat": 0.0, "lon": -76.99716183333334}, {"lat": 38.87291966666667, "type": "electric_scooter", "is_disabled": 0, "name": "c05a3ea6a23f43875dfdeea13b856c28", "bike_id": "c05a3ea6a23f43875dfdeea13b856c28", "fusion_lon": 0.0, "rental_uris": {"ios": "https://dc.lft.to/lastmile_qr_scan", "android": "https://dc.lft.to/lastmile_qr_scan"}, "is_reserved": 0, "fusion_lat": 0.0, "lon": -77.00987383333333}, {"lat": 38.928241666666665, "type": "electric_scooter", "is_disabled": 0, "name": "82b52c204adae2333a628512c7ce67c3", "bike_id": "82b52c204adae2333a628512c7ce67c3", "fusion_lon": 0.0, "rental_uris": {"ios": "https://dc.lft.to/lastmile_qr_scan", "android": "https://dc.lft.to/lastmile_qr_scan"}, "is_reserved": 0, "fusion_lat": 0.0, "lon": -77.02299583333334}, {"lat": 38.87523233333334, "type": "electric_scooter", "is_disabled": 0, "name": "dee62c84862cf1fb2a344377f474c9ca", "bike_id": "dee62c84862cf1fb2a344377f474c9ca", "fusion_lon": 0.0, "rental_uris": {"ios": "https://dc.lft.to/lastmile_qr_scan", "android": "https://dc.lft.to/lastmile_qr_scan"}, "is_reserved": 0, "fusion_lat": 0.0, "lon": -77.01228566666667}, {"lat": 38.944932, "type": "electric_scooter", "is_disabled": 0, "name": "9aea57071d427cb85165e8def34d366d", "bike_id": "9aea57071d427cb85165e8def34d366d", "fusion_lon": 0.0, "rental_uris": {"ios": "https://dc.lft.to/lastmile_qr_scan", "android": "https://dc.lft.to/lastmile_qr_scan"}, "is_reserved": 0, "fusion_lat": 0.0, "lon": -77.02618533333333}, {"lat": 38.92543633333333, "type": "electric_scooter", "is_disabled": 0, "name": "84f93113d5ea4f5ac5aa890ffacef635", "bike_id": "84f93113d5ea4f5ac5aa890ffacef635", "fusion_lon": 0.0, "rental_uris": {"ios": "https://dc.lft.to/lastmile_qr_scan", "android": "https://dc.lft.to/lastmile_qr_scan"}, "is_reserved": 0, "fusion_lat": 0.0, "lon": -77.00069166666667}, {"lat": 38.88025183333333, "type": "electric_scooter", "is_disabled": 0, "name": "fce7b0451df3f7d07467c4f6b07a6f0d", "bike_id": "fce7b0451df3f7d07467c4f6b07a6f0d", "fusion_lon": 0.0, "rental_uris": {"ios": "https://dc.lft.to/lastmile_qr_scan", "android": "https://dc.lft.to/lastmile_qr_scan"}, "is_reserved": 0, "fusion_lat": 0.0, "lon": -76.94324333333333}, {"lat": 38.865676666666666, "type": "electric_scooter", "is_disabled": 0, "name": "fa45c54196d504361ca6160c72f88d5b", "bike_id": "fa45c54196d504361ca6160c72f88d5b", "fusion_lon": 0.0, "rental_uris": {"ios": "https://dc.lft.to/lastmile_qr_scan", "android": "https://dc.lft.to/lastmile_qr_scan"}, "is_reserved": 0, "fusion_lat": 0.0, "lon": -76.97834883333333}, {"lat": 38.9127045, "type": "electric_scooter", "is_disabled": 0, "name": "822cbcc9ab1a1d1442284002818f4e7c", "bike_id": "822cbcc9ab1a1d1442284002818f4e7c", "fusion_lon": 0.0, "rental_uris": {"ios": "https://dc.lft.to/lastmile_qr_scan", "android": "https://dc.lft.to/lastmile_qr_scan"}, "is_reserved": 0, "fusion_lat": 0.0, "lon": -77.02218083333334}, {"lat": 38.90358416666667, "type": "electric_scooter", "is_disabled": 0, "name": "1f5886200683f6393e367721376e4a57", "bike_id": "1f5886200683f6393e367721376e4a57", "fusion_lon": 0.0, "rental_uris": {"ios": "https://dc.lft.to/lastmile_qr_scan", "android": "https://dc.lft.to/lastmile_qr_scan"}, "is_reserved": 0, "fusion_lat": 0.0, "lon": -77.03653666666666}, {"lat": 38.921482833333336, "type": "electric_scooter", "is_disabled": 0, "name": "4ff83c8ad52afa7cc3513f1481d282ae", "bike_id": "4ff83c8ad52afa7cc3513f1481d282ae", "fusion_lon": 0.0, "rental_uris": {"ios": "https://dc.lft.to/lastmile_qr_scan", "android": "https://dc.lft.to/lastmile_qr_scan"}, "is_reserved": 0, "fusion_lat": 0.0, "lon": -77.04016066666667}, {"lat": 38.89833633333333, "type": "electric_scooter", "is_disabled": 0, "name": "3ae02190ed6d72d312e6dd55579e59f9", "bike_id": "3ae02190ed6d72d312e6dd55579e59f9", "fusion_lon": 0.0, "rental_uris": {"ios": "https://dc.lft.to/lastmile_qr_scan", "android": "https://dc.lft.to/lastmile_qr_scan"}, "is_reserved": 0, "fusion_lat": 0.0, "lon": -76.94644466666666}, {"lat": 38.9239995, "type": "electric_scooter", "is_disabled": 0, "name": "405a35c68418c4029827b278f247ff21", "bike_id": "405a35c68418c4029827b278f247ff21", "fusion_lon": 0.0, "rental_uris": {"ios": "https://dc.lft.to/lastmile_qr_scan", "android": "https://dc.lft.to/lastmile_qr_scan"}, "is_reserved": 0, "fusion_lat": 0.0, "lon": -76.9958615}, {"lat": 38.91123966666667, "type": "electric_scooter", "is_disabled": 0, "name": "0c13446c1c0494b01fd158eb2c3e7978", "bike_id": "0c13446c1c0494b01fd158eb2c3e7978", "fusion_lon": 0.0, "rental_uris": {"ios": "https://dc.lft.to/lastmile_qr_scan", "android": "https://dc.lft.to/lastmile_qr_scan"}, "is_reserved": 0, "fusion_lat": 0.0, "lon": -77.04419616666667}, {"lat": 38.915608166666665, "type": "electric_scooter", "is_disabled": 0, "name": "53c1bb07211085c67790a15bed50512f", "bike_id": "53c1bb07211085c67790a15bed50512f", "fusion_lon": 0.0, "rental_uris": {"ios": "https://dc.lft.to/lastmile_qr_scan", "android": "https://dc.lft.to/lastmile_qr_scan"}, "is_reserved": 0, "fusion_lat": 0.0, "lon": -77.00721083333333}, {"lat": 38.8038055, "type": "electric_bike", "is_disabled": 0, "name": "dd366288c7fce8fbfe7d030ef76bd56b", "bike_id": "dd366288c7fce8fbfe7d030ef76bd56b", "fusion_lon": 0.0, "rental_uris": {"ios": "https://dc.lft.to/lastmile_qr_scan", "android": "https://dc.lft.to/lastmile_qr_scan"}, "is_reserved": 0, "fusion_lat": 0.0, "lon": -76.98816166666667}, {"lat": 38.8960805, "type": "electric_scooter", "is_disabled": 0, "name": "8e333f33ecc7dee3da55cdcf872b80b0", "bike_id": "8e333f33ecc7dee3da55cdcf872b80b0", "fusion_lon": 0.0, "rental_uris": {"ios": "https://dc.lft.to/lastmile_qr_scan", "android": "https://dc.lft.to/lastmile_qr_scan"}, "is_reserved": 0, "fusion_lat": 0.0, "lon": -77.0464505}, {"lat": 38.887099666666664, "type": "electric_scooter", "is_disabled": 0, "name": "dcdfd460f21afeb27344e7a740c7b390", "bike_id": "dcdfd460f21afeb27344e7a740c7b390", "fusion_lon": 0.0, "rental_uris": {"ios": "https://dc.lft.to/lastmile_qr_scan", "android": "https://dc.lft.to/lastmile_qr_scan"}, "is_reserved": 0, "fusion_lat": 0.0, "lon": -76.983431}, {"lat": 38.905522166666664, "type": "electric_scooter", "is_disabled": 0, "name": "75b09b8d28bd2f6e9009a9fad5d60a3a", "bike_id": "75b09b8d28bd2f6e9009a9fad5d60a3a", "fusion_lon": 0.0, "rental_uris": {"ios": "https://dc.lft.to/lastmile_qr_scan", "android": "https://dc.lft.to/lastmile_qr_scan"}, "is_reserved": 0, "fusion_lat": 0.0, "lon": -76.98378166666667}, {"lat": 38.89833216666667, "type": "electric_scooter", "is_disabled": 0, "name": "2f7ce307400609d4ab4509319a1c2d53", "bike_id": "2f7ce307400609d4ab4509319a1c2d53", "fusion_lon": 0.0, "rental_uris": {"ios": "https://dc.lft.to/lastmile_qr_scan", "android": "https://dc.lft.to/lastmile_qr_scan"}, "is_reserved": 0, "fusion_lat": 0.0, "lon": -76.946452}, {"lat": 38.918023166666664, "type": "electric_scooter", "is_disabled": 0, "name": "ba0fedc808dff7c975b49190067f1c04", "bike_id": "ba0fedc808dff7c975b49190067f1c04", "fusion_lon": 0.0, "rental_uris": {"ios": "https://dc.lft.to/lastmile_qr_scan", "android": "https://dc.lft.to/lastmile_qr_scan"}, "is_reserved": 0, "fusion_lat": 0.0, "lon": -77.027211}, {"lat": 38.89216866666666, "type": "electric_scooter", "is_disabled": 0, "name": "2f0d1b0b2ee1ad79aa11207703ef9654", "bike_id": "2f0d1b0b2ee1ad79aa11207703ef9654", "fusion_lon": 0.0, "rental_uris": {"ios": "https://dc.lft.to/lastmile_qr_scan", "android": "https://dc.lft.to/lastmile_qr_scan"}, "is_reserved": 0, "fusion_lat": 0.0, "lon": -77.04639583333334}, {"lat": 38.9111345, "type": "electric_scooter", "is_disabled": 0, "name": "7c6adc352935cf2d5bd93ffb1f743698", "bike_id": "7c6adc352935cf2d5bd93ffb1f743698", "fusion_lon": 0.0, "rental_uris": {"ios": "https://dc.lft.to/lastmile_qr_scan", "android": "https://dc.lft.to/lastmile_qr_scan"}, "is_reserved": 0, "fusion_lat": 0.0, "lon": -77.00605483333334}, {"lat": 38.912378333333336, "type": "electric_scooter", "is_disabled": 0, "name": "91e029c80effa7452ea3e7fd078e58ed", "bike_id": "91e029c80effa7452ea3e7fd078e58ed", "fusion_lon": 0.0, "rental_uris": {"ios": "https://dc.lft.to/lastmile_qr_scan", "android": "https://dc.lft.to/lastmile_qr_scan"}, "is_reserved": 0, "fusion_lat": 0.0, "lon": -76.986708}, {"lat": 38.93658683333334, "type": "electric_scooter", "is_disabled": 0, "name": "b39656161b7a599cc7a85664f6430eb8", "bike_id": "b39656161b7a599cc7a85664f6430eb8", "fusion_lon": 0.0, "rental_uris": {"ios": "https://dc.lft.to/lastmile_qr_scan", "android": "https://dc.lft.to/lastmile_qr_scan"}, "is_reserved": 0, "fusion_lat": 0.0, "lon": -77.06609983333334}, {"lat": 38.88269183333333, "type": "electric_scooter", "is_disabled": 0, "name": "4b759d40931ac96b32c99081ad34f743", "bike_id": "4b759d40931ac96b32c99081ad34f743", "fusion_lon": 0.0, "rental_uris": {"ios": "https://dc.lft.to/lastmile_qr_scan", "android": "https://dc.lft.to/lastmile_qr_scan"}, "is_reserved": 0, "fusion_lat": 0.0, "lon": -77.00353516666667}, {"lat": 38.900268, "type": "electric_scooter", "is_disabled": 0, "name": "918f0302e1ec52e807b5e0feaa8b95ad", "bike_id": "918f0302e1ec52e807b5e0feaa8b95ad", "fusion_lon": 0.0, "rental_uris": {"ios": "https://dc.lft.to/lastmile_qr_scan", "android": "https://dc.lft.to/lastmile_qr_scan"}, "is_reserved": 0, "fusion_lat": 0.0, "lon": -77.02398333333333}, {"lat": 38.8864335, "type": "electric_scooter", "is_disabled": 0, "name": "dc7c0092f81cc357679212ee11bfc8c4", "bike_id": "dc7c0092f81cc357679212ee11bfc8c4", "fusion_lon": 0.0, "rental_uris": {"ios": "https://dc.lft.to/lastmile_qr_scan", "android": "https://dc.lft.to/lastmile_qr_scan"}, "is_reserved": 0, "fusion_lat": 0.0, "lon": -77.00207983333334}, {"lat": 38.911958, "type": "electric_scooter", "is_disabled": 0, "name": "00dcd7a77dc8e1fb2eea0837e04250cc", "bike_id": "00dcd7a77dc8e1fb2eea0837e04250cc", "fusion_lon": 0.0, "rental_uris": {"ios": "https://dc.lft.to/lastmile_qr_scan", "android": "https://dc.lft.to/lastmile_qr_scan"}, "is_reserved": 0, "fusion_lat": 0.0, "lon": -77.01979533333333}, {"lat": 38.886200333333335, "type": "electric_scooter", "is_disabled": 0, "name": "c142fc4a25f41f510bfd48a646b2ca0f", "bike_id": "c142fc4a25f41f510bfd48a646b2ca0f", "fusion_lon": 0.0, "rental_uris": {"ios": "https://dc.lft.to/lastmile_qr_scan", "android": "https://dc.lft.to/lastmile_qr_scan"}, "is_reserved": 0, "fusion_lat": 0.0, "lon": -77.015164}, {"lat": 38.899431666666665, "type": "electric_scooter", "is_disabled": 0, "name": "1f8e87806872d579bbe0056d37e63e68", "bike_id": "1f8e87806872d579bbe0056d37e63e68", "fusion_lon": 0.0, "rental_uris": {"ios": "https://dc.lft.to/lastmile_qr_scan", "android": "https://dc.lft.to/lastmile_qr_scan"}, "is_reserved": 0, "fusion_lat": 0.0, "lon": -77.014502}, {"lat": 38.9193825, "type": "electric_scooter", "is_disabled": 0, "name": "dedbca63c0304b2a84564905b3166dc0", "bike_id": "dedbca63c0304b2a84564905b3166dc0", "fusion_lon": 0.0, "rental_uris": {"ios": "https://dc.lft.to/lastmile_qr_scan", "android": "https://dc.lft.to/lastmile_qr_scan"}, "is_reserved": 0, "fusion_lat": 0.0, "lon": -77.04564}, {"lat": 38.919791333333336, "type": "electric_scooter", "is_disabled": 0, "name": "d13e183c9a1d2f6aa3f9824c0e00e5a9", "bike_id": "d13e183c9a1d2f6aa3f9824c0e00e5a9", "fusion_lon": 0.0, "rental_uris": {"ios": "https://dc.lft.to/lastmile_qr_scan", "android": "https://dc.lft.to/lastmile_qr_scan"}, "is_reserved": 0, "fusion_lat": 0.0, "lon": -77.02200166666667}, {"lat": 38.9575405, "type": "electric_scooter", "is_disabled": 0, "name": "b7817310de3ee80570f91271024669f7", "bike_id": "b7817310de3ee80570f91271024669f7", "fusion_lon": 0.0, "rental_uris": {"ios": "https://dc.lft.to/lastmile_qr_scan", "android": "https://dc.lft.to/lastmile_qr_scan"}, "is_reserved": 0, "fusion_lat": 0.0, "lon": -77.00913333333334}, {"lat": 38.955163, "type": "electric_scooter", "is_disabled": 0, "name": "30630253a00acded45ab85cf83506b50", "bike_id": "30630253a00acded45ab85cf83506b50", "fusion_lon": 0.0, "rental_uris": {"ios": "https://dc.lft.to/lastmile_qr_scan", "android": "https://dc.lft.to/lastmile_qr_scan"}, "is_reserved": 0, "fusion_lat": 0.0, "lon": -77.01045416666666}, {"lat": 38.926108166666666, "type": "electric_scooter", "is_disabled": 0, "name": "bbff4a84e050c1c7bbc7e28d571d8946", "bike_id": "bbff4a84e050c1c7bbc7e28d571d8946", "fusion_lon": 0.0, "rental_uris": {"ios": "https://dc.lft.to/lastmile_qr_scan", "android": "https://dc.lft.to/lastmile_qr_scan"}, "is_reserved": 0, "fusion_lat": 0.0, "lon": -77.02163566666667}, {"lat": 38.9161325, "type": "electric_scooter", "is_disabled": 0, "name": "795e22f57a73f970a72a106589bdb5c2", "bike_id": "795e22f57a73f970a72a106589bdb5c2", "fusion_lon": 0.0, "rental_uris": {"ios": "https://dc.lft.to/lastmile_qr_scan", "android": "https://dc.lft.to/lastmile_qr_scan"}, "is_reserved": 0, "fusion_lat": 0.0, "lon": -77.04536716666667}, {"lat": 38.88211833333333, "type": "electric_bike", "is_disabled": 0, "name": "a92813babe04f617d787b9925ed3e3e4", "bike_id": "a92813babe04f617d787b9925ed3e3e4", "fusion_lon": 0.0, "rental_uris": {"ios": "https://dc.lft.to/lastmile_qr_scan", "android": "https://dc.lft.to/lastmile_qr_scan"}, "is_reserved": 0, "fusion_lat": 0.0, "lon": -77.111955}, {"lat": 38.911805, "type": "electric_scooter", "is_disabled": 0, "name": "039798c812494227ba73c1483ab18cfc", "bike_id": "039798c812494227ba73c1483ab18cfc", "fusion_lon": 0.0, "rental_uris": {"ios": "https://dc.lft.to/lastmile_qr_scan", "android": "https://dc.lft.to/lastmile_qr_scan"}, "is_reserved": 0, "fusion_lat": 0.0, "lon": -77.00552566666667}, {"lat": 38.903418, "type": "electric_scooter", "is_disabled": 0, "name": "1167dcaed541683c02f19e870885dfa5", "bike_id": "1167dcaed541683c02f19e870885dfa5", "fusion_lon": 0.0, "rental_uris": {"ios": "https://dc.lft.to/lastmile_qr_scan", "android": "https://dc.lft.to/lastmile_qr_scan"}, "is_reserved": 0, "fusion_lat": 0.0, "lon": -77.02165283333333}, {"lat": 38.924109333333334, "type": "electric_scooter", "is_disabled": 0, "name": "d3bf66016ed8224fab007c86c77b109c", "bike_id": "d3bf66016ed8224fab007c86c77b109c", "fusion_lon": 0.0, "rental_uris": {"ios": "https://dc.lft.to/lastmile_qr_scan", "android": "https://dc.lft.to/lastmile_qr_scan"}, "is_reserved": 0, "fusion_lat": 0.0, "lon": -77.019455}, {"lat": 38.924164833333336, "type": "electric_scooter", "is_disabled": 0, "name": "bc02e6824b0c9eb9904813b6eb8bfdfd", "bike_id": "bc02e6824b0c9eb9904813b6eb8bfdfd", "fusion_lon": 0.0, "rental_uris": {"ios": "https://dc.lft.to/lastmile_qr_scan", "android": "https://dc.lft.to/lastmile_qr_scan"}, "is_reserved": 0, "fusion_lat": 0.0, "lon": -77.02033066666667}, {"lat": 38.927264666666666, "type": "electric_scooter", "is_disabled": 0, "name": "a7705d3d957ee4ed0706489dff2fe20e", "bike_id": "a7705d3d957ee4ed0706489dff2fe20e", "fusion_lon": 0.0, "rental_uris": {"ios": "https://dc.lft.to/lastmile_qr_scan", "android": "https://dc.lft.to/lastmile_qr_scan"}, "is_reserved": 0, "fusion_lat": 0.0, "lon": -77.02274466666667}, {"lat": 38.8922245, "type": "electric_scooter", "is_disabled": 0, "name": "b65438122be6f2168a623b84f4844785", "bike_id": "b65438122be6f2168a623b84f4844785", "fusion_lon": 0.0, "rental_uris": {"ios": "https://dc.lft.to/lastmile_qr_scan", "android": "https://dc.lft.to/lastmile_qr_scan"}, "is_reserved": 0, "fusion_lat": 0.0, "lon": -77.04273366666666}, {"lat": 38.9052325, "type": "electric_scooter", "is_disabled": 0, "name": "c7cee1dab143014f57a4aa628b1a80ba", "bike_id": "c7cee1dab143014f57a4aa628b1a80ba", "fusion_lon": 0.0, "rental_uris": {"ios": "https://dc.lft.to/lastmile_qr_scan", "android": "https://dc.lft.to/lastmile_qr_scan"}, "is_reserved": 0, "fusion_lat": 0.0, "lon": -77.04086566666666}, {"lat": 38.90396116666667, "type": "electric_scooter", "is_disabled": 0, "name": "831e72c5936be0958b1088d0c0cfd9fd", "bike_id": "831e72c5936be0958b1088d0c0cfd9fd", "fusion_lon": 0.0, "rental_uris": {"ios": "https://dc.lft.to/lastmile_qr_scan", "android": "https://dc.lft.to/lastmile_qr_scan"}, "is_reserved": 0, "fusion_lat": 0.0, "lon": -77.029401}, {"lat": 38.9232555, "type": "electric_scooter", "is_disabled": 0, "name": "5f5e462ade5728737f1b46e4d396bda4", "bike_id": "5f5e462ade5728737f1b46e4d396bda4", "fusion_lon": 0.0, "rental_uris": {"ios": "https://dc.lft.to/lastmile_qr_scan", "android": "https://dc.lft.to/lastmile_qr_scan"}, "is_reserved": 0, "fusion_lat": 0.0, "lon": -77.01954816666667}, {"lat": 38.887398833333336, "type": "electric_scooter", "is_disabled": 0, "name": "9965a5c7cce5428e2982397b69b7553f", "bike_id": "9965a5c7cce5428e2982397b69b7553f", "fusion_lon": 0.0, "rental_uris": {"ios": "https://dc.lft.to/lastmile_qr_scan", "android": "https://dc.lft.to/lastmile_qr_scan"}, "is_reserved": 0, "fusion_lat": 0.0, "lon": -76.99646516666667}, {"lat": 38.89502616666667, "type": "electric_scooter", "is_disabled": 0, "name": "502508f60e70041ac50f728105b39e0c", "bike_id": "502508f60e70041ac50f728105b39e0c", "fusion_lon": 0.0, "rental_uris": {"ios": "https://dc.lft.to/lastmile_qr_scan", "android": "https://dc.lft.to/lastmile_qr_scan"}, "is_reserved": 0, "fusion_lat": 0.0, "lon": -77.04636716666667}, {"lat": 38.90162483333334, "type": "electric_scooter", "is_disabled": 0, "name": "e556cd97415bedc381903a1dc01701dc", "bike_id": "e556cd97415bedc381903a1dc01701dc", "fusion_lon": 0.0, "rental_uris": {"ios": "https://dc.lft.to/lastmile_qr_scan", "android": "https://dc.lft.to/lastmile_qr_scan"}, "is_reserved": 0, "fusion_lat": 0.0, "lon": -77.03652333333334}, {"lat": 38.9197065, "type": "electric_scooter", "is_disabled": 0, "name": "d0c3113836480f478647b65edadb1024", "bike_id": "d0c3113836480f478647b65edadb1024", "fusion_lon": 0.0, "rental_uris": {"ios": "https://dc.lft.to/lastmile_qr_scan", "android": "https://dc.lft.to/lastmile_qr_scan"}, "is_reserved": 0, "fusion_lat": 0.0, "lon": -77.02755483333334}, {"lat": 38.925996833333336, "type": "electric_scooter", "is_disabled": 0, "name": "49030b48af03a1a6f664b8dce839839f", "bike_id": "49030b48af03a1a6f664b8dce839839f", "fusion_lon": 0.0, "rental_uris": {"ios": "https://dc.lft.to/lastmile_qr_scan", "android": "https://dc.lft.to/lastmile_qr_scan"}, "is_reserved": 0, "fusion_lat": 0.0, "lon": -77.05705783333333}, {"lat": 38.892202, "type": "electric_scooter", "is_disabled": 0, "name": "496df92c06db6900d17045ba64a2bcf2", "bike_id": "496df92c06db6900d17045ba64a2bcf2", "fusion_lon": 0.0, "rental_uris": {"ios": "https://dc.lft.to/lastmile_qr_scan", "android": "https://dc.lft.to/lastmile_qr_scan"}, "is_reserved": 0, "fusion_lat": 0.0, "lon": -77.041479}, {"lat": 38.903622166666665, "type": "electric_scooter", "is_disabled": 0, "name": "cf1444ac9076eb3f7f7279edbc5f274b", "bike_id": "cf1444ac9076eb3f7f7279edbc5f274b", "fusion_lon": 0.0, "rental_uris": {"ios": "https://dc.lft.to/lastmile_qr_scan", "android": "https://dc.lft.to/lastmile_qr_scan"}, "is_reserved": 0, "fusion_lat": 0.0, "lon": -77.04302233333334}, {"lat": 38.9261775, "type": "electric_scooter", "is_disabled": 0, "name": "eaca4fc8923c672c26491978a38dcee0", "bike_id": "eaca4fc8923c672c26491978a38dcee0", "fusion_lon": 0.0, "rental_uris": {"ios": "https://dc.lft.to/lastmile_qr_scan", "android": "https://dc.lft.to/lastmile_qr_scan"}, "is_reserved": 0, "fusion_lat": 0.0, "lon": -77.07299533333334}, {"lat": 38.89971583333333, "type": "electric_scooter", "is_disabled": 0, "name": "c47eac3ce50313ca7a3be9fa494e87e7", "bike_id": "c47eac3ce50313ca7a3be9fa494e87e7", "fusion_lon": 0.0, "rental_uris": {"ios": "https://dc.lft.to/lastmile_qr_scan", "android": "https://dc.lft.to/lastmile_qr_scan"}, "is_reserved": 0, "fusion_lat": 0.0, "lon": -77.0419725}, {"lat": 38.89900316666667, "type": "electric_scooter", "is_disabled": 0, "name": "f2dbe3fe24ef5ebb1a2e22e1fe99ebe2", "bike_id": "f2dbe3fe24ef5ebb1a2e22e1fe99ebe2", "fusion_lon": 0.0, "rental_uris": {"ios": "https://dc.lft.to/lastmile_qr_scan", "android": "https://dc.lft.to/lastmile_qr_scan"}, "is_reserved": 0, "fusion_lat": 0.0, "lon": -76.9882745}, {"lat": 38.9124535, "type": "electric_scooter", "is_disabled": 0, "name": "241bc9aac540d1c5ec4af7aedcb4fe20", "bike_id": "241bc9aac540d1c5ec4af7aedcb4fe20", "fusion_lon": 0.0, "rental_uris": {"ios": "https://dc.lft.to/lastmile_qr_scan", "android": "https://dc.lft.to/lastmile_qr_scan"}, "is_reserved": 0, "fusion_lat": 0.0, "lon": -77.0011495}, {"lat": 38.91715466666667, "type": "electric_scooter", "is_disabled": 0, "name": "14c7bf21e7a8463dae9e8368a101ed6b", "bike_id": "14c7bf21e7a8463dae9e8368a101ed6b", "fusion_lon": 0.0, "rental_uris": {"ios": "https://dc.lft.to/lastmile_qr_scan", "android": "https://dc.lft.to/lastmile_qr_scan"}, "is_reserved": 0, "fusion_lat": 0.0, "lon": -77.03858266666667}, {"lat": 38.8807795, "type": "electric_scooter", "is_disabled": 0, "name": "ff79edd77de62328ce8e8c60607cbb62", "bike_id": "ff79edd77de62328ce8e8c60607cbb62", "fusion_lon": 0.0, "rental_uris": {"ios": "https://dc.lft.to/lastmile_qr_scan", "android": "https://dc.lft.to/lastmile_qr_scan"}, "is_reserved": 0, "fusion_lat": 0.0, "lon": -76.98536066666666}, {"lat": 38.8857235, "type": "electric_scooter", "is_disabled": 0, "name": "04c979b4d94e8d839d0d565ecad90298", "bike_id": "04c979b4d94e8d839d0d565ecad90298", "fusion_lon": 0.0, "rental_uris": {"ios": "https://dc.lft.to/lastmile_qr_scan", "android": "https://dc.lft.to/lastmile_qr_scan"}, "is_reserved": 0, "fusion_lat": 0.0, "lon": -77.0154865}, {"lat": 38.89327883333333, "type": "electric_scooter", "is_disabled": 0, "name": "fd96f23a7b7382471d6030658c689e5a", "bike_id": "fd96f23a7b7382471d6030658c689e5a", "fusion_lon": 0.0, "rental_uris": {"ios": "https://dc.lft.to/lastmile_qr_scan", "android": "https://dc.lft.to/lastmile_qr_scan"}, "is_reserved": 0, "fusion_lat": 0.0, "lon": -77.01489566666666}, {"lat": 38.900267, "type": "electric_scooter", "is_disabled": 0, "name": "7bb3cdaed75c50b6b8d33b1e932b4b57", "bike_id": "7bb3cdaed75c50b6b8d33b1e932b4b57", "fusion_lon": 0.0, "rental_uris": {"ios": "https://dc.lft.to/lastmile_qr_scan", "android": "https://dc.lft.to/lastmile_qr_scan"}, "is_reserved": 0, "fusion_lat": 0.0, "lon": -76.99853}, {"lat": 38.92789966666667, "type": "electric_scooter", "is_disabled": 0, "name": "9826ee964825f2b54b6794fc13f77d1e", "bike_id": "9826ee964825f2b54b6794fc13f77d1e", "fusion_lon": 0.0, "rental_uris": {"ios": "https://dc.lft.to/lastmile_qr_scan", "android": "https://dc.lft.to/lastmile_qr_scan"}, "is_reserved": 0, "fusion_lat": 0.0, "lon": -77.02212433333334}, {"lat": 38.904479, "type": "electric_scooter", "is_disabled": 0, "name": "b435ef78d15d4820ed60a51f48449e64", "bike_id": "b435ef78d15d4820ed60a51f48449e64", "fusion_lon": 0.0, "rental_uris": {"ios": "https://dc.lft.to/lastmile_qr_scan", "android": "https://dc.lft.to/lastmile_qr_scan"}, "is_reserved": 0, "fusion_lat": 0.0, "lon": -77.03429366666667}, {"lat": 38.871788, "type": "electric_bike", "is_disabled": 0, "name": "9adf02d1614052207ef4fcd4f09d9a24", "bike_id": "9adf02d1614052207ef4fcd4f09d9a24", "fusion_lon": 0.0, "rental_uris": {"ios": "https://dc.lft.to/lastmile_qr_scan", "android": "https://dc.lft.to/lastmile_qr_scan"}, "is_reserved": 0, "fusion_lat": 0.0, "lon": -77.23390433333333}, {"lat": 38.9061805, "type": "electric_scooter", "is_disabled": 0, "name": "cb329df99b49c5be5fbd6bd41ab32ee9", "bike_id": "cb329df99b49c5be5fbd6bd41ab32ee9", "fusion_lon": 0.0, "rental_uris": {"ios": "https://dc.lft.to/lastmile_qr_scan", "android": "https://dc.lft.to/lastmile_qr_scan"}, "is_reserved": 0, "fusion_lat": 0.0, "lon": -77.05014216666666}, {"lat": 38.875725333333335, "type": "electric_scooter", "is_disabled": 0, "name": "71fd8f427643ca6fa441fc27b27b69f8", "bike_id": "71fd8f427643ca6fa441fc27b27b69f8", "fusion_lon": 0.0, "rental_uris": {"ios": "https://dc.lft.to/lastmile_qr_scan", "android": "https://dc.lft.to/lastmile_qr_scan"}, "is_reserved": 0, "fusion_lat": 0.0, "lon": -77.0058665}, {"lat": 38.90581866666667, "type": "electric_scooter", "is_disabled": 0, "name": "7f1f54011a1ee2f0aa429b3fd7cd6dc4", "bike_id": "7f1f54011a1ee2f0aa429b3fd7cd6dc4", "fusion_lon": 0.0, "rental_uris": {"ios": "https://dc.lft.to/lastmile_qr_scan", "android": "https://dc.lft.to/lastmile_qr_scan"}, "is_reserved": 0, "fusion_lat": 0.0, "lon": -77.04697133333333}, {"lat": 38.91756133333333, "type": "electric_scooter", "is_disabled": 0, "name": "9508cc3da3f45a80dee921e959c3ec45", "bike_id": "9508cc3da3f45a80dee921e959c3ec45", "fusion_lon": 0.0, "rental_uris": {"ios": "https://dc.lft.to/lastmile_qr_scan", "android": "https://dc.lft.to/lastmile_qr_scan"}, "is_reserved": 0, "fusion_lat": 0.0, "lon": -77.00918466666667}, {"lat": 38.80897233333334, "type": "electric_bike", "is_disabled": 0, "name": "52388c2cc96aedb99fc78d3a7db62627", "bike_id": "52388c2cc96aedb99fc78d3a7db62627", "fusion_lon": 0.0, "rental_uris": {"ios": "https://dc.lft.to/lastmile_qr_scan", "android": "https://dc.lft.to/lastmile_qr_scan"}, "is_reserved": 0, "fusion_lat": 0.0, "lon": -77.11554866666667}, {"lat": 38.88855183333333, "type": "electric_bike", "is_disabled": 0, "name": "a5e6064ea91cae518c00bbcebef6421e", "bike_id": "a5e6064ea91cae518c00bbcebef6421e", "fusion_lon": 0.0, "rental_uris": {"ios": "https://dc.lft.to/lastmile_qr_scan", "android": "https://dc.lft.to/lastmile_qr_scan"}, "is_reserved": 0, "fusion_lat": 0.0, "lon": -77.03237783333333}, {"lat": 38.91413466666667, "type": "electric_scooter", "is_disabled": 0, "name": "c2f9f108d809948afed40620d1efec00", "bike_id": "c2f9f108d809948afed40620d1efec00", "fusion_lon": 0.0, "rental_uris": {"ios": "https://dc.lft.to/lastmile_qr_scan", "android": "https://dc.lft.to/lastmile_qr_scan"}, "is_reserved": 0, "fusion_lat": 0.0, "lon": -77.0450475}, {"lat": 38.92015466666667, "type": "electric_scooter", "is_disabled": 0, "name": "9b83dba7939c87af1641144e9b51f8ef", "bike_id": "9b83dba7939c87af1641144e9b51f8ef", "fusion_lon": 0.0, "rental_uris": {"ios": "https://dc.lft.to/lastmile_qr_scan", "android": "https://dc.lft.to/lastmile_qr_scan"}, "is_reserved": 0, "fusion_lat": 0.0, "lon": -76.9783785}, {"lat": 38.8671835, "type": "electric_scooter", "is_disabled": 0, "name": "b7e0617843a4693fdf04d09db676193e", "bike_id": "b7e0617843a4693fdf04d09db676193e", "fusion_lon": 0.0, "rental_uris": {"ios": "https://dc.lft.to/lastmile_qr_scan", "android": "https://dc.lft.to/lastmile_qr_scan"}, "is_reserved": 0, "fusion_lat": 0.0, "lon": -77.01013683333333}, {"lat": 38.9802665, "type": "electric_bike", "is_disabled": 0, "name": "046a4fdd9795162e1efd780d37cdf416", "bike_id": "046a4fdd9795162e1efd780d37cdf416", "fusion_lon": 0.0, "rental_uris": {"ios": "https://dc.lft.to/lastmile_qr_scan", "android": "https://dc.lft.to/lastmile_qr_scan"}, "is_reserved": 0, "fusion_lat": 0.0, "lon": -76.94247883333334}, {"lat": 38.92280983333333, "type": "electric_scooter", "is_disabled": 0, "name": "6b460ddf71f853bde5001e710195fe2a", "bike_id": "6b460ddf71f853bde5001e710195fe2a", "fusion_lon": 0.0, "rental_uris": {"ios": "https://dc.lft.to/lastmile_qr_scan", "android": "https://dc.lft.to/lastmile_qr_scan"}, "is_reserved": 0, "fusion_lat": 0.0, "lon": -77.03409283333333}, {"lat": 38.906028166666665, "type": "electric_scooter", "is_disabled": 0, "name": "a44d8a4efaa95d55ab93c1e4071c6bc0", "bike_id": "a44d8a4efaa95d55ab93c1e4071c6bc0", "fusion_lon": 0.0, "rental_uris": {"ios": "https://dc.lft.to/lastmile_qr_scan", "android": "https://dc.lft.to/lastmile_qr_scan"}, "is_reserved": 0, "fusion_lat": 0.0, "lon": -77.06742416666667}, {"lat": 38.9289445, "type": "electric_scooter", "is_disabled": 0, "name": "bca8270aa6835dcff78e3618acea9c55", "bike_id": "bca8270aa6835dcff78e3618acea9c55", "fusion_lon": 0.0, "rental_uris": {"ios": "https://dc.lft.to/lastmile_qr_scan", "android": "https://dc.lft.to/lastmile_qr_scan"}, "is_reserved": 0, "fusion_lat": 0.0, "lon": -77.0326585}, {"lat": 38.91861816666667, "type": "electric_scooter", "is_disabled": 0, "name": "7433f5409bab2f73895ba7b84b20830c", "bike_id": "7433f5409bab2f73895ba7b84b20830c", "fusion_lon": 0.0, "rental_uris": {"ios": "https://dc.lft.to/lastmile_qr_scan", "android": "https://dc.lft.to/lastmile_qr_scan"}, "is_reserved": 0, "fusion_lat": 0.0, "lon": -77.04834833333334}, {"lat": 38.90371016666667, "type": "electric_scooter", "is_disabled": 0, "name": "22a2e0a368d6e8c5cd36f09cce4b50e0", "bike_id": "22a2e0a368d6e8c5cd36f09cce4b50e0", "fusion_lon": 0.0, "rental_uris": {"ios": "https://dc.lft.to/lastmile_qr_scan", "android": "https://dc.lft.to/lastmile_qr_scan"}, "is_reserved": 0, "fusion_lat": 0.0, "lon": -77.04188}, {"lat": 38.9036755, "type": "electric_scooter", "is_disabled": 0, "name": "76cbb4680026f03b50a861d0e82aa324", "bike_id": "76cbb4680026f03b50a861d0e82aa324", "fusion_lon": 0.0, "rental_uris": {"ios": "https://dc.lft.to/lastmile_qr_scan", "android": "https://dc.lft.to/lastmile_qr_scan"}, "is_reserved": 0, "fusion_lat": 0.0, "lon": -77.03622666666666}, {"lat": 38.90218933333333, "type": "electric_bike", "is_disabled": 0, "name": "5b6320d718066f6168ddc9a97355492c", "bike_id": "5b6320d718066f6168ddc9a97355492c", "fusion_lon": 0.0, "rental_uris": {"ios": "https://dc.lft.to/lastmile_qr_scan", "android": "https://dc.lft.to/lastmile_qr_scan"}, "is_reserved": 0, "fusion_lat": 0.0, "lon": -76.93180633333333}, {"lat": 38.97001, "type": "electric_scooter", "is_disabled": 0, "name": "387ce5c10f60c5ecf3c31fe0c1820e05", "bike_id": "387ce5c10f60c5ecf3c31fe0c1820e05", "fusion_lon": 0.0, "rental_uris": {"ios": "https://dc.lft.to/lastmile_qr_scan", "android": "https://dc.lft.to/lastmile_qr_scan"}, "is_reserved": 0, "fusion_lat": 0.0, "lon": -77.03115216666667}, {"lat": 38.9016015, "type": "electric_scooter", "is_disabled": 0, "name": "0a2a6aab034060dab4d0d7ac12448523", "bike_id": "0a2a6aab034060dab4d0d7ac12448523", "fusion_lon": 0.0, "rental_uris": {"ios": "https://dc.lft.to/lastmile_qr_scan", "android": "https://dc.lft.to/lastmile_qr_scan"}, "is_reserved": 0, "fusion_lat": 0.0, "lon": -77.02172583333333}, {"lat": 38.90271116666667, "type": "electric_scooter", "is_disabled": 0, "name": "d19884b64c6dec34f35b9b281927cc1a", "bike_id": "d19884b64c6dec34f35b9b281927cc1a", "fusion_lon": 0.0, "rental_uris": {"ios": "https://dc.lft.to/lastmile_qr_scan", "android": "https://dc.lft.to/lastmile_qr_scan"}, "is_reserved": 0, "fusion_lat": 0.0, "lon": -77.0342365}, {"lat": 38.88792566666667, "type": "electric_scooter", "is_disabled": 0, "name": "a8631131ea3f9dc94facac102e355bf8", "bike_id": "a8631131ea3f9dc94facac102e355bf8", "fusion_lon": 0.0, "rental_uris": {"ios": "https://dc.lft.to/lastmile_qr_scan", "android": "https://dc.lft.to/lastmile_qr_scan"}, "is_reserved": 0, "fusion_lat": 0.0, "lon": -76.9533705}, {"lat": 38.92506983333333, "type": "electric_scooter", "is_disabled": 0, "name": "95551ebf9c57616b049c717aa3d164a8", "bike_id": "95551ebf9c57616b049c717aa3d164a8", "fusion_lon": 0.0, "rental_uris": {"ios": "https://dc.lft.to/lastmile_qr_scan", "android": "https://dc.lft.to/lastmile_qr_scan"}, "is_reserved": 0, "fusion_lat": 0.0, "lon": -77.02578583333333}, {"lat": 38.925071833333334, "type": "electric_scooter", "is_disabled": 0, "name": "8dd60d3b6e4c82e707c7f8d714b3e0b0", "bike_id": "8dd60d3b6e4c82e707c7f8d714b3e0b0", "fusion_lon": 0.0, "rental_uris": {"ios": "https://dc.lft.to/lastmile_qr_scan", "android": "https://dc.lft.to/lastmile_qr_scan"}, "is_reserved": 0, "fusion_lat": 0.0, "lon": -77.00225283333333}, {"lat": 38.88001666666667, "type": "electric_scooter", "is_disabled": 0, "name": "a6307579799b6c78e19717eb58ab0194", "bike_id": "a6307579799b6c78e19717eb58ab0194", "fusion_lon": 0.0, "rental_uris": {"ios": "https://dc.lft.to/lastmile_qr_scan", "android": "https://dc.lft.to/lastmile_qr_scan"}, "is_reserved": 0, "fusion_lat": 0.0, "lon": -76.9854725}, {"lat": 38.89738283333333, "type": "electric_scooter", "is_disabled": 0, "name": "7fbf9a90632bd6ac6b049e3ec2dfeb95", "bike_id": "7fbf9a90632bd6ac6b049e3ec2dfeb95", "fusion_lon": 0.0, "rental_uris": {"ios": "https://dc.lft.to/lastmile_qr_scan", "android": "https://dc.lft.to/lastmile_qr_scan"}, "is_reserved": 0, "fusion_lat": 0.0, "lon": -77.02498283333334}, {"lat": 38.90136366666667, "type": "electric_scooter", "is_disabled": 0, "name": "9dc7f3880fa2ab250fd48b0997abaa2a", "bike_id": "9dc7f3880fa2ab250fd48b0997abaa2a", "fusion_lon": 0.0, "rental_uris": {"ios": "https://dc.lft.to/lastmile_qr_scan", "android": "https://dc.lft.to/lastmile_qr_scan"}, "is_reserved": 0, "fusion_lat": 0.0, "lon": -76.9896415}, {"lat": 38.905333, "type": "electric_scooter", "is_disabled": 0, "name": "2c40c5ea3e060269cbf93a71565b2fae", "bike_id": "2c40c5ea3e060269cbf93a71565b2fae", "fusion_lon": 0.0, "rental_uris": {"ios": "https://dc.lft.to/lastmile_qr_scan", "android": "https://dc.lft.to/lastmile_qr_scan"}, "is_reserved": 0, "fusion_lat": 0.0, "lon": -77.06098}, {"lat": 38.90390766666667, "type": "electric_scooter", "is_disabled": 0, "name": "eebad3e00a5e7b7dcb0df7f50874c0c0", "bike_id": "eebad3e00a5e7b7dcb0df7f50874c0c0", "fusion_lon": 0.0, "rental_uris": {"ios": "https://dc.lft.to/lastmile_qr_scan", "android": "https://dc.lft.to/lastmile_qr_scan"}, "is_reserved": 0, "fusion_lat": 0.0, "lon": -76.98103616666667}, {"lat": 38.920708166666664, "type": "electric_scooter", "is_disabled": 0, "name": "5d1087c357c0ab03021751a264634ccf", "bike_id": "5d1087c357c0ab03021751a264634ccf", "fusion_lon": 0.0, "rental_uris": {"ios": "https://dc.lft.to/lastmile_qr_scan", "android": "https://dc.lft.to/lastmile_qr_scan"}, "is_reserved": 0, "fusion_lat": 0.0, "lon": -77.0330635}, {"lat": 38.935367166666666, "type": "electric_scooter", "is_disabled": 0, "name": "943d02128eed1dd67fea036c2b94d2a6", "bike_id": "943d02128eed1dd67fea036c2b94d2a6", "fusion_lon": 0.0, "rental_uris": {"ios": "https://dc.lft.to/lastmile_qr_scan", "android": "https://dc.lft.to/lastmile_qr_scan"}, "is_reserved": 0, "fusion_lat": 0.0, "lon": -77.07284416666667}, {"lat": 38.9554185, "type": "electric_bike", "is_disabled": 0, "name": "794d497676f51aedf03d551d97d83f8e", "bike_id": "794d497676f51aedf03d551d97d83f8e", "fusion_lon": 0.0, "rental_uris": {"ios": "https://dc.lft.to/lastmile_qr_scan", "android": "https://dc.lft.to/lastmile_qr_scan"}, "is_reserved": 0, "fusion_lat": 0.0, "lon": -76.96849416666667}, {"lat": 38.90022066666667, "type": "electric_scooter", "is_disabled": 0, "name": "d1d9904e7c3d93fbee8b9b541a51968b", "bike_id": "d1d9904e7c3d93fbee8b9b541a51968b", "fusion_lon": 0.0, "rental_uris": {"ios": "https://dc.lft.to/lastmile_qr_scan", "android": "https://dc.lft.to/lastmile_qr_scan"}, "is_reserved": 0, "fusion_lat": 0.0, "lon": -76.9909795}, {"lat": 38.89710983333333, "type": "electric_scooter", "is_disabled": 0, "name": "d1389a6decb16386f0f30eeb03eb649c", "bike_id": "d1389a6decb16386f0f30eeb03eb649c", "fusion_lon": 0.0, "rental_uris": {"ios": "https://dc.lft.to/lastmile_qr_scan", "android": "https://dc.lft.to/lastmile_qr_scan"}, "is_reserved": 0, "fusion_lat": 0.0, "lon": -76.991177}, {"lat": 38.90413, "type": "electric_scooter", "is_disabled": 0, "name": "3fb4d6913c6f1b43d1ae3cd6a7ed4f65", "bike_id": "3fb4d6913c6f1b43d1ae3cd6a7ed4f65", "fusion_lon": 0.0, "rental_uris": {"ios": "https://dc.lft.to/lastmile_qr_scan", "android": "https://dc.lft.to/lastmile_qr_scan"}, "is_reserved": 0, "fusion_lat": 0.0, "lon": -77.02585516666667}, {"lat": 38.92314666666667, "type": "electric_scooter", "is_disabled": 0, "name": "6836d6bbcf362ed0f006001684660057", "bike_id": "6836d6bbcf362ed0f006001684660057", "fusion_lon": 0.0, "rental_uris": {"ios": "https://dc.lft.to/lastmile_qr_scan", "android": "https://dc.lft.to/lastmile_qr_scan"}, "is_reserved": 0, "fusion_lat": 0.0, "lon": -77.01954116666667}, {"lat": 38.942862833333336, "type": "electric_scooter", "is_disabled": 0, "name": "9e3661aeee86a3b453cb6468870637f9", "bike_id": "9e3661aeee86a3b453cb6468870637f9", "fusion_lon": 0.0, "rental_uris": {"ios": "https://dc.lft.to/lastmile_qr_scan", "android": "https://dc.lft.to/lastmile_qr_scan"}, "is_reserved": 0, "fusion_lat": 0.0, "lon": -77.0217455}, {"lat": 38.892219, "type": "electric_scooter", "is_disabled": 0, "name": "e66c1e365db58d5c5708c08cb8d9c40b", "bike_id": "e66c1e365db58d5c5708c08cb8d9c40b", "fusion_lon": 0.0, "rental_uris": {"ios": "https://dc.lft.to/lastmile_qr_scan", "android": "https://dc.lft.to/lastmile_qr_scan"}, "is_reserved": 0, "fusion_lat": 0.0, "lon": -77.031353}, {"lat": 38.927007333333336, "type": "electric_scooter", "is_disabled": 0, "name": "a014aa7a1e1c91906b35364ca261e9ff", "bike_id": "a014aa7a1e1c91906b35364ca261e9ff", "fusion_lon": 0.0, "rental_uris": {"ios": "https://dc.lft.to/lastmile_qr_scan", "android": "https://dc.lft.to/lastmile_qr_scan"}, "is_reserved": 0, "fusion_lat": 0.0, "lon": -77.02069866666666}, {"lat": 38.92640733333333, "type": "electric_scooter", "is_disabled": 0, "name": "f8e6817c420278c189b423b552a76025", "bike_id": "f8e6817c420278c189b423b552a76025", "fusion_lon": 0.0, "rental_uris": {"ios": "https://dc.lft.to/lastmile_qr_scan", "android": "https://dc.lft.to/lastmile_qr_scan"}, "is_reserved": 0, "fusion_lat": 0.0, "lon": -77.02506233333334}, {"lat": 38.911752166666666, "type": "electric_scooter", "is_disabled": 0, "name": "9c2440abab644f6b148b8b0be8784f7b", "bike_id": "9c2440abab644f6b148b8b0be8784f7b", "fusion_lon": 0.0, "rental_uris": {"ios": "https://dc.lft.to/lastmile_qr_scan", "android": "https://dc.lft.to/lastmile_qr_scan"}, "is_reserved": 0, "fusion_lat": 0.0, "lon": -77.02961}, {"lat": 38.89877933333333, "type": "electric_scooter", "is_disabled": 0, "name": "0f8588c3229d3c936bf564813b4d1dad", "bike_id": "0f8588c3229d3c936bf564813b4d1dad", "fusion_lon": 0.0, "rental_uris": {"ios": "https://dc.lft.to/lastmile_qr_scan", "android": "https://dc.lft.to/lastmile_qr_scan"}, "is_reserved": 0, "fusion_lat": 0.0, "lon": -76.9883945}, {"lat": 38.922369833333335, "type": "electric_scooter", "is_disabled": 0, "name": "be6e909da4cb061c6e7f78985c408fa8", "bike_id": "be6e909da4cb061c6e7f78985c408fa8", "fusion_lon": 0.0, "rental_uris": {"ios": "https://dc.lft.to/lastmile_qr_scan", "android": "https://dc.lft.to/lastmile_qr_scan"}, "is_reserved": 0, "fusion_lat": 0.0, "lon": -77.0213725}, {"lat": 38.9230445, "type": "electric_scooter", "is_disabled": 0, "name": "f0afb365c0652d0bad7f754708a0e00d", "bike_id": "f0afb365c0652d0bad7f754708a0e00d", "fusion_lon": 0.0, "rental_uris": {"ios": "https://dc.lft.to/lastmile_qr_scan", "android": "https://dc.lft.to/lastmile_qr_scan"}, "is_reserved": 0, "fusion_lat": 0.0, "lon": -77.03110116666667}, {"lat": 38.8887435, "type": "electric_scooter", "is_disabled": 0, "name": "69ac7e143572dc2d871ef21314af3fb6", "bike_id": "69ac7e143572dc2d871ef21314af3fb6", "fusion_lon": 0.0, "rental_uris": {"ios": "https://dc.lft.to/lastmile_qr_scan", "android": "https://dc.lft.to/lastmile_qr_scan"}, "is_reserved": 0, "fusion_lat": 0.0, "lon": -76.98676166666667}, {"lat": 38.90364666666667, "type": "electric_scooter", "is_disabled": 0, "name": "05cad17b512d41c202c55ffc3fb29d78", "bike_id": "05cad17b512d41c202c55ffc3fb29d78", "fusion_lon": 0.0, "rental_uris": {"ios": "https://dc.lft.to/lastmile_qr_scan", "android": "https://dc.lft.to/lastmile_qr_scan"}, "is_reserved": 0, "fusion_lat": 0.0, "lon": -77.0383705}, {"lat": 38.900547833333334, "type": "electric_scooter", "is_disabled": 0, "name": "0ef5e66747abf4ba8eadfb5b228ef080", "bike_id": "0ef5e66747abf4ba8eadfb5b228ef080", "fusion_lon": 0.0, "rental_uris": {"ios": "https://dc.lft.to/lastmile_qr_scan", "android": "https://dc.lft.to/lastmile_qr_scan"}, "is_reserved": 0, "fusion_lat": 0.0, "lon": -76.98491033333333}, {"lat": 38.887861666666666, "type": "electric_scooter", "is_disabled": 0, "name": "94bc4cd9c76b7ea0fa76777e23ecddac", "bike_id": "94bc4cd9c76b7ea0fa76777e23ecddac", "fusion_lon": 0.0, "rental_uris": {"ios": "https://dc.lft.to/lastmile_qr_scan", "android": "https://dc.lft.to/lastmile_qr_scan"}, "is_reserved": 0, "fusion_lat": 0.0, "lon": -77.016001}, {"lat": 38.8985095, "type": "electric_bike", "is_disabled": 0, "name": "51711f4eb7ab6f6f00b233c28be475da", "bike_id": "51711f4eb7ab6f6f00b233c28be475da", "fusion_lon": 0.0, "rental_uris": {"ios": "https://dc.lft.to/lastmile_qr_scan", "android": "https://dc.lft.to/lastmile_qr_scan"}, "is_reserved": 0, "fusion_lat": 0.0, "lon": -76.93186666666666}, {"lat": 38.91041516666667, "type": "electric_scooter", "is_disabled": 0, "name": "89c76b4083cbce3ffb07d167e7c0a79a", "bike_id": "89c76b4083cbce3ffb07d167e7c0a79a", "fusion_lon": 0.0, "rental_uris": {"ios": "https://dc.lft.to/lastmile_qr_scan", "android": "https://dc.lft.to/lastmile_qr_scan"}, "is_reserved": 0, "fusion_lat": 0.0, "lon": -77.04496533333334}, {"lat": 38.90261616666667, "type": "electric_scooter", "is_disabled": 0, "name": "3bc3562d5e70cdd07eda50deb6e9fdf9", "bike_id": "3bc3562d5e70cdd07eda50deb6e9fdf9", "fusion_lon": 0.0, "rental_uris": {"ios": "https://dc.lft.to/lastmile_qr_scan", "android": "https://dc.lft.to/lastmile_qr_scan"}, "is_reserved": 0, "fusion_lat": 0.0, "lon": -77.0600925}, {"lat": 38.9288325, "type": "electric_scooter", "is_disabled": 0, "name": "3643e1e1cd9260df818a4d48115913a4", "bike_id": "3643e1e1cd9260df818a4d48115913a4", "fusion_lon": 0.0, "rental_uris": {"ios": "https://dc.lft.to/lastmile_qr_scan", "android": "https://dc.lft.to/lastmile_qr_scan"}, "is_reserved": 0, "fusion_lat": 0.0, "lon": -77.032445}, {"lat": 38.908409666666664, "type": "electric_scooter", "is_disabled": 0, "name": "62891a6681c998720f2ea23083da50b9", "bike_id": "62891a6681c998720f2ea23083da50b9", "fusion_lon": 0.0, "rental_uris": {"ios": "https://dc.lft.to/lastmile_qr_scan", "android": "https://dc.lft.to/lastmile_qr_scan"}, "is_reserved": 0, "fusion_lat": 0.0, "lon": -77.04017116666667}, {"lat": 38.9026415, "type": "electric_scooter", "is_disabled": 0, "name": "069533c34c66339fdbc746fbbaaa7772", "bike_id": "069533c34c66339fdbc746fbbaaa7772", "fusion_lon": 0.0, "rental_uris": {"ios": "https://dc.lft.to/lastmile_qr_scan", "android": "https://dc.lft.to/lastmile_qr_scan"}, "is_reserved": 0, "fusion_lat": 0.0, "lon": -77.03776583333334}, {"lat": 38.8934665, "type": "electric_scooter", "is_disabled": 0, "name": "79d919973ed3f37c440e439b76640504", "bike_id": "79d919973ed3f37c440e439b76640504", "fusion_lon": 0.0, "rental_uris": {"ios": "https://dc.lft.to/lastmile_qr_scan", "android": "https://dc.lft.to/lastmile_qr_scan"}, "is_reserved": 0, "fusion_lat": 0.0, "lon": -77.015086}, {"lat": 38.935958, "type": "electric_scooter", "is_disabled": 0, "name": "0362a00b0d425a7bbb93c3fbe3c60a07", "bike_id": "0362a00b0d425a7bbb93c3fbe3c60a07", "fusion_lon": 0.0, "rental_uris": {"ios": "https://dc.lft.to/lastmile_qr_scan", "android": "https://dc.lft.to/lastmile_qr_scan"}, "is_reserved": 0, "fusion_lat": 0.0, "lon": -77.05843633333333}, {"lat": 38.9292915, "type": "electric_scooter", "is_disabled": 0, "name": "70800c646d17edf930ecd979ad9ad9fc", "bike_id": "70800c646d17edf930ecd979ad9ad9fc", "fusion_lon": 0.0, "rental_uris": {"ios": "https://dc.lft.to/lastmile_qr_scan", "android": "https://dc.lft.to/lastmile_qr_scan"}, "is_reserved": 0, "fusion_lat": 0.0, "lon": -77.03263133333333}, {"lat": 38.898092166666665, "type": "electric_scooter", "is_disabled": 0, "name": "9c36b8c7dc5bbd103327191be8d4b488", "bike_id": "9c36b8c7dc5bbd103327191be8d4b488", "fusion_lon": 0.0, "rental_uris": {"ios": "https://dc.lft.to/lastmile_qr_scan", "android": "https://dc.lft.to/lastmile_qr_scan"}, "is_reserved": 0, "fusion_lat": 0.0, "lon": -77.02782716666667}, {"lat": 38.87911016666666, "type": "electric_scooter", "is_disabled": 0, "name": "286215ecc5e89ef01e26bf70aa1d391d", "bike_id": "286215ecc5e89ef01e26bf70aa1d391d", "fusion_lon": 0.0, "rental_uris": {"ios": "https://dc.lft.to/lastmile_qr_scan", "android": "https://dc.lft.to/lastmile_qr_scan"}, "is_reserved": 0, "fusion_lat": 0.0, "lon": -77.00754116666667}, {"lat": 38.928571166666664, "type": "electric_scooter", "is_disabled": 0, "name": "589589ef8b8e29ca8c260eb49468e43c", "bike_id": "589589ef8b8e29ca8c260eb49468e43c", "fusion_lon": 0.0, "rental_uris": {"ios": "https://dc.lft.to/lastmile_qr_scan", "android": "https://dc.lft.to/lastmile_qr_scan"}, "is_reserved": 0, "fusion_lat": 0.0, "lon": -77.01423483333333}, {"lat": 38.90284716666667, "type": "electric_scooter", "is_disabled": 0, "name": "840c7cb4b63ad8aeb78ac6bc328c5814", "bike_id": "840c7cb4b63ad8aeb78ac6bc328c5814", "fusion_lon": 0.0, "rental_uris": {"ios": "https://dc.lft.to/lastmile_qr_scan", "android": "https://dc.lft.to/lastmile_qr_scan"}, "is_reserved": 0, "fusion_lat": 0.0, "lon": -77.02684466666666}, {"lat": 38.894922666666666, "type": "electric_scooter", "is_disabled": 0, "name": "cd85bcb66f2f69d6b829edf034a94169", "bike_id": "cd85bcb66f2f69d6b829edf034a94169", "fusion_lon": 0.0, "rental_uris": {"ios": "https://dc.lft.to/lastmile_qr_scan", "android": "https://dc.lft.to/lastmile_qr_scan"}, "is_reserved": 0, "fusion_lat": 0.0, "lon": -76.99503666666666}, {"lat": 38.891952333333336, "type": "electric_scooter", "is_disabled": 0, "name": "a92b37eaee8c404643d0d99aea79a9d4", "bike_id": "a92b37eaee8c404643d0d99aea79a9d4", "fusion_lon": 0.0, "rental_uris": {"ios": "https://dc.lft.to/lastmile_qr_scan", "android": "https://dc.lft.to/lastmile_qr_scan"}, "is_reserved": 0, "fusion_lat": 0.0, "lon": -77.00291966666667}, {"lat": 38.92229616666667, "type": "electric_scooter", "is_disabled": 0, "name": "9d99e9c10afcc15ab45054acff0ba062", "bike_id": "9d99e9c10afcc15ab45054acff0ba062", "fusion_lon": 0.0, "rental_uris": {"ios": "https://dc.lft.to/lastmile_qr_scan", "android": "https://dc.lft.to/lastmile_qr_scan"}, "is_reserved": 0, "fusion_lat": 0.0, "lon": -76.97534916666666}, {"lat": 38.902844333333334, "type": "electric_scooter", "is_disabled": 0, "name": "096f51a0ef821203b77a5b11515c1ce2", "bike_id": "096f51a0ef821203b77a5b11515c1ce2", "fusion_lon": 0.0, "rental_uris": {"ios": "https://dc.lft.to/lastmile_qr_scan", "android": "https://dc.lft.to/lastmile_qr_scan"}, "is_reserved": 0, "fusion_lat": 0.0, "lon": -77.048904}, {"lat": 38.915401333333335, "type": "electric_scooter", "is_disabled": 0, "name": "f8963bbeb2ecb961f3c2a8d583dae231", "bike_id": "f8963bbeb2ecb961f3c2a8d583dae231", "fusion_lon": 0.0, "rental_uris": {"ios": "https://dc.lft.to/lastmile_qr_scan", "android": "https://dc.lft.to/lastmile_qr_scan"}, "is_reserved": 0, "fusion_lat": 0.0, "lon": -77.0126975}, {"lat": 38.9197655, "type": "electric_scooter", "is_disabled": 0, "name": "1d00823c032bfc3bdc75c4a342781247", "bike_id": "1d00823c032bfc3bdc75c4a342781247", "fusion_lon": 0.0, "rental_uris": {"ios": "https://dc.lft.to/lastmile_qr_scan", "android": "https://dc.lft.to/lastmile_qr_scan"}, "is_reserved": 0, "fusion_lat": 0.0, "lon": -77.02200166666667}, {"lat": 38.8844105, "type": "electric_scooter", "is_disabled": 0, "name": "177c5fc3b70eb39ac3fa0e7fc13f7d9c", "bike_id": "177c5fc3b70eb39ac3fa0e7fc13f7d9c", "fusion_lon": 0.0, "rental_uris": {"ios": "https://dc.lft.to/lastmile_qr_scan", "android": "https://dc.lft.to/lastmile_qr_scan"}, "is_reserved": 0, "fusion_lat": 0.0, "lon": -76.95767516666666}, {"lat": 38.8652745, "type": "electric_scooter", "is_disabled": 0, "name": "95faef8213bc3af302fc4aee1c0079ca", "bike_id": "95faef8213bc3af302fc4aee1c0079ca", "fusion_lon": 0.0, "rental_uris": {"ios": "https://dc.lft.to/lastmile_qr_scan", "android": "https://dc.lft.to/lastmile_qr_scan"}, "is_reserved": 0, "fusion_lat": 0.0, "lon": -76.96908033333334}, {"lat": 38.90306533333333, "type": "electric_scooter", "is_disabled": 0, "name": "202889d5a793d12f9bbad81f950cef8e", "bike_id": "202889d5a793d12f9bbad81f950cef8e", "fusion_lon": 0.0, "rental_uris": {"ios": "https://dc.lft.to/lastmile_qr_scan", "android": "https://dc.lft.to/lastmile_qr_scan"}, "is_reserved": 0, "fusion_lat": 0.0, "lon": -76.97503683333333}, {"lat": 38.937239166666664, "type": "electric_scooter", "is_disabled": 0, "name": "073c2ed972f875f2e8c33c3639636286", "bike_id": "073c2ed972f875f2e8c33c3639636286", "fusion_lon": 0.0, "rental_uris": {"ios": "https://dc.lft.to/lastmile_qr_scan", "android": "https://dc.lft.to/lastmile_qr_scan"}, "is_reserved": 0, "fusion_lat": 0.0, "lon": -77.02423033333334}, {"lat": 38.919851333333334, "type": "electric_scooter", "is_disabled": 0, "name": "e7ec7ad4585392f950dcdf0a4c34dcde", "bike_id": "e7ec7ad4585392f950dcdf0a4c34dcde", "fusion_lon": 0.0, "rental_uris": {"ios": "https://dc.lft.to/lastmile_qr_scan", "android": "https://dc.lft.to/lastmile_qr_scan"}, "is_reserved": 0, "fusion_lat": 0.0, "lon": -77.02168533333334}, {"lat": 38.91574383333333, "type": "electric_scooter", "is_disabled": 0, "name": "0e1382810f378cf6868f50d8c4dd8be8", "bike_id": "0e1382810f378cf6868f50d8c4dd8be8", "fusion_lon": 0.0, "rental_uris": {"ios": "https://dc.lft.to/lastmile_qr_scan", "android": "https://dc.lft.to/lastmile_qr_scan"}, "is_reserved": 0, "fusion_lat": 0.0, "lon": -77.06796183333333}, {"lat": 38.925, "type": "electric_scooter", "is_disabled": 0, "name": "b3b5dbb81c29254d078992ecb6747829", "bike_id": "b3b5dbb81c29254d078992ecb6747829", "fusion_lon": 0.0, "rental_uris": {"ios": "https://dc.lft.to/lastmile_qr_scan", "android": "https://dc.lft.to/lastmile_qr_scan"}, "is_reserved": 0, "fusion_lat": 0.0, "lon": -77.02578466666667}, {"lat": 38.919382166666665, "type": "electric_scooter", "is_disabled": 0, "name": "c3e975342e03d346be33d1f4694034fe", "bike_id": "c3e975342e03d346be33d1f4694034fe", "fusion_lon": 0.0, "rental_uris": {"ios": "https://dc.lft.to/lastmile_qr_scan", "android": "https://dc.lft.to/lastmile_qr_scan"}, "is_reserved": 0, "fusion_lat": 0.0, "lon": -77.01802283333333}, {"lat": 38.8843205, "type": "electric_scooter", "is_disabled": 0, "name": "de5329c638a200b4bbe1361267a1cf76", "bike_id": "de5329c638a200b4bbe1361267a1cf76", "fusion_lon": 0.0, "rental_uris": {"ios": "https://dc.lft.to/lastmile_qr_scan", "android": "https://dc.lft.to/lastmile_qr_scan"}, "is_reserved": 0, "fusion_lat": 0.0, "lon": -76.99730883333334}, {"lat": 38.9244545, "type": "electric_scooter", "is_disabled": 0, "name": "9a955bce1752c33e3c4ae5527a0d0ed3", "bike_id": "9a955bce1752c33e3c4ae5527a0d0ed3", "fusion_lon": 0.0, "rental_uris": {"ios": "https://dc.lft.to/lastmile_qr_scan", "android": "https://dc.lft.to/lastmile_qr_scan"}, "is_reserved": 0, "fusion_lat": 0.0, "lon": -76.96828366666666}, {"lat": 38.91915183333333, "type": "electric_scooter", "is_disabled": 0, "name": "34c940a4241ec1554ecf41293f6f2ce9", "bike_id": "34c940a4241ec1554ecf41293f6f2ce9", "fusion_lon": 0.0, "rental_uris": {"ios": "https://dc.lft.to/lastmile_qr_scan", "android": "https://dc.lft.to/lastmile_qr_scan"}, "is_reserved": 0, "fusion_lat": 0.0, "lon": -77.0342935}, {"lat": 38.8728675, "type": "electric_scooter", "is_disabled": 0, "name": "6c45bce6df483cb554579b567619f40a", "bike_id": "6c45bce6df483cb554579b567619f40a", "fusion_lon": 0.0, "rental_uris": {"ios": "https://dc.lft.to/lastmile_qr_scan", "android": "https://dc.lft.to/lastmile_qr_scan"}, "is_reserved": 0, "fusion_lat": 0.0, "lon": -77.01582916666666}, {"lat": 38.919070166666664, "type": "electric_scooter", "is_disabled": 0, "name": "561f81955c39622dd52e2cf2e3393e8a", "bike_id": "561f81955c39622dd52e2cf2e3393e8a", "fusion_lon": 0.0, "rental_uris": {"ios": "https://dc.lft.to/lastmile_qr_scan", "android": "https://dc.lft.to/lastmile_qr_scan"}, "is_reserved": 0, "fusion_lat": 0.0, "lon": -77.02095966666667}, {"lat": 38.898761, "type": "electric_scooter", "is_disabled": 0, "name": "28d7e08289170e52a636baa02149bfe8", "bike_id": "28d7e08289170e52a636baa02149bfe8", "fusion_lon": 0.0, "rental_uris": {"ios": "https://dc.lft.to/lastmile_qr_scan", "android": "https://dc.lft.to/lastmile_qr_scan"}, "is_reserved": 0, "fusion_lat": 0.0, "lon": -77.0296265}, {"lat": 38.87712766666667, "type": "electric_scooter", "is_disabled": 0, "name": "02019f27a56ac890e2547ea1c303313a", "bike_id": "02019f27a56ac890e2547ea1c303313a", "fusion_lon": 0.0, "rental_uris": {"ios": "https://dc.lft.to/lastmile_qr_scan", "android": "https://dc.lft.to/lastmile_qr_scan"}, "is_reserved": 0, "fusion_lat": 0.0, "lon": -77.017708}, {"lat": 38.879961333333334, "type": "electric_scooter", "is_disabled": 0, "name": "e182fc511bd1a206a3e25c00c475128e", "bike_id": "e182fc511bd1a206a3e25c00c475128e", "fusion_lon": 0.0, "rental_uris": {"ios": "https://dc.lft.to/lastmile_qr_scan", "android": "https://dc.lft.to/lastmile_qr_scan"}, "is_reserved": 0, "fusion_lat": 0.0, "lon": -76.98548133333334}, {"lat": 38.87460166666666, "type": "electric_scooter", "is_disabled": 0, "name": "39c4f2b01739162a67022c0e4f3773b3", "bike_id": "39c4f2b01739162a67022c0e4f3773b3", "fusion_lon": 0.0, "rental_uris": {"ios": "https://dc.lft.to/lastmile_qr_scan", "android": "https://dc.lft.to/lastmile_qr_scan"}, "is_reserved": 0, "fusion_lat": 0.0, "lon": -77.0093805}, {"lat": 38.88986416666667, "type": "electric_scooter", "is_disabled": 0, "name": "b2f3b2baa30a5a0b7ffd814545526c74", "bike_id": "b2f3b2baa30a5a0b7ffd814545526c74", "fusion_lon": 0.0, "rental_uris": {"ios": "https://dc.lft.to/lastmile_qr_scan", "android": "https://dc.lft.to/lastmile_qr_scan"}, "is_reserved": 0, "fusion_lat": 0.0, "lon": -76.92112283333333}, {"lat": 38.89883, "type": "electric_scooter", "is_disabled": 0, "name": "7b41c7523cb4ca005bdaabf5741fb043", "bike_id": "7b41c7523cb4ca005bdaabf5741fb043", "fusion_lon": 0.0, "rental_uris": {"ios": "https://dc.lft.to/lastmile_qr_scan", "android": "https://dc.lft.to/lastmile_qr_scan"}, "is_reserved": 0, "fusion_lat": 0.0, "lon": -76.9317895}, {"lat": 38.898917833333336, "type": "electric_scooter", "is_disabled": 0, "name": "0bc392af6150a992ec734429516c753d", "bike_id": "0bc392af6150a992ec734429516c753d", "fusion_lon": 0.0, "rental_uris": {"ios": "https://dc.lft.to/lastmile_qr_scan", "android": "https://dc.lft.to/lastmile_qr_scan"}, "is_reserved": 0, "fusion_lat": 0.0, "lon": -77.03946283333333}, {"lat": 38.89224516666667, "type": "electric_scooter", "is_disabled": 0, "name": "d967d1f7eb13ffbcaa3b19116976fa78", "bike_id": "d967d1f7eb13ffbcaa3b19116976fa78", "fusion_lon": 0.0, "rental_uris": {"ios": "https://dc.lft.to/lastmile_qr_scan", "android": "https://dc.lft.to/lastmile_qr_scan"}, "is_reserved": 0, "fusion_lat": 0.0, "lon": -77.0313075}, {"lat": 38.89563416666667, "type": "electric_bike", "is_disabled": 0, "name": "6dd060e368999e263a8f65b45cda19b1", "bike_id": "6dd060e368999e263a8f65b45cda19b1", "fusion_lon": 0.0, "rental_uris": {"ios": "https://dc.lft.to/lastmile_qr_scan", "android": "https://dc.lft.to/lastmile_qr_scan"}, "is_reserved": 0, "fusion_lat": 0.0, "lon": -77.12734616666667}, {"lat": 38.896264, "type": "electric_scooter", "is_disabled": 0, "name": "8f8f44ca71794844e79d62b526158108", "bike_id": "8f8f44ca71794844e79d62b526158108", "fusion_lon": 0.0, "rental_uris": {"ios": "https://dc.lft.to/lastmile_qr_scan", "android": "https://dc.lft.to/lastmile_qr_scan"}, "is_reserved": 0, "fusion_lat": 0.0, "lon": -77.02197483333333}, {"lat": 38.9162215, "type": "electric_scooter", "is_disabled": 0, "name": "4d4584d99151e6efd672765208bce133", "bike_id": "4d4584d99151e6efd672765208bce133", "fusion_lon": 0.0, "rental_uris": {"ios": "https://dc.lft.to/lastmile_qr_scan", "android": "https://dc.lft.to/lastmile_qr_scan"}, "is_reserved": 0, "fusion_lat": 0.0, "lon": -77.03502}, {"lat": 38.8922835, "type": "electric_scooter", "is_disabled": 0, "name": "6c811d4301c2fbc6b2f28b7a4840696d", "bike_id": "6c811d4301c2fbc6b2f28b7a4840696d", "fusion_lon": 0.0, "rental_uris": {"ios": "https://dc.lft.to/lastmile_qr_scan", "android": "https://dc.lft.to/lastmile_qr_scan"}, "is_reserved": 0, "fusion_lat": 0.0, "lon": -77.04876116666667}, {"lat": 38.88746716666667, "type": "electric_scooter", "is_disabled": 0, "name": "469b8c9a73aa2f4760afceac0b115f48", "bike_id": "469b8c9a73aa2f4760afceac0b115f48", "fusion_lon": 0.0, "rental_uris": {"ios": "https://dc.lft.to/lastmile_qr_scan", "android": "https://dc.lft.to/lastmile_qr_scan"}, "is_reserved": 0, "fusion_lat": 0.0, "lon": -77.02574}, {"lat": 38.9126945, "type": "electric_scooter", "is_disabled": 0, "name": "925e84457275d71a099b66abe884caf6", "bike_id": "925e84457275d71a099b66abe884caf6", "fusion_lon": 0.0, "rental_uris": {"ios": "https://dc.lft.to/lastmile_qr_scan", "android": "https://dc.lft.to/lastmile_qr_scan"}, "is_reserved": 0, "fusion_lat": 0.0, "lon": -77.022125}, {"lat": 38.920382000000004, "type": "electric_bike", "is_disabled": 0, "name": "b2116d8f38f0ea1d96edca2b5f4c908f", "bike_id": "b2116d8f38f0ea1d96edca2b5f4c908f", "fusion_lon": 0.0, "rental_uris": {"ios": "https://dc.lft.to/lastmile_qr_scan", "android": "https://dc.lft.to/lastmile_qr_scan"}, "is_reserved": 0, "fusion_lat": 0.0, "lon": -76.9796095}, {"lat": 38.8947615, "type": "electric_scooter", "is_disabled": 0, "name": "2709ed924a5f8ee983056c2975f7f464", "bike_id": "2709ed924a5f8ee983056c2975f7f464", "fusion_lon": 0.0, "rental_uris": {"ios": "https://dc.lft.to/lastmile_qr_scan", "android": "https://dc.lft.to/lastmile_qr_scan"}, "is_reserved": 0, "fusion_lat": 0.0, "lon": -77.027988}, {"lat": 38.899422666666666, "type": "electric_scooter", "is_disabled": 0, "name": "0475af4f7b1dc8edf9ea40bbf937e75a", "bike_id": "0475af4f7b1dc8edf9ea40bbf937e75a", "fusion_lon": 0.0, "rental_uris": {"ios": "https://dc.lft.to/lastmile_qr_scan", "android": "https://dc.lft.to/lastmile_qr_scan"}, "is_reserved": 0, "fusion_lat": 0.0, "lon": -77.04501166666667}, {"lat": 38.90478016666667, "type": "electric_scooter", "is_disabled": 0, "name": "a2c7cf07f258138e3b9257d59f86a1e3", "bike_id": "a2c7cf07f258138e3b9257d59f86a1e3", "fusion_lon": 0.0, "rental_uris": {"ios": "https://dc.lft.to/lastmile_qr_scan", "android": "https://dc.lft.to/lastmile_qr_scan"}, "is_reserved": 0, "fusion_lat": 0.0, "lon": -77.00892066666667}, {"lat": 38.9348105, "type": "electric_scooter", "is_disabled": 0, "name": "5b551543ea36d599edd91b07ad6fe76d", "bike_id": "5b551543ea36d599edd91b07ad6fe76d", "fusion_lon": 0.0, "rental_uris": {"ios": "https://dc.lft.to/lastmile_qr_scan", "android": "https://dc.lft.to/lastmile_qr_scan"}, "is_reserved": 0, "fusion_lat": 0.0, "lon": -77.044661}, {"lat": 38.89743816666667, "type": "electric_scooter", "is_disabled": 0, "name": "1e8e39f455cf51d2d34482e39b84f1a7", "bike_id": "1e8e39f455cf51d2d34482e39b84f1a7", "fusion_lon": 0.0, "rental_uris": {"ios": "https://dc.lft.to/lastmile_qr_scan", "android": "https://dc.lft.to/lastmile_qr_scan"}, "is_reserved": 0, "fusion_lat": 0.0, "lon": -77.02526}, {"lat": 38.8850405, "type": "electric_scooter", "is_disabled": 0, "name": "c10a815392abd9022bbf0e65b657b2e9", "bike_id": "c10a815392abd9022bbf0e65b657b2e9", "fusion_lon": 0.0, "rental_uris": {"ios": "https://dc.lft.to/lastmile_qr_scan", "android": "https://dc.lft.to/lastmile_qr_scan"}, "is_reserved": 0, "fusion_lat": 0.0, "lon": -77.00569716666666}, {"lat": 38.921987, "type": "electric_scooter", "is_disabled": 0, "name": "6bd8681df2d294e72b19fc18bcff6540", "bike_id": "6bd8681df2d294e72b19fc18bcff6540", "fusion_lon": 0.0, "rental_uris": {"ios": "https://dc.lft.to/lastmile_qr_scan", "android": "https://dc.lft.to/lastmile_qr_scan"}, "is_reserved": 0, "fusion_lat": 0.0, "lon": -76.98370683333333}, {"lat": 38.87495416666667, "type": "electric_scooter", "is_disabled": 0, "name": "5327021198bcb3f3c0e4e484e815c620", "bike_id": "5327021198bcb3f3c0e4e484e815c620", "fusion_lon": 0.0, "rental_uris": {"ios": "https://dc.lft.to/lastmile_qr_scan", "android": "https://dc.lft.to/lastmile_qr_scan"}, "is_reserved": 0, "fusion_lat": 0.0, "lon": -76.99975566666667}, {"lat": 38.97259433333333, "type": "electric_bike", "is_disabled": 0, "name": "2c330823924d3d312afaa69f1d9c4fd0", "bike_id": "2c330823924d3d312afaa69f1d9c4fd0", "fusion_lon": 0.0, "rental_uris": {"ios": "https://dc.lft.to/lastmile_qr_scan", "android": "https://dc.lft.to/lastmile_qr_scan"}, "is_reserved": 0, "fusion_lat": 0.0, "lon": -76.99279866666667}, {"lat": 38.9041825, "type": "electric_scooter", "is_disabled": 0, "name": "19818b9551d4c4539da2aaacd29257eb", "bike_id": "19818b9551d4c4539da2aaacd29257eb", "fusion_lon": 0.0, "rental_uris": {"ios": "https://dc.lft.to/lastmile_qr_scan", "android": "https://dc.lft.to/lastmile_qr_scan"}, "is_reserved": 0, "fusion_lat": 0.0, "lon": -77.03291933333334}, {"lat": 38.92358133333333, "type": "electric_scooter", "is_disabled": 0, "name": "630c4e587f1a8602ef3eeea4e79ed560", "bike_id": "630c4e587f1a8602ef3eeea4e79ed560", "fusion_lon": 0.0, "rental_uris": {"ios": "https://dc.lft.to/lastmile_qr_scan", "android": "https://dc.lft.to/lastmile_qr_scan"}, "is_reserved": 0, "fusion_lat": 0.0, "lon": -77.02098383333333}, {"lat": 38.89220733333333, "type": "electric_scooter", "is_disabled": 0, "name": "d96a71c5894c61c3d913de24b53cbf43", "bike_id": "d96a71c5894c61c3d913de24b53cbf43", "fusion_lon": 0.0, "rental_uris": {"ios": "https://dc.lft.to/lastmile_qr_scan", "android": "https://dc.lft.to/lastmile_qr_scan"}, "is_reserved": 0, "fusion_lat": 0.0, "lon": -77.04150216666666}, {"lat": 38.9754585, "type": "electric_scooter", "is_disabled": 0, "name": "47d5348c52ac43688405f2c55c3a9178", "bike_id": "47d5348c52ac43688405f2c55c3a9178", "fusion_lon": 0.0, "rental_uris": {"ios": "https://dc.lft.to/lastmile_qr_scan", "android": "https://dc.lft.to/lastmile_qr_scan"}, "is_reserved": 0, "fusion_lat": 0.0, "lon": -77.026587}, {"lat": 38.9026225, "type": "electric_scooter", "is_disabled": 0, "name": "903a4fa27e87c34e015441bb83ab73a7", "bike_id": "903a4fa27e87c34e015441bb83ab73a7", "fusion_lon": 0.0, "rental_uris": {"ios": "https://dc.lft.to/lastmile_qr_scan", "android": "https://dc.lft.to/lastmile_qr_scan"}, "is_reserved": 0, "fusion_lat": 0.0, "lon": -77.03429966666667}, {"lat": 38.92144116666667, "type": "electric_scooter", "is_disabled": 0, "name": "55ad9bc268224638eccf5b0bc961f091", "bike_id": "55ad9bc268224638eccf5b0bc961f091", "fusion_lon": 0.0, "rental_uris": {"ios": "https://dc.lft.to/lastmile_qr_scan", "android": "https://dc.lft.to/lastmile_qr_scan"}, "is_reserved": 0, "fusion_lat": 0.0, "lon": -77.01803083333333}, {"lat": 38.85573516666667, "type": "electric_bike", "is_disabled": 0, "name": "079f07b9e4619dc798fe2b010f18453b", "bike_id": "079f07b9e4619dc798fe2b010f18453b", "fusion_lon": 0.0, "rental_uris": {"ios": "https://dc.lft.to/lastmile_qr_scan", "android": "https://dc.lft.to/lastmile_qr_scan"}, "is_reserved": 0, "fusion_lat": 0.0, "lon": -77.0533905}, {"lat": 38.92043683333333, "type": "electric_scooter", "is_disabled": 0, "name": "59edb199d825f683ee357fda0903f53c", "bike_id": "59edb199d825f683ee357fda0903f53c", "fusion_lon": 0.0, "rental_uris": {"ios": "https://dc.lft.to/lastmile_qr_scan", "android": "https://dc.lft.to/lastmile_qr_scan"}, "is_reserved": 0, "fusion_lat": 0.0, "lon": -77.0167205}, {"lat": 38.877035, "type": "electric_scooter", "is_disabled": 0, "name": "13984d67d0073f57045239e447bf1d9a", "bike_id": "13984d67d0073f57045239e447bf1d9a", "fusion_lon": 0.0, "rental_uris": {"ios": "https://dc.lft.to/lastmile_qr_scan", "android": "https://dc.lft.to/lastmile_qr_scan"}, "is_reserved": 0, "fusion_lat": 0.0, "lon": -76.99313716666667}, {"lat": 38.9086135, "type": "electric_bike", "is_disabled": 0, "name": "d0a7785b1e87d287512cf0f4d620018a", "bike_id": "d0a7785b1e87d287512cf0f4d620018a", "fusion_lon": 0.0, "rental_uris": {"ios": "https://dc.lft.to/lastmile_qr_scan", "android": "https://dc.lft.to/lastmile_qr_scan"}, "is_reserved": 0, "fusion_lat": 0.0, "lon": -77.0807845}, {"lat": 38.907998, "type": "electric_scooter", "is_disabled": 0, "name": "60ea609f974e4dcc502cce8278cd38a1", "bike_id": "60ea609f974e4dcc502cce8278cd38a1", "fusion_lon": 0.0, "rental_uris": {"ios": "https://dc.lft.to/lastmile_qr_scan", "android": "https://dc.lft.to/lastmile_qr_scan"}, "is_reserved": 0, "fusion_lat": 0.0, "lon": -77.08398833333334}, {"lat": 38.899482166666665, "type": "electric_scooter", "is_disabled": 0, "name": "0f28cd4d054966191f276d26499d43a6", "bike_id": "0f28cd4d054966191f276d26499d43a6", "fusion_lon": 0.0, "rental_uris": {"ios": "https://dc.lft.to/lastmile_qr_scan", "android": "https://dc.lft.to/lastmile_qr_scan"}, "is_reserved": 0, "fusion_lat": 0.0, "lon": -77.04489766666667}, {"lat": 38.941644833333335, "type": "electric_scooter", "is_disabled": 0, "name": "80130a845bdb7bec93b72e02aa22540a", "bike_id": "80130a845bdb7bec93b72e02aa22540a", "fusion_lon": 0.0, "rental_uris": {"ios": "https://dc.lft.to/lastmile_qr_scan", "android": "https://dc.lft.to/lastmile_qr_scan"}, "is_reserved": 0, "fusion_lat": 0.0, "lon": -77.0340565}, {"lat": 38.93866766666667, "type": "electric_scooter", "is_disabled": 0, "name": "cabcacc4e3b7201034fa19ef8519d521", "bike_id": "cabcacc4e3b7201034fa19ef8519d521", "fusion_lon": 0.0, "rental_uris": {"ios": "https://dc.lft.to/lastmile_qr_scan", "android": "https://dc.lft.to/lastmile_qr_scan"}, "is_reserved": 0, "fusion_lat": 0.0, "lon": -77.025184}, {"lat": 38.90322783333333, "type": "electric_scooter", "is_disabled": 0, "name": "40adfbc47e899d5bb6206030ba847cd5", "bike_id": "40adfbc47e899d5bb6206030ba847cd5", "fusion_lon": 0.0, "rental_uris": {"ios": "https://dc.lft.to/lastmile_qr_scan", "android": "https://dc.lft.to/lastmile_qr_scan"}, "is_reserved": 0, "fusion_lat": 0.0, "lon": -77.02475133333333}, {"lat": 38.90835766666667, "type": "electric_scooter", "is_disabled": 0, "name": "491aeff7edb220c070fdce3919fc8311", "bike_id": "491aeff7edb220c070fdce3919fc8311", "fusion_lon": 0.0, "rental_uris": {"ios": "https://dc.lft.to/lastmile_qr_scan", "android": "https://dc.lft.to/lastmile_qr_scan"}, "is_reserved": 0, "fusion_lat": 0.0, "lon": -77.03555916666667}, {"lat": 38.924629333333336, "type": "electric_scooter", "is_disabled": 0, "name": "40adbdb07ab363ae85765a26f82ffe66", "bike_id": "40adbdb07ab363ae85765a26f82ffe66", "fusion_lon": 0.0, "rental_uris": {"ios": "https://dc.lft.to/lastmile_qr_scan", "android": "https://dc.lft.to/lastmile_qr_scan"}, "is_reserved": 0, "fusion_lat": 0.0, "lon": -77.02197616666666}, {"lat": 38.897473, "type": "electric_scooter", "is_disabled": 0, "name": "0c2189ac861b84b7a0dbfa31a3769864", "bike_id": "0c2189ac861b84b7a0dbfa31a3769864", "fusion_lon": 0.0, "rental_uris": {"ios": "https://dc.lft.to/lastmile_qr_scan", "android": "https://dc.lft.to/lastmile_qr_scan"}, "is_reserved": 0, "fusion_lat": 0.0, "lon": -77.04347083333333}, {"lat": 38.892170666666665, "type": "electric_scooter", "is_disabled": 0, "name": "40711b06dbfbafded0e7b379d1982cb2", "bike_id": "40711b06dbfbafded0e7b379d1982cb2", "fusion_lon": 0.0, "rental_uris": {"ios": "https://dc.lft.to/lastmile_qr_scan", "android": "https://dc.lft.to/lastmile_qr_scan"}, "is_reserved": 0, "fusion_lat": 0.0, "lon": -77.02161783333334},