{"data": {"bikes": [{"bike_id": "36b7de3fbcd0789386872d40bf6d533c", "type": "electric_scooter", "is_disabled": 0, "lat": 38.8735805, "rental_uris": {"ios": "https://dc.lft.to/lastmile_qr_scan", "android": "https://dc.lft.to/lastmile_qr_scan"}, "is_reserved": 0, "fusion_lon": 0.0, "fusion_lat": 0.0, "lon": -76.97027766666666, "name": "36b7de3fbcd0789386872d40bf6d533c"}, {"bike_id": "ceb72b2a56e153735391de6f7f117420", "type": "electric_scooter", "is_disabled": 0, "lat": 38.90706766666667, "rental_uris": {"ios": "https://dc.lft.to/lastmile_qr_scan", "android": "https://dc.lft.to/lastmile_qr_scan"}, "is_reserved": 0, "fusion_lon": 0.0, "fusion_lat": 0.0, "lon": -77.03260816666666, "name": "ceb72b2a56e153735391de6f7f117420"}, {"bike_id": "297fe6ebf027bf8ee73fd91c7f28bd7c", "type": "electric_scooter", "is_disabled": 0, "lat": 38.930003, "rental_uris": {"ios": "https://dc.lft.to/lastmile_qr_scan", "android": "https://dc.lft.to/lastmile_qr_scan"}, "is_reserved": 0, "fusion_lon": 0.0, "fusion_lat": 0.0, "lon": -77.02372716666666, "name": "297fe6ebf027bf8ee73fd91c7f28bd7c"}, {"bike_id": "c1f3b901f1e802c9d31087ddf54ed5b6", "type": "electric_scooter", "is_disabled": 0, "lat": 38.881183, "rental_uris": {"ios": "https://dc.lft.to/lastmile_qr_scan", "android": "https://dc.lft.to/lastmile_qr_scan"}, "is_reserved": 0, "fusion_lon": 0.0, "fusion_lat": 0.0, "lon": -77.0017505, "name": "c1f3b901f1e802c9d31087ddf54ed5b6"}, {"bike_id": "4eff91238a79ccf69284fd61a0dd6e5b", "type": "electric_bike", "is_disabled": 0, "lat": 39.0528345, "rental_uris": {"ios": "https://dc.lft.to/lastmile_qr_scan", "android": "https://dc.lft.to/lastmile_qr_scan"}, "is_reserved": 0, "fusion_lon": 0.0, "fusion_lat": 0.0, "lon": -77.08069283333333, "name": "4eff91238a79ccf69284fd61a0dd6e5b"}, {"bike_id": "51e838b2c5e082216f8ed376f1bb04e0", "type": "electric_scooter", "is_disabled": 0, "lat": 38.911927166666665, "rental_uris": {"ios": "https://dc.lft.to/lastmile_qr_scan", "android": "https://dc.lft.to/lastmile_qr_scan"}, "is_reserved": 0, "fusion_lon": 0.0, "fusion_lat": 0.0, "lon": -77.03833033333333, "name": "51e838b2c5e082216f8ed376f1bb04e0"}, {"bike_id": "ab79911b60100c50b8165813b9850612", "type": "electric_scooter", "is_disabled": 0, "lat": 38.933442166666666, "rental_uris": {"ios": "https://dc.lft.to/lastmile_qr_scan", "android": "https://dc.lft.to/lastmile_qr_scan"}, "is_reserved": 0, "fusion_lon": 0.0, "fusion_lat": 0.0, "lon": -77.0206315, "name": "ab79911b60100c50b8165813b9850612"}, {"bike_id": "93cea37e55663ba22bf6a0d83196664e", "type": "electric_scooter", "is_disabled": 0, "lat": 38.867106666666665, "rental_uris": {"ios": "https://dc.lft.to/lastmile_qr_scan", "android": "https://dc.lft.to/lastmile_qr_scan"}, "is_reserved": 0, "fusion_lon": 0.0, "fusion_lat": 0.0, "lon": -76.98707316666666, "name": "93cea37e55663ba22bf6a0d83196664e"}, {"bike_id": "2bb1e14054a940aa3ae8a3c27d3f48f1", "type": "electric_scooter", "is_disabled": 0, "lat": 38.918243, "rental_uris": {"ios": "https://dc.lft.to/lastmile_qr_scan", "android": "https://dc.lft.to/lastmile_qr_scan"}, "is_reserved": 0, "fusion_lon": 0.0, "fusion_lat": 0.0, "lon": -77.0494155, "name": "2bb1e14054a940aa3ae8a3c27d3f48f1"}, {"bike_id": "bff0fb7858f704c86192e21787f4402a", "type": "electric_scooter", "is_disabled": 0, "lat": 38.916794333333335, "rental_uris": {"ios": "https://dc.lft.to/lastmile_qr_scan", "android": "https://dc.lft.to/lastmile_qr_scan"}, "is_reserved": 0, "fusion_lon": 0.0, "fusion_lat": 0.0, "lon": -77.0294645, "name": "bff0fb7858f704c86192e21787f4402a"}, {"bike_id": "fa509ec67644ba4ff336b5c63f50e4f1", "type": "electric_scooter", "is_disabled": 0, "lat": 38.894804, "rental_uris": {"ios": "https://dc.lft.to/lastmile_qr_scan", "android": "https://dc.lft.to/lastmile_qr_scan"}, "is_reserved": 0, "fusion_lon": 0.0, "fusion_lat": 0.0, "lon": -77.02290433333333, "name": "fa509ec67644ba4ff336b5c63f50e4f1"}, {"bike_id": "8dea38f893ff0ef25d7556aa26d76672", "type": "electric_scooter", "is_disabled": 0, "lat": 38.897543, "rental_uris": {"ios": "https://dc.lft.to/lastmile_qr_scan", "android": "https://dc.lft.to/lastmile_qr_scan"}, "is_reserved": 0, "fusion_lon": 0.0, "fusion_lat": 0.0, "lon": -77.0276275, "name": "8dea38f893ff0ef25d7556aa26d76672"}, {"bike_id": "9cd2aee046cc35b29956f277e9407697", "type": "electric_scooter", "is_disabled": 0, "lat": 38.940235666666666, "rental_uris": {"ios": "https://dc.lft.to/lastmile_qr_scan", "android": "https://dc.lft.to/lastmile_qr_scan"}, "is_reserved": 0, "fusion_lon": 0.0, "fusion_lat": 0.0, "lon": -76.97609316666667, "name": "9cd2aee046cc35b29956f277e9407697"}, {"bike_id": "c9e043b8530c5e4cda5653e03a66434d", "type": "electric_scooter", "is_disabled": 0, "lat": 38.905560333333334, "rental_uris": {"ios": "https://dc.lft.to/lastmile_qr_scan", "android": "https://dc.lft.to/lastmile_qr_scan"}, "is_reserved": 0, "fusion_lon": 0.0, "fusion_lat": 0.0, "lon": -77.0056095, "name": "c9e043b8530c5e4cda5653e03a66434d"}, {"bike_id": "f1285979670f556c50d0c1fd071ed765", "type": "electric_scooter", "is_disabled": 0, "lat": 38.89430566666667, "rental_uris": {"ios": "https://dc.lft.to/lastmile_qr_scan", "android": "https://dc.lft.to/lastmile_qr_scan"}, "is_reserved": 0, "fusion_lon": 0.0, "fusion_lat": 0.0, "lon": -77.0104715, "name": "f1285979670f556c50d0c1fd071ed765"}, {"bike_id": "4e68e2fde45a84e6787d439eb9a75870", "type": "electric_scooter", "is_disabled": 0, "lat": 38.911036833333334, "rental_uris": {"ios": "https://dc.lft.to/lastmile_qr_scan", "android": "https://dc.lft.to/lastmile_qr_scan"}, "is_reserved": 0, "fusion_lon": 0.0, "fusion_lat": 0.0, "lon": -77.0419645, "name": "4e68e2fde45a84e6787d439eb9a75870"}, {"bike_id": "61ae54cd0b6d892612efdfe134c8d29d", "type": "electric_scooter", "is_disabled": 0, "lat": 38.8948355, "rental_uris": {"ios": "https://dc.lft.to/lastmile_qr_scan", "android": "https://dc.lft.to/lastmile_qr_scan"}, "is_reserved": 0, "fusion_lon": 0.0, "fusion_lat": 0.0, "lon": -76.94862716666667, "name": "61ae54cd0b6d892612efdfe134c8d29d"}, {"bike_id": "12531560a5b914d25b6562d3db1ae1e1", "type": "electric_scooter", "is_disabled": 0, "lat": 38.93213266666667, "rental_uris": {"ios": "https://dc.lft.to/lastmile_qr_scan", "android": "https://dc.lft.to/lastmile_qr_scan"}, "is_reserved": 0, "fusion_lon": 0.0, "fusion_lat": 0.0, "lon": -77.0351675, "name": "12531560a5b914d25b6562d3db1ae1e1"}, {"bike_id": "2ca97345c16fbe4a049d1ea2a85989ec", "type": "electric_scooter", "is_disabled": 0, "lat": 38.9204675, "rental_uris": {"ios": "https://dc.lft.to/lastmile_qr_scan", "android": "https://dc.lft.to/lastmile_qr_scan"}, "is_reserved": 0, "fusion_lon": 0.0, "fusion_lat": 0.0, "lon": -77.02571966666666, "name": "2ca97345c16fbe4a049d1ea2a85989ec"}, {"bike_id": "b1aa0b42a0ef896901077fb4e8b1363c", "type": "electric_scooter", "is_disabled": 0, "lat": 38.8771445, "rental_uris": {"ios": "https://dc.lft.to/lastmile_qr_scan", "android": "https://dc.lft.to/lastmile_qr_scan"}, "is_reserved": 0, "fusion_lon": 0.0, "fusion_lat": 0.0, "lon": -77.00508183333334, "name": "b1aa0b42a0ef896901077fb4e8b1363c"}, {"bike_id": "f4948477807540f946b18cb0cb9b16ce", "type": "electric_bike", "is_disabled": 0, "lat": 38.978811666666665, "rental_uris": {"ios": "https://dc.lft.to/lastmile_qr_scan", "android": "https://dc.lft.to/lastmile_qr_scan"}, "is_reserved": 0, "fusion_lon": 0.0, "fusion_lat": 0.0, "lon": -77.0602965, "name": "f4948477807540f946b18cb0cb9b16ce"}, {"bike_id": "182ef8b630d7fa42661596a8e58270a6", "type": "electric_scooter", "is_disabled": 0, "lat": 38.923228, "rental_uris": {"ios": "https://dc.lft.to/lastmile_qr_scan", "android": "https://dc.lft.to/lastmile_qr_scan"}, "is_reserved": 0, "fusion_lon": 0.0, "fusion_lat": 0.0, "lon": -77.03755733333334, "name": "182ef8b630d7fa42661596a8e58270a6"}, {"bike_id": "6d657e5049bb4a54db7eeeb7ea6bb507", "type": "electric_scooter", "is_disabled": 0, "lat": 38.93080916666667, "rental_uris": {"ios": "https://dc.lft.to/lastmile_qr_scan", "android": "https://dc.lft.to/lastmile_qr_scan"}, "is_reserved": 0, "fusion_lon": 0.0, "fusion_lat": 0.0, "lon": -77.02793866666667, "name": "6d657e5049bb4a54db7eeeb7ea6bb507"}, {"bike_id": "d4fc69ae863af17a314ff27a2b8f7657", "type": "electric_scooter", "is_disabled": 0, "lat": 38.92265533333333, "rental_uris": {"ios": "https://dc.lft.to/lastmile_qr_scan", "android": "https://dc.lft.to/lastmile_qr_scan"}, "is_reserved": 0, "fusion_lon": 0.0, "fusion_lat": 0.0, "lon": -77.03677466666667, "name": "d4fc69ae863af17a314ff27a2b8f7657"}, {"bike_id": "a6694651429158fb0ae5ef9444bebdae", "type": "electric_scooter", "is_disabled": 0, "lat": 38.91507033333333, "rental_uris": {"ios": "https://dc.lft.to/lastmile_qr_scan", "android": "https://dc.lft.to/lastmile_qr_scan"}, "is_reserved": 0, "fusion_lon": 0.0, "fusion_lat": 0.0, "lon": -77.01776116666667, "name": "a6694651429158fb0ae5ef9444bebdae"}, {"bike_id": "052d5473b56bd3e7c8ceee8eaa7f8818", "type": "electric_scooter", "is_disabled": 0, "lat": 38.91555483333333, "rental_uris": {"ios": "https://dc.lft.to/lastmile_qr_scan", "android": "https://dc.lft.to/lastmile_qr_scan"}, "is_reserved": 0, "fusion_lon": 0.0, "fusion_lat": 0.0, "lon": -77.01234416666667, "name": "052d5473b56bd3e7c8ceee8eaa7f8818"}, {"bike_id": "2f469e5921febe9a2d48cb1a168fcd86", "type": "electric_scooter", "is_disabled": 0, "lat": 38.90235233333333, "rental_uris": {"ios": "https://dc.lft.to/lastmile_qr_scan", "android": "https://dc.lft.to/lastmile_qr_scan"}, "is_reserved": 0, "fusion_lon": 0.0, "fusion_lat": 0.0, "lon": -77.03269283333333, "name": "2f469e5921febe9a2d48cb1a168fcd86"}, {"bike_id": "79c57d2914e5789613d9cf4dad0bc83d", "type": "electric_bike", "is_disabled": 0, "lat": 38.91550016666667, "rental_uris": {"ios": "https://dc.lft.to/lastmile_qr_scan", "android": "https://dc.lft.to/lastmile_qr_scan"}, "is_reserved": 0, "fusion_lon": 0.0, "fusion_lat": 0.0, "lon": -77.06667816666666, "name": "79c57d2914e5789613d9cf4dad0bc83d"}, {"bike_id": "a37984adbece2faac34ae90661442a4c", "type": "electric_scooter", "is_disabled": 0, "lat": 38.9128435, "rental_uris": {"ios": "https://dc.lft.to/lastmile_qr_scan", "android": "https://dc.lft.to/lastmile_qr_scan"}, "is_reserved": 0, "fusion_lon": 0.0, "fusion_lat": 0.0, "lon": -77.03181083333334, "name": "a37984adbece2faac34ae90661442a4c"}, {"bike_id": "48882c4120538b3b4cb2e2ac95162392", "type": "electric_scooter", "is_disabled": 0, "lat": 38.911919, "rental_uris": {"ios": "https://dc.lft.to/lastmile_qr_scan", "android": "https://dc.lft.to/lastmile_qr_scan"}, "is_reserved": 0, "fusion_lon": 0.0, "fusion_lat": 0.0, "lon": -77.038334, "name": "48882c4120538b3b4cb2e2ac95162392"}, {"bike_id": "89bca83d6ed73cf3b45f87f36900d0eb", "type": "electric_scooter", "is_disabled": 0, "lat": 38.9095395, "rental_uris": {"ios": "https://dc.lft.to/lastmile_qr_scan", "android": "https://dc.lft.to/lastmile_qr_scan"}, "is_reserved": 0, "fusion_lon": 0.0, "fusion_lat": 0.0, "lon": -77.04871766666666, "name": "89bca83d6ed73cf3b45f87f36900d0eb"}, {"bike_id": "e1e97dbeac8022cc403566d9505db6be", "type": "electric_scooter", "is_disabled": 0, "lat": 38.9156625, "rental_uris": {"ios": "https://dc.lft.to/lastmile_qr_scan", "android": "https://dc.lft.to/lastmile_qr_scan"}, "is_reserved": 0, "fusion_lon": 0.0, "fusion_lat": 0.0, "lon": -77.01040233333333, "name": "e1e97dbeac8022cc403566d9505db6be"}, {"bike_id": "356f942fb4d81ea187d1dd7b929e4e40", "type": "electric_scooter", "is_disabled": 0, "lat": 38.920854, "rental_uris": {"ios": "https://dc.lft.to/lastmile_qr_scan", "android": "https://dc.lft.to/lastmile_qr_scan"}, "is_reserved": 0, "fusion_lon": 0.0, "fusion_lat": 0.0, "lon": -77.0315625, "name": "356f942fb4d81ea187d1dd7b929e4e40"}, {"bike_id": "4d14fe9d0be5696f8b032fa4fd46aff2", "type": "electric_scooter", "is_disabled": 0, "lat": 38.920845, "rental_uris": {"ios": "https://dc.lft.to/lastmile_qr_scan", "android": "https://dc.lft.to/lastmile_qr_scan"}, "is_reserved": 0, "fusion_lon": 0.0, "fusion_lat": 0.0, "lon": -77.02299033333334, "name": "4d14fe9d0be5696f8b032fa4fd46aff2"}, {"bike_id": "f910249d28fc3828c7af036d9a6adb24", "type": "electric_scooter", "is_disabled": 0, "lat": 38.8924075, "rental_uris": {"ios": "https://dc.lft.to/lastmile_qr_scan", "android": "https://dc.lft.to/lastmile_qr_scan"}, "is_reserved": 0, "fusion_lon": 0.0, "fusion_lat": 0.0, "lon": -77.04498766666667, "name": "f910249d28fc3828c7af036d9a6adb24"}, {"bike_id": "5482c93c4a84dc5cb00cd73017e91538", "type": "electric_scooter", "is_disabled": 0, "lat": 38.901317, "rental_uris": {"ios": "https://dc.lft.to/lastmile_qr_scan", "android": "https://dc.lft.to/lastmile_qr_scan"}, "is_reserved": 0, "fusion_lon": 0.0, "fusion_lat": 0.0, "lon": -77.01837383333333, "name": "5482c93c4a84dc5cb00cd73017e91538"}, {"bike_id": "12fcb22c38d717c23f559c48f404cd53", "type": "electric_scooter", "is_disabled": 0, "lat": 38.912747833333334, "rental_uris": {"ios": "https://dc.lft.to/lastmile_qr_scan", "android": "https://dc.lft.to/lastmile_qr_scan"}, "is_reserved": 0, "fusion_lon": 0.0, "fusion_lat": 0.0, "lon": -77.02301366666667, "name": "12fcb22c38d717c23f559c48f404cd53"}, {"bike_id": "11a79979bd3e6043e849936ef6e8a3ad", "type": "electric_scooter", "is_disabled": 0, "lat": 38.91915133333333, "rental_uris": {"ios": "https://dc.lft.to/lastmile_qr_scan", "android": "https://dc.lft.to/lastmile_qr_scan"}, "is_reserved": 0, "fusion_lon": 0.0, "fusion_lat": 0.0, "lon": -77.0136005, "name": "11a79979bd3e6043e849936ef6e8a3ad"}, {"bike_id": "7e28b004e7314670778f8b9e4731a790", "type": "electric_scooter", "is_disabled": 0, "lat": 38.903806333333335, "rental_uris": {"ios": "https://dc.lft.to/lastmile_qr_scan", "android": "https://dc.lft.to/lastmile_qr_scan"}, "is_reserved": 0, "fusion_lon": 0.0, "fusion_lat": 0.0, "lon": -77.02929433333334, "name": "7e28b004e7314670778f8b9e4731a790"}, {"bike_id": "778cc6794fac16e17f37fa67631cbd19", "type": "electric_scooter", "is_disabled": 0, "lat": 38.928826666666666, "rental_uris": {"ios": "https://dc.lft.to/lastmile_qr_scan", "android": "https://dc.lft.to/lastmile_qr_scan"}, "is_reserved": 0, "fusion_lon": 0.0, "fusion_lat": 0.0, "lon": -77.02696216666666, "name": "778cc6794fac16e17f37fa67631cbd19"}, {"bike_id": "b800bc7068a6ba4663414be99c4dbc18", "type": "electric_scooter", "is_disabled": 0, "lat": 38.93482983333333, "rental_uris": {"ios": "https://dc.lft.to/lastmile_qr_scan", "android": "https://dc.lft.to/lastmile_qr_scan"}, "is_reserved": 0, "fusion_lon": 0.0, "fusion_lat": 0.0, "lon": -77.08150516666667, "name": "b800bc7068a6ba4663414be99c4dbc18"}, {"bike_id": "9257f4741cc03cfc12dd261d4d9f9c35", "type": "electric_scooter", "is_disabled": 0, "lat": 38.892392, "rental_uris": {"ios": "https://dc.lft.to/lastmile_qr_scan", "android": "https://dc.lft.to/lastmile_qr_scan"}, "is_reserved": 0, "fusion_lon": 0.0, "fusion_lat": 0.0, "lon": -76.94097933333333, "name": "9257f4741cc03cfc12dd261d4d9f9c35"}, {"bike_id": "bc3e6c8d90e1ab35042d633ea710cafa", "type": "electric_scooter", "is_disabled": 0, "lat": 38.882744333333335, "rental_uris": {"ios": "https://dc.lft.to/lastmile_qr_scan", "android": "https://dc.lft.to/lastmile_qr_scan"}, "is_reserved": 0, "fusion_lon": 0.0, "fusion_lat": 0.0, "lon": -76.99019983333334, "name": "bc3e6c8d90e1ab35042d633ea710cafa"}, {"bike_id": "865c56b8b7a13640a7edefafb29df0cb", "type": "electric_scooter", "is_disabled": 0, "lat": 38.916075666666664, "rental_uris": {"ios": "https://dc.lft.to/lastmile_qr_scan", "android": "https://dc.lft.to/lastmile_qr_scan"}, "is_reserved": 0, "fusion_lon": 0.0, "fusion_lat": 0.0, "lon": -77.0230005, "name": "865c56b8b7a13640a7edefafb29df0cb"}, {"bike_id": "f09f14821154410404b3ee7c6e81c809", "type": "electric_scooter", "is_disabled": 0, "lat": 38.916386833333334, "rental_uris": {"ios": "https://dc.lft.to/lastmile_qr_scan", "android": "https://dc.lft.to/lastmile_qr_scan"}, "is_reserved": 0, "fusion_lon": 0.0, "fusion_lat": 0.0, "lon": -77.00043483333333, "name": "f09f14821154410404b3ee7c6e81c809"}, {"bike_id": "569f63d9875f5760ed774c8de1b4c710", "type": "electric_scooter", "is_disabled": 0, "lat": 38.94713183333333, "rental_uris": {"ios": "https://dc.lft.to/lastmile_qr_scan", "android": "https://dc.lft.to/lastmile_qr_scan"}, "is_reserved": 0, "fusion_lon": 0.0, "fusion_lat": 0.0, "lon": -77.03320716666667, "name": "569f63d9875f5760ed774c8de1b4c710"}, {"bike_id": "7459749d9d660d042ae8b1f05faed04a", "type": "electric_scooter", "is_disabled": 0, "lat": 38.92863883333333, "rental_uris": {"ios": "https://dc.lft.to/lastmile_qr_scan", "android": "https://dc.lft.to/lastmile_qr_scan"}, "is_reserved": 0, "fusion_lon": 0.0, "fusion_lat": 0.0, "lon": -77.036114, "name": "7459749d9d660d042ae8b1f05faed04a"}, {"bike_id": "ee5e2198ebc13d3a7c809304c5265255", "type": "electric_scooter", "is_disabled": 0, "lat": 38.9153285, "rental_uris": {"ios": "https://dc.lft.to/lastmile_qr_scan", "android": "https://dc.lft.to/lastmile_qr_scan"}, "is_reserved": 0, "fusion_lon": 0.0, "fusion_lat": 0.0, "lon": -77.019961, "name": "ee5e2198ebc13d3a7c809304c5265255"}, {"bike_id": "7f51476ccc038f697082265a68e22ac6", "type": "electric_scooter", "is_disabled": 0, "lat": 38.888825833333335, "rental_uris": {"ios": "https://dc.lft.to/lastmile_qr_scan", "android": "https://dc.lft.to/lastmile_qr_scan"}, "is_reserved": 0, "fusion_lon": 0.0, "fusion_lat": 0.0, "lon": -76.99040366666667, "name": "7f51476ccc038f697082265a68e22ac6"}, {"bike_id": "49acc32071fe5dac945bf9ee87f5e2f9", "type": "electric_scooter", "is_disabled": 0, "lat": 38.898003, "rental_uris": {"ios": "https://dc.lft.to/lastmile_qr_scan", "android": "https://dc.lft.to/lastmile_qr_scan"}, "is_reserved": 0, "fusion_lon": 0.0, "fusion_lat": 0.0, "lon": -77.0247675, "name": "49acc32071fe5dac945bf9ee87f5e2f9"}, {"bike_id": "0d10d16e0fc769f10685d19f9a3c36eb", "type": "electric_scooter", "is_disabled": 0, "lat": 38.935120166666664, "rental_uris": {"ios": "https://dc.lft.to/lastmile_qr_scan", "android": "https://dc.lft.to/lastmile_qr_scan"}, "is_reserved": 0, "fusion_lon": 0.0, "fusion_lat": 0.0, "lon": -77.0329035, "name": "0d10d16e0fc769f10685d19f9a3c36eb"}, {"bike_id": "1d673fee7139f474eeefd50851bf9e7f", "type": "electric_scooter", "is_disabled": 0, "lat": 38.941866833333336, "rental_uris": {"ios": "https://dc.lft.to/lastmile_qr_scan", "android": "https://dc.lft.to/lastmile_qr_scan"}, "is_reserved": 0, "fusion_lon": 0.0, "fusion_lat": 0.0, "lon": -77.02489016666667, "name": "1d673fee7139f474eeefd50851bf9e7f"}, {"bike_id": "729efdccd0d98b51668024f20b9a4f99", "type": "electric_scooter", "is_disabled": 0, "lat": 38.85972483333333, "rental_uris": {"ios": "https://dc.lft.to/lastmile_qr_scan", "android": "https://dc.lft.to/lastmile_qr_scan"}, "is_reserved": 0, "fusion_lon": 0.0, "fusion_lat": 0.0, "lon": -76.99157833333334, "name": "729efdccd0d98b51668024f20b9a4f99"}, {"bike_id": "b722e4e75247afb3c83017f4f607dbcc", "type": "electric_scooter", "is_disabled": 0, "lat": 38.956559666666664, "rental_uris": {"ios": "https://dc.lft.to/lastmile_qr_scan", "android": "https://dc.lft.to/lastmile_qr_scan"}, "is_reserved": 0, "fusion_lon": 0.0, "fusion_lat": 0.0, "lon": -77.01963816666667, "name": "b722e4e75247afb3c83017f4f607dbcc"}, {"bike_id": "5d7668fcbca8a7c370fb75ac0b750c5b", "type": "electric_scooter", "is_disabled": 0, "lat": 38.92025533333333, "rental_uris": {"ios": "https://dc.lft.to/lastmile_qr_scan", "android": "https://dc.lft.to/lastmile_qr_scan"}, "is_reserved": 0, "fusion_lon": 0.0, "fusion_lat": 0.0, "lon": -77.0418565, "name": "5d7668fcbca8a7c370fb75ac0b750c5b"}, {"bike_id": "fe287e8d2ba7302cf20f3065d10c6fc7", "type": "electric_scooter", "is_disabled": 0, "lat": 38.93273083333333, "rental_uris": {"ios": "https://dc.lft.to/lastmile_qr_scan", "android": "https://dc.lft.to/lastmile_qr_scan"}, "is_reserved": 0, "fusion_lon": 0.0, "fusion_lat": 0.0, "lon": -77.03497966666667, "name": "fe287e8d2ba7302cf20f3065d10c6fc7"}, {"bike_id": "5bb325d95b9ee8a21c58416cb77fda37", "type": "electric_scooter", "is_disabled": 0, "lat": 38.922379666666664, "rental_uris": {"ios": "https://dc.lft.to/lastmile_qr_scan", "android": "https://dc.lft.to/lastmile_qr_scan"}, "is_reserved": 0, "fusion_lon": 0.0, "fusion_lat": 0.0, "lon": -77.04707266666666, "name": "5bb325d95b9ee8a21c58416cb77fda37"}, {"bike_id": "59dd94bdadeb22af203e9f4c5fb12a7f", "type": "electric_scooter", "is_disabled": 0, "lat": 38.9564185, "rental_uris": {"ios": "https://dc.lft.to/lastmile_qr_scan", "android": "https://dc.lft.to/lastmile_qr_scan"}, "is_reserved": 0, "fusion_lon": 0.0, "fusion_lat": 0.0, "lon": -77.03630333333334, "name": "59dd94bdadeb22af203e9f4c5fb12a7f"}, {"bike_id": "8133d46c6a95c56f2159ab67a5de936b", "type": "electric_scooter", "is_disabled": 0, "lat": 38.89505233333333, "rental_uris": {"ios": "https://dc.lft.to/lastmile_qr_scan", "android": "https://dc.lft.to/lastmile_qr_scan"}, "is_reserved": 0, "fusion_lon": 0.0, "fusion_lat": 0.0, "lon": -77.04339016666667, "name": "8133d46c6a95c56f2159ab67a5de936b"}, {"bike_id": "ffd338ced2f8abdbd0c7d1673f93e9e6", "type": "electric_scooter", "is_disabled": 0, "lat": 38.9079755, "rental_uris": {"ios": "https://dc.lft.to/lastmile_qr_scan", "android": "https://dc.lft.to/lastmile_qr_scan"}, "is_reserved": 0, "fusion_lon": 0.0, "fusion_lat": 0.0, "lon": -77.02692816666666, "name": "ffd338ced2f8abdbd0c7d1673f93e9e6"}, {"bike_id": "cf8f7d108bee73bbbd190bbca8427e86", "type": "electric_scooter", "is_disabled": 0, "lat": 38.93711183333333, "rental_uris": {"ios": "https://dc.lft.to/lastmile_qr_scan", "android": "https://dc.lft.to/lastmile_qr_scan"}, "is_reserved": 0, "fusion_lon": 0.0, "fusion_lat": 0.0, "lon": -77.036333, "name": "cf8f7d108bee73bbbd190bbca8427e86"}, {"bike_id": "4ecc933ede230086bc8b09e3f00fd25f", "type": "electric_scooter", "is_disabled": 0, "lat": 38.885397833333336, "rental_uris": {"ios": "https://dc.lft.to/lastmile_qr_scan", "android": "https://dc.lft.to/lastmile_qr_scan"}, "is_reserved": 0, "fusion_lon": 0.0, "fusion_lat": 0.0, "lon": -77.00578166666666, "name": "4ecc933ede230086bc8b09e3f00fd25f"}, {"bike_id": "8d293fc8a7f9fe7e7f9fac6ba61b3d13", "type": "electric_scooter", "is_disabled": 0, "lat": 38.903532166666665, "rental_uris": {"ios": "https://dc.lft.to/lastmile_qr_scan", "android": "https://dc.lft.to/lastmile_qr_scan"}, "is_reserved": 0, "fusion_lon": 0.0, "fusion_lat": 0.0, "lon": -76.99220416666667, "name": "8d293fc8a7f9fe7e7f9fac6ba61b3d13"}, {"bike_id": "66faff632ef98ea135d038855c16dc2f", "type": "electric_scooter", "is_disabled": 0, "lat": 38.90020533333333, "rental_uris": {"ios": "https://dc.lft.to/lastmile_qr_scan", "android": "https://dc.lft.to/lastmile_qr_scan"}, "is_reserved": 0, "fusion_lon": 0.0, "fusion_lat": 0.0, "lon": -77.038112, "name": "66faff632ef98ea135d038855c16dc2f"}, {"bike_id": "cc64de2c297f38c7c014c150aef70b1c", "type": "electric_scooter", "is_disabled": 0, "lat": 38.88713083333333, "rental_uris": {"ios": "https://dc.lft.to/lastmile_qr_scan", "android": "https://dc.lft.to/lastmile_qr_scan"}, "is_reserved": 0, "fusion_lon": 0.0, "fusion_lat": 0.0, "lon": -77.02181833333333, "name": "cc64de2c297f38c7c014c150aef70b1c"}, {"bike_id": "6bf3d48ba53e88225256e0bf252f16d2", "type": "electric_bike", "is_disabled": 0, "lat": 39.05112616666667, "rental_uris": {"ios": "https://dc.lft.to/lastmile_qr_scan", "android": "https://dc.lft.to/lastmile_qr_scan"}, "is_reserved": 0, "fusion_lon": 0.0, "fusion_lat": 0.0, "lon": -77.1175195, "name": "6bf3d48ba53e88225256e0bf252f16d2"}, {"bike_id": "6d2629e899176a068b2ce2a5c914d9be", "type": "electric_scooter", "is_disabled": 0, "lat": 38.909545, "rental_uris": {"ios": "https://dc.lft.to/lastmile_qr_scan", "android": "https://dc.lft.to/lastmile_qr_scan"}, "is_reserved": 0, "fusion_lon": 0.0, "fusion_lat": 0.0, "lon": -77.0487025, "name": "6d2629e899176a068b2ce2a5c914d9be"}, {"bike_id": "3ec429b9474aaad492d811134b81d8f6", "type": "electric_scooter", "is_disabled": 0, "lat": 38.89889866666667, "rental_uris": {"ios": "https://dc.lft.to/lastmile_qr_scan", "android": "https://dc.lft.to/lastmile_qr_scan"}, "is_reserved": 0, "fusion_lon": 0.0, "fusion_lat": 0.0, "lon": -76.97682866666666, "name": "3ec429b9474aaad492d811134b81d8f6"}, {"bike_id": "4ca2dd0ed5d8571efb1ed398ba1abebf", "type": "electric_scooter", "is_disabled": 0, "lat": 38.892266, "rental_uris": {"ios": "https://dc.lft.to/lastmile_qr_scan", "android": "https://dc.lft.to/lastmile_qr_scan"}, "is_reserved": 0, "fusion_lon": 0.0, "fusion_lat": 0.0, "lon": -77.02265733333333, "name": "4ca2dd0ed5d8571efb1ed398ba1abebf"}, {"bike_id": "43091d647edd1ecc51aba57682a9c780", "type": "electric_scooter", "is_disabled": 0, "lat": 38.914169666666666, "rental_uris": {"ios": "https://dc.lft.to/lastmile_qr_scan", "android": "https://dc.lft.to/lastmile_qr_scan"}, "is_reserved": 0, "fusion_lon": 0.0, "fusion_lat": 0.0, "lon": -77.02182083333334, "name": "43091d647edd1ecc51aba57682a9c780"}, {"bike_id": "44bd5b04b3eddaafb4db9040709872f1", "type": "electric_scooter", "is_disabled": 0, "lat": 38.899565, "rental_uris": {"ios": "https://dc.lft.to/lastmile_qr_scan", "android": "https://dc.lft.to/lastmile_qr_scan"}, "is_reserved": 0, "fusion_lon": 0.0, "fusion_lat": 0.0, "lon": -77.02192283333333, "name": "44bd5b04b3eddaafb4db9040709872f1"}, {"bike_id": "667c60ef2380ff6d833f22b6e44a8df3", "type": "electric_scooter", "is_disabled": 0, "lat": 38.897589833333335, "rental_uris": {"ios": "https://dc.lft.to/lastmile_qr_scan", "android": "https://dc.lft.to/lastmile_qr_scan"}, "is_reserved": 0, "fusion_lon": 0.0, "fusion_lat": 0.0, "lon": -77.02786183333333, "name": "667c60ef2380ff6d833f22b6e44a8df3"}, {"bike_id": "e17a5db7ff645345e7409b49603edfa6", "type": "electric_scooter", "is_disabled": 0, "lat": 38.91334716666667, "rental_uris": {"ios": "https://dc.lft.to/lastmile_qr_scan", "android": "https://dc.lft.to/lastmile_qr_scan"}, "is_reserved": 0, "fusion_lon": 0.0, "fusion_lat": 0.0, "lon": -77.04042083333333, "name": "e17a5db7ff645345e7409b49603edfa6"}, {"bike_id": "4cc29457551bd2c935ce9bd3b7e83db1", "type": "electric_scooter", "is_disabled": 0, "lat": 38.95709266666667, "rental_uris": {"ios": "https://dc.lft.to/lastmile_qr_scan", "android": "https://dc.lft.to/lastmile_qr_scan"}, "is_reserved": 0, "fusion_lon": 0.0, "fusion_lat": 0.0, "lon": -77.02401033333334, "name": "4cc29457551bd2c935ce9bd3b7e83db1"}, {"bike_id": "486ffd17400e7a309f61df04ad48705f", "type": "electric_bike", "is_disabled": 0, "lat": 38.81936866666667, "rental_uris": {"ios": "https://dc.lft.to/lastmile_qr_scan", "android": "https://dc.lft.to/lastmile_qr_scan"}, "is_reserved": 0, "fusion_lon": 0.0, "fusion_lat": 0.0, "lon": -77.00199266666667, "name": "486ffd17400e7a309f61df04ad48705f"}, {"bike_id": "c2968a89bf86329ae5ead1816b0f557e", "type": "electric_scooter", "is_disabled": 0, "lat": 38.921982666666665, "rental_uris": {"ios": "https://dc.lft.to/lastmile_qr_scan", "android": "https://dc.lft.to/lastmile_qr_scan"}, "is_reserved": 0, "fusion_lon": 0.0, "fusion_lat": 0.0, "lon": -77.020298, "name": "c2968a89bf86329ae5ead1816b0f557e"}, {"bike_id": "e97ad1106696badd308fcbb4abb486b4", "type": "electric_scooter", "is_disabled": 0, "lat": 38.91674833333333, "rental_uris": {"ios": "https://dc.lft.to/lastmile_qr_scan", "android": "https://dc.lft.to/lastmile_qr_scan"}, "is_reserved": 0, "fusion_lon": 0.0, "fusion_lat": 0.0, "lon": -77.03203383333333, "name": "e97ad1106696badd308fcbb4abb486b4"}, {"bike_id": "fda981a37145bde7186637843be256bd", "type": "electric_scooter", "is_disabled": 0, "lat": 38.930626, "rental_uris": {"ios": "https://dc.lft.to/lastmile_qr_scan", "android": "https://dc.lft.to/lastmile_qr_scan"}, "is_reserved": 0, "fusion_lon": 0.0, "fusion_lat": 0.0, "lon": -77.038955, "name": "fda981a37145bde7186637843be256bd"}, {"bike_id": "9220fdcc59b712bfdd7d26bd5e1ddb50", "type": "electric_scooter", "is_disabled": 0, "lat": 38.93188283333333, "rental_uris": {"ios": "https://dc.lft.to/lastmile_qr_scan", "android": "https://dc.lft.to/lastmile_qr_scan"}, "is_reserved": 0, "fusion_lon": 0.0, "fusion_lat": 0.0, "lon": -77.0842865, "name": "9220fdcc59b712bfdd7d26bd5e1ddb50"}, {"bike_id": "33f823b63badf81f40dbb01549d043cb", "type": "electric_scooter", "is_disabled": 0, "lat": 38.9253715, "rental_uris": {"ios": "https://dc.lft.to/lastmile_qr_scan", "android": "https://dc.lft.to/lastmile_qr_scan"}, "is_reserved": 0, "fusion_lon": 0.0, "fusion_lat": 0.0, "lon": -77.03861416666666, "name": "33f823b63badf81f40dbb01549d043cb"}, {"bike_id": "74d1868bdbdb1156f351db1cf50e4db6", "type": "electric_scooter", "is_disabled": 0, "lat": 38.90571666666666, "rental_uris": {"ios": "https://dc.lft.to/lastmile_qr_scan", "android": "https://dc.lft.to/lastmile_qr_scan"}, "is_reserved": 0, "fusion_lon": 0.0, "fusion_lat": 0.0, "lon": -76.97630516666666, "name": "74d1868bdbdb1156f351db1cf50e4db6"}, {"bike_id": "4da30b8c17a702d24bc12516c9e39ec5", "type": "electric_scooter", "is_disabled": 0, "lat": 38.90140666666667, "rental_uris": {"ios": "https://dc.lft.to/lastmile_qr_scan", "android": "https://dc.lft.to/lastmile_qr_scan"}, "is_reserved": 0, "fusion_lon": 0.0, "fusion_lat": 0.0, "lon": -77.01488433333333, "name": "4da30b8c17a702d24bc12516c9e39ec5"}, {"bike_id": "fc13f344186d9047aed80c6bf350ecea", "type": "electric_scooter", "is_disabled": 0, "lat": 38.9284645, "rental_uris": {"ios": "https://dc.lft.to/lastmile_qr_scan", "android": "https://dc.lft.to/lastmile_qr_scan"}, "is_reserved": 0, "fusion_lon": 0.0, "fusion_lat": 0.0, "lon": -77.03612, "name": "fc13f344186d9047aed80c6bf350ecea"}, {"bike_id": "4755f9bf463ca91c4b38e69942822ff7", "type": "electric_scooter", "is_disabled": 0, "lat": 38.904665, "rental_uris": {"ios": "https://dc.lft.to/lastmile_qr_scan", "android": "https://dc.lft.to/lastmile_qr_scan"}, "is_reserved": 0, "fusion_lon": 0.0, "fusion_lat": 0.0, "lon": -77.04343616666667, "name": "4755f9bf463ca91c4b38e69942822ff7"}, {"bike_id": "984d176fc7874ffc2f1859901b6c0ac7", "type": "electric_scooter", "is_disabled": 0, "lat": 38.924827, "rental_uris": {"ios": "https://dc.lft.to/lastmile_qr_scan", "android": "https://dc.lft.to/lastmile_qr_scan"}, "is_reserved": 0, "fusion_lon": 0.0, "fusion_lat": 0.0, "lon": -77.03100933333333, "name": "984d176fc7874ffc2f1859901b6c0ac7"}, {"bike_id": "f8a869fa3ae55ca437f5a3f2194880ff", "type": "electric_scooter", "is_disabled": 0, "lat": 38.922476333333336, "rental_uris": {"ios": "https://dc.lft.to/lastmile_qr_scan", "android": "https://dc.lft.to/lastmile_qr_scan"}, "is_reserved": 0, "fusion_lon": 0.0, "fusion_lat": 0.0, "lon": -77.030839, "name": "f8a869fa3ae55ca437f5a3f2194880ff"}, {"bike_id": "e4e4bde1795b70889cbc1a78724f3c86", "type": "electric_bike", "is_disabled": 0, "lat": 38.9355105, "rental_uris": {"ios": "https://dc.lft.to/lastmile_qr_scan", "android": "https://dc.lft.to/lastmile_qr_scan"}, "is_reserved": 0, "fusion_lon": 0.0, "fusion_lat": 0.0, "lon": -76.93900066666667, "name": "e4e4bde1795b70889cbc1a78724f3c86"}, {"bike_id": "bb12ae276ed83f444afd4cf429367c80", "type": "electric_scooter", "is_disabled": 0, "lat": 38.870945166666665, "rental_uris": {"ios": "https://dc.lft.to/lastmile_qr_scan", "android": "https://dc.lft.to/lastmile_qr_scan"}, "is_reserved": 0, "fusion_lon": 0.0, "fusion_lat": 0.0, "lon": -77.01203283333334, "name": "bb12ae276ed83f444afd4cf429367c80"}, {"bike_id": "b84538578b10c48725b197505c8e2a22", "type": "electric_scooter", "is_disabled": 0, "lat": 38.912694, "rental_uris": {"ios": "https://dc.lft.to/lastmile_qr_scan", "android": "https://dc.lft.to/lastmile_qr_scan"}, "is_reserved": 0, "fusion_lon": 0.0, "fusion_lat": 0.0, "lon": -77.02956333333333, "name": "b84538578b10c48725b197505c8e2a22"}, {"bike_id": "12830d272d71764d76fa8aceadaa04d3", "type": "electric_scooter", "is_disabled": 0, "lat": 38.92767383333333, "rental_uris": {"ios": "https://dc.lft.to/lastmile_qr_scan", "android": "https://dc.lft.to/lastmile_qr_scan"}, "is_reserved": 0, "fusion_lon": 0.0, "fusion_lat": 0.0, "lon": -77.02778666666667, "name": "12830d272d71764d76fa8aceadaa04d3"}, {"bike_id": "68f4fd24f79ece9cc6a854bd33beb32d", "type": "electric_bike", "is_disabled": 0, "lat": 38.9707975, "rental_uris": {"ios": "https://dc.lft.to/lastmile_qr_scan", "android": "https://dc.lft.to/lastmile_qr_scan"}, "is_reserved": 0, "fusion_lon": 0.0, "fusion_lat": 0.0, "lon": -76.93615483333333, "name": "68f4fd24f79ece9cc6a854bd33beb32d"}, {"bike_id": "139a8cc3bf73b96c4d320bd57675d334", "type": "electric_scooter", "is_disabled": 0, "lat": 38.900634333333336, "rental_uris": {"ios": "https://dc.lft.to/lastmile_qr_scan", "android": "https://dc.lft.to/lastmile_qr_scan"}, "is_reserved": 0, "fusion_lon": 0.0, "fusion_lat": 0.0, "lon": -76.93384466666667, "name": "139a8cc3bf73b96c4d320bd57675d334"}, {"bike_id": "4a9a7adb9c3993bd96ea69ed7578a30b", "type": "electric_scooter", "is_disabled": 0, "lat": 38.914783166666666, "rental_uris": {"ios": "https://dc.lft.to/lastmile_qr_scan", "android": "https://dc.lft.to/lastmile_qr_scan"}, "is_reserved": 0, "fusion_lon": 0.0, "fusion_lat": 0.0, "lon": -77.04562516666667, "name": "4a9a7adb9c3993bd96ea69ed7578a30b"}, {"bike_id": "fdf870f2b0d3102ef0dcff9f24c4088e", "type": "electric_bike", "is_disabled": 0, "lat": 38.920716166666665, "rental_uris": {"ios": "https://dc.lft.to/lastmile_qr_scan", "android": "https://dc.lft.to/lastmile_qr_scan"}, "is_reserved": 0, "fusion_lon": 0.0, "fusion_lat": 0.0, "lon": -77.024224, "name": "fdf870f2b0d3102ef0dcff9f24c4088e"}, {"bike_id": "ba17d5503620d2446eeb4847a70feb23", "type": "electric_scooter", "is_disabled": 0, "lat": 38.86708816666667, "rental_uris": {"ios": "https://dc.lft.to/lastmile_qr_scan", "android": "https://dc.lft.to/lastmile_qr_scan"}, "is_reserved": 0, "fusion_lon": 0.0, "fusion_lat": 0.0, "lon": -76.98714666666666, "name": "ba17d5503620d2446eeb4847a70feb23"}, {"bike_id": "ccf8f2be5593ca4dbd08205d65edf094", "type": "electric_scooter", "is_disabled": 0, "lat": 38.89531183333333, "rental_uris": {"ios": "https://dc.lft.to/lastmile_qr_scan", "android": "https://dc.lft.to/lastmile_qr_scan"}, "is_reserved": 0, "fusion_lon": 0.0, "fusion_lat": 0.0, "lon": -76.94891383333334, "name": "ccf8f2be5593ca4dbd08205d65edf094"}, {"bike_id": "6d9c46db168aaa47ad3567b152d2eb90", "type": "electric_scooter", "is_disabled": 0, "lat": 38.9144375, "rental_uris": {"ios": "https://dc.lft.to/lastmile_qr_scan", "android": "https://dc.lft.to/lastmile_qr_scan"}, "is_reserved": 0, "fusion_lon": 0.0, "fusion_lat": 0.0, "lon": -77.04493583333333, "name": "6d9c46db168aaa47ad3567b152d2eb90"}, {"bike_id": "cd561d5f9fe183e4f179477f2ff6543a", "type": "electric_scooter", "is_disabled": 0, "lat": 38.8974035, "rental_uris": {"ios": "https://dc.lft.to/lastmile_qr_scan", "android": "https://dc.lft.to/lastmile_qr_scan"}, "is_reserved": 0, "fusion_lon": 0.0, "fusion_lat": 0.0, "lon": -76.947198, "name": "cd561d5f9fe183e4f179477f2ff6543a"}, {"bike_id": "7ecc22aa9b05163f6b90b2a95f19da46", "type": "electric_scooter", "is_disabled": 0, "lat": 38.905667666666666, "rental_uris": {"ios": "https://dc.lft.to/lastmile_qr_scan", "android": "https://dc.lft.to/lastmile_qr_scan"}, "is_reserved": 0, "fusion_lon": 0.0, "fusion_lat": 0.0, "lon": -77.00590616666666, "name": "7ecc22aa9b05163f6b90b2a95f19da46"}, {"bike_id": "27984480296f28814c9d7a3404325a0c", "type": "electric_scooter", "is_disabled": 0, "lat": 38.92876416666667, "rental_uris": {"ios": "https://dc.lft.to/lastmile_qr_scan", "android": "https://dc.lft.to/lastmile_qr_scan"}, "is_reserved": 0, "fusion_lon": 0.0, "fusion_lat": 0.0, "lon": -77.027027, "name": "27984480296f28814c9d7a3404325a0c"}, {"bike_id": "8c7b5204e4610f7f396b3f298fd9dd60", "type": "electric_scooter", "is_disabled": 0, "lat": 38.91268433333333, "rental_uris": {"ios": "https://dc.lft.to/lastmile_qr_scan", "android": "https://dc.lft.to/lastmile_qr_scan"}, "is_reserved": 0, "fusion_lon": 0.0, "fusion_lat": 0.0, "lon": -77.0474695, "name": "8c7b5204e4610f7f396b3f298fd9dd60"}, {"bike_id": "0deca2208a4b620279b79fe4b1659935", "type": "electric_scooter", "is_disabled": 0, "lat": 38.91536266666667, "rental_uris": {"ios": "https://dc.lft.to/lastmile_qr_scan", "android": "https://dc.lft.to/lastmile_qr_scan"}, "is_reserved": 0, "fusion_lon": 0.0, "fusion_lat": 0.0, "lon": -77.02177033333334, "name": "0deca2208a4b620279b79fe4b1659935"}, {"bike_id": "7eeb8474f924338379e14fc6999a268d", "type": "electric_scooter", "is_disabled": 0, "lat": 38.923339, "rental_uris": {"ios": "https://dc.lft.to/lastmile_qr_scan", "android": "https://dc.lft.to/lastmile_qr_scan"}, "is_reserved": 0, "fusion_lon": 0.0, "fusion_lat": 0.0, "lon": -77.05328766666666, "name": "7eeb8474f924338379e14fc6999a268d"}, {"bike_id": "ecdaedd2da84ea1286c91bfa8af531ab", "type": "electric_scooter", "is_disabled": 0, "lat": 38.9297945, "rental_uris": {"ios": "https://dc.lft.to/lastmile_qr_scan", "android": "https://dc.lft.to/lastmile_qr_scan"}, "is_reserved": 0, "fusion_lon": 0.0, "fusion_lat": 0.0, "lon": -77.013046, "name": "ecdaedd2da84ea1286c91bfa8af531ab"}, {"bike_id": "a66798555fd1573cadb4a4f3fe6b78d6", "type": "electric_scooter", "is_disabled": 0, "lat": 38.941482666666666, "rental_uris": {"ios": "https://dc.lft.to/lastmile_qr_scan", "android": "https://dc.lft.to/lastmile_qr_scan"}, "is_reserved": 0, "fusion_lon": 0.0, "fusion_lat": 0.0, "lon": -77.02328933333334, "name": "a66798555fd1573cadb4a4f3fe6b78d6"}, {"bike_id": "05ccffa2fbb3375d9beb105682c3bc7d", "type": "electric_scooter", "is_disabled": 0, "lat": 38.90548533333333, "rental_uris": {"ios": "https://dc.lft.to/lastmile_qr_scan", "android": "https://dc.lft.to/lastmile_qr_scan"}, "is_reserved": 0, "fusion_lon": 0.0, "fusion_lat": 0.0, "lon": -77.0217805, "name": "05ccffa2fbb3375d9beb105682c3bc7d"}, {"bike_id": "2e3b1c9a2db23471259cedcd3c3112b5", "type": "electric_scooter", "is_disabled": 0, "lat": 38.90269633333333, "rental_uris": {"ios": "https://dc.lft.to/lastmile_qr_scan", "android": "https://dc.lft.to/lastmile_qr_scan"}, "is_reserved": 0, "fusion_lon": 0.0, "fusion_lat": 0.0, "lon": -77.01773966666667, "name": "2e3b1c9a2db23471259cedcd3c3112b5"}, {"bike_id": "44a879be32c0e9d453e6a5310ac9e0a5", "type": "electric_scooter", "is_disabled": 0, "lat": 38.9224485, "rental_uris": {"ios": "https://dc.lft.to/lastmile_qr_scan", "android": "https://dc.lft.to/lastmile_qr_scan"}, "is_reserved": 0, "fusion_lon": 0.0, "fusion_lat": 0.0, "lon": -77.02984933333333, "name": "44a879be32c0e9d453e6a5310ac9e0a5"}, {"bike_id": "c73ab2cb2d4e70012cd417b713e8f215", "type": "electric_scooter", "is_disabled": 0, "lat": 38.926080166666665, "rental_uris": {"ios": "https://dc.lft.to/lastmile_qr_scan", "android": "https://dc.lft.to/lastmile_qr_scan"}, "is_reserved": 0, "fusion_lon": 0.0, "fusion_lat": 0.0, "lon": -77.05696816666666, "name": "c73ab2cb2d4e70012cd417b713e8f215"}, {"bike_id": "02b10df92ea0b0739d7f1c7edb1e5c1d", "type": "electric_bike", "is_disabled": 0, "lat": 38.836102833333335, "rental_uris": {"ios": "https://dc.lft.to/lastmile_qr_scan", "android": "https://dc.lft.to/lastmile_qr_scan"}, "is_reserved": 0, "fusion_lon": 0.0, "fusion_lat": 0.0, "lon": -77.003823, "name": "02b10df92ea0b0739d7f1c7edb1e5c1d"}, {"bike_id": "437351172ec84dc2634c40d0957cc5c7", "type": "electric_scooter", "is_disabled": 0, "lat": 38.91421666666667, "rental_uris": {"ios": "https://dc.lft.to/lastmile_qr_scan", "android": "https://dc.lft.to/lastmile_qr_scan"}, "is_reserved": 0, "fusion_lon": 0.0, "fusion_lat": 0.0, "lon": -77.01986366666667, "name": "437351172ec84dc2634c40d0957cc5c7"}, {"bike_id": "4ab8f4a03f08be981f57fb42a146c40b", "type": "electric_scooter", "is_disabled": 0, "lat": 38.9067635, "rental_uris": {"ios": "https://dc.lft.to/lastmile_qr_scan", "android": "https://dc.lft.to/lastmile_qr_scan"}, "is_reserved": 0, "fusion_lon": 0.0, "fusion_lat": 0.0, "lon": -77.02718633333333, "name": "4ab8f4a03f08be981f57fb42a146c40b"}, {"bike_id": "fa0401bd7ef0ddb14305769b6b24856e", "type": "electric_scooter", "is_disabled": 0, "lat": 38.9169405, "rental_uris": {"ios": "https://dc.lft.to/lastmile_qr_scan", "android": "https://dc.lft.to/lastmile_qr_scan"}, "is_reserved": 0, "fusion_lon": 0.0, "fusion_lat": 0.0, "lon": -77.04110016666667, "name": "fa0401bd7ef0ddb14305769b6b24856e"}, {"bike_id": "5558692e1631e77d633d51d3be57f495", "type": "electric_scooter", "is_disabled": 0, "lat": 38.899451, "rental_uris": {"ios": "https://dc.lft.to/lastmile_qr_scan", "android": "https://dc.lft.to/lastmile_qr_scan"}, "is_reserved": 0, "fusion_lon": 0.0, "fusion_lat": 0.0, "lon": -77.01434616666667, "name": "5558692e1631e77d633d51d3be57f495"}, {"bike_id": "db853a719dfa658f7a128926205aa46f", "type": "electric_scooter", "is_disabled": 0, "lat": 38.93143033333333, "rental_uris": {"ios": "https://dc.lft.to/lastmile_qr_scan", "android": "https://dc.lft.to/lastmile_qr_scan"}, "is_reserved": 0, "fusion_lon": 0.0, "fusion_lat": 0.0, "lon": -77.042387, "name": "db853a719dfa658f7a128926205aa46f"}, {"bike_id": "627dd970ada1194a8125a101d3a373e1", "type": "electric_scooter", "is_disabled": 0, "lat": 38.94595966666667, "rental_uris": {"ios": "https://dc.lft.to/lastmile_qr_scan", "android": "https://dc.lft.to/lastmile_qr_scan"}, "is_reserved": 0, "fusion_lon": 0.0, "fusion_lat": 0.0, "lon": -77.02977616666666, "name": "627dd970ada1194a8125a101d3a373e1"}, {"bike_id": "79b24c091b77ec562a5c885afb94d260", "type": "electric_scooter", "is_disabled": 0, "lat": 38.91186283333333, "rental_uris": {"ios": "https://dc.lft.to/lastmile_qr_scan", "android": "https://dc.lft.to/lastmile_qr_scan"}, "is_reserved": 0, "fusion_lon": 0.0, "fusion_lat": 0.0, "lon": -77.03210733333333, "name": "79b24c091b77ec562a5c885afb94d260"}, {"bike_id": "244f6bde1b7bc4faa13c2d5d31a8151d", "type": "electric_bike", "is_disabled": 0, "lat": 38.89849383333333, "rental_uris": {"ios": "https://dc.lft.to/lastmile_qr_scan", "android": "https://dc.lft.to/lastmile_qr_scan"}, "is_reserved": 0, "fusion_lon": 0.0, "fusion_lat": 0.0, "lon": -77.05301433333334, "name": "244f6bde1b7bc4faa13c2d5d31a8151d"}, {"bike_id": "3bdaed272d768951b072615706e88617", "type": "electric_scooter", "is_disabled": 0, "lat": 38.899643166666664, "rental_uris": {"ios": "https://dc.lft.to/lastmile_qr_scan", "android": "https://dc.lft.to/lastmile_qr_scan"}, "is_reserved": 0, "fusion_lon": 0.0, "fusion_lat": 0.0, "lon": -77.01612933333334, "name": "3bdaed272d768951b072615706e88617"}, {"bike_id": "26680b2140979c046ab2c3aa355ca01e", "type": "electric_scooter", "is_disabled": 0, "lat": 38.86705583333333, "rental_uris": {"ios": "https://dc.lft.to/lastmile_qr_scan", "android": "https://dc.lft.to/lastmile_qr_scan"}, "is_reserved": 0, "fusion_lon": 0.0, "fusion_lat": 0.0, "lon": -76.98713933333333, "name": "26680b2140979c046ab2c3aa355ca01e"}, {"bike_id": "e285f3b27b5383222fe5285455b04cfb", "type": "electric_scooter", "is_disabled": 0, "lat": 38.900969333333336, "rental_uris": {"ios": "https://dc.lft.to/lastmile_qr_scan", "android": "https://dc.lft.to/lastmile_qr_scan"}, "is_reserved": 0, "fusion_lon": 0.0, "fusion_lat": 0.0, "lon": -77.01928566666666, "name": "e285f3b27b5383222fe5285455b04cfb"}, {"bike_id": "faefb4932ca58a4663a47f9e11b7d173", "type": "electric_scooter", "is_disabled": 0, "lat": 38.908703, "rental_uris": {"ios": "https://dc.lft.to/lastmile_qr_scan", "android": "https://dc.lft.to/lastmile_qr_scan"}, "is_reserved": 0, "fusion_lon": 0.0, "fusion_lat": 0.0, "lon": -77.023589, "name": "faefb4932ca58a4663a47f9e11b7d173"}, {"bike_id": "68af8c78a9bfff600894d37cfea3155b", "type": "electric_bike", "is_disabled": 0, "lat": 39.024446166666664, "rental_uris": {"ios": "https://dc.lft.to/lastmile_qr_scan", "android": "https://dc.lft.to/lastmile_qr_scan"}, "is_reserved": 0, "fusion_lon": 0.0, "fusion_lat": 0.0, "lon": -77.131006, "name": "68af8c78a9bfff600894d37cfea3155b"}, {"bike_id": "ed74404ee6512c8c4afc9685a22ed612", "type": "electric_scooter", "is_disabled": 0, "lat": 38.9345985, "rental_uris": {"ios": "https://dc.lft.to/lastmile_qr_scan", "android": "https://dc.lft.to/lastmile_qr_scan"}, "is_reserved": 0, "fusion_lon": 0.0, "fusion_lat": 0.0, "lon": -76.96441616666667, "name": "ed74404ee6512c8c4afc9685a22ed612"}, {"bike_id": "b6f234eb23a73fcabb6a4731120fcef5", "type": "electric_scooter", "is_disabled": 0, "lat": 38.915735166666664, "rental_uris": {"ios": "https://dc.lft.to/lastmile_qr_scan", "android": "https://dc.lft.to/lastmile_qr_scan"}, "is_reserved": 0, "fusion_lon": 0.0, "fusion_lat": 0.0, "lon": -77.03642533333333, "name": "b6f234eb23a73fcabb6a4731120fcef5"}, {"bike_id": "dadb8a43c2bc03d9329a91456d0772a7", "type": "electric_scooter", "is_disabled": 0, "lat": 38.9171195, "rental_uris": {"ios": "https://dc.lft.to/lastmile_qr_scan", "android": "https://dc.lft.to/lastmile_qr_scan"}, "is_reserved": 0, "fusion_lon": 0.0, "fusion_lat": 0.0, "lon": -77.0287395, "name": "dadb8a43c2bc03d9329a91456d0772a7"}, {"bike_id": "f91044312d05e76121a54c9bdea28c4a", "type": "electric_scooter", "is_disabled": 0, "lat": 38.930883666666666, "rental_uris": {"ios": "https://dc.lft.to/lastmile_qr_scan", "android": "https://dc.lft.to/lastmile_qr_scan"}, "is_reserved": 0, "fusion_lon": 0.0, "fusion_lat": 0.0, "lon": -77.03752366666667, "name": "f91044312d05e76121a54c9bdea28c4a"}, {"bike_id": "9c0b8b5befb5d2f6c21401a2297b03a5", "type": "electric_scooter", "is_disabled": 0, "lat": 38.91256383333333, "rental_uris": {"ios": "https://dc.lft.to/lastmile_qr_scan", "android": "https://dc.lft.to/lastmile_qr_scan"}, "is_reserved": 0, "fusion_lon": 0.0, "fusion_lat": 0.0, "lon": -77.038289, "name": "9c0b8b5befb5d2f6c21401a2297b03a5"}, {"bike_id": "7153e074540e936267e5ba611cdc83b4", "type": "electric_scooter", "is_disabled": 0, "lat": 38.902730166666665, "rental_uris": {"ios": "https://dc.lft.to/lastmile_qr_scan", "android": "https://dc.lft.to/lastmile_qr_scan"}, "is_reserved": 0, "fusion_lon": 0.0, "fusion_lat": 0.0, "lon": -77.01778366666667, "name": "7153e074540e936267e5ba611cdc83b4"}, {"bike_id": "c78ab0621886c881862a8e2f16c1b774", "type": "electric_scooter", "is_disabled": 0, "lat": 38.91010283333333, "rental_uris": {"ios": "https://dc.lft.to/lastmile_qr_scan", "android": "https://dc.lft.to/lastmile_qr_scan"}, "is_reserved": 0, "fusion_lon": 0.0, "fusion_lat": 0.0, "lon": -77.0319925, "name": "c78ab0621886c881862a8e2f16c1b774"}, {"bike_id": "5bce10ba0f5f63ed136cdb9aa338b1bb", "type": "electric_scooter", "is_disabled": 0, "lat": 38.92150566666667, "rental_uris": {"ios": "https://dc.lft.to/lastmile_qr_scan", "android": "https://dc.lft.to/lastmile_qr_scan"}, "is_reserved": 0, "fusion_lon": 0.0, "fusion_lat": 0.0, "lon": -77.04367733333333, "name": "5bce10ba0f5f63ed136cdb9aa338b1bb"}, {"bike_id": "53eff6ee1cf0dd919f49ce275ecc8b9c", "type": "electric_scooter", "is_disabled": 0, "lat": 38.867049333333334, "rental_uris": {"ios": "https://dc.lft.to/lastmile_qr_scan", "android": "https://dc.lft.to/lastmile_qr_scan"}, "is_reserved": 0, "fusion_lon": 0.0, "fusion_lat": 0.0, "lon": -76.98714533333333, "name": "53eff6ee1cf0dd919f49ce275ecc8b9c"}, {"bike_id": "6739bad1cc430c38cab33f915055352f", "type": "electric_scooter", "is_disabled": 0, "lat": 38.87870933333333, "rental_uris": {"ios": "https://dc.lft.to/lastmile_qr_scan", "android": "https://dc.lft.to/lastmile_qr_scan"}, "is_reserved": 0, "fusion_lon": 0.0, "fusion_lat": 0.0, "lon": -77.0191555, "name": "6739bad1cc430c38cab33f915055352f"}, {"bike_id": "88e16d1858eaabc84029f55dfd770173", "type": "electric_scooter", "is_disabled": 0, "lat": 38.917747166666665, "rental_uris": {"ios": "https://dc.lft.to/lastmile_qr_scan", "android": "https://dc.lft.to/lastmile_qr_scan"}, "is_reserved": 0, "fusion_lon": 0.0, "fusion_lat": 0.0, "lon": -77.04771366666667, "name": "88e16d1858eaabc84029f55dfd770173"}, {"bike_id": "2262303e2829c82c272730076e94936f", "type": "electric_scooter", "is_disabled": 0, "lat": 38.930786166666664, "rental_uris": {"ios": "https://dc.lft.to/lastmile_qr_scan", "android": "https://dc.lft.to/lastmile_qr_scan"}, "is_reserved": 0, "fusion_lon": 0.0, "fusion_lat": 0.0, "lon": -77.02791016666667, "name": "2262303e2829c82c272730076e94936f"}, {"bike_id": "f2412a1b0520becff3f892ee44a2e7c1", "type": "electric_scooter", "is_disabled": 0, "lat": 38.892246166666666, "rental_uris": {"ios": "https://dc.lft.to/lastmile_qr_scan", "android": "https://dc.lft.to/lastmile_qr_scan"}, "is_reserved": 0, "fusion_lon": 0.0, "fusion_lat": 0.0, "lon": -77.02263183333334, "name": "f2412a1b0520becff3f892ee44a2e7c1"}, {"bike_id": "29dfb628ae2efca0f9fa545e3af2dea4", "type": "electric_scooter", "is_disabled": 0, "lat": 38.92833366666667, "rental_uris": {"ios": "https://dc.lft.to/lastmile_qr_scan", "android": "https://dc.lft.to/lastmile_qr_scan"}, "is_reserved": 0, "fusion_lon": 0.0, "fusion_lat": 0.0, "lon": -77.02255583333333, "name": "29dfb628ae2efca0f9fa545e3af2dea4"}, {"bike_id": "2febaabea9a8e7a69d97e1362337106f", "type": "electric_scooter", "is_disabled": 0, "lat": 38.86702966666667, "rental_uris": {"ios": "https://dc.lft.to/lastmile_qr_scan", "android": "https://dc.lft.to/lastmile_qr_scan"}, "is_reserved": 0, "fusion_lon": 0.0, "fusion_lat": 0.0, "lon": -76.9870965, "name": "2febaabea9a8e7a69d97e1362337106f"}, {"bike_id": "913534233a71d1312691ed729ea23d29", "type": "electric_scooter", "is_disabled": 0, "lat": 38.895645333333334, "rental_uris": {"ios": "https://dc.lft.to/lastmile_qr_scan", "android": "https://dc.lft.to/lastmile_qr_scan"}, "is_reserved": 0, "fusion_lon": 0.0, "fusion_lat": 0.0, "lon": -76.94946333333333, "name": "913534233a71d1312691ed729ea23d29"}, {"bike_id": "486e409f0bceb20c94070546437f3d0f", "type": "electric_scooter", "is_disabled": 0, "lat": 38.9029275, "rental_uris": {"ios": "https://dc.lft.to/lastmile_qr_scan", "android": "https://dc.lft.to/lastmile_qr_scan"}, "is_reserved": 0, "fusion_lon": 0.0, "fusion_lat": 0.0, "lon": -77.03341333333333, "name": "486e409f0bceb20c94070546437f3d0f"}, {"bike_id": "1fc2c5920e5339544e92cce74b0a669b", "type": "electric_scooter", "is_disabled": 0, "lat": 38.898852166666664, "rental_uris": {"ios": "https://dc.lft.to/lastmile_qr_scan", "android": "https://dc.lft.to/lastmile_qr_scan"}, "is_reserved": 0, "fusion_lon": 0.0, "fusion_lat": 0.0, "lon": -76.93174833333333, "name": "1fc2c5920e5339544e92cce74b0a669b"}, {"bike_id": "c8735997bb87ae84c57321d07923b527", "type": "electric_scooter", "is_disabled": 0, "lat": 38.91272566666667, "rental_uris": {"ios": "https://dc.lft.to/lastmile_qr_scan", "android": "https://dc.lft.to/lastmile_qr_scan"}, "is_reserved": 0, "fusion_lon": 0.0, "fusion_lat": 0.0, "lon": -77.0449895, "name": "c8735997bb87ae84c57321d07923b527"}, {"bike_id": "22b7c4d934b2bf3bc58fd3c1ab42f2f0", "type": "electric_bike", "is_disabled": 0, "lat": 38.97858766666667, "rental_uris": {"ios": "https://dc.lft.to/lastmile_qr_scan", "android": "https://dc.lft.to/lastmile_qr_scan"}, "is_reserved": 0, "fusion_lon": 0.0, "fusion_lat": 0.0, "lon": -76.94045766666666, "name": "22b7c4d934b2bf3bc58fd3c1ab42f2f0"}, {"bike_id": "49529c120a43153b2fef2e879901b8e5", "type": "electric_scooter", "is_disabled": 0, "lat": 38.91595916666667, "rental_uris": {"ios": "https://dc.lft.to/lastmile_qr_scan", "android": "https://dc.lft.to/lastmile_qr_scan"}, "is_reserved": 0, "fusion_lon": 0.0, "fusion_lat": 0.0, "lon": -77.00201366666667, "name": "49529c120a43153b2fef2e879901b8e5"}, {"bike_id": "71a5e869efec5649ceff4b44716be56c", "type": "electric_scooter", "is_disabled": 0, "lat": 38.9095115, "rental_uris": {"ios": "https://dc.lft.to/lastmile_qr_scan", "android": "https://dc.lft.to/lastmile_qr_scan"}, "is_reserved": 0, "fusion_lon": 0.0, "fusion_lat": 0.0, "lon": -77.048671, "name": "71a5e869efec5649ceff4b44716be56c"}, {"bike_id": "9979b89cdbc9bbad1a3acf7314015607", "type": "electric_scooter", "is_disabled": 0, "lat": 38.89991366666667, "rental_uris": {"ios": "https://dc.lft.to/lastmile_qr_scan", "android": "https://dc.lft.to/lastmile_qr_scan"}, "is_reserved": 0, "fusion_lon": 0.0, "fusion_lat": 0.0, "lon": -77.0220925, "name": "9979b89cdbc9bbad1a3acf7314015607"}, {"bike_id": "c65b3a34b336e29367d89c62057607cd", "type": "electric_scooter", "is_disabled": 0, "lat": 38.87896333333333, "rental_uris": {"ios": "https://dc.lft.to/lastmile_qr_scan", "android": "https://dc.lft.to/lastmile_qr_scan"}, "is_reserved": 0, "fusion_lon": 0.0, "fusion_lat": 0.0, "lon": -77.02210716666667, "name": "c65b3a34b336e29367d89c62057607cd"}, {"bike_id": "238326f753ab07be94264bc69eb0fcda", "type": "electric_scooter", "is_disabled": 0, "lat": 38.8805795, "rental_uris": {"ios": "https://dc.lft.to/lastmile_qr_scan", "android": "https://dc.lft.to/lastmile_qr_scan"}, "is_reserved": 0, "fusion_lon": 0.0, "fusion_lat": 0.0, "lon": -77.02553933333333, "name": "238326f753ab07be94264bc69eb0fcda"}, {"bike_id": "d9dcb6bb8ed52b21225ed0eb77f8bf56", "type": "electric_bike", "is_disabled": 0, "lat": 38.888717166666666, "rental_uris": {"ios": "https://dc.lft.to/lastmile_qr_scan", "android": "https://dc.lft.to/lastmile_qr_scan"}, "is_reserved": 0, "fusion_lon": 0.0, "fusion_lat": 0.0, "lon": -76.9784495, "name": "d9dcb6bb8ed52b21225ed0eb77f8bf56"}, {"bike_id": "6a7a1669208c97416f8582138a5a5d68", "type": "electric_bike", "is_disabled": 0, "lat": 38.85898066666667, "rental_uris": {"ios": "https://dc.lft.to/lastmile_qr_scan", "android": "https://dc.lft.to/lastmile_qr_scan"}, "is_reserved": 0, "fusion_lon": 0.0, "fusion_lat": 0.0, "lon": -77.11866416666666, "name": "6a7a1669208c97416f8582138a5a5d68"}, {"bike_id": "68c220ba6f7e815876aa58646d958a1b", "type": "electric_scooter", "is_disabled": 0, "lat": 38.902386666666665, "rental_uris": {"ios": "https://dc.lft.to/lastmile_qr_scan", "android": "https://dc.lft.to/lastmile_qr_scan"}, "is_reserved": 0, "fusion_lon": 0.0, "fusion_lat": 0.0, "lon": -77.02665333333333, "name": "68c220ba6f7e815876aa58646d958a1b"}, {"bike_id": "54efc127caf924c08cc578b29b2dec3d", "type": "electric_scooter", "is_disabled": 0, "lat": 38.906875666666664, "rental_uris": {"ios": "https://dc.lft.to/lastmile_qr_scan", "android": "https://dc.lft.to/lastmile_qr_scan"}, "is_reserved": 0, "fusion_lon": 0.0, "fusion_lat": 0.0, "lon": -77.01073583333333, "name": "54efc127caf924c08cc578b29b2dec3d"}, {"bike_id": "a3af85cf7c18297af984bc9339b29839", "type": "electric_scooter", "is_disabled": 0, "lat": 38.898496, "rental_uris": {"ios": "https://dc.lft.to/lastmile_qr_scan", "android": "https://dc.lft.to/lastmile_qr_scan"}, "is_reserved": 0, "fusion_lon": 0.0, "fusion_lat": 0.0, "lon": -77.02203983333334, "name": "a3af85cf7c18297af984bc9339b29839"}, {"bike_id": "f48fd642fb8bb85d1b025c03f9754035", "type": "electric_scooter", "is_disabled": 0, "lat": 38.897448833333335, "rental_uris": {"ios": "https://dc.lft.to/lastmile_qr_scan", "android": "https://dc.lft.to/lastmile_qr_scan"}, "is_reserved": 0, "fusion_lon": 0.0, "fusion_lat": 0.0, "lon": -76.94724866666667, "name": "f48fd642fb8bb85d1b025c03f9754035"}, {"bike_id": "10f28622b7e4f5d8045d4f96b8dda5c5", "type": "electric_scooter", "is_disabled": 0, "lat": 38.904143, "rental_uris": {"ios": "https://dc.lft.to/lastmile_qr_scan", "android": "https://dc.lft.to/lastmile_qr_scan"}, "is_reserved": 0, "fusion_lon": 0.0, "fusion_lat": 0.0, "lon": -76.97327783333333, "name": "10f28622b7e4f5d8045d4f96b8dda5c5"}, {"bike_id": "d921422253c0cda63cb78bfe8adc16d8", "type": "electric_scooter", "is_disabled": 0, "lat": 38.914039, "rental_uris": {"ios": "https://dc.lft.to/lastmile_qr_scan", "android": "https://dc.lft.to/lastmile_qr_scan"}, "is_reserved": 0, "fusion_lon": 0.0, "fusion_lat": 0.0, "lon": -77.03260533333334, "name": "d921422253c0cda63cb78bfe8adc16d8"}, {"bike_id": "8af32c5ad4e6b300d24a437edbb8ad9a", "type": "electric_scooter", "is_disabled": 0, "lat": 38.897737666666664, "rental_uris": {"ios": "https://dc.lft.to/lastmile_qr_scan", "android": "https://dc.lft.to/lastmile_qr_scan"}, "is_reserved": 0, "fusion_lon": 0.0, "fusion_lat": 0.0, "lon": -77.0320535, "name": "8af32c5ad4e6b300d24a437edbb8ad9a"}, {"bike_id": "31ab48a158465cb99bfab6ece07f02e9", "type": "electric_scooter", "is_disabled": 0, "lat": 38.90733983333333, "rental_uris": {"ios": "https://dc.lft.to/lastmile_qr_scan", "android": "https://dc.lft.to/lastmile_qr_scan"}, "is_reserved": 0, "fusion_lon": 0.0, "fusion_lat": 0.0, "lon": -77.03207966666666, "name": "31ab48a158465cb99bfab6ece07f02e9"}, {"bike_id": "d5bbe7d44c460fc3e1c9fdb938201e98", "type": "electric_scooter", "is_disabled": 0, "lat": 38.902453, "rental_uris": {"ios": "https://dc.lft.to/lastmile_qr_scan", "android": "https://dc.lft.to/lastmile_qr_scan"}, "is_reserved": 0, "fusion_lon": 0.0, "fusion_lat": 0.0, "lon": -77.002129, "name": "d5bbe7d44c460fc3e1c9fdb938201e98"}, {"bike_id": "bc165053f237a7e295b9b06e2bf4276e", "type": "electric_scooter", "is_disabled": 0, "lat": 38.906598, "rental_uris": {"ios": "https://dc.lft.to/lastmile_qr_scan", "android": "https://dc.lft.to/lastmile_qr_scan"}, "is_reserved": 0, "fusion_lon": 0.0, "fusion_lat": 0.0, "lon": -77.038571, "name": "bc165053f237a7e295b9b06e2bf4276e"}, {"bike_id": "ca517ed541aad6c4187a00155ecb0fc8", "type": "electric_scooter", "is_disabled": 0, "lat": 38.89977, "rental_uris": {"ios": "https://dc.lft.to/lastmile_qr_scan", "android": "https://dc.lft.to/lastmile_qr_scan"}, "is_reserved": 0, "fusion_lon": 0.0, "fusion_lat": 0.0, "lon": -76.98307783333334, "name": "ca517ed541aad6c4187a00155ecb0fc8"}, {"bike_id": "f2ab00cd452bfcde7a707b937ec96e0a", "type": "electric_bike", "is_disabled": 0, "lat": 38.931808333333336, "rental_uris": {"ios": "https://dc.lft.to/lastmile_qr_scan", "android": "https://dc.lft.to/lastmile_qr_scan"}, "is_reserved": 0, "fusion_lon": 0.0, "fusion_lat": 0.0, "lon": -77.0356825, "name": "f2ab00cd452bfcde7a707b937ec96e0a"}, {"bike_id": "8febca3d2a1c1b44502cf189520226db", "type": "electric_scooter", "is_disabled": 0, "lat": 38.9335935, "rental_uris": {"ios": "https://dc.lft.to/lastmile_qr_scan", "android": "https://dc.lft.to/lastmile_qr_scan"}, "is_reserved": 0, "fusion_lon": 0.0, "fusion_lat": 0.0, "lon": -77.02640083333333, "name": "8febca3d2a1c1b44502cf189520226db"}, {"bike_id": "5c5953db34704e4226448560145fbf7e", "type": "electric_scooter", "is_disabled": 0, "lat": 38.92487916666666, "rental_uris": {"ios": "https://dc.lft.to/lastmile_qr_scan", "android": "https://dc.lft.to/lastmile_qr_scan"}, "is_reserved": 0, "fusion_lon": 0.0, "fusion_lat": 0.0, "lon": -77.03179466666667, "name": "5c5953db34704e4226448560145fbf7e"}, {"bike_id": "300e7d420eec7a05c7f990fe9cbaef1d", "type": "electric_bike", "is_disabled": 0, "lat": 38.898029666666666, "rental_uris": {"ios": "https://dc.lft.to/lastmile_qr_scan", "android": "https://dc.lft.to/lastmile_qr_scan"}, "is_reserved": 0, "fusion_lon": 0.0, "fusion_lat": 0.0, "lon": -76.99073283333334, "name": "300e7d420eec7a05c7f990fe9cbaef1d"}, {"bike_id": "a5647e692a1af8137344acbafc96bf78", "type": "electric_scooter", "is_disabled": 0, "lat": 38.923278833333335, "rental_uris": {"ios": "https://dc.lft.to/lastmile_qr_scan", "android": "https://dc.lft.to/lastmile_qr_scan"}, "is_reserved": 0, "fusion_lon": 0.0, "fusion_lat": 0.0, "lon": -77.00889833333333, "name": "a5647e692a1af8137344acbafc96bf78"}, {"bike_id": "1dc686532417eafd62a66009dc662232", "type": "electric_scooter", "is_disabled": 0, "lat": 38.919962, "rental_uris": {"ios": "https://dc.lft.to/lastmile_qr_scan", "android": "https://dc.lft.to/lastmile_qr_scan"}, "is_reserved": 0, "fusion_lon": 0.0, "fusion_lat": 0.0, "lon": -77.01780333333333, "name": "1dc686532417eafd62a66009dc662232"}, {"bike_id": "0f0a04d2571804d4840e76e92fec93d7", "type": "electric_scooter", "is_disabled": 0, "lat": 38.91656166666667, "rental_uris": {"ios": "https://dc.lft.to/lastmile_qr_scan", "android": "https://dc.lft.to/lastmile_qr_scan"}, "is_reserved": 0, "fusion_lon": 0.0, "fusion_lat": 0.0, "lon": -76.97909066666666, "name": "0f0a04d2571804d4840e76e92fec93d7"}, {"bike_id": "d9ac13413b0d37194b1d76752a3e94f4", "type": "electric_scooter", "is_disabled": 0, "lat": 38.918456666666664, "rental_uris": {"ios": "https://dc.lft.to/lastmile_qr_scan", "android": "https://dc.lft.to/lastmile_qr_scan"}, "is_reserved": 0, "fusion_lon": 0.0, "fusion_lat": 0.0, "lon": -77.032117, "name": "d9ac13413b0d37194b1d76752a3e94f4"}, {"bike_id": "9cf2fb731075cbadab841431aff23511", "type": "electric_scooter", "is_disabled": 0, "lat": 38.92033416666666, "rental_uris": {"ios": "https://dc.lft.to/lastmile_qr_scan", "android": "https://dc.lft.to/lastmile_qr_scan"}, "is_reserved": 0, "fusion_lon": 0.0, "fusion_lat": 0.0, "lon": -77.0031025, "name": "9cf2fb731075cbadab841431aff23511"}, {"bike_id": "6871fb4cbf6f1744a3e8e81bdbe226b7", "type": "electric_scooter", "is_disabled": 0, "lat": 38.9071405, "rental_uris": {"ios": "https://dc.lft.to/lastmile_qr_scan", "android": "https://dc.lft.to/lastmile_qr_scan"}, "is_reserved": 0, "fusion_lon": 0.0, "fusion_lat": 0.0, "lon": -77.03449833333333, "name": "6871fb4cbf6f1744a3e8e81bdbe226b7"}, {"bike_id": "639c26b5b78dd39a410d1e59cd1722d1", "type": "electric_bike", "is_disabled": 0, "lat": 38.98779783333333, "rental_uris": {"ios": "https://dc.lft.to/lastmile_qr_scan", "android": "https://dc.lft.to/lastmile_qr_scan"}, "is_reserved": 0, "fusion_lon": 0.0, "fusion_lat": 0.0, "lon": -77.14052483333333, "name": "639c26b5b78dd39a410d1e59cd1722d1"}, {"bike_id": "c987b3f53d63f18701b82b6a21ec0e71", "type": "electric_scooter", "is_disabled": 0, "lat": 38.9282825, "rental_uris": {"ios": "https://dc.lft.to/lastmile_qr_scan", "android": "https://dc.lft.to/lastmile_qr_scan"}, "is_reserved": 0, "fusion_lon": 0.0, "fusion_lat": 0.0, "lon": -77.02256133333333, "name": "c987b3f53d63f18701b82b6a21ec0e71"}, {"bike_id": "fded97de160761e871e68b07d6c0681a", "type": "electric_scooter", "is_disabled": 0, "lat": 38.90188716666667, "rental_uris": {"ios": "https://dc.lft.to/lastmile_qr_scan", "android": "https://dc.lft.to/lastmile_qr_scan"}, "is_reserved": 0, "fusion_lon": 0.0, "fusion_lat": 0.0, "lon": -77.02168983333334, "name": "fded97de160761e871e68b07d6c0681a"}, {"bike_id": "1ac6468a7b0df86a48f73c2d2220ba1c", "type": "electric_scooter", "is_disabled": 0, "lat": 38.873917666666664, "rental_uris": {"ios": "https://dc.lft.to/lastmile_qr_scan", "android": "https://dc.lft.to/lastmile_qr_scan"}, "is_reserved": 0, "fusion_lon": 0.0, "fusion_lat": 0.0, "lon": -77.04329966666667, "name": "1ac6468a7b0df86a48f73c2d2220ba1c"}, {"bike_id": "ca14cd310fcbd5a6e55b7479c8bcbcc9", "type": "electric_scooter", "is_disabled": 0, "lat": 38.918612333333336, "rental_uris": {"ios": "https://dc.lft.to/lastmile_qr_scan", "android": "https://dc.lft.to/lastmile_qr_scan"}, "is_reserved": 0, "fusion_lon": 0.0, "fusion_lat": 0.0, "lon": -77.0410265, "name": "ca14cd310fcbd5a6e55b7479c8bcbcc9"}, {"bike_id": "36cdc30351d8a59ceb2a5dd9edccabbe", "type": "electric_scooter", "is_disabled": 0, "lat": 38.887531, "rental_uris": {"ios": "https://dc.lft.to/lastmile_qr_scan", "android": "https://dc.lft.to/lastmile_qr_scan"}, "is_reserved": 0, "fusion_lon": 0.0, "fusion_lat": 0.0, "lon": -77.02847183333333, "name": "36cdc30351d8a59ceb2a5dd9edccabbe"}, {"bike_id": "f1b9a2d380213cf4e4620a34c4948eff", "type": "electric_scooter", "is_disabled": 0, "lat": 38.90606533333333, "rental_uris": {"ios": "https://dc.lft.to/lastmile_qr_scan", "android": "https://dc.lft.to/lastmile_qr_scan"}, "is_reserved": 0, "fusion_lon": 0.0, "fusion_lat": 0.0, "lon": -77.02569483333333, "name": "f1b9a2d380213cf4e4620a34c4948eff"}, {"bike_id": "126b48ff11a1d0e62d495f25ee0509b0", "type": "electric_scooter", "is_disabled": 0, "lat": 38.901369, "rental_uris": {"ios": "https://dc.lft.to/lastmile_qr_scan", "android": "https://dc.lft.to/lastmile_qr_scan"}, "is_reserved": 0, "fusion_lon": 0.0, "fusion_lat": 0.0, "lon": -77.0606995, "name": "126b48ff11a1d0e62d495f25ee0509b0"}, {"bike_id": "7321040ac18f933a608be71ee7af7777", "type": "electric_scooter", "is_disabled": 0, "lat": 38.9124825, "rental_uris": {"ios": "https://dc.lft.to/lastmile_qr_scan", "android": "https://dc.lft.to/lastmile_qr_scan"}, "is_reserved": 0, "fusion_lon": 0.0, "fusion_lat": 0.0, "lon": -77.03848116666667, "name": "7321040ac18f933a608be71ee7af7777"}, {"bike_id": "16bbdb77ac6cd09f7e53784fd26717fc", "type": "electric_bike", "is_disabled": 0, "lat": 38.83433633333333, "rental_uris": {"ios": "https://dc.lft.to/lastmile_qr_scan", "android": "https://dc.lft.to/lastmile_qr_scan"}, "is_reserved": 0, "fusion_lon": 0.0, "fusion_lat": 0.0, "lon": -77.05881483333333, "name": "16bbdb77ac6cd09f7e53784fd26717fc"}, {"bike_id": "5d2a155de1200eeff53650de198a891c", "type": "electric_scooter", "is_disabled": 0, "lat": 38.9194165, "rental_uris": {"ios": "https://dc.lft.to/lastmile_qr_scan", "android": "https://dc.lft.to/lastmile_qr_scan"}, "is_reserved": 0, "fusion_lon": 0.0, "fusion_lat": 0.0, "lon": -77.02427816666666, "name": "5d2a155de1200eeff53650de198a891c"}, {"bike_id": "5ef4cbe648c710b69ea0e8a2ca5bb076", "type": "electric_scooter", "is_disabled": 0, "lat": 38.900962, "rental_uris": {"ios": "https://dc.lft.to/lastmile_qr_scan", "android": "https://dc.lft.to/lastmile_qr_scan"}, "is_reserved": 0, "fusion_lon": 0.0, "fusion_lat": 0.0, "lon": -76.98331783333333, "name": "5ef4cbe648c710b69ea0e8a2ca5bb076"}, {"bike_id": "9a22291832d91935d2df272aa875cccf", "type": "electric_scooter", "is_disabled": 0, "lat": 38.928132, "rental_uris": {"ios": "https://dc.lft.to/lastmile_qr_scan", "android": "https://dc.lft.to/lastmile_qr_scan"}, "is_reserved": 0, "fusion_lon": 0.0, "fusion_lat": 0.0, "lon": -77.05438866666667, "name": "9a22291832d91935d2df272aa875cccf"}, {"bike_id": "f4bea543f4d6ab0c72e7e0571aa397d1", "type": "electric_scooter", "is_disabled": 0, "lat": 38.893354333333335, "rental_uris": {"ios": "https://dc.lft.to/lastmile_qr_scan", "android": "https://dc.lft.to/lastmile_qr_scan"}, "is_reserved": 0, "fusion_lon": 0.0, "fusion_lat": 0.0, "lon": -76.95052416666667, "name": "f4bea543f4d6ab0c72e7e0571aa397d1"}, {"bike_id": "7b2d91a87679b26cfb0ca09294d7f29f", "type": "electric_scooter", "is_disabled": 0, "lat": 38.883114166666665, "rental_uris": {"ios": "https://dc.lft.to/lastmile_qr_scan", "android": "https://dc.lft.to/lastmile_qr_scan"}, "is_reserved": 0, "fusion_lon": 0.0, "fusion_lat": 0.0, "lon": -77.00342966666666, "name": "7b2d91a87679b26cfb0ca09294d7f29f"}, {"bike_id": "9462f89a011c9eec349cffcd8d7f3e03", "type": "electric_scooter", "is_disabled": 0, "lat": 38.89240566666667, "rental_uris": {"ios": "https://dc.lft.to/lastmile_qr_scan", "android": "https://dc.lft.to/lastmile_qr_scan"}, "is_reserved": 0, "fusion_lon": 0.0, "fusion_lat": 0.0, "lon": -77.03957133333333, "name": "9462f89a011c9eec349cffcd8d7f3e03"}, {"bike_id": "8da6c103df579486f00db706dd035dd0", "type": "electric_scooter", "is_disabled": 0, "lat": 38.8924415, "rental_uris": {"ios": "https://dc.lft.to/lastmile_qr_scan", "android": "https://dc.lft.to/lastmile_qr_scan"}, "is_reserved": 0, "fusion_lon": 0.0, "fusion_lat": 0.0, "lon": -77.0449725, "name": "8da6c103df579486f00db706dd035dd0"}, {"bike_id": "954dd1a8eb44a5e10f5197804b3267cd", "type": "electric_scooter", "is_disabled": 0, "lat": 38.926356, "rental_uris": {"ios": "https://dc.lft.to/lastmile_qr_scan", "android": "https://dc.lft.to/lastmile_qr_scan"}, "is_reserved": 0, "fusion_lon": 0.0, "fusion_lat": 0.0, "lon": -77.03790966666666, "name": "954dd1a8eb44a5e10f5197804b3267cd"}, {"bike_id": "4135cc3fdc6233ba8ab549813f243f51", "type": "electric_scooter", "is_disabled": 0, "lat": 38.85894966666667, "rental_uris": {"ios": "https://dc.lft.to/lastmile_qr_scan", "android": "https://dc.lft.to/lastmile_qr_scan"}, "is_reserved": 0, "fusion_lon": 0.0, "fusion_lat": 0.0, "lon": -76.99728983333333, "name": "4135cc3fdc6233ba8ab549813f243f51"}, {"bike_id": "f343538b459b0943bac4d5b92c224637", "type": "electric_scooter", "is_disabled": 0, "lat": 38.87815283333333, "rental_uris": {"ios": "https://dc.lft.to/lastmile_qr_scan", "android": "https://dc.lft.to/lastmile_qr_scan"}, "is_reserved": 0, "fusion_lon": 0.0, "fusion_lat": 0.0, "lon": -76.9717165, "name": "f343538b459b0943bac4d5b92c224637"}, {"bike_id": "c9363a9f6fd376e4e624789f8cb82e27", "type": "electric_bike", "is_disabled": 0, "lat": 38.991058833333334, "rental_uris": {"ios": "https://dc.lft.to/lastmile_qr_scan", "android": "https://dc.lft.to/lastmile_qr_scan"}, "is_reserved": 0, "fusion_lon": 0.0, "fusion_lat": 0.0, "lon": -76.99372016666666, "name": "c9363a9f6fd376e4e624789f8cb82e27"}, {"bike_id": "25cdbd006b3c5a1b1a0118fa0b0a7e1e", "type": "electric_scooter", "is_disabled": 0, "lat": 38.877563333333335, "rental_uris": {"ios": "https://dc.lft.to/lastmile_qr_scan", "android": "https://dc.lft.to/lastmile_qr_scan"}, "is_reserved": 0, "fusion_lon": 0.0, "fusion_lat": 0.0, "lon": -77.004602, "name": "25cdbd006b3c5a1b1a0118fa0b0a7e1e"}, {"bike_id": "b926317071d54b9697cac9b041600c89", "type": "electric_scooter", "is_disabled": 0, "lat": 38.93773216666666, "rental_uris": {"ios": "https://dc.lft.to/lastmile_qr_scan", "android": "https://dc.lft.to/lastmile_qr_scan"}, "is_reserved": 0, "fusion_lon": 0.0, "fusion_lat": 0.0, "lon": -77.01967116666667, "name": "b926317071d54b9697cac9b041600c89"}, {"bike_id": "a1b92bda62e5eaf2a71083e3257febcc", "type": "electric_bike", "is_disabled": 0, "lat": 38.96509966666667, "rental_uris": {"ios": "https://dc.lft.to/lastmile_qr_scan", "android": "https://dc.lft.to/lastmile_qr_scan"}, "is_reserved": 0, "fusion_lon": 0.0, "fusion_lat": 0.0, "lon": -77.02826116666667, "name": "a1b92bda62e5eaf2a71083e3257febcc"}, {"bike_id": "5c0ea704647c6c316c507a96966b7de9", "type": "electric_scooter", "is_disabled": 0, "lat": 38.91107016666667, "rental_uris": {"ios": "https://dc.lft.to/lastmile_qr_scan", "android": "https://dc.lft.to/lastmile_qr_scan"}, "is_reserved": 0, "fusion_lon": 0.0, "fusion_lat": 0.0, "lon": -77.00213933333333, "name": "5c0ea704647c6c316c507a96966b7de9"}, {"bike_id": "baac9ae996142cf4f884b174a5b481b2", "type": "electric_scooter", "is_disabled": 0, "lat": 38.9155815, "rental_uris": {"ios": "https://dc.lft.to/lastmile_qr_scan", "android": "https://dc.lft.to/lastmile_qr_scan"}, "is_reserved": 0, "fusion_lon": 0.0, "fusion_lat": 0.0, "lon": -77.03128266666667, "name": "baac9ae996142cf4f884b174a5b481b2"}, {"bike_id": "851354350810d1c1709d702ff9e66aca", "type": "electric_scooter", "is_disabled": 0, "lat": 38.90233933333333, "rental_uris": {"ios": "https://dc.lft.to/lastmile_qr_scan", "android": "https://dc.lft.to/lastmile_qr_scan"}, "is_reserved": 0, "fusion_lon": 0.0, "fusion_lat": 0.0, "lon": -77.0191125, "name": "851354350810d1c1709d702ff9e66aca"}, {"bike_id": "1f4148796d1d5704bc715f6ccc359386", "type": "electric_scooter", "is_disabled": 0, "lat": 38.934612, "rental_uris": {"ios": "https://dc.lft.to/lastmile_qr_scan", "android": "https://dc.lft.to/lastmile_qr_scan"}, "is_reserved": 0, "fusion_lon": 0.0, "fusion_lat": 0.0, "lon": -77.030722, "name": "1f4148796d1d5704bc715f6ccc359386"}, {"bike_id": "35dce47497d238df0a284c246da45c95", "type": "electric_scooter", "is_disabled": 0, "lat": 38.91760433333334, "rental_uris": {"ios": "https://dc.lft.to/lastmile_qr_scan", "android": "https://dc.lft.to/lastmile_qr_scan"}, "is_reserved": 0, "fusion_lon": 0.0, "fusion_lat": 0.0, "lon": -77.0248395, "name": "35dce47497d238df0a284c246da45c95"}, {"bike_id": "a6a272ae5bbe17b63af74b4d2f6db327", "type": "electric_scooter", "is_disabled": 0, "lat": 38.89690566666667, "rental_uris": {"ios": "https://dc.lft.to/lastmile_qr_scan", "android": "https://dc.lft.to/lastmile_qr_scan"}, "is_reserved": 0, "fusion_lon": 0.0, "fusion_lat": 0.0, "lon": -77.02397383333333, "name": "a6a272ae5bbe17b63af74b4d2f6db327"}, {"bike_id": "b52b36017d44fa1e7c66b2aa02708a94", "type": "electric_scooter", "is_disabled": 0, "lat": 38.909855666666665, "rental_uris": {"ios": "https://dc.lft.to/lastmile_qr_scan", "android": "https://dc.lft.to/lastmile_qr_scan"}, "is_reserved": 0, "fusion_lon": 0.0, "fusion_lat": 0.0, "lon": -77.03860116666667, "name": "b52b36017d44fa1e7c66b2aa02708a94"}, {"bike_id": "fd11257284941b693657aa3e4735238c", "type": "electric_scooter", "is_disabled": 0, "lat": 38.914164, "rental_uris": {"ios": "https://dc.lft.to/lastmile_qr_scan", "android": "https://dc.lft.to/lastmile_qr_scan"}, "is_reserved": 0, "fusion_lon": 0.0, "fusion_lat": 0.0, "lon": -77.01230633333333, "name": "fd11257284941b693657aa3e4735238c"}, {"bike_id": "1489fcec8a998d2d4f966135a7aeafee", "type": "electric_scooter", "is_disabled": 0, "lat": 38.9101315, "rental_uris": {"ios": "https://dc.lft.to/lastmile_qr_scan", "android": "https://dc.lft.to/lastmile_qr_scan"}, "is_reserved": 0, "fusion_lon": 0.0, "fusion_lat": 0.0, "lon": -77.031993, "name": "1489fcec8a998d2d4f966135a7aeafee"}, {"bike_id": "9828ff31def3def61a6a6c605158570b", "type": "electric_scooter", "is_disabled": 0, "lat": 38.8874005, "rental_uris": {"ios": "https://dc.lft.to/lastmile_qr_scan", "android": "https://dc.lft.to/lastmile_qr_scan"}, "is_reserved": 0, "fusion_lon": 0.0, "fusion_lat": 0.0, "lon": -77.02835916666666, "name": "9828ff31def3def61a6a6c605158570b"}, {"bike_id": "351226f75fa79ca494ea8847024a794d", "type": "electric_scooter", "is_disabled": 0, "lat": 38.899639, "rental_uris": {"ios": "https://dc.lft.to/lastmile_qr_scan", "android": "https://dc.lft.to/lastmile_qr_scan"}, "is_reserved": 0, "fusion_lon": 0.0, "fusion_lat": 0.0, "lon": -77.01608316666666, "name": "351226f75fa79ca494ea8847024a794d"}, {"bike_id": "02f3af880ba840ecc661b76180edbe32", "type": "electric_scooter", "is_disabled": 0, "lat": 38.921616, "rental_uris": {"ios": "https://dc.lft.to/lastmile_qr_scan", "android": "https://dc.lft.to/lastmile_qr_scan"}, "is_reserved": 0, "fusion_lon": 0.0, "fusion_lat": 0.0, "lon": -77.03316766666667, "name": "02f3af880ba840ecc661b76180edbe32"}, {"bike_id": "7108009ea6bd70341c0fb146d0b0eebf", "type": "electric_scooter", "is_disabled": 0, "lat": 38.9196955, "rental_uris": {"ios": "https://dc.lft.to/lastmile_qr_scan", "android": "https://dc.lft.to/lastmile_qr_scan"}, "is_reserved": 0, "fusion_lon": 0.0, "fusion_lat": 0.0, "lon": -77.02376166666667, "name": "7108009ea6bd70341c0fb146d0b0eebf"}, {"bike_id": "096bae3f0563365e54481c4f87e1678f", "type": "electric_scooter", "is_disabled": 0, "lat": 38.918228666666664, "rental_uris": {"ios": "https://dc.lft.to/lastmile_qr_scan", "android": "https://dc.lft.to/lastmile_qr_scan"}, "is_reserved": 0, "fusion_lon": 0.0, "fusion_lat": 0.0, "lon": -77.00939316666667, "name": "096bae3f0563365e54481c4f87e1678f"}, {"bike_id": "0f1393eff4455989d32eaf8ee3ce9320", "type": "electric_scooter", "is_disabled": 0, "lat": 38.90621866666667, "rental_uris": {"ios": "https://dc.lft.to/lastmile_qr_scan", "android": "https://dc.lft.to/lastmile_qr_scan"}, "is_reserved": 0, "fusion_lon": 0.0, "fusion_lat": 0.0, "lon": -77.00750483333333, "name": "0f1393eff4455989d32eaf8ee3ce9320"}, {"bike_id": "d2d22d531c60b944eb493d0b5ac701fe", "type": "electric_scooter", "is_disabled": 0, "lat": 38.900484166666665, "rental_uris": {"ios": "https://dc.lft.to/lastmile_qr_scan", "android": "https://dc.lft.to/lastmile_qr_scan"}, "is_reserved": 0, "fusion_lon": 0.0, "fusion_lat": 0.0, "lon": -76.99154633333333, "name": "d2d22d531c60b944eb493d0b5ac701fe"}, {"bike_id": "0f155ad6391845d1cca9ff8a53e69f2b", "type": "electric_scooter", "is_disabled": 0, "lat": 38.92068233333333, "rental_uris": {"ios": "https://dc.lft.to/lastmile_qr_scan", "android": "https://dc.lft.to/lastmile_qr_scan"}, "is_reserved": 0, "fusion_lon": 0.0, "fusion_lat": 0.0, "lon": -77.02396183333333, "name": "0f155ad6391845d1cca9ff8a53e69f2b"}, {"bike_id": "c78cabbfe63c0d627eab72f0d38622d8", "type": "electric_scooter", "is_disabled": 0, "lat": 38.908723333333334, "rental_uris": {"ios": "https://dc.lft.to/lastmile_qr_scan", "android": "https://dc.lft.to/lastmile_qr_scan"}, "is_reserved": 0, "fusion_lon": 0.0, "fusion_lat": 0.0, "lon": -76.997825, "name": "c78cabbfe63c0d627eab72f0d38622d8"}, {"bike_id": "1b73016c2bc7b0056884f96db7172dac", "type": "electric_scooter", "is_disabled": 0, "lat": 38.897254333333336, "rental_uris": {"ios": "https://dc.lft.to/lastmile_qr_scan", "android": "https://dc.lft.to/lastmile_qr_scan"}, "is_reserved": 0, "fusion_lon": 0.0, "fusion_lat": 0.0, "lon": -77.02679566666667, "name": "1b73016c2bc7b0056884f96db7172dac"}, {"bike_id": "149eeb4ca724096654992672849815bb", "type": "electric_scooter", "is_disabled": 0, "lat": 38.838279166666666, "rental_uris": {"ios": "https://dc.lft.to/lastmile_qr_scan", "android": "https://dc.lft.to/lastmile_qr_scan"}, "is_reserved": 0, "fusion_lon": 0.0, "fusion_lat": 0.0, "lon": -77.002672, "name": "149eeb4ca724096654992672849815bb"}, {"bike_id": "bfebd2971faac91b993abb6b6f76fa62", "type": "electric_scooter", "is_disabled": 0, "lat": 38.922432, "rental_uris": {"ios": "https://dc.lft.to/lastmile_qr_scan", "android": "https://dc.lft.to/lastmile_qr_scan"}, "is_reserved": 0, "fusion_lon": 0.0, "fusion_lat": 0.0, "lon": -77.04006266666667, "name": "bfebd2971faac91b993abb6b6f76fa62"}, {"bike_id": "0ba544570f883d2046700a20d8d7f319", "type": "electric_scooter", "is_disabled": 0, "lat": 38.891343166666665, "rental_uris": {"ios": "https://dc.lft.to/lastmile_qr_scan", "android": "https://dc.lft.to/lastmile_qr_scan"}, "is_reserved": 0, "fusion_lon": 0.0, "fusion_lat": 0.0, "lon": -76.9518945, "name": "0ba544570f883d2046700a20d8d7f319"}, {"bike_id": "1852d3e48b908f933318094f61690147", "type": "electric_scooter", "is_disabled": 0, "lat": 38.91110616666667, "rental_uris": {"ios": "https://dc.lft.to/lastmile_qr_scan", "android": "https://dc.lft.to/lastmile_qr_scan"}, "is_reserved": 0, "fusion_lon": 0.0, "fusion_lat": 0.0, "lon": -77.03859766666666, "name": "1852d3e48b908f933318094f61690147"}, {"bike_id": "e97311dabb0acdd3879388900ee20995", "type": "electric_scooter", "is_disabled": 0, "lat": 38.92650283333333, "rental_uris": {"ios": "https://dc.lft.to/lastmile_qr_scan", "android": "https://dc.lft.to/lastmile_qr_scan"}, "is_reserved": 0, "fusion_lon": 0.0, "fusion_lat": 0.0, "lon": -77.0342605, "name": "e97311dabb0acdd3879388900ee20995"}, {"bike_id": "ca6e0e08986962398512546213220fdf", "type": "electric_scooter", "is_disabled": 0, "lat": 38.9276765, "rental_uris": {"ios": "https://dc.lft.to/lastmile_qr_scan", "android": "https://dc.lft.to/lastmile_qr_scan"}, "is_reserved": 0, "fusion_lon": 0.0, "fusion_lat": 0.0, "lon": -77.056438, "name": "ca6e0e08986962398512546213220fdf"}, {"bike_id": "298626f15446da39283542c36978d015", "type": "electric_scooter", "is_disabled": 0, "lat": 38.90740383333333, "rental_uris": {"ios": "https://dc.lft.to/lastmile_qr_scan", "android": "https://dc.lft.to/lastmile_qr_scan"}, "is_reserved": 0, "fusion_lon": 0.0, "fusion_lat": 0.0, "lon": -77.02980066666667, "name": "298626f15446da39283542c36978d015"}, {"bike_id": "a30a89474573fd987b57f9c81730d973", "type": "electric_scooter", "is_disabled": 0, "lat": 38.907701, "rental_uris": {"ios": "https://dc.lft.to/lastmile_qr_scan", "android": "https://dc.lft.to/lastmile_qr_scan"}, "is_reserved": 0, "fusion_lon": 0.0, "fusion_lat": 0.0, "lon": -77.05802983333334, "name": "a30a89474573fd987b57f9c81730d973"}, {"bike_id": "5fc7213b19a4248d24f2bff4be0ef9ee", "type": "electric_scooter", "is_disabled": 0, "lat": 38.87173466666667, "rental_uris": {"ios": "https://dc.lft.to/lastmile_qr_scan", "android": "https://dc.lft.to/lastmile_qr_scan"}, "is_reserved": 0, "fusion_lon": 0.0, "fusion_lat": 0.0, "lon": -77.00623633333333, "name": "5fc7213b19a4248d24f2bff4be0ef9ee"}, {"bike_id": "aa0886536187f3ef61c08403b18bfef6", "type": "electric_scooter", "is_disabled": 0, "lat": 38.9092815, "rental_uris": {"ios": "https://dc.lft.to/lastmile_qr_scan", "android": "https://dc.lft.to/lastmile_qr_scan"}, "is_reserved": 0, "fusion_lon": 0.0, "fusion_lat": 0.0, "lon": -77.04583133333334, "name": "aa0886536187f3ef61c08403b18bfef6"}, {"bike_id": "dbfc672e6793c3099c8277aaeba98f7e", "type": "electric_scooter", "is_disabled": 0, "lat": 38.91416383333333, "rental_uris": {"ios": "https://dc.lft.to/lastmile_qr_scan", "android": "https://dc.lft.to/lastmile_qr_scan"}, "is_reserved": 0, "fusion_lon": 0.0, "fusion_lat": 0.0, "lon": -77.02813533333334, "name": "dbfc672e6793c3099c8277aaeba98f7e"}, {"bike_id": "95c2c3767e810940a82f428c5ef9adec", "type": "electric_scooter", "is_disabled": 0, "lat": 38.906818, "rental_uris": {"ios": "https://dc.lft.to/lastmile_qr_scan", "android": "https://dc.lft.to/lastmile_qr_scan"}, "is_reserved": 0, "fusion_lon": 0.0, "fusion_lat": 0.0, "lon": -77.0353085, "name": "95c2c3767e810940a82f428c5ef9adec"}, {"bike_id": "319cfbbb7c2983f34dec44f9c1bb8951", "type": "electric_scooter", "is_disabled": 0, "lat": 38.9157015, "rental_uris": {"ios": "https://dc.lft.to/lastmile_qr_scan", "android": "https://dc.lft.to/lastmile_qr_scan"}, "is_reserved": 0, "fusion_lon": 0.0, "fusion_lat": 0.0, "lon": -77.01870616666666, "name": "319cfbbb7c2983f34dec44f9c1bb8951"}, {"bike_id": "198b21451342fa22e448c397c6d903bd", "type": "electric_scooter", "is_disabled": 0, "lat": 38.91580883333334, "rental_uris": {"ios": "https://dc.lft.to/lastmile_qr_scan", "android": "https://dc.lft.to/lastmile_qr_scan"}, "is_reserved": 0, "fusion_lon": 0.0, "fusion_lat": 0.0, "lon": -77.01234283333334, "name": "198b21451342fa22e448c397c6d903bd"}, {"bike_id": "6c953c6bd5d18b88ecbf6727e115caba", "type": "electric_scooter", "is_disabled": 0, "lat": 38.90385216666667, "rental_uris": {"ios": "https://dc.lft.to/lastmile_qr_scan", "android": "https://dc.lft.to/lastmile_qr_scan"}, "is_reserved": 0, "fusion_lon": 0.0, "fusion_lat": 0.0, "lon": -76.982081, "name": "6c953c6bd5d18b88ecbf6727e115caba"}, {"bike_id": "c65cdca7ff4eddee68b01985b981ef6d", "type": "electric_scooter", "is_disabled": 0, "lat": 38.914248666666666, "rental_uris": {"ios": "https://dc.lft.to/lastmile_qr_scan", "android": "https://dc.lft.to/lastmile_qr_scan"}, "is_reserved": 0, "fusion_lon": 0.0, "fusion_lat": 0.0, "lon": -77.03181666666667, "name": "c65cdca7ff4eddee68b01985b981ef6d"}, {"bike_id": "d18db8f0fb75f2942e3a6328f80367ce", "type": "electric_scooter", "is_disabled": 0, "lat": 38.91737916666666, "rental_uris": {"ios": "https://dc.lft.to/lastmile_qr_scan", "android": "https://dc.lft.to/lastmile_qr_scan"}, "is_reserved": 0, "fusion_lon": 0.0, "fusion_lat": 0.0, "lon": -77.0069075, "name": "d18db8f0fb75f2942e3a6328f80367ce"}, {"bike_id": "5633263570d391a78703eabf5467302c", "type": "electric_scooter", "is_disabled": 0, "lat": 38.9308375, "rental_uris": {"ios": "https://dc.lft.to/lastmile_qr_scan", "android": "https://dc.lft.to/lastmile_qr_scan"}, "is_reserved": 0, "fusion_lon": 0.0, "fusion_lat": 0.0, "lon": -77.02152833333334, "name": "5633263570d391a78703eabf5467302c"}, {"bike_id": "2790e613f8a12ef613fb1eda69d2dba4", "type": "electric_scooter", "is_disabled": 0, "lat": 38.9066605, "rental_uris": {"ios": "https://dc.lft.to/lastmile_qr_scan", "android": "https://dc.lft.to/lastmile_qr_scan"}, "is_reserved": 0, "fusion_lon": 0.0, "fusion_lat": 0.0, "lon": -77.04298433333334, "name": "2790e613f8a12ef613fb1eda69d2dba4"}, {"bike_id": "7f010ba97d1c085804d6faefe3f80414", "type": "electric_scooter", "is_disabled": 0, "lat": 38.87549516666667, "rental_uris": {"ios": "https://dc.lft.to/lastmile_qr_scan", "android": "https://dc.lft.to/lastmile_qr_scan"}, "is_reserved": 0, "fusion_lon": 0.0, "fusion_lat": 0.0, "lon": -77.005915, "name": "7f010ba97d1c085804d6faefe3f80414"}, {"bike_id": "e7cb678a35f247eeffef44834ed2c458", "type": "electric_scooter", "is_disabled": 0, "lat": 38.9286665, "rental_uris": {"ios": "https://dc.lft.to/lastmile_qr_scan", "android": "https://dc.lft.to/lastmile_qr_scan"}, "is_reserved": 0, "fusion_lon": 0.0, "fusion_lat": 0.0, "lon": -77.03664983333333, "name": "e7cb678a35f247eeffef44834ed2c458"}, {"bike_id": "ca581ef0e2acd552902b7d79b965618d", "type": "electric_scooter", "is_disabled": 0, "lat": 38.9246955, "rental_uris": {"ios": "https://dc.lft.to/lastmile_qr_scan", "android": "https://dc.lft.to/lastmile_qr_scan"}, "is_reserved": 0, "fusion_lon": 0.0, "fusion_lat": 0.0, "lon": -77.03771216666667, "name": "ca581ef0e2acd552902b7d79b965618d"}, {"bike_id": "dd1557db0f8f008329b260cbcb5446aa", "type": "electric_scooter", "is_disabled": 0, "lat": 38.918047333333334, "rental_uris": {"ios": "https://dc.lft.to/lastmile_qr_scan", "android": "https://dc.lft.to/lastmile_qr_scan"}, "is_reserved": 0, "fusion_lon": 0.0, "fusion_lat": 0.0, "lon": -77.03440066666667, "name": "dd1557db0f8f008329b260cbcb5446aa"}, {"bike_id": "9ad1288014add2602b1496e883e5ef84", "type": "electric_scooter", "is_disabled": 0, "lat": 38.91760883333333, "rental_uris": {"ios": "https://dc.lft.to/lastmile_qr_scan", "android": "https://dc.lft.to/lastmile_qr_scan"}, "is_reserved": 0, "fusion_lon": 0.0, "fusion_lat": 0.0, "lon": -77.004527, "name": "9ad1288014add2602b1496e883e5ef84"}, {"bike_id": "93805bcd13cc6b04ba05c5639d946b53", "type": "electric_scooter", "is_disabled": 0, "lat": 38.919344833333334, "rental_uris": {"ios": "https://dc.lft.to/lastmile_qr_scan", "android": "https://dc.lft.to/lastmile_qr_scan"}, "is_reserved": 0, "fusion_lon": 0.0, "fusion_lat": 0.0, "lon": -77.02425966666667, "name": "93805bcd13cc6b04ba05c5639d946b53"}, {"bike_id": "e8b028d65b02efb31e1c3a9306f606b2", "type": "electric_scooter", "is_disabled": 0, "lat": 38.90644116666667, "rental_uris": {"ios": "https://dc.lft.to/lastmile_qr_scan", "android": "https://dc.lft.to/lastmile_qr_scan"}, "is_reserved": 0, "fusion_lon": 0.0, "fusion_lat": 0.0, "lon": -77.01793666666667, "name": "e8b028d65b02efb31e1c3a9306f606b2"}, {"bike_id": "0243db550381b3189ffc3af7815381b9", "type": "electric_scooter", "is_disabled": 0, "lat": 38.918167333333336, "rental_uris": {"ios": "https://dc.lft.to/lastmile_qr_scan", "android": "https://dc.lft.to/lastmile_qr_scan"}, "is_reserved": 0, "fusion_lon": 0.0, "fusion_lat": 0.0, "lon": -77.00257416666666, "name": "0243db550381b3189ffc3af7815381b9"}, {"bike_id": "9718c977dc53b6a940714c1d789e6f76", "type": "electric_scooter", "is_disabled": 0, "lat": 38.90271883333333, "rental_uris": {"ios": "https://dc.lft.to/lastmile_qr_scan", "android": "https://dc.lft.to/lastmile_qr_scan"}, "is_reserved": 0, "fusion_lon": 0.0, "fusion_lat": 0.0, "lon": -77.0188315, "name": "9718c977dc53b6a940714c1d789e6f76"}, {"bike_id": "e8f651bc35a8ca20722d3b310d5a5b5d", "type": "electric_scooter", "is_disabled": 0, "lat": 38.9222785, "rental_uris": {"ios": "https://dc.lft.to/lastmile_qr_scan", "android": "https://dc.lft.to/lastmile_qr_scan"}, "is_reserved": 0, "fusion_lon": 0.0, "fusion_lat": 0.0, "lon": -77.04246083333334, "name": "e8f651bc35a8ca20722d3b310d5a5b5d"}, {"bike_id": "09794da3c71251259615ed7f3ccd5dbe", "type": "electric_scooter", "is_disabled": 0, "lat": 38.923119, "rental_uris": {"ios": "https://dc.lft.to/lastmile_qr_scan", "android": "https://dc.lft.to/lastmile_qr_scan"}, "is_reserved": 0, "fusion_lon": 0.0, "fusion_lat": 0.0, "lon": -77.02980783333334, "name": "09794da3c71251259615ed7f3ccd5dbe"}, {"bike_id": "ed760ae2a55f951b34b73fa41df2e49e", "type": "electric_scooter", "is_disabled": 0, "lat": 38.89649383333333, "rental_uris": {"ios": "https://dc.lft.to/lastmile_qr_scan", "android": "https://dc.lft.to/lastmile_qr_scan"}, "is_reserved": 0, "fusion_lon": 0.0, "fusion_lat": 0.0, "lon": -77.028087, "name": "ed760ae2a55f951b34b73fa41df2e49e"}, {"bike_id": "fb17bd086d613bf95256cf2c0f7a0da0", "type": "electric_bike", "is_disabled": 0, "lat": 38.88406416666667, "rental_uris": {"ios": "https://dc.lft.to/lastmile_qr_scan", "android": "https://dc.lft.to/lastmile_qr_scan"}, "is_reserved": 0, "fusion_lon": 0.0, "fusion_lat": 0.0, "lon": -76.9605555, "name": "fb17bd086d613bf95256cf2c0f7a0da0"}, {"bike_id": "852dbbad774e1b742afc577aa2a97f01", "type": "electric_scooter", "is_disabled": 0, "lat": 38.917673, "rental_uris": {"ios": "https://dc.lft.to/lastmile_qr_scan", "android": "https://dc.lft.to/lastmile_qr_scan"}, "is_reserved": 0, "fusion_lon": 0.0, "fusion_lat": 0.0, "lon": -77.0476475, "name": "852dbbad774e1b742afc577aa2a97f01"}, {"bike_id": "574bb0d105f5ca1787f49732f85726f8", "type": "electric_scooter", "is_disabled": 0, "lat": 38.9007195, "rental_uris": {"ios": "https://dc.lft.to/lastmile_qr_scan", "android": "https://dc.lft.to/lastmile_qr_scan"}, "is_reserved": 0, "fusion_lon": 0.0, "fusion_lat": 0.0, "lon": -77.01211916666666, "name": "574bb0d105f5ca1787f49732f85726f8"}, {"bike_id": "fc676c90f9bba59261efbc1081cf80ba", "type": "electric_scooter", "is_disabled": 0, "lat": 38.91419833333333, "rental_uris": {"ios": "https://dc.lft.to/lastmile_qr_scan", "android": "https://dc.lft.to/lastmile_qr_scan"}, "is_reserved": 0, "fusion_lon": 0.0, "fusion_lat": 0.0, "lon": -77.041573, "name": "fc676c90f9bba59261efbc1081cf80ba"}, {"bike_id": "a47736b2cc920f5f4b238dadf7624e34", "type": "electric_scooter", "is_disabled": 0, "lat": 38.912617166666664, "rental_uris": {"ios": "https://dc.lft.to/lastmile_qr_scan", "android": "https://dc.lft.to/lastmile_qr_scan"}, "is_reserved": 0, "fusion_lon": 0.0, "fusion_lat": 0.0, "lon": -77.02428816666666, "name": "a47736b2cc920f5f4b238dadf7624e34"}, {"bike_id": "4672bcefc7b741b97d124ea3c78f3dfd", "type": "electric_scooter", "is_disabled": 0, "lat": 38.918041, "rental_uris": {"ios": "https://dc.lft.to/lastmile_qr_scan", "android": "https://dc.lft.to/lastmile_qr_scan"}, "is_reserved": 0, "fusion_lon": 0.0, "fusion_lat": 0.0, "lon": -77.03260316666666, "name": "4672bcefc7b741b97d124ea3c78f3dfd"}, {"bike_id": "cd9ce1c22fb39deb00d76ec896aa9830", "type": "electric_scooter", "is_disabled": 0, "lat": 38.92970916666667, "rental_uris": {"ios": "https://dc.lft.to/lastmile_qr_scan", "android": "https://dc.lft.to/lastmile_qr_scan"}, "is_reserved": 0, "fusion_lon": 0.0, "fusion_lat": 0.0, "lon": -77.02798083333333, "name": "cd9ce1c22fb39deb00d76ec896aa9830"}, {"bike_id": "f7157f0843d9f2e72ce49eb004c25cbd", "type": "electric_scooter", "is_disabled": 0, "lat": 38.865097, "rental_uris": {"ios": "https://dc.lft.to/lastmile_qr_scan", "android": "https://dc.lft.to/lastmile_qr_scan"}, "is_reserved": 0, "fusion_lon": 0.0, "fusion_lat": 0.0, "lon": -76.99002483333334, "name": "f7157f0843d9f2e72ce49eb004c25cbd"}, {"bike_id": "6bee9a8d23210e6c66ef915c3753b342", "type": "electric_scooter", "is_disabled": 0, "lat": 38.9241585, "rental_uris": {"ios": "https://dc.lft.to/lastmile_qr_scan", "android": "https://dc.lft.to/lastmile_qr_scan"}, "is_reserved": 0, "fusion_lon": 0.0, "fusion_lat": 0.0, "lon": -77.044766, "name": "6bee9a8d23210e6c66ef915c3753b342"}, {"bike_id": "b5f6330569f85f446f4dfc660d7ad35e", "type": "electric_scooter", "is_disabled": 0, "lat": 38.91668883333333, "rental_uris": {"ios": "https://dc.lft.to/lastmile_qr_scan", "android": "https://dc.lft.to/lastmile_qr_scan"}, "is_reserved": 0, "fusion_lon": 0.0, "fusion_lat": 0.0, "lon": -77.02311016666667, "name": "b5f6330569f85f446f4dfc660d7ad35e"}, {"bike_id": "713adc7ad28a1c67a414424293d1fc74", "type": "electric_scooter", "is_disabled": 0, "lat": 38.911708, "rental_uris": {"ios": "https://dc.lft.to/lastmile_qr_scan", "android": "https://dc.lft.to/lastmile_qr_scan"}, "is_reserved": 0, "fusion_lon": 0.0, "fusion_lat": 0.0, "lon": -77.0045395, "name": "713adc7ad28a1c67a414424293d1fc74"}, {"bike_id": "3a1533ff0459c0a5673c614ccbe56b18", "type": "electric_scooter", "is_disabled": 0, "lat": 38.90416716666667, "rental_uris": {"ios": "https://dc.lft.to/lastmile_qr_scan", "android": "https://dc.lft.to/lastmile_qr_scan"}, "is_reserved": 0, "fusion_lon": 0.0, "fusion_lat": 0.0, "lon": -76.97331, "name": "3a1533ff0459c0a5673c614ccbe56b18"}, {"bike_id": "8972c85921bc443d622e10de78043e1e", "type": "electric_scooter", "is_disabled": 0, "lat": 38.91706883333333, "rental_uris": {"ios": "https://dc.lft.to/lastmile_qr_scan", "android": "https://dc.lft.to/lastmile_qr_scan"}, "is_reserved": 0, "fusion_lon": 0.0, "fusion_lat": 0.0, "lon": -77.095787, "name": "8972c85921bc443d622e10de78043e1e"}, {"bike_id": "caa0fcef97da80612009bd7584e4703d", "type": "electric_scooter", "is_disabled": 0, "lat": 38.883720833333335, "rental_uris": {"ios": "https://dc.lft.to/lastmile_qr_scan", "android": "https://dc.lft.to/lastmile_qr_scan"}, "is_reserved": 0, "fusion_lon": 0.0, "fusion_lat": 0.0, "lon": -77.01752033333334, "name": "caa0fcef97da80612009bd7584e4703d"}, {"bike_id": "4bdf0dd3acb79bb7dae70972728be345", "type": "electric_scooter", "is_disabled": 0, "lat": 38.92771333333334, "rental_uris": {"ios": "https://dc.lft.to/lastmile_qr_scan", "android": "https://dc.lft.to/lastmile_qr_scan"}, "is_reserved": 0, "fusion_lon": 0.0, "fusion_lat": 0.0, "lon": -76.98760916666667, "name": "4bdf0dd3acb79bb7dae70972728be345"}, {"bike_id": "e1ce28977fa070326fa7ababbf78d0f9", "type": "electric_scooter", "is_disabled": 0, "lat": 38.90518383333333, "rental_uris": {"ios": "https://dc.lft.to/lastmile_qr_scan", "android": "https://dc.lft.to/lastmile_qr_scan"}, "is_reserved": 0, "fusion_lon": 0.0, "fusion_lat": 0.0, "lon": -77.04130266666667, "name": "e1ce28977fa070326fa7ababbf78d0f9"}, {"bike_id": "72553434917e517a9a19559b54c8a3ae", "type": "electric_scooter", "is_disabled": 0, "lat": 38.912704833333336, "rental_uris": {"ios": "https://dc.lft.to/lastmile_qr_scan", "android": "https://dc.lft.to/lastmile_qr_scan"}, "is_reserved": 0, "fusion_lon": 0.0, "fusion_lat": 0.0, "lon": -77.02223283333333, "name": "72553434917e517a9a19559b54c8a3ae"}, {"bike_id": "8654b3b861b3e9eac2f9d6ad748b05f5", "type": "electric_scooter", "is_disabled": 0, "lat": 38.904089, "rental_uris": {"ios": "https://dc.lft.to/lastmile_qr_scan", "android": "https://dc.lft.to/lastmile_qr_scan"}, "is_reserved": 0, "fusion_lon": 0.0, "fusion_lat": 0.0, "lon": -77.04990833333333, "name": "8654b3b861b3e9eac2f9d6ad748b05f5"}, {"bike_id": "c1e08aff57c562155af4aa8e193977dc", "type": "electric_scooter", "is_disabled": 0, "lat": 38.94352533333333, "rental_uris": {"ios": "https://dc.lft.to/lastmile_qr_scan", "android": "https://dc.lft.to/lastmile_qr_scan"}, "is_reserved": 0, "fusion_lon": 0.0, "fusion_lat": 0.0, "lon": -77.03763266666667, "name": "c1e08aff57c562155af4aa8e193977dc"}, {"bike_id": "232ccea228dc7ac5b16b739909728fc6", "type": "electric_scooter", "is_disabled": 0, "lat": 38.8668595, "rental_uris": {"ios": "https://dc.lft.to/lastmile_qr_scan", "android": "https://dc.lft.to/lastmile_qr_scan"}, "is_reserved": 0, "fusion_lon": 0.0, "fusion_lat": 0.0, "lon": -76.98573616666667, "name": "232ccea228dc7ac5b16b739909728fc6"}, {"bike_id": "bd81a456708ef6801e2cf1311bb20381", "type": "electric_scooter", "is_disabled": 0, "lat": 38.90239483333333, "rental_uris": {"ios": "https://dc.lft.to/lastmile_qr_scan", "android": "https://dc.lft.to/lastmile_qr_scan"}, "is_reserved": 0, "fusion_lon": 0.0, "fusion_lat": 0.0, "lon": -77.059142, "name": "bd81a456708ef6801e2cf1311bb20381"}, {"bike_id": "d524bb3d57349651a7b3beaac45e6623", "type": "electric_scooter", "is_disabled": 0, "lat": 38.907676333333335, "rental_uris": {"ios": "https://dc.lft.to/lastmile_qr_scan", "android": "https://dc.lft.to/lastmile_qr_scan"}, "is_reserved": 0, "fusion_lon": 0.0, "fusion_lat": 0.0, "lon": -77.07388233333333, "name": "d524bb3d57349651a7b3beaac45e6623"}, {"bike_id": "628ed5fe1912d0f0a6dbb5aa55b753ce", "type": "electric_scooter", "is_disabled": 0, "lat": 38.90295483333333, "rental_uris": {"ios": "https://dc.lft.to/lastmile_qr_scan", "android": "https://dc.lft.to/lastmile_qr_scan"}, "is_reserved": 0, "fusion_lon": 0.0, "fusion_lat": 0.0, "lon": -77.00879383333333, "name": "628ed5fe1912d0f0a6dbb5aa55b753ce"}, {"bike_id": "4d90568d38e9b3684e1fd50a034a411c", "type": "electric_scooter", "is_disabled": 0, "lat": 38.923194, "rental_uris": {"ios": "https://dc.lft.to/lastmile_qr_scan", "android": "https://dc.lft.to/lastmile_qr_scan"}, "is_reserved": 0, "fusion_lon": 0.0, "fusion_lat": 0.0, "lon": -77.02133083333334, "name": "4d90568d38e9b3684e1fd50a034a411c"}, {"bike_id": "806d1032968109d455d2f20fd97a3fc2", "type": "electric_scooter", "is_disabled": 0, "lat": 38.898369833333334, "rental_uris": {"ios": "https://dc.lft.to/lastmile_qr_scan", "android": "https://dc.lft.to/lastmile_qr_scan"}, "is_reserved": 0, "fusion_lon": 0.0, "fusion_lat": 0.0, "lon": -76.91951916666666, "name": "806d1032968109d455d2f20fd97a3fc2"}, {"bike_id": "0fc4ec6bcf3031d96eb5d2b1e3d58e78", "type": "electric_scooter", "is_disabled": 0, "lat": 38.91552216666667, "rental_uris": {"ios": "https://dc.lft.to/lastmile_qr_scan", "android": "https://dc.lft.to/lastmile_qr_scan"}, "is_reserved": 0, "fusion_lon": 0.0, "fusion_lat": 0.0, "lon": -77.04445483333333, "name": "0fc4ec6bcf3031d96eb5d2b1e3d58e78"}, {"bike_id": "1fc54c683a36afafcfc6863c374b0285", "type": "electric_scooter", "is_disabled": 0, "lat": 38.957355, "rental_uris": {"ios": "https://dc.lft.to/lastmile_qr_scan", "android": "https://dc.lft.to/lastmile_qr_scan"}, "is_reserved": 0, "fusion_lon": 0.0, "fusion_lat": 0.0, "lon": -77.02402466666666, "name": "1fc54c683a36afafcfc6863c374b0285"}, {"bike_id": "2d961d97ecdab72ddcbe41f5f971d17b", "type": "electric_scooter", "is_disabled": 0, "lat": 38.965611333333335, "rental_uris": {"ios": "https://dc.lft.to/lastmile_qr_scan", "android": "https://dc.lft.to/lastmile_qr_scan"}, "is_reserved": 0, "fusion_lon": 0.0, "fusion_lat": 0.0, "lon": -77.00202933333334, "name": "2d961d97ecdab72ddcbe41f5f971d17b"}, {"bike_id": "6b44115772e44a102ff29378c9be6c07", "type": "electric_scooter", "is_disabled": 0, "lat": 38.88742833333333, "rental_uris": {"ios": "https://dc.lft.to/lastmile_qr_scan", "android": "https://dc.lft.to/lastmile_qr_scan"}, "is_reserved": 0, "fusion_lon": 0.0, "fusion_lat": 0.0, "lon": -77.02563266666667, "name": "6b44115772e44a102ff29378c9be6c07"}, {"bike_id": "15c55bf6bf91e16bf8bfbbc2e63634bd", "type": "electric_scooter", "is_disabled": 0, "lat": 38.91996416666667, "rental_uris": {"ios": "https://dc.lft.to/lastmile_qr_scan", "android": "https://dc.lft.to/lastmile_qr_scan"}, "is_reserved": 0, "fusion_lon": 0.0, "fusion_lat": 0.0, "lon": -77.03968333333333, "name": "15c55bf6bf91e16bf8bfbbc2e63634bd"}, {"bike_id": "48cd1905514a276d675814645ec1df74", "type": "electric_scooter", "is_disabled": 0, "lat": 38.924739333333335, "rental_uris": {"ios": "https://dc.lft.to/lastmile_qr_scan", "android": "https://dc.lft.to/lastmile_qr_scan"}, "is_reserved": 0, "fusion_lon": 0.0, "fusion_lat": 0.0, "lon": -77.03791466666667, "name": "48cd1905514a276d675814645ec1df74"}, {"bike_id": "0594f1ed02220a9983f8fe0698961aa5", "type": "electric_scooter", "is_disabled": 0, "lat": 38.93249766666667, "rental_uris": {"ios": "https://dc.lft.to/lastmile_qr_scan", "android": "https://dc.lft.to/lastmile_qr_scan"}, "is_reserved": 0, "fusion_lon": 0.0, "fusion_lat": 0.0, "lon": -77.03276733333334, "name": "0594f1ed02220a9983f8fe0698961aa5"}, {"bike_id": "d7a45e078e5e817c93ca426168fdc75d", "type": "electric_scooter", "is_disabled": 0, "lat": 38.914009666666665, "rental_uris": {"ios": "https://dc.lft.to/lastmile_qr_scan", "android": "https://dc.lft.to/lastmile_qr_scan"}, "is_reserved": 0, "fusion_lon": 0.0, "fusion_lat": 0.0, "lon": -77.03990216666666, "name": "d7a45e078e5e817c93ca426168fdc75d"}, {"bike_id": "afe37a501e8c33e4b83cb53aa22ef0d3", "type": "electric_scooter", "is_disabled": 0, "lat": 38.92053766666667, "rental_uris": {"ios": "https://dc.lft.to/lastmile_qr_scan", "android": "https://dc.lft.to/lastmile_qr_scan"}, "is_reserved": 0, "fusion_lon": 0.0, "fusion_lat": 0.0, "lon": -77.02349366666667, "name": "afe37a501e8c33e4b83cb53aa22ef0d3"}, {"bike_id": "9dd1ba4381ff8ad92e15d30185674020", "type": "electric_scooter", "is_disabled": 0, "lat": 38.883010166666665, "rental_uris": {"ios": "https://dc.lft.to/lastmile_qr_scan", "android": "https://dc.lft.to/lastmile_qr_scan"}, "is_reserved": 0, "fusion_lon": 0.0, "fusion_lat": 0.0, "lon": -76.94203333333333, "name": "9dd1ba4381ff8ad92e15d30185674020"}, {"bike_id": "9b08a0839dcba24dbe728eb9f6401451", "type": "electric_scooter", "is_disabled": 0, "lat": 38.902393000000004, "rental_uris": {"ios": "https://dc.lft.to/lastmile_qr_scan", "android": "https://dc.lft.to/lastmile_qr_scan"}, "is_reserved": 0, "fusion_lon": 0.0, "fusion_lat": 0.0, "lon": -77.018221, "name": "9b08a0839dcba24dbe728eb9f6401451"}, {"bike_id": "8589f7caf5b427d4a9e24adbb9e7c893", "type": "electric_scooter", "is_disabled": 0, "lat": 38.923256, "rental_uris": {"ios": "https://dc.lft.to/lastmile_qr_scan", "android": "https://dc.lft.to/lastmile_qr_scan"}, "is_reserved": 0, "fusion_lon": 0.0, "fusion_lat": 0.0, "lon": -77.0296555, "name": "8589f7caf5b427d4a9e24adbb9e7c893"},