{"data": {"bikes": [{"fusion_lat": 0.0, "name": "66656894e33932d1a76228fa3a57a841", "is_disabled": 0, "rental_uris": {"android": "https://dc.lft.to/lastmile_qr_scan", "ios": "https://dc.lft.to/lastmile_qr_scan"}, "fusion_lon": 0.0, "lat": 38.91817666666667, "bike_id": "66656894e33932d1a76228fa3a57a841", "type": "electric_scooter", "is_reserved": 0, "lon": -77.02469966666666}, {"fusion_lat": 0.0, "name": "9de27fbeb24b983aafee5d7daf21587a", "is_disabled": 0, "rental_uris": {"android": "https://dc.lft.to/lastmile_qr_scan", "ios": "https://dc.lft.to/lastmile_qr_scan"}, "fusion_lon": 0.0, "lat": 38.925729, "bike_id": "9de27fbeb24b983aafee5d7daf21587a", "type": "electric_scooter", "is_reserved": 0, "lon": -77.02246116666667}, {"fusion_lat": 0.0, "name": "bcaa4bbbd294442626863ad808bbb59b", "is_disabled": 0, "rental_uris": {"android": "https://dc.lft.to/lastmile_qr_scan", "ios": "https://dc.lft.to/lastmile_qr_scan"}, "fusion_lon": 0.0, "lat": 39.07055916666667, "bike_id": "bcaa4bbbd294442626863ad808bbb59b", "type": "electric_bike", "is_reserved": 0, "lon": -77.11476933333333}, {"fusion_lat": 0.0, "name": "83e6119b71bd1006b7db3f508b483ad6", "is_disabled": 0, "rental_uris": {"android": "https://dc.lft.to/lastmile_qr_scan", "ios": "https://dc.lft.to/lastmile_qr_scan"}, "fusion_lon": 0.0, "lat": 38.961349, "bike_id": "83e6119b71bd1006b7db3f508b483ad6", "type": "electric_bike", "is_reserved": 0, "lon": -77.03231}, {"fusion_lat": 0.0, "name": "7e30ad6e760f8dd5f6ce4f2d7f3ecbb5", "is_disabled": 0, "rental_uris": {"android": "https://dc.lft.to/lastmile_qr_scan", "ios": "https://dc.lft.to/lastmile_qr_scan"}, "fusion_lon": 0.0, "lat": 38.923462, "bike_id": "7e30ad6e760f8dd5f6ce4f2d7f3ecbb5", "type": "electric_scooter", "is_reserved": 0, "lon": -77.00191116666667}, {"fusion_lat": 0.0, "name": "364a7929ba74451e7d19a400c6aac331", "is_disabled": 0, "rental_uris": {"android": "https://dc.lft.to/lastmile_qr_scan", "ios": "https://dc.lft.to/lastmile_qr_scan"}, "fusion_lon": 0.0, "lat": 38.93924783333333, "bike_id": "364a7929ba74451e7d19a400c6aac331", "type": "electric_scooter", "is_reserved": 0, "lon": -77.027994}, {"fusion_lat": 0.0, "name": "b97eb62493e4200f644e55cf25169830", "is_disabled": 0, "rental_uris": {"android": "https://dc.lft.to/lastmile_qr_scan", "ios": "https://dc.lft.to/lastmile_qr_scan"}, "fusion_lon": 0.0, "lat": 38.9205865, "bike_id": "b97eb62493e4200f644e55cf25169830", "type": "electric_scooter", "is_reserved": 0, "lon": -76.99854416666666}, {"fusion_lat": 0.0, "name": "34ef35a71e8eac49d0e27aa80abe7693", "is_disabled": 0, "rental_uris": {"android": "https://dc.lft.to/lastmile_qr_scan", "ios": "https://dc.lft.to/lastmile_qr_scan"}, "fusion_lon": 0.0, "lat": 38.91036183333333, "bike_id": "34ef35a71e8eac49d0e27aa80abe7693", "type": "electric_scooter", "is_reserved": 0, "lon": -77.00756633333333}, {"fusion_lat": 0.0, "name": "5a08ffcb03e87e5531e1a934c99dc28c", "is_disabled": 0, "rental_uris": {"android": "https://dc.lft.to/lastmile_qr_scan", "ios": "https://dc.lft.to/lastmile_qr_scan"}, "fusion_lon": 0.0, "lat": 38.906741, "bike_id": "5a08ffcb03e87e5531e1a934c99dc28c", "type": "electric_scooter", "is_reserved": 0, "lon": -77.02188366666667}, {"fusion_lat": 0.0, "name": "e05451116f83851998aa218a0d431440", "is_disabled": 0, "rental_uris": {"android": "https://dc.lft.to/lastmile_qr_scan", "ios": "https://dc.lft.to/lastmile_qr_scan"}, "fusion_lon": 0.0, "lat": 38.88405933333333, "bike_id": "e05451116f83851998aa218a0d431440", "type": "electric_scooter", "is_reserved": 0, "lon": -77.01994883333333}, {"fusion_lat": 0.0, "name": "481f2bbb8d726858892b1f4b8a0ded8b", "is_disabled": 0, "rental_uris": {"android": "https://dc.lft.to/lastmile_qr_scan", "ios": "https://dc.lft.to/lastmile_qr_scan"}, "fusion_lon": 0.0, "lat": 38.85359416666667, "bike_id": "481f2bbb8d726858892b1f4b8a0ded8b", "type": "electric_bike", "is_reserved": 0, "lon": -77.134604}, {"fusion_lat": 0.0, "name": "887c0e09f1d97334e66aa2fc618c0b0e", "is_disabled": 0, "rental_uris": {"android": "https://dc.lft.to/lastmile_qr_scan", "ios": "https://dc.lft.to/lastmile_qr_scan"}, "fusion_lon": 0.0, "lat": 38.92162066666667, "bike_id": "887c0e09f1d97334e66aa2fc618c0b0e", "type": "electric_scooter", "is_reserved": 0, "lon": -77.03394616666667}, {"fusion_lat": 0.0, "name": "fa7a65305ebc61a619b63c531461b2b1", "is_disabled": 0, "rental_uris": {"android": "https://dc.lft.to/lastmile_qr_scan", "ios": "https://dc.lft.to/lastmile_qr_scan"}, "fusion_lon": 0.0, "lat": 38.84757066666667, "bike_id": "fa7a65305ebc61a619b63c531461b2b1", "type": "electric_scooter", "is_reserved": 0, "lon": -76.99500583333334}, {"fusion_lat": 0.0, "name": "29d4bfb8562f4759701e6fcc03a0c5d5", "is_disabled": 0, "rental_uris": {"android": "https://dc.lft.to/lastmile_qr_scan", "ios": "https://dc.lft.to/lastmile_qr_scan"}, "fusion_lon": 0.0, "lat": 38.9069695, "bike_id": "29d4bfb8562f4759701e6fcc03a0c5d5", "type": "electric_scooter", "is_reserved": 0, "lon": -77.03722816666667}, {"fusion_lat": 0.0, "name": "3424ab6cdfda71f21aa5c292338c9164", "is_disabled": 0, "rental_uris": {"android": "https://dc.lft.to/lastmile_qr_scan", "ios": "https://dc.lft.to/lastmile_qr_scan"}, "fusion_lon": 0.0, "lat": 38.914940333333334, "bike_id": "3424ab6cdfda71f21aa5c292338c9164", "type": "electric_scooter", "is_reserved": 0, "lon": -77.013219}, {"fusion_lat": 0.0, "name": "c1a330cffa5e97013ebfc3e7c543f11a", "is_disabled": 0, "rental_uris": {"android": "https://dc.lft.to/lastmile_qr_scan", "ios": "https://dc.lft.to/lastmile_qr_scan"}, "fusion_lon": 0.0, "lat": 38.905251, "bike_id": "c1a330cffa5e97013ebfc3e7c543f11a", "type": "electric_scooter", "is_reserved": 0, "lon": -77.0645655}, {"fusion_lat": 0.0, "name": "b60df4f276bbb6b99a6daadd9e33d878", "is_disabled": 0, "rental_uris": {"android": "https://dc.lft.to/lastmile_qr_scan", "ios": "https://dc.lft.to/lastmile_qr_scan"}, "fusion_lon": 0.0, "lat": 38.92396383333333, "bike_id": "b60df4f276bbb6b99a6daadd9e33d878", "type": "electric_scooter", "is_reserved": 0, "lon": -77.025215}, {"fusion_lat": 0.0, "name": "579a453a11c45f1a23e897f882f068af", "is_disabled": 0, "rental_uris": {"android": "https://dc.lft.to/lastmile_qr_scan", "ios": "https://dc.lft.to/lastmile_qr_scan"}, "fusion_lon": 0.0, "lat": 38.924607333333334, "bike_id": "579a453a11c45f1a23e897f882f068af", "type": "electric_scooter", "is_reserved": 0, "lon": -77.03635466666667}, {"fusion_lat": 0.0, "name": "8d5d067048bc5b17bbf9252dcf134fd2", "is_disabled": 0, "rental_uris": {"android": "https://dc.lft.to/lastmile_qr_scan", "ios": "https://dc.lft.to/lastmile_qr_scan"}, "fusion_lon": 0.0, "lat": 38.901441166666665, "bike_id": "8d5d067048bc5b17bbf9252dcf134fd2", "type": "electric_scooter", "is_reserved": 0, "lon": -76.99837183333334}, {"fusion_lat": 0.0, "name": "81ca35776924418b99e31a9fa1211f99", "is_disabled": 0, "rental_uris": {"android": "https://dc.lft.to/lastmile_qr_scan", "ios": "https://dc.lft.to/lastmile_qr_scan"}, "fusion_lon": 0.0, "lat": 38.89304816666667, "bike_id": "81ca35776924418b99e31a9fa1211f99", "type": "electric_scooter", "is_reserved": 0, "lon": -77.0465645}, {"fusion_lat": 0.0, "name": "87fa4ed696d71683f648577edd40034c", "is_disabled": 0, "rental_uris": {"android": "https://dc.lft.to/lastmile_qr_scan", "ios": "https://dc.lft.to/lastmile_qr_scan"}, "fusion_lon": 0.0, "lat": 38.931173333333334, "bike_id": "87fa4ed696d71683f648577edd40034c", "type": "electric_scooter", "is_reserved": 0, "lon": -77.03635766666666}, {"fusion_lat": 0.0, "name": "bf57866c7d22b7f193259bc4e631e27d", "is_disabled": 0, "rental_uris": {"android": "https://dc.lft.to/lastmile_qr_scan", "ios": "https://dc.lft.to/lastmile_qr_scan"}, "fusion_lon": 0.0, "lat": 38.929053833333334, "bike_id": "bf57866c7d22b7f193259bc4e631e27d", "type": "electric_scooter", "is_reserved": 0, "lon": -77.03759516666666}, {"fusion_lat": 0.0, "name": "ca072b71fa6204f6b201cb31271eca28", "is_disabled": 0, "rental_uris": {"android": "https://dc.lft.to/lastmile_qr_scan", "ios": "https://dc.lft.to/lastmile_qr_scan"}, "fusion_lon": 0.0, "lat": 38.9178775, "bike_id": "ca072b71fa6204f6b201cb31271eca28", "type": "electric_scooter", "is_reserved": 0, "lon": -77.04346283333334}, {"fusion_lat": 0.0, "name": "749e4909f86a01ec67592a983e927c58", "is_disabled": 0, "rental_uris": {"android": "https://dc.lft.to/lastmile_qr_scan", "ios": "https://dc.lft.to/lastmile_qr_scan"}, "fusion_lon": 0.0, "lat": 38.935783666666666, "bike_id": "749e4909f86a01ec67592a983e927c58", "type": "electric_scooter", "is_reserved": 0, "lon": -77.01923983333333}, {"fusion_lat": 0.0, "name": "8d1465a307e3aa47b3ac29d86656268e", "is_disabled": 0, "rental_uris": {"android": "https://dc.lft.to/lastmile_qr_scan", "ios": "https://dc.lft.to/lastmile_qr_scan"}, "fusion_lon": 0.0, "lat": 38.894701833333336, "bike_id": "8d1465a307e3aa47b3ac29d86656268e", "type": "electric_scooter", "is_reserved": 0, "lon": -77.0103795}, {"fusion_lat": 0.0, "name": "4d3b261a034bb5075df3f6a0678e051a", "is_disabled": 0, "rental_uris": {"android": "https://dc.lft.to/lastmile_qr_scan", "ios": "https://dc.lft.to/lastmile_qr_scan"}, "fusion_lon": 0.0, "lat": 38.914555666666665, "bike_id": "4d3b261a034bb5075df3f6a0678e051a", "type": "electric_scooter", "is_reserved": 0, "lon": -77.01285933333334}, {"fusion_lat": 0.0, "name": "a20413b61a57ec297c032028f17d66c5", "is_disabled": 0, "rental_uris": {"android": "https://dc.lft.to/lastmile_qr_scan", "ios": "https://dc.lft.to/lastmile_qr_scan"}, "fusion_lon": 0.0, "lat": 38.91705816666666, "bike_id": "a20413b61a57ec297c032028f17d66c5", "type": "electric_scooter", "is_reserved": 0, "lon": -77.04038416666667}, {"fusion_lat": 0.0, "name": "55b8357a5e61079aadaa2935257fa69d", "is_disabled": 0, "rental_uris": {"android": "https://dc.lft.to/lastmile_qr_scan", "ios": "https://dc.lft.to/lastmile_qr_scan"}, "fusion_lon": 0.0, "lat": 38.9049425, "bike_id": "55b8357a5e61079aadaa2935257fa69d", "type": "electric_bike", "is_reserved": 0, "lon": -77.02974283333333}, {"fusion_lat": 0.0, "name": "e01cf038ddc5c35c736bdd00c5e49301", "is_disabled": 0, "rental_uris": {"android": "https://dc.lft.to/lastmile_qr_scan", "ios": "https://dc.lft.to/lastmile_qr_scan"}, "fusion_lon": 0.0, "lat": 38.90732583333333, "bike_id": "e01cf038ddc5c35c736bdd00c5e49301", "type": "electric_scooter", "is_reserved": 0, "lon": -77.03955133333334}, {"fusion_lat": 0.0, "name": "7bcca54538462d5dae5f79ace8a3cfc7", "is_disabled": 0, "rental_uris": {"android": "https://dc.lft.to/lastmile_qr_scan", "ios": "https://dc.lft.to/lastmile_qr_scan"}, "fusion_lon": 0.0, "lat": 38.9564045, "bike_id": "7bcca54538462d5dae5f79ace8a3cfc7", "type": "electric_scooter", "is_reserved": 0, "lon": -77.032987}, {"fusion_lat": 0.0, "name": "d917514a5d4f34cb5e91e5c743914144", "is_disabled": 0, "rental_uris": {"android": "https://dc.lft.to/lastmile_qr_scan", "ios": "https://dc.lft.to/lastmile_qr_scan"}, "fusion_lon": 0.0, "lat": 38.8960535, "bike_id": "d917514a5d4f34cb5e91e5c743914144", "type": "electric_scooter", "is_reserved": 0, "lon": -77.03167416666666}, {"fusion_lat": 0.0, "name": "3eb752aa7a927e3ea361be8397543e82", "is_disabled": 0, "rental_uris": {"android": "https://dc.lft.to/lastmile_qr_scan", "ios": "https://dc.lft.to/lastmile_qr_scan"}, "fusion_lon": 0.0, "lat": 38.845090166666665, "bike_id": "3eb752aa7a927e3ea361be8397543e82", "type": "electric_bike", "is_reserved": 0, "lon": -76.99349416666666}, {"fusion_lat": 0.0, "name": "2727f5f175e4b8a9627fefda5a0b19a1", "is_disabled": 0, "rental_uris": {"android": "https://dc.lft.to/lastmile_qr_scan", "ios": "https://dc.lft.to/lastmile_qr_scan"}, "fusion_lon": 0.0, "lat": 38.94205133333333, "bike_id": "2727f5f175e4b8a9627fefda5a0b19a1", "type": "electric_scooter", "is_reserved": 0, "lon": -77.02591016666666}, {"fusion_lat": 0.0, "name": "47ef2a4bab9ce55707f8a798b31e872e", "is_disabled": 0, "rental_uris": {"android": "https://dc.lft.to/lastmile_qr_scan", "ios": "https://dc.lft.to/lastmile_qr_scan"}, "fusion_lon": 0.0, "lat": 38.90026833333334, "bike_id": "47ef2a4bab9ce55707f8a798b31e872e", "type": "electric_scooter", "is_reserved": 0, "lon": -76.99563083333334}, {"fusion_lat": 0.0, "name": "0d40b23be601684a9fa9d3b157a01e70", "is_disabled": 0, "rental_uris": {"android": "https://dc.lft.to/lastmile_qr_scan", "ios": "https://dc.lft.to/lastmile_qr_scan"}, "fusion_lon": 0.0, "lat": 38.93121583333333, "bike_id": "0d40b23be601684a9fa9d3b157a01e70", "type": "electric_scooter", "is_reserved": 0, "lon": -77.02979216666667}, {"fusion_lat": 0.0, "name": "1e7ff5912d9240aa31c77ba61d5f9c37", "is_disabled": 0, "rental_uris": {"android": "https://dc.lft.to/lastmile_qr_scan", "ios": "https://dc.lft.to/lastmile_qr_scan"}, "fusion_lon": 0.0, "lat": 38.927684166666666, "bike_id": "1e7ff5912d9240aa31c77ba61d5f9c37", "type": "electric_scooter", "is_reserved": 0, "lon": -77.0287015}, {"fusion_lat": 0.0, "name": "8902ec99f03a2ba8f2545e7fc0497c0c", "is_disabled": 0, "rental_uris": {"android": "https://dc.lft.to/lastmile_qr_scan", "ios": "https://dc.lft.to/lastmile_qr_scan"}, "fusion_lon": 0.0, "lat": 38.897319, "bike_id": "8902ec99f03a2ba8f2545e7fc0497c0c", "type": "electric_scooter", "is_reserved": 0, "lon": -77.02722516666667}, {"fusion_lat": 0.0, "name": "acd01c9e6460b56ce79fd5457f232762", "is_disabled": 0, "rental_uris": {"android": "https://dc.lft.to/lastmile_qr_scan", "ios": "https://dc.lft.to/lastmile_qr_scan"}, "fusion_lon": 0.0, "lat": 38.90249816666667, "bike_id": "acd01c9e6460b56ce79fd5457f232762", "type": "electric_scooter", "is_reserved": 0, "lon": -77.0436215}, {"fusion_lat": 0.0, "name": "2f0713be5d503e644e35c65530f73bb2", "is_disabled": 0, "rental_uris": {"android": "https://dc.lft.to/lastmile_qr_scan", "ios": "https://dc.lft.to/lastmile_qr_scan"}, "fusion_lon": 0.0, "lat": 38.894867166666664, "bike_id": "2f0713be5d503e644e35c65530f73bb2", "type": "electric_scooter", "is_reserved": 0, "lon": -77.026667}, {"fusion_lat": 0.0, "name": "6b1638685cfb4a2712c51a64fa5dc7e6", "is_disabled": 0, "rental_uris": {"android": "https://dc.lft.to/lastmile_qr_scan", "ios": "https://dc.lft.to/lastmile_qr_scan"}, "fusion_lon": 0.0, "lat": 38.86258816666667, "bike_id": "6b1638685cfb4a2712c51a64fa5dc7e6", "type": "electric_bike", "is_reserved": 0, "lon": -76.98344433333334}, {"fusion_lat": 0.0, "name": "53376648b622bd80dae16e0e99a12ae7", "is_disabled": 0, "rental_uris": {"android": "https://dc.lft.to/lastmile_qr_scan", "ios": "https://dc.lft.to/lastmile_qr_scan"}, "fusion_lon": 0.0, "lat": 38.93562883333333, "bike_id": "53376648b622bd80dae16e0e99a12ae7", "type": "electric_scooter", "is_reserved": 0, "lon": -77.034796}, {"fusion_lat": 0.0, "name": "bc1194c8f299f886ea4c8b0b39b21edb", "is_disabled": 0, "rental_uris": {"android": "https://dc.lft.to/lastmile_qr_scan", "ios": "https://dc.lft.to/lastmile_qr_scan"}, "fusion_lon": 0.0, "lat": 38.916701, "bike_id": "bc1194c8f299f886ea4c8b0b39b21edb", "type": "electric_scooter", "is_reserved": 0, "lon": -77.02717683333333}, {"fusion_lat": 0.0, "name": "61e4e922167b98941e0f6ddfb0d21b22", "is_disabled": 0, "rental_uris": {"android": "https://dc.lft.to/lastmile_qr_scan", "ios": "https://dc.lft.to/lastmile_qr_scan"}, "fusion_lon": 0.0, "lat": 38.902545833333335, "bike_id": "61e4e922167b98941e0f6ddfb0d21b22", "type": "electric_scooter", "is_reserved": 0, "lon": -77.01923133333334}, {"fusion_lat": 0.0, "name": "7ad634be9f1d530b49c5dc3ff087d970", "is_disabled": 0, "rental_uris": {"android": "https://dc.lft.to/lastmile_qr_scan", "ios": "https://dc.lft.to/lastmile_qr_scan"}, "fusion_lon": 0.0, "lat": 38.930639, "bike_id": "7ad634be9f1d530b49c5dc3ff087d970", "type": "electric_scooter", "is_reserved": 0, "lon": -77.02967116666666}, {"fusion_lat": 0.0, "name": "d9727bbfcc0c01424c22a8593908fc63", "is_disabled": 0, "rental_uris": {"android": "https://dc.lft.to/lastmile_qr_scan", "ios": "https://dc.lft.to/lastmile_qr_scan"}, "fusion_lon": 0.0, "lat": 38.895075, "bike_id": "d9727bbfcc0c01424c22a8593908fc63", "type": "electric_scooter", "is_reserved": 0, "lon": -77.0113}, {"fusion_lat": 0.0, "name": "131c8ed24621f54cad7d5c2985210fac", "is_disabled": 0, "rental_uris": {"android": "https://dc.lft.to/lastmile_qr_scan", "ios": "https://dc.lft.to/lastmile_qr_scan"}, "fusion_lon": 0.0, "lat": 38.90610916666667, "bike_id": "131c8ed24621f54cad7d5c2985210fac", "type": "electric_scooter", "is_reserved": 0, "lon": -77.0413365}, {"fusion_lat": 0.0, "name": "aaf0d5baa13424cfe97f88b63f48bd88", "is_disabled": 0, "rental_uris": {"android": "https://dc.lft.to/lastmile_qr_scan", "ios": "https://dc.lft.to/lastmile_qr_scan"}, "fusion_lon": 0.0, "lat": 38.85797766666666, "bike_id": "aaf0d5baa13424cfe97f88b63f48bd88", "type": "electric_bike", "is_reserved": 0, "lon": -77.12014416666666}, {"fusion_lat": 0.0, "name": "b1202ae483638fc20cab2b4ef5ea9bdd", "is_disabled": 0, "rental_uris": {"android": "https://dc.lft.to/lastmile_qr_scan", "ios": "https://dc.lft.to/lastmile_qr_scan"}, "fusion_lon": 0.0, "lat": 38.93051333333333, "bike_id": "b1202ae483638fc20cab2b4ef5ea9bdd", "type": "electric_scooter", "is_reserved": 0, "lon": -77.03349266666666}, {"fusion_lat": 0.0, "name": "1d91d1d445278a41f6e6c9941b968b3f", "is_disabled": 0, "rental_uris": {"android": "https://dc.lft.to/lastmile_qr_scan", "ios": "https://dc.lft.to/lastmile_qr_scan"}, "fusion_lon": 0.0, "lat": 38.883377, "bike_id": "1d91d1d445278a41f6e6c9941b968b3f", "type": "electric_scooter", "is_reserved": 0, "lon": -77.0174795}, {"fusion_lat": 0.0, "name": "673ba9381d7d03679d91de56984ff33a", "is_disabled": 0, "rental_uris": {"android": "https://dc.lft.to/lastmile_qr_scan", "ios": "https://dc.lft.to/lastmile_qr_scan"}, "fusion_lon": 0.0, "lat": 38.90269833333333, "bike_id": "673ba9381d7d03679d91de56984ff33a", "type": "electric_scooter", "is_reserved": 0, "lon": -77.00327816666666}, {"fusion_lat": 0.0, "name": "57274d6087d6e7772d1e379fe63e3157", "is_disabled": 0, "rental_uris": {"android": "https://dc.lft.to/lastmile_qr_scan", "ios": "https://dc.lft.to/lastmile_qr_scan"}, "fusion_lon": 0.0, "lat": 38.918065166666665, "bike_id": "57274d6087d6e7772d1e379fe63e3157", "type": "electric_scooter", "is_reserved": 0, "lon": -77.03718516666666}, {"fusion_lat": 0.0, "name": "286d72f76398cb183f81e1a9a75e5593", "is_disabled": 0, "rental_uris": {"android": "https://dc.lft.to/lastmile_qr_scan", "ios": "https://dc.lft.to/lastmile_qr_scan"}, "fusion_lon": 0.0, "lat": 38.91474916666667, "bike_id": "286d72f76398cb183f81e1a9a75e5593", "type": "electric_scooter", "is_reserved": 0, "lon": -77.02406233333333}, {"fusion_lat": 0.0, "name": "8d7548df8ad6ad393bfeeb81a1ba0d47", "is_disabled": 0, "rental_uris": {"android": "https://dc.lft.to/lastmile_qr_scan", "ios": "https://dc.lft.to/lastmile_qr_scan"}, "fusion_lon": 0.0, "lat": 38.84759283333333, "bike_id": "8d7548df8ad6ad393bfeeb81a1ba0d47", "type": "electric_scooter", "is_reserved": 0, "lon": -76.9949705}, {"fusion_lat": 0.0, "name": "f2ccbabc3b486b9ab6339f1bdb256f43", "is_disabled": 0, "rental_uris": {"android": "https://dc.lft.to/lastmile_qr_scan", "ios": "https://dc.lft.to/lastmile_qr_scan"}, "fusion_lon": 0.0, "lat": 38.89877933333333, "bike_id": "f2ccbabc3b486b9ab6339f1bdb256f43", "type": "electric_scooter", "is_reserved": 0, "lon": -76.931856}, {"fusion_lat": 0.0, "name": "eca027e8c0c68a9836fc7a63791a4f21", "is_disabled": 0, "rental_uris": {"android": "https://dc.lft.to/lastmile_qr_scan", "ios": "https://dc.lft.to/lastmile_qr_scan"}, "fusion_lon": 0.0, "lat": 39.05253833333333, "bike_id": "eca027e8c0c68a9836fc7a63791a4f21", "type": "electric_bike", "is_reserved": 0, "lon": -77.08064716666667}, {"fusion_lat": 0.0, "name": "aaf58bec225eddbf2f73a50daf7277b0", "is_disabled": 0, "rental_uris": {"android": "https://dc.lft.to/lastmile_qr_scan", "ios": "https://dc.lft.to/lastmile_qr_scan"}, "fusion_lon": 0.0, "lat": 38.93362, "bike_id": "aaf58bec225eddbf2f73a50daf7277b0", "type": "electric_scooter", "is_reserved": 0, "lon": -77.0242675}, {"fusion_lat": 0.0, "name": "32ba4fef15f7a0794803c844f174ca9d", "is_disabled": 0, "rental_uris": {"android": "https://dc.lft.to/lastmile_qr_scan", "ios": "https://dc.lft.to/lastmile_qr_scan"}, "fusion_lon": 0.0, "lat": 38.89722233333333, "bike_id": "32ba4fef15f7a0794803c844f174ca9d", "type": "electric_scooter", "is_reserved": 0, "lon": -77.0270655}, {"fusion_lat": 0.0, "name": "05f519294ad498d4977b6ae5b2f21aeb", "is_disabled": 0, "rental_uris": {"android": "https://dc.lft.to/lastmile_qr_scan", "ios": "https://dc.lft.to/lastmile_qr_scan"}, "fusion_lon": 0.0, "lat": 38.935237, "bike_id": "05f519294ad498d4977b6ae5b2f21aeb", "type": "electric_scooter", "is_reserved": 0, "lon": -77.0725775}, {"fusion_lat": 0.0, "name": "0f92fda7d077666baededb1beb3562a7", "is_disabled": 0, "rental_uris": {"android": "https://dc.lft.to/lastmile_qr_scan", "ios": "https://dc.lft.to/lastmile_qr_scan"}, "fusion_lon": 0.0, "lat": 38.89852966666667, "bike_id": "0f92fda7d077666baededb1beb3562a7", "type": "electric_scooter", "is_reserved": 0, "lon": -76.99033583333333}, {"fusion_lat": 0.0, "name": "373ddceeb41f893cf280abbbf5c08fb7", "is_disabled": 0, "rental_uris": {"android": "https://dc.lft.to/lastmile_qr_scan", "ios": "https://dc.lft.to/lastmile_qr_scan"}, "fusion_lon": 0.0, "lat": 38.924355, "bike_id": "373ddceeb41f893cf280abbbf5c08fb7", "type": "electric_scooter", "is_reserved": 0, "lon": -77.00066283333334}, {"fusion_lat": 0.0, "name": "194c910b3f51cc81ebcceec9cb9b1ed9", "is_disabled": 0, "rental_uris": {"android": "https://dc.lft.to/lastmile_qr_scan", "ios": "https://dc.lft.to/lastmile_qr_scan"}, "fusion_lon": 0.0, "lat": 38.93197466666667, "bike_id": "194c910b3f51cc81ebcceec9cb9b1ed9", "type": "electric_scooter", "is_reserved": 0, "lon": -77.0429355}, {"fusion_lat": 0.0, "name": "d45a6d3aeffa8312fa98a819175a44ac", "is_disabled": 0, "rental_uris": {"android": "https://dc.lft.to/lastmile_qr_scan", "ios": "https://dc.lft.to/lastmile_qr_scan"}, "fusion_lon": 0.0, "lat": 38.876315, "bike_id": "d45a6d3aeffa8312fa98a819175a44ac", "type": "electric_scooter", "is_reserved": 0, "lon": -77.01683383333334}, {"fusion_lat": 0.0, "name": "b89f385b7695914a2279a0ffa98fc489", "is_disabled": 0, "rental_uris": {"android": "https://dc.lft.to/lastmile_qr_scan", "ios": "https://dc.lft.to/lastmile_qr_scan"}, "fusion_lon": 0.0, "lat": 38.832339, "bike_id": "b89f385b7695914a2279a0ffa98fc489", "type": "electric_bike", "is_reserved": 0, "lon": -76.9462285}, {"fusion_lat": 0.0, "name": "c9c3ef6169183638c0c4f2257a3cf267", "is_disabled": 0, "rental_uris": {"android": "https://dc.lft.to/lastmile_qr_scan", "ios": "https://dc.lft.to/lastmile_qr_scan"}, "fusion_lon": 0.0, "lat": 38.90564633333334, "bike_id": "c9c3ef6169183638c0c4f2257a3cf267", "type": "electric_scooter", "is_reserved": 0, "lon": -77.06258633333333}, {"fusion_lat": 0.0, "name": "8527ca6167847faf92be5f89999e0ea3", "is_disabled": 0, "rental_uris": {"android": "https://dc.lft.to/lastmile_qr_scan", "ios": "https://dc.lft.to/lastmile_qr_scan"}, "fusion_lon": 0.0, "lat": 38.887279666666664, "bike_id": "8527ca6167847faf92be5f89999e0ea3", "type": "electric_scooter", "is_reserved": 0, "lon": -76.98353866666666}, {"fusion_lat": 0.0, "name": "f4e7c3a191a53735ef635b24f58e877b", "is_disabled": 0, "rental_uris": {"android": "https://dc.lft.to/lastmile_qr_scan", "ios": "https://dc.lft.to/lastmile_qr_scan"}, "fusion_lon": 0.0, "lat": 38.8844085, "bike_id": "f4e7c3a191a53735ef635b24f58e877b", "type": "electric_scooter", "is_reserved": 0, "lon": -77.02473016666667}, {"fusion_lat": 0.0, "name": "6ff5393ea0bf1501d13e1757b402556b", "is_disabled": 0, "rental_uris": {"android": "https://dc.lft.to/lastmile_qr_scan", "ios": "https://dc.lft.to/lastmile_qr_scan"}, "fusion_lon": 0.0, "lat": 38.8413895, "bike_id": "6ff5393ea0bf1501d13e1757b402556b", "type": "electric_bike", "is_reserved": 0, "lon": -76.94762833333333}, {"fusion_lat": 0.0, "name": "2cd9d6bdecd2a60a65d20cfe10c685d7", "is_disabled": 0, "rental_uris": {"android": "https://dc.lft.to/lastmile_qr_scan", "ios": "https://dc.lft.to/lastmile_qr_scan"}, "fusion_lon": 0.0, "lat": 38.92254533333333, "bike_id": "2cd9d6bdecd2a60a65d20cfe10c685d7", "type": "electric_scooter", "is_reserved": 0, "lon": -77.05083316666666}, {"fusion_lat": 0.0, "name": "7543f96508898f55a22ced0c086b18cc", "is_disabled": 0, "rental_uris": {"android": "https://dc.lft.to/lastmile_qr_scan", "ios": "https://dc.lft.to/lastmile_qr_scan"}, "fusion_lon": 0.0, "lat": 38.9254485, "bike_id": "7543f96508898f55a22ced0c086b18cc", "type": "electric_scooter", "is_reserved": 0, "lon": -77.0511715}, {"fusion_lat": 0.0, "name": "4813e1b2ef40c2d8a4c3ea991d3cecb1", "is_disabled": 0, "rental_uris": {"android": "https://dc.lft.to/lastmile_qr_scan", "ios": "https://dc.lft.to/lastmile_qr_scan"}, "fusion_lon": 0.0, "lat": 38.88758716666667, "bike_id": "4813e1b2ef40c2d8a4c3ea991d3cecb1", "type": "electric_scooter", "is_reserved": 0, "lon": -77.00253783333334}, {"fusion_lat": 0.0, "name": "e8efdaa1c6a99c15aefb8bf3649b2df4", "is_disabled": 0, "rental_uris": {"android": "https://dc.lft.to/lastmile_qr_scan", "ios": "https://dc.lft.to/lastmile_qr_scan"}, "fusion_lon": 0.0, "lat": 38.929049666666664, "bike_id": "e8efdaa1c6a99c15aefb8bf3649b2df4", "type": "electric_scooter", "is_reserved": 0, "lon": -77.05457916666667}, {"fusion_lat": 0.0, "name": "ac939d9dc8ff70a86709cab0d617da76", "is_disabled": 0, "rental_uris": {"android": "https://dc.lft.to/lastmile_qr_scan", "ios": "https://dc.lft.to/lastmile_qr_scan"}, "fusion_lon": 0.0, "lat": 38.91023033333333, "bike_id": "ac939d9dc8ff70a86709cab0d617da76", "type": "electric_scooter", "is_reserved": 0, "lon": -77.03866066666667}, {"fusion_lat": 0.0, "name": "c73a13531c93bbeb5d987dde350f043c", "is_disabled": 0, "rental_uris": {"android": "https://dc.lft.to/lastmile_qr_scan", "ios": "https://dc.lft.to/lastmile_qr_scan"}, "fusion_lon": 0.0, "lat": 38.87977083333333, "bike_id": "c73a13531c93bbeb5d987dde350f043c", "type": "electric_bike", "is_reserved": 0, "lon": -77.17842533333334}, {"fusion_lat": 0.0, "name": "a063022336049a98f1a4a160356118f2", "is_disabled": 0, "rental_uris": {"android": "https://dc.lft.to/lastmile_qr_scan", "ios": "https://dc.lft.to/lastmile_qr_scan"}, "fusion_lon": 0.0, "lat": 38.86631333333333, "bike_id": "a063022336049a98f1a4a160356118f2", "type": "electric_scooter", "is_reserved": 0, "lon": -76.98712816666666}, {"fusion_lat": 0.0, "name": "546ab810a010ca7c972383eff1bbfe4d", "is_disabled": 0, "rental_uris": {"android": "https://dc.lft.to/lastmile_qr_scan", "ios": "https://dc.lft.to/lastmile_qr_scan"}, "fusion_lon": 0.0, "lat": 38.9171725, "bike_id": "546ab810a010ca7c972383eff1bbfe4d", "type": "electric_scooter", "is_reserved": 0, "lon": -77.0371635}, {"fusion_lat": 0.0, "name": "f35cae3bcf69d3352135a50cbbbfcff8", "is_disabled": 0, "rental_uris": {"android": "https://dc.lft.to/lastmile_qr_scan", "ios": "https://dc.lft.to/lastmile_qr_scan"}, "fusion_lon": 0.0, "lat": 38.954746166666666, "bike_id": "f35cae3bcf69d3352135a50cbbbfcff8", "type": "electric_scooter", "is_reserved": 0, "lon": -77.077768}, {"fusion_lat": 0.0, "name": "526e58f4e931afef6fae349d7c5119dc", "is_disabled": 0, "rental_uris": {"android": "https://dc.lft.to/lastmile_qr_scan", "ios": "https://dc.lft.to/lastmile_qr_scan"}, "fusion_lon": 0.0, "lat": 38.922425, "bike_id": "526e58f4e931afef6fae349d7c5119dc", "type": "electric_scooter", "is_reserved": 0, "lon": -77.03910566666667}, {"fusion_lat": 0.0, "name": "ed7ffaa3fc5ed3239a41be91ac372af3", "is_disabled": 0, "rental_uris": {"android": "https://dc.lft.to/lastmile_qr_scan", "ios": "https://dc.lft.to/lastmile_qr_scan"}, "fusion_lon": 0.0, "lat": 38.907042, "bike_id": "ed7ffaa3fc5ed3239a41be91ac372af3", "type": "electric_scooter", "is_reserved": 0, "lon": -77.06310783333333}, {"fusion_lat": 0.0, "name": "382dde3586e419bdac06c1d6a63be083", "is_disabled": 0, "rental_uris": {"android": "https://dc.lft.to/lastmile_qr_scan", "ios": "https://dc.lft.to/lastmile_qr_scan"}, "fusion_lon": 0.0, "lat": 38.95117033333333, "bike_id": "382dde3586e419bdac06c1d6a63be083", "type": "electric_scooter", "is_reserved": 0, "lon": -77.05863316666667}, {"fusion_lat": 0.0, "name": "b32b1af69a4d377233ee714089007d02", "is_disabled": 0, "rental_uris": {"android": "https://dc.lft.to/lastmile_qr_scan", "ios": "https://dc.lft.to/lastmile_qr_scan"}, "fusion_lon": 0.0, "lat": 38.908561666666664, "bike_id": "b32b1af69a4d377233ee714089007d02", "type": "electric_scooter", "is_reserved": 0, "lon": -77.02720316666667}, {"fusion_lat": 0.0, "name": "9b596d0e83b23f9e7ab2d7691afe9916", "is_disabled": 0, "rental_uris": {"android": "https://dc.lft.to/lastmile_qr_scan", "ios": "https://dc.lft.to/lastmile_qr_scan"}, "fusion_lon": 0.0, "lat": 38.87456816666667, "bike_id": "9b596d0e83b23f9e7ab2d7691afe9916", "type": "electric_bike", "is_reserved": 0, "lon": -76.99938283333333}, {"fusion_lat": 0.0, "name": "3435a55866698822b439e1ac33e1bbbb", "is_disabled": 0, "rental_uris": {"android": "https://dc.lft.to/lastmile_qr_scan", "ios": "https://dc.lft.to/lastmile_qr_scan"}, "fusion_lon": 0.0, "lat": 38.93241416666667, "bike_id": "3435a55866698822b439e1ac33e1bbbb", "type": "electric_bike", "is_reserved": 0, "lon": -76.97424866666667}, {"fusion_lat": 0.0, "name": "b5fff625e294088e3f509f9f2148dcfd", "is_disabled": 0, "rental_uris": {"android": "https://dc.lft.to/lastmile_qr_scan", "ios": "https://dc.lft.to/lastmile_qr_scan"}, "fusion_lon": 0.0, "lat": 38.91760983333333, "bike_id": "b5fff625e294088e3f509f9f2148dcfd", "type": "electric_scooter", "is_reserved": 0, "lon": -77.03199866666667}, {"fusion_lat": 0.0, "name": "149cdc0162b7298824eaa6e3ccedd342", "is_disabled": 0, "rental_uris": {"android": "https://dc.lft.to/lastmile_qr_scan", "ios": "https://dc.lft.to/lastmile_qr_scan"}, "fusion_lon": 0.0, "lat": 38.911228, "bike_id": "149cdc0162b7298824eaa6e3ccedd342", "type": "electric_scooter", "is_reserved": 0, "lon": -77.037249}, {"fusion_lat": 0.0, "name": "5ff9f1656aa52ad42d47e10ec39fd11e", "is_disabled": 0, "rental_uris": {"android": "https://dc.lft.to/lastmile_qr_scan", "ios": "https://dc.lft.to/lastmile_qr_scan"}, "fusion_lon": 0.0, "lat": 38.938243666666665, "bike_id": "5ff9f1656aa52ad42d47e10ec39fd11e", "type": "electric_scooter", "is_reserved": 0, "lon": -77.06150816666667}, {"fusion_lat": 0.0, "name": "83f9b8d33cdb9d4b34392460b1b6e42e", "is_disabled": 0, "rental_uris": {"android": "https://dc.lft.to/lastmile_qr_scan", "ios": "https://dc.lft.to/lastmile_qr_scan"}, "fusion_lon": 0.0, "lat": 38.8839565, "bike_id": "83f9b8d33cdb9d4b34392460b1b6e42e", "type": "electric_scooter", "is_reserved": 0, "lon": -76.930417}, {"fusion_lat": 0.0, "name": "94db3dc4a53c030028deede1ef68772f", "is_disabled": 0, "rental_uris": {"android": "https://dc.lft.to/lastmile_qr_scan", "ios": "https://dc.lft.to/lastmile_qr_scan"}, "fusion_lon": 0.0, "lat": 38.93393566666667, "bike_id": "94db3dc4a53c030028deede1ef68772f", "type": "electric_scooter", "is_reserved": 0, "lon": -77.02856083333333}, {"fusion_lat": 0.0, "name": "cdbc949ddd595fda6fbfd05c1ec869f0", "is_disabled": 0, "rental_uris": {"android": "https://dc.lft.to/lastmile_qr_scan", "ios": "https://dc.lft.to/lastmile_qr_scan"}, "fusion_lon": 0.0, "lat": 38.857735166666664, "bike_id": "cdbc949ddd595fda6fbfd05c1ec869f0", "type": "electric_bike", "is_reserved": 0, "lon": -76.987644}, {"fusion_lat": 0.0, "name": "9ff089866454f46d33dcd5dd26adbff0", "is_disabled": 0, "rental_uris": {"android": "https://dc.lft.to/lastmile_qr_scan", "ios": "https://dc.lft.to/lastmile_qr_scan"}, "fusion_lon": 0.0, "lat": 38.895434, "bike_id": "9ff089866454f46d33dcd5dd26adbff0", "type": "electric_scooter", "is_reserved": 0, "lon": -77.01097583333333}, {"fusion_lat": 0.0, "name": "8f02744341da5d24ed065fc2e1b70029", "is_disabled": 0, "rental_uris": {"android": "https://dc.lft.to/lastmile_qr_scan", "ios": "https://dc.lft.to/lastmile_qr_scan"}, "fusion_lon": 0.0, "lat": 38.9408755, "bike_id": "8f02744341da5d24ed065fc2e1b70029", "type": "electric_scooter", "is_reserved": 0, "lon": -77.06183233333333}, {"fusion_lat": 0.0, "name": "0fdbed7c5aacb6adc3cd3f56072e9af4", "is_disabled": 0, "rental_uris": {"android": "https://dc.lft.to/lastmile_qr_scan", "ios": "https://dc.lft.to/lastmile_qr_scan"}, "fusion_lon": 0.0, "lat": 38.8974245, "bike_id": "0fdbed7c5aacb6adc3cd3f56072e9af4", "type": "electric_scooter", "is_reserved": 0, "lon": -77.0463585}, {"fusion_lat": 0.0, "name": "6ed84b167b4455b0c184ca87d16d0d17", "is_disabled": 0, "rental_uris": {"android": "https://dc.lft.to/lastmile_qr_scan", "ios": "https://dc.lft.to/lastmile_qr_scan"}, "fusion_lon": 0.0, "lat": 38.92135833333333, "bike_id": "6ed84b167b4455b0c184ca87d16d0d17", "type": "electric_scooter", "is_reserved": 0, "lon": -77.01796933333334}, {"fusion_lat": 0.0, "name": "f177c938cb219ea161cc8552d984540d", "is_disabled": 0, "rental_uris": {"android": "https://dc.lft.to/lastmile_qr_scan", "ios": "https://dc.lft.to/lastmile_qr_scan"}, "fusion_lon": 0.0, "lat": 38.876445333333336, "bike_id": "f177c938cb219ea161cc8552d984540d", "type": "electric_scooter", "is_reserved": 0, "lon": -77.00107633333333}, {"fusion_lat": 0.0, "name": "bb03e1316d9bd22a8e40e9e70ac46e7d", "is_disabled": 0, "rental_uris": {"android": "https://dc.lft.to/lastmile_qr_scan", "ios": "https://dc.lft.to/lastmile_qr_scan"}, "fusion_lon": 0.0, "lat": 38.911235, "bike_id": "bb03e1316d9bd22a8e40e9e70ac46e7d", "type": "electric_scooter", "is_reserved": 0, "lon": -77.009324}, {"fusion_lat": 0.0, "name": "0aefdc0d396960f663ec0555521480e1", "is_disabled": 0, "rental_uris": {"android": "https://dc.lft.to/lastmile_qr_scan", "ios": "https://dc.lft.to/lastmile_qr_scan"}, "fusion_lon": 0.0, "lat": 38.9079475, "bike_id": "0aefdc0d396960f663ec0555521480e1", "type": "electric_scooter", "is_reserved": 0, "lon": -77.0433795}, {"fusion_lat": 0.0, "name": "55a1f599ba3030f538ef48c7da7ef25e", "is_disabled": 0, "rental_uris": {"android": "https://dc.lft.to/lastmile_qr_scan", "ios": "https://dc.lft.to/lastmile_qr_scan"}, "fusion_lon": 0.0, "lat": 38.908651166666665, "bike_id": "55a1f599ba3030f538ef48c7da7ef25e", "type": "electric_scooter", "is_reserved": 0, "lon": -77.00930433333333}, {"fusion_lat": 0.0, "name": "c4a96b3ec6e7785e2992f07c8d8284ea", "is_disabled": 0, "rental_uris": {"android": "https://dc.lft.to/lastmile_qr_scan", "ios": "https://dc.lft.to/lastmile_qr_scan"}, "fusion_lon": 0.0, "lat": 38.9195985, "bike_id": "c4a96b3ec6e7785e2992f07c8d8284ea", "type": "electric_bike", "is_reserved": 0, "lon": -77.10110616666667}, {"fusion_lat": 0.0, "name": "d659b4cd7fab5a28bc6d9418d4ba2035", "is_disabled": 0, "rental_uris": {"android": "https://dc.lft.to/lastmile_qr_scan", "ios": "https://dc.lft.to/lastmile_qr_scan"}, "fusion_lon": 0.0, "lat": 38.90679766666667, "bike_id": "d659b4cd7fab5a28bc6d9418d4ba2035", "type": "electric_scooter", "is_reserved": 0, "lon": -77.027119}, {"fusion_lat": 0.0, "name": "6838ae35f6953778f4c8b8c72785b699", "is_disabled": 0, "rental_uris": {"android": "https://dc.lft.to/lastmile_qr_scan", "ios": "https://dc.lft.to/lastmile_qr_scan"}, "fusion_lon": 0.0, "lat": 38.922459833333335, "bike_id": "6838ae35f6953778f4c8b8c72785b699", "type": "electric_scooter", "is_reserved": 0, "lon": -76.98396666666666}, {"fusion_lat": 0.0, "name": "b8bba7833bad581073added357d0ffd6", "is_disabled": 0, "rental_uris": {"android": "https://dc.lft.to/lastmile_qr_scan", "ios": "https://dc.lft.to/lastmile_qr_scan"}, "fusion_lon": 0.0, "lat": 38.91486916666667, "bike_id": "b8bba7833bad581073added357d0ffd6", "type": "electric_scooter", "is_reserved": 0, "lon": -77.01228466666667}, {"fusion_lat": 0.0, "name": "e7f04c7786f2c5a36e23f3514c02c788", "is_disabled": 0, "rental_uris": {"android": "https://dc.lft.to/lastmile_qr_scan", "ios": "https://dc.lft.to/lastmile_qr_scan"}, "fusion_lon": 0.0, "lat": 38.90064266666667, "bike_id": "e7f04c7786f2c5a36e23f3514c02c788", "type": "electric_scooter", "is_reserved": 0, "lon": -77.01679683333333}, {"fusion_lat": 0.0, "name": "c3e788ce8be7867477cad3c81abbf230", "is_disabled": 0, "rental_uris": {"android": "https://dc.lft.to/lastmile_qr_scan", "ios": "https://dc.lft.to/lastmile_qr_scan"}, "fusion_lon": 0.0, "lat": 38.90204883333333, "bike_id": "c3e788ce8be7867477cad3c81abbf230", "type": "electric_scooter", "is_reserved": 0, "lon": -77.02206816666667}, {"fusion_lat": 0.0, "name": "70eca0d22f1e0c24d73507508eeb3205", "is_disabled": 0, "rental_uris": {"android": "https://dc.lft.to/lastmile_qr_scan", "ios": "https://dc.lft.to/lastmile_qr_scan"}, "fusion_lon": 0.0, "lat": 38.922169, "bike_id": "70eca0d22f1e0c24d73507508eeb3205", "type": "electric_scooter", "is_reserved": 0, "lon": -77.01818533333334}, {"fusion_lat": 0.0, "name": "582493f1858b9799d43773de0e0eda37", "is_disabled": 0, "rental_uris": {"android": "https://dc.lft.to/lastmile_qr_scan", "ios": "https://dc.lft.to/lastmile_qr_scan"}, "fusion_lon": 0.0, "lat": 38.937531166666666, "bike_id": "582493f1858b9799d43773de0e0eda37", "type": "electric_scooter", "is_reserved": 0, "lon": -77.0252795}, {"fusion_lat": 0.0, "name": "1e23fef29cddba83b128a76c372f5401", "is_disabled": 0, "rental_uris": {"android": "https://dc.lft.to/lastmile_qr_scan", "ios": "https://dc.lft.to/lastmile_qr_scan"}, "fusion_lon": 0.0, "lat": 38.903944833333334, "bike_id": "1e23fef29cddba83b128a76c372f5401", "type": "electric_scooter", "is_reserved": 0, "lon": -77.0612835}, {"fusion_lat": 0.0, "name": "197345aa4b01d8866545fe6801dacc72", "is_disabled": 0, "rental_uris": {"android": "https://dc.lft.to/lastmile_qr_scan", "ios": "https://dc.lft.to/lastmile_qr_scan"}, "fusion_lon": 0.0, "lat": 38.90064383333333, "bike_id": "197345aa4b01d8866545fe6801dacc72", "type": "electric_scooter", "is_reserved": 0, "lon": -76.93385283333333}, {"fusion_lat": 0.0, "name": "7c8cab2c3cf9d85037eb5f188036e8b3", "is_disabled": 0, "rental_uris": {"android": "https://dc.lft.to/lastmile_qr_scan", "ios": "https://dc.lft.to/lastmile_qr_scan"}, "fusion_lon": 0.0, "lat": 38.895687, "bike_id": "7c8cab2c3cf9d85037eb5f188036e8b3", "type": "electric_bike", "is_reserved": 0, "lon": -77.12736216666667}, {"fusion_lat": 0.0, "name": "a16d5fe34c1b3338872d02b5d58e7225", "is_disabled": 0, "rental_uris": {"android": "https://dc.lft.to/lastmile_qr_scan", "ios": "https://dc.lft.to/lastmile_qr_scan"}, "fusion_lon": 0.0, "lat": 38.89608716666667, "bike_id": "a16d5fe34c1b3338872d02b5d58e7225", "type": "electric_scooter", "is_reserved": 0, "lon": -77.04976}, {"fusion_lat": 0.0, "name": "3db8f529f7b5e19908f4ba6e0b8b6c4c", "is_disabled": 0, "rental_uris": {"android": "https://dc.lft.to/lastmile_qr_scan", "ios": "https://dc.lft.to/lastmile_qr_scan"}, "fusion_lon": 0.0, "lat": 38.9621065, "bike_id": "3db8f529f7b5e19908f4ba6e0b8b6c4c", "type": "electric_scooter", "is_reserved": 0, "lon": -77.02228716666667}, {"fusion_lat": 0.0, "name": "531922ac40798977dbea7a33fd2535b0", "is_disabled": 0, "rental_uris": {"android": "https://dc.lft.to/lastmile_qr_scan", "ios": "https://dc.lft.to/lastmile_qr_scan"}, "fusion_lon": 0.0, "lat": 38.90689116666667, "bike_id": "531922ac40798977dbea7a33fd2535b0", "type": "electric_scooter", "is_reserved": 0, "lon": -77.0152645}, {"fusion_lat": 0.0, "name": "15915a20e640dd6e9c3718b74ea6813b", "is_disabled": 0, "rental_uris": {"android": "https://dc.lft.to/lastmile_qr_scan", "ios": "https://dc.lft.to/lastmile_qr_scan"}, "fusion_lon": 0.0, "lat": 38.84635083333333, "bike_id": "15915a20e640dd6e9c3718b74ea6813b", "type": "electric_scooter", "is_reserved": 0, "lon": -76.9692075}, {"fusion_lat": 0.0, "name": "5235cd32ab7c5096ddab33141ca6a31b", "is_disabled": 0, "rental_uris": {"android": "https://dc.lft.to/lastmile_qr_scan", "ios": "https://dc.lft.to/lastmile_qr_scan"}, "fusion_lon": 0.0, "lat": 38.94184466666667, "bike_id": "5235cd32ab7c5096ddab33141ca6a31b", "type": "electric_scooter", "is_reserved": 0, "lon": -77.02495433333333}, {"fusion_lat": 0.0, "name": "b0362b813b7e5618da152e0b642c8ae3", "is_disabled": 0, "rental_uris": {"android": "https://dc.lft.to/lastmile_qr_scan", "ios": "https://dc.lft.to/lastmile_qr_scan"}, "fusion_lon": 0.0, "lat": 38.9006995, "bike_id": "b0362b813b7e5618da152e0b642c8ae3", "type": "electric_scooter", "is_reserved": 0, "lon": -77.0478915}, {"fusion_lat": 0.0, "name": "107eac7fa02b08519c65409700d4c1d2", "is_disabled": 0, "rental_uris": {"android": "https://dc.lft.to/lastmile_qr_scan", "ios": "https://dc.lft.to/lastmile_qr_scan"}, "fusion_lon": 0.0, "lat": 38.916275166666665, "bike_id": "107eac7fa02b08519c65409700d4c1d2", "type": "electric_scooter", "is_reserved": 0, "lon": -77.03856566666667}, {"fusion_lat": 0.0, "name": "4280b3c8f641ee6181e7fc0c54723d0c", "is_disabled": 0, "rental_uris": {"android": "https://dc.lft.to/lastmile_qr_scan", "ios": "https://dc.lft.to/lastmile_qr_scan"}, "fusion_lon": 0.0, "lat": 38.931152166666664, "bike_id": "4280b3c8f641ee6181e7fc0c54723d0c", "type": "electric_scooter", "is_reserved": 0, "lon": -77.03841466666667}, {"fusion_lat": 0.0, "name": "b302180d58131af2ffd7b71df1c1b273", "is_disabled": 0, "rental_uris": {"android": "https://dc.lft.to/lastmile_qr_scan", "ios": "https://dc.lft.to/lastmile_qr_scan"}, "fusion_lon": 0.0, "lat": 38.918173333333336, "bike_id": "b302180d58131af2ffd7b71df1c1b273", "type": "electric_scooter", "is_reserved": 0, "lon": -77.02613716666667}, {"fusion_lat": 0.0, "name": "1a1f800dae05c0424375cd82068f36c0", "is_disabled": 0, "rental_uris": {"android": "https://dc.lft.to/lastmile_qr_scan", "ios": "https://dc.lft.to/lastmile_qr_scan"}, "fusion_lon": 0.0, "lat": 38.91307333333334, "bike_id": "1a1f800dae05c0424375cd82068f36c0", "type": "electric_bike", "is_reserved": 0, "lon": -77.0217835}, {"fusion_lat": 0.0, "name": "cddc02448e7655db17152a6e9eba42c5", "is_disabled": 0, "rental_uris": {"android": "https://dc.lft.to/lastmile_qr_scan", "ios": "https://dc.lft.to/lastmile_qr_scan"}, "fusion_lon": 0.0, "lat": 38.91731816666667, "bike_id": "cddc02448e7655db17152a6e9eba42c5", "type": "electric_scooter", "is_reserved": 0, "lon": -77.036595}, {"fusion_lat": 0.0, "name": "b1bf74f2fdb691459ea825d4799e57b1", "is_disabled": 0, "rental_uris": {"android": "https://dc.lft.to/lastmile_qr_scan", "ios": "https://dc.lft.to/lastmile_qr_scan"}, "fusion_lon": 0.0, "lat": 38.923890666666665, "bike_id": "b1bf74f2fdb691459ea825d4799e57b1", "type": "electric_scooter", "is_reserved": 0, "lon": -77.04027833333333}, {"fusion_lat": 0.0, "name": "6b601f8dd1d6b11bde9ac63eca45b54f", "is_disabled": 0, "rental_uris": {"android": "https://dc.lft.to/lastmile_qr_scan", "ios": "https://dc.lft.to/lastmile_qr_scan"}, "fusion_lon": 0.0, "lat": 38.804517, "bike_id": "6b601f8dd1d6b11bde9ac63eca45b54f", "type": "electric_bike", "is_reserved": 0, "lon": -77.132323}, {"fusion_lat": 0.0, "name": "925da6113226dc690439804d87f3f009", "is_disabled": 0, "rental_uris": {"android": "https://dc.lft.to/lastmile_qr_scan", "ios": "https://dc.lft.to/lastmile_qr_scan"}, "fusion_lon": 0.0, "lat": 38.9095445, "bike_id": "925da6113226dc690439804d87f3f009", "type": "electric_scooter", "is_reserved": 0, "lon": -77.04862866666667}, {"fusion_lat": 0.0, "name": "f9bd6492324ab94cd146ba7b8c229f18", "is_disabled": 0, "rental_uris": {"android": "https://dc.lft.to/lastmile_qr_scan", "ios": "https://dc.lft.to/lastmile_qr_scan"}, "fusion_lon": 0.0, "lat": 38.896116666666664, "bike_id": "f9bd6492324ab94cd146ba7b8c229f18", "type": "electric_scooter", "is_reserved": 0, "lon": -76.94821566666667}, {"fusion_lat": 0.0, "name": "59b6624842b6d78ef8ab3bac0c2de8fe", "is_disabled": 0, "rental_uris": {"android": "https://dc.lft.to/lastmile_qr_scan", "ios": "https://dc.lft.to/lastmile_qr_scan"}, "fusion_lon": 0.0, "lat": 38.89949766666667, "bike_id": "59b6624842b6d78ef8ab3bac0c2de8fe", "type": "electric_scooter", "is_reserved": 0, "lon": -77.04522866666667}, {"fusion_lat": 0.0, "name": "53fd2387500e59b0fa334c98e9500803", "is_disabled": 0, "rental_uris": {"android": "https://dc.lft.to/lastmile_qr_scan", "ios": "https://dc.lft.to/lastmile_qr_scan"}, "fusion_lon": 0.0, "lat": 38.93767966666667, "bike_id": "53fd2387500e59b0fa334c98e9500803", "type": "electric_scooter", "is_reserved": 0, "lon": -77.07595766666667}, {"fusion_lat": 0.0, "name": "df921715a3b663dd013f8813d22cdb77", "is_disabled": 0, "rental_uris": {"android": "https://dc.lft.to/lastmile_qr_scan", "ios": "https://dc.lft.to/lastmile_qr_scan"}, "fusion_lon": 0.0, "lat": 38.907398666666666, "bike_id": "df921715a3b663dd013f8813d22cdb77", "type": "electric_scooter", "is_reserved": 0, "lon": -76.9983195}, {"fusion_lat": 0.0, "name": "c0f86e209184d1b23c19e477b99c2c26", "is_disabled": 0, "rental_uris": {"android": "https://dc.lft.to/lastmile_qr_scan", "ios": "https://dc.lft.to/lastmile_qr_scan"}, "fusion_lon": 0.0, "lat": 38.91720566666667, "bike_id": "c0f86e209184d1b23c19e477b99c2c26", "type": "electric_scooter", "is_reserved": 0, "lon": -77.02718033333333}, {"fusion_lat": 0.0, "name": "6a360df63e9605cd2eddf1ef3f41c024", "is_disabled": 0, "rental_uris": {"android": "https://dc.lft.to/lastmile_qr_scan", "ios": "https://dc.lft.to/lastmile_qr_scan"}, "fusion_lon": 0.0, "lat": 38.90292316666667, "bike_id": "6a360df63e9605cd2eddf1ef3f41c024", "type": "electric_scooter", "is_reserved": 0, "lon": -76.99034}, {"fusion_lat": 0.0, "name": "3397dab3ab4ddda1963004438049d7d1", "is_disabled": 0, "rental_uris": {"android": "https://dc.lft.to/lastmile_qr_scan", "ios": "https://dc.lft.to/lastmile_qr_scan"}, "fusion_lon": 0.0, "lat": 38.9228635, "bike_id": "3397dab3ab4ddda1963004438049d7d1", "type": "electric_scooter", "is_reserved": 0, "lon": -77.073061}, {"fusion_lat": 0.0, "name": "9f55254857d5e94fc7260820320541da", "is_disabled": 0, "rental_uris": {"android": "https://dc.lft.to/lastmile_qr_scan", "ios": "https://dc.lft.to/lastmile_qr_scan"}, "fusion_lon": 0.0, "lat": 38.995369, "bike_id": "9f55254857d5e94fc7260820320541da", "type": "electric_bike", "is_reserved": 0, "lon": -77.029168}, {"fusion_lat": 0.0, "name": "e21950477cb3c8a526c2a46697c04ec8", "is_disabled": 0, "rental_uris": {"android": "https://dc.lft.to/lastmile_qr_scan", "ios": "https://dc.lft.to/lastmile_qr_scan"}, "fusion_lon": 0.0, "lat": 38.92478366666667, "bike_id": "e21950477cb3c8a526c2a46697c04ec8", "type": "electric_scooter", "is_reserved": 0, "lon": -77.02668066666666}, {"fusion_lat": 0.0, "name": "ca2188f3ceeec3fd16e40dfdfdec08ef", "is_disabled": 0, "rental_uris": {"android": "https://dc.lft.to/lastmile_qr_scan", "ios": "https://dc.lft.to/lastmile_qr_scan"}, "fusion_lon": 0.0, "lat": 38.878490666666664, "bike_id": "ca2188f3ceeec3fd16e40dfdfdec08ef", "type": "electric_scooter", "is_reserved": 0, "lon": -77.00449533333334}, {"fusion_lat": 0.0, "name": "b0a461ed5cf9d2f85db483226770bbcb", "is_disabled": 0, "rental_uris": {"android": "https://dc.lft.to/lastmile_qr_scan", "ios": "https://dc.lft.to/lastmile_qr_scan"}, "fusion_lon": 0.0, "lat": 38.9051145, "bike_id": "b0a461ed5cf9d2f85db483226770bbcb", "type": "electric_scooter", "is_reserved": 0, "lon": -77.07032433333333}, {"fusion_lat": 0.0, "name": "00fade17788093abcffda114003e016e", "is_disabled": 0, "rental_uris": {"android": "https://dc.lft.to/lastmile_qr_scan", "ios": "https://dc.lft.to/lastmile_qr_scan"}, "fusion_lon": 0.0, "lat": 38.91615783333334, "bike_id": "00fade17788093abcffda114003e016e", "type": "electric_scooter", "is_reserved": 0, "lon": -77.03854366666667}, {"fusion_lat": 0.0, "name": "412018491d98da6d76f61636b6fed7f0", "is_disabled": 0, "rental_uris": {"android": "https://dc.lft.to/lastmile_qr_scan", "ios": "https://dc.lft.to/lastmile_qr_scan"}, "fusion_lon": 0.0, "lat": 38.988186166666665, "bike_id": "412018491d98da6d76f61636b6fed7f0", "type": "electric_bike", "is_reserved": 0, "lon": -77.0265425}, {"fusion_lat": 0.0, "name": "db15d4780417d909da3bc7c4ecd31570", "is_disabled": 0, "rental_uris": {"android": "https://dc.lft.to/lastmile_qr_scan", "ios": "https://dc.lft.to/lastmile_qr_scan"}, "fusion_lon": 0.0, "lat": 38.92792383333333, "bike_id": "db15d4780417d909da3bc7c4ecd31570", "type": "electric_scooter", "is_reserved": 0, "lon": -76.95553333333334}, {"fusion_lat": 0.0, "name": "fdd4e0b5d4d52d2fc640768a85cafe70", "is_disabled": 0, "rental_uris": {"android": "https://dc.lft.to/lastmile_qr_scan", "ios": "https://dc.lft.to/lastmile_qr_scan"}, "fusion_lon": 0.0, "lat": 38.92403766666666, "bike_id": "fdd4e0b5d4d52d2fc640768a85cafe70", "type": "electric_scooter", "is_reserved": 0, "lon": -77.04272316666666}, {"fusion_lat": 0.0, "name": "34dfb975677ddc15a9bdbe5277b2b232", "is_disabled": 0, "rental_uris": {"android": "https://dc.lft.to/lastmile_qr_scan", "ios": "https://dc.lft.to/lastmile_qr_scan"}, "fusion_lon": 0.0, "lat": 38.9049185, "bike_id": "34dfb975677ddc15a9bdbe5277b2b232", "type": "electric_scooter", "is_reserved": 0, "lon": -76.94958666666666}, {"fusion_lat": 0.0, "name": "9866ec3f2f220f713afbe4ce755f477b", "is_disabled": 0, "rental_uris": {"android": "https://dc.lft.to/lastmile_qr_scan", "ios": "https://dc.lft.to/lastmile_qr_scan"}, "fusion_lon": 0.0, "lat": 38.93049933333333, "bike_id": "9866ec3f2f220f713afbe4ce755f477b", "type": "electric_scooter", "is_reserved": 0, "lon": -77.03941}, {"fusion_lat": 0.0, "name": "5fdfd63114f7ca4c5423b385b62db73e", "is_disabled": 0, "rental_uris": {"android": "https://dc.lft.to/lastmile_qr_scan", "ios": "https://dc.lft.to/lastmile_qr_scan"}, "fusion_lon": 0.0, "lat": 38.949240833333334, "bike_id": "5fdfd63114f7ca4c5423b385b62db73e", "type": "electric_scooter", "is_reserved": 0, "lon": -77.01851983333333}, {"fusion_lat": 0.0, "name": "da4df33dd95f479e8d2289d83ebc4181", "is_disabled": 0, "rental_uris": {"android": "https://dc.lft.to/lastmile_qr_scan", "ios": "https://dc.lft.to/lastmile_qr_scan"}, "fusion_lon": 0.0, "lat": 38.9012185, "bike_id": "da4df33dd95f479e8d2289d83ebc4181", "type": "electric_scooter", "is_reserved": 0, "lon": -77.02199733333333}, {"fusion_lat": 0.0, "name": "649091e30980670c650f40db3127daf0", "is_disabled": 0, "rental_uris": {"android": "https://dc.lft.to/lastmile_qr_scan", "ios": "https://dc.lft.to/lastmile_qr_scan"}, "fusion_lon": 0.0, "lat": 38.885064, "bike_id": "649091e30980670c650f40db3127daf0", "type": "electric_scooter", "is_reserved": 0, "lon": -77.021028}, {"fusion_lat": 0.0, "name": "99f8903550b231be72a480e135f69820", "is_disabled": 0, "rental_uris": {"android": "https://dc.lft.to/lastmile_qr_scan", "ios": "https://dc.lft.to/lastmile_qr_scan"}, "fusion_lon": 0.0, "lat": 38.89098883333333, "bike_id": "99f8903550b231be72a480e135f69820", "type": "electric_scooter", "is_reserved": 0, "lon": -76.91928}, {"fusion_lat": 0.0, "name": "1f3328ba9ea14d8e51683edf7c1d8c7d", "is_disabled": 0, "rental_uris": {"android": "https://dc.lft.to/lastmile_qr_scan", "ios": "https://dc.lft.to/lastmile_qr_scan"}, "fusion_lon": 0.0, "lat": 38.93597333333334, "bike_id": "1f3328ba9ea14d8e51683edf7c1d8c7d", "type": "electric_scooter", "is_reserved": 0, "lon": -77.02302533333334}, {"fusion_lat": 0.0, "name": "380208a2854caea935d211c87a20afa3", "is_disabled": 0, "rental_uris": {"android": "https://dc.lft.to/lastmile_qr_scan", "ios": "https://dc.lft.to/lastmile_qr_scan"}, "fusion_lon": 0.0, "lat": 38.93241616666667, "bike_id": "380208a2854caea935d211c87a20afa3", "type": "electric_scooter", "is_reserved": 0, "lon": -77.0342025}, {"fusion_lat": 0.0, "name": "eb8b255075be90d14f08e44cb71711f1", "is_disabled": 0, "rental_uris": {"android": "https://dc.lft.to/lastmile_qr_scan", "ios": "https://dc.lft.to/lastmile_qr_scan"}, "fusion_lon": 0.0, "lat": 38.921206166666664, "bike_id": "eb8b255075be90d14f08e44cb71711f1", "type": "electric_scooter", "is_reserved": 0, "lon": -77.04686566666666}, {"fusion_lat": 0.0, "name": "89f67304869c7940e12b54155b21f4e0", "is_disabled": 0, "rental_uris": {"android": "https://dc.lft.to/lastmile_qr_scan", "ios": "https://dc.lft.to/lastmile_qr_scan"}, "fusion_lon": 0.0, "lat": 38.943250666666664, "bike_id": "89f67304869c7940e12b54155b21f4e0", "type": "electric_scooter", "is_reserved": 0, "lon": -77.003127}, {"fusion_lat": 0.0, "name": "d67d10858f5c00b624a5c40eb5e3778c", "is_disabled": 0, "rental_uris": {"android": "https://dc.lft.to/lastmile_qr_scan", "ios": "https://dc.lft.to/lastmile_qr_scan"}, "fusion_lon": 0.0, "lat": 38.926725833333336, "bike_id": "d67d10858f5c00b624a5c40eb5e3778c", "type": "electric_scooter", "is_reserved": 0, "lon": -77.03048233333334}, {"fusion_lat": 0.0, "name": "12275f760a61e29ffe344ed5774c61bd", "is_disabled": 0, "rental_uris": {"android": "https://dc.lft.to/lastmile_qr_scan", "ios": "https://dc.lft.to/lastmile_qr_scan"}, "fusion_lon": 0.0, "lat": 38.885783, "bike_id": "12275f760a61e29ffe344ed5774c61bd", "type": "electric_scooter", "is_reserved": 0, "lon": -77.01213183333333}, {"fusion_lat": 0.0, "name": "77f4a25071fe29e1fe62f9a82dd03797", "is_disabled": 0, "rental_uris": {"android": "https://dc.lft.to/lastmile_qr_scan", "ios": "https://dc.lft.to/lastmile_qr_scan"}, "fusion_lon": 0.0, "lat": 38.922574833333336, "bike_id": "77f4a25071fe29e1fe62f9a82dd03797", "type": "electric_scooter", "is_reserved": 0, "lon": -77.0389}, {"fusion_lat": 0.0, "name": "a39dc624025fc43624d2c7b601f364c9", "is_disabled": 0, "rental_uris": {"android": "https://dc.lft.to/lastmile_qr_scan", "ios": "https://dc.lft.to/lastmile_qr_scan"}, "fusion_lon": 0.0, "lat": 38.90609416666667, "bike_id": "a39dc624025fc43624d2c7b601f364c9", "type": "electric_scooter", "is_reserved": 0, "lon": -77.0647805}, {"fusion_lat": 0.0, "name": "118b94db618027aafa29a192c4b060c2", "is_disabled": 0, "rental_uris": {"android": "https://dc.lft.to/lastmile_qr_scan", "ios": "https://dc.lft.to/lastmile_qr_scan"}, "fusion_lon": 0.0, "lat": 38.9443335, "bike_id": "118b94db618027aafa29a192c4b060c2", "type": "electric_bike", "is_reserved": 0, "lon": -77.02604}, {"fusion_lat": 0.0, "name": "2ea247d45d9025f4b52e02e860cb3881", "is_disabled": 0, "rental_uris": {"android": "https://dc.lft.to/lastmile_qr_scan", "ios": "https://dc.lft.to/lastmile_qr_scan"}, "fusion_lon": 0.0, "lat": 38.888298, "bike_id": "2ea247d45d9025f4b52e02e860cb3881", "type": "electric_scooter", "is_reserved": 0, "lon": -76.98662833333333}, {"fusion_lat": 0.0, "name": "f851791425a733bfaaf18c38ad3eac75", "is_disabled": 0, "rental_uris": {"android": "https://dc.lft.to/lastmile_qr_scan", "ios": "https://dc.lft.to/lastmile_qr_scan"}, "fusion_lon": 0.0, "lat": 38.905547166666665, "bike_id": "f851791425a733bfaaf18c38ad3eac75", "type": "electric_scooter", "is_reserved": 0, "lon": -77.06513233333334}, {"fusion_lat": 0.0, "name": "09d566ab4401aa2675cf67e29adf6dd8", "is_disabled": 0, "rental_uris": {"android": "https://dc.lft.to/lastmile_qr_scan", "ios": "https://dc.lft.to/lastmile_qr_scan"}, "fusion_lon": 0.0, "lat": 38.92253133333333, "bike_id": "09d566ab4401aa2675cf67e29adf6dd8", "type": "electric_scooter", "is_reserved": 0, "lon": -77.07448083333334}, {"fusion_lat": 0.0, "name": "287b574150af9a38385c87869c39f5d3", "is_disabled": 0, "rental_uris": {"android": "https://dc.lft.to/lastmile_qr_scan", "ios": "https://dc.lft.to/lastmile_qr_scan"}, "fusion_lon": 0.0, "lat": 38.914998833333335, "bike_id": "287b574150af9a38385c87869c39f5d3", "type": "electric_scooter", "is_reserved": 0, "lon": -76.98365}, {"fusion_lat": 0.0, "name": "893be46398a7ca87342cae6c69207519", "is_disabled": 0, "rental_uris": {"android": "https://dc.lft.to/lastmile_qr_scan", "ios": "https://dc.lft.to/lastmile_qr_scan"}, "fusion_lon": 0.0, "lat": 38.93403216666667, "bike_id": "893be46398a7ca87342cae6c69207519", "type": "electric_scooter", "is_reserved": 0, "lon": -77.0574165}, {"fusion_lat": 0.0, "name": "629f0ee85cb1bb9fd457bd3998ebca0d", "is_disabled": 0, "rental_uris": {"android": "https://dc.lft.to/lastmile_qr_scan", "ios": "https://dc.lft.to/lastmile_qr_scan"}, "fusion_lon": 0.0, "lat": 38.916092666666664, "bike_id": "629f0ee85cb1bb9fd457bd3998ebca0d", "type": "electric_scooter", "is_reserved": 0, "lon": -77.0217345}, {"fusion_lat": 0.0, "name": "2df8a5614ae36daced8f644697d68b3b", "is_disabled": 0, "rental_uris": {"android": "https://dc.lft.to/lastmile_qr_scan", "ios": "https://dc.lft.to/lastmile_qr_scan"}, "fusion_lon": 0.0, "lat": 38.9079005, "bike_id": "2df8a5614ae36daced8f644697d68b3b", "type": "electric_scooter", "is_reserved": 0, "lon": -76.9942345}, {"fusion_lat": 0.0, "name": "2bee0870b9159d47fbe9d9da0042d78a", "is_disabled": 0, "rental_uris": {"android": "https://dc.lft.to/lastmile_qr_scan", "ios": "https://dc.lft.to/lastmile_qr_scan"}, "fusion_lon": 0.0, "lat": 38.936362333333335, "bike_id": "2bee0870b9159d47fbe9d9da0042d78a", "type": "electric_scooter", "is_reserved": 0, "lon": -77.03665533333333}, {"fusion_lat": 0.0, "name": "cc42ea22d21996480a6cb5ebc474a0ff", "is_disabled": 0, "rental_uris": {"android": "https://dc.lft.to/lastmile_qr_scan", "ios": "https://dc.lft.to/lastmile_qr_scan"}, "fusion_lon": 0.0, "lat": 38.90065533333333, "bike_id": "cc42ea22d21996480a6cb5ebc474a0ff", "type": "electric_scooter", "is_reserved": 0, "lon": -77.026312}, {"fusion_lat": 0.0, "name": "384046f27e98c3dd489c6fbbda599632", "is_disabled": 0, "rental_uris": {"android": "https://dc.lft.to/lastmile_qr_scan", "ios": "https://dc.lft.to/lastmile_qr_scan"}, "fusion_lon": 0.0, "lat": 38.89234016666666, "bike_id": "384046f27e98c3dd489c6fbbda599632", "type": "electric_scooter", "is_reserved": 0, "lon": -77.01713966666667}, {"fusion_lat": 0.0, "name": "1e6328555b8f381076d7660c63e076dd", "is_disabled": 0, "rental_uris": {"android": "https://dc.lft.to/lastmile_qr_scan", "ios": "https://dc.lft.to/lastmile_qr_scan"}, "fusion_lon": 0.0, "lat": 38.87933533333333, "bike_id": "1e6328555b8f381076d7660c63e076dd", "type": "electric_scooter", "is_reserved": 0, "lon": -77.00784733333333}, {"fusion_lat": 0.0, "name": "ed4524764ddd9742b11471e54be10f16", "is_disabled": 0, "rental_uris": {"android": "https://dc.lft.to/lastmile_qr_scan", "ios": "https://dc.lft.to/lastmile_qr_scan"}, "fusion_lon": 0.0, "lat": 38.92055116666667, "bike_id": "ed4524764ddd9742b11471e54be10f16", "type": "electric_scooter", "is_reserved": 0, "lon": -77.02982133333333}, {"fusion_lat": 0.0, "name": "9872d8b94560f62713f420b18738e165", "is_disabled": 0, "rental_uris": {"android": "https://dc.lft.to/lastmile_qr_scan", "ios": "https://dc.lft.to/lastmile_qr_scan"}, "fusion_lon": 0.0, "lat": 38.92155, "bike_id": "9872d8b94560f62713f420b18738e165", "type": "electric_scooter", "is_reserved": 0, "lon": -77.03377566666667}, {"fusion_lat": 0.0, "name": "f8ac0e72e31a092f89fbfe0cc41b7a69", "is_disabled": 0, "rental_uris": {"android": "https://dc.lft.to/lastmile_qr_scan", "ios": "https://dc.lft.to/lastmile_qr_scan"}, "fusion_lon": 0.0, "lat": 38.92855333333333, "bike_id": "f8ac0e72e31a092f89fbfe0cc41b7a69", "type": "electric_scooter", "is_reserved": 0, "lon": -77.024383}, {"fusion_lat": 0.0, "name": "4a749b81137f1d7326512378c80081e1", "is_disabled": 0, "rental_uris": {"android": "https://dc.lft.to/lastmile_qr_scan", "ios": "https://dc.lft.to/lastmile_qr_scan"}, "fusion_lon": 0.0, "lat": 38.90961, "bike_id": "4a749b81137f1d7326512378c80081e1", "type": "electric_scooter", "is_reserved": 0, "lon": -77.00913016666667}, {"fusion_lat": 0.0, "name": "1d01060b254e03b6e5093b9a733f3763", "is_disabled": 0, "rental_uris": {"android": "https://dc.lft.to/lastmile_qr_scan", "ios": "https://dc.lft.to/lastmile_qr_scan"}, "fusion_lon": 0.0, "lat": 38.88768, "bike_id": "1d01060b254e03b6e5093b9a733f3763", "type": "electric_scooter", "is_reserved": 0, "lon": -76.977488}, {"fusion_lat": 0.0, "name": "682962bd6aa07df333299bd8f9100aaa", "is_disabled": 0, "rental_uris": {"android": "https://dc.lft.to/lastmile_qr_scan", "ios": "https://dc.lft.to/lastmile_qr_scan"}, "fusion_lon": 0.0, "lat": 38.910149833333335, "bike_id": "682962bd6aa07df333299bd8f9100aaa", "type": "electric_scooter", "is_reserved": 0, "lon": -77.03840283333334}, {"fusion_lat": 0.0, "name": "bc131acbbb6d4e7f9219f2c5ff04a502", "is_disabled": 0, "rental_uris": {"android": "https://dc.lft.to/lastmile_qr_scan", "ios": "https://dc.lft.to/lastmile_qr_scan"}, "fusion_lon": 0.0, "lat": 38.892482, "bike_id": "bc131acbbb6d4e7f9219f2c5ff04a502", "type": "electric_scooter", "is_reserved": 0, "lon": -77.03346633333334}, {"fusion_lat": 0.0, "name": "0e4bbc63b5e9b912937edd072c3762d5", "is_disabled": 0, "rental_uris": {"android": "https://dc.lft.to/lastmile_qr_scan", "ios": "https://dc.lft.to/lastmile_qr_scan"}, "fusion_lon": 0.0, "lat": 38.85459066666667, "bike_id": "0e4bbc63b5e9b912937edd072c3762d5", "type": "electric_scooter", "is_reserved": 0, "lon": -76.972242}, {"fusion_lat": 0.0, "name": "f6ae10c9e230895c8f00878dbd61f152", "is_disabled": 0, "rental_uris": {"android": "https://dc.lft.to/lastmile_qr_scan", "ios": "https://dc.lft.to/lastmile_qr_scan"}, "fusion_lon": 0.0, "lat": 38.88503583333333, "bike_id": "f6ae10c9e230895c8f00878dbd61f152", "type": "electric_scooter", "is_reserved": 0, "lon": -77.00061966666667}, {"fusion_lat": 0.0, "name": "1b898bfc3105f439d808bd6dafa98fe2", "is_disabled": 0, "rental_uris": {"android": "https://dc.lft.to/lastmile_qr_scan", "ios": "https://dc.lft.to/lastmile_qr_scan"}, "fusion_lon": 0.0, "lat": 38.9531325, "bike_id": "1b898bfc3105f439d808bd6dafa98fe2", "type": "electric_scooter", "is_reserved": 0, "lon": -77.02247566666667}, {"fusion_lat": 0.0, "name": "cb97bd0b50a75291b9cb94a06291e399", "is_disabled": 0, "rental_uris": {"android": "https://dc.lft.to/lastmile_qr_scan", "ios": "https://dc.lft.to/lastmile_qr_scan"}, "fusion_lon": 0.0, "lat": 38.93536833333334, "bike_id": "cb97bd0b50a75291b9cb94a06291e399", "type": "electric_scooter", "is_reserved": 0, "lon": -77.0235245}, {"fusion_lat": 0.0, "name": "3cfa487fbbd0b515c9fb1460f30b79de", "is_disabled": 0, "rental_uris": {"android": "https://dc.lft.to/lastmile_qr_scan", "ios": "https://dc.lft.to/lastmile_qr_scan"}, "fusion_lon": 0.0, "lat": 38.92124666666667, "bike_id": "3cfa487fbbd0b515c9fb1460f30b79de", "type": "electric_scooter", "is_reserved": 0, "lon": -77.020812}, {"fusion_lat": 0.0, "name": "2c9d7f24100c168557bf3b388dd31a89", "is_disabled": 0, "rental_uris": {"android": "https://dc.lft.to/lastmile_qr_scan", "ios": "https://dc.lft.to/lastmile_qr_scan"}, "fusion_lon": 0.0, "lat": 38.93028433333333, "bike_id": "2c9d7f24100c168557bf3b388dd31a89", "type": "electric_scooter", "is_reserved": 0, "lon": -77.03779933333334}, {"fusion_lat": 0.0, "name": "e3321955b7eee1d44f2efcf0f010cd22", "is_disabled": 0, "rental_uris": {"android": "https://dc.lft.to/lastmile_qr_scan", "ios": "https://dc.lft.to/lastmile_qr_scan"}, "fusion_lon": 0.0, "lat": 38.924221333333335, "bike_id": "e3321955b7eee1d44f2efcf0f010cd22", "type": "electric_bike", "is_reserved": 0, "lon": -77.05046716666666}, {"fusion_lat": 0.0, "name": "4b6c8ba3c1a4a2913eed70b1a29e65ab", "is_disabled": 0, "rental_uris": {"android": "https://dc.lft.to/lastmile_qr_scan", "ios": "https://dc.lft.to/lastmile_qr_scan"}, "fusion_lon": 0.0, "lat": 38.9152915, "bike_id": "4b6c8ba3c1a4a2913eed70b1a29e65ab", "type": "electric_scooter", "is_reserved": 0, "lon": -77.01321066666667}, {"fusion_lat": 0.0, "name": "e46b9fa2586cc253f1d5e4bf45e6879c", "is_disabled": 0, "rental_uris": {"android": "https://dc.lft.to/lastmile_qr_scan", "ios": "https://dc.lft.to/lastmile_qr_scan"}, "fusion_lon": 0.0, "lat": 38.992262833333335, "bike_id": "e46b9fa2586cc253f1d5e4bf45e6879c", "type": "electric_bike", "is_reserved": 0, "lon": -76.94418666666667}, {"fusion_lat": 0.0, "name": "d80319af3b72bea64b1e8099713096f0", "is_disabled": 0, "rental_uris": {"android": "https://dc.lft.to/lastmile_qr_scan", "ios": "https://dc.lft.to/lastmile_qr_scan"}, "fusion_lon": 0.0, "lat": 38.927416, "bike_id": "d80319af3b72bea64b1e8099713096f0", "type": "electric_bike", "is_reserved": 0, "lon": -77.02496716666667}, {"fusion_lat": 0.0, "name": "29ebb373d9a61d44c1a06a87ba1f6896", "is_disabled": 0, "rental_uris": {"android": "https://dc.lft.to/lastmile_qr_scan", "ios": "https://dc.lft.to/lastmile_qr_scan"}, "fusion_lon": 0.0, "lat": 38.914916166666664, "bike_id": "29ebb373d9a61d44c1a06a87ba1f6896", "type": "electric_scooter", "is_reserved": 0, "lon": -77.02395483333333}, {"fusion_lat": 0.0, "name": "8c5079ed71889397c31d383eee3215f7", "is_disabled": 0, "rental_uris": {"android": "https://dc.lft.to/lastmile_qr_scan", "ios": "https://dc.lft.to/lastmile_qr_scan"}, "fusion_lon": 0.0, "lat": 38.8996035, "bike_id": "8c5079ed71889397c31d383eee3215f7", "type": "electric_scooter", "is_reserved": 0, "lon": -76.987154}, {"fusion_lat": 0.0, "name": "5dd7100b0b5f917d3a6052f5c6372e28", "is_disabled": 0, "rental_uris": {"android": "https://dc.lft.to/lastmile_qr_scan", "ios": "https://dc.lft.to/lastmile_qr_scan"}, "fusion_lon": 0.0, "lat": 38.9244805, "bike_id": "5dd7100b0b5f917d3a6052f5c6372e28", "type": "electric_scooter", "is_reserved": 0, "lon": -77.0402585}, {"fusion_lat": 0.0, "name": "0c00ed1077f804deab5353f937b3473d", "is_disabled": 0, "rental_uris": {"android": "https://dc.lft.to/lastmile_qr_scan", "ios": "https://dc.lft.to/lastmile_qr_scan"}, "fusion_lon": 0.0, "lat": 38.92077783333333, "bike_id": "0c00ed1077f804deab5353f937b3473d", "type": "electric_bike", "is_reserved": 0, "lon": -76.98939966666667}, {"fusion_lat": 0.0, "name": "64317e45c35f29c9148ed938c6aed505", "is_disabled": 0, "rental_uris": {"android": "https://dc.lft.to/lastmile_qr_scan", "ios": "https://dc.lft.to/lastmile_qr_scan"}, "fusion_lon": 0.0, "lat": 38.936486, "bike_id": "64317e45c35f29c9148ed938c6aed505", "type": "electric_scooter", "is_reserved": 0, "lon": -77.0305055}, {"fusion_lat": 0.0, "name": "749dc5156c500abf4767db0e36a7a4c6", "is_disabled": 0, "rental_uris": {"android": "https://dc.lft.to/lastmile_qr_scan", "ios": "https://dc.lft.to/lastmile_qr_scan"}, "fusion_lon": 0.0, "lat": 38.89760183333333, "bike_id": "749dc5156c500abf4767db0e36a7a4c6", "type": "electric_scooter", "is_reserved": 0, "lon": -77.03327766666666}, {"fusion_lat": 0.0, "name": "0d7379176da49466fc179b9285dee0c8", "is_disabled": 0, "rental_uris": {"android": "https://dc.lft.to/lastmile_qr_scan", "ios": "https://dc.lft.to/lastmile_qr_scan"}, "fusion_lon": 0.0, "lat": 38.917651166666666, "bike_id": "0d7379176da49466fc179b9285dee0c8", "type": "electric_scooter", "is_reserved": 0, "lon": -77.014964}, {"fusion_lat": 0.0, "name": "27a8d153e53edcb2fe5630ffff14bf56", "is_disabled": 0, "rental_uris": {"android": "https://dc.lft.to/lastmile_qr_scan", "ios": "https://dc.lft.to/lastmile_qr_scan"}, "fusion_lon": 0.0, "lat": 38.900184, "bike_id": "27a8d153e53edcb2fe5630ffff14bf56", "type": "electric_scooter", "is_reserved": 0, "lon": -77.012465}, {"fusion_lat": 0.0, "name": "7d1697423c0dc375ea843e4399c3b085", "is_disabled": 0, "rental_uris": {"android": "https://dc.lft.to/lastmile_qr_scan", "ios": "https://dc.lft.to/lastmile_qr_scan"}, "fusion_lon": 0.0, "lat": 38.94228566666666, "bike_id": "7d1697423c0dc375ea843e4399c3b085", "type": "electric_scooter", "is_reserved": 0, "lon": -77.013876}, {"fusion_lat": 0.0, "name": "2f28e721606a942085f29568aa4a3bc1", "is_disabled": 0, "rental_uris": {"android": "https://dc.lft.to/lastmile_qr_scan", "ios": "https://dc.lft.to/lastmile_qr_scan"}, "fusion_lon": 0.0, "lat": 38.893313166666665, "bike_id": "2f28e721606a942085f29568aa4a3bc1", "type": "electric_scooter", "is_reserved": 0, "lon": -77.02247366666667}, {"fusion_lat": 0.0, "name": "26d86b41e20058a78de518158fa466be", "is_disabled": 0, "rental_uris": {"android": "https://dc.lft.to/lastmile_qr_scan", "ios": "https://dc.lft.to/lastmile_qr_scan"}, "fusion_lon": 0.0, "lat": 38.90675533333334, "bike_id": "26d86b41e20058a78de518158fa466be", "type": "electric_scooter", "is_reserved": 0, "lon": -77.07024433333333}, {"fusion_lat": 0.0, "name": "3c8be43ee0d2221076308cb42ffebbad", "is_disabled": 0, "rental_uris": {"android": "https://dc.lft.to/lastmile_qr_scan", "ios": "https://dc.lft.to/lastmile_qr_scan"}, "fusion_lon": 0.0, "lat": 38.88728283333333, "bike_id": "3c8be43ee0d2221076308cb42ffebbad", "type": "electric_scooter", "is_reserved": 0, "lon": -76.98351816666667}, {"fusion_lat": 0.0, "name": "27df543ad301652ad892320338adef12", "is_disabled": 0, "rental_uris": {"android": "https://dc.lft.to/lastmile_qr_scan", "ios": "https://dc.lft.to/lastmile_qr_scan"}, "fusion_lon": 0.0, "lat": 38.88502966666667, "bike_id": "27df543ad301652ad892320338adef12", "type": "electric_scooter", "is_reserved": 0, "lon": -77.01515883333333}, {"fusion_lat": 0.0, "name": "0cba4613dad9b17a5ad39afd791357d4", "is_disabled": 0, "rental_uris": {"android": "https://dc.lft.to/lastmile_qr_scan", "ios": "https://dc.lft.to/lastmile_qr_scan"}, "fusion_lon": 0.0, "lat": 38.887474166666664, "bike_id": "0cba4613dad9b17a5ad39afd791357d4", "type": "electric_scooter", "is_reserved": 0, "lon": -76.98357266666666}, {"fusion_lat": 0.0, "name": "d77e4ed871c3df03f5654f4e84ec07de", "is_disabled": 0, "rental_uris": {"android": "https://dc.lft.to/lastmile_qr_scan", "ios": "https://dc.lft.to/lastmile_qr_scan"}, "fusion_lon": 0.0, "lat": 38.919675166666664, "bike_id": "d77e4ed871c3df03f5654f4e84ec07de", "type": "electric_scooter", "is_reserved": 0, "lon": -77.02380616666666}, {"fusion_lat": 0.0, "name": "091a831058892b8bf9b49bdaff8900d0", "is_disabled": 0, "rental_uris": {"android": "https://dc.lft.to/lastmile_qr_scan", "ios": "https://dc.lft.to/lastmile_qr_scan"}, "fusion_lon": 0.0, "lat": 38.899451666666664, "bike_id": "091a831058892b8bf9b49bdaff8900d0", "type": "electric_scooter", "is_reserved": 0, "lon": -77.05356283333333}, {"fusion_lat": 0.0, "name": "966bc04190e99efac1ee5bf204e627b2", "is_disabled": 0, "rental_uris": {"android": "https://dc.lft.to/lastmile_qr_scan", "ios": "https://dc.lft.to/lastmile_qr_scan"}, "fusion_lon": 0.0, "lat": 38.9050085, "bike_id": "966bc04190e99efac1ee5bf204e627b2", "type": "electric_scooter", "is_reserved": 0, "lon": -77.02940166666667}, {"fusion_lat": 0.0, "name": "f2b6afbd9b4d3000c3ce81af405f37fb", "is_disabled": 0, "rental_uris": {"android": "https://dc.lft.to/lastmile_qr_scan", "ios": "https://dc.lft.to/lastmile_qr_scan"}, "fusion_lon": 0.0, "lat": 38.90302583333333, "bike_id": "f2b6afbd9b4d3000c3ce81af405f37fb", "type": "electric_scooter", "is_reserved": 0, "lon": -76.99253283333333}, {"fusion_lat": 0.0, "name": "69eb7230e0eff6618aa2bf0e5fa03d59", "is_disabled": 0, "rental_uris": {"android": "https://dc.lft.to/lastmile_qr_scan", "ios": "https://dc.lft.to/lastmile_qr_scan"}, "fusion_lon": 0.0, "lat": 38.941728833333336, "bike_id": "69eb7230e0eff6618aa2bf0e5fa03d59", "type": "electric_scooter", "is_reserved": 0, "lon": -77.02511366666667}, {"fusion_lat": 0.0, "name": "96559548d701eedabfa9e10cb2ea71be", "is_disabled": 0, "rental_uris": {"android": "https://dc.lft.to/lastmile_qr_scan", "ios": "https://dc.lft.to/lastmile_qr_scan"}, "fusion_lon": 0.0, "lat": 38.91343533333333, "bike_id": "96559548d701eedabfa9e10cb2ea71be", "type": "electric_bike", "is_reserved": 0, "lon": -76.98894133333333}, {"fusion_lat": 0.0, "name": "6ca9d0ba3a5dd47edd713b858384fa07", "is_disabled": 0, "rental_uris": {"android": "https://dc.lft.to/lastmile_qr_scan", "ios": "https://dc.lft.to/lastmile_qr_scan"}, "fusion_lon": 0.0, "lat": 38.866370833333335, "bike_id": "6ca9d0ba3a5dd47edd713b858384fa07", "type": "electric_scooter", "is_reserved": 0, "lon": -76.982547}, {"fusion_lat": 0.0, "name": "6f615ef2e032d04bde47f64048f0211b", "is_disabled": 0, "rental_uris": {"android": "https://dc.lft.to/lastmile_qr_scan", "ios": "https://dc.lft.to/lastmile_qr_scan"}, "fusion_lon": 0.0, "lat": 38.9116715, "bike_id": "6f615ef2e032d04bde47f64048f0211b", "type": "electric_scooter", "is_reserved": 0, "lon": -77.00195283333333}, {"fusion_lat": 0.0, "name": "80a64dbbd18aa0384c0cbd8646a2bf06", "is_disabled": 0, "rental_uris": {"android": "https://dc.lft.to/lastmile_qr_scan", "ios": "https://dc.lft.to/lastmile_qr_scan"}, "fusion_lon": 0.0, "lat": 38.88805633333333, "bike_id": "80a64dbbd18aa0384c0cbd8646a2bf06", "type": "electric_scooter", "is_reserved": 0, "lon": -76.9835675}, {"fusion_lat": 0.0, "name": "4a26835f3ac73cb7b491820142e7e4ca", "is_disabled": 0, "rental_uris": {"android": "https://dc.lft.to/lastmile_qr_scan", "ios": "https://dc.lft.to/lastmile_qr_scan"}, "fusion_lon": 0.0, "lat": 38.88117416666667, "bike_id": "4a26835f3ac73cb7b491820142e7e4ca", "type": "electric_bike", "is_reserved": 0, "lon": -77.01644516666667}, {"fusion_lat": 0.0, "name": "7786c0a8698e1a94961c75ed8ad2013a", "is_disabled": 0, "rental_uris": {"android": "https://dc.lft.to/lastmile_qr_scan", "ios": "https://dc.lft.to/lastmile_qr_scan"}, "fusion_lon": 0.0, "lat": 38.926827833333334, "bike_id": "7786c0a8698e1a94961c75ed8ad2013a", "type": "electric_scooter", "is_reserved": 0, "lon": -77.03142033333333}, {"fusion_lat": 0.0, "name": "45a9fd07e42580de6888a7120f60b850", "is_disabled": 0, "rental_uris": {"android": "https://dc.lft.to/lastmile_qr_scan", "ios": "https://dc.lft.to/lastmile_qr_scan"}, "fusion_lon": 0.0, "lat": 38.92541966666667, "bike_id": "45a9fd07e42580de6888a7120f60b850", "type": "electric_scooter", "is_reserved": 0, "lon": -77.03827283333334}, {"fusion_lat": 0.0, "name": "6ad57505afaab9c576b420394b23ba82", "is_disabled": 0, "rental_uris": {"android": "https://dc.lft.to/lastmile_qr_scan", "ios": "https://dc.lft.to/lastmile_qr_scan"}, "fusion_lon": 0.0, "lat": 38.93868616666666, "bike_id": "6ad57505afaab9c576b420394b23ba82", "type": "electric_scooter", "is_reserved": 0, "lon": -77.02478833333333}, {"fusion_lat": 0.0, "name": "decce23c4cd547ed7aa451e904c30d4a", "is_disabled": 0, "rental_uris": {"android": "https://dc.lft.to/lastmile_qr_scan", "ios": "https://dc.lft.to/lastmile_qr_scan"}, "fusion_lon": 0.0, "lat": 38.89790583333333, "bike_id": "decce23c4cd547ed7aa451e904c30d4a", "type": "electric_scooter", "is_reserved": 0, "lon": -77.01190366666667}, {"fusion_lat": 0.0, "name": "1aceb0228534936b10804fa1ae97b68e", "is_disabled": 0, "rental_uris": {"android": "https://dc.lft.to/lastmile_qr_scan", "ios": "https://dc.lft.to/lastmile_qr_scan"}, "fusion_lon": 0.0, "lat": 38.928952333333335, "bike_id": "1aceb0228534936b10804fa1ae97b68e", "type": "electric_bike", "is_reserved": 0, "lon": -77.231767}, {"fusion_lat": 0.0, "name": "c8d1fcbd7f702410c369540ef5b68c4e", "is_disabled": 0, "rental_uris": {"android": "https://dc.lft.to/lastmile_qr_scan", "ios": "https://dc.lft.to/lastmile_qr_scan"}, "fusion_lon": 0.0, "lat": 38.9008955, "bike_id": "c8d1fcbd7f702410c369540ef5b68c4e", "type": "electric_scooter", "is_reserved": 0, "lon": -76.9833295}, {"fusion_lat": 0.0, "name": "8a80e68bac00a904b06210823394586d", "is_disabled": 0, "rental_uris": {"android": "https://dc.lft.to/lastmile_qr_scan", "ios": "https://dc.lft.to/lastmile_qr_scan"}, "fusion_lon": 0.0, "lat": 38.910445833333334, "bike_id": "8a80e68bac00a904b06210823394586d", "type": "electric_scooter", "is_reserved": 0, "lon": -77.00829233333333}, {"fusion_lat": 0.0, "name": "1a8e97766575526b10a19097e12562ef", "is_disabled": 0, "rental_uris": {"android": "https://dc.lft.to/lastmile_qr_scan", "ios": "https://dc.lft.to/lastmile_qr_scan"}, "fusion_lon": 0.0, "lat": 38.95275183333333, "bike_id": "1a8e97766575526b10a19097e12562ef", "type": "electric_scooter", "is_reserved": 0, "lon": -77.06894233333334}, {"fusion_lat": 0.0, "name": "65c7a4932474afe129c9e3f0f28b9938", "is_disabled": 0, "rental_uris": {"android": "https://dc.lft.to/lastmile_qr_scan", "ios": "https://dc.lft.to/lastmile_qr_scan"}, "fusion_lon": 0.0, "lat": 38.905161666666665, "bike_id": "65c7a4932474afe129c9e3f0f28b9938", "type": "electric_scooter", "is_reserved": 0, "lon": -77.064315}, {"fusion_lat": 0.0, "name": "39cb0d38fd1e6815fad3d82594c21b05", "is_disabled": 0, "rental_uris": {"android": "https://dc.lft.to/lastmile_qr_scan", "ios": "https://dc.lft.to/lastmile_qr_scan"}, "fusion_lon": 0.0, "lat": 38.93259333333334, "bike_id": "39cb0d38fd1e6815fad3d82594c21b05", "type": "electric_scooter", "is_reserved": 0, "lon": -77.01915466666667}, {"fusion_lat": 0.0, "name": "38f9203206e333c09fdabbfc9974ffb4", "is_disabled": 0, "rental_uris": {"android": "https://dc.lft.to/lastmile_qr_scan", "ios": "https://dc.lft.to/lastmile_qr_scan"}, "fusion_lon": 0.0, "lat": 38.920986166666665, "bike_id": "38f9203206e333c09fdabbfc9974ffb4", "type": "electric_scooter", "is_reserved": 0, "lon": -77.01809766666666}, {"fusion_lat": 0.0, "name": "828cc83999f1ef898dc85d1715bf7fb7", "is_disabled": 0, "rental_uris": {"android": "https://dc.lft.to/lastmile_qr_scan", "ios": "https://dc.lft.to/lastmile_qr_scan"}, "fusion_lon": 0.0, "lat": 38.925126, "bike_id": "828cc83999f1ef898dc85d1715bf7fb7", "type": "electric_bike", "is_reserved": 0, "lon": -77.233219}, {"fusion_lat": 0.0, "name": "8a7b33fb859e18704f6c2941fd22f392", "is_disabled": 0, "rental_uris": {"android": "https://dc.lft.to/lastmile_qr_scan", "ios": "https://dc.lft.to/lastmile_qr_scan"}, "fusion_lon": 0.0, "lat": 38.89672933333333, "bike_id": "8a7b33fb859e18704f6c2941fd22f392", "type": "electric_scooter", "is_reserved": 0, "lon": -76.93208866666667}, {"fusion_lat": 0.0, "name": "c8ae83edbd93a213ced449ce87e2c400", "is_disabled": 0, "rental_uris": {"android": "https://dc.lft.to/lastmile_qr_scan", "ios": "https://dc.lft.to/lastmile_qr_scan"}, "fusion_lon": 0.0, "lat": 38.90935533333333, "bike_id": "c8ae83edbd93a213ced449ce87e2c400", "type": "electric_scooter", "is_reserved": 0, "lon": -77.0626815}, {"fusion_lat": 0.0, "name": "da947b0e615ab47011468ab9bfd372d7", "is_disabled": 0, "rental_uris": {"android": "https://dc.lft.to/lastmile_qr_scan", "ios": "https://dc.lft.to/lastmile_qr_scan"}, "fusion_lon": 0.0, "lat": 38.9397, "bike_id": "da947b0e615ab47011468ab9bfd372d7", "type": "electric_scooter", "is_reserved": 0, "lon": -77.03286433333334}, {"fusion_lat": 0.0, "name": "7d1cc0a119f113b51b60141ed2b42f17", "is_disabled": 0, "rental_uris": {"android": "https://dc.lft.to/lastmile_qr_scan", "ios": "https://dc.lft.to/lastmile_qr_scan"}, "fusion_lon": 0.0, "lat": 38.91277766666666, "bike_id": "7d1cc0a119f113b51b60141ed2b42f17", "type": "electric_scooter", "is_reserved": 0, "lon": -77.01609833333333}, {"fusion_lat": 0.0, "name": "80d04a79e5c4dfc41edc8d73042290f1", "is_disabled": 0, "rental_uris": {"android": "https://dc.lft.to/lastmile_qr_scan", "ios": "https://dc.lft.to/lastmile_qr_scan"}, "fusion_lon": 0.0, "lat": 38.93492616666666, "bike_id": "80d04a79e5c4dfc41edc8d73042290f1", "type": "electric_scooter", "is_reserved": 0, "lon": -77.045318}, {"fusion_lat": 0.0, "name": "d9047782f9d4be186a18f65ecabc3cc4", "is_disabled": 0, "rental_uris": {"android": "https://dc.lft.to/lastmile_qr_scan", "ios": "https://dc.lft.to/lastmile_qr_scan"}, "fusion_lon": 0.0, "lat": 38.9152545, "bike_id": "d9047782f9d4be186a18f65ecabc3cc4", "type": "electric_scooter", "is_reserved": 0, "lon": -77.07268183333333}, {"fusion_lat": 0.0, "name": "fa79530a69f40540cd6429d51a08e490", "is_disabled": 0, "rental_uris": {"android": "https://dc.lft.to/lastmile_qr_scan", "ios": "https://dc.lft.to/lastmile_qr_scan"}, "fusion_lon": 0.0, "lat": 38.89607683333333, "bike_id": "fa79530a69f40540cd6429d51a08e490", "type": "electric_scooter", "is_reserved": 0, "lon": -77.04971833333333}, {"fusion_lat": 0.0, "name": "7e179240f410b649607e789b276c9d3c", "is_disabled": 0, "rental_uris": {"android": "https://dc.lft.to/lastmile_qr_scan", "ios": "https://dc.lft.to/lastmile_qr_scan"}, "fusion_lon": 0.0, "lat": 38.90423633333333, "bike_id": "7e179240f410b649607e789b276c9d3c", "type": "electric_scooter", "is_reserved": 0, "lon": -77.050304}, {"fusion_lat": 0.0, "name": "7faecff53aa9b9d3a7f634106fe1b8e5", "is_disabled": 0, "rental_uris": {"android": "https://dc.lft.to/lastmile_qr_scan", "ios": "https://dc.lft.to/lastmile_qr_scan"}, "fusion_lon": 0.0, "lat": 38.903065833333336, "bike_id": "7faecff53aa9b9d3a7f634106fe1b8e5", "type": "electric_scooter", "is_reserved": 0, "lon": -76.9750435}, {"fusion_lat": 0.0, "name": "7a6e92e93d91ec0228c1b5060fa0fe16", "is_disabled": 0, "rental_uris": {"android": "https://dc.lft.to/lastmile_qr_scan", "ios": "https://dc.lft.to/lastmile_qr_scan"}, "fusion_lon": 0.0, "lat": 38.89969816666667, "bike_id": "7a6e92e93d91ec0228c1b5060fa0fe16", "type": "electric_scooter", "is_reserved": 0, "lon": -77.0335675}, {"fusion_lat": 0.0, "name": "39342610c7f3a73467395ad98af847f6", "is_disabled": 0, "rental_uris": {"android": "https://dc.lft.to/lastmile_qr_scan", "ios": "https://dc.lft.to/lastmile_qr_scan"}, "fusion_lon": 0.0, "lat": 38.9360315, "bike_id": "39342610c7f3a73467395ad98af847f6", "type": "electric_scooter", "is_reserved": 0, "lon": -77.02297016666667}, {"fusion_lat": 0.0, "name": "9b27fac1daa7fda1684eedf6f2e00b9b", "is_disabled": 0, "rental_uris": {"android": "https://dc.lft.to/lastmile_qr_scan", "ios": "https://dc.lft.to/lastmile_qr_scan"}, "fusion_lon": 0.0, "lat": 38.9234345, "bike_id": "9b27fac1daa7fda1684eedf6f2e00b9b", "type": "electric_scooter", "is_reserved": 0, "lon": -77.03534366666666}, {"fusion_lat": 0.0, "name": "11d4ca8634bf3bcbcf6d5e39742bab27", "is_disabled": 0, "rental_uris": {"android": "https://dc.lft.to/lastmile_qr_scan", "ios": "https://dc.lft.to/lastmile_qr_scan"}, "fusion_lon": 0.0, "lat": 38.956393, "bike_id": "11d4ca8634bf3bcbcf6d5e39742bab27", "type": "electric_scooter", "is_reserved": 0, "lon": -77.0330255}, {"fusion_lat": 0.0, "name": "2bb0fc9cec40efe3d33c7314b4880b4f", "is_disabled": 0, "rental_uris": {"android": "https://dc.lft.to/lastmile_qr_scan", "ios": "https://dc.lft.to/lastmile_qr_scan"}, "fusion_lon": 0.0, "lat": 38.906263833333334, "bike_id": "2bb0fc9cec40efe3d33c7314b4880b4f", "type": "electric_scooter", "is_reserved": 0, "lon": -77.02981483333333}, {"fusion_lat": 0.0, "name": "18fac4661119774fe2f61c918f0a814d", "is_disabled": 0, "rental_uris": {"android": "https://dc.lft.to/lastmile_qr_scan", "ios": "https://dc.lft.to/lastmile_qr_scan"}, "fusion_lon": 0.0, "lat": 38.94924066666667, "bike_id": "18fac4661119774fe2f61c918f0a814d", "type": "electric_bike", "is_reserved": 0, "lon": -77.0080115}, {"fusion_lat": 0.0, "name": "8e0e19ba7bf018fefd702803fcdf475f", "is_disabled": 0, "rental_uris": {"android": "https://dc.lft.to/lastmile_qr_scan", "ios": "https://dc.lft.to/lastmile_qr_scan"}, "fusion_lon": 0.0, "lat": 38.899651, "bike_id": "8e0e19ba7bf018fefd702803fcdf475f", "type": "electric_scooter", "is_reserved": 0, "lon": -77.01503833333334}, {"fusion_lat": 0.0, "name": "a0f6dcc7ad9a6b2b3cbf9a679654e9fd", "is_disabled": 0, "rental_uris": {"android": "https://dc.lft.to/lastmile_qr_scan", "ios": "https://dc.lft.to/lastmile_qr_scan"}, "fusion_lon": 0.0, "lat": 38.9587735, "bike_id": "a0f6dcc7ad9a6b2b3cbf9a679654e9fd", "type": "electric_bike", "is_reserved": 0, "lon": -76.97055983333334}, {"fusion_lat": 0.0, "name": "72a4aa7f0fa7f7848cff356ab5a86f71", "is_disabled": 0, "rental_uris": {"android": "https://dc.lft.to/lastmile_qr_scan", "ios": "https://dc.lft.to/lastmile_qr_scan"}, "fusion_lon": 0.0, "lat": 38.91988816666667, "bike_id": "72a4aa7f0fa7f7848cff356ab5a86f71", "type": "electric_scooter", "is_reserved": 0, "lon": -77.03322733333333}, {"fusion_lat": 0.0, "name": "490936ecf1774a588da4ff1f896804b6", "is_disabled": 0, "rental_uris": {"android": "https://dc.lft.to/lastmile_qr_scan", "ios": "https://dc.lft.to/lastmile_qr_scan"}, "fusion_lon": 0.0, "lat": 38.90238433333333, "bike_id": "490936ecf1774a588da4ff1f896804b6", "type": "electric_scooter", "is_reserved": 0, "lon": -77.04905016666666}, {"fusion_lat": 0.0, "name": "760072c03562833f7f9f1aecb11b0b95", "is_disabled": 0, "rental_uris": {"android": "https://dc.lft.to/lastmile_qr_scan", "ios": "https://dc.lft.to/lastmile_qr_scan"}, "fusion_lon": 0.0, "lat": 38.950753, "bike_id": "760072c03562833f7f9f1aecb11b0b95", "type": "electric_bike", "is_reserved": 0, "lon": -77.0119835}, {"fusion_lat": 0.0, "name": "6c784b673697f44e58537255b721b41e", "is_disabled": 0, "rental_uris": {"android": "https://dc.lft.to/lastmile_qr_scan", "ios": "https://dc.lft.to/lastmile_qr_scan"}, "fusion_lon": 0.0, "lat": 38.957437666666664, "bike_id": "6c784b673697f44e58537255b721b41e", "type": "electric_bike", "is_reserved": 0, "lon": -76.98080533333334}, {"fusion_lat": 0.0, "name": "69b529f889e4955522eccbcf5e94e4e7", "is_disabled": 0, "rental_uris": {"android": "https://dc.lft.to/lastmile_qr_scan", "ios": "https://dc.lft.to/lastmile_qr_scan"}, "fusion_lon": 0.0, "lat": 38.90414966666667, "bike_id": "69b529f889e4955522eccbcf5e94e4e7", "type": "electric_scooter", "is_reserved": 0, "lon": -77.046704}, {"fusion_lat": 0.0, "name": "579733e748b88de14f6ff99d2a5817dc", "is_disabled": 0, "rental_uris": {"android": "https://dc.lft.to/lastmile_qr_scan", "ios": "https://dc.lft.to/lastmile_qr_scan"}, "fusion_lon": 0.0, "lat": 38.926996333333335, "bike_id": "579733e748b88de14f6ff99d2a5817dc", "type": "electric_scooter", "is_reserved": 0, "lon": -77.024298}, {"fusion_lat": 0.0, "name": "01985755253f7caa42138ef3aa9bd5fd", "is_disabled": 0, "rental_uris": {"android": "https://dc.lft.to/lastmile_qr_scan", "ios": "https://dc.lft.to/lastmile_qr_scan"}, "fusion_lon": 0.0, "lat": 38.89905233333333, "bike_id": "01985755253f7caa42138ef3aa9bd5fd", "type": "electric_scooter", "is_reserved": 0, "lon": -76.93348183333333}, {"fusion_lat": 0.0, "name": "886ca1a7c5cb9c433f0cd9cfa208dfce", "is_disabled": 0, "rental_uris": {"android": "https://dc.lft.to/lastmile_qr_scan", "ios": "https://dc.lft.to/lastmile_qr_scan"}, "fusion_lon": 0.0, "lat": 38.92200016666666, "bike_id": "886ca1a7c5cb9c433f0cd9cfa208dfce", "type": "electric_scooter", "is_reserved": 0, "lon": -77.08079983333333}, {"fusion_lat": 0.0, "name": "4935df3af8479070cef7833dc9fa580f", "is_disabled": 0, "rental_uris": {"android": "https://dc.lft.to/lastmile_qr_scan", "ios": "https://dc.lft.to/lastmile_qr_scan"}, "fusion_lon": 0.0, "lat": 38.905789, "bike_id": "4935df3af8479070cef7833dc9fa580f", "type": "electric_scooter", "is_reserved": 0, "lon": -77.02601716666666}, {"fusion_lat": 0.0, "name": "201d5d97b3b97e39cf744af53fb23470", "is_disabled": 0, "rental_uris": {"android": "https://dc.lft.to/lastmile_qr_scan", "ios": "https://dc.lft.to/lastmile_qr_scan"}, "fusion_lon": 0.0, "lat": 38.9361365, "bike_id": "201d5d97b3b97e39cf744af53fb23470", "type": "electric_scooter", "is_reserved": 0, "lon": -77.03189}, {"fusion_lat": 0.0, "name": "ba56458aecea4d0cdf7b3b6f39cbd5cd", "is_disabled": 0, "rental_uris": {"android": "https://dc.lft.to/lastmile_qr_scan", "ios": "https://dc.lft.to/lastmile_qr_scan"}, "fusion_lon": 0.0, "lat": 38.95962316666667, "bike_id": "ba56458aecea4d0cdf7b3b6f39cbd5cd", "type": "electric_bike", "is_reserved": 0, "lon": -76.98163366666667}, {"fusion_lat": 0.0, "name": "edd0ad1bbbe038c3cd2c19f74a1e6f27", "is_disabled": 0, "rental_uris": {"android": "https://dc.lft.to/lastmile_qr_scan", "ios": "https://dc.lft.to/lastmile_qr_scan"}, "fusion_lon": 0.0, "lat": 38.91469416666666, "bike_id": "edd0ad1bbbe038c3cd2c19f74a1e6f27", "type": "electric_scooter", "is_reserved": 0, "lon": -77.0389985}, {"fusion_lat": 0.0, "name": "48101a300b6c6d7145c486f79f69d629", "is_disabled": 0, "rental_uris": {"android": "https://dc.lft.to/lastmile_qr_scan", "ios": "https://dc.lft.to/lastmile_qr_scan"}, "fusion_lon": 0.0, "lat": 38.93859066666667, "bike_id": "48101a300b6c6d7145c486f79f69d629", "type": "electric_scooter", "is_reserved": 0, "lon": -77.02456333333333}, {"fusion_lat": 0.0, "name": "a9418ea38dda29c570aef87a11dd7cf7", "is_disabled": 0, "rental_uris": {"android": "https://dc.lft.to/lastmile_qr_scan", "ios": "https://dc.lft.to/lastmile_qr_scan"}, "fusion_lon": 0.0, "lat": 38.87392883333333, "bike_id": "a9418ea38dda29c570aef87a11dd7cf7", "type": "electric_scooter", "is_reserved": 0, "lon": -77.00157966666667}, {"fusion_lat": 0.0, "name": "47e5aefec3bdb702e945d5a679424296", "is_disabled": 0, "rental_uris": {"android": "https://dc.lft.to/lastmile_qr_scan", "ios": "https://dc.lft.to/lastmile_qr_scan"}, "fusion_lon": 0.0, "lat": 38.9210545, "bike_id": "47e5aefec3bdb702e945d5a679424296", "type": "electric_scooter", "is_reserved": 0, "lon": -77.074782}, {"fusion_lat": 0.0, "name": "8821c2786d3ddc92772712e7419c51b4", "is_disabled": 0, "rental_uris": {"android": "https://dc.lft.to/lastmile_qr_scan", "ios": "https://dc.lft.to/lastmile_qr_scan"}, "fusion_lon": 0.0, "lat": 38.92257166666667, "bike_id": "8821c2786d3ddc92772712e7419c51b4", "type": "electric_scooter", "is_reserved": 0, "lon": -77.01841416666667}, {"fusion_lat": 0.0, "name": "048aad434c0304919bceb6a33de34885", "is_disabled": 0, "rental_uris": {"android": "https://dc.lft.to/lastmile_qr_scan", "ios": "https://dc.lft.to/lastmile_qr_scan"}, "fusion_lon": 0.0, "lat": 38.919254333333335, "bike_id": "048aad434c0304919bceb6a33de34885", "type": "electric_scooter", "is_reserved": 0, "lon": -77.0451075}, {"fusion_lat": 0.0, "name": "54f118140672c388a561ea6e4235a55c", "is_disabled": 0, "rental_uris": {"android": "https://dc.lft.to/lastmile_qr_scan", "ios": "https://dc.lft.to/lastmile_qr_scan"}, "fusion_lon": 0.0, "lat": 38.898824, "bike_id": "54f118140672c388a561ea6e4235a55c", "type": "electric_scooter", "is_reserved": 0, "lon": -77.02024983333334}, {"fusion_lat": 0.0, "name": "0e3d45cd840408bf743f7881d6155a5b", "is_disabled": 0, "rental_uris": {"android": "https://dc.lft.to/lastmile_qr_scan", "ios": "https://dc.lft.to/lastmile_qr_scan"}, "fusion_lon": 0.0, "lat": 38.91507083333333, "bike_id": "0e3d45cd840408bf743f7881d6155a5b", "type": "electric_scooter", "is_reserved": 0, "lon": -77.00926883333334}, {"fusion_lat": 0.0, "name": "e360684ce83faa4989bd13c12a5255ec", "is_disabled": 0, "rental_uris": {"android": "https://dc.lft.to/lastmile_qr_scan", "ios": "https://dc.lft.to/lastmile_qr_scan"}, "fusion_lon": 0.0, "lat": 38.899996, "bike_id": "e360684ce83faa4989bd13c12a5255ec", "type": "electric_scooter", "is_reserved": 0, "lon": -77.003824}, {"fusion_lat": 0.0, "name": "654f9abd18112365d88433b7376c9cd6", "is_disabled": 0, "rental_uris": {"android": "https://dc.lft.to/lastmile_qr_scan", "ios": "https://dc.lft.to/lastmile_qr_scan"}, "fusion_lon": 0.0, "lat": 38.928766333333336, "bike_id": "654f9abd18112365d88433b7376c9cd6", "type": "electric_scooter", "is_reserved": 0, "lon": -77.03478133333333}, {"fusion_lat": 0.0, "name": "61e9f28cd081139f39359826e319cf87", "is_disabled": 0, "rental_uris": {"android": "https://dc.lft.to/lastmile_qr_scan", "ios": "https://dc.lft.to/lastmile_qr_scan"}, "fusion_lon": 0.0, "lat": 38.9067445, "bike_id": "61e9f28cd081139f39359826e319cf87", "type": "electric_scooter", "is_reserved": 0, "lon": -77.02713716666666}, {"fusion_lat": 0.0, "name": "bf4be1f29661c0329392c88b204afc09", "is_disabled": 0, "rental_uris": {"android": "https://dc.lft.to/lastmile_qr_scan", "ios": "https://dc.lft.to/lastmile_qr_scan"}, "fusion_lon": 0.0, "lat": 38.922037333333336, "bike_id": "bf4be1f29661c0329392c88b204afc09", "type": "electric_scooter", "is_reserved": 0, "lon": -77.04132333333334}, {"fusion_lat": 0.0, "name": "69481c3e0c5351e392b7d660372f71e0", "is_disabled": 0, "rental_uris": {"android": "https://dc.lft.to/lastmile_qr_scan", "ios": "https://dc.lft.to/lastmile_qr_scan"}, "fusion_lon": 0.0, "lat": 39.010770666666666, "bike_id": "69481c3e0c5351e392b7d660372f71e0", "type": "electric_bike", "is_reserved": 0, "lon": -76.91062766666667}, {"fusion_lat": 0.0, "name": "b2419532200d8846e400b32f7d203d56", "is_disabled": 0, "rental_uris": {"android": "https://dc.lft.to/lastmile_qr_scan", "ios": "https://dc.lft.to/lastmile_qr_scan"}, "fusion_lon": 0.0, "lat": 38.8995945, "bike_id": "b2419532200d8846e400b32f7d203d56", "type": "electric_scooter", "is_reserved": 0, "lon": -77.01509533333333}, {"fusion_lat": 0.0, "name": "10c6a840779ccccd71226c59f5cace7e", "is_disabled": 0, "rental_uris": {"android": "https://dc.lft.to/lastmile_qr_scan", "ios": "https://dc.lft.to/lastmile_qr_scan"}, "fusion_lon": 0.0, "lat": 38.9142425, "bike_id": "10c6a840779ccccd71226c59f5cace7e", "type": "electric_scooter", "is_reserved": 0, "lon": -77.04155383333334}, {"fusion_lat": 0.0, "name": "4b9b1b1bea0615ee411fea652e95c08b", "is_disabled": 0, "rental_uris": {"android": "https://dc.lft.to/lastmile_qr_scan", "ios": "https://dc.lft.to/lastmile_qr_scan"}, "fusion_lon": 0.0, "lat": 38.90928016666667, "bike_id": "4b9b1b1bea0615ee411fea652e95c08b", "type": "electric_scooter", "is_reserved": 0, "lon": -77.03855766666666}, {"fusion_lat": 0.0, "name": "f60a0a98631accb18499e3cef1e36d94", "is_disabled": 0, "rental_uris": {"android": "https://dc.lft.to/lastmile_qr_scan", "ios": "https://dc.lft.to/lastmile_qr_scan"}, "fusion_lon": 0.0, "lat": 38.924169166666665, "bike_id": "f60a0a98631accb18499e3cef1e36d94", "type": "electric_scooter", "is_reserved": 0, "lon": -77.02011266666666}, {"fusion_lat": 0.0, "name": "036630caaf8bdfdebed43e5baf24f1f1", "is_disabled": 0, "rental_uris": {"android": "https://dc.lft.to/lastmile_qr_scan", "ios": "https://dc.lft.to/lastmile_qr_scan"}, "fusion_lon": 0.0, "lat": 38.956581166666666, "bike_id": "036630caaf8bdfdebed43e5baf24f1f1", "type": "electric_scooter", "is_reserved": 0, "lon": -77.0332695}, {"fusion_lat": 0.0, "name": "e267f508a2ae74c34b84a6059d5be814", "is_disabled": 0, "rental_uris": {"android": "https://dc.lft.to/lastmile_qr_scan", "ios": "https://dc.lft.to/lastmile_qr_scan"}, "fusion_lon": 0.0, "lat": 38.876878, "bike_id": "e267f508a2ae74c34b84a6059d5be814", "type": "electric_scooter", "is_reserved": 0, "lon": -77.01754016666666}, {"fusion_lat": 0.0, "name": "74533093dae58a90cd6d978c369757cd", "is_disabled": 0, "rental_uris": {"android": "https://dc.lft.to/lastmile_qr_scan", "ios": "https://dc.lft.to/lastmile_qr_scan"}, "fusion_lon": 0.0, "lat": 38.907812666666665, "bike_id": "74533093dae58a90cd6d978c369757cd", "type": "electric_scooter", "is_reserved": 0, "lon": -77.038627}, {"fusion_lat": 0.0, "name": "6327173bc4ed7fb9620e51915ad147b5", "is_disabled": 0, "rental_uris": {"android": "https://dc.lft.to/lastmile_qr_scan", "ios": "https://dc.lft.to/lastmile_qr_scan"}, "fusion_lon": 0.0, "lat": 38.911132, "bike_id": "6327173bc4ed7fb9620e51915ad147b5", "type": "electric_scooter", "is_reserved": 0, "lon": -77.0382615}, {"fusion_lat": 0.0, "name": "b40848c52b54788ec0dbf7e42499fd84", "is_disabled": 0, "rental_uris": {"android": "https://dc.lft.to/lastmile_qr_scan", "ios": "https://dc.lft.to/lastmile_qr_scan"}, "fusion_lon": 0.0, "lat": 38.91961, "bike_id": "b40848c52b54788ec0dbf7e42499fd84", "type": "electric_scooter", "is_reserved": 0, "lon": -77.0179975}, {"fusion_lat": 0.0, "name": "3a9f0122dd1276a0e4c37b1a93748701", "is_disabled": 0, "rental_uris": {"android": "https://dc.lft.to/lastmile_qr_scan", "ios": "https://dc.lft.to/lastmile_qr_scan"}, "fusion_lon": 0.0, "lat": 38.942336833333336, "bike_id": "3a9f0122dd1276a0e4c37b1a93748701", "type": "electric_scooter", "is_reserved": 0, "lon": -77.02338383333333}, {"fusion_lat": 0.0, "name": "e27f562a0ee43f9a38bcdff45fcdb6d8", "is_disabled": 0, "rental_uris": {"android": "https://dc.lft.to/lastmile_qr_scan", "ios": "https://dc.lft.to/lastmile_qr_scan"}, "fusion_lon": 0.0, "lat": 38.93046116666667, "bike_id": "e27f562a0ee43f9a38bcdff45fcdb6d8", "type": "electric_scooter", "is_reserved": 0, "lon": -77.04068066666666}, {"fusion_lat": 0.0, "name": "1fc5508810a87a0d811a1a60e6d212ae", "is_disabled": 0, "rental_uris": {"android": "https://dc.lft.to/lastmile_qr_scan", "ios": "https://dc.lft.to/lastmile_qr_scan"}, "fusion_lon": 0.0, "lat": 38.89283316666667, "bike_id": "1fc5508810a87a0d811a1a60e6d212ae", "type": "electric_scooter", "is_reserved": 0, "lon": -76.98307}, {"fusion_lat": 0.0, "name": "fa600a2a30f018d9f66c6293ff49666a", "is_disabled": 0, "rental_uris": {"android": "https://dc.lft.to/lastmile_qr_scan", "ios": "https://dc.lft.to/lastmile_qr_scan"}, "fusion_lon": 0.0, "lat": 38.918190833333334, "bike_id": "fa600a2a30f018d9f66c6293ff49666a", "type": "electric_scooter", "is_reserved": 0, "lon": -77.01135}, {"fusion_lat": 0.0, "name": "77905ecd8ea6f53cf242c831faa5710c", "is_disabled": 0, "rental_uris": {"android": "https://dc.lft.to/lastmile_qr_scan", "ios": "https://dc.lft.to/lastmile_qr_scan"}, "fusion_lon": 0.0, "lat": 38.9198035, "bike_id": "77905ecd8ea6f53cf242c831faa5710c", "type": "electric_scooter", "is_reserved": 0, "lon": -77.04176616666666}, {"fusion_lat": 0.0, "name": "501b89d9901285acf976a3508166e3f4", "is_disabled": 0, "rental_uris": {"android": "https://dc.lft.to/lastmile_qr_scan", "ios": "https://dc.lft.to/lastmile_qr_scan"}, "fusion_lon": 0.0, "lat": 38.93636166666667, "bike_id": "501b89d9901285acf976a3508166e3f4", "type": "electric_scooter", "is_reserved": 0, "lon": -77.03664316666666}, {"fusion_lat": 0.0, "name": "3a0bcfca5fdee8574f0806ebaf42d98b", "is_disabled": 0, "rental_uris": {"android": "https://dc.lft.to/lastmile_qr_scan", "ios": "https://dc.lft.to/lastmile_qr_scan"}, "fusion_lon": 0.0, "lat": 38.948946166666666, "bike_id": "3a0bcfca5fdee8574f0806ebaf42d98b", "type": "electric_bike", "is_reserved": 0, "lon": -76.96374366666667}, {"fusion_lat": 0.0, "name": "105eeb1ee93b194efbe3bd1e86a07ef4", "is_disabled": 0, "rental_uris": {"android": "https://dc.lft.to/lastmile_qr_scan", "ios": "https://dc.lft.to/lastmile_qr_scan"}, "fusion_lon": 0.0, "lat": 38.927931666666666, "bike_id": "105eeb1ee93b194efbe3bd1e86a07ef4", "type": "electric_scooter", "is_reserved": 0, "lon": -77.03211816666666}, {"fusion_lat": 0.0, "name": "9a5359451b5bf8229f8b3b12888ed51e", "is_disabled": 0, "rental_uris": {"android": "https://dc.lft.to/lastmile_qr_scan", "ios": "https://dc.lft.to/lastmile_qr_scan"}, "fusion_lon": 0.0, "lat": 38.91112233333333, "bike_id": "9a5359451b5bf8229f8b3b12888ed51e", "type": "electric_scooter", "is_reserved": 0, "lon": -76.99764416666666}, {"fusion_lat": 0.0, "name": "3ad9550921e89d1a5c5343106283cf9b", "is_disabled": 0, "rental_uris": {"android": "https://dc.lft.to/lastmile_qr_scan", "ios": "https://dc.lft.to/lastmile_qr_scan"}, "fusion_lon": 0.0, "lat": 38.913005166666665, "bike_id": "3ad9550921e89d1a5c5343106283cf9b", "type": "electric_scooter", "is_reserved": 0, "lon": -77.048933}, {"fusion_lat": 0.0, "name": "a259c8b9b89aaf97581f34e6adeef010", "is_disabled": 0, "rental_uris": {"android": "https://dc.lft.to/lastmile_qr_scan", "ios": "https://dc.lft.to/lastmile_qr_scan"}, "fusion_lon": 0.0, "lat": 38.9111075, "bike_id": "a259c8b9b89aaf97581f34e6adeef010", "type": "electric_scooter", "is_reserved": 0, "lon": -77.02062166666667}, {"fusion_lat": 0.0, "name": "96c3f4306f90d7cba0312985afd44790", "is_disabled": 0, "rental_uris": {"android": "https://dc.lft.to/lastmile_qr_scan", "ios": "https://dc.lft.to/lastmile_qr_scan"}, "fusion_lon": 0.0, "lat": 38.9197235, "bike_id": "96c3f4306f90d7cba0312985afd44790", "type": "electric_scooter", "is_reserved": 0, "lon": -77.07074633333333}, {"fusion_lat": 0.0, "name": "f4a39991a714618f68bc6d7fa9a10871", "is_disabled": 0, "rental_uris": {"android": "https://dc.lft.to/lastmile_qr_scan", "ios": "https://dc.lft.to/lastmile_qr_scan"}, "fusion_lon": 0.0, "lat": 38.8191225, "bike_id": "f4a39991a714618f68bc6d7fa9a10871", "type": "electric_bike", "is_reserved": 0, "lon": -77.12664266666667}, {"fusion_lat": 0.0, "name": "7d5931bb1932519600e6155ce29d55e2", "is_disabled": 0, "rental_uris": {"android": "https://dc.lft.to/lastmile_qr_scan", "ios": "https://dc.lft.to/lastmile_qr_scan"}, "fusion_lon": 0.0, "lat": 38.931378, "bike_id": "7d5931bb1932519600e6155ce29d55e2", "type": "electric_scooter", "is_reserved": 0, "lon": -77.03260033333333}, {"fusion_lat": 0.0, "name": "75cef74740f1db662af8286181cf1656", "is_disabled": 0, "rental_uris": {"android": "https://dc.lft.to/lastmile_qr_scan", "ios": "https://dc.lft.to/lastmile_qr_scan"}, "fusion_lon": 0.0, "lat": 38.909034166666665, "bike_id": "75cef74740f1db662af8286181cf1656", "type": "electric_scooter", "is_reserved": 0, "lon": -77.03281466666667}, {"fusion_lat": 0.0, "name": "a69bac9a5fc160d8d5cea971540853c4", "is_disabled": 0, "rental_uris": {"android": "https://dc.lft.to/lastmile_qr_scan", "ios": "https://dc.lft.to/lastmile_qr_scan"}, "fusion_lon": 0.0, "lat": 38.92469883333333, "bike_id": "a69bac9a5fc160d8d5cea971540853c4", "type": "electric_scooter", "is_reserved": 0, "lon": -77.020735}, {"fusion_lat": 0.0, "name": "0d40a5ca91f289822980bba5cceb8162", "is_disabled": 0, "rental_uris": {"android": "https://dc.lft.to/lastmile_qr_scan", "ios": "https://dc.lft.to/lastmile_qr_scan"}, "fusion_lon": 0.0, "lat": 38.90097733333333, "bike_id": "0d40a5ca91f289822980bba5cceb8162", "type": "electric_scooter", "is_reserved": 0, "lon": -77.04954016666667}, {"fusion_lat": 0.0, "name": "cec25a986bb0a8066638ea07417ffa52", "is_disabled": 0, "rental_uris": {"android": "https://dc.lft.to/lastmile_qr_scan", "ios": "https://dc.lft.to/lastmile_qr_scan"},