{"data": {"bikes": [{"type": "electric_scooter", "name": "4954adbef990114c5edc83e7e3337ee7", "is_reserved": 0, "fusion_lat": 0.0, "lon": -77.05141216666667, "is_disabled": 0, "rental_uris": {"android": "https://dc.lft.to/lastmile_qr_scan", "ios": "https://dc.lft.to/lastmile_qr_scan"}, "bike_id": "4954adbef990114c5edc83e7e3337ee7", "fusion_lon": 0.0, "lat": 38.905358666666665}, {"type": "electric_scooter", "name": "1093b65149c7d51285dde56931f55ffc", "is_reserved": 0, "fusion_lat": 0.0, "lon": -76.98511883333333, "is_disabled": 0, "rental_uris": {"android": "https://dc.lft.to/lastmile_qr_scan", "ios": "https://dc.lft.to/lastmile_qr_scan"}, "bike_id": "1093b65149c7d51285dde56931f55ffc", "fusion_lon": 0.0, "lat": 38.866701666666664}, {"type": "electric_scooter", "name": "0fcbb6e9c1823ef6792efc63d7e3b47b", "is_reserved": 0, "fusion_lat": 0.0, "lon": -77.04478983333334, "is_disabled": 0, "rental_uris": {"android": "https://dc.lft.to/lastmile_qr_scan", "ios": "https://dc.lft.to/lastmile_qr_scan"}, "bike_id": "0fcbb6e9c1823ef6792efc63d7e3b47b", "fusion_lon": 0.0, "lat": 38.918679}, {"type": "electric_scooter", "name": "1d659ce77381e0ef0bfde84555670d3e", "is_reserved": 0, "fusion_lat": 0.0, "lon": -77.04505666666667, "is_disabled": 0, "rental_uris": {"android": "https://dc.lft.to/lastmile_qr_scan", "ios": "https://dc.lft.to/lastmile_qr_scan"}, "bike_id": "1d659ce77381e0ef0bfde84555670d3e", "fusion_lon": 0.0, "lat": 38.900055}, {"type": "electric_bike", "name": "9725f0d8e6212d377c68201cd3d9c720", "is_reserved": 0, "fusion_lat": 0.0, "lon": -76.93534516666666, "is_disabled": 0, "rental_uris": {"android": "https://dc.lft.to/lastmile_qr_scan", "ios": "https://dc.lft.to/lastmile_qr_scan"}, "bike_id": "9725f0d8e6212d377c68201cd3d9c720", "fusion_lon": 0.0, "lat": 38.955482833333335}, {"type": "electric_scooter", "name": "9ca0f63cf3c42504fe0334a201a4905c", "is_reserved": 0, "fusion_lat": 0.0, "lon": -76.931951, "is_disabled": 0, "rental_uris": {"android": "https://dc.lft.to/lastmile_qr_scan", "ios": "https://dc.lft.to/lastmile_qr_scan"}, "bike_id": "9ca0f63cf3c42504fe0334a201a4905c", "fusion_lon": 0.0, "lat": 38.898768833333335}, {"type": "electric_scooter", "name": "789c2da0a70461b816bd012932f7dc84", "is_reserved": 0, "fusion_lat": 0.0, "lon": -76.985564, "is_disabled": 0, "rental_uris": {"android": "https://dc.lft.to/lastmile_qr_scan", "ios": "https://dc.lft.to/lastmile_qr_scan"}, "bike_id": "789c2da0a70461b816bd012932f7dc84", "fusion_lon": 0.0, "lat": 38.91035333333333}, {"type": "electric_scooter", "name": "9840a11b918485eed680a2cadcd09375", "is_reserved": 0, "fusion_lat": 0.0, "lon": -77.06361516666666, "is_disabled": 0, "rental_uris": {"android": "https://dc.lft.to/lastmile_qr_scan", "ios": "https://dc.lft.to/lastmile_qr_scan"}, "bike_id": "9840a11b918485eed680a2cadcd09375", "fusion_lon": 0.0, "lat": 38.90516016666667}, {"type": "electric_scooter", "name": "a6a8fc178a55b9da490a3b6fde401bd6", "is_reserved": 0, "fusion_lat": 0.0, "lon": -77.03262766666667, "is_disabled": 0, "rental_uris": {"android": "https://dc.lft.to/lastmile_qr_scan", "ios": "https://dc.lft.to/lastmile_qr_scan"}, "bike_id": "a6a8fc178a55b9da490a3b6fde401bd6", "fusion_lon": 0.0, "lat": 38.902703833333334}, {"type": "electric_scooter", "name": "a2bbf3d714003140ad78f83580bbbdbd", "is_reserved": 0, "fusion_lat": 0.0, "lon": -77.02140866666667, "is_disabled": 0, "rental_uris": {"android": "https://dc.lft.to/lastmile_qr_scan", "ios": "https://dc.lft.to/lastmile_qr_scan"}, "bike_id": "a2bbf3d714003140ad78f83580bbbdbd", "fusion_lon": 0.0, "lat": 38.923232166666665}, {"type": "electric_scooter", "name": "b38e5dd3fc88bb838a9f2baf3ecb3fb8", "is_reserved": 0, "fusion_lat": 0.0, "lon": -77.01160033333333, "is_disabled": 0, "rental_uris": {"android": "https://dc.lft.to/lastmile_qr_scan", "ios": "https://dc.lft.to/lastmile_qr_scan"}, "bike_id": "b38e5dd3fc88bb838a9f2baf3ecb3fb8", "fusion_lon": 0.0, "lat": 38.90033716666667}, {"type": "electric_scooter", "name": "0d9670d8946606f30a063ffe287dc5be", "is_reserved": 0, "fusion_lat": 0.0, "lon": -77.02208533333334, "is_disabled": 0, "rental_uris": {"android": "https://dc.lft.to/lastmile_qr_scan", "ios": "https://dc.lft.to/lastmile_qr_scan"}, "bike_id": "0d9670d8946606f30a063ffe287dc5be", "fusion_lon": 0.0, "lat": 38.8871885}, {"type": "electric_scooter", "name": "c6573b1a7465cc52a4898c71cfd9a099", "is_reserved": 0, "fusion_lat": 0.0, "lon": -77.013051, "is_disabled": 0, "rental_uris": {"android": "https://dc.lft.to/lastmile_qr_scan", "ios": "https://dc.lft.to/lastmile_qr_scan"}, "bike_id": "c6573b1a7465cc52a4898c71cfd9a099", "fusion_lon": 0.0, "lat": 38.9017995}, {"type": "electric_scooter", "name": "7454720ae8cfe02f6fc242fc9b614e1c", "is_reserved": 0, "fusion_lat": 0.0, "lon": -77.0274285, "is_disabled": 0, "rental_uris": {"android": "https://dc.lft.to/lastmile_qr_scan", "ios": "https://dc.lft.to/lastmile_qr_scan"}, "bike_id": "7454720ae8cfe02f6fc242fc9b614e1c", "fusion_lon": 0.0, "lat": 38.93583616666667}, {"type": "electric_scooter", "name": "93b80b32267b726deb807d86a8b3fa5c", "is_reserved": 0, "fusion_lat": 0.0, "lon": -77.02971533333333, "is_disabled": 0, "rental_uris": {"android": "https://dc.lft.to/lastmile_qr_scan", "ios": "https://dc.lft.to/lastmile_qr_scan"}, "bike_id": "93b80b32267b726deb807d86a8b3fa5c", "fusion_lon": 0.0, "lat": 38.91674616666667}, {"type": "electric_scooter", "name": "53114f5fe2c7ec6c019a0d1cf8a01341", "is_reserved": 0, "fusion_lat": 0.0, "lon": -77.02958033333333, "is_disabled": 0, "rental_uris": {"android": "https://dc.lft.to/lastmile_qr_scan", "ios": "https://dc.lft.to/lastmile_qr_scan"}, "bike_id": "53114f5fe2c7ec6c019a0d1cf8a01341", "fusion_lon": 0.0, "lat": 38.91686966666666}, {"type": "electric_scooter", "name": "edaa4ade98f117f1165372c554eccd3c", "is_reserved": 0, "fusion_lat": 0.0, "lon": -77.0632835, "is_disabled": 0, "rental_uris": {"android": "https://dc.lft.to/lastmile_qr_scan", "ios": "https://dc.lft.to/lastmile_qr_scan"}, "bike_id": "edaa4ade98f117f1165372c554eccd3c", "fusion_lon": 0.0, "lat": 38.907674666666665}, {"type": "electric_scooter", "name": "f66ad15bbfba4a9efe3e8496adb9dbda", "is_reserved": 0, "fusion_lat": 0.0, "lon": -77.0543835, "is_disabled": 0, "rental_uris": {"android": "https://dc.lft.to/lastmile_qr_scan", "ios": "https://dc.lft.to/lastmile_qr_scan"}, "bike_id": "f66ad15bbfba4a9efe3e8496adb9dbda", "fusion_lon": 0.0, "lat": 38.928276}, {"type": "electric_bike", "name": "c277d0d5ab20001ae8b2c2601a23d020", "is_reserved": 0, "fusion_lat": 0.0, "lon": -77.00880516666666, "is_disabled": 0, "rental_uris": {"android": "https://dc.lft.to/lastmile_qr_scan", "ios": "https://dc.lft.to/lastmile_qr_scan"}, "bike_id": "c277d0d5ab20001ae8b2c2601a23d020", "fusion_lon": 0.0, "lat": 38.89930233333333}, {"type": "electric_scooter", "name": "8210b80ba8878ec07afc3f53ebeea48d", "is_reserved": 0, "fusion_lat": 0.0, "lon": -76.997325, "is_disabled": 0, "rental_uris": {"android": "https://dc.lft.to/lastmile_qr_scan", "ios": "https://dc.lft.to/lastmile_qr_scan"}, "bike_id": "8210b80ba8878ec07afc3f53ebeea48d", "fusion_lon": 0.0, "lat": 38.901228333333336}, {"type": "electric_scooter", "name": "3a70309b2d3791c6e3c8d243aa2ffa14", "is_reserved": 0, "fusion_lat": 0.0, "lon": -77.03319566666667, "is_disabled": 0, "rental_uris": {"android": "https://dc.lft.to/lastmile_qr_scan", "ios": "https://dc.lft.to/lastmile_qr_scan"}, "bike_id": "3a70309b2d3791c6e3c8d243aa2ffa14", "fusion_lon": 0.0, "lat": 38.921589833333336}, {"type": "electric_scooter", "name": "3a0f9ddf3d647374967e4ff40de18a4d", "is_reserved": 0, "fusion_lat": 0.0, "lon": -77.0276515, "is_disabled": 0, "rental_uris": {"android": "https://dc.lft.to/lastmile_qr_scan", "ios": "https://dc.lft.to/lastmile_qr_scan"}, "bike_id": "3a0f9ddf3d647374967e4ff40de18a4d", "fusion_lon": 0.0, "lat": 38.95422666666666}, {"type": "electric_scooter", "name": "8a31ea21b42dfe701f9696a6646dc2b1", "is_reserved": 0, "fusion_lat": 0.0, "lon": -77.05345466666667, "is_disabled": 0, "rental_uris": {"android": "https://dc.lft.to/lastmile_qr_scan", "ios": "https://dc.lft.to/lastmile_qr_scan"}, "bike_id": "8a31ea21b42dfe701f9696a6646dc2b1", "fusion_lon": 0.0, "lat": 38.92346966666667}, {"type": "electric_scooter", "name": "c5de5bc7cb23e600a429372171f484f2", "is_reserved": 0, "fusion_lat": 0.0, "lon": -77.03188666666667, "is_disabled": 0, "rental_uris": {"android": "https://dc.lft.to/lastmile_qr_scan", "ios": "https://dc.lft.to/lastmile_qr_scan"}, "bike_id": "c5de5bc7cb23e600a429372171f484f2", "fusion_lon": 0.0, "lat": 38.91901}, {"type": "electric_scooter", "name": "01eb5e99ff1fafb536eef118b78d6e4a", "is_reserved": 0, "fusion_lat": 0.0, "lon": -77.03282833333333, "is_disabled": 0, "rental_uris": {"android": "https://dc.lft.to/lastmile_qr_scan", "ios": "https://dc.lft.to/lastmile_qr_scan"}, "bike_id": "01eb5e99ff1fafb536eef118b78d6e4a", "fusion_lon": 0.0, "lat": 38.936754}, {"type": "electric_scooter", "name": "5155bace542719cc9c2a82c6e34f0968", "is_reserved": 0, "fusion_lat": 0.0, "lon": -76.98695083333334, "is_disabled": 0, "rental_uris": {"android": "https://dc.lft.to/lastmile_qr_scan", "ios": "https://dc.lft.to/lastmile_qr_scan"}, "bike_id": "5155bace542719cc9c2a82c6e34f0968", "fusion_lon": 0.0, "lat": 38.862587}, {"type": "electric_scooter", "name": "e198c0041c937405f4ca91e57293a3b1", "is_reserved": 0, "fusion_lat": 0.0, "lon": -77.03173516666666, "is_disabled": 0, "rental_uris": {"android": "https://dc.lft.to/lastmile_qr_scan", "ios": "https://dc.lft.to/lastmile_qr_scan"}, "bike_id": "e198c0041c937405f4ca91e57293a3b1", "fusion_lon": 0.0, "lat": 38.903699833333334}, {"type": "electric_bike", "name": "f7153467a6acedf62257b928edfeef99", "is_reserved": 0, "fusion_lat": 0.0, "lon": -76.9886215, "is_disabled": 0, "rental_uris": {"android": "https://dc.lft.to/lastmile_qr_scan", "ios": "https://dc.lft.to/lastmile_qr_scan"}, "bike_id": "f7153467a6acedf62257b928edfeef99", "fusion_lon": 0.0, "lat": 38.954851}, {"type": "electric_bike", "name": "fcc164aa56cba6769eaf943dca1d9feb", "is_reserved": 0, "fusion_lat": 0.0, "lon": -77.0021255, "is_disabled": 0, "rental_uris": {"android": "https://dc.lft.to/lastmile_qr_scan", "ios": "https://dc.lft.to/lastmile_qr_scan"}, "bike_id": "fcc164aa56cba6769eaf943dca1d9feb", "fusion_lon": 0.0, "lat": 38.936808}, {"type": "electric_scooter", "name": "74349f264557bea22086ad46254d6117", "is_reserved": 0, "fusion_lat": 0.0, "lon": -76.93753366666667, "is_disabled": 0, "rental_uris": {"android": "https://dc.lft.to/lastmile_qr_scan", "ios": "https://dc.lft.to/lastmile_qr_scan"}, "bike_id": "74349f264557bea22086ad46254d6117", "fusion_lon": 0.0, "lat": 38.89049133333333}, {"type": "electric_scooter", "name": "f3c94826361578d6b1c55fca8614be2e", "is_reserved": 0, "fusion_lat": 0.0, "lon": -77.05816266666666, "is_disabled": 0, "rental_uris": {"android": "https://dc.lft.to/lastmile_qr_scan", "ios": "https://dc.lft.to/lastmile_qr_scan"}, "bike_id": "f3c94826361578d6b1c55fca8614be2e", "fusion_lon": 0.0, "lat": 38.93561616666667}, {"type": "electric_bike", "name": "f2248ae112f16976d21975d04a6eddea", "is_reserved": 0, "fusion_lat": 0.0, "lon": -76.96052516666667, "is_disabled": 0, "rental_uris": {"android": "https://dc.lft.to/lastmile_qr_scan", "ios": "https://dc.lft.to/lastmile_qr_scan"}, "bike_id": "f2248ae112f16976d21975d04a6eddea", "fusion_lon": 0.0, "lat": 38.88401316666667}, {"type": "electric_scooter", "name": "4b21a867200b175f2aaff53274c279a4", "is_reserved": 0, "fusion_lat": 0.0, "lon": -77.04828783333333, "is_disabled": 0, "rental_uris": {"android": "https://dc.lft.to/lastmile_qr_scan", "ios": "https://dc.lft.to/lastmile_qr_scan"}, "bike_id": "4b21a867200b175f2aaff53274c279a4", "fusion_lon": 0.0, "lat": 38.91737833333333}, {"type": "electric_scooter", "name": "115783c33e4fd591d39d09493a60f869", "is_reserved": 0, "fusion_lat": 0.0, "lon": -77.03250666666666, "is_disabled": 0, "rental_uris": {"android": "https://dc.lft.to/lastmile_qr_scan", "ios": "https://dc.lft.to/lastmile_qr_scan"}, "bike_id": "115783c33e4fd591d39d09493a60f869", "fusion_lon": 0.0, "lat": 38.914004166666665}, {"type": "electric_bike", "name": "5b228ee090e7c11a3e2b9e2a927db46b", "is_reserved": 0, "fusion_lat": 0.0, "lon": -76.96021433333334, "is_disabled": 0, "rental_uris": {"android": "https://dc.lft.to/lastmile_qr_scan", "ios": "https://dc.lft.to/lastmile_qr_scan"}, "bike_id": "5b228ee090e7c11a3e2b9e2a927db46b", "fusion_lon": 0.0, "lat": 38.87011616666667}, {"type": "electric_bike", "name": "00ad64a0102d5b643f367ffe1cadc5fb", "is_reserved": 0, "fusion_lat": 0.0, "lon": -77.02838216666666, "is_disabled": 0, "rental_uris": {"android": "https://dc.lft.to/lastmile_qr_scan", "ios": "https://dc.lft.to/lastmile_qr_scan"}, "bike_id": "00ad64a0102d5b643f367ffe1cadc5fb", "fusion_lon": 0.0, "lat": 38.942656166666666}, {"type": "electric_scooter", "name": "01d86d808c595484705d86fbff0e2fb4", "is_reserved": 0, "fusion_lat": 0.0, "lon": -77.03337883333333, "is_disabled": 0, "rental_uris": {"android": "https://dc.lft.to/lastmile_qr_scan", "ios": "https://dc.lft.to/lastmile_qr_scan"}, "bike_id": "01d86d808c595484705d86fbff0e2fb4", "fusion_lon": 0.0, "lat": 38.920564166666665}, {"type": "electric_scooter", "name": "013d791429809b3794f440b28b7b2a1c", "is_reserved": 0, "fusion_lat": 0.0, "lon": -76.99516666666666, "is_disabled": 0, "rental_uris": {"android": "https://dc.lft.to/lastmile_qr_scan", "ios": "https://dc.lft.to/lastmile_qr_scan"}, "bike_id": "013d791429809b3794f440b28b7b2a1c", "fusion_lon": 0.0, "lat": 38.88370416666667}, {"type": "electric_scooter", "name": "7d0e431ea6aee91f9cbf52ac4aee8e1b", "is_reserved": 0, "fusion_lat": 0.0, "lon": -76.99333133333333, "is_disabled": 0, "rental_uris": {"android": "https://dc.lft.to/lastmile_qr_scan", "ios": "https://dc.lft.to/lastmile_qr_scan"}, "bike_id": "7d0e431ea6aee91f9cbf52ac4aee8e1b", "fusion_lon": 0.0, "lat": 38.871418}, {"type": "electric_scooter", "name": "a979fb792f1f351ea8770503c853ba3c", "is_reserved": 0, "fusion_lat": 0.0, "lon": -77.02553116666667, "is_disabled": 0, "rental_uris": {"android": "https://dc.lft.to/lastmile_qr_scan", "ios": "https://dc.lft.to/lastmile_qr_scan"}, "bike_id": "a979fb792f1f351ea8770503c853ba3c", "fusion_lon": 0.0, "lat": 38.91484583333333}, {"type": "electric_scooter", "name": "b8d8d47c9543ebc4113f59925c28e726", "is_reserved": 0, "fusion_lat": 0.0, "lon": -77.01853933333334, "is_disabled": 0, "rental_uris": {"android": "https://dc.lft.to/lastmile_qr_scan", "ios": "https://dc.lft.to/lastmile_qr_scan"}, "bike_id": "b8d8d47c9543ebc4113f59925c28e726", "fusion_lon": 0.0, "lat": 38.973671}, {"type": "electric_scooter", "name": "f0b8376d179204baf9c6234ec3949e4d", "is_reserved": 0, "fusion_lat": 0.0, "lon": -77.02953333333333, "is_disabled": 0, "rental_uris": {"android": "https://dc.lft.to/lastmile_qr_scan", "ios": "https://dc.lft.to/lastmile_qr_scan"}, "bike_id": "f0b8376d179204baf9c6234ec3949e4d", "fusion_lon": 0.0, "lat": 38.92858016666667}, {"type": "electric_scooter", "name": "18add26ec31be5835b83b163733cd999", "is_reserved": 0, "fusion_lat": 0.0, "lon": -77.03937616666667, "is_disabled": 0, "rental_uris": {"android": "https://dc.lft.to/lastmile_qr_scan", "ios": "https://dc.lft.to/lastmile_qr_scan"}, "bike_id": "18add26ec31be5835b83b163733cd999", "fusion_lon": 0.0, "lat": 38.917546333333334}, {"type": "electric_scooter", "name": "59b0e864da05982266599077cb2d934f", "is_reserved": 0, "fusion_lat": 0.0, "lon": -77.028942, "is_disabled": 0, "rental_uris": {"android": "https://dc.lft.to/lastmile_qr_scan", "ios": "https://dc.lft.to/lastmile_qr_scan"}, "bike_id": "59b0e864da05982266599077cb2d934f", "fusion_lon": 0.0, "lat": 38.91684933333333}, {"type": "electric_scooter", "name": "8b7aa2a006e743e9b1e70e370403a198", "is_reserved": 0, "fusion_lat": 0.0, "lon": -77.0439315, "is_disabled": 0, "rental_uris": {"android": "https://dc.lft.to/lastmile_qr_scan", "ios": "https://dc.lft.to/lastmile_qr_scan"}, "bike_id": "8b7aa2a006e743e9b1e70e370403a198", "fusion_lon": 0.0, "lat": 38.91725316666667}, {"type": "electric_scooter", "name": "94983d5d35e098657cc67dcf0b63b0e1", "is_reserved": 0, "fusion_lat": 0.0, "lon": -77.00515733333333, "is_disabled": 0, "rental_uris": {"android": "https://dc.lft.to/lastmile_qr_scan", "ios": "https://dc.lft.to/lastmile_qr_scan"}, "bike_id": "94983d5d35e098657cc67dcf0b63b0e1", "fusion_lon": 0.0, "lat": 38.90755266666667}, {"type": "electric_scooter", "name": "735057fc490bd3cd563488c8a9d5601f", "is_reserved": 0, "fusion_lat": 0.0, "lon": -77.04322433333333, "is_disabled": 0, "rental_uris": {"android": "https://dc.lft.to/lastmile_qr_scan", "ios": "https://dc.lft.to/lastmile_qr_scan"}, "bike_id": "735057fc490bd3cd563488c8a9d5601f", "fusion_lon": 0.0, "lat": 38.90400433333333}, {"type": "electric_scooter", "name": "cdd1a250ea054a9e6e8e1d123a001226", "is_reserved": 0, "fusion_lat": 0.0, "lon": -77.04131866666667, "is_disabled": 0, "rental_uris": {"android": "https://dc.lft.to/lastmile_qr_scan", "ios": "https://dc.lft.to/lastmile_qr_scan"}, "bike_id": "cdd1a250ea054a9e6e8e1d123a001226", "fusion_lon": 0.0, "lat": 38.93353783333333}, {"type": "electric_scooter", "name": "578955338dd8cbd45510a2db0203f08e", "is_reserved": 0, "fusion_lat": 0.0, "lon": -77.03205316666667, "is_disabled": 0, "rental_uris": {"android": "https://dc.lft.to/lastmile_qr_scan", "ios": "https://dc.lft.to/lastmile_qr_scan"}, "bike_id": "578955338dd8cbd45510a2db0203f08e", "fusion_lon": 0.0, "lat": 38.917826166666664}, {"type": "electric_scooter", "name": "394a0d09b2deeb58c6cb6aa92a3d84b2", "is_reserved": 0, "fusion_lat": 0.0, "lon": -77.040468, "is_disabled": 0, "rental_uris": {"android": "https://dc.lft.to/lastmile_qr_scan", "ios": "https://dc.lft.to/lastmile_qr_scan"}, "bike_id": "394a0d09b2deeb58c6cb6aa92a3d84b2", "fusion_lon": 0.0, "lat": 38.900286333333334}, {"type": "electric_scooter", "name": "646a3975d2061b87d94258f83214ec6b", "is_reserved": 0, "fusion_lat": 0.0, "lon": -77.021855, "is_disabled": 0, "rental_uris": {"android": "https://dc.lft.to/lastmile_qr_scan", "ios": "https://dc.lft.to/lastmile_qr_scan"}, "bike_id": "646a3975d2061b87d94258f83214ec6b", "fusion_lon": 0.0, "lat": 38.89996716666667}, {"type": "electric_scooter", "name": "624bcad3af70cb09a272a7f32c8c99e1", "is_reserved": 0, "fusion_lat": 0.0, "lon": -77.03904266666666, "is_disabled": 0, "rental_uris": {"android": "https://dc.lft.to/lastmile_qr_scan", "ios": "https://dc.lft.to/lastmile_qr_scan"}, "bike_id": "624bcad3af70cb09a272a7f32c8c99e1", "fusion_lon": 0.0, "lat": 38.918297333333335}, {"type": "electric_scooter", "name": "8a425eb22a53421ba018ab17ee2bac5a", "is_reserved": 0, "fusion_lat": 0.0, "lon": -77.061645, "is_disabled": 0, "rental_uris": {"android": "https://dc.lft.to/lastmile_qr_scan", "ios": "https://dc.lft.to/lastmile_qr_scan"}, "bike_id": "8a425eb22a53421ba018ab17ee2bac5a", "fusion_lon": 0.0, "lat": 38.91299516666667}, {"type": "electric_scooter", "name": "117c674134ffc58b19941ebe0c270e70", "is_reserved": 0, "fusion_lat": 0.0, "lon": -76.9652685, "is_disabled": 0, "rental_uris": {"android": "https://dc.lft.to/lastmile_qr_scan", "ios": "https://dc.lft.to/lastmile_qr_scan"}, "bike_id": "117c674134ffc58b19941ebe0c270e70", "fusion_lon": 0.0, "lat": 38.8762975}, {"type": "electric_scooter", "name": "e98049c7dfd8fb75839fa76f595404e7", "is_reserved": 0, "fusion_lat": 0.0, "lon": -77.033707, "is_disabled": 0, "rental_uris": {"android": "https://dc.lft.to/lastmile_qr_scan", "ios": "https://dc.lft.to/lastmile_qr_scan"}, "bike_id": "e98049c7dfd8fb75839fa76f595404e7", "fusion_lon": 0.0, "lat": 38.920502666666664}, {"type": "electric_scooter", "name": "613a816c95a6948c4cdc2868138e8407", "is_reserved": 0, "fusion_lat": 0.0, "lon": -77.00132516666666, "is_disabled": 0, "rental_uris": {"android": "https://dc.lft.to/lastmile_qr_scan", "ios": "https://dc.lft.to/lastmile_qr_scan"}, "bike_id": "613a816c95a6948c4cdc2868138e8407", "fusion_lon": 0.0, "lat": 38.87793533333333}, {"type": "electric_scooter", "name": "95460da54651cf9454c0c850988e18c4", "is_reserved": 0, "fusion_lat": 0.0, "lon": -77.05129433333333, "is_disabled": 0, "rental_uris": {"android": "https://dc.lft.to/lastmile_qr_scan", "ios": "https://dc.lft.to/lastmile_qr_scan"}, "bike_id": "95460da54651cf9454c0c850988e18c4", "fusion_lon": 0.0, "lat": 38.90642016666666}, {"type": "electric_scooter", "name": "5ad26f4c2b36b13b769d68457426bec5", "is_reserved": 0, "fusion_lat": 0.0, "lon": -76.9983225, "is_disabled": 0, "rental_uris": {"android": "https://dc.lft.to/lastmile_qr_scan", "ios": "https://dc.lft.to/lastmile_qr_scan"}, "bike_id": "5ad26f4c2b36b13b769d68457426bec5", "fusion_lon": 0.0, "lat": 38.88323616666667}, {"type": "electric_scooter", "name": "a07fa529c383e9363bfa54745901092f", "is_reserved": 0, "fusion_lat": 0.0, "lon": -77.0446375, "is_disabled": 0, "rental_uris": {"android": "https://dc.lft.to/lastmile_qr_scan", "ios": "https://dc.lft.to/lastmile_qr_scan"}, "bike_id": "a07fa529c383e9363bfa54745901092f", "fusion_lon": 0.0, "lat": 38.90905433333333}, {"type": "electric_scooter", "name": "e005ba6953e681d701e2deaccb683dde", "is_reserved": 0, "fusion_lat": 0.0, "lon": -77.03438316666667, "is_disabled": 0, "rental_uris": {"android": "https://dc.lft.to/lastmile_qr_scan", "ios": "https://dc.lft.to/lastmile_qr_scan"}, "bike_id": "e005ba6953e681d701e2deaccb683dde", "fusion_lon": 0.0, "lat": 38.905723}, {"type": "electric_bike", "name": "a0c7de9eb9b5ea04744602d4ac396a73", "is_reserved": 0, "fusion_lat": 0.0, "lon": -76.9935205, "is_disabled": 0, "rental_uris": {"android": "https://dc.lft.to/lastmile_qr_scan", "ios": "https://dc.lft.to/lastmile_qr_scan"}, "bike_id": "a0c7de9eb9b5ea04744602d4ac396a73", "fusion_lon": 0.0, "lat": 38.8450625}, {"type": "electric_scooter", "name": "91ce5204ab748e3ed46a2cd97dfb67a3", "is_reserved": 0, "fusion_lat": 0.0, "lon": -77.02687183333333, "is_disabled": 0, "rental_uris": {"android": "https://dc.lft.to/lastmile_qr_scan", "ios": "https://dc.lft.to/lastmile_qr_scan"}, "bike_id": "91ce5204ab748e3ed46a2cd97dfb67a3", "fusion_lon": 0.0, "lat": 38.899503}, {"type": "electric_scooter", "name": "35b5e209255b34534f10078e4bda49e2", "is_reserved": 0, "fusion_lat": 0.0, "lon": -77.0306945, "is_disabled": 0, "rental_uris": {"android": "https://dc.lft.to/lastmile_qr_scan", "ios": "https://dc.lft.to/lastmile_qr_scan"}, "bike_id": "35b5e209255b34534f10078e4bda49e2", "fusion_lon": 0.0, "lat": 38.92729533333333}, {"type": "electric_scooter", "name": "226b26eb81d32c2e79d44c2eba0ddcb4", "is_reserved": 0, "fusion_lat": 0.0, "lon": -77.0370685, "is_disabled": 0, "rental_uris": {"android": "https://dc.lft.to/lastmile_qr_scan", "ios": "https://dc.lft.to/lastmile_qr_scan"}, "bike_id": "226b26eb81d32c2e79d44c2eba0ddcb4", "fusion_lon": 0.0, "lat": 38.92775483333333}, {"type": "electric_scooter", "name": "12edcc53cb811fc7869643e7396d5a6c", "is_reserved": 0, "fusion_lat": 0.0, "lon": -77.02792683333334, "is_disabled": 0, "rental_uris": {"android": "https://dc.lft.to/lastmile_qr_scan", "ios": "https://dc.lft.to/lastmile_qr_scan"}, "bike_id": "12edcc53cb811fc7869643e7396d5a6c", "fusion_lon": 0.0, "lat": 38.90068133333333}, {"type": "electric_scooter", "name": "3406d5e5c486b8efbe967c8d069569ec", "is_reserved": 0, "fusion_lat": 0.0, "lon": -77.07584333333334, "is_disabled": 0, "rental_uris": {"android": "https://dc.lft.to/lastmile_qr_scan", "ios": "https://dc.lft.to/lastmile_qr_scan"}, "bike_id": "3406d5e5c486b8efbe967c8d069569ec", "fusion_lon": 0.0, "lat": 38.93872533333333}, {"type": "electric_scooter", "name": "79bf4553c7c828baa568bd73a26e3985", "is_reserved": 0, "fusion_lat": 0.0, "lon": -77.0237225, "is_disabled": 0, "rental_uris": {"android": "https://dc.lft.to/lastmile_qr_scan", "ios": "https://dc.lft.to/lastmile_qr_scan"}, "bike_id": "79bf4553c7c828baa568bd73a26e3985", "fusion_lon": 0.0, "lat": 38.93305433333333}, {"type": "electric_scooter", "name": "83b26007b8ae6027b9067d19a604dbb8", "is_reserved": 0, "fusion_lat": 0.0, "lon": -77.00057333333334, "is_disabled": 0, "rental_uris": {"android": "https://dc.lft.to/lastmile_qr_scan", "ios": "https://dc.lft.to/lastmile_qr_scan"}, "bike_id": "83b26007b8ae6027b9067d19a604dbb8", "fusion_lon": 0.0, "lat": 38.8916005}, {"type": "electric_scooter", "name": "7267fceff8e1a931ab60b76e64fe90db", "is_reserved": 0, "fusion_lat": 0.0, "lon": -76.9877905, "is_disabled": 0, "rental_uris": {"android": "https://dc.lft.to/lastmile_qr_scan", "ios": "https://dc.lft.to/lastmile_qr_scan"}, "bike_id": "7267fceff8e1a931ab60b76e64fe90db", "fusion_lon": 0.0, "lat": 38.9030085}, {"type": "electric_scooter", "name": "b3915da18135a8d8cf16fd4104340c65", "is_reserved": 0, "fusion_lat": 0.0, "lon": -77.025378, "is_disabled": 0, "rental_uris": {"android": "https://dc.lft.to/lastmile_qr_scan", "ios": "https://dc.lft.to/lastmile_qr_scan"}, "bike_id": "b3915da18135a8d8cf16fd4104340c65", "fusion_lon": 0.0, "lat": 38.927473}, {"type": "electric_scooter", "name": "a1275572312c6156eaf2cdd508d46340", "is_reserved": 0, "fusion_lat": 0.0, "lon": -77.02391866666666, "is_disabled": 0, "rental_uris": {"android": "https://dc.lft.to/lastmile_qr_scan", "ios": "https://dc.lft.to/lastmile_qr_scan"}, "bike_id": "a1275572312c6156eaf2cdd508d46340", "fusion_lon": 0.0, "lat": 38.92076816666667}, {"type": "electric_scooter", "name": "f397df484b61ac9405f3cea3918beced", "is_reserved": 0, "fusion_lat": 0.0, "lon": -77.00604466666667, "is_disabled": 0, "rental_uris": {"android": "https://dc.lft.to/lastmile_qr_scan", "ios": "https://dc.lft.to/lastmile_qr_scan"}, "bike_id": "f397df484b61ac9405f3cea3918beced", "fusion_lon": 0.0, "lat": 38.87549383333333}, {"type": "electric_scooter", "name": "bf94174607a7ec2db99998424a983786", "is_reserved": 0, "fusion_lat": 0.0, "lon": -77.04868966666666, "is_disabled": 0, "rental_uris": {"android": "https://dc.lft.to/lastmile_qr_scan", "ios": "https://dc.lft.to/lastmile_qr_scan"}, "bike_id": "bf94174607a7ec2db99998424a983786", "fusion_lon": 0.0, "lat": 38.90381983333333}, {"type": "electric_scooter", "name": "7a9d9ecfb542780c7f668251f18c40ea", "is_reserved": 0, "fusion_lat": 0.0, "lon": -77.051252, "is_disabled": 0, "rental_uris": {"android": "https://dc.lft.to/lastmile_qr_scan", "ios": "https://dc.lft.to/lastmile_qr_scan"}, "bike_id": "7a9d9ecfb542780c7f668251f18c40ea", "fusion_lon": 0.0, "lat": 38.923447833333334}, {"type": "electric_scooter", "name": "771b3d7b6c994cfcc0f82d2abc58cda6", "is_reserved": 0, "fusion_lat": 0.0, "lon": -76.99346916666667, "is_disabled": 0, "rental_uris": {"android": "https://dc.lft.to/lastmile_qr_scan", "ios": "https://dc.lft.to/lastmile_qr_scan"}, "bike_id": "771b3d7b6c994cfcc0f82d2abc58cda6", "fusion_lon": 0.0, "lat": 38.914838333333336}, {"type": "electric_scooter", "name": "bf5534e5a0bca65d4b36505c823a6dc5", "is_reserved": 0, "fusion_lat": 0.0, "lon": -77.0434135, "is_disabled": 0, "rental_uris": {"android": "https://dc.lft.to/lastmile_qr_scan", "ios": "https://dc.lft.to/lastmile_qr_scan"}, "bike_id": "bf5534e5a0bca65d4b36505c823a6dc5", "fusion_lon": 0.0, "lat": 38.922303666666664}, {"type": "electric_scooter", "name": "2a091325ac001c4d760036cebaa4c595", "is_reserved": 0, "fusion_lat": 0.0, "lon": -77.03100283333333, "is_disabled": 0, "rental_uris": {"android": "https://dc.lft.to/lastmile_qr_scan", "ios": "https://dc.lft.to/lastmile_qr_scan"}, "bike_id": "2a091325ac001c4d760036cebaa4c595", "fusion_lon": 0.0, "lat": 38.904198666666666}, {"type": "electric_scooter", "name": "d3093eba30a5eead32f0efbe40f7c487", "is_reserved": 0, "fusion_lat": 0.0, "lon": -77.015941, "is_disabled": 0, "rental_uris": {"android": "https://dc.lft.to/lastmile_qr_scan", "ios": "https://dc.lft.to/lastmile_qr_scan"}, "bike_id": "d3093eba30a5eead32f0efbe40f7c487", "fusion_lon": 0.0, "lat": 38.9494015}, {"type": "electric_scooter", "name": "baaa1e5dfb6e730233b213d9fb3a2e39", "is_reserved": 0, "fusion_lat": 0.0, "lon": -76.98607566666666, "is_disabled": 0, "rental_uris": {"android": "https://dc.lft.to/lastmile_qr_scan", "ios": "https://dc.lft.to/lastmile_qr_scan"}, "bike_id": "baaa1e5dfb6e730233b213d9fb3a2e39", "fusion_lon": 0.0, "lat": 38.9085595}, {"type": "electric_scooter", "name": "49718c21a1093ce2ee96a8ff585c3594", "is_reserved": 0, "fusion_lat": 0.0, "lon": -77.0321, "is_disabled": 0, "rental_uris": {"android": "https://dc.lft.to/lastmile_qr_scan", "ios": "https://dc.lft.to/lastmile_qr_scan"}, "bike_id": "49718c21a1093ce2ee96a8ff585c3594", "fusion_lon": 0.0, "lat": 38.895872833333335}, {"type": "electric_scooter", "name": "b72e264e5b84f791ff3098df175f045c", "is_reserved": 0, "fusion_lat": 0.0, "lon": -76.995053, "is_disabled": 0, "rental_uris": {"android": "https://dc.lft.to/lastmile_qr_scan", "ios": "https://dc.lft.to/lastmile_qr_scan"}, "bike_id": "b72e264e5b84f791ff3098df175f045c", "fusion_lon": 0.0, "lat": 38.909802}, {"type": "electric_scooter", "name": "c886f59284020e19662278d0c6f5a0ba", "is_reserved": 0, "fusion_lat": 0.0, "lon": -77.0525325, "is_disabled": 0, "rental_uris": {"android": "https://dc.lft.to/lastmile_qr_scan", "ios": "https://dc.lft.to/lastmile_qr_scan"}, "bike_id": "c886f59284020e19662278d0c6f5a0ba", "fusion_lon": 0.0, "lat": 38.923734833333334}, {"type": "electric_scooter", "name": "189520ac13ba9d0891cb702b627c0df3", "is_reserved": 0, "fusion_lat": 0.0, "lon": -77.02231383333333, "is_disabled": 0, "rental_uris": {"android": "https://dc.lft.to/lastmile_qr_scan", "ios": "https://dc.lft.to/lastmile_qr_scan"}, "bike_id": "189520ac13ba9d0891cb702b627c0df3", "fusion_lon": 0.0, "lat": 38.899018166666664}, {"type": "electric_scooter", "name": "c2d5d4c171d378cf97996f6fa23ced34", "is_reserved": 0, "fusion_lat": 0.0, "lon": -77.007464, "is_disabled": 0, "rental_uris": {"android": "https://dc.lft.to/lastmile_qr_scan", "ios": "https://dc.lft.to/lastmile_qr_scan"}, "bike_id": "c2d5d4c171d378cf97996f6fa23ced34", "fusion_lon": 0.0, "lat": 38.89836016666667}, {"type": "electric_bike", "name": "080868db5f947a890946c19af82f4d0f", "is_reserved": 0, "fusion_lat": 0.0, "lon": -76.98103766666667, "is_disabled": 0, "rental_uris": {"android": "https://dc.lft.to/lastmile_qr_scan", "ios": "https://dc.lft.to/lastmile_qr_scan"}, "bike_id": "080868db5f947a890946c19af82f4d0f", "fusion_lon": 0.0, "lat": 38.87730333333333}, {"type": "electric_scooter", "name": "1d338aa57265a6024d1fa5022e5330aa", "is_reserved": 0, "fusion_lat": 0.0, "lon": -77.041939, "is_disabled": 0, "rental_uris": {"android": "https://dc.lft.to/lastmile_qr_scan", "ios": "https://dc.lft.to/lastmile_qr_scan"}, "bike_id": "1d338aa57265a6024d1fa5022e5330aa", "fusion_lon": 0.0, "lat": 38.922649166666666}, {"type": "electric_scooter", "name": "14cc6a566350dca5497474980af68a95", "is_reserved": 0, "fusion_lat": 0.0, "lon": -77.02356466666667, "is_disabled": 0, "rental_uris": {"android": "https://dc.lft.to/lastmile_qr_scan", "ios": "https://dc.lft.to/lastmile_qr_scan"}, "bike_id": "14cc6a566350dca5497474980af68a95", "fusion_lon": 0.0, "lat": 38.918433666666665}, {"type": "electric_scooter", "name": "1c8605c420bf82351471399982e63c68", "is_reserved": 0, "fusion_lat": 0.0, "lon": -77.00365816666667, "is_disabled": 0, "rental_uris": {"android": "https://dc.lft.to/lastmile_qr_scan", "ios": "https://dc.lft.to/lastmile_qr_scan"}, "bike_id": "1c8605c420bf82351471399982e63c68", "fusion_lon": 0.0, "lat": 38.88261283333333}, {"type": "electric_scooter", "name": "d7909bd5f54a60d1cd31a9824bf1aa78", "is_reserved": 0, "fusion_lat": 0.0, "lon": -77.03460933333334, "is_disabled": 0, "rental_uris": {"android": "https://dc.lft.to/lastmile_qr_scan", "ios": "https://dc.lft.to/lastmile_qr_scan"}, "bike_id": "d7909bd5f54a60d1cd31a9824bf1aa78", "fusion_lon": 0.0, "lat": 38.908712333333334}, {"type": "electric_scooter", "name": "c943f908dcbdd0eba84bf80c8d1aadfc", "is_reserved": 0, "fusion_lat": 0.0, "lon": -77.061605, "is_disabled": 0, "rental_uris": {"android": "https://dc.lft.to/lastmile_qr_scan", "ios": "https://dc.lft.to/lastmile_qr_scan"}, "bike_id": "c943f908dcbdd0eba84bf80c8d1aadfc", "fusion_lon": 0.0, "lat": 38.902689333333335}, {"type": "electric_scooter", "name": "5ba41951ce7dec0de2c2fbadc00d2423", "is_reserved": 0, "fusion_lat": 0.0, "lon": -76.98876916666667, "is_disabled": 0, "rental_uris": {"android": "https://dc.lft.to/lastmile_qr_scan", "ios": "https://dc.lft.to/lastmile_qr_scan"}, "bike_id": "5ba41951ce7dec0de2c2fbadc00d2423", "fusion_lon": 0.0, "lat": 38.9002685}, {"type": "electric_scooter", "name": "b9e13dc52635ebe5b050842a50911973", "is_reserved": 0, "fusion_lat": 0.0, "lon": -77.00727383333333, "is_disabled": 0, "rental_uris": {"android": "https://dc.lft.to/lastmile_qr_scan", "ios": "https://dc.lft.to/lastmile_qr_scan"}, "bike_id": "b9e13dc52635ebe5b050842a50911973", "fusion_lon": 0.0, "lat": 38.88492816666667}, {"type": "electric_scooter", "name": "e021d4f2fad692999621cdb115f10c6f", "is_reserved": 0, "fusion_lat": 0.0, "lon": -77.01637033333333, "is_disabled": 0, "rental_uris": {"android": "https://dc.lft.to/lastmile_qr_scan", "ios": "https://dc.lft.to/lastmile_qr_scan"}, "bike_id": "e021d4f2fad692999621cdb115f10c6f", "fusion_lon": 0.0, "lat": 38.9024285}, {"type": "electric_bike", "name": "8417c8b7b8c27c4c6eeb6da9a0175f88", "is_reserved": 0, "fusion_lat": 0.0, "lon": -76.9862755, "is_disabled": 0, "rental_uris": {"android": "https://dc.lft.to/lastmile_qr_scan", "ios": "https://dc.lft.to/lastmile_qr_scan"}, "bike_id": "8417c8b7b8c27c4c6eeb6da9a0175f88", "fusion_lon": 0.0, "lat": 38.88044383333333}, {"type": "electric_bike", "name": "2602f04537b94137737d2b724fc11658", "is_reserved": 0, "fusion_lat": 0.0, "lon": -77.117085, "is_disabled": 0, "rental_uris": {"android": "https://dc.lft.to/lastmile_qr_scan", "ios": "https://dc.lft.to/lastmile_qr_scan"}, "bike_id": "2602f04537b94137737d2b724fc11658", "fusion_lon": 0.0, "lat": 38.867461}, {"type": "electric_scooter", "name": "27d07f35968b4eb92bf925c0e79cbc2c", "is_reserved": 0, "fusion_lat": 0.0, "lon": -77.04651916666667, "is_disabled": 0, "rental_uris": {"android": "https://dc.lft.to/lastmile_qr_scan", "ios": "https://dc.lft.to/lastmile_qr_scan"}, "bike_id": "27d07f35968b4eb92bf925c0e79cbc2c", "fusion_lon": 0.0, "lat": 38.89222183333333}, {"type": "electric_scooter", "name": "4b18c1e11dd8b4598f930320ce4c0257", "is_reserved": 0, "fusion_lat": 0.0, "lon": -77.00767683333333, "is_disabled": 0, "rental_uris": {"android": "https://dc.lft.to/lastmile_qr_scan", "ios": "https://dc.lft.to/lastmile_qr_scan"}, "bike_id": "4b18c1e11dd8b4598f930320ce4c0257", "fusion_lon": 0.0, "lat": 38.8975105}, {"type": "electric_scooter", "name": "e656e7e49511b41081d8e7ca12c48d06", "is_reserved": 0, "fusion_lat": 0.0, "lon": -77.06326083333333, "is_disabled": 0, "rental_uris": {"android": "https://dc.lft.to/lastmile_qr_scan", "ios": "https://dc.lft.to/lastmile_qr_scan"}, "bike_id": "e656e7e49511b41081d8e7ca12c48d06", "fusion_lon": 0.0, "lat": 38.944256}, {"type": "electric_scooter", "name": "15eb0d4b3ce0555f8378ae04e61531b6", "is_reserved": 0, "fusion_lat": 0.0, "lon": -77.04502466666666, "is_disabled": 0, "rental_uris": {"android": "https://dc.lft.to/lastmile_qr_scan", "ios": "https://dc.lft.to/lastmile_qr_scan"}, "bike_id": "15eb0d4b3ce0555f8378ae04e61531b6", "fusion_lon": 0.0, "lat": 38.91112833333333}, {"type": "electric_scooter", "name": "f9c71919d76d268a85c72cd54f26ccbb", "is_reserved": 0, "fusion_lat": 0.0, "lon": -77.01189366666667, "is_disabled": 0, "rental_uris": {"android": "https://dc.lft.to/lastmile_qr_scan", "ios": "https://dc.lft.to/lastmile_qr_scan"}, "bike_id": "f9c71919d76d268a85c72cd54f26ccbb", "fusion_lon": 0.0, "lat": 38.91546316666667}, {"type": "electric_scooter", "name": "bc432a21814dbcd2fa951eafb4264cbc", "is_reserved": 0, "fusion_lat": 0.0, "lon": -76.950189, "is_disabled": 0, "rental_uris": {"android": "https://dc.lft.to/lastmile_qr_scan", "ios": "https://dc.lft.to/lastmile_qr_scan"}, "bike_id": "bc432a21814dbcd2fa951eafb4264cbc", "fusion_lon": 0.0, "lat": 38.893899166666664}, {"type": "electric_scooter", "name": "69f8270433d5694210ba9b9890d9f9ac", "is_reserved": 0, "fusion_lat": 0.0, "lon": -77.0543815, "is_disabled": 0, "rental_uris": {"android": "https://dc.lft.to/lastmile_qr_scan", "ios": "https://dc.lft.to/lastmile_qr_scan"}, "bike_id": "69f8270433d5694210ba9b9890d9f9ac", "fusion_lon": 0.0, "lat": 38.92828016666667}, {"type": "electric_scooter", "name": "a81bdcabedb508db7f3cf6b28c1560e9", "is_reserved": 0, "fusion_lat": 0.0, "lon": -77.03863416666667, "is_disabled": 0, "rental_uris": {"android": "https://dc.lft.to/lastmile_qr_scan", "ios": "https://dc.lft.to/lastmile_qr_scan"}, "bike_id": "a81bdcabedb508db7f3cf6b28c1560e9", "fusion_lon": 0.0, "lat": 38.945015833333336}, {"type": "electric_scooter", "name": "970f0814be681fc838faff0f356cefae", "is_reserved": 0, "fusion_lat": 0.0, "lon": -77.00564133333333, "is_disabled": 0, "rental_uris": {"android": "https://dc.lft.to/lastmile_qr_scan", "ios": "https://dc.lft.to/lastmile_qr_scan"}, "bike_id": "970f0814be681fc838faff0f356cefae", "fusion_lon": 0.0, "lat": 38.8850385}, {"type": "electric_scooter", "name": "2eea332697765080d6055d970c377d92", "is_reserved": 0, "fusion_lat": 0.0, "lon": -77.03429533333333, "is_disabled": 0, "rental_uris": {"android": "https://dc.lft.to/lastmile_qr_scan", "ios": "https://dc.lft.to/lastmile_qr_scan"}, "bike_id": "2eea332697765080d6055d970c377d92", "fusion_lon": 0.0, "lat": 38.90425333333334}, {"type": "electric_scooter", "name": "98b27a8711d74eca9ca1abe9f26f6ef2", "is_reserved": 0, "fusion_lat": 0.0, "lon": -77.021695, "is_disabled": 0, "rental_uris": {"android": "https://dc.lft.to/lastmile_qr_scan", "ios": "https://dc.lft.to/lastmile_qr_scan"}, "bike_id": "98b27a8711d74eca9ca1abe9f26f6ef2", "fusion_lon": 0.0, "lat": 38.8989255}, {"type": "electric_scooter", "name": "a747faa7d3e902e39e53638309934eda", "is_reserved": 0, "fusion_lat": 0.0, "lon": -76.94879733333333, "is_disabled": 0, "rental_uris": {"android": "https://dc.lft.to/lastmile_qr_scan", "ios": "https://dc.lft.to/lastmile_qr_scan"}, "bike_id": "a747faa7d3e902e39e53638309934eda", "fusion_lon": 0.0, "lat": 38.895538333333334}, {"type": "electric_scooter", "name": "6900d7e95cef3005c7b3f8aea263539c", "is_reserved": 0, "fusion_lat": 0.0, "lon": -76.98710083333333, "is_disabled": 0, "rental_uris": {"android": "https://dc.lft.to/lastmile_qr_scan", "ios": "https://dc.lft.to/lastmile_qr_scan"}, "bike_id": "6900d7e95cef3005c7b3f8aea263539c", "fusion_lon": 0.0, "lat": 38.867015}, {"type": "electric_scooter", "name": "c4c018e70765ff0387d5391acdf9edd0", "is_reserved": 0, "fusion_lat": 0.0, "lon": -76.99058066666667, "is_disabled": 0, "rental_uris": {"android": "https://dc.lft.to/lastmile_qr_scan", "ios": "https://dc.lft.to/lastmile_qr_scan"}, "bike_id": "c4c018e70765ff0387d5391acdf9edd0", "fusion_lon": 0.0, "lat": 38.863696166666664}, {"type": "electric_scooter", "name": "645d3df9b78402adc0dbe6964d334e5c", "is_reserved": 0, "fusion_lat": 0.0, "lon": -77.05396783333333, "is_disabled": 0, "rental_uris": {"android": "https://dc.lft.to/lastmile_qr_scan", "ios": "https://dc.lft.to/lastmile_qr_scan"}, "bike_id": "645d3df9b78402adc0dbe6964d334e5c", "fusion_lon": 0.0, "lat": 38.92812933333333}, {"type": "electric_scooter", "name": "390ab6fe0da51a9964fd104751dbe700", "is_reserved": 0, "fusion_lat": 0.0, "lon": -76.99706133333333, "is_disabled": 0, "rental_uris": {"android": "https://dc.lft.to/lastmile_qr_scan", "ios": "https://dc.lft.to/lastmile_qr_scan"}, "bike_id": "390ab6fe0da51a9964fd104751dbe700", "fusion_lon": 0.0, "lat": 38.907760833333334}, {"type": "electric_scooter", "name": "465eb02da63fc8337e0fcc16cbd37283", "is_reserved": 0, "fusion_lat": 0.0, "lon": -77.04517683333333, "is_disabled": 0, "rental_uris": {"android": "https://dc.lft.to/lastmile_qr_scan", "ios": "https://dc.lft.to/lastmile_qr_scan"}, "bike_id": "465eb02da63fc8337e0fcc16cbd37283", "fusion_lon": 0.0, "lat": 38.892230833333336}, {"type": "electric_bike", "name": "36af353d40420a88a25667881fe246e2", "is_reserved": 0, "fusion_lat": 0.0, "lon": -76.9964855, "is_disabled": 0, "rental_uris": {"android": "https://dc.lft.to/lastmile_qr_scan", "ios": "https://dc.lft.to/lastmile_qr_scan"}, "bike_id": "36af353d40420a88a25667881fe246e2", "fusion_lon": 0.0, "lat": 38.98821366666667}, {"type": "electric_scooter", "name": "4c6ea0f5d5700fd9ff81be5f3a908f12", "is_reserved": 0, "fusion_lat": 0.0, "lon": -77.0183355, "is_disabled": 0, "rental_uris": {"android": "https://dc.lft.to/lastmile_qr_scan", "ios": "https://dc.lft.to/lastmile_qr_scan"}, "bike_id": "4c6ea0f5d5700fd9ff81be5f3a908f12", "fusion_lon": 0.0, "lat": 38.94205016666667}, {"type": "electric_scooter", "name": "7205ac103c8daf66429113dc22f76345", "is_reserved": 0, "fusion_lat": 0.0, "lon": -77.02517283333333, "is_disabled": 0, "rental_uris": {"android": "https://dc.lft.to/lastmile_qr_scan", "ios": "https://dc.lft.to/lastmile_qr_scan"}, "bike_id": "7205ac103c8daf66429113dc22f76345", "fusion_lon": 0.0, "lat": 38.919401666666666}, {"type": "electric_scooter", "name": "037467883e95c3c6de7d57070302fca4", "is_reserved": 0, "fusion_lat": 0.0, "lon": -77.03907, "is_disabled": 0, "rental_uris": {"android": "https://dc.lft.to/lastmile_qr_scan", "ios": "https://dc.lft.to/lastmile_qr_scan"}, "bike_id": "037467883e95c3c6de7d57070302fca4", "fusion_lon": 0.0, "lat": 38.91829966666667}, {"type": "electric_scooter", "name": "891c926c2d75068296a30a18cb635d5a", "is_reserved": 0, "fusion_lat": 0.0, "lon": -77.01995666666667, "is_disabled": 0, "rental_uris": {"android": "https://dc.lft.to/lastmile_qr_scan", "ios": "https://dc.lft.to/lastmile_qr_scan"}, "bike_id": "891c926c2d75068296a30a18cb635d5a", "fusion_lon": 0.0, "lat": 38.913624666666664}, {"type": "electric_scooter", "name": "7a8f3794573491ed64c8289d0d2c8c5f", "is_reserved": 0, "fusion_lat": 0.0, "lon": -77.05225333333334, "is_disabled": 0, "rental_uris": {"android": "https://dc.lft.to/lastmile_qr_scan", "ios": "https://dc.lft.to/lastmile_qr_scan"}, "bike_id": "7a8f3794573491ed64c8289d0d2c8c5f", "fusion_lon": 0.0, "lat": 38.903104666666664}, {"type": "electric_scooter", "name": "69eb986b6565daa41182c34fbbefebf6", "is_reserved": 0, "fusion_lat": 0.0, "lon": -77.02669366666667, "is_disabled": 0, "rental_uris": {"android": "https://dc.lft.to/lastmile_qr_scan", "ios": "https://dc.lft.to/lastmile_qr_scan"}, "bike_id": "69eb986b6565daa41182c34fbbefebf6", "fusion_lon": 0.0, "lat": 38.92674266666667}, {"type": "electric_scooter", "name": "2fc86b3c3b7c87d71b056b662dd85563", "is_reserved": 0, "fusion_lat": 0.0, "lon": -77.043447, "is_disabled": 0, "rental_uris": {"android": "https://dc.lft.to/lastmile_qr_scan", "ios": "https://dc.lft.to/lastmile_qr_scan"}, "bike_id": "2fc86b3c3b7c87d71b056b662dd85563", "fusion_lon": 0.0, "lat": 38.907493333333335}, {"type": "electric_scooter", "name": "ab08c4085809725b6222b0732ffd2d1e", "is_reserved": 0, "fusion_lat": 0.0, "lon": -76.98351566666666, "is_disabled": 0, "rental_uris": {"android": "https://dc.lft.to/lastmile_qr_scan", "ios": "https://dc.lft.to/lastmile_qr_scan"}, "bike_id": "ab08c4085809725b6222b0732ffd2d1e", "fusion_lon": 0.0, "lat": 38.91547083333333}, {"type": "electric_scooter", "name": "8aedc70ba0b887457032b1eac3c4807a", "is_reserved": 0, "fusion_lat": 0.0, "lon": -77.02682716666666, "is_disabled": 0, "rental_uris": {"android": "https://dc.lft.to/lastmile_qr_scan", "ios": "https://dc.lft.to/lastmile_qr_scan"}, "bike_id": "8aedc70ba0b887457032b1eac3c4807a", "fusion_lon": 0.0, "lat": 38.912664666666664}, {"type": "electric_scooter", "name": "c4bf717ac770ef7fc790c118319147dd", "is_reserved": 0, "fusion_lat": 0.0, "lon": -77.03958316666667, "is_disabled": 0, "rental_uris": {"android": "https://dc.lft.to/lastmile_qr_scan", "ios": "https://dc.lft.to/lastmile_qr_scan"}, "bike_id": "c4bf717ac770ef7fc790c118319147dd", "fusion_lon": 0.0, "lat": 38.93060466666667}, {"type": "electric_scooter", "name": "9db4156a3f28756b62789b0a208d61b2", "is_reserved": 0, "fusion_lat": 0.0, "lon": -76.99807983333334, "is_disabled": 0, "rental_uris": {"android": "https://dc.lft.to/lastmile_qr_scan", "ios": "https://dc.lft.to/lastmile_qr_scan"}, "bike_id": "9db4156a3f28756b62789b0a208d61b2", "fusion_lon": 0.0, "lat": 38.885635666666666}, {"type": "electric_scooter", "name": "180cd555cf4b367d3ce998ca6b94b463", "is_reserved": 0, "fusion_lat": 0.0, "lon": -76.98766466666666, "is_disabled": 0, "rental_uris": {"android": "https://dc.lft.to/lastmile_qr_scan", "ios": "https://dc.lft.to/lastmile_qr_scan"}, "bike_id": "180cd555cf4b367d3ce998ca6b94b463", "fusion_lon": 0.0, "lat": 38.900301}, {"type": "electric_scooter", "name": "7099158d0211c4f0a0a4923e049193f7", "is_reserved": 0, "fusion_lat": 0.0, "lon": -77.04825083333333, "is_disabled": 0, "rental_uris": {"android": "https://dc.lft.to/lastmile_qr_scan", "ios": "https://dc.lft.to/lastmile_qr_scan"}, "bike_id": "7099158d0211c4f0a0a4923e049193f7", "fusion_lon": 0.0, "lat": 38.91047866666667}, {"type": "electric_scooter", "name": "76474c33c9dbb53ef87cb253012e39b2", "is_reserved": 0, "fusion_lat": 0.0, "lon": -77.01698616666667, "is_disabled": 0, "rental_uris": {"android": "https://dc.lft.to/lastmile_qr_scan", "ios": "https://dc.lft.to/lastmile_qr_scan"}, "bike_id": "76474c33c9dbb53ef87cb253012e39b2", "fusion_lon": 0.0, "lat": 38.975001}, {"type": "electric_scooter", "name": "6212fb2c6efa50eaef513aa60978a53f", "is_reserved": 0, "fusion_lat": 0.0, "lon": -76.9983175, "is_disabled": 0, "rental_uris": {"android": "https://dc.lft.to/lastmile_qr_scan", "ios": "https://dc.lft.to/lastmile_qr_scan"}, "bike_id": "6212fb2c6efa50eaef513aa60978a53f", "fusion_lon": 0.0, "lat": 38.901404666666664}, {"type": "electric_scooter", "name": "c2c513a716962eb2b7ad1171b8284597", "is_reserved": 0, "fusion_lat": 0.0, "lon": -77.00864533333333, "is_disabled": 0, "rental_uris": {"android": "https://dc.lft.to/lastmile_qr_scan", "ios": "https://dc.lft.to/lastmile_qr_scan"}, "bike_id": "c2c513a716962eb2b7ad1171b8284597", "fusion_lon": 0.0, "lat": 38.89747066666666}, {"type": "electric_bike", "name": "16c92a7be2e3ca9940916e90c0181d16", "is_reserved": 0, "fusion_lat": 0.0, "lon": -77.03926316666667, "is_disabled": 0, "rental_uris": {"android": "https://dc.lft.to/lastmile_qr_scan", "ios": "https://dc.lft.to/lastmile_qr_scan"}, "bike_id": "16c92a7be2e3ca9940916e90c0181d16", "fusion_lon": 0.0, "lat": 38.899083166666664}, {"type": "electric_scooter", "name": "19b87279c83097a045e31efdef2cac0c", "is_reserved": 0, "fusion_lat": 0.0, "lon": -77.03351166666667, "is_disabled": 0, "rental_uris": {"android": "https://dc.lft.to/lastmile_qr_scan", "ios": "https://dc.lft.to/lastmile_qr_scan"}, "bike_id": "19b87279c83097a045e31efdef2cac0c", "fusion_lon": 0.0, "lat": 38.90728816666667}, {"type": "electric_scooter", "name": "d9e7e824b909944091dbad49e80e4896", "is_reserved": 0, "fusion_lat": 0.0, "lon": -77.01696783333334, "is_disabled": 0, "rental_uris": {"android": "https://dc.lft.to/lastmile_qr_scan", "ios": "https://dc.lft.to/lastmile_qr_scan"}, "bike_id": "d9e7e824b909944091dbad49e80e4896", "fusion_lon": 0.0, "lat": 38.97495633333333}, {"type": "electric_scooter", "name": "36fc04b3d17ee34b70dc5d4da75ddc79", "is_reserved": 0, "fusion_lat": 0.0, "lon": -77.00926333333334, "is_disabled": 0, "rental_uris": {"android": "https://dc.lft.to/lastmile_qr_scan", "ios": "https://dc.lft.to/lastmile_qr_scan"}, "bike_id": "36fc04b3d17ee34b70dc5d4da75ddc79", "fusion_lon": 0.0, "lat": 38.89610716666667}, {"type": "electric_scooter", "name": "42f9539d3abe4ea38b4e93ceec7d038d", "is_reserved": 0, "fusion_lat": 0.0, "lon": -77.03838383333333, "is_disabled": 0, "rental_uris": {"android": "https://dc.lft.to/lastmile_qr_scan", "ios": "https://dc.lft.to/lastmile_qr_scan"}, "bike_id": "42f9539d3abe4ea38b4e93ceec7d038d", "fusion_lon": 0.0, "lat": 38.911973}, {"type": "electric_scooter", "name": "a30975c1e3b672477d3c427de67f5beb", "is_reserved": 0, "fusion_lat": 0.0, "lon": -77.02054416666667, "is_disabled": 0, "rental_uris": {"android": "https://dc.lft.to/lastmile_qr_scan", "ios": "https://dc.lft.to/lastmile_qr_scan"}, "bike_id": "a30975c1e3b672477d3c427de67f5beb", "fusion_lon": 0.0, "lat": 38.92355416666667}, {"type": "electric_scooter", "name": "b8a02591633ad184d77f70b3a4f28084", "is_reserved": 0, "fusion_lat": 0.0, "lon": -76.9970495, "is_disabled": 0, "rental_uris": {"android": "https://dc.lft.to/lastmile_qr_scan", "ios": "https://dc.lft.to/lastmile_qr_scan"}, "bike_id": "b8a02591633ad184d77f70b3a4f28084", "fusion_lon": 0.0, "lat": 38.8442855}, {"type": "electric_scooter", "name": "ab8791e86c8d1498662ab1bb434bad16", "is_reserved": 0, "fusion_lat": 0.0, "lon": -77.019742, "is_disabled": 0, "rental_uris": {"android": "https://dc.lft.to/lastmile_qr_scan", "ios": "https://dc.lft.to/lastmile_qr_scan"}, "bike_id": "ab8791e86c8d1498662ab1bb434bad16", "fusion_lon": 0.0, "lat": 38.8955235}, {"type": "electric_scooter", "name": "2d6e663087ff7fc7c7ded3b3080f80f7", "is_reserved": 0, "fusion_lat": 0.0, "lon": -77.004432, "is_disabled": 0, "rental_uris": {"android": "https://dc.lft.to/lastmile_qr_scan", "ios": "https://dc.lft.to/lastmile_qr_scan"}, "bike_id": "2d6e663087ff7fc7c7ded3b3080f80f7", "fusion_lon": 0.0, "lat": 38.87662816666667}, {"type": "electric_scooter", "name": "ab19d0abb9d535fa87cf22061c46dc94", "is_reserved": 0, "fusion_lat": 0.0, "lon": -77.05127283333333, "is_disabled": 0, "rental_uris": {"android": "https://dc.lft.to/lastmile_qr_scan", "ios": "https://dc.lft.to/lastmile_qr_scan"}, "bike_id": "ab19d0abb9d535fa87cf22061c46dc94", "fusion_lon": 0.0, "lat": 38.905332666666666}, {"type": "electric_scooter", "name": "22d4c6e1b326d423f71b04c027dec631", "is_reserved": 0, "fusion_lat": 0.0, "lon": -77.0019535, "is_disabled": 0, "rental_uris": {"android": "https://dc.lft.to/lastmile_qr_scan", "ios": "https://dc.lft.to/lastmile_qr_scan"}, "bike_id": "22d4c6e1b326d423f71b04c027dec631", "fusion_lon": 0.0, "lat": 38.9006455}, {"type": "electric_scooter", "name": "7847dd6973c3329d173afb661e4dc876", "is_reserved": 0, "fusion_lat": 0.0, "lon": -77.003346, "is_disabled": 0, "rental_uris": {"android": "https://dc.lft.to/lastmile_qr_scan", "ios": "https://dc.lft.to/lastmile_qr_scan"}, "bike_id": "7847dd6973c3329d173afb661e4dc876", "fusion_lon": 0.0, "lat": 38.889908166666665}, {"type": "electric_scooter", "name": "fe6866fd5838e672b8baddf52ad4fe71", "is_reserved": 0, "fusion_lat": 0.0, "lon": -77.03834616666667, "is_disabled": 0, "rental_uris": {"android": "https://dc.lft.to/lastmile_qr_scan", "ios": "https://dc.lft.to/lastmile_qr_scan"}, "bike_id": "fe6866fd5838e672b8baddf52ad4fe71", "fusion_lon": 0.0, "lat": 38.91700016666667}, {"type": "electric_scooter", "name": "f3d9fa218b42f2025f0ee3897ef20701", "is_reserved": 0, "fusion_lat": 0.0, "lon": -77.00615033333334, "is_disabled": 0, "rental_uris": {"android": "https://dc.lft.to/lastmile_qr_scan", "ios": "https://dc.lft.to/lastmile_qr_scan"}, "bike_id": "f3d9fa218b42f2025f0ee3897ef20701", "fusion_lon": 0.0, "lat": 38.875535}, {"type": "electric_scooter", "name": "4c2ccc3abe8f69df6e2e5d21185e83a8", "is_reserved": 0, "fusion_lat": 0.0, "lon": -77.02691633333333, "is_disabled": 0, "rental_uris": {"android": "https://dc.lft.to/lastmile_qr_scan", "ios": "https://dc.lft.to/lastmile_qr_scan"}, "bike_id": "4c2ccc3abe8f69df6e2e5d21185e83a8", "fusion_lon": 0.0, "lat": 38.906846}, {"type": "electric_scooter", "name": "3d03d056ad402dfe37e7ce0a30a8fd6f", "is_reserved": 0, "fusion_lat": 0.0, "lon": -76.99882033333333, "is_disabled": 0, "rental_uris": {"android": "https://dc.lft.to/lastmile_qr_scan", "ios": "https://dc.lft.to/lastmile_qr_scan"}, "bike_id": "3d03d056ad402dfe37e7ce0a30a8fd6f", "fusion_lon": 0.0, "lat": 38.92055633333333}, {"type": "electric_scooter", "name": "9693e4099c352b57df4367ad6c1b2581", "is_reserved": 0, "fusion_lat": 0.0, "lon": -77.05900216666667, "is_disabled": 0, "rental_uris": {"android": "https://dc.lft.to/lastmile_qr_scan", "ios": "https://dc.lft.to/lastmile_qr_scan"}, "bike_id": "9693e4099c352b57df4367ad6c1b2581", "fusion_lon": 0.0, "lat": 38.903044}, {"type": "electric_scooter", "name": "f5a3064fb882b2e8dfbf32c5e6e9aafe", "is_reserved": 0, "fusion_lat": 0.0, "lon": -76.987652, "is_disabled": 0, "rental_uris": {"android": "https://dc.lft.to/lastmile_qr_scan", "ios": "https://dc.lft.to/lastmile_qr_scan"}, "bike_id": "f5a3064fb882b2e8dfbf32c5e6e9aafe", "fusion_lon": 0.0, "lat": 38.90032216666667}, {"type": "electric_scooter", "name": "99a0b5ac4f86cd3650b51c096ad0e528", "is_reserved": 0, "fusion_lat": 0.0, "lon": -77.0232305, "is_disabled": 0, "rental_uris": {"android": "https://dc.lft.to/lastmile_qr_scan", "ios": "https://dc.lft.to/lastmile_qr_scan"}, "bike_id": "99a0b5ac4f86cd3650b51c096ad0e528", "fusion_lon": 0.0, "lat": 38.93060166666667}, {"type": "electric_scooter", "name": "fe591058410aaa70759c6a49a62e1887", "is_reserved": 0, "fusion_lat": 0.0, "lon": -77.02272283333333, "is_disabled": 0, "rental_uris": {"android": "https://dc.lft.to/lastmile_qr_scan", "ios": "https://dc.lft.to/lastmile_qr_scan"}, "bike_id": "fe591058410aaa70759c6a49a62e1887", "fusion_lon": 0.0, "lat": 38.901523833333336}, {"type": "electric_scooter", "name": "a8f50122dc4d84bcd45e619b4aeef4a8", "is_reserved": 0, "fusion_lat": 0.0, "lon": -77.0220285, "is_disabled": 0, "rental_uris": {"android": "https://dc.lft.to/lastmile_qr_scan", "ios": "https://dc.lft.to/lastmile_qr_scan"}, "bike_id": "a8f50122dc4d84bcd45e619b4aeef4a8", "fusion_lon": 0.0, "lat": 38.90323383333333}, {"type": "electric_scooter", "name": "17a9f0cff27d0220baaeb2e3c37f7ab6", "is_reserved": 0, "fusion_lat": 0.0, "lon": -77.03218233333334, "is_disabled": 0, "rental_uris": {"android": "https://dc.lft.to/lastmile_qr_scan", "ios": "https://dc.lft.to/lastmile_qr_scan"}, "bike_id": "17a9f0cff27d0220baaeb2e3c37f7ab6", "fusion_lon": 0.0, "lat": 38.91405}, {"type": "electric_scooter", "name": "efd602ee49eedde545134343538d4c1a", "is_reserved": 0, "fusion_lat": 0.0, "lon": -76.93368383333333, "is_disabled": 0, "rental_uris": {"android": "https://dc.lft.to/lastmile_qr_scan", "ios": "https://dc.lft.to/lastmile_qr_scan"}, "bike_id": "efd602ee49eedde545134343538d4c1a", "fusion_lon": 0.0, "lat": 38.899073666666666}, {"type": "electric_bike", "name": "818b243b9c6c00a0c6bee30f461dd99a", "is_reserved": 0, "fusion_lat": 0.0, "lon": -77.20838333333333, "is_disabled": 0, "rental_uris": {"android": "https://dc.lft.to/lastmile_qr_scan", "ios": "https://dc.lft.to/lastmile_qr_scan"}, "bike_id": "818b243b9c6c00a0c6bee30f461dd99a", "fusion_lon": 0.0, "lat": 38.92455983333333}, {"type": "electric_scooter", "name": "f8e922217de4bf50144ef41b0ddb35c1", "is_reserved": 0, "fusion_lat": 0.0, "lon": -77.00745533333334, "is_disabled": 0, "rental_uris": {"android": "https://dc.lft.to/lastmile_qr_scan", "ios": "https://dc.lft.to/lastmile_qr_scan"}, "bike_id": "f8e922217de4bf50144ef41b0ddb35c1", "fusion_lon": 0.0, "lat": 38.899109333333335}, {"type": "electric_scooter", "name": "aa0311215f2fdf5c27f91086e78eac39", "is_reserved": 0, "fusion_lat": 0.0, "lon": -77.037331, "is_disabled": 0, "rental_uris": {"android": "https://dc.lft.to/lastmile_qr_scan", "ios": "https://dc.lft.to/lastmile_qr_scan"}, "bike_id": "aa0311215f2fdf5c27f91086e78eac39", "fusion_lon": 0.0, "lat": 38.935723}, {"type": "electric_scooter", "name": "40dbed9e9dc526d2bff8c8c2aacc87d5", "is_reserved": 0, "fusion_lat": 0.0, "lon": -77.0564875, "is_disabled": 0, "rental_uris": {"android": "https://dc.lft.to/lastmile_qr_scan", "ios": "https://dc.lft.to/lastmile_qr_scan"}, "bike_id": "40dbed9e9dc526d2bff8c8c2aacc87d5", "fusion_lon": 0.0, "lat": 38.907691666666665}, {"type": "electric_scooter", "name": "c06cccdcfe4977ccf5ba67726171c249", "is_reserved": 0, "fusion_lat": 0.0, "lon": -77.03448033333333, "is_disabled": 0, "rental_uris": {"android": "https://dc.lft.to/lastmile_qr_scan", "ios": "https://dc.lft.to/lastmile_qr_scan"}, "bike_id": "c06cccdcfe4977ccf5ba67726171c249", "fusion_lon": 0.0, "lat": 38.918183}, {"type": "electric_scooter", "name": "d4668894cf9965a02f1710db82336215", "is_reserved": 0, "fusion_lat": 0.0, "lon": -77.020939, "is_disabled": 0, "rental_uris": {"android": "https://dc.lft.to/lastmile_qr_scan", "ios": "https://dc.lft.to/lastmile_qr_scan"}, "bike_id": "d4668894cf9965a02f1710db82336215", "fusion_lon": 0.0, "lat": 38.92712233333334}, {"type": "electric_scooter", "name": "e2d0b34f6f53a411d8e783b5e5aa976f", "is_reserved": 0, "fusion_lat": 0.0, "lon": -77.03431966666666, "is_disabled": 0, "rental_uris": {"android": "https://dc.lft.to/lastmile_qr_scan", "ios": "https://dc.lft.to/lastmile_qr_scan"}, "bike_id": "e2d0b34f6f53a411d8e783b5e5aa976f", "fusion_lon": 0.0, "lat": 38.919412333333334}, {"type": "electric_scooter", "name": "23f64286f96aede103a0bb5d1c7669a0", "is_reserved": 0, "fusion_lat": 0.0, "lon": -77.02720466666666, "is_disabled": 0, "rental_uris": {"android": "https://dc.lft.to/lastmile_qr_scan", "ios": "https://dc.lft.to/lastmile_qr_scan"}, "bike_id": "23f64286f96aede103a0bb5d1c7669a0", "fusion_lon": 0.0, "lat": 38.899888833333335}, {"type": "electric_bike", "name": "db97059346c115c8f02aebca703dbba3", "is_reserved": 0, "fusion_lat": 0.0, "lon": -77.12485933333333, "is_disabled": 0, "rental_uris": {"android": "https://dc.lft.to/lastmile_qr_scan", "ios": "https://dc.lft.to/lastmile_qr_scan"}, "bike_id": "db97059346c115c8f02aebca703dbba3", "fusion_lon": 0.0, "lat": 38.82785783333333}, {"type": "electric_scooter", "name": "3c1ed76dd7505670746ee1dc1caefc37", "is_reserved": 0, "fusion_lat": 0.0, "lon": -77.00195383333333, "is_disabled": 0, "rental_uris": {"android": "https://dc.lft.to/lastmile_qr_scan", "ios": "https://dc.lft.to/lastmile_qr_scan"}, "bike_id": "3c1ed76dd7505670746ee1dc1caefc37", "fusion_lon": 0.0, "lat": 38.902392666666664}, {"type": "electric_scooter", "name": "8eec1481d93c86f2ae5da2e0bc740ac6", "is_reserved": 0, "fusion_lat": 0.0, "lon": -77.0344605, "is_disabled": 0, "rental_uris": {"android": "https://dc.lft.to/lastmile_qr_scan", "ios": "https://dc.lft.to/lastmile_qr_scan"}, "bike_id": "8eec1481d93c86f2ae5da2e0bc740ac6", "fusion_lon": 0.0, "lat": 38.918009}, {"type": "electric_bike", "name": "bf3668a05660d79e63c5116922f47d45", "is_reserved": 0, "fusion_lat": 0.0, "lon": -77.01983716666666, "is_disabled": 0, "rental_uris": {"android": "https://dc.lft.to/lastmile_qr_scan", "ios": "https://dc.lft.to/lastmile_qr_scan"}, "bike_id": "bf3668a05660d79e63c5116922f47d45", "fusion_lon": 0.0, "lat": 38.92273633333333}, {"type": "electric_bike", "name": "f7afba8e2e7a0ea44e349bb663a273f0", "is_reserved": 0, "fusion_lat": 0.0, "lon": -76.90706866666666, "is_disabled": 0, "rental_uris": {"android": "https://dc.lft.to/lastmile_qr_scan", "ios": "https://dc.lft.to/lastmile_qr_scan"}, "bike_id": "f7afba8e2e7a0ea44e349bb663a273f0", "fusion_lon": 0.0, "lat": 38.895963}, {"type": "electric_scooter", "name": "80b9154ab328d279e133e9d53f2a49cf", "is_reserved": 0, "fusion_lat": 0.0, "lon": -76.9981515, "is_disabled": 0, "rental_uris": {"android": "https://dc.lft.to/lastmile_qr_scan", "ios": "https://dc.lft.to/lastmile_qr_scan"}, "bike_id": "80b9154ab328d279e133e9d53f2a49cf", "fusion_lon": 0.0, "lat": 38.84432816666666}, {"type": "electric_scooter", "name": "21181403f225d9e949701f4ef1db174b", "is_reserved": 0, "fusion_lat": 0.0, "lon": -77.0434395, "is_disabled": 0, "rental_uris": {"android": "https://dc.lft.to/lastmile_qr_scan", "ios": "https://dc.lft.to/lastmile_qr_scan"}, "bike_id": "21181403f225d9e949701f4ef1db174b", "fusion_lon": 0.0, "lat": 38.90773316666667}, {"type": "electric_scooter", "name": "75727f9656b549d360522beae1d93457", "is_reserved": 0, "fusion_lat": 0.0, "lon": -77.04590733333333, "is_disabled": 0, "rental_uris": {"android": "https://dc.lft.to/lastmile_qr_scan", "ios": "https://dc.lft.to/lastmile_qr_scan"}, "bike_id": "75727f9656b549d360522beae1d93457", "fusion_lon": 0.0, "lat": 38.90269033333333}, {"type": "electric_scooter", "name": "a29276e38b17dc60f40108a03f9b0ab9", "is_reserved": 0, "fusion_lat": 0.0, "lon": -77.05419833333333, "is_disabled": 0, "rental_uris": {"android": "https://dc.lft.to/lastmile_qr_scan", "ios": "https://dc.lft.to/lastmile_qr_scan"}, "bike_id": "a29276e38b17dc60f40108a03f9b0ab9", "fusion_lon": 0.0, "lat": 38.92792333333333}, {"type": "electric_scooter", "name": "19256dcdc450603448a6712c7325c5b2", "is_reserved": 0, "fusion_lat": 0.0, "lon": -76.99031433333333, "is_disabled": 0, "rental_uris": {"android": "https://dc.lft.to/lastmile_qr_scan", "ios": "https://dc.lft.to/lastmile_qr_scan"}, "bike_id": "19256dcdc450603448a6712c7325c5b2", "fusion_lon": 0.0, "lat": 38.89855683333333}, {"type": "electric_scooter", "name": "41f0f89f4502c928ba43bd9d0d44ad04", "is_reserved": 0, "fusion_lat": 0.0, "lon": -77.022341, "is_disabled": 0, "rental_uris": {"android": "https://dc.lft.to/lastmile_qr_scan", "ios": "https://dc.lft.to/lastmile_qr_scan"}, "bike_id": "41f0f89f4502c928ba43bd9d0d44ad04", "fusion_lon": 0.0, "lat": 38.926077166666666}, {"type": "electric_scooter", "name": "56919ba460ae3cd3c1c68a8471ef451d", "is_reserved": 0, "fusion_lat": 0.0, "lon": -77.00072433333334, "is_disabled": 0, "rental_uris": {"android": "https://dc.lft.to/lastmile_qr_scan", "ios": "https://dc.lft.to/lastmile_qr_scan"}, "bike_id": "56919ba460ae3cd3c1c68a8471ef451d", "fusion_lon": 0.0, "lat": 38.906666}, {"type": "electric_scooter", "name": "5775317ca084e50a20a549e029a329cb", "is_reserved": 0, "fusion_lat": 0.0, "lon": -77.03811266666666, "is_disabled": 0, "rental_uris": {"android": "https://dc.lft.to/lastmile_qr_scan", "ios": "https://dc.lft.to/lastmile_qr_scan"}, "bike_id": "5775317ca084e50a20a549e029a329cb", "fusion_lon": 0.0, "lat": 38.906792}, {"type": "electric_scooter", "name": "3fec4b7c8927f12a6c51c22b93cf6040", "is_reserved": 0, "fusion_lat": 0.0, "lon": -76.98924716666667, "is_disabled": 0, "rental_uris": {"android": "https://dc.lft.to/lastmile_qr_scan", "ios": "https://dc.lft.to/lastmile_qr_scan"}, "bike_id": "3fec4b7c8927f12a6c51c22b93cf6040", "fusion_lon": 0.0, "lat": 38.85811283333334}, {"type": "electric_scooter", "name": "5e6586c93f200bfb8c6ae23eea0066e2", "is_reserved": 0, "fusion_lat": 0.0, "lon": -76.95472833333334, "is_disabled": 0, "rental_uris": {"android": "https://dc.lft.to/lastmile_qr_scan", "ios": "https://dc.lft.to/lastmile_qr_scan"}, "bike_id": "5e6586c93f200bfb8c6ae23eea0066e2", "fusion_lon": 0.0, "lat": 38.8863765}, {"type": "electric_scooter", "name": "2fa552ee35d5c59feac2e1f672a8a92f", "is_reserved": 0, "fusion_lat": 0.0, "lon": -77.03320966666666, "is_disabled": 0, "rental_uris": {"android": "https://dc.lft.to/lastmile_qr_scan", "ios": "https://dc.lft.to/lastmile_qr_scan"}, "bike_id": "2fa552ee35d5c59feac2e1f672a8a92f", "fusion_lon": 0.0, "lat": 38.91321116666667}, {"type": "electric_scooter", "name": "f3d974718ddb24ff7ad936169e331512", "is_reserved": 0, "fusion_lat": 0.0, "lon": -76.939874, "is_disabled": 0, "rental_uris": {"android": "https://dc.lft.to/lastmile_qr_scan", "ios": "https://dc.lft.to/lastmile_qr_scan"}, "bike_id": "f3d974718ddb24ff7ad936169e331512", "fusion_lon": 0.0, "lat": 38.899802666666666}, {"type": "electric_scooter", "name": "04d02ab80ed9d6e560dd924429d64140", "is_reserved": 0, "fusion_lat": 0.0, "lon": -76.9848935, "is_disabled": 0, "rental_uris": {"android": "https://dc.lft.to/lastmile_qr_scan", "ios": "https://dc.lft.to/lastmile_qr_scan"}, "bike_id": "04d02ab80ed9d6e560dd924429d64140", "fusion_lon": 0.0, "lat": 38.903906}, {"type": "electric_scooter", "name": "96dd1ea26e67ac76daafc77bfd822415", "is_reserved": 0, "fusion_lat": 0.0, "lon": -77.04614416666666, "is_disabled": 0, "rental_uris": {"android": "https://dc.lft.to/lastmile_qr_scan", "ios": "https://dc.lft.to/lastmile_qr_scan"}, "bike_id": "96dd1ea26e67ac76daafc77bfd822415", "fusion_lon": 0.0, "lat": 38.91675983333333}, {"type": "electric_bike", "name": "3a374fd19f8a50a85aa58db253ee068d", "is_reserved": 0, "fusion_lat": 0.0, "lon": -77.18301116666666, "is_disabled": 0, "rental_uris": {"android": "https://dc.lft.to/lastmile_qr_scan", "ios": "https://dc.lft.to/lastmile_qr_scan"}, "bike_id": "3a374fd19f8a50a85aa58db253ee068d", "fusion_lon": 0.0, "lat": 38.89083516666667}, {"type": "electric_scooter", "name": "7eb5053718322142a446b69d53a805dc", "is_reserved": 0, "fusion_lat": 0.0, "lon": -76.99008416666666, "is_disabled": 0, "rental_uris": {"android": "https://dc.lft.to/lastmile_qr_scan", "ios": "https://dc.lft.to/lastmile_qr_scan"}, "bike_id": "7eb5053718322142a446b69d53a805dc", "fusion_lon": 0.0, "lat": 38.858814833333334}, {"type": "electric_scooter", "name": "13648ee1733ce3f0a526a1e0cb260eaf", "is_reserved": 0, "fusion_lat": 0.0, "lon": -77.0317995, "is_disabled": 0, "rental_uris": {"android": "https://dc.lft.to/lastmile_qr_scan", "ios": "https://dc.lft.to/lastmile_qr_scan"}, "bike_id": "13648ee1733ce3f0a526a1e0cb260eaf", "fusion_lon": 0.0, "lat": 38.917736833333336}, {"type": "electric_scooter", "name": "59864d0fed87a8b8100cba70b36e85b3", "is_reserved": 0, "fusion_lat": 0.0, "lon": -76.98666116666666, "is_disabled": 0, "rental_uris": {"android": "https://dc.lft.to/lastmile_qr_scan", "ios": "https://dc.lft.to/lastmile_qr_scan"}, "bike_id": "59864d0fed87a8b8100cba70b36e85b3", "fusion_lon": 0.0, "lat": 38.86730133333333}, {"type": "electric_scooter", "name": "2f6aa28f5f397b4e5349365ff2b0bd8f", "is_reserved": 0, "fusion_lat": 0.0, "lon": -77.01171916666667, "is_disabled": 0, "rental_uris": {"android": "https://dc.lft.to/lastmile_qr_scan", "ios": "https://dc.lft.to/lastmile_qr_scan"}, "bike_id": "2f6aa28f5f397b4e5349365ff2b0bd8f", "fusion_lon": 0.0, "lat": 38.915671833333334}, {"type": "electric_scooter", "name": "542cbd5bd395911ea335940296c3f1a6", "is_reserved": 0, "fusion_lat": 0.0, "lon": -77.01800066666667, "is_disabled": 0, "rental_uris": {"android": "https://dc.lft.to/lastmile_qr_scan", "ios": "https://dc.lft.to/lastmile_qr_scan"}, "bike_id": "542cbd5bd395911ea335940296c3f1a6", "fusion_lon": 0.0, "lat": 38.914173166666664}, {"type": "electric_scooter", "name": "232970992638371b59d9b659b911e724", "is_reserved": 0, "fusion_lat": 0.0, "lon": -77.00193666666667, "is_disabled": 0, "rental_uris": {"android": "https://dc.lft.to/lastmile_qr_scan", "ios": "https://dc.lft.to/lastmile_qr_scan"}, "bike_id": "232970992638371b59d9b659b911e724", "fusion_lon": 0.0, "lat": 38.902351333333336}, {"type": "electric_bike", "name": "5a1bcd7a0c68dd92efb8482cf72d20e0", "is_reserved": 0, "fusion_lat": 0.0, "lon": -77.08955216666666, "is_disabled": 0, "rental_uris": {"android": "https://dc.lft.to/lastmile_qr_scan", "ios": "https://dc.lft.to/lastmile_qr_scan"}, "bike_id": "5a1bcd7a0c68dd92efb8482cf72d20e0", "fusion_lon": 0.0, "lat": 38.842952833333335}, {"type": "electric_scooter", "name": "5ad7f8898a716cbebcd193375e37d20b", "is_reserved": 0, "fusion_lat": 0.0, "lon": -77.03799233333334, "is_disabled": 0, "rental_uris": {"android": "https://dc.lft.to/lastmile_qr_scan", "ios": "https://dc.lft.to/lastmile_qr_scan"}, "bike_id": "5ad7f8898a716cbebcd193375e37d20b", "fusion_lon": 0.0, "lat": 38.930556333333335}, {"type": "electric_scooter", "name": "23a042c57c1801eb952e29219da41f24", "is_reserved": 0, "fusion_lat": 0.0, "lon": -76.95120466666667, "is_disabled": 0, "rental_uris": {"android": "https://dc.lft.to/lastmile_qr_scan", "ios": "https://dc.lft.to/lastmile_qr_scan"}, "bike_id": "23a042c57c1801eb952e29219da41f24", "fusion_lon": 0.0, "lat": 38.887805}, {"type": "electric_scooter", "name": "94aa8a6c83e6ada0bc6f80cbec2e8862", "is_reserved": 0, "fusion_lat": 0.0, "lon": -77.0223095, "is_disabled": 0, "rental_uris": {"android": "https://dc.lft.to/lastmile_qr_scan", "ios": "https://dc.lft.to/lastmile_qr_scan"}, "bike_id": "94aa8a6c83e6ada0bc6f80cbec2e8862", "fusion_lon": 0.0, "lat": 38.9057675}, {"type": "electric_bike", "name": "370a83f2e076aace1150c4b4c9e414bc", "is_reserved": 0, "fusion_lat": 0.0, "lon": -77.0716515, "is_disabled": 0, "rental_uris": {"android": "https://dc.lft.to/lastmile_qr_scan", "ios": "https://dc.lft.to/lastmile_qr_scan"}, "bike_id": "370a83f2e076aace1150c4b4c9e414bc", "fusion_lon": 0.0, "lat": 38.907957333333336}, {"type": "electric_scooter", "name": "c4c8a380f31bdf3f4569c5eb0d3d7cd7", "is_reserved": 0, "fusion_lat": 0.0, "lon": -77.05055833333333, "is_disabled": 0, "rental_uris": {"android": "https://dc.lft.to/lastmile_qr_scan", "ios": "https://dc.lft.to/lastmile_qr_scan"}, "bike_id": "c4c8a380f31bdf3f4569c5eb0d3d7cd7", "fusion_lon": 0.0, "lat": 38.924194166666666}, {"type": "electric_scooter", "name": "af890553b50e4e8180d6c6795d8de3d3", "is_reserved": 0, "fusion_lat": 0.0, "lon": -77.01703766666667, "is_disabled": 0, "rental_uris": {"android": "https://dc.lft.to/lastmile_qr_scan", "ios": "https://dc.lft.to/lastmile_qr_scan"}, "bike_id": "af890553b50e4e8180d6c6795d8de3d3", "fusion_lon": 0.0, "lat": 38.879366833333336}, {"type": "electric_scooter", "name": "302eb4601d4e741aad3e518be9be9903", "is_reserved": 0, "fusion_lat": 0.0, "lon": -77.0242445, "is_disabled": 0, "rental_uris": {"android": "https://dc.lft.to/lastmile_qr_scan", "ios": "https://dc.lft.to/lastmile_qr_scan"}, "bike_id": "302eb4601d4e741aad3e518be9be9903", "fusion_lon": 0.0, "lat": 38.92043266666667}, {"type": "electric_scooter", "name": "a6814b02b1fbedb6dba1253c930f6046", "is_reserved": 0, "fusion_lat": 0.0, "lon": -76.94958633333333, "is_disabled": 0, "rental_uris": {"android": "https://dc.lft.to/lastmile_qr_scan", "ios": "https://dc.lft.to/lastmile_qr_scan"}, "bike_id": "a6814b02b1fbedb6dba1253c930f6046", "fusion_lon": 0.0, "lat": 38.904931166666664}, {"type": "electric_scooter", "name": "66591c24e6c54e75467c0c8a4d19605f", "is_reserved": 0, "fusion_lat": 0.0, "lon": -77.03123916666667, "is_disabled": 0, "rental_uris": {"android": "https://dc.lft.to/lastmile_qr_scan", "ios": "https://dc.lft.to/lastmile_qr_scan"}, "bike_id": "66591c24e6c54e75467c0c8a4d19605f", "fusion_lon": 0.0, "lat": 38.91492233333334}, {"type": "electric_scooter", "name": "5e0ac2fdd630418a4ca99c68f4b8f6d5", "is_reserved": 0, "fusion_lat": 0.0, "lon": -77.030941, "is_disabled": 0, "rental_uris": {"android": "https://dc.lft.to/lastmile_qr_scan", "ios": "https://dc.lft.to/lastmile_qr_scan"}, "bike_id": "5e0ac2fdd630418a4ca99c68f4b8f6d5", "fusion_lon": 0.0, "lat": 38.907579166666665}, {"type": "electric_bike", "name": "947f2a9768c4591cc7eeb056048518f0", "is_reserved": 0, "fusion_lat": 0.0, "lon": -77.00203266666666, "is_disabled": 0, "rental_uris": {"android": "https://dc.lft.to/lastmile_qr_scan", "ios": "https://dc.lft.to/lastmile_qr_scan"}, "bike_id": "947f2a9768c4591cc7eeb056048518f0", "fusion_lon": 0.0, "lat": 38.819385833333335}, {"type": "electric_scooter", "name": "bdcfb8f3f483aa0cdec5b2898af42937", "is_reserved": 0, "fusion_lat": 0.0, "lon": -76.9336585, "is_disabled": 0, "rental_uris": {"android": "https://dc.lft.to/lastmile_qr_scan", "ios": "https://dc.lft.to/lastmile_qr_scan"}, "bike_id": "bdcfb8f3f483aa0cdec5b2898af42937", "fusion_lon": 0.0, "lat": 38.8991435}, {"type": "electric_scooter", "name": "07a5890dba85ead8fb582a4631d28802", "is_reserved": 0, "fusion_lat": 0.0, "lon": -77.02300966666667, "is_disabled": 0, "rental_uris": {"android": "https://dc.lft.to/lastmile_qr_scan", "ios": "https://dc.lft.to/lastmile_qr_scan"}, "bike_id": "07a5890dba85ead8fb582a4631d28802", "fusion_lon": 0.0, "lat": 38.91547516666667}, {"type": "electric_scooter", "name": "03ec451d3fdf919988bea1b26c9e7858", "is_reserved": 0, "fusion_lat": 0.0, "lon": -77.03255883333334, "is_disabled": 0, "rental_uris": {"android": "https://dc.lft.to/lastmile_qr_scan", "ios": "https://dc.lft.to/lastmile_qr_scan"}, "bike_id": "03ec451d3fdf919988bea1b26c9e7858", "fusion_lon": 0.0, "lat": 38.909678666666665}, {"type": "electric_scooter", "name": "d06fb3e9fbb75a5a730d9d32dc5bf433", "is_reserved": 0, "fusion_lat": 0.0, "lon": -77.02302116666667, "is_disabled": 0, "rental_uris": {"android": "https://dc.lft.to/lastmile_qr_scan", "ios": "https://dc.lft.to/lastmile_qr_scan"}, "bike_id": "d06fb3e9fbb75a5a730d9d32dc5bf433", "fusion_lon": 0.0, "lat": 38.9167465}, {"type": "electric_scooter", "name": "8ee511227c4aea230967e0d36ebb1569", "is_reserved": 0, "fusion_lat": 0.0, "lon": -77.00726283333333, "is_disabled": 0, "rental_uris": {"android": "https://dc.lft.to/lastmile_qr_scan", "ios": "https://dc.lft.to/lastmile_qr_scan"}, "bike_id": "8ee511227c4aea230967e0d36ebb1569", "fusion_lon": 0.0, "lat": 38.898324333333335}, {"type": "electric_scooter", "name": "cd323817395ea7170898c4c4d85983a6", "is_reserved": 0, "fusion_lat": 0.0, "lon": -77.03506866666666, "is_disabled": 0, "rental_uris": {"android": "https://dc.lft.to/lastmile_qr_scan", "ios": "https://dc.lft.to/lastmile_qr_scan"}, "bike_id": "cd323817395ea7170898c4c4d85983a6", "fusion_lon": 0.0, "lat": 38.9236105}, {"type": "electric_scooter", "name": "e4b6135fb116e888b170cf88c327b43b", "is_reserved": 0, "fusion_lat": 0.0, "lon": -76.950964, "is_disabled": 0, "rental_uris": {"android": "https://dc.lft.to/lastmile_qr_scan", "ios": "https://dc.lft.to/lastmile_qr_scan"}, "bike_id": "e4b6135fb116e888b170cf88c327b43b", "fusion_lon": 0.0, "lat": 38.884510166666665}, {"type": "electric_scooter", "name": "d359ddc9c081cb082adaf5b02ea30b5d", "is_reserved": 0, "fusion_lat": 0.0, "lon": -77.01367, "is_disabled": 0, "rental_uris": {"android": "https://dc.lft.to/lastmile_qr_scan", "ios": "https://dc.lft.to/lastmile_qr_scan"}, "bike_id": "d359ddc9c081cb082adaf5b02ea30b5d", "fusion_lon": 0.0, "lat": 38.887034666666665}, {"type": "electric_scooter", "name": "a5bf3ad4d0886a037d3e388d357bf062", "is_reserved": 0, "fusion_lat": 0.0, "lon": -77.01793166666667, "is_disabled": 0, "rental_uris": {"android": "https://dc.lft.to/lastmile_qr_scan", "ios": "https://dc.lft.to/lastmile_qr_scan"}, "bike_id": "a5bf3ad4d0886a037d3e388d357bf062", "fusion_lon": 0.0, "lat": 38.920257}, {"type": "electric_scooter", "name": "09d3f9948cbe170cf5c64e6dba97ddae", "is_reserved": 0, "fusion_lat": 0.0, "lon": -77.00379316666667, "is_disabled": 0, "rental_uris": {"android": "https://dc.lft.to/lastmile_qr_scan", "ios": "https://dc.lft.to/lastmile_qr_scan"}, "bike_id": "09d3f9948cbe170cf5c64e6dba97ddae", "fusion_lon": 0.0, "lat": 38.90724216666667}, {"type": "electric_bike", "name": "eb580739e45836b1ae639c76ffcca4d0", "is_reserved": 0, "fusion_lat": 0.0, "lon": -77.05544166666667, "is_disabled": 0, "rental_uris": {"android": "https://dc.lft.to/lastmile_qr_scan", "ios": "https://dc.lft.to/lastmile_qr_scan"}, "bike_id": "eb580739e45836b1ae639c76ffcca4d0", "fusion_lon": 0.0, "lat": 38.819856333333334}, {"type": "electric_bike", "name": "7b55b68244eb7d57b5fd4cc6861ae239", "is_reserved": 0, "fusion_lat": 0.0, "lon": -77.01210683333333, "is_disabled": 0, "rental_uris": {"android": "https://dc.lft.to/lastmile_qr_scan", "ios": "https://dc.lft.to/lastmile_qr_scan"}, "bike_id": "7b55b68244eb7d57b5fd4cc6861ae239", "fusion_lon": 0.0, "lat": 38.87094283333333}, {"type": "electric_scooter", "name": "409774d841dceb4376e8d12abd1c8bcb", "is_reserved": 0, "fusion_lat": 0.0, "lon": -77.04366566666667, "is_disabled": 0, "rental_uris": {"android": "https://dc.lft.to/lastmile_qr_scan", "ios": "https://dc.lft.to/lastmile_qr_scan"}, "bike_id": "409774d841dceb4376e8d12abd1c8bcb", "fusion_lon": 0.0, "lat": 38.907929833333334}, {"type": "electric_scooter", "name": "7bbfa9f661cd41b695ad5802b3fc4037", "is_reserved": 0, "fusion_lat": 0.0, "lon": -77.042264, "is_disabled": 0, "rental_uris": {"android": "https://dc.lft.to/lastmile_qr_scan", "ios": "https://dc.lft.to/lastmile_qr_scan"}, "bike_id": "7bbfa9f661cd41b695ad5802b3fc4037", "fusion_lon": 0.0, "lat": 38.921743166666666}, {"type": "electric_scooter", "name": "fb31b08d478116b0a73cc0bbba05f048", "is_reserved": 0, "fusion_lat": 0.0, "lon": -77.04244583333333, "is_disabled": 0, "rental_uris": {"android": "https://dc.lft.to/lastmile_qr_scan", "ios": "https://dc.lft.to/lastmile_qr_scan"}, "bike_id": "fb31b08d478116b0a73cc0bbba05f048", "fusion_lon": 0.0, "lat": 38.9064965}, {"type": "electric_scooter", "name": "ef5b508e61539001ab56d5ca429a44b8", "is_reserved": 0, "fusion_lat": 0.0, "lon": -77.02886066666667, "is_disabled": 0, "rental_uris": {"android": "https://dc.lft.to/lastmile_qr_scan", "ios": "https://dc.lft.to/lastmile_qr_scan"}, "bike_id": "ef5b508e61539001ab56d5ca429a44b8", "fusion_lon": 0.0, "lat": 38.9032725}, {"type": "electric_scooter", "name": "0615ea872e443f43ef30a17e0aa4df0b", "is_reserved": 0, "fusion_lat": 0.0, "lon": -77.02731216666666, "is_disabled": 0, "rental_uris": {"android": "https://dc.lft.to/lastmile_qr_scan", "ios": "https://dc.lft.to/lastmile_qr_scan"}, "bike_id": "0615ea872e443f43ef30a17e0aa4df0b", "fusion_lon": 0.0, "lat": 38.92767883333333}, {"type": "electric_scooter", "name": "b3c6b440d1bb3c46d11af1d788cabc66", "is_reserved": 0, "fusion_lat": 0.0, "lon": -77.03919666666667, "is_disabled": 0, "rental_uris": {"android": "https://dc.lft.to/lastmile_qr_scan", "ios": "https://dc.lft.to/lastmile_qr_scan"}, "bike_id": "b3c6b440d1bb3c46d11af1d788cabc66", "fusion_lon": 0.0, "lat": 38.903456166666665}, {"type": "electric_scooter", "name": "9e0b33c58e4baf41952eb22dd5e81268", "is_reserved": 0, "fusion_lat": 0.0, "lon": -77.0227945, "is_disabled": 0, "rental_uris": {"android": "https://dc.lft.to/lastmile_qr_scan", "ios": "https://dc.lft.to/lastmile_qr_scan"}, "bike_id": "9e0b33c58e4baf41952eb22dd5e81268", "fusion_lon": 0.0, "lat": 38.89501033333333}, {"type": "electric_scooter", "name": "b29ff52955133695693a5a549407a6b0", "is_reserved": 0, "fusion_lat": 0.0, "lon": -77.04671566666667, "is_disabled": 0, "rental_uris": {"android": "https://dc.lft.to/lastmile_qr_scan", "ios": "https://dc.lft.to/lastmile_qr_scan"}, "bike_id": "b29ff52955133695693a5a549407a6b0", "fusion_lon": 0.0, "lat": 38.90167233333333}, {"type": "electric_scooter", "name": "2ad24bb7454fbfa762d20ac31fa14dfc", "is_reserved": 0, "fusion_lat": 0.0, "lon": -77.0716415, "is_disabled": 0, "rental_uris": {"android": "https://dc.lft.to/lastmile_qr_scan", "ios": "https://dc.lft.to/lastmile_qr_scan"}, "bike_id": "2ad24bb7454fbfa762d20ac31fa14dfc", "fusion_lon": 0.0, "lat": 38.90779633333333}, {"type": "electric_scooter", "name": "da7166b5946fe0ae53d7654fbc16b9d2", "is_reserved": 0, "fusion_lat": 0.0, "lon": -77.0302655, "is_disabled": 0, "rental_uris": {"android": "https://dc.lft.to/lastmile_qr_scan", "ios": "https://dc.lft.to/lastmile_qr_scan"}, "bike_id": "da7166b5946fe0ae53d7654fbc16b9d2", "fusion_lon": 0.0, "lat": 38.9224535}, {"type": "electric_scooter", "name": "614cb86bc0ca4091e8f8b88d7ebe3674", "is_reserved": 0, "fusion_lat": 0.0, "lon": -77.05428566666667, "is_disabled": 0, "rental_uris": {"android": "https://dc.lft.to/lastmile_qr_scan", "ios": "https://dc.lft.to/lastmile_qr_scan"}, "bike_id": "614cb86bc0ca4091e8f8b88d7ebe3674", "fusion_lon": 0.0, "lat": 38.92365}, {"type": "electric_scooter", "name": "476ab2ac6ded8c25af777fa1d701a273", "is_reserved": 0, "fusion_lat": 0.0, "lon": -77.03498133333333, "is_disabled": 0, "rental_uris": {"android": "https://dc.lft.to/lastmile_qr_scan", "ios": "https://dc.lft.to/lastmile_qr_scan"}, "bike_id": "476ab2ac6ded8c25af777fa1d701a273", "fusion_lon": 0.0, "lat": 38.932621833333336}, {"type": "electric_scooter", "name": "2737daa70108b77bfc534741c33822eb", "is_reserved": 0, "fusion_lat": 0.0, "lon": -77.03462366666666, "is_disabled": 0, "rental_uris": {"android": "https://dc.lft.to/lastmile_qr_scan", "ios": "https://dc.lft.to/lastmile_qr_scan"}, "bike_id": "2737daa70108b77bfc534741c33822eb", "fusion_lon": 0.0, "lat": 38.917060666666664}, {"type": "electric_scooter", "name": "58d1fa75d19fbb50f2712493a2a04978", "is_reserved": 0, "fusion_lat": 0.0, "lon": -77.027432, "is_disabled": 0, "rental_uris": {"android": "https://dc.lft.to/lastmile_qr_scan", "ios": "https://dc.lft.to/lastmile_qr_scan"}, "bike_id": "58d1fa75d19fbb50f2712493a2a04978", "fusion_lon": 0.0, "lat": 38.924071166666664}, {"type": "electric_scooter", "name": "a1ae013b1a5d19a24a04fe26a3bb76a3", "is_reserved": 0, "fusion_lat": 0.0, "lon": -77.01898366666667, "is_disabled": 0, "rental_uris": {"android": "https://dc.lft.to/lastmile_qr_scan", "ios": "https://dc.lft.to/lastmile_qr_scan"}, "bike_id": "a1ae013b1a5d19a24a04fe26a3bb76a3", "fusion_lon": 0.0, "lat": 38.91385666666667}, {"type": "electric_scooter", "name": "bf53fc51c9035f4cd0124e1023975794", "is_reserved": 0, "fusion_lat": 0.0, "lon": -77.0316965, "is_disabled": 0, "rental_uris": {"android": "https://dc.lft.to/lastmile_qr_scan", "ios": "https://dc.lft.to/lastmile_qr_scan"}, "bike_id": "bf53fc51c9035f4cd0124e1023975794", "fusion_lon": 0.0, "lat": 38.91628033333333}, {"type": "electric_scooter", "name": "9ba2f763b35c2b3a59c6f9455a89bd3b", "is_reserved": 0, "fusion_lat": 0.0, "lon": -76.93755416666667, "is_disabled": 0, "rental_uris": {"android": "https://dc.lft.to/lastmile_qr_scan", "ios": "https://dc.lft.to/lastmile_qr_scan"}, "bike_id": "9ba2f763b35c2b3a59c6f9455a89bd3b", "fusion_lon": 0.0, "lat": 38.89034266666667}, {"type": "electric_scooter", "name": "b3f0490bd664b56df17766c1eba06e04", "is_reserved": 0, "fusion_lat": 0.0, "lon": -77.00629416666666, "is_disabled": 0, "rental_uris": {"android": "https://dc.lft.to/lastmile_qr_scan", "ios": "https://dc.lft.to/lastmile_qr_scan"}, "bike_id": "b3f0490bd664b56df17766c1eba06e04", "fusion_lon": 0.0, "lat": 38.83276983333333}, {"type": "electric_scooter", "name": "c9f0b575445c38033a16b98f98951a2f", "is_reserved": 0, "fusion_lat": 0.0, "lon": -77.03088416666667, "is_disabled": 0, "rental_uris": {"android": "https://dc.lft.to/lastmile_qr_scan", "ios": "https://dc.lft.to/lastmile_qr_scan"}, "bike_id": "c9f0b575445c38033a16b98f98951a2f", "fusion_lon": 0.0, "lat": 38.899622}, {"type": "electric_scooter", "name": "1f87142fd95f2c345ab4970f8fc758db", "is_reserved": 0, "fusion_lat": 0.0, "lon": -77.02400266666666, "is_disabled": 0, "rental_uris": {"android": "https://dc.lft.to/lastmile_qr_scan", "ios": "https://dc.lft.to/lastmile_qr_scan"}, "bike_id": "1f87142fd95f2c345ab4970f8fc758db", "fusion_lon": 0.0, "lat": 38.930980166666664}, {"type": "electric_scooter", "name": "aae767463332c17a405d7b952023ee88", "is_reserved": 0, "fusion_lat": 0.0, "lon": -77.04674883333334, "is_disabled": 0, "rental_uris": {"android": "https://dc.lft.to/lastmile_qr_scan", "ios": "https://dc.lft.to/lastmile_qr_scan"}, "bike_id": "aae767463332c17a405d7b952023ee88", "fusion_lon": 0.0, "lat": 38.90030866666667}, {"type": "electric_scooter", "name": "4d3dd3db386d9584f803d17c775345c9", "is_reserved": 0, "fusion_lat": 0.0, "lon": -77.02607383333333, "is_disabled": 0, "rental_uris": {"android": "https://dc.lft.to/lastmile_qr_scan", "ios": "https://dc.lft.to/lastmile_qr_scan"}, "bike_id": "4d3dd3db386d9584f803d17c775345c9", "fusion_lon": 0.0, "lat": 38.896793}, {"type": "electric_scooter", "name": "c124deeca69649e9e3fa0a9b19360e9b", "is_reserved": 0, "fusion_lat": 0.0, "lon": -77.0343855, "is_disabled": 0, "rental_uris": {"android": "https://dc.lft.to/lastmile_qr_scan", "ios": "https://dc.lft.to/lastmile_qr_scan"}, "bike_id": "c124deeca69649e9e3fa0a9b19360e9b", "fusion_lon": 0.0, "lat": 38.91808483333333}, {"type": "electric_scooter", "name": "545cddb013c0328b1b03c8851fc501d6", "is_reserved": 0, "fusion_lat": 0.0, "lon": -77.04552383333333, "is_disabled": 0, "rental_uris": {"android": "https://dc.lft.to/lastmile_qr_scan", "ios": "https://dc.lft.to/lastmile_qr_scan"}, "bike_id": "545cddb013c0328b1b03c8851fc501d6", "fusion_lon": 0.0, "lat": 38.92422083333334}, {"type": "electric_scooter", "name": "3746eb8fdb7d31974eb636d15214d7b7", "is_reserved": 0, "fusion_lat": 0.0, "lon": -77.002906, "is_disabled": 0, "rental_uris": {"android": "https://dc.lft.to/lastmile_qr_scan", "ios": "https://dc.lft.to/lastmile_qr_scan"}, "bike_id": "3746eb8fdb7d31974eb636d15214d7b7", "fusion_lon": 0.0, "lat": 38.89492533333333}, {"type": "electric_scooter", "name": "db076ea58dbcd3b8cd40168c9368e469", "is_reserved": 0, "fusion_lat": 0.0, "lon": -77.03709433333333, "is_disabled": 0, "rental_uris": {"android": "https://dc.lft.to/lastmile_qr_scan", "ios": "https://dc.lft.to/lastmile_qr_scan"}, "bike_id": "db076ea58dbcd3b8cd40168c9368e469", "fusion_lon": 0.0, "lat": 38.90356116666667}, {"type": "electric_scooter", "name": "5b92f117109dcc86aeead7af612ff882", "is_reserved": 0, "fusion_lat": 0.0, "lon": -76.98399883333333, "is_disabled": 0, "rental_uris": {"android": "https://dc.lft.to/lastmile_qr_scan", "ios": "https://dc.lft.to/lastmile_qr_scan"}, "bike_id": "5b92f117109dcc86aeead7af612ff882", "fusion_lon": 0.0, "lat": 38.86694716666667}, {"type": "electric_scooter", "name": "b5b7fdc8775f6405ad8b55e3a9d3c5d2", "is_reserved": 0, "fusion_lat": 0.0, "lon": -76.93059083333333, "is_disabled": 0, "rental_uris": {"android": "https://dc.lft.to/lastmile_qr_scan", "ios": "https://dc.lft.to/lastmile_qr_scan"}, "bike_id": "b5b7fdc8775f6405ad8b55e3a9d3c5d2", "fusion_lon": 0.0, "lat": 38.901517}, {"type": "electric_scooter", "name": "4be8a27cd45fd4f0d5aafb1ca4e404bd", "is_reserved": 0, "fusion_lat": 0.0, "lon": -77.0432805, "is_disabled": 0, "rental_uris": {"android": "https://dc.lft.to/lastmile_qr_scan", "ios": "https://dc.lft.to/lastmile_qr_scan"}, "bike_id": "4be8a27cd45fd4f0d5aafb1ca4e404bd", "fusion_lon": 0.0, "lat": 38.90207916666667}, {"type": "electric_scooter", "name": "1d25fe0ee4018d9033f6543119b0fee2", "is_reserved": 0, "fusion_lat": 0.0, "lon": -77.074209, "is_disabled": 0, "rental_uris": {"android": "https://dc.lft.to/lastmile_qr_scan", "ios": "https://dc.lft.to/lastmile_qr_scan"}, "bike_id": "1d25fe0ee4018d9033f6543119b0fee2", "fusion_lon": 0.0, "lat": 38.912993166666666}, {"type": "electric_scooter", "name": "929842d2d9704416bb329009fa833f84", "is_reserved": 0, "fusion_lat": 0.0, "lon": -77.04021983333334, "is_disabled": 0, "rental_uris": {"android": "https://dc.lft.to/lastmile_qr_scan", "ios": "https://dc.lft.to/lastmile_qr_scan"}, "bike_id": "929842d2d9704416bb329009fa833f84", "fusion_lon": 0.0, "lat": 38.904386}, {"type": "electric_scooter", "name": "2898bfa906a4695f7776fc38117aad96", "is_reserved": 0, "fusion_lat": 0.0, "lon": -77.031739, "is_disabled": 0, "rental_uris": {"android": "https://dc.lft.to/lastmile_qr_scan", "ios": "https://dc.lft.to/lastmile_qr_scan"}, "bike_id": "2898bfa906a4695f7776fc38117aad96", "fusion_lon": 0.0, "lat": 38.9155935}, {"type": "electric_scooter", "name": "08ba067bca71bca71da962c9fe9a94f7", "is_reserved": 0, "fusion_lat": 0.0, "lon": -77.0725835, "is_disabled": 0, "rental_uris": {"android": "https://dc.lft.to/lastmile_qr_scan", "ios": "https://dc.lft.to/lastmile_qr_scan"}, "bike_id": "08ba067bca71bca71da962c9fe9a94f7", "fusion_lon": 0.0, "lat": 38.93519633333333}, {"type": "electric_bike", "name": "7a28c29eefdfa97198ed833a9937bb68", "is_reserved": 0, "fusion_lat": 0.0, "lon": -76.92195766666667, "is_disabled": 0, "rental_uris": {"android": "https://dc.lft.to/lastmile_qr_scan", "ios": "https://dc.lft.to/lastmile_qr_scan"}, "bike_id": "7a28c29eefdfa97198ed833a9937bb68", "fusion_lon": 0.0, "lat": 38.89499416666666}, {"type": "electric_scooter", "name": "16b655524bae58ae511054031831291d", "is_reserved": 0, "fusion_lat": 0.0, "lon": -76.98252866666667, "is_disabled": 0, "rental_uris": {"android": "https://dc.lft.to/lastmile_qr_scan", "ios": "https://dc.lft.to/lastmile_qr_scan"}, "bike_id": "16b655524bae58ae511054031831291d", "fusion_lon": 0.0, "lat": 38.904522666666665}, {"type": "electric_scooter", "name": "ec83bcdeb3b1ec00f0af8b5e7c1a1c3d", "is_reserved": 0, "fusion_lat": 0.0, "lon": -76.99037183333333, "is_disabled": 0, "rental_uris": {"android": "https://dc.lft.to/lastmile_qr_scan", "ios": "https://dc.lft.to/lastmile_qr_scan"}, "bike_id": "ec83bcdeb3b1ec00f0af8b5e7c1a1c3d", "fusion_lon": 0.0, "lat": 38.90288416666667}, {"type": "electric_scooter", "name": "bb34ebe0f4cb5c14691e107a04de4fcc", "is_reserved": 0, "fusion_lat": 0.0, "lon": -77.0247575, "is_disabled": 0, "rental_uris": {"android": "https://dc.lft.to/lastmile_qr_scan", "ios": "https://dc.lft.to/lastmile_qr_scan"}, "bike_id": "bb34ebe0f4cb5c14691e107a04de4fcc", "fusion_lon": 0.0, "lat": 38.930984333333335}, {"type": "electric_scooter", "name": "dd8a451d60583263f7bd7b05d459a67d", "is_reserved": 0, "fusion_lat": 0.0, "lon": -77.04372766666667, "is_disabled": 0, "rental_uris": {"android": "https://dc.lft.to/lastmile_qr_scan", "ios": "https://dc.lft.to/lastmile_qr_scan"}, "bike_id": "dd8a451d60583263f7bd7b05d459a67d", "fusion_lon": 0.0, "lat": 38.898497666666664}, {"type": "electric_bike", "name": "ed4988d7141bdd46bd48c7537fd1d94c", "is_reserved": 0, "fusion_lat": 0.0, "lon": -77.08578266666666, "is_disabled": 0, "rental_uris": {"android": "https://dc.lft.to/lastmile_qr_scan", "ios": "https://dc.lft.to/lastmile_qr_scan"}, "bike_id": "ed4988d7141bdd46bd48c7537fd1d94c", "fusion_lon": 0.0, "lat": 38.8442635}, {"type": "electric_bike", "name": "a51cf19216620393eec7fbb4ab1cacf2", "is_reserved": 0, "fusion_lat": 0.0, "lon": -77.120563, "is_disabled": 0, "rental_uris": {"android": "https://dc.lft.to/lastmile_qr_scan", "ios": "https://dc.lft.to/lastmile_qr_scan"}, "bike_id": "a51cf19216620393eec7fbb4ab1cacf2", "fusion_lon": 0.0, "lat": 38.854052333333335}, {"type": "electric_scooter", "name": "de29c93f5f7067e0dc0114c097df44d1", "is_reserved": 0, "fusion_lat": 0.0, "lon": -77.0425445, "is_disabled": 0, "rental_uris": {"android": "https://dc.lft.to/lastmile_qr_scan", "ios": "https://dc.lft.to/lastmile_qr_scan"}, "bike_id": "de29c93f5f7067e0dc0114c097df44d1", "fusion_lon": 0.0, "lat": 38.920579333333336}, {"type": "electric_scooter", "name": "f476c141a87179b2d136aa9ed7f507a4", "is_reserved": 0, "fusion_lat": 0.0, "lon": -76.99061566666667, "is_disabled": 0, "rental_uris": {"android": "https://dc.lft.to/lastmile_qr_scan", "ios": "https://dc.lft.to/lastmile_qr_scan"}, "bike_id": "f476c141a87179b2d136aa9ed7f507a4", "fusion_lon": 0.0, "lat": 38.8635005}, {"type": "electric_scooter", "name": "ada14e7a1d63e92a3f06809a01c1865e", "is_reserved": 0, "fusion_lat": 0.0, "lon": -77.06329016666666, "is_disabled": 0, "rental_uris": {"android": "https://dc.lft.to/lastmile_qr_scan", "ios": "https://dc.lft.to/lastmile_qr_scan"}, "bike_id": "ada14e7a1d63e92a3f06809a01c1865e", "fusion_lon": 0.0, "lat": 38.94423}, {"type": "electric_scooter", "name": "437972cf6118484216fb259cd91c0a26", "is_reserved": 0, "fusion_lat": 0.0, "lon": -77.01032666666667, "is_disabled": 0, "rental_uris": {"android": "https://dc.lft.to/lastmile_qr_scan", "ios": "https://dc.lft.to/lastmile_qr_scan"}, "bike_id": "437972cf6118484216fb259cd91c0a26", "fusion_lon": 0.0, "lat": 38.920267833333334}, {"type": "electric_scooter", "name": "180d4de49c26914281d41413b8aa7e13", "is_reserved": 0, "fusion_lat": 0.0, "lon": -77.05129183333334, "is_disabled": 0, "rental_uris": {"android": "https://dc.lft.to/lastmile_qr_scan", "ios": "https://dc.lft.to/lastmile_qr_scan"}, "bike_id": "180d4de49c26914281d41413b8aa7e13", "fusion_lon": 0.0, "lat": 38.900725333333334}, {"type": "electric_scooter", "name": "8f348ff2aea5206408991202d0174bef", "is_reserved": 0, "fusion_lat": 0.0, "lon": -77.02701883333333, "is_disabled": 0, "rental_uris": {"android": "https://dc.lft.to/lastmile_qr_scan", "ios": "https://dc.lft.to/lastmile_qr_scan"}, "bike_id": "8f348ff2aea5206408991202d0174bef", "fusion_lon": 0.0, "lat": 38.906666}, {"type": "electric_scooter", "name": "33ae3baf8cea1aaf2eb74189df9ab12f", "is_reserved": 0, "fusion_lat": 0.0, "lon": -76.99619416666667, "is_disabled": 0, "rental_uris": {"android": "https://dc.lft.to/lastmile_qr_scan", "ios": "https://dc.lft.to/lastmile_qr_scan"}, "bike_id": "33ae3baf8cea1aaf2eb74189df9ab12f", "fusion_lon": 0.0, "lat": 38.90021383333333}, {"type": "electric_scooter", "name": "4078fbf72bdbe386c14d6e89f60048ac", "is_reserved": 0, "fusion_lat": 0.0, "lon": -77.00330516666666, "is_disabled": 0, "rental_uris": {"android": "https://dc.lft.to/lastmile_qr_scan", "ios": "https://dc.lft.to/lastmile_qr_scan"}, "bike_id": "4078fbf72bdbe386c14d6e89f60048ac", "fusion_lon": 0.0, "lat": 38.89214833333333}, {"type": "electric_scooter", "name": "deb8b1053da80d139edc6ededc0537e9", "is_reserved": 0, "fusion_lat": 0.0, "lon": -77.0260045, "is_disabled": 0, "rental_uris": {"android": "https://dc.lft.to/lastmile_qr_scan", "ios": "https://dc.lft.to/lastmile_qr_scan"}, "bike_id": "deb8b1053da80d139edc6ededc0537e9", "fusion_lon": 0.0, "lat": 38.883481}, {"type": "electric_scooter", "name": "f406f9ba1d2208389583ed44c81c1893", "is_reserved": 0, "fusion_lat": 0.0, "lon": -77.04506683333334, "is_disabled": 0, "rental_uris": {"android": "https://dc.lft.to/lastmile_qr_scan", "ios": "https://dc.lft.to/lastmile_qr_scan"}, "bike_id": "f406f9ba1d2208389583ed44c81c1893", "fusion_lon": 0.0, "lat": 38.90959983333333}, {"type": "electric_scooter", "name": "c6a682a274c1e648ff11f4b1777f821a", "is_reserved": 0, "fusion_lat": 0.0, "lon": -77.02224583333333, "is_disabled": 0, "rental_uris": {"android": "https://dc.lft.to/lastmile_qr_scan", "ios": "https://dc.lft.to/lastmile_qr_scan"}, "bike_id": "c6a682a274c1e648ff11f4b1777f821a", "fusion_lon": 0.0, "lat": 38.892207666666664}, {"type": "electric_scooter", "name": "ac07a57945e41c99195d64cc0e12efbe", "is_reserved": 0, "fusion_lat": 0.0, "lon": -77.03976183333333, "is_disabled": 0, "rental_uris": {"android": "https://dc.lft.to/lastmile_qr_scan", "ios": "https://dc.lft.to/lastmile_qr_scan"}, "bike_id": "ac07a57945e41c99195d64cc0e12efbe", "fusion_lon": 0.0, "lat": 38.892212}, {"type": "electric_scooter", "name": "f57bad328409ae953a82fc02fa50247a", "is_reserved": 0, "fusion_lat": 0.0, "lon": -77.01541366666666, "is_disabled": 0, "rental_uris": {"android": "https://dc.lft.to/lastmile_qr_scan", "ios": "https://dc.lft.to/lastmile_qr_scan"}, "bike_id": "f57bad328409ae953a82fc02fa50247a", "fusion_lon": 0.0, "lat": 38.8862855}, {"type": "electric_scooter", "name": "05d51c6e37785110f0b4e20673bd0193", "is_reserved": 0, "fusion_lat": 0.0, "lon": -76.99770216666667, "is_disabled": 0, "rental_uris": {"android": "https://dc.lft.to/lastmile_qr_scan", "ios": "https://dc.lft.to/lastmile_qr_scan"}, "bike_id": "05d51c6e37785110f0b4e20673bd0193", "fusion_lon": 0.0, "lat": 38.90901483333333}, {"type": "electric_scooter", "name": "18b76e753f37fd1acb2a05bb7896ab63", "is_reserved": 0, "fusion_lat": 0.0, "lon": -77.0178955, "is_disabled": 0, "rental_uris": {"android": "https://dc.lft.to/lastmile_qr_scan", "ios": "https://dc.lft.to/lastmile_qr_scan"}, "bike_id": "18b76e753f37fd1acb2a05bb7896ab63", "fusion_lon": 0.0, "lat": 38.8768135}, {"type": "electric_scooter", "name": "45a98f8d38456740a3a29596bb40561a", "is_reserved": 0, "fusion_lat": 0.0, "lon": -77.0276335, "is_disabled": 0, "rental_uris": {"android": "https://dc.lft.to/lastmile_qr_scan", "ios": "https://dc.lft.to/lastmile_qr_scan"}, "bike_id": "45a98f8d38456740a3a29596bb40561a", "fusion_lon": 0.0, "lat": 38.91707516666666}, {"type": "electric_bike", "name": "7d4a5d698c999f13bf7e46a57d00b003", "is_reserved": 0, "fusion_lat": 0.0, "lon": -77.028075, "is_disabled": 0, "rental_uris": {"android": "https://dc.lft.to/lastmile_qr_scan", "ios": "https://dc.lft.to/lastmile_qr_scan"}, "bike_id": "7d4a5d698c999f13bf7e46a57d00b003", "fusion_lon": 0.0, "lat": 38.893711333333336}, {"type": "electric_bike", "name": "26c1fdc66a9fa7ad9c57c0bf1e4e831f", "is_reserved": 0, "fusion_lat": 0.0, "lon": -77.115956, "is_disabled": 0, "rental_uris": {"android": "https://dc.lft.to/lastmile_qr_scan", "ios": "https://dc.lft.to/lastmile_qr_scan"}, "bike_id": "26c1fdc66a9fa7ad9c57c0bf1e4e831f", "fusion_lon": 0.0, "lat": 39.07497}, {"type": "electric_scooter", "name": "4a619edddfd9e369dc955db5ca501688", "is_reserved": 0, "fusion_lat": 0.0, "lon": -77.02978466666667, "is_disabled": 0, "rental_uris": {"android": "https://dc.lft.to/lastmile_qr_scan", "ios": "https://dc.lft.to/lastmile_qr_scan"}, "bike_id": "4a619edddfd9e369dc955db5ca501688", "fusion_lon": 0.0, "lat": 38.92950716666667}, {"type": "electric_bike", "name": "75ce4dc22adf8d2cb5fe20821e3960f7", "is_reserved": 0, "fusion_lat": 0.0, "lon": -77.01443, "is_disabled": 0, "rental_uris": {"android": "https://dc.lft.to/lastmile_qr_scan", "ios": "https://dc.lft.to/lastmile_qr_scan"}, "bike_id": "75ce4dc22adf8d2cb5fe20821e3960f7", "fusion_lon": 0.0, "lat": 38.87682933333333}, {"type": "electric_scooter", "name": "9fa6f30a4e49732755c60f36d77a3ec4", "is_reserved": 0, "fusion_lat": 0.0, "lon": -77.02959766666666, "is_disabled": 0, "rental_uris": {"android": "https://dc.lft.to/lastmile_qr_scan", "ios": "https://dc.lft.to/lastmile_qr_scan"}, "bike_id": "9fa6f30a4e49732755c60f36d77a3ec4", "fusion_lon": 0.0, "lat": 38.916801166666666}, {"type": "electric_scooter", "name": "32cb190ca4403ce85cb6e9825f3a8bd3", "is_reserved": 0, "fusion_lat": 0.0, "lon": -77.0437185, "is_disabled": 0, "rental_uris": {"android": "https://dc.lft.to/lastmile_qr_scan", "ios": "https://dc.lft.to/lastmile_qr_scan"}, "bike_id": "32cb190ca4403ce85cb6e9825f3a8bd3", "fusion_lon": 0.0, "lat": 38.898451}, {"type": "electric_scooter", "name": "348cddb1313e1e089080172fb613f358", "is_reserved": 0, "fusion_lat": 0.0, "lon": -77.03435116666667, "is_disabled": 0, "rental_uris": {"android": "https://dc.lft.to/lastmile_qr_scan", "ios": "https://dc.lft.to/lastmile_qr_scan"}, "bike_id": "348cddb1313e1e089080172fb613f358", "fusion_lon": 0.0, "lat": 38.903789333333336}, {"type": "electric_scooter", "name": "38345f76c64527c293d1b435b346933d", "is_reserved": 0, "fusion_lat": 0.0, "lon": -77.03284333333333, "is_disabled": 0, "rental_uris": {"android": "https://dc.lft.to/lastmile_qr_scan", "ios": "https://dc.lft.to/lastmile_qr_scan"}, "bike_id": "38345f76c64527c293d1b435b346933d", "fusion_lon": 0.0, "lat": 38.9388165}, {"type": "electric_scooter", "name": "162b341a372661b269fb1c4c2fb076c9", "is_reserved": 0, "fusion_lat": 0.0, "lon": -77.031103, "is_disabled": 0, "rental_uris": {"android": "https://dc.lft.to/lastmile_qr_scan", "ios": "https://dc.lft.to/lastmile_qr_scan"}, "bike_id": "162b341a372661b269fb1c4c2fb076c9", "fusion_lon": 0.0, "lat": 38.91026166666666}, {"type": "electric_scooter", "name": "44a703247fe04a6c0c1641f4ab82f3f1", "is_reserved": 0, "fusion_lat": 0.0, "lon": -77.03327166666666, "is_disabled": 0, "rental_uris": {"android": "https://dc.lft.to/lastmile_qr_scan", "ios": "https://dc.lft.to/lastmile_qr_scan"}, "bike_id": "44a703247fe04a6c0c1641f4ab82f3f1", "fusion_lon": 0.0, "lat": 38.9287235}, {"type": "electric_scooter", "name": "29af8055396b4a2eb75d98765e1e87be", "is_reserved": 0, "fusion_lat": 0.0, "lon": -77.0220815, "is_disabled": 0, "rental_uris": {"android": "https://dc.lft.to/lastmile_qr_scan", "ios": "https://dc.lft.to/lastmile_qr_scan"}, "bike_id": "29af8055396b4a2eb75d98765e1e87be", "fusion_lon": 0.0, "lat": 38.921059}, {"type": "electric_scooter", "name": "3220fe9024513a992bc15f589287dd7f", "is_reserved": 0, "fusion_lat": 0.0, "lon": -77.022876, "is_disabled": 0, "rental_uris": {"android": "https://dc.lft.to/lastmile_qr_scan", "ios": "https://dc.lft.to/lastmile_qr_scan"}, "bike_id": "3220fe9024513a992bc15f589287dd7f", "fusion_lon": 0.0, "lat": 38.910728}, {"type": "electric_scooter", "name": "278d8b57e6ec0832208217cf6c5bebcd", "is_reserved": 0, "fusion_lat": 0.0, "lon": -77.02669866666666, "is_disabled": 0, "rental_uris": {"android": "https://dc.lft.to/lastmile_qr_scan", "ios": "https://dc.lft.to/lastmile_qr_scan"}, "bike_id": "278d8b57e6ec0832208217cf6c5bebcd", "fusion_lon": 0.0, "lat": 38.89728783333333}, {"type": "electric_scooter", "name": "be8b066ef6504fed3deb99e6330a050a", "is_reserved": 0, "fusion_lat": 0.0, "lon": -76.982742, "is_disabled": 0, "rental_uris": {"android": "https://dc.lft.to/lastmile_qr_scan", "ios": "https://dc.lft.to/lastmile_qr_scan"}, "bike_id": "be8b066ef6504fed3deb99e6330a050a", "fusion_lon": 0.0, "lat": 38.863095333333334}, {"type": "electric_scooter", "name": "b5ead037842cacf53479c778b010e2b5", "is_reserved": 0, "fusion_lat": 0.0, "lon": -76.99770083333334, "is_disabled": 0, "rental_uris": {"android": "https://dc.lft.to/lastmile_qr_scan", "ios": "https://dc.lft.to/lastmile_qr_scan"}, "bike_id": "b5ead037842cacf53479c778b010e2b5", "fusion_lon": 0.0, "lat": 38.909049333333336}, {"type": "electric_scooter", "name": "4112e05d816d33da030411d4dde666a1", "is_reserved": 0, "fusion_lat": 0.0, "lon": -77.03327116666667, "is_disabled": 0, "rental_uris": {"android": "https://dc.lft.to/lastmile_qr_scan", "ios": "https://dc.lft.to/lastmile_qr_scan"}, "bike_id": "4112e05d816d33da030411d4dde666a1", "fusion_lon": 0.0, "lat": 38.92878783333333},