{"data": {"bikes": [{"type": "electric_scooter", "name": "fcab78c3c10776eecd588728f1228005", "rental_uris": {"ios": "https://dc.lft.to/lastmile_qr_scan", "android": "https://dc.lft.to/lastmile_qr_scan"}, "fusion_lon": 0.0, "lat": 38.90473883333333, "is_disabled": 0, "bike_id": "fcab78c3c10776eecd588728f1228005", "fusion_lat": 0.0, "is_reserved": 0, "lon": -77.03459}, {"type": "electric_scooter", "name": "8b04eebe9f5cab818b5efa1e69c61da7", "rental_uris": {"ios": "https://dc.lft.to/lastmile_qr_scan", "android": "https://dc.lft.to/lastmile_qr_scan"}, "fusion_lon": 0.0, "lat": 38.901449, "is_disabled": 0, "bike_id": "8b04eebe9f5cab818b5efa1e69c61da7", "fusion_lat": 0.0, "is_reserved": 0, "lon": -77.0325555}, {"type": "electric_bike", "name": "deadbd799f04b1f605319013939615c0", "rental_uris": {"ios": "https://dc.lft.to/lastmile_qr_scan", "android": "https://dc.lft.to/lastmile_qr_scan"}, "fusion_lon": 0.0, "lat": 38.9317365, "is_disabled": 0, "bike_id": "deadbd799f04b1f605319013939615c0", "fusion_lat": 0.0, "is_reserved": 0, "lon": -77.03542466666667}, {"type": "electric_scooter", "name": "4c3a55f17d60210947c14ab60df3301e", "rental_uris": {"ios": "https://dc.lft.to/lastmile_qr_scan", "android": "https://dc.lft.to/lastmile_qr_scan"}, "fusion_lon": 0.0, "lat": 38.9077745, "is_disabled": 0, "bike_id": "4c3a55f17d60210947c14ab60df3301e", "fusion_lat": 0.0, "is_reserved": 0, "lon": -77.00210966666667}, {"type": "electric_scooter", "name": "563f7a6aba7aaef78a3914b2f4338fd5", "rental_uris": {"ios": "https://dc.lft.to/lastmile_qr_scan", "android": "https://dc.lft.to/lastmile_qr_scan"}, "fusion_lon": 0.0, "lat": 38.877029, "is_disabled": 0, "bike_id": "563f7a6aba7aaef78a3914b2f4338fd5", "fusion_lat": 0.0, "is_reserved": 0, "lon": -77.0042975}, {"type": "electric_scooter", "name": "0a06625e96e8eea6ff0e5e4975e0093d", "rental_uris": {"ios": "https://dc.lft.to/lastmile_qr_scan", "android": "https://dc.lft.to/lastmile_qr_scan"}, "fusion_lon": 0.0, "lat": 38.92394083333333, "is_disabled": 0, "bike_id": "0a06625e96e8eea6ff0e5e4975e0093d", "fusion_lat": 0.0, "is_reserved": 0, "lon": -77.0248545}, {"type": "electric_scooter", "name": "51cf946296f424b36282a0d537eaf398", "rental_uris": {"ios": "https://dc.lft.to/lastmile_qr_scan", "android": "https://dc.lft.to/lastmile_qr_scan"}, "fusion_lon": 0.0, "lat": 38.90502766666667, "is_disabled": 0, "bike_id": "51cf946296f424b36282a0d537eaf398", "fusion_lat": 0.0, "is_reserved": 0, "lon": -77.06114733333334}, {"type": "electric_scooter", "name": "eafb84d8d610ed770ba3e515405af3af", "rental_uris": {"ios": "https://dc.lft.to/lastmile_qr_scan", "android": "https://dc.lft.to/lastmile_qr_scan"}, "fusion_lon": 0.0, "lat": 38.919327333333335, "is_disabled": 0, "bike_id": "eafb84d8d610ed770ba3e515405af3af", "fusion_lat": 0.0, "is_reserved": 0, "lon": -77.03175916666666}, {"type": "electric_scooter", "name": "6fd91951aca2b67c0edb842d1d429ee3", "rental_uris": {"ios": "https://dc.lft.to/lastmile_qr_scan", "android": "https://dc.lft.to/lastmile_qr_scan"}, "fusion_lon": 0.0, "lat": 38.922693333333335, "is_disabled": 0, "bike_id": "6fd91951aca2b67c0edb842d1d429ee3", "fusion_lat": 0.0, "is_reserved": 0, "lon": -77.03264866666666}, {"type": "electric_scooter", "name": "8980abc83b483467e7d302e6a4ad35bf", "rental_uris": {"ios": "https://dc.lft.to/lastmile_qr_scan", "android": "https://dc.lft.to/lastmile_qr_scan"}, "fusion_lon": 0.0, "lat": 38.913335833333335, "is_disabled": 0, "bike_id": "8980abc83b483467e7d302e6a4ad35bf", "fusion_lat": 0.0, "is_reserved": 0, "lon": -77.04860283333333}, {"type": "electric_scooter", "name": "0365f01527b78919fb00ed2fd35dcd5b", "rental_uris": {"ios": "https://dc.lft.to/lastmile_qr_scan", "android": "https://dc.lft.to/lastmile_qr_scan"}, "fusion_lon": 0.0, "lat": 38.92021783333333, "is_disabled": 0, "bike_id": "0365f01527b78919fb00ed2fd35dcd5b", "fusion_lat": 0.0, "is_reserved": 0, "lon": -77.017987}, {"type": "electric_scooter", "name": "30d418c471eedccf73494086ddee467a", "rental_uris": {"ios": "https://dc.lft.to/lastmile_qr_scan", "android": "https://dc.lft.to/lastmile_qr_scan"}, "fusion_lon": 0.0, "lat": 38.908361666666664, "is_disabled": 0, "bike_id": "30d418c471eedccf73494086ddee467a", "fusion_lat": 0.0, "is_reserved": 0, "lon": -77.02199666666667}, {"type": "electric_scooter", "name": "c4143e4ce00591bcc06533a33dc65ba6", "rental_uris": {"ios": "https://dc.lft.to/lastmile_qr_scan", "android": "https://dc.lft.to/lastmile_qr_scan"}, "fusion_lon": 0.0, "lat": 38.904983666666666, "is_disabled": 0, "bike_id": "c4143e4ce00591bcc06533a33dc65ba6", "fusion_lat": 0.0, "is_reserved": 0, "lon": -76.98132233333334}, {"type": "electric_scooter", "name": "92cc985540d39a18c2f8fe68d36dd57b", "rental_uris": {"ios": "https://dc.lft.to/lastmile_qr_scan", "android": "https://dc.lft.to/lastmile_qr_scan"}, "fusion_lon": 0.0, "lat": 38.9141145, "is_disabled": 0, "bike_id": "92cc985540d39a18c2f8fe68d36dd57b", "fusion_lat": 0.0, "is_reserved": 0, "lon": -77.0182035}, {"type": "electric_scooter", "name": "f9b83fac30ac5aef9c67538de85206ea", "rental_uris": {"ios": "https://dc.lft.to/lastmile_qr_scan", "android": "https://dc.lft.to/lastmile_qr_scan"}, "fusion_lon": 0.0, "lat": 38.900229833333334, "is_disabled": 0, "bike_id": "f9b83fac30ac5aef9c67538de85206ea", "fusion_lat": 0.0, "is_reserved": 0, "lon": -76.97401716666667}, {"type": "electric_scooter", "name": "248c11801a3bc76de0a82feb9c6ed998", "rental_uris": {"ios": "https://dc.lft.to/lastmile_qr_scan", "android": "https://dc.lft.to/lastmile_qr_scan"}, "fusion_lon": 0.0, "lat": 38.931923833333336, "is_disabled": 0, "bike_id": "248c11801a3bc76de0a82feb9c6ed998", "fusion_lat": 0.0, "is_reserved": 0, "lon": -77.019886}, {"type": "electric_scooter", "name": "9c97b582e0e14d125c9829421dd86926", "rental_uris": {"ios": "https://dc.lft.to/lastmile_qr_scan", "android": "https://dc.lft.to/lastmile_qr_scan"}, "fusion_lon": 0.0, "lat": 38.91257816666667, "is_disabled": 0, "bike_id": "9c97b582e0e14d125c9829421dd86926", "fusion_lat": 0.0, "is_reserved": 0, "lon": -77.0365765}, {"type": "electric_bike", "name": "430813ff9a533c59c5006ab9c9f8831c", "rental_uris": {"ios": "https://dc.lft.to/lastmile_qr_scan", "android": "https://dc.lft.to/lastmile_qr_scan"}, "fusion_lon": 0.0, "lat": 38.945174333333334, "is_disabled": 0, "bike_id": "430813ff9a533c59c5006ab9c9f8831c", "fusion_lat": 0.0, "is_reserved": 0, "lon": -77.00677316666666}, {"type": "electric_scooter", "name": "4e0350a7d4ee4626a4a03024463bd9a4", "rental_uris": {"ios": "https://dc.lft.to/lastmile_qr_scan", "android": "https://dc.lft.to/lastmile_qr_scan"}, "fusion_lon": 0.0, "lat": 38.88265783333333, "is_disabled": 0, "bike_id": "4e0350a7d4ee4626a4a03024463bd9a4", "fusion_lat": 0.0, "is_reserved": 0, "lon": -76.92672866666666}, {"type": "electric_scooter", "name": "df274c9393bbb01ba28dfd296d81d9ff", "rental_uris": {"ios": "https://dc.lft.to/lastmile_qr_scan", "android": "https://dc.lft.to/lastmile_qr_scan"}, "fusion_lon": 0.0, "lat": 38.907411, "is_disabled": 0, "bike_id": "df274c9393bbb01ba28dfd296d81d9ff", "fusion_lat": 0.0, "is_reserved": 0, "lon": -77.0269635}, {"type": "electric_scooter", "name": "b368d9ffe860149525360cf7829972ca", "rental_uris": {"ios": "https://dc.lft.to/lastmile_qr_scan", "android": "https://dc.lft.to/lastmile_qr_scan"}, "fusion_lon": 0.0, "lat": 38.90704233333334, "is_disabled": 0, "bike_id": "b368d9ffe860149525360cf7829972ca", "fusion_lat": 0.0, "is_reserved": 0, "lon": -77.0058245}, {"type": "electric_scooter", "name": "b9b7b0126a197a5b29c7f51a819413ee", "rental_uris": {"ios": "https://dc.lft.to/lastmile_qr_scan", "android": "https://dc.lft.to/lastmile_qr_scan"}, "fusion_lon": 0.0, "lat": 38.915328333333335, "is_disabled": 0, "bike_id": "b9b7b0126a197a5b29c7f51a819413ee", "fusion_lat": 0.0, "is_reserved": 0, "lon": -77.01224133333334}, {"type": "electric_scooter", "name": "81865fe67f9d64263f0c047993515ee0", "rental_uris": {"ios": "https://dc.lft.to/lastmile_qr_scan", "android": "https://dc.lft.to/lastmile_qr_scan"}, "fusion_lon": 0.0, "lat": 38.920892, "is_disabled": 0, "bike_id": "81865fe67f9d64263f0c047993515ee0", "fusion_lat": 0.0, "is_reserved": 0, "lon": -77.0225625}, {"type": "electric_bike", "name": "722b7e6318359be9c2556a233a3fef45", "rental_uris": {"ios": "https://dc.lft.to/lastmile_qr_scan", "android": "https://dc.lft.to/lastmile_qr_scan"}, "fusion_lon": 0.0, "lat": 38.9535565, "is_disabled": 0, "bike_id": "722b7e6318359be9c2556a233a3fef45", "fusion_lat": 0.0, "is_reserved": 0, "lon": -76.98094333333333}, {"type": "electric_scooter", "name": "8a1837f0d5613588c31699945f49c891", "rental_uris": {"ios": "https://dc.lft.to/lastmile_qr_scan", "android": "https://dc.lft.to/lastmile_qr_scan"}, "fusion_lon": 0.0, "lat": 38.875463, "is_disabled": 0, "bike_id": "8a1837f0d5613588c31699945f49c891", "fusion_lat": 0.0, "is_reserved": 0, "lon": -77.0053555}, {"type": "electric_bike", "name": "ba52ec0275b8a328842aaf2b96658a23", "rental_uris": {"ios": "https://dc.lft.to/lastmile_qr_scan", "android": "https://dc.lft.to/lastmile_qr_scan"}, "fusion_lon": 0.0, "lat": 38.856491, "is_disabled": 0, "bike_id": "ba52ec0275b8a328842aaf2b96658a23", "fusion_lat": 0.0, "is_reserved": 0, "lon": -77.08527733333334}, {"type": "electric_scooter", "name": "0710b1d15334bed8e9540f7b0c6cbf09", "rental_uris": {"ios": "https://dc.lft.to/lastmile_qr_scan", "android": "https://dc.lft.to/lastmile_qr_scan"}, "fusion_lon": 0.0, "lat": 38.896967, "is_disabled": 0, "bike_id": "0710b1d15334bed8e9540f7b0c6cbf09", "fusion_lat": 0.0, "is_reserved": 0, "lon": -77.01616583333333}, {"type": "electric_scooter", "name": "82bb8b251f143bd03ce99c0610620da4", "rental_uris": {"ios": "https://dc.lft.to/lastmile_qr_scan", "android": "https://dc.lft.to/lastmile_qr_scan"}, "fusion_lon": 0.0, "lat": 38.88811783333333, "is_disabled": 0, "bike_id": "82bb8b251f143bd03ce99c0610620da4", "fusion_lat": 0.0, "is_reserved": 0, "lon": -76.983608}, {"type": "electric_scooter", "name": "74fc933b330b56ce97a31d8ba26d119d", "rental_uris": {"ios": "https://dc.lft.to/lastmile_qr_scan", "android": "https://dc.lft.to/lastmile_qr_scan"}, "fusion_lon": 0.0, "lat": 38.905327666666665, "is_disabled": 0, "bike_id": "74fc933b330b56ce97a31d8ba26d119d", "fusion_lat": 0.0, "is_reserved": 0, "lon": -77.02696933333333}, {"type": "electric_scooter", "name": "ac1bb06b47ea2d350f8988f341cd5920", "rental_uris": {"ios": "https://dc.lft.to/lastmile_qr_scan", "android": "https://dc.lft.to/lastmile_qr_scan"}, "fusion_lon": 0.0, "lat": 38.93237766666667, "is_disabled": 0, "bike_id": "ac1bb06b47ea2d350f8988f341cd5920", "fusion_lat": 0.0, "is_reserved": 0, "lon": -76.99536533333334}, {"type": "electric_scooter", "name": "074294f025385374976602d4fe9827b3", "rental_uris": {"ios": "https://dc.lft.to/lastmile_qr_scan", "android": "https://dc.lft.to/lastmile_qr_scan"}, "fusion_lon": 0.0, "lat": 38.91942266666667, "is_disabled": 0, "bike_id": "074294f025385374976602d4fe9827b3", "fusion_lat": 0.0, "is_reserved": 0, "lon": -77.04498316666667}, {"type": "electric_scooter", "name": "d5b36d55b9c29753c8905b11388fa0a9", "rental_uris": {"ios": "https://dc.lft.to/lastmile_qr_scan", "android": "https://dc.lft.to/lastmile_qr_scan"}, "fusion_lon": 0.0, "lat": 38.92028883333333, "is_disabled": 0, "bike_id": "d5b36d55b9c29753c8905b11388fa0a9", "fusion_lat": 0.0, "is_reserved": 0, "lon": -77.02191233333333}, {"type": "electric_scooter", "name": "b63dc80f9612f437a8a49c90304b9d6f", "rental_uris": {"ios": "https://dc.lft.to/lastmile_qr_scan", "android": "https://dc.lft.to/lastmile_qr_scan"}, "fusion_lon": 0.0, "lat": 38.911897833333335, "is_disabled": 0, "bike_id": "b63dc80f9612f437a8a49c90304b9d6f", "fusion_lat": 0.0, "is_reserved": 0, "lon": -77.03266033333334}, {"type": "electric_bike", "name": "ed89cd5bea8a6d4ec6d1752d232fa092", "rental_uris": {"ios": "https://dc.lft.to/lastmile_qr_scan", "android": "https://dc.lft.to/lastmile_qr_scan"}, "fusion_lon": 0.0, "lat": 38.95972483333333, "is_disabled": 0, "bike_id": "ed89cd5bea8a6d4ec6d1752d232fa092", "fusion_lat": 0.0, "is_reserved": 0, "lon": -76.98157383333333}, {"type": "electric_scooter", "name": "fcfa6d75083dd007f8037ed3c8477985", "rental_uris": {"ios": "https://dc.lft.to/lastmile_qr_scan", "android": "https://dc.lft.to/lastmile_qr_scan"}, "fusion_lon": 0.0, "lat": 38.924844666666665, "is_disabled": 0, "bike_id": "fcfa6d75083dd007f8037ed3c8477985", "fusion_lat": 0.0, "is_reserved": 0, "lon": -77.02753566666667}, {"type": "electric_scooter", "name": "2ea5cc54aa8d91a1b9b515e7c66c2be6", "rental_uris": {"ios": "https://dc.lft.to/lastmile_qr_scan", "android": "https://dc.lft.to/lastmile_qr_scan"}, "fusion_lon": 0.0, "lat": 38.907405833333335, "is_disabled": 0, "bike_id": "2ea5cc54aa8d91a1b9b515e7c66c2be6", "fusion_lat": 0.0, "is_reserved": 0, "lon": -77.026985}, {"type": "electric_bike", "name": "8154f0070eb6a9ccda8b5a647c42848a", "rental_uris": {"ios": "https://dc.lft.to/lastmile_qr_scan", "android": "https://dc.lft.to/lastmile_qr_scan"}, "fusion_lon": 0.0, "lat": 38.957632333333336, "is_disabled": 0, "bike_id": "8154f0070eb6a9ccda8b5a647c42848a", "fusion_lat": 0.0, "is_reserved": 0, "lon": -76.98091266666667}, {"type": "electric_scooter", "name": "25e2a48b973c1f17170b7293a7153023", "rental_uris": {"ios": "https://dc.lft.to/lastmile_qr_scan", "android": "https://dc.lft.to/lastmile_qr_scan"}, "fusion_lon": 0.0, "lat": 38.89223033333333, "is_disabled": 0, "bike_id": "25e2a48b973c1f17170b7293a7153023", "fusion_lat": 0.0, "is_reserved": 0, "lon": -77.04865316666667}, {"type": "electric_scooter", "name": "70f78b84092fc7472470777302b1b5f8", "rental_uris": {"ios": "https://dc.lft.to/lastmile_qr_scan", "android": "https://dc.lft.to/lastmile_qr_scan"}, "fusion_lon": 0.0, "lat": 38.89843716666667, "is_disabled": 0, "bike_id": "70f78b84092fc7472470777302b1b5f8", "fusion_lat": 0.0, "is_reserved": 0, "lon": -77.032722}, {"type": "electric_scooter", "name": "3bd6d7a6f9b0ed013482e819e9f691df", "rental_uris": {"ios": "https://dc.lft.to/lastmile_qr_scan", "android": "https://dc.lft.to/lastmile_qr_scan"}, "fusion_lon": 0.0, "lat": 38.89919583333333, "is_disabled": 0, "bike_id": "3bd6d7a6f9b0ed013482e819e9f691df", "fusion_lat": 0.0, "is_reserved": 0, "lon": -76.9853655}, {"type": "electric_bike", "name": "4f9f57722f991217ef94111e0430fbee", "rental_uris": {"ios": "https://dc.lft.to/lastmile_qr_scan", "android": "https://dc.lft.to/lastmile_qr_scan"}, "fusion_lon": 0.0, "lat": 38.94818333333333, "is_disabled": 0, "bike_id": "4f9f57722f991217ef94111e0430fbee", "fusion_lat": 0.0, "is_reserved": 0, "lon": -77.029776}, {"type": "electric_scooter", "name": "129d8028e26c0b96412d2b25a48fd662", "rental_uris": {"ios": "https://dc.lft.to/lastmile_qr_scan", "android": "https://dc.lft.to/lastmile_qr_scan"}, "fusion_lon": 0.0, "lat": 38.89707116666666, "is_disabled": 0, "bike_id": "129d8028e26c0b96412d2b25a48fd662", "fusion_lat": 0.0, "is_reserved": 0, "lon": -77.02287466666667}, {"type": "electric_scooter", "name": "2911b1ef63e84870b55cb4c6719c1923", "rental_uris": {"ios": "https://dc.lft.to/lastmile_qr_scan", "android": "https://dc.lft.to/lastmile_qr_scan"}, "fusion_lon": 0.0, "lat": 38.90469016666667, "is_disabled": 0, "bike_id": "2911b1ef63e84870b55cb4c6719c1923", "fusion_lat": 0.0, "is_reserved": 0, "lon": -77.00743933333334}, {"type": "electric_scooter", "name": "f30a0b36b9c0e7b6367154b66b4b1fb6", "rental_uris": {"ios": "https://dc.lft.to/lastmile_qr_scan", "android": "https://dc.lft.to/lastmile_qr_scan"}, "fusion_lon": 0.0, "lat": 38.855819833333335, "is_disabled": 0, "bike_id": "f30a0b36b9c0e7b6367154b66b4b1fb6", "fusion_lat": 0.0, "is_reserved": 0, "lon": -76.966533}, {"type": "electric_scooter", "name": "dab82266588e11358b4d19527b249493", "rental_uris": {"ios": "https://dc.lft.to/lastmile_qr_scan", "android": "https://dc.lft.to/lastmile_qr_scan"}, "fusion_lon": 0.0, "lat": 38.924571666666665, "is_disabled": 0, "bike_id": "dab82266588e11358b4d19527b249493", "fusion_lat": 0.0, "is_reserved": 0, "lon": -77.02149316666667}, {"type": "electric_scooter", "name": "3ff9c54e8dac8115a6d76aaebf17b5ac", "rental_uris": {"ios": "https://dc.lft.to/lastmile_qr_scan", "android": "https://dc.lft.to/lastmile_qr_scan"}, "fusion_lon": 0.0, "lat": 38.93441383333333, "is_disabled": 0, "bike_id": "3ff9c54e8dac8115a6d76aaebf17b5ac", "fusion_lat": 0.0, "is_reserved": 0, "lon": -77.0345605}, {"type": "electric_scooter", "name": "0fd61992d561f88040e3e7e806517012", "rental_uris": {"ios": "https://dc.lft.to/lastmile_qr_scan", "android": "https://dc.lft.to/lastmile_qr_scan"}, "fusion_lon": 0.0, "lat": 38.923641333333336, "is_disabled": 0, "bike_id": "0fd61992d561f88040e3e7e806517012", "fusion_lat": 0.0, "is_reserved": 0, "lon": -77.05033666666667}, {"type": "electric_scooter", "name": "b031d13a90cefec6b7c02522f01d63ce", "rental_uris": {"ios": "https://dc.lft.to/lastmile_qr_scan", "android": "https://dc.lft.to/lastmile_qr_scan"}, "fusion_lon": 0.0, "lat": 38.893446833333336, "is_disabled": 0, "bike_id": "b031d13a90cefec6b7c02522f01d63ce", "fusion_lat": 0.0, "is_reserved": 0, "lon": -77.0119015}, {"type": "electric_scooter", "name": "d3703621de8a869bae189d6e50827d14", "rental_uris": {"ios": "https://dc.lft.to/lastmile_qr_scan", "android": "https://dc.lft.to/lastmile_qr_scan"}, "fusion_lon": 0.0, "lat": 38.919126166666665, "is_disabled": 0, "bike_id": "d3703621de8a869bae189d6e50827d14", "fusion_lat": 0.0, "is_reserved": 0, "lon": -77.0446795}, {"type": "electric_scooter", "name": "e55b22a51e8727be30ff6def51804455", "rental_uris": {"ios": "https://dc.lft.to/lastmile_qr_scan", "android": "https://dc.lft.to/lastmile_qr_scan"}, "fusion_lon": 0.0, "lat": 38.88177783333333, "is_disabled": 0, "bike_id": "e55b22a51e8727be30ff6def51804455", "fusion_lat": 0.0, "is_reserved": 0, "lon": -76.95899483333334}, {"type": "electric_scooter", "name": "a63cb88f4979a1ef61408bd7c08575a7", "rental_uris": {"ios": "https://dc.lft.to/lastmile_qr_scan", "android": "https://dc.lft.to/lastmile_qr_scan"}, "fusion_lon": 0.0, "lat": 38.897931, "is_disabled": 0, "bike_id": "a63cb88f4979a1ef61408bd7c08575a7", "fusion_lat": 0.0, "is_reserved": 0, "lon": -77.02711066666667}, {"type": "electric_scooter", "name": "03771c2edf1075cae69a779f883aec06", "rental_uris": {"ios": "https://dc.lft.to/lastmile_qr_scan", "android": "https://dc.lft.to/lastmile_qr_scan"}, "fusion_lon": 0.0, "lat": 38.9318165, "is_disabled": 0, "bike_id": "03771c2edf1075cae69a779f883aec06", "fusion_lat": 0.0, "is_reserved": 0, "lon": -77.04303233333333}, {"type": "electric_scooter", "name": "bf3772716fff3e4cd2a8ccda7f80aee0", "rental_uris": {"ios": "https://dc.lft.to/lastmile_qr_scan", "android": "https://dc.lft.to/lastmile_qr_scan"}, "fusion_lon": 0.0, "lat": 38.936085, "is_disabled": 0, "bike_id": "bf3772716fff3e4cd2a8ccda7f80aee0", "fusion_lat": 0.0, "is_reserved": 0, "lon": -77.0380635}, {"type": "electric_scooter", "name": "733305a53129dd2c7334f2f3f14e1f72", "rental_uris": {"ios": "https://dc.lft.to/lastmile_qr_scan", "android": "https://dc.lft.to/lastmile_qr_scan"}, "fusion_lon": 0.0, "lat": 38.919837, "is_disabled": 0, "bike_id": "733305a53129dd2c7334f2f3f14e1f72", "fusion_lat": 0.0, "is_reserved": 0, "lon": -76.97310483333334}, {"type": "electric_scooter", "name": "9242529789458b53dea1ad68e4982680", "rental_uris": {"ios": "https://dc.lft.to/lastmile_qr_scan", "android": "https://dc.lft.to/lastmile_qr_scan"}, "fusion_lon": 0.0, "lat": 38.9039345, "is_disabled": 0, "bike_id": "9242529789458b53dea1ad68e4982680", "fusion_lat": 0.0, "is_reserved": 0, "lon": -76.98471016666667}, {"type": "electric_scooter", "name": "c7adf775561bc9ad06c95ffd569f0c07", "rental_uris": {"ios": "https://dc.lft.to/lastmile_qr_scan", "android": "https://dc.lft.to/lastmile_qr_scan"}, "fusion_lon": 0.0, "lat": 38.924280333333336, "is_disabled": 0, "bike_id": "c7adf775561bc9ad06c95ffd569f0c07", "fusion_lat": 0.0, "is_reserved": 0, "lon": -77.04246433333333}, {"type": "electric_scooter", "name": "82ad00234367e3ef9aad6983954102ca", "rental_uris": {"ios": "https://dc.lft.to/lastmile_qr_scan", "android": "https://dc.lft.to/lastmile_qr_scan"}, "fusion_lon": 0.0, "lat": 38.9170655, "is_disabled": 0, "bike_id": "82ad00234367e3ef9aad6983954102ca", "fusion_lat": 0.0, "is_reserved": 0, "lon": -77.03216316666666}, {"type": "electric_scooter", "name": "8dcc178db633d4e14aedaf24f8540b9e", "rental_uris": {"ios": "https://dc.lft.to/lastmile_qr_scan", "android": "https://dc.lft.to/lastmile_qr_scan"}, "fusion_lon": 0.0, "lat": 38.921218333333336, "is_disabled": 0, "bike_id": "8dcc178db633d4e14aedaf24f8540b9e", "fusion_lat": 0.0, "is_reserved": 0, "lon": -77.01938983333334}, {"type": "electric_scooter", "name": "fb3f5469ae73baefaf0d17ffed80b6be", "rental_uris": {"ios": "https://dc.lft.to/lastmile_qr_scan", "android": "https://dc.lft.to/lastmile_qr_scan"}, "fusion_lon": 0.0, "lat": 38.90435683333333, "is_disabled": 0, "bike_id": "fb3f5469ae73baefaf0d17ffed80b6be", "fusion_lat": 0.0, "is_reserved": 0, "lon": -77.04335133333333}, {"type": "electric_scooter", "name": "2cb53e36806f4ac3550d46521e20e6ef", "rental_uris": {"ios": "https://dc.lft.to/lastmile_qr_scan", "android": "https://dc.lft.to/lastmile_qr_scan"}, "fusion_lon": 0.0, "lat": 38.9097575, "is_disabled": 0, "bike_id": "2cb53e36806f4ac3550d46521e20e6ef", "fusion_lat": 0.0, "is_reserved": 0, "lon": -77.038687}, {"type": "electric_scooter", "name": "f323fc3d43b5285e8956e583198f8228", "rental_uris": {"ios": "https://dc.lft.to/lastmile_qr_scan", "android": "https://dc.lft.to/lastmile_qr_scan"}, "fusion_lon": 0.0, "lat": 38.866854833333335, "is_disabled": 0, "bike_id": "f323fc3d43b5285e8956e583198f8228", "fusion_lat": 0.0, "is_reserved": 0, "lon": -76.985664}, {"type": "electric_scooter", "name": "3527a1936fc122d710c0f4e66764269c", "rental_uris": {"ios": "https://dc.lft.to/lastmile_qr_scan", "android": "https://dc.lft.to/lastmile_qr_scan"}, "fusion_lon": 0.0, "lat": 38.921624333333334, "is_disabled": 0, "bike_id": "3527a1936fc122d710c0f4e66764269c", "fusion_lat": 0.0, "is_reserved": 0, "lon": -77.0332805}, {"type": "electric_scooter", "name": "c17cbea9ab0769d6a1c93188577e994b", "rental_uris": {"ios": "https://dc.lft.to/lastmile_qr_scan", "android": "https://dc.lft.to/lastmile_qr_scan"}, "fusion_lon": 0.0, "lat": 38.93194, "is_disabled": 0, "bike_id": "c17cbea9ab0769d6a1c93188577e994b", "fusion_lat": 0.0, "is_reserved": 0, "lon": -77.023524}, {"type": "electric_scooter", "name": "a09e7c698fa8140e9501addc3bf3f923", "rental_uris": {"ios": "https://dc.lft.to/lastmile_qr_scan", "android": "https://dc.lft.to/lastmile_qr_scan"}, "fusion_lon": 0.0, "lat": 38.909567333333335, "is_disabled": 0, "bike_id": "a09e7c698fa8140e9501addc3bf3f923", "fusion_lat": 0.0, "is_reserved": 0, "lon": -77.022845}, {"type": "electric_scooter", "name": "0f7a6f63bb92ec1c8395764e3862c6d1", "rental_uris": {"ios": "https://dc.lft.to/lastmile_qr_scan", "android": "https://dc.lft.to/lastmile_qr_scan"}, "fusion_lon": 0.0, "lat": 38.89987433333334, "is_disabled": 0, "bike_id": "0f7a6f63bb92ec1c8395764e3862c6d1", "fusion_lat": 0.0, "is_reserved": 0, "lon": -77.0088445}, {"type": "electric_scooter", "name": "7e66d20fca9350db4fb5fa145b6007bc", "rental_uris": {"ios": "https://dc.lft.to/lastmile_qr_scan", "android": "https://dc.lft.to/lastmile_qr_scan"}, "fusion_lon": 0.0, "lat": 38.89065766666667, "is_disabled": 0, "bike_id": "7e66d20fca9350db4fb5fa145b6007bc", "fusion_lat": 0.0, "is_reserved": 0, "lon": -76.94454583333334}, {"type": "electric_scooter", "name": "925d2d31c12a4ff4493534b2b31004b1", "rental_uris": {"ios": "https://dc.lft.to/lastmile_qr_scan", "android": "https://dc.lft.to/lastmile_qr_scan"}, "fusion_lon": 0.0, "lat": 38.920631, "is_disabled": 0, "bike_id": "925d2d31c12a4ff4493534b2b31004b1", "fusion_lat": 0.0, "is_reserved": 0, "lon": -76.9819045}, {"type": "electric_scooter", "name": "17be3d9e3f65388307406526d662c403", "rental_uris": {"ios": "https://dc.lft.to/lastmile_qr_scan", "android": "https://dc.lft.to/lastmile_qr_scan"}, "fusion_lon": 0.0, "lat": 38.908532666666666, "is_disabled": 0, "bike_id": "17be3d9e3f65388307406526d662c403", "fusion_lat": 0.0, "is_reserved": 0, "lon": -76.997984}, {"type": "electric_scooter", "name": "a7bd3c17b1c53e3392664f8f0ca8fac7", "rental_uris": {"ios": "https://dc.lft.to/lastmile_qr_scan", "android": "https://dc.lft.to/lastmile_qr_scan"}, "fusion_lon": 0.0, "lat": 38.901332833333335, "is_disabled": 0, "bike_id": "a7bd3c17b1c53e3392664f8f0ca8fac7", "fusion_lat": 0.0, "is_reserved": 0, "lon": -77.0180235}, {"type": "electric_scooter", "name": "72c3095a791e95ec910c8d5c4bdfd401", "rental_uris": {"ios": "https://dc.lft.to/lastmile_qr_scan", "android": "https://dc.lft.to/lastmile_qr_scan"}, "fusion_lon": 0.0, "lat": 38.877087333333336, "is_disabled": 0, "bike_id": "72c3095a791e95ec910c8d5c4bdfd401", "fusion_lat": 0.0, "is_reserved": 0, "lon": -77.003791}, {"type": "electric_scooter", "name": "354f56dd4482fc2b0afdaec9b5cdefdf", "rental_uris": {"ios": "https://dc.lft.to/lastmile_qr_scan", "android": "https://dc.lft.to/lastmile_qr_scan"}, "fusion_lon": 0.0, "lat": 38.893255333333336, "is_disabled": 0, "bike_id": "354f56dd4482fc2b0afdaec9b5cdefdf", "fusion_lat": 0.0, "is_reserved": 0, "lon": -77.02227016666667}, {"type": "electric_scooter", "name": "5ccd7b92717c99ffaf293c87a39df579", "rental_uris": {"ios": "https://dc.lft.to/lastmile_qr_scan", "android": "https://dc.lft.to/lastmile_qr_scan"}, "fusion_lon": 0.0, "lat": 38.93414166666667, "is_disabled": 0, "bike_id": "5ccd7b92717c99ffaf293c87a39df579", "fusion_lat": 0.0, "is_reserved": 0, "lon": -77.02437116666667}, {"type": "electric_scooter", "name": "19b6ae5a8ffc0356b54d363c500a7311", "rental_uris": {"ios": "https://dc.lft.to/lastmile_qr_scan", "android": "https://dc.lft.to/lastmile_qr_scan"}, "fusion_lon": 0.0, "lat": 38.923636333333334, "is_disabled": 0, "bike_id": "19b6ae5a8ffc0356b54d363c500a7311", "fusion_lat": 0.0, "is_reserved": 0, "lon": -77.05035733333334}, {"type": "electric_scooter", "name": "33a5fbc16308f8a1ad9f9b7a9221a4d6", "rental_uris": {"ios": "https://dc.lft.to/lastmile_qr_scan", "android": "https://dc.lft.to/lastmile_qr_scan"}, "fusion_lon": 0.0, "lat": 38.924719833333334, "is_disabled": 0, "bike_id": "33a5fbc16308f8a1ad9f9b7a9221a4d6", "fusion_lat": 0.0, "is_reserved": 0, "lon": -76.99025733333333}, {"type": "electric_bike", "name": "cdc491b845102f3a72819846dc3f78f4", "rental_uris": {"ios": "https://dc.lft.to/lastmile_qr_scan", "android": "https://dc.lft.to/lastmile_qr_scan"}, "fusion_lon": 0.0, "lat": 38.961968666666664, "is_disabled": 0, "bike_id": "cdc491b845102f3a72819846dc3f78f4", "fusion_lat": 0.0, "is_reserved": 0, "lon": -77.00084233333334}, {"type": "electric_bike", "name": "56ac93e752f8b595f4613113ccf1aacf", "rental_uris": {"ios": "https://dc.lft.to/lastmile_qr_scan", "android": "https://dc.lft.to/lastmile_qr_scan"}, "fusion_lon": 0.0, "lat": 38.990975, "is_disabled": 0, "bike_id": "56ac93e752f8b595f4613113ccf1aacf", "fusion_lat": 0.0, "is_reserved": 0, "lon": -76.99367083333334}, {"type": "electric_scooter", "name": "59d6939c272f15340c88257a5439d1d4", "rental_uris": {"ios": "https://dc.lft.to/lastmile_qr_scan", "android": "https://dc.lft.to/lastmile_qr_scan"}, "fusion_lon": 0.0, "lat": 38.923010166666664, "is_disabled": 0, "bike_id": "59d6939c272f15340c88257a5439d1d4", "fusion_lat": 0.0, "is_reserved": 0, "lon": -77.024426}, {"type": "electric_bike", "name": "5c01b2292a79537a8a0df40b03feaa7f", "rental_uris": {"ios": "https://dc.lft.to/lastmile_qr_scan", "android": "https://dc.lft.to/lastmile_qr_scan"}, "fusion_lon": 0.0, "lat": 38.898995166666666, "is_disabled": 0, "bike_id": "5c01b2292a79537a8a0df40b03feaa7f", "fusion_lat": 0.0, "is_reserved": 0, "lon": -77.09625716666666}, {"type": "electric_scooter", "name": "4a83b2bc6c74cf07f8fbd3ef71d13283", "rental_uris": {"ios": "https://dc.lft.to/lastmile_qr_scan", "android": "https://dc.lft.to/lastmile_qr_scan"}, "fusion_lon": 0.0, "lat": 38.899727, "is_disabled": 0, "bike_id": "4a83b2bc6c74cf07f8fbd3ef71d13283", "fusion_lat": 0.0, "is_reserved": 0, "lon": -76.99488433333333}, {"type": "electric_scooter", "name": "1ef8bf1b4f33a0565c155b5a428b10c6", "rental_uris": {"ios": "https://dc.lft.to/lastmile_qr_scan", "android": "https://dc.lft.to/lastmile_qr_scan"}, "fusion_lon": 0.0, "lat": 38.866838, "is_disabled": 0, "bike_id": "1ef8bf1b4f33a0565c155b5a428b10c6", "fusion_lat": 0.0, "is_reserved": 0, "lon": -76.98565833333333}, {"type": "electric_bike", "name": "0c07af457f8f786e6557e17b7f07f8b7", "rental_uris": {"ios": "https://dc.lft.to/lastmile_qr_scan", "android": "https://dc.lft.to/lastmile_qr_scan"}, "fusion_lon": 0.0, "lat": 38.9562995, "is_disabled": 0, "bike_id": "0c07af457f8f786e6557e17b7f07f8b7", "fusion_lat": 0.0, "is_reserved": 0, "lon": -77.023189}, {"type": "electric_scooter", "name": "8a577540243898b618005d3f75efb335", "rental_uris": {"ios": "https://dc.lft.to/lastmile_qr_scan", "android": "https://dc.lft.to/lastmile_qr_scan"}, "fusion_lon": 0.0, "lat": 38.917145, "is_disabled": 0, "bike_id": "8a577540243898b618005d3f75efb335", "fusion_lat": 0.0, "is_reserved": 0, "lon": -77.00890266666667}, {"type": "electric_scooter", "name": "d6276951914a85ad052b3ecedbbd8a15", "rental_uris": {"ios": "https://dc.lft.to/lastmile_qr_scan", "android": "https://dc.lft.to/lastmile_qr_scan"}, "fusion_lon": 0.0, "lat": 38.8874515, "is_disabled": 0, "bike_id": "d6276951914a85ad052b3ecedbbd8a15", "fusion_lat": 0.0, "is_reserved": 0, "lon": -77.02120633333334}, {"type": "electric_scooter", "name": "ed73d57a904fa799dccb95b952f85604", "rental_uris": {"ios": "https://dc.lft.to/lastmile_qr_scan", "android": "https://dc.lft.to/lastmile_qr_scan"}, "fusion_lon": 0.0, "lat": 38.918261333333334, "is_disabled": 0, "bike_id": "ed73d57a904fa799dccb95b952f85604", "fusion_lat": 0.0, "is_reserved": 0, "lon": -77.0416905}, {"type": "electric_scooter", "name": "7a654409258efd617a79fffb14579fc3", "rental_uris": {"ios": "https://dc.lft.to/lastmile_qr_scan", "android": "https://dc.lft.to/lastmile_qr_scan"}, "fusion_lon": 0.0, "lat": 38.92073166666667, "is_disabled": 0, "bike_id": "7a654409258efd617a79fffb14579fc3", "fusion_lat": 0.0, "is_reserved": 0, "lon": -77.02459733333333}, {"type": "electric_scooter", "name": "5943571fdb9ffc7ba777dc67e7ff6ea3", "rental_uris": {"ios": "https://dc.lft.to/lastmile_qr_scan", "android": "https://dc.lft.to/lastmile_qr_scan"}, "fusion_lon": 0.0, "lat": 38.901410166666665, "is_disabled": 0, "bike_id": "5943571fdb9ffc7ba777dc67e7ff6ea3", "fusion_lat": 0.0, "is_reserved": 0, "lon": -77.060778}, {"type": "electric_bike", "name": "9c16771189c78b6d27f27d442bf9b9c7", "rental_uris": {"ios": "https://dc.lft.to/lastmile_qr_scan", "android": "https://dc.lft.to/lastmile_qr_scan"}, "fusion_lon": 0.0, "lat": 38.8840675, "is_disabled": 0, "bike_id": "9c16771189c78b6d27f27d442bf9b9c7", "fusion_lat": 0.0, "is_reserved": 0, "lon": -76.9541545}, {"type": "electric_scooter", "name": "30043ee7e36f08b717f8ca9accd8ef7f", "rental_uris": {"ios": "https://dc.lft.to/lastmile_qr_scan", "android": "https://dc.lft.to/lastmile_qr_scan"}, "fusion_lon": 0.0, "lat": 38.90374383333333, "is_disabled": 0, "bike_id": "30043ee7e36f08b717f8ca9accd8ef7f", "fusion_lat": 0.0, "is_reserved": 0, "lon": -77.03185766666667}, {"type": "electric_scooter", "name": "33e0ae789e64e0c97a3c421236c87bd6", "rental_uris": {"ios": "https://dc.lft.to/lastmile_qr_scan", "android": "https://dc.lft.to/lastmile_qr_scan"}, "fusion_lon": 0.0, "lat": 38.905584166666664, "is_disabled": 0, "bike_id": "33e0ae789e64e0c97a3c421236c87bd6", "fusion_lat": 0.0, "is_reserved": 0, "lon": -77.00423733333334}, {"type": "electric_scooter", "name": "95057457c2954f3159622d67e1120dd0", "rental_uris": {"ios": "https://dc.lft.to/lastmile_qr_scan", "android": "https://dc.lft.to/lastmile_qr_scan"}, "fusion_lon": 0.0, "lat": 38.9191375, "is_disabled": 0, "bike_id": "95057457c2954f3159622d67e1120dd0", "fusion_lat": 0.0, "is_reserved": 0, "lon": -77.03176983333333}, {"type": "electric_scooter", "name": "ed75bbccb671ad22c53a0c2d846a982f", "rental_uris": {"ios": "https://dc.lft.to/lastmile_qr_scan", "android": "https://dc.lft.to/lastmile_qr_scan"}, "fusion_lon": 0.0, "lat": 38.87790433333333, "is_disabled": 0, "bike_id": "ed75bbccb671ad22c53a0c2d846a982f", "fusion_lat": 0.0, "is_reserved": 0, "lon": -77.00125683333333}, {"type": "electric_scooter", "name": "17463e2e80a31cd86219f42fc93ae5ea", "rental_uris": {"ios": "https://dc.lft.to/lastmile_qr_scan", "android": "https://dc.lft.to/lastmile_qr_scan"}, "fusion_lon": 0.0, "lat": 38.911145166666664, "is_disabled": 0, "bike_id": "17463e2e80a31cd86219f42fc93ae5ea", "fusion_lat": 0.0, "is_reserved": 0, "lon": -77.03828433333334}, {"type": "electric_scooter", "name": "234910399002be06c7ee52df2f83fa0a", "rental_uris": {"ios": "https://dc.lft.to/lastmile_qr_scan", "android": "https://dc.lft.to/lastmile_qr_scan"}, "fusion_lon": 0.0, "lat": 38.9069285, "is_disabled": 0, "bike_id": "234910399002be06c7ee52df2f83fa0a", "fusion_lat": 0.0, "is_reserved": 0, "lon": -77.071836}, {"type": "electric_scooter", "name": "d176607c73992e81783aed834fd8c6c9", "rental_uris": {"ios": "https://dc.lft.to/lastmile_qr_scan", "android": "https://dc.lft.to/lastmile_qr_scan"}, "fusion_lon": 0.0, "lat": 38.914503, "is_disabled": 0, "bike_id": "d176607c73992e81783aed834fd8c6c9", "fusion_lat": 0.0, "is_reserved": 0, "lon": -77.04621083333333}, {"type": "electric_scooter", "name": "12484676cfb101cba0d724c6b6a4561d", "rental_uris": {"ios": "https://dc.lft.to/lastmile_qr_scan", "android": "https://dc.lft.to/lastmile_qr_scan"}, "fusion_lon": 0.0, "lat": 38.908486, "is_disabled": 0, "bike_id": "12484676cfb101cba0d724c6b6a4561d", "fusion_lat": 0.0, "is_reserved": 0, "lon": -76.99793}, {"type": "electric_scooter", "name": "106d09c017293dc74a5c30651d2460d3", "rental_uris": {"ios": "https://dc.lft.to/lastmile_qr_scan", "android": "https://dc.lft.to/lastmile_qr_scan"}, "fusion_lon": 0.0, "lat": 38.913011833333336, "is_disabled": 0, "bike_id": "106d09c017293dc74a5c30651d2460d3", "fusion_lat": 0.0, "is_reserved": 0, "lon": -77.031855}, {"type": "electric_bike", "name": "e0560dc6e98c76cfb52d9853bcf303e0", "rental_uris": {"ios": "https://dc.lft.to/lastmile_qr_scan", "android": "https://dc.lft.to/lastmile_qr_scan"}, "fusion_lon": 0.0, "lat": 38.83547183333334, "is_disabled": 0, "bike_id": "e0560dc6e98c76cfb52d9853bcf303e0", "fusion_lat": 0.0, "is_reserved": 0, "lon": -76.9872945}, {"type": "electric_scooter", "name": "3857d7f17af8fa6b68c204e85310b405", "rental_uris": {"ios": "https://dc.lft.to/lastmile_qr_scan", "android": "https://dc.lft.to/lastmile_qr_scan"}, "fusion_lon": 0.0, "lat": 38.89737783333333, "is_disabled": 0, "bike_id": "3857d7f17af8fa6b68c204e85310b405", "fusion_lat": 0.0, "is_reserved": 0, "lon": -77.04562916666667}, {"type": "electric_scooter", "name": "39cf1625f175039471eb27ab482dde71", "rental_uris": {"ios": "https://dc.lft.to/lastmile_qr_scan", "android": "https://dc.lft.to/lastmile_qr_scan"}, "fusion_lon": 0.0, "lat": 38.88622766666667, "is_disabled": 0, "bike_id": "39cf1625f175039471eb27ab482dde71", "fusion_lat": 0.0, "is_reserved": 0, "lon": -77.01527866666666}, {"type": "electric_scooter", "name": "9ca8fb3b082c2b0f23b48b8868705205", "rental_uris": {"ios": "https://dc.lft.to/lastmile_qr_scan", "android": "https://dc.lft.to/lastmile_qr_scan"}, "fusion_lon": 0.0, "lat": 38.843995166666666, "is_disabled": 0, "bike_id": "9ca8fb3b082c2b0f23b48b8868705205", "fusion_lat": 0.0, "is_reserved": 0, "lon": -76.98948516666667}, {"type": "electric_scooter", "name": "e1e5d5b027dd6f37361053c851e57f7f", "rental_uris": {"ios": "https://dc.lft.to/lastmile_qr_scan", "android": "https://dc.lft.to/lastmile_qr_scan"}, "fusion_lon": 0.0, "lat": 38.916748166666665, "is_disabled": 0, "bike_id": "e1e5d5b027dd6f37361053c851e57f7f", "fusion_lat": 0.0, "is_reserved": 0, "lon": -77.02690033333333}, {"type": "electric_scooter", "name": "57bc33ec872aa7d5a292509f083da0c0", "rental_uris": {"ios": "https://dc.lft.to/lastmile_qr_scan", "android": "https://dc.lft.to/lastmile_qr_scan"}, "fusion_lon": 0.0, "lat": 38.92316266666667, "is_disabled": 0, "bike_id": "57bc33ec872aa7d5a292509f083da0c0", "fusion_lat": 0.0, "is_reserved": 0, "lon": -77.02964316666667}, {"type": "electric_bike", "name": "d384f8dfcdb3bca8c85d47a78f8ded5c", "rental_uris": {"ios": "https://dc.lft.to/lastmile_qr_scan", "android": "https://dc.lft.to/lastmile_qr_scan"}, "fusion_lon": 0.0, "lat": 38.990492333333336, "is_disabled": 0, "bike_id": "d384f8dfcdb3bca8c85d47a78f8ded5c", "fusion_lat": 0.0, "is_reserved": 0, "lon": -77.038713}, {"type": "electric_scooter", "name": "5af1e6888189954ff45d80e36c46bf41", "rental_uris": {"ios": "https://dc.lft.to/lastmile_qr_scan", "android": "https://dc.lft.to/lastmile_qr_scan"}, "fusion_lon": 0.0, "lat": 38.92840066666667, "is_disabled": 0, "bike_id": "5af1e6888189954ff45d80e36c46bf41", "fusion_lat": 0.0, "is_reserved": 0, "lon": -77.03659333333333}, {"type": "electric_scooter", "name": "518d9955dda8436eba703033dc973960", "rental_uris": {"ios": "https://dc.lft.to/lastmile_qr_scan", "android": "https://dc.lft.to/lastmile_qr_scan"}, "fusion_lon": 0.0, "lat": 38.90764866666667, "is_disabled": 0, "bike_id": "518d9955dda8436eba703033dc973960", "fusion_lat": 0.0, "is_reserved": 0, "lon": -77.04230183333334}, {"type": "electric_scooter", "name": "2fe336ff02115a25f8e5259ece65b316", "rental_uris": {"ios": "https://dc.lft.to/lastmile_qr_scan", "android": "https://dc.lft.to/lastmile_qr_scan"}, "fusion_lon": 0.0, "lat": 38.864722666666665, "is_disabled": 0, "bike_id": "2fe336ff02115a25f8e5259ece65b316", "fusion_lat": 0.0, "is_reserved": 0, "lon": -76.98230966666667}, {"type": "electric_scooter", "name": "9376ce337ceca7d2249d84da7f80935e", "rental_uris": {"ios": "https://dc.lft.to/lastmile_qr_scan", "android": "https://dc.lft.to/lastmile_qr_scan"}, "fusion_lon": 0.0, "lat": 38.901407666666664, "is_disabled": 0, "bike_id": "9376ce337ceca7d2249d84da7f80935e", "fusion_lat": 0.0, "is_reserved": 0, "lon": -76.989633}, {"type": "electric_scooter", "name": "fb5b9f8fb6f5e7af482a34bbb61dd1ea", "rental_uris": {"ios": "https://dc.lft.to/lastmile_qr_scan", "android": "https://dc.lft.to/lastmile_qr_scan"}, "fusion_lon": 0.0, "lat": 38.91014233333333, "is_disabled": 0, "bike_id": "fb5b9f8fb6f5e7af482a34bbb61dd1ea", "fusion_lat": 0.0, "is_reserved": 0, "lon": -77.022217}, {"type": "electric_scooter", "name": "6d35589512e1b678deede43e9cf4dbb7", "rental_uris": {"ios": "https://dc.lft.to/lastmile_qr_scan", "android": "https://dc.lft.to/lastmile_qr_scan"}, "fusion_lon": 0.0, "lat": 38.86168283333333, "is_disabled": 0, "bike_id": "6d35589512e1b678deede43e9cf4dbb7", "fusion_lat": 0.0, "is_reserved": 0, "lon": -76.99702833333333}, {"type": "electric_scooter", "name": "758c45b42a0331623ea704a19538c559", "rental_uris": {"ios": "https://dc.lft.to/lastmile_qr_scan", "android": "https://dc.lft.to/lastmile_qr_scan"}, "fusion_lon": 0.0, "lat": 38.88445633333333, "is_disabled": 0, "bike_id": "758c45b42a0331623ea704a19538c559", "fusion_lat": 0.0, "is_reserved": 0, "lon": -76.99630333333333}, {"type": "electric_scooter", "name": "e694713efa221c1806316b5dd2424e5b", "rental_uris": {"ios": "https://dc.lft.to/lastmile_qr_scan", "android": "https://dc.lft.to/lastmile_qr_scan"}, "fusion_lon": 0.0, "lat": 38.900134666666666, "is_disabled": 0, "bike_id": "e694713efa221c1806316b5dd2424e5b", "fusion_lat": 0.0, "is_reserved": 0, "lon": -77.02700116666666}, {"type": "electric_scooter", "name": "9bd0c0554494651001f2850cdb7d4d38", "rental_uris": {"ios": "https://dc.lft.to/lastmile_qr_scan", "android": "https://dc.lft.to/lastmile_qr_scan"}, "fusion_lon": 0.0, "lat": 38.8984675, "is_disabled": 0, "bike_id": "9bd0c0554494651001f2850cdb7d4d38", "fusion_lat": 0.0, "is_reserved": 0, "lon": -77.00734866666667}, {"type": "electric_scooter", "name": "a6b489ef833f2ccffb607b39aa3e0c02", "rental_uris": {"ios": "https://dc.lft.to/lastmile_qr_scan", "android": "https://dc.lft.to/lastmile_qr_scan"}, "fusion_lon": 0.0, "lat": 38.920443, "is_disabled": 0, "bike_id": "a6b489ef833f2ccffb607b39aa3e0c02", "fusion_lat": 0.0, "is_reserved": 0, "lon": -77.017893}, {"type": "electric_scooter", "name": "910164787d1c4d67d4efa12a24d645cf", "rental_uris": {"ios": "https://dc.lft.to/lastmile_qr_scan", "android": "https://dc.lft.to/lastmile_qr_scan"}, "fusion_lon": 0.0, "lat": 38.88735716666667, "is_disabled": 0, "bike_id": "910164787d1c4d67d4efa12a24d645cf", "fusion_lat": 0.0, "is_reserved": 0, "lon": -77.02581683333334}, {"type": "electric_scooter", "name": "5f104d431e69f74d985c7d2bbeaf2b27", "rental_uris": {"ios": "https://dc.lft.to/lastmile_qr_scan", "android": "https://dc.lft.to/lastmile_qr_scan"}, "fusion_lon": 0.0, "lat": 38.9017935, "is_disabled": 0, "bike_id": "5f104d431e69f74d985c7d2bbeaf2b27", "fusion_lat": 0.0, "is_reserved": 0, "lon": -76.94146233333333}, {"type": "electric_scooter", "name": "86c0926ac2538e0e589ce3925ac9d584", "rental_uris": {"ios": "https://dc.lft.to/lastmile_qr_scan", "android": "https://dc.lft.to/lastmile_qr_scan"}, "fusion_lon": 0.0, "lat": 38.9221725, "is_disabled": 0, "bike_id": "86c0926ac2538e0e589ce3925ac9d584", "fusion_lat": 0.0, "is_reserved": 0, "lon": -77.035138}, {"type": "electric_scooter", "name": "60ab411d334302115d03e3ce89d9bd2b", "rental_uris": {"ios": "https://dc.lft.to/lastmile_qr_scan", "android": "https://dc.lft.to/lastmile_qr_scan"}, "fusion_lon": 0.0, "lat": 38.9185025, "is_disabled": 0, "bike_id": "60ab411d334302115d03e3ce89d9bd2b", "fusion_lat": 0.0, "is_reserved": 0, "lon": -77.01356966666667}, {"type": "electric_scooter", "name": "beeacbb9e770da8ff941d2ea8d67fc7c", "rental_uris": {"ios": "https://dc.lft.to/lastmile_qr_scan", "android": "https://dc.lft.to/lastmile_qr_scan"}, "fusion_lon": 0.0, "lat": 38.89618266666667, "is_disabled": 0, "bike_id": "beeacbb9e770da8ff941d2ea8d67fc7c", "fusion_lat": 0.0, "is_reserved": 0, "lon": -76.9797165}, {"type": "electric_scooter", "name": "5095e18dec71848aef5fe3ab88835bf1", "rental_uris": {"ios": "https://dc.lft.to/lastmile_qr_scan", "android": "https://dc.lft.to/lastmile_qr_scan"}, "fusion_lon": 0.0, "lat": 38.92048966666667, "is_disabled": 0, "bike_id": "5095e18dec71848aef5fe3ab88835bf1", "fusion_lat": 0.0, "is_reserved": 0, "lon": -77.0257715}, {"type": "electric_scooter", "name": "2e2e65277ff60de568a14cb78cfb9603", "rental_uris": {"ios": "https://dc.lft.to/lastmile_qr_scan", "android": "https://dc.lft.to/lastmile_qr_scan"}, "fusion_lon": 0.0, "lat": 38.90108333333333, "is_disabled": 0, "bike_id": "2e2e65277ff60de568a14cb78cfb9603", "fusion_lat": 0.0, "is_reserved": 0, "lon": -77.03630616666666}, {"type": "electric_scooter", "name": "85c285892fb39dc28bab03e4da03db55", "rental_uris": {"ios": "https://dc.lft.to/lastmile_qr_scan", "android": "https://dc.lft.to/lastmile_qr_scan"}, "fusion_lon": 0.0, "lat": 38.89619533333333, "is_disabled": 0, "bike_id": "85c285892fb39dc28bab03e4da03db55", "fusion_lat": 0.0, "is_reserved": 0, "lon": -76.993328}, {"type": "electric_scooter", "name": "eb56d1684351489c15e7483d52ac4b80", "rental_uris": {"ios": "https://dc.lft.to/lastmile_qr_scan", "android": "https://dc.lft.to/lastmile_qr_scan"}, "fusion_lon": 0.0, "lat": 38.90961466666667, "is_disabled": 0, "bike_id": "eb56d1684351489c15e7483d52ac4b80", "fusion_lat": 0.0, "is_reserved": 0, "lon": -77.02278233333334}, {"type": "electric_scooter", "name": "b02942e7a3e4baaed5821a7baa4604b3", "rental_uris": {"ios": "https://dc.lft.to/lastmile_qr_scan", "android": "https://dc.lft.to/lastmile_qr_scan"}, "fusion_lon": 0.0, "lat": 38.909135, "is_disabled": 0, "bike_id": "b02942e7a3e4baaed5821a7baa4604b3", "fusion_lat": 0.0, "is_reserved": 0, "lon": -76.986335}, {"type": "electric_scooter", "name": "dc8bf6bf87c6070b1712c0b3f549a919", "rental_uris": {"ios": "https://dc.lft.to/lastmile_qr_scan", "android": "https://dc.lft.to/lastmile_qr_scan"}, "fusion_lon": 0.0, "lat": 38.895286166666665, "is_disabled": 0, "bike_id": "dc8bf6bf87c6070b1712c0b3f549a919", "fusion_lat": 0.0, "is_reserved": 0, "lon": -77.00202583333333}, {"type": "electric_scooter", "name": "2b1dd0db09ee52b87cbf7ad77fc1b273", "rental_uris": {"ios": "https://dc.lft.to/lastmile_qr_scan", "android": "https://dc.lft.to/lastmile_qr_scan"}, "fusion_lon": 0.0, "lat": 38.92040516666667, "is_disabled": 0, "bike_id": "2b1dd0db09ee52b87cbf7ad77fc1b273", "fusion_lat": 0.0, "is_reserved": 0, "lon": -77.01791166666666}, {"type": "electric_bike", "name": "030254c1455d6789ab721846933d150d", "rental_uris": {"ios": "https://dc.lft.to/lastmile_qr_scan", "android": "https://dc.lft.to/lastmile_qr_scan"}, "fusion_lon": 0.0, "lat": 39.014167666666665, "is_disabled": 0, "bike_id": "030254c1455d6789ab721846933d150d", "fusion_lat": 0.0, "is_reserved": 0, "lon": -77.04496716666667}, {"type": "electric_scooter", "name": "bf08d03b0365d6378ef7c5610ef7f662", "rental_uris": {"ios": "https://dc.lft.to/lastmile_qr_scan", "android": "https://dc.lft.to/lastmile_qr_scan"}, "fusion_lon": 0.0, "lat": 38.914278333333336, "is_disabled": 0, "bike_id": "bf08d03b0365d6378ef7c5610ef7f662", "fusion_lat": 0.0, "is_reserved": 0, "lon": -77.03926833333334}, {"type": "electric_scooter", "name": "c966ab985ea5bd8c5aa620d51398f3af", "rental_uris": {"ios": "https://dc.lft.to/lastmile_qr_scan", "android": "https://dc.lft.to/lastmile_qr_scan"}, "fusion_lon": 0.0, "lat": 38.885076833333336, "is_disabled": 0, "bike_id": "c966ab985ea5bd8c5aa620d51398f3af", "fusion_lat": 0.0, "is_reserved": 0, "lon": -76.997511}, {"type": "electric_bike", "name": "83f3c86d4ad1d37fcc30624447415a43", "rental_uris": {"ios": "https://dc.lft.to/lastmile_qr_scan", "android": "https://dc.lft.to/lastmile_qr_scan"}, "fusion_lon": 0.0, "lat": 38.85790266666667, "is_disabled": 0, "bike_id": "83f3c86d4ad1d37fcc30624447415a43", "fusion_lat": 0.0, "is_reserved": 0, "lon": -77.09966333333334}, {"type": "electric_bike", "name": "c571c99915fa6895d1cdd77caa3c5650", "rental_uris": {"ios": "https://dc.lft.to/lastmile_qr_scan", "android": "https://dc.lft.to/lastmile_qr_scan"}, "fusion_lon": 0.0, "lat": 38.93048983333333, "is_disabled": 0, "bike_id": "c571c99915fa6895d1cdd77caa3c5650", "fusion_lat": 0.0, "is_reserved": 0, "lon": -76.95838}, {"type": "electric_scooter", "name": "dc59f9d8c6d7970a81bdcf8134adca49", "rental_uris": {"ios": "https://dc.lft.to/lastmile_qr_scan", "android": "https://dc.lft.to/lastmile_qr_scan"}, "fusion_lon": 0.0, "lat": 38.917755166666666, "is_disabled": 0, "bike_id": "dc59f9d8c6d7970a81bdcf8134adca49", "fusion_lat": 0.0, "is_reserved": 0, "lon": -77.019156}, {"type": "electric_bike", "name": "442f41a4bedeeabf0f9b457fd0016952", "rental_uris": {"ios": "https://dc.lft.to/lastmile_qr_scan", "android": "https://dc.lft.to/lastmile_qr_scan"}, "fusion_lon": 0.0, "lat": 38.81607016666667, "is_disabled": 0, "bike_id": "442f41a4bedeeabf0f9b457fd0016952", "fusion_lat": 0.0, "is_reserved": 0, "lon": -76.99659716666666}, {"type": "electric_scooter", "name": "0c4a2bb34709e6ea0fa61f5037a1a9c3", "rental_uris": {"ios": "https://dc.lft.to/lastmile_qr_scan", "android": "https://dc.lft.to/lastmile_qr_scan"}, "fusion_lon": 0.0, "lat": 38.90673566666667, "is_disabled": 0, "bike_id": "0c4a2bb34709e6ea0fa61f5037a1a9c3", "fusion_lat": 0.0, "is_reserved": 0, "lon": -77.07131266666667}, {"type": "electric_scooter", "name": "091e92f444ca387b82895ffa0f16735b", "rental_uris": {"ios": "https://dc.lft.to/lastmile_qr_scan", "android": "https://dc.lft.to/lastmile_qr_scan"}, "fusion_lon": 0.0, "lat": 38.882869166666666, "is_disabled": 0, "bike_id": "091e92f444ca387b82895ffa0f16735b", "fusion_lat": 0.0, "is_reserved": 0, "lon": -77.01368733333334}, {"type": "electric_scooter", "name": "0f9a80f78903b0c94f26c70bc1a036f7", "rental_uris": {"ios": "https://dc.lft.to/lastmile_qr_scan", "android": "https://dc.lft.to/lastmile_qr_scan"}, "fusion_lon": 0.0, "lat": 38.91928133333333, "is_disabled": 0, "bike_id": "0f9a80f78903b0c94f26c70bc1a036f7", "fusion_lat": 0.0, "is_reserved": 0, "lon": -77.02412566666666}, {"type": "electric_scooter", "name": "f031d6a25294206ca5c3e89cea79a8d3", "rental_uris": {"ios": "https://dc.lft.to/lastmile_qr_scan", "android": "https://dc.lft.to/lastmile_qr_scan"}, "fusion_lon": 0.0, "lat": 38.911132, "is_disabled": 0, "bike_id": "f031d6a25294206ca5c3e89cea79a8d3", "fusion_lat": 0.0, "is_reserved": 0, "lon": -77.03740883333333}, {"type": "electric_bike", "name": "e60dc9a70f5e7e1833faef5e3d3419af", "rental_uris": {"ios": "https://dc.lft.to/lastmile_qr_scan", "android": "https://dc.lft.to/lastmile_qr_scan"}, "fusion_lon": 0.0, "lat": 39.03424966666667, "is_disabled": 0, "bike_id": "e60dc9a70f5e7e1833faef5e3d3419af", "fusion_lat": 0.0, "is_reserved": 0, "lon": -77.0430535}, {"type": "electric_scooter", "name": "d0d49f794c8bdbe59438198908c37bf4", "rental_uris": {"ios": "https://dc.lft.to/lastmile_qr_scan", "android": "https://dc.lft.to/lastmile_qr_scan"}, "fusion_lon": 0.0, "lat": 38.898341, "is_disabled": 0, "bike_id": "d0d49f794c8bdbe59438198908c37bf4", "fusion_lat": 0.0, "is_reserved": 0, "lon": -77.03172916666666}, {"type": "electric_scooter", "name": "d8ce036e299aa6da8be6cc3ca27dd9b7", "rental_uris": {"ios": "https://dc.lft.to/lastmile_qr_scan", "android": "https://dc.lft.to/lastmile_qr_scan"}, "fusion_lon": 0.0, "lat": 38.935678, "is_disabled": 0, "bike_id": "d8ce036e299aa6da8be6cc3ca27dd9b7", "fusion_lat": 0.0, "is_reserved": 0, "lon": -77.0821655}, {"type": "electric_scooter", "name": "c032be41c5226ba0b2ea7d747fb96910", "rental_uris": {"ios": "https://dc.lft.to/lastmile_qr_scan", "android": "https://dc.lft.to/lastmile_qr_scan"}, "fusion_lon": 0.0, "lat": 38.923257666666665, "is_disabled": 0, "bike_id": "c032be41c5226ba0b2ea7d747fb96910", "fusion_lat": 0.0, "is_reserved": 0, "lon": -77.02968683333333}, {"type": "electric_scooter", "name": "eb6745bdbcfe58899223352cca47d90e", "rental_uris": {"ios": "https://dc.lft.to/lastmile_qr_scan", "android": "https://dc.lft.to/lastmile_qr_scan"}, "fusion_lon": 0.0, "lat": 38.9254115, "is_disabled": 0, "bike_id": "eb6745bdbcfe58899223352cca47d90e", "fusion_lat": 0.0, "is_reserved": 0, "lon": -77.03382}, {"type": "electric_scooter", "name": "c1453578c05149cb23f51300fe02e52a", "rental_uris": {"ios": "https://dc.lft.to/lastmile_qr_scan", "android": "https://dc.lft.to/lastmile_qr_scan"}, "fusion_lon": 0.0, "lat": 38.904039, "is_disabled": 0, "bike_id": "c1453578c05149cb23f51300fe02e52a", "fusion_lat": 0.0, "is_reserved": 0, "lon": -77.0651855}, {"type": "electric_scooter", "name": "37b2308b55496043e0f2ff41303a9485", "rental_uris": {"ios": "https://dc.lft.to/lastmile_qr_scan", "android": "https://dc.lft.to/lastmile_qr_scan"}, "fusion_lon": 0.0, "lat": 38.917059, "is_disabled": 0, "bike_id": "37b2308b55496043e0f2ff41303a9485", "fusion_lat": 0.0, "is_reserved": 0, "lon": -77.040408}, {"type": "electric_scooter", "name": "941454737bc98b9db3f74a7409ba271f", "rental_uris": {"ios": "https://dc.lft.to/lastmile_qr_scan", "android": "https://dc.lft.to/lastmile_qr_scan"}, "fusion_lon": 0.0, "lat": 38.91265, "is_disabled": 0, "bike_id": "941454737bc98b9db3f74a7409ba271f", "fusion_lat": 0.0, "is_reserved": 0, "lon": -77.0221065}, {"type": "electric_scooter", "name": "046566369d5092b2e7805a6604ade625", "rental_uris": {"ios": "https://dc.lft.to/lastmile_qr_scan", "android": "https://dc.lft.to/lastmile_qr_scan"}, "fusion_lon": 0.0, "lat": 38.905145833333336, "is_disabled": 0, "bike_id": "046566369d5092b2e7805a6604ade625", "fusion_lat": 0.0, "is_reserved": 0, "lon": -77.06137716666667}, {"type": "electric_bike", "name": "6932faf1d5be16ca566a36f86c605366", "rental_uris": {"ios": "https://dc.lft.to/lastmile_qr_scan", "android": "https://dc.lft.to/lastmile_qr_scan"}, "fusion_lon": 0.0, "lat": 38.972565833333334, "is_disabled": 0, "bike_id": "6932faf1d5be16ca566a36f86c605366", "fusion_lat": 0.0, "is_reserved": 0, "lon": -76.992751}, {"type": "electric_scooter", "name": "974fd9bde59710bf3d87442eba28a7d2", "rental_uris": {"ios": "https://dc.lft.to/lastmile_qr_scan", "android": "https://dc.lft.to/lastmile_qr_scan"}, "fusion_lon": 0.0, "lat": 38.91716433333333, "is_disabled": 0, "bike_id": "974fd9bde59710bf3d87442eba28a7d2", "fusion_lat": 0.0, "is_reserved": 0, "lon": -77.02387083333333}, {"type": "electric_scooter", "name": "dc05421a4b1e9612de10f4a1a3312d13", "rental_uris": {"ios": "https://dc.lft.to/lastmile_qr_scan", "android": "https://dc.lft.to/lastmile_qr_scan"}, "fusion_lon": 0.0, "lat": 38.8968105, "is_disabled": 0, "bike_id": "dc05421a4b1e9612de10f4a1a3312d13", "fusion_lat": 0.0, "is_reserved": 0, "lon": -77.03217783333334}, {"type": "electric_scooter", "name": "4f3b6bcbc0db3aa644484b5ef5e264f2", "rental_uris": {"ios": "https://dc.lft.to/lastmile_qr_scan", "android": "https://dc.lft.to/lastmile_qr_scan"}, "fusion_lon": 0.0, "lat": 38.893314, "is_disabled": 0, "bike_id": "4f3b6bcbc0db3aa644484b5ef5e264f2", "fusion_lat": 0.0, "is_reserved": 0, "lon": -77.01958916666666}, {"type": "electric_scooter", "name": "81acd5f7d0e7d83b63805773419aefb6", "rental_uris": {"ios": "https://dc.lft.to/lastmile_qr_scan", "android": "https://dc.lft.to/lastmile_qr_scan"}, "fusion_lon": 0.0, "lat": 38.900248166666664, "is_disabled": 0, "bike_id": "81acd5f7d0e7d83b63805773419aefb6", "fusion_lat": 0.0, "is_reserved": 0, "lon": -76.98756066666667}, {"type": "electric_scooter", "name": "79dbc50fcb356bab3b814cd856f6a001", "rental_uris": {"ios": "https://dc.lft.to/lastmile_qr_scan", "android": "https://dc.lft.to/lastmile_qr_scan"}, "fusion_lon": 0.0, "lat": 38.884433, "is_disabled": 0, "bike_id": "79dbc50fcb356bab3b814cd856f6a001", "fusion_lat": 0.0, "is_reserved": 0, "lon": -77.01520066666667}, {"type": "electric_scooter", "name": "5194028ec8c9631d5ff408ccee7b4a66", "rental_uris": {"ios": "https://dc.lft.to/lastmile_qr_scan", "android": "https://dc.lft.to/lastmile_qr_scan"}, "fusion_lon": 0.0, "lat": 38.941343333333336, "is_disabled": 0, "bike_id": "5194028ec8c9631d5ff408ccee7b4a66", "fusion_lat": 0.0, "is_reserved": 0, "lon": -77.0154355}, {"type": "electric_scooter", "name": "b4243c8ecf726d38d7e3caa5ce4bf590", "rental_uris": {"ios": "https://dc.lft.to/lastmile_qr_scan", "android": "https://dc.lft.to/lastmile_qr_scan"}, "fusion_lon": 0.0, "lat": 38.9389975, "is_disabled": 0, "bike_id": "b4243c8ecf726d38d7e3caa5ce4bf590", "fusion_lat": 0.0, "is_reserved": 0, "lon": -77.03335333333334}, {"type": "electric_scooter", "name": "a0134fa79c7dec571cba10bba7d7c598", "rental_uris": {"ios": "https://dc.lft.to/lastmile_qr_scan", "android": "https://dc.lft.to/lastmile_qr_scan"}, "fusion_lon": 0.0, "lat": 38.9251835, "is_disabled": 0, "bike_id": "a0134fa79c7dec571cba10bba7d7c598", "fusion_lat": 0.0, "is_reserved": 0, "lon": -77.051303}, {"type": "electric_scooter", "name": "326d710408080af2288022b131619e1e", "rental_uris": {"ios": "https://dc.lft.to/lastmile_qr_scan", "android": "https://dc.lft.to/lastmile_qr_scan"}, "fusion_lon": 0.0, "lat": 38.92750233333334, "is_disabled": 0, "bike_id": "326d710408080af2288022b131619e1e", "fusion_lat": 0.0, "is_reserved": 0, "lon": -77.02536633333334}, {"type": "electric_scooter", "name": "2699bdad2256c30f525a349c7b420df3", "rental_uris": {"ios": "https://dc.lft.to/lastmile_qr_scan", "android": "https://dc.lft.to/lastmile_qr_scan"}, "fusion_lon": 0.0, "lat": 38.88732133333333, "is_disabled": 0, "bike_id": "2699bdad2256c30f525a349c7b420df3", "fusion_lat": 0.0, "is_reserved": 0, "lon": -77.0282925}, {"type": "electric_scooter", "name": "df709d21bc0dd676d2d68696281887f4", "rental_uris": {"ios": "https://dc.lft.to/lastmile_qr_scan", "android": "https://dc.lft.to/lastmile_qr_scan"}, "fusion_lon": 0.0, "lat": 38.947045333333335, "is_disabled": 0, "bike_id": "df709d21bc0dd676d2d68696281887f4", "fusion_lat": 0.0, "is_reserved": 0, "lon": -77.0194165}, {"type": "electric_scooter", "name": "bfc5a30e49ef3aa4d88102d5ddc27662", "rental_uris": {"ios": "https://dc.lft.to/lastmile_qr_scan", "android": "https://dc.lft.to/lastmile_qr_scan"}, "fusion_lon": 0.0, "lat": 38.923469, "is_disabled": 0, "bike_id": "bfc5a30e49ef3aa4d88102d5ddc27662", "fusion_lat": 0.0, "is_reserved": 0, "lon": -77.0511805}, {"type": "electric_scooter", "name": "08c076489ae56dbbe6fcd6079223306b", "rental_uris": {"ios": "https://dc.lft.to/lastmile_qr_scan", "android": "https://dc.lft.to/lastmile_qr_scan"}, "fusion_lon": 0.0, "lat": 38.906943, "is_disabled": 0, "bike_id": "08c076489ae56dbbe6fcd6079223306b", "fusion_lat": 0.0, "is_reserved": 0, "lon": -77.03600083333333}, {"type": "electric_scooter", "name": "e9a8b4cf12afcf0c975957d25763fa72", "rental_uris": {"ios": "https://dc.lft.to/lastmile_qr_scan", "android": "https://dc.lft.to/lastmile_qr_scan"}, "fusion_lon": 0.0, "lat": 38.910672, "is_disabled": 0, "bike_id": "e9a8b4cf12afcf0c975957d25763fa72", "fusion_lat": 0.0, "is_reserved": 0, "lon": -77.03027216666666}, {"type": "electric_scooter", "name": "1d16f2b80d7f3ec0ea9ca8a24a094dcb", "rental_uris": {"ios": "https://dc.lft.to/lastmile_qr_scan", "android": "https://dc.lft.to/lastmile_qr_scan"}, "fusion_lon": 0.0, "lat": 38.901366333333335, "is_disabled": 0, "bike_id": "1d16f2b80d7f3ec0ea9ca8a24a094dcb", "fusion_lat": 0.0, "is_reserved": 0, "lon": -77.04450183333333}, {"type": "electric_scooter", "name": "f5e892ae26f63aedf75caa0e3af095de", "rental_uris": {"ios": "https://dc.lft.to/lastmile_qr_scan", "android": "https://dc.lft.to/lastmile_qr_scan"}, "fusion_lon": 0.0, "lat": 38.8953545, "is_disabled": 0, "bike_id": "f5e892ae26f63aedf75caa0e3af095de", "fusion_lat": 0.0, "is_reserved": 0, "lon": -76.94893716666667}, {"type": "electric_scooter", "name": "64e3f8268a45777efaf2855264300a32", "rental_uris": {"ios": "https://dc.lft.to/lastmile_qr_scan", "android": "https://dc.lft.to/lastmile_qr_scan"}, "fusion_lon": 0.0, "lat": 38.91103116666667, "is_disabled": 0, "bike_id": "64e3f8268a45777efaf2855264300a32", "fusion_lat": 0.0, "is_reserved": 0, "lon": -77.02805516666666}, {"type": "electric_bike", "name": "a1e4b4e3d7b3329068722433191a9f41", "rental_uris": {"ios": "https://dc.lft.to/lastmile_qr_scan", "android": "https://dc.lft.to/lastmile_qr_scan"}, "fusion_lon": 0.0, "lat": 38.798563333333334, "is_disabled": 0, "bike_id": "a1e4b4e3d7b3329068722433191a9f41", "fusion_lat": 0.0, "is_reserved": 0, "lon": -77.06307}, {"type": "electric_bike", "name": "3cbb30cce49bfd37bdd7c2d7baf4d2f9", "rental_uris": {"ios": "https://dc.lft.to/lastmile_qr_scan", "android": "https://dc.lft.to/lastmile_qr_scan"}, "fusion_lon": 0.0, "lat": 38.94425416666667, "is_disabled": 0, "bike_id": "3cbb30cce49bfd37bdd7c2d7baf4d2f9", "fusion_lat": 0.0, "is_reserved": 0, "lon": -77.02597833333333}, {"type": "electric_scooter", "name": "a5a0a07d6282f92636e1cc5b040e476a", "rental_uris": {"ios": "https://dc.lft.to/lastmile_qr_scan", "android": "https://dc.lft.to/lastmile_qr_scan"}, "fusion_lon": 0.0, "lat": 38.879915833333335, "is_disabled": 0, "bike_id": "a5a0a07d6282f92636e1cc5b040e476a", "fusion_lat": 0.0, "is_reserved": 0, "lon": -77.0240915}, {"type": "electric_scooter", "name": "d0690696c3868a68512be119a09fe84d", "rental_uris": {"ios": "https://dc.lft.to/lastmile_qr_scan", "android": "https://dc.lft.to/lastmile_qr_scan"}, "fusion_lon": 0.0, "lat": 38.85796533333333, "is_disabled": 0, "bike_id": "d0690696c3868a68512be119a09fe84d", "fusion_lat": 0.0, "is_reserved": 0, "lon": -76.98909566666667}, {"type": "electric_scooter", "name": "4d708b8032f1fe13fa5dbcf10014d469", "rental_uris": {"ios": "https://dc.lft.to/lastmile_qr_scan", "android": "https://dc.lft.to/lastmile_qr_scan"}, "fusion_lon": 0.0, "lat": 38.911168333333336, "is_disabled": 0, "bike_id": "4d708b8032f1fe13fa5dbcf10014d469", "fusion_lat": 0.0, "is_reserved": 0, "lon": -77.02231966666666}, {"type": "electric_scooter", "name": "285ef490f24df2ce80c6465749e8f200", "rental_uris": {"ios": "https://dc.lft.to/lastmile_qr_scan", "android": "https://dc.lft.to/lastmile_qr_scan"}, "fusion_lon": 0.0, "lat": 38.91702933333333, "is_disabled": 0, "bike_id": "285ef490f24df2ce80c6465749e8f200", "fusion_lat": 0.0, "is_reserved": 0, "lon": -77.03145983333333}, {"type": "electric_scooter", "name": "d4e9d6c03ed24d205ae8ac43cf960285", "rental_uris": {"ios": "https://dc.lft.to/lastmile_qr_scan", "android": "https://dc.lft.to/lastmile_qr_scan"}, "fusion_lon": 0.0, "lat": 38.915289, "is_disabled": 0, "bike_id": "d4e9d6c03ed24d205ae8ac43cf960285", "fusion_lat": 0.0, "is_reserved": 0, "lon": -77.01220183333334}, {"type": "electric_bike", "name": "316985d9a1bf7f900e771e7039f3ab21", "rental_uris": {"ios": "https://dc.lft.to/lastmile_qr_scan", "android": "https://dc.lft.to/lastmile_qr_scan"}, "fusion_lon": 0.0, "lat": 38.857705333333335, "is_disabled": 0, "bike_id": "316985d9a1bf7f900e771e7039f3ab21", "fusion_lat": 0.0, "is_reserved": 0, "lon": -76.987586}, {"type": "electric_scooter", "name": "f54c1200c0b0161294ea80cceadacb40", "rental_uris": {"ios": "https://dc.lft.to/lastmile_qr_scan", "android": "https://dc.lft.to/lastmile_qr_scan"}, "fusion_lon": 0.0, "lat": 38.90501, "is_disabled": 0, "bike_id": "f54c1200c0b0161294ea80cceadacb40", "fusion_lat": 0.0, "is_reserved": 0, "lon": -77.00096966666666}, {"type": "electric_scooter", "name": "2c130c1a6c6e0681ffd88d51d4415a8e", "rental_uris": {"ios": "https://dc.lft.to/lastmile_qr_scan", "android": "https://dc.lft.to/lastmile_qr_scan"}, "fusion_lon": 0.0, "lat": 38.92494583333333, "is_disabled": 0, "bike_id": "2c130c1a6c6e0681ffd88d51d4415a8e", "fusion_lat": 0.0, "is_reserved": 0, "lon": -77.02151233333333}, {"type": "electric_scooter", "name": "f12a13a8b025144106fab5770701ef2e", "rental_uris": {"ios": "https://dc.lft.to/lastmile_qr_scan", "android": "https://dc.lft.to/lastmile_qr_scan"}, "fusion_lon": 0.0, "lat": 38.94754416666667, "is_disabled": 0, "bike_id": "f12a13a8b025144106fab5770701ef2e", "fusion_lat": 0.0, "is_reserved": 0, "lon": -77.007232}, {"type": "electric_scooter", "name": "3ba25dd18ccb7c81b3a7726ced7798fa", "rental_uris": {"ios": "https://dc.lft.to/lastmile_qr_scan", "android": "https://dc.lft.to/lastmile_qr_scan"}, "fusion_lon": 0.0, "lat": 38.939549, "is_disabled": 0, "bike_id": "3ba25dd18ccb7c81b3a7726ced7798fa", "fusion_lat": 0.0, "is_reserved": 0, "lon": -77.085955}, {"type": "electric_scooter", "name": "8b6f2d751cf6d2f5997137003681d76f", "rental_uris": {"ios": "https://dc.lft.to/lastmile_qr_scan", "android": "https://dc.lft.to/lastmile_qr_scan"}, "fusion_lon": 0.0, "lat": 38.93592483333333, "is_disabled": 0, "bike_id": "8b6f2d751cf6d2f5997137003681d76f", "fusion_lat": 0.0, "is_reserved": 0, "lon": -77.02856816666667}, {"type": "electric_scooter", "name": "ae076b93553ae91648f6db97ecb3c714", "rental_uris": {"ios": "https://dc.lft.to/lastmile_qr_scan", "android": "https://dc.lft.to/lastmile_qr_scan"}, "fusion_lon": 0.0, "lat": 38.92556716666667, "is_disabled": 0, "bike_id": "ae076b93553ae91648f6db97ecb3c714", "fusion_lat": 0.0, "is_reserved": 0, "lon": -77.04064333333334}, {"type": "electric_scooter", "name": "358dd5d676849a27ca5a751380fe0745", "rental_uris": {"ios": "https://dc.lft.to/lastmile_qr_scan", "android": "https://dc.lft.to/lastmile_qr_scan"}, "fusion_lon": 0.0, "lat": 38.91394416666667, "is_disabled": 0, "bike_id": "358dd5d676849a27ca5a751380fe0745", "fusion_lat": 0.0, "is_reserved": 0, "lon": -77.04170866666666}, {"type": "electric_scooter", "name": "970003666c3b872c4f7d3dc852333665", "rental_uris": {"ios": "https://dc.lft.to/lastmile_qr_scan", "android": "https://dc.lft.to/lastmile_qr_scan"}, "fusion_lon": 0.0, "lat": 38.904737833333336, "is_disabled": 0, "bike_id": "970003666c3b872c4f7d3dc852333665", "fusion_lat": 0.0, "is_reserved": 0, "lon": -77.04865333333333}, {"type": "electric_bike", "name": "2203b19d9876bef9d9fcece18d3b19e5", "rental_uris": {"ios": "https://dc.lft.to/lastmile_qr_scan", "android": "https://dc.lft.to/lastmile_qr_scan"}, "fusion_lon": 0.0, "lat": 38.93559166666667, "is_disabled": 0, "bike_id": "2203b19d9876bef9d9fcece18d3b19e5", "fusion_lat": 0.0, "is_reserved": 0, "lon": -77.03707316666667}, {"type": "electric_scooter", "name": "c0ed074eb801dc337d35bd0797c5d570", "rental_uris": {"ios": "https://dc.lft.to/lastmile_qr_scan", "android": "https://dc.lft.to/lastmile_qr_scan"}, "fusion_lon": 0.0, "lat": 38.92442366666667, "is_disabled": 0, "bike_id": "c0ed074eb801dc337d35bd0797c5d570", "fusion_lat": 0.0, "is_reserved": 0, "lon": -77.05206183333334}, {"type": "electric_scooter", "name": "964649244fea37937505d3e9b69850df", "rental_uris": {"ios": "https://dc.lft.to/lastmile_qr_scan", "android": "https://dc.lft.to/lastmile_qr_scan"}, "fusion_lon": 0.0, "lat": 38.97238216666667, "is_disabled": 0, "bike_id": "964649244fea37937505d3e9b69850df", "fusion_lat": 0.0, "is_reserved": 0, "lon": -77.0271495}, {"type": "electric_scooter", "name": "90567c45aabe38e8914929827a2e29c0", "rental_uris": {"ios": "https://dc.lft.to/lastmile_qr_scan", "android": "https://dc.lft.to/lastmile_qr_scan"}, "fusion_lon": 0.0, "lat": 38.918073666666665, "is_disabled": 0, "bike_id": "90567c45aabe38e8914929827a2e29c0", "fusion_lat": 0.0, "is_reserved": 0, "lon": -77.03717583333334}, {"type": "electric_scooter", "name": "3c38681afd2dce0e873a4073b039fb43", "rental_uris": {"ios": "https://dc.lft.to/lastmile_qr_scan", "android": "https://dc.lft.to/lastmile_qr_scan"}, "fusion_lon": 0.0, "lat": 38.90275183333333, "is_disabled": 0, "bike_id": "3c38681afd2dce0e873a4073b039fb43", "fusion_lat": 0.0, "is_reserved": 0, "lon": -77.03864633333333}, {"type": "electric_scooter", "name": "d3b9ab69e9a808d28bd578f6be35b963", "rental_uris": {"ios": "https://dc.lft.to/lastmile_qr_scan", "android": "https://dc.lft.to/lastmile_qr_scan"}, "fusion_lon": 0.0, "lat": 38.87894266666667, "is_disabled": 0, "bike_id": "d3b9ab69e9a808d28bd578f6be35b963", "fusion_lat": 0.0, "is_reserved": 0, "lon": -77.01358383333333}, {"type": "electric_scooter", "name": "7085432102525658e4177176e6efeb32", "rental_uris": {"ios": "https://dc.lft.to/lastmile_qr_scan", "android": "https://dc.lft.to/lastmile_qr_scan"}, "fusion_lon": 0.0, "lat": 38.937362, "is_disabled": 0, "bike_id": "7085432102525658e4177176e6efeb32", "fusion_lat": 0.0, "is_reserved": 0, "lon": -77.03265383333333}, {"type": "electric_scooter", "name": "8aba25087461ec000014b0556300e0fc", "rental_uris": {"ios": "https://dc.lft.to/lastmile_qr_scan", "android": "https://dc.lft.to/lastmile_qr_scan"}, "fusion_lon": 0.0, "lat": 38.929645, "is_disabled": 0, "bike_id": "8aba25087461ec000014b0556300e0fc", "fusion_lat": 0.0, "is_reserved": 0, "lon": -77.030991}, {"type": "electric_scooter", "name": "ed4c7edfcd916aeaa11f64b373c44b2a", "rental_uris": {"ios": "https://dc.lft.to/lastmile_qr_scan", "android": "https://dc.lft.to/lastmile_qr_scan"}, "fusion_lon": 0.0, "lat": 38.93537116666667, "is_disabled": 0, "bike_id": "ed4c7edfcd916aeaa11f64b373c44b2a", "fusion_lat": 0.0, "is_reserved": 0, "lon": -77.02353816666667}, {"type": "electric_scooter", "name": "7ee7e05bb5c864465abb7e3c485bef84", "rental_uris": {"ios": "https://dc.lft.to/lastmile_qr_scan", "android": "https://dc.lft.to/lastmile_qr_scan"}, "fusion_lon": 0.0, "lat": 38.901765, "is_disabled": 0, "bike_id": "7ee7e05bb5c864465abb7e3c485bef84", "fusion_lat": 0.0, "is_reserved": 0, "lon": -77.02486866666666}, {"type": "electric_scooter", "name": "f095cc656caaa9461383f86231827f65", "rental_uris": {"ios": "https://dc.lft.to/lastmile_qr_scan", "android": "https://dc.lft.to/lastmile_qr_scan"}, "fusion_lon": 0.0, "lat": 38.90266916666667, "is_disabled": 0, "bike_id": "f095cc656caaa9461383f86231827f65", "fusion_lat": 0.0, "is_reserved": 0, "lon": -77.017817}, {"type": "electric_scooter", "name": "e4cbda115d69994845bc7876e826c96b", "rental_uris": {"ios": "https://dc.lft.to/lastmile_qr_scan", "android": "https://dc.lft.to/lastmile_qr_scan"}, "fusion_lon": 0.0, "lat": 38.9190715, "is_disabled": 0, "bike_id": "e4cbda115d69994845bc7876e826c96b", "fusion_lat": 0.0, "is_reserved": 0, "lon": -77.02760216666667}, {"type": "electric_scooter", "name": "b3beff7debbb46a042ef11248708be46", "rental_uris": {"ios": "https://dc.lft.to/lastmile_qr_scan", "android": "https://dc.lft.to/lastmile_qr_scan"}, "fusion_lon": 0.0, "lat": 38.904174166666664, "is_disabled": 0, "bike_id": "b3beff7debbb46a042ef11248708be46", "fusion_lat": 0.0, "is_reserved": 0, "lon": -77.048429}, {"type": "electric_scooter", "name": "3dfbce5c5831a6225e91911cb6f1f875", "rental_uris": {"ios": "https://dc.lft.to/lastmile_qr_scan", "android": "https://dc.lft.to/lastmile_qr_scan"}, "fusion_lon": 0.0, "lat": 38.938753, "is_disabled": 0, "bike_id": "3dfbce5c5831a6225e91911cb6f1f875", "fusion_lat": 0.0, "is_reserved": 0, "lon": -77.02460466666666}, {"type": "electric_scooter", "name": "e7fd08c7072ed5f22d57cfd2b8b6967e", "rental_uris": {"ios": "https://dc.lft.to/lastmile_qr_scan", "android": "https://dc.lft.to/lastmile_qr_scan"}, "fusion_lon": 0.0, "lat": 38.9451155, "is_disabled": 0, "bike_id": "e7fd08c7072ed5f22d57cfd2b8b6967e", "fusion_lat": 0.0, "is_reserved": 0, "lon": -77.03359166666667}, {"type": "electric_scooter", "name": "ceee77685a613694243931097859d1db", "rental_uris": {"ios": "https://dc.lft.to/lastmile_qr_scan", "android": "https://dc.lft.to/lastmile_qr_scan"}, "fusion_lon": 0.0, "lat": 38.9003205, "is_disabled": 0, "bike_id": "ceee77685a613694243931097859d1db", "fusion_lat": 0.0, "is_reserved": 0, "lon": -77.05826583333334}, {"type": "electric_scooter", "name": "d83d88bd01b87735846cb8b1a0c8a6e2", "rental_uris": {"ios": "https://dc.lft.to/lastmile_qr_scan", "android": "https://dc.lft.to/lastmile_qr_scan"}, "fusion_lon": 0.0, "lat": 38.9163785, "is_disabled": 0, "bike_id": "d83d88bd01b87735846cb8b1a0c8a6e2", "fusion_lat": 0.0, "is_reserved": 0, "lon": -77.04117233333334}, {"type": "electric_scooter", "name": "2b2a60ae5395abf752b45f342a8b5118", "rental_uris": {"ios": "https://dc.lft.to/lastmile_qr_scan", "android": "https://dc.lft.to/lastmile_qr_scan"}, "fusion_lon": 0.0, "lat": 38.9064355, "is_disabled": 0, "bike_id": "2b2a60ae5395abf752b45f342a8b5118", "fusion_lat": 0.0, "is_reserved": 0, "lon": -77.05326666666667}, {"type": "electric_scooter", "name": "62871682c5938385b89d42924e84abbc", "rental_uris": {"ios": "https://dc.lft.to/lastmile_qr_scan", "android": "https://dc.lft.to/lastmile_qr_scan"}, "fusion_lon": 0.0, "lat": 38.902199, "is_disabled": 0, "bike_id": "62871682c5938385b89d42924e84abbc", "fusion_lat": 0.0, "is_reserved": 0, "lon": -77.04064383333333}, {"type": "electric_scooter", "name": "93296d11ff0bc95df3629d5a5d44d612", "rental_uris": {"ios": "https://dc.lft.to/lastmile_qr_scan", "android": "https://dc.lft.to/lastmile_qr_scan"}, "fusion_lon": 0.0, "lat": 38.91711733333333, "is_disabled": 0, "bike_id": "93296d11ff0bc95df3629d5a5d44d612", "fusion_lat": 0.0, "is_reserved": 0, "lon": -77.03661933333333}, {"type": "electric_bike", "name": "e9781387bf4773c59ee092e0f4f65459", "rental_uris": {"ios": "https://dc.lft.to/lastmile_qr_scan", "android": "https://dc.lft.to/lastmile_qr_scan"}, "fusion_lon": 0.0, "lat": 38.79468816666667, "is_disabled": 0, "bike_id": "e9781387bf4773c59ee092e0f4f65459", "fusion_lat": 0.0, "is_reserved": 0, "lon": -76.99247916666667}, {"type": "electric_scooter", "name": "20386cd2c589a87422d1ae28f63de2a3", "rental_uris": {"ios": "https://dc.lft.to/lastmile_qr_scan", "android": "https://dc.lft.to/lastmile_qr_scan"}, "fusion_lon": 0.0, "lat": 38.86683383333333, "is_disabled": 0, "bike_id": "20386cd2c589a87422d1ae28f63de2a3", "fusion_lat": 0.0, "is_reserved": 0, "lon": -76.98503966666667}, {"type": "electric_scooter", "name": "06963079c19c07e5bc3e3515d6db5c47", "rental_uris": {"ios": "https://dc.lft.to/lastmile_qr_scan", "android": "https://dc.lft.to/lastmile_qr_scan"}, "fusion_lon": 0.0, "lat": 38.902432, "is_disabled": 0, "bike_id": "06963079c19c07e5bc3e3515d6db5c47", "fusion_lat": 0.0, "is_reserved": 0, "lon": -77.02604066666666}, {"type": "electric_bike", "name": "25f50e414f045f901048ed8854f2a9e3", "rental_uris": {"ios": "https://dc.lft.to/lastmile_qr_scan", "android": "https://dc.lft.to/lastmile_qr_scan"}, "fusion_lon": 0.0, "lat": 38.86406183333333, "is_disabled": 0, "bike_id": "25f50e414f045f901048ed8854f2a9e3", "fusion_lat": 0.0, "is_reserved": 0, "lon": -77.06327933333333}, {"type": "electric_scooter", "name": "7e7df09c1157160ccd2f21f21f232f42", "rental_uris": {"ios": "https://dc.lft.to/lastmile_qr_scan", "android": "https://dc.lft.to/lastmile_qr_scan"}, "fusion_lon": 0.0, "lat": 38.93301133333333, "is_disabled": 0, "bike_id": "7e7df09c1157160ccd2f21f21f232f42", "fusion_lat": 0.0, "is_reserved": 0, "lon": -77.021421}, {"type": "electric_scooter", "name": "e1eeac779ef1416082a1e7cc82c40968", "rental_uris": {"ios": "https://dc.lft.to/lastmile_qr_scan", "android": "https://dc.lft.to/lastmile_qr_scan"}, "fusion_lon": 0.0, "lat": 38.92065266666667, "is_disabled": 0, "bike_id": "e1eeac779ef1416082a1e7cc82c40968", "fusion_lat": 0.0, "is_reserved": 0, "lon": -77.02367666666666}, {"type": "electric_scooter", "name": "ddef2518455ea1bd45b04de42d86e514", "rental_uris": {"ios": "https://dc.lft.to/lastmile_qr_scan", "android": "https://dc.lft.to/lastmile_qr_scan"}, "fusion_lon": 0.0, "lat": 38.914297, "is_disabled": 0, "bike_id": "ddef2518455ea1bd45b04de42d86e514", "fusion_lat": 0.0, "is_reserved": 0, "lon": -77.0392925}, {"type": "electric_scooter", "name": "0843d6d2690dcae1eaaadf78e1e308ce", "rental_uris": {"ios": "https://dc.lft.to/lastmile_qr_scan", "android": "https://dc.lft.to/lastmile_qr_scan"}, "fusion_lon": 0.0, "lat": 38.905727666666664, "is_disabled": 0, "bike_id": "0843d6d2690dcae1eaaadf78e1e308ce", "fusion_lat": 0.0, "is_reserved": 0, "lon": -77.00580683333334}, {"type": "electric_bike", "name": "2b658c3cd5495be29981368349fb9ccd", "rental_uris": {"ios": "https://dc.lft.to/lastmile_qr_scan", "android": "https://dc.lft.to/lastmile_qr_scan"}, "fusion_lon": 0.0, "lat": 38.874911833333336, "is_disabled": 0, "bike_id": "2b658c3cd5495be29981368349fb9ccd", "fusion_lat": 0.0, "is_reserved": 0, "lon": -77.21123566666667}, {"type": "electric_scooter", "name": "c70c765371564c628cc919ada6b22ada", "rental_uris": {"ios": "https://dc.lft.to/lastmile_qr_scan", "android": "https://dc.lft.to/lastmile_qr_scan"}, "fusion_lon": 0.0, "lat": 38.918809333333336, "is_disabled": 0, "bike_id": "c70c765371564c628cc919ada6b22ada", "fusion_lat": 0.0, "is_reserved": 0, "lon": -77.0350865}, {"type": "electric_scooter", "name": "9af0083fd30c6f8062abc7815533ed0b", "rental_uris": {"ios": "https://dc.lft.to/lastmile_qr_scan", "android": "https://dc.lft.to/lastmile_qr_scan"}, "fusion_lon": 0.0, "lat": 38.897347833333335, "is_disabled": 0, "bike_id": "9af0083fd30c6f8062abc7815533ed0b", "fusion_lat": 0.0, "is_reserved": 0, "lon": -77.04546633333334}, {"type": "electric_scooter", "name": "7621ea08748dd26b9c2eb7afbc2b722b", "rental_uris": {"ios": "https://dc.lft.to/lastmile_qr_scan", "android": "https://dc.lft.to/lastmile_qr_scan"}, "fusion_lon": 0.0, "lat": 38.932689833333335, "is_disabled": 0, "bike_id": "7621ea08748dd26b9c2eb7afbc2b722b", "fusion_lat": 0.0, "is_reserved": 0, "lon": -77.02101283333333}, {"type": "electric_bike", "name": "3439e5e11678e32da2789580d2fba4ad", "rental_uris": {"ios": "https://dc.lft.to/lastmile_qr_scan", "android": "https://dc.lft.to/lastmile_qr_scan"}, "fusion_lon": 0.0, "lat": 38.879811833333335, "is_disabled": 0, "bike_id": "3439e5e11678e32da2789580d2fba4ad", "fusion_lat": 0.0, "is_reserved": 0, "lon": -76.91600583333333}, {"type": "electric_scooter", "name": "4eb7b13cfc790026178a8581cf698092", "rental_uris": {"ios": "https://dc.lft.to/lastmile_qr_scan", "android": "https://dc.lft.to/lastmile_qr_scan"}, "fusion_lon": 0.0, "lat": 38.917150166666666, "is_disabled": 0, "bike_id": "4eb7b13cfc790026178a8581cf698092", "fusion_lat": 0.0, "is_reserved": 0, "lon": -77.0229555}, {"type": "electric_scooter", "name": "ec422fa8ac1f96f27a92b5b78a83b8bc", "rental_uris": {"ios": "https://dc.lft.to/lastmile_qr_scan", "android": "https://dc.lft.to/lastmile_qr_scan"}, "fusion_lon": 0.0, "lat": 38.917041, "is_disabled": 0, "bike_id": "ec422fa8ac1f96f27a92b5b78a83b8bc", "fusion_lat": 0.0, "is_reserved": 0, "lon": -77.02293683333333}, {"type": "electric_bike", "name": "2809fb2d5809bbea37af6296e7bbfa5d", "rental_uris": {"ios": "https://dc.lft.to/lastmile_qr_scan", "android": "https://dc.lft.to/lastmile_qr_scan"}, "fusion_lon": 0.0, "lat": 38.93599433333333, "is_disabled": 0, "bike_id": "2809fb2d5809bbea37af6296e7bbfa5d", "fusion_lat": 0.0, "is_reserved": 0, "lon": -77.02118566666667}, {"type": "electric_scooter", "name": "2ea280f70c4d51d6cf6fd0a00318128f", "rental_uris": {"ios": "https://dc.lft.to/lastmile_qr_scan", "android": "https://dc.lft.to/lastmile_qr_scan"}, "fusion_lon": 0.0, "lat": 38.94358316666667, "is_disabled": 0, "bike_id": "2ea280f70c4d51d6cf6fd0a00318128f", "fusion_lat": 0.0, "is_reserved": 0, "lon": -77.06141283333334}, {"type": "electric_bike", "name": "4da88945df79245870687c75747d3f67", "rental_uris": {"ios": "https://dc.lft.to/lastmile_qr_scan", "android": "https://dc.lft.to/lastmile_qr_scan"}, "fusion_lon": 0.0, "lat": 38.896150666666664, "is_disabled": 0, "bike_id": "4da88945df79245870687c75747d3f67", "fusion_lat": 0.0, "is_reserved": 0, "lon": -76.90743333333333}, {"type": "electric_scooter", "name": "924d11c57ceaf940202bfe1ff69ea353", "rental_uris": {"ios": "https://dc.lft.to/lastmile_qr_scan", "android": "https://dc.lft.to/lastmile_qr_scan"}, "fusion_lon": 0.0, "lat": 38.91549166666667, "is_disabled": 0, "bike_id": "924d11c57ceaf940202bfe1ff69ea353", "fusion_lat": 0.0, "is_reserved": 0, "lon": -77.03845033333333}, {"type": "electric_scooter", "name": "421015640ce0981f5695578ea4113421", "rental_uris": {"ios": "https://dc.lft.to/lastmile_qr_scan", "android": "https://dc.lft.to/lastmile_qr_scan"}, "fusion_lon": 0.0, "lat": 38.91990466666667, "is_disabled": 0, "bike_id": "421015640ce0981f5695578ea4113421", "fusion_lat": 0.0, "is_reserved": 0, "lon": -77.0178345}, {"type": "electric_bike", "name": "e078bc38b3d77958a8f475f2a448c281", "rental_uris": {"ios": "https://dc.lft.to/lastmile_qr_scan", "android": "https://dc.lft.to/lastmile_qr_scan"}, "fusion_lon": 0.0, "lat": 38.8460955, "is_disabled": 0, "bike_id": "e078bc38b3d77958a8f475f2a448c281", "fusion_lat": 0.0, "is_reserved": 0, "lon": -76.96915216666666}, {"type": "electric_scooter", "name": "28390730cf9e0a95e968f03c4f9c880c", "rental_uris": {"ios": "https://dc.lft.to/lastmile_qr_scan", "android": "https://dc.lft.to/lastmile_qr_scan"}, "fusion_lon": 0.0, "lat": 38.9203015, "is_disabled": 0, "bike_id": "28390730cf9e0a95e968f03c4f9c880c", "fusion_lat": 0.0, "is_reserved": 0, "lon": -77.017909}, {"type": "electric_scooter", "name": "1f8b86c8b86bd68680bc814e431b0af6", "rental_uris": {"ios": "https://dc.lft.to/lastmile_qr_scan", "android": "https://dc.lft.to/lastmile_qr_scan"}, "fusion_lon": 0.0, "lat": 38.924169, "is_disabled": 0, "bike_id": "1f8b86c8b86bd68680bc814e431b0af6", "fusion_lat": 0.0, "is_reserved": 0, "lon": -77.044622}, {"type": "electric_scooter", "name": "ef569a387ed0c2838360ee997535ab50", "rental_uris": {"ios": "https://dc.lft.to/lastmile_qr_scan", "android": "https://dc.lft.to/lastmile_qr_scan"}, "fusion_lon": 0.0, "lat": 38.926798, "is_disabled": 0, "bike_id": "ef569a387ed0c2838360ee997535ab50", "fusion_lat": 0.0, "is_reserved": 0, "lon": -77.0148015}, {"type": "electric_scooter", "name": "70de96401888bad104ce9fefc728edf1", "rental_uris": {"ios": "https://dc.lft.to/lastmile_qr_scan", "android": "https://dc.lft.to/lastmile_qr_scan"}, "fusion_lon": 0.0, "lat": 38.92050066666667, "is_disabled": 0, "bike_id": "70de96401888bad104ce9fefc728edf1", "fusion_lat": 0.0, "is_reserved": 0, "lon": -77.0178975}, {"type": "electric_scooter", "name": "185115b59c946e4a2beff355c3e7e57b", "rental_uris": {"ios": "https://dc.lft.to/lastmile_qr_scan", "android": "https://dc.lft.to/lastmile_qr_scan"}, "fusion_lon": 0.0, "lat": 38.887192166666665, "is_disabled": 0, "bike_id": "185115b59c946e4a2beff355c3e7e57b", "fusion_lat": 0.0, "is_reserved": 0, "lon": -76.99691266666666}, {"type": "electric_scooter", "name": "5c2a7fba358688146692f2e43ad0c3aa", "rental_uris": {"ios": "https://dc.lft.to/lastmile_qr_scan", "android": "https://dc.lft.to/lastmile_qr_scan"}, "fusion_lon": 0.0, "lat": 38.932490333333334, "is_disabled": 0, "bike_id": "5c2a7fba358688146692f2e43ad0c3aa", "fusion_lat": 0.0, "is_reserved": 0, "lon": -77.03421233333333}, {"type": "electric_bike", "name": "14cc9a1552d8e913d31ba7faabe1e13a", "rental_uris": {"ios": "https://dc.lft.to/lastmile_qr_scan", "android": "https://dc.lft.to/lastmile_qr_scan"}, "fusion_lon": 0.0, "lat": 38.896158166666666, "is_disabled": 0, "bike_id": "14cc9a1552d8e913d31ba7faabe1e13a", "fusion_lat": 0.0, "is_reserved": 0, "lon": -76.90743166666667}, {"type": "electric_scooter", "name": "80f7aea61eb5585e14a8f7582af173a9", "rental_uris": {"ios": "https://dc.lft.to/lastmile_qr_scan", "android": "https://dc.lft.to/lastmile_qr_scan"}, "fusion_lon": 0.0, "lat": 38.92110666666667, "is_disabled": 0, "bike_id": "80f7aea61eb5585e14a8f7582af173a9", "fusion_lat": 0.0, "is_reserved": 0, "lon": -77.0240105}, {"type": "electric_scooter", "name": "534ce34b4c520d3db954b6b9aee1f696", "rental_uris": {"ios": "https://dc.lft.to/lastmile_qr_scan", "android": "https://dc.lft.to/lastmile_qr_scan"}, "fusion_lon": 0.0, "lat": 38.910356, "is_disabled": 0, "bike_id": "534ce34b4c520d3db954b6b9aee1f696", "fusion_lat": 0.0, "is_reserved": 0, "lon": -77.02931133333334}, {"type": "electric_scooter", "name": "cb3490cacf385cc24053e55becae38d9", "rental_uris": {"ios": "https://dc.lft.to/lastmile_qr_scan", "android": "https://dc.lft.to/lastmile_qr_scan"}, "fusion_lon": 0.0, "lat": 38.920504333333334, "is_disabled": 0, "bike_id": "cb3490cacf385cc24053e55becae38d9", "fusion_lat": 0.0, "is_reserved": 0, "lon": -77.041931}, {"type": "electric_scooter", "name": "a73b38414ade16ea6aafe266ba0745b3", "rental_uris": {"ios": "https://dc.lft.to/lastmile_qr_scan", "android": "https://dc.lft.to/lastmile_qr_scan"}, "fusion_lon": 0.0, "lat": 38.90613166666667, "is_disabled": 0, "bike_id": "a73b38414ade16ea6aafe266ba0745b3", "fusion_lat": 0.0, "is_reserved": 0, "lon": -77.0569545}, {"type": "electric_scooter", "name": "50156d552feb61dc3f8d277a996a14cd", "rental_uris": {"ios": "https://dc.lft.to/lastmile_qr_scan", "android": "https://dc.lft.to/lastmile_qr_scan"}, "fusion_lon": 0.0, "lat": 38.93148016666667, "is_disabled": 0, "bike_id": "50156d552feb61dc3f8d277a996a14cd", "fusion_lat": 0.0, "is_reserved": 0, "lon": -77.0418515}, {"type": "electric_bike", "name": "d2388f358cea56ca5a8a23791a63833b", "rental_uris": {"ios": "https://dc.lft.to/lastmile_qr_scan", "android": "https://dc.lft.to/lastmile_qr_scan"}, "fusion_lon": 0.0, "lat": 38.80449, "is_disabled": 0, "bike_id": "d2388f358cea56ca5a8a23791a63833b", "fusion_lat": 0.0, "is_reserved": 0, "lon": -77.053981}, {"type": "electric_scooter", "name": "10cf1331d7d0e370d71f99f5a4fead36", "rental_uris": {"ios": "https://dc.lft.to/lastmile_qr_scan", "android": "https://dc.lft.to/lastmile_qr_scan"}, "fusion_lon": 0.0, "lat": 38.898528, "is_disabled": 0, "bike_id": "10cf1331d7d0e370d71f99f5a4fead36", "fusion_lat": 0.0, "is_reserved": 0, "lon": -77.04140133333334}, {"type": "electric_scooter", "name": "9bc33395c026fb0303d15d02dd5b7963", "rental_uris": {"ios": "https://dc.lft.to/lastmile_qr_scan", "android": "https://dc.lft.to/lastmile_qr_scan"}, "fusion_lon": 0.0, "lat": 38.90233933333333, "is_disabled": 0, "bike_id": "9bc33395c026fb0303d15d02dd5b7963", "fusion_lat": 0.0, "is_reserved": 0, "lon": -77.03526633333334}, {"type": "electric_scooter", "name": "f9678fa08ff70f43d4f8a0d710dc4883", "rental_uris": {"ios": "https://dc.lft.to/lastmile_qr_scan", "android": "https://dc.lft.to/lastmile_qr_scan"}, "fusion_lon": 0.0, "lat": 38.897321833333336, "is_disabled": 0, "bike_id": "f9678fa08ff70f43d4f8a0d710dc4883", "fusion_lat": 0.0, "is_reserved": 0, "lon": -77.04851916666667}, {"type": "electric_scooter", "name": "1b7cfbb6253adf159eb9e0a84234f88b", "rental_uris": {"ios": "https://dc.lft.to/lastmile_qr_scan", "android": "https://dc.lft.to/lastmile_qr_scan"}, "fusion_lon": 0.0, "lat": 38.91566183333333, "is_disabled": 0, "bike_id": "1b7cfbb6253adf159eb9e0a84234f88b", "fusion_lat": 0.0, "is_reserved": 0, "lon": -77.03854416666667}, {"type": "electric_scooter", "name": "b2e0139260fb111344ab22471d342ef0", "rental_uris": {"ios": "https://dc.lft.to/lastmile_qr_scan", "android": "https://dc.lft.to/lastmile_qr_scan"}, "fusion_lon": 0.0, "lat": 38.90577283333333, "is_disabled": 0, "bike_id": "b2e0139260fb111344ab22471d342ef0", "fusion_lat": 0.0, "is_reserved": 0, "lon": -77.02208233333333}, {"type": "electric_scooter", "name": "3e3bc239b366f07c8ff2e8808f1d9ca3", "rental_uris": {"ios": "https://dc.lft.to/lastmile_qr_scan", "android": "https://dc.lft.to/lastmile_qr_scan"}, "fusion_lon": 0.0, "lat": 38.942727166666664, "is_disabled": 0, "bike_id": "3e3bc239b366f07c8ff2e8808f1d9ca3", "fusion_lat": 0.0, "is_reserved": 0, "lon": -77.03255783333333}, {"type": "electric_scooter", "name": "6fadb37dbeff32b43a89d4aef0eb113c", "rental_uris": {"ios": "https://dc.lft.to/lastmile_qr_scan", "android": "https://dc.lft.to/lastmile_qr_scan"}, "fusion_lon": 0.0, "lat": 38.920701, "is_disabled": 0, "bike_id": "6fadb37dbeff32b43a89d4aef0eb113c", "fusion_lat": 0.0, "is_reserved": 0, "lon": -77.037954}, {"type": "electric_scooter", "name": "2f510fb0ecd0824d51a751801183e54e", "rental_uris": {"ios": "https://dc.lft.to/lastmile_qr_scan", "android": "https://dc.lft.to/lastmile_qr_scan"}, "fusion_lon": 0.0, "lat": 38.9041025, "is_disabled": 0, "bike_id": "2f510fb0ecd0824d51a751801183e54e", "fusion_lat": 0.0, "is_reserved": 0, "lon": -76.97331933333334}, {"type": "electric_bike", "name": "dfd39d86471e18e05cd4b75f4d57aaf5", "rental_uris": {"ios": "https://dc.lft.to/lastmile_qr_scan", "android": "https://dc.lft.to/lastmile_qr_scan"}, "fusion_lon": 0.0, "lat": 38.920695, "is_disabled": 0, "bike_id": "dfd39d86471e18e05cd4b75f4d57aaf5", "fusion_lat": 0.0, "is_reserved": 0, "lon": -77.0241985}, {"type": "electric_scooter", "name": "587fd602037c8aa0a67e6c9f4bd6f31f", "rental_uris": {"ios": "https://dc.lft.to/lastmile_qr_scan", "android": "https://dc.lft.to/lastmile_qr_scan"}, "fusion_lon": 0.0, "lat": 38.8724505, "is_disabled": 0, "bike_id": "587fd602037c8aa0a67e6c9f4bd6f31f", "fusion_lat": 0.0, "is_reserved": 0, "lon": -76.97722933333333}, {"type": "electric_scooter", "name": "696f3430e04b5352cd3149b13e24034e", "rental_uris": {"ios": "https://dc.lft.to/lastmile_qr_scan", "android": "https://dc.lft.to/lastmile_qr_scan"}, "fusion_lon": 0.0, "lat": 38.9051875, "is_disabled": 0, "bike_id": "696f3430e04b5352cd3149b13e24034e", "fusion_lat": 0.0, "is_reserved": 0, "lon": -77.06315883333333}, {"type": "electric_scooter", "name": "cc3c26b3614ec4a241759d382593b433", "rental_uris": {"ios": "https://dc.lft.to/lastmile_qr_scan", "android": "https://dc.lft.to/lastmile_qr_scan"}, "fusion_lon": 0.0, "lat": 38.88487333333333, "is_disabled": 0, "bike_id": "cc3c26b3614ec4a241759d382593b433", "fusion_lat": 0.0, "is_reserved": 0, "lon": -77.007135}, {"type": "electric_bike", "name": "d2133d0df768bee5e403559281279a8c", "rental_uris": {"ios": "https://dc.lft.to/lastmile_qr_scan", "android": "https://dc.lft.to/lastmile_qr_scan"}, "fusion_lon": 0.0, "lat": 38.98765783333333, "is_disabled": 0, "bike_id": "d2133d0df768bee5e403559281279a8c", "fusion_lat": 0.0, "is_reserved": 0, "lon": -77.14055283333333}, {"type": "electric_bike", "name": "c1e28abbae777cc1d70076456f622492", "rental_uris": {"ios": "https://dc.lft.to/lastmile_qr_scan", "android": "https://dc.lft.to/lastmile_qr_scan"}, "fusion_lon": 0.0, "lat": 38.857867666666664, "is_disabled": 0, "bike_id": "c1e28abbae777cc1d70076456f622492", "fusion_lat": 0.0, "is_reserved": 0, "lon": -77.12019866666667}, {"type": "electric_scooter", "name": "245dc721722799b185b15fafe9651fb7", "rental_uris": {"ios": "https://dc.lft.to/lastmile_qr_scan", "android": "https://dc.lft.to/lastmile_qr_scan"}, "fusion_lon": 0.0, "lat": 38.92043866666667, "is_disabled": 0, "bike_id": "245dc721722799b185b15fafe9651fb7", "fusion_lat": 0.0, "is_reserved": 0, "lon": -77.02574833333334}, {"type": "electric_scooter", "name": "6b25493f3586665a370b40919e736ae4", "rental_uris": {"ios": "https://dc.lft.to/lastmile_qr_scan", "android": "https://dc.lft.to/lastmile_qr_scan"}, "fusion_lon": 0.0, "lat": 38.89522916666667, "is_disabled": 0, "bike_id": "6b25493f3586665a370b40919e736ae4", "fusion_lat": 0.0, "is_reserved": 0, "lon": -77.02593833333333}, {"type": "electric_scooter", "name": "ce9ce2c9676a22ecb5b2849d236762a6", "rental_uris": {"ios": "https://dc.lft.to/lastmile_qr_scan", "android": "https://dc.lft.to/lastmile_qr_scan"}, "fusion_lon": 0.0, "lat": 38.910379666666664, "is_disabled": 0, "bike_id": "ce9ce2c9676a22ecb5b2849d236762a6", "fusion_lat": 0.0, "is_reserved": 0, "lon": -77.03382616666667}, {"type": "electric_scooter", "name": "6beee32e071098272aef6754ee6045c5", "rental_uris": {"ios": "https://dc.lft.to/lastmile_qr_scan", "android": "https://dc.lft.to/lastmile_qr_scan"}, "fusion_lon": 0.0, "lat": 38.8762815, "is_disabled": 0, "bike_id": "6beee32e071098272aef6754ee6045c5", "fusion_lat": 0.0, "is_reserved": 0, "lon": -77.0059055}, {"type": "electric_scooter", "name": "8ba20a73cec453de473794ec0c1cf311", "rental_uris": {"ios": "https://dc.lft.to/lastmile_qr_scan", "android": "https://dc.lft.to/lastmile_qr_scan"}, "fusion_lon": 0.0, "lat": 38.916652166666665, "is_disabled": 0, "bike_id": "8ba20a73cec453de473794ec0c1cf311", "fusion_lat": 0.0, "is_reserved": 0, "lon": -77.027009}, {"type": "electric_scooter", "name": "37f668b183beeb27976f7fda6dc3a410", "rental_uris": {"ios": "https://dc.lft.to/lastmile_qr_scan", "android": "https://dc.lft.to/lastmile_qr_scan"}, "fusion_lon": 0.0, "lat": 38.898221666666664, "is_disabled": 0, "bike_id": "37f668b183beeb27976f7fda6dc3a410", "fusion_lat": 0.0, "is_reserved": 0, "lon": -77.03329866666667}, {"type": "electric_scooter", "name": "91d56319edc58f67ee41eabd4dda9548", "rental_uris": {"ios": "https://dc.lft.to/lastmile_qr_scan", "android": "https://dc.lft.to/lastmile_qr_scan"}, "fusion_lon": 0.0, "lat": 38.94064316666667, "is_disabled": 0, "bike_id": "91d56319edc58f67ee41eabd4dda9548", "fusion_lat": 0.0, "is_reserved": 0, "lon": -76.99938883333333}, {"type": "electric_bike", "name": "331af26cd5dd2a872c1c532c6960b1cf", "rental_uris": {"ios": "https://dc.lft.to/lastmile_qr_scan", "android": "https://dc.lft.to/lastmile_qr_scan"}, "fusion_lon": 0.0, "lat": 38.9922595, "is_disabled": 0, "bike_id": "331af26cd5dd2a872c1c532c6960b1cf", "fusion_lat": 0.0, "is_reserved": 0, "lon": -76.94401}, {"type": "electric_scooter", "name": "2604df825810a4e2a608531bd7789dc2", "rental_uris": {"ios": "https://dc.lft.to/lastmile_qr_scan", "android": "https://dc.lft.to/lastmile_qr_scan"}, "fusion_lon": 0.0, "lat": 38.91840933333334, "is_disabled": 0, "bike_id": "2604df825810a4e2a608531bd7789dc2", "fusion_lat": 0.0, "is_reserved": 0, "lon": -77.04031883333333}, {"type": "electric_bike", "name": "d41a956b159f69fae1d643381f779d2b", "rental_uris": {"ios": "https://dc.lft.to/lastmile_qr_scan", "android": "https://dc.lft.to/lastmile_qr_scan"}, "fusion_lon": 0.0, "lat": 38.925270833333336, "is_disabled": 0, "bike_id": "d41a956b159f69fae1d643381f779d2b", "fusion_lat": 0.0, "is_reserved": 0, "lon": -77.0789665}, {"type": "electric_scooter", "name": "d9f8c5ed758ea1d8b4432049fdd35c1a", "rental_uris": {"ios": "https://dc.lft.to/lastmile_qr_scan", "android": "https://dc.lft.to/lastmile_qr_scan"}, "fusion_lon": 0.0, "lat": 38.90258883333333, "is_disabled": 0, "bike_id": "d9f8c5ed758ea1d8b4432049fdd35c1a", "fusion_lat": 0.0, "is_reserved": 0, "lon": -77.04005316666667}, {"type": "electric_bike", "name": "b2dde04432367d682f6c5bf1f9cf1ae5", "rental_uris": {"ios": "https://dc.lft.to/lastmile_qr_scan", "android": "https://dc.lft.to/lastmile_qr_scan"}, "fusion_lon": 0.0, "lat": 38.855089666666665, "is_disabled": 0, "bike_id": "b2dde04432367d682f6c5bf1f9cf1ae5", "fusion_lat": 0.0, "is_reserved": 0, "lon": -77.12010566666666}, {"type": "electric_scooter", "name": "d5c63934518dc048a2e8b42b30ceb147", "rental_uris": {"ios": "https://dc.lft.to/lastmile_qr_scan", "android": "https://dc.lft.to/lastmile_qr_scan"}, "fusion_lon": 0.0, "lat": 38.96475366666667, "is_disabled": 0, "bike_id": "d5c63934518dc048a2e8b42b30ceb147", "fusion_lat": 0.0, "is_reserved": 0, "lon": -77.01197116666667}, {"type": "electric_scooter", "name": "1726c0779611dfe44c5ea91eb4c19896", "rental_uris": {"ios": "https://dc.lft.to/lastmile_qr_scan", "android": "https://dc.lft.to/lastmile_qr_scan"}, "fusion_lon": 0.0, "lat": 38.89219, "is_disabled": 0, "bike_id": "1726c0779611dfe44c5ea91eb4c19896", "fusion_lat": 0.0, "is_reserved": 0, "lon": -76.95706683333333}, {"type": "electric_scooter", "name": "9570a6f5ad6226de063d6a5b3aec8b74", "rental_uris": {"ios": "https://dc.lft.to/lastmile_qr_scan", "android": "https://dc.lft.to/lastmile_qr_scan"}, "fusion_lon": 0.0, "lat": 38.92341066666667, "is_disabled": 0, "bike_id": "9570a6f5ad6226de063d6a5b3aec8b74", "fusion_lat": 0.0, "is_reserved": 0, "lon": -77.05234766666666}, {"type": "electric_scooter", "name": "256251ac78828f2f50eaab683e20126b", "rental_uris": {"ios": "https://dc.lft.to/lastmile_qr_scan", "android": "https://dc.lft.to/lastmile_qr_scan"}, "fusion_lon": 0.0, "lat": 38.943006, "is_disabled": 0, "bike_id": "256251ac78828f2f50eaab683e20126b", "fusion_lat": 0.0, "is_reserved": 0, "lon": -77.02957133333334}, {"type": "electric_scooter", "name": "12c37d184baf5435a50b812a1641557c", "rental_uris": {"ios": "https://dc.lft.to/lastmile_qr_scan", "android": "https://dc.lft.to/lastmile_qr_scan"}, "fusion_lon": 0.0, "lat": 38.92112733333333, "is_disabled": 0, "bike_id": "12c37d184baf5435a50b812a1641557c", "fusion_lat": 0.0, "is_reserved": 0, "lon": -77.00921066666666}, {"type": "electric_scooter", "name": "33d102636c3f8b81023994a45d609348", "rental_uris": {"ios": "https://dc.lft.to/lastmile_qr_scan", "android": "https://dc.lft.to/lastmile_qr_scan"}, "fusion_lon": 0.0, "lat": 38.92113116666667, "is_disabled": 0, "bike_id": "33d102636c3f8b81023994a45d609348", "fusion_lat": 0.0, "is_reserved": 0, "lon": -77.02407783333334}, {"type": "electric_scooter", "name": "542cec8a2d6fe388c07619ed756a24b2", "rental_uris": {"ios": "https://dc.lft.to/lastmile_qr_scan", "android": "https://dc.lft.to/lastmile_qr_scan"}, "fusion_lon": 0.0, "lat": 38.91780133333334, "is_disabled": 0, "bike_id": "542cec8a2d6fe388c07619ed756a24b2", "fusion_lat": 0.0, "is_reserved": 0, "lon": -77.02313316666667}, {"type": "electric_scooter", "name": "a0292d3f54c7b1c5be652759e0c68377", "rental_uris": {"ios": "https://dc.lft.to/lastmile_qr_scan", "android": "https://dc.lft.to/lastmile_qr_scan"}, "fusion_lon": 0.0, "lat": 38.898302, "is_disabled": 0, "bike_id": "a0292d3f54c7b1c5be652759e0c68377", "fusion_lat": 0.0, "is_reserved": 0, "lon": -77.00731366666666}, {"type": "electric_scooter", "name": "442bef3908d237df896aeab18720efca", "rental_uris": {"ios": "https://dc.lft.to/lastmile_qr_scan", "android": "https://dc.lft.to/lastmile_qr_scan"}, "fusion_lon": 0.0, "lat": 38.88523466666667, "is_disabled": 0, "bike_id": "442bef3908d237df896aeab18720efca", "fusion_lat": 0.0, "is_reserved": 0, "lon": -76.97707216666667}, {"type": "electric_bike", "name": "b5f192cf58812d0b3976b0686b7df805", "rental_uris": {"ios": "https://dc.lft.to/lastmile_qr_scan", "android": "https://dc.lft.to/lastmile_qr_scan"}, "fusion_lon": 0.0, "lat": 38.90956583333333, "is_disabled": 0, "bike_id": "b5f192cf58812d0b3976b0686b7df805", "fusion_lat": 0.0, "is_reserved": 0, "lon": -77.22886866666667}, {"type": "electric_scooter", "name": "d280c389fdd96270e4b6e41f7c63a94f", "rental_uris": {"ios": "https://dc.lft.to/lastmile_qr_scan", "android": "https://dc.lft.to/lastmile_qr_scan"}, "fusion_lon": 0.0, "lat": 38.93423766666667, "is_disabled": 0, "bike_id": "d280c389fdd96270e4b6e41f7c63a94f", "fusion_lat": 0.0, "is_reserved": 0, "lon": -77.04408383333333}, {"type": "electric_scooter", "name": "c31f9d316c8812a2dd9c20e784d7e238", "rental_uris": {"ios": "https://dc.lft.to/lastmile_qr_scan", "android": "https://dc.lft.to/lastmile_qr_scan"}, "fusion_lon": 0.0, "lat": 38.90714666666667, "is_disabled": 0, "bike_id": "c31f9d316c8812a2dd9c20e784d7e238", "fusion_lat": 0.0, "is_reserved": 0, "lon": -77.02963}, {"type": "electric_scooter", "name": "073b8ef4da0b9a58f63db770afe23257", "rental_uris": {"ios": "https://dc.lft.to/lastmile_qr_scan", "android": "https://dc.lft.to/lastmile_qr_scan"}, "fusion_lon": 0.0, "lat": 38.896662, "is_disabled": 0, "bike_id": "073b8ef4da0b9a58f63db770afe23257", "fusion_lat": 0.0, "is_reserved": 0, "lon": -77.05465316666667}, {"type": "electric_scooter", "name": "29847c2b8569918d0c533fd1e7d33d73", "rental_uris": {"ios": "https://dc.lft.to/lastmile_qr_scan", "android": "https://dc.lft.to/lastmile_qr_scan"}, "fusion_lon": 0.0, "lat": 38.91107933333333, "is_disabled": 0, "bike_id": "29847c2b8569918d0c533fd1e7d33d73", "fusion_lat": 0.0, "is_reserved": 0, "lon": -77.0041335}, {"type": "electric_scooter", "name": "97b561b4dc2f0f6775b37c6db4fe7836", "rental_uris": {"ios": "https://dc.lft.to/lastmile_qr_scan", "android": "https://dc.lft.to/lastmile_qr_scan"}, "fusion_lon": 0.0, "lat": 38.900017, "is_disabled": 0, "bike_id": "97b561b4dc2f0f6775b37c6db4fe7836", "fusion_lat": 0.0, "is_reserved": 0, "lon": -77.01023516666666}, {"type": "electric_scooter", "name": "f6ac4e3375380cb5980596478328b2e4", "rental_uris": {"ios": "https://dc.lft.to/lastmile_qr_scan", "android": "https://dc.lft.to/lastmile_qr_scan"}, "fusion_lon": 0.0, "lat": 38.9042675, "is_disabled": 0, "bike_id": "f6ac4e3375380cb5980596478328b2e4", "fusion_lat": 0.0, "is_reserved": 0, "lon": -77.053225}, {"type": "electric_scooter", "name": "23ffb6c34625b4ad4ce98179eb37934d", "rental_uris": {"ios": "https://dc.lft.to/lastmile_qr_scan", "android": "https://dc.lft.to/lastmile_qr_scan"}, "fusion_lon": 0.0, "lat": 38.9078785, "is_disabled": 0, "bike_id": "23ffb6c34625b4ad4ce98179eb37934d", "fusion_lat": 0.0, "is_reserved": 0, "lon": -76.99424416666666}, {"type": "electric_scooter", "name": "f182aacb7de3b6843325d6ff044701d7", "rental_uris": {"ios": "https://dc.lft.to/lastmile_qr_scan", "android": "https://dc.lft.to/lastmile_qr_scan"}, "fusion_lon": 0.0, "lat": 38.935394, "is_disabled": 0, "bike_id": "f182aacb7de3b6843325d6ff044701d7", "fusion_lat": 0.0, "is_reserved": 0, "lon": -77.023508}, {"type": "electric_scooter", "name": "f3bc273d2a4c98d13b0f52cd8a1c07ee", "rental_uris": {"ios": "https://dc.lft.to/lastmile_qr_scan", "android": "https://dc.lft.to/lastmile_qr_scan"}, "fusion_lon": 0.0, "lat": 38.895385166666664, "is_disabled": 0, "bike_id": "f3bc273d2a4c98d13b0f52cd8a1c07ee", "fusion_lat": 0.0, "is_reserved": 0, "lon": -76.94884233333333}, {"type": "electric_scooter", "name": "c90f26c12a695858e509c5a0fe4a3cfd", "rental_uris": {"ios": "https://dc.lft.to/lastmile_qr_scan", "android": "https://dc.lft.to/lastmile_qr_scan"}, "fusion_lon": 0.0, "lat": 38.898308, "is_disabled": 0, "bike_id": "c90f26c12a695858e509c5a0fe4a3cfd", "fusion_lat": 0.0, "is_reserved": 0, "lon": -77.0332925}, {"type": "electric_scooter", "name": "ded01cd80ab54051e7dcc439d5815ffb", "rental_uris": {"ios": "https://dc.lft.to/lastmile_qr_scan", "android": "https://dc.lft.to/lastmile_qr_scan"}, "fusion_lon": 0.0, "lat": 38.90150766666667, "is_disabled": 0, "bike_id": "ded01cd80ab54051e7dcc439d5815ffb", "fusion_lat": 0.0, "is_reserved": 0, "lon": -76.99028866666667}, {"type": "electric_scooter", "name": "fb8f0f3b0b3357fff51b5692a745ab9f", "rental_uris": {"ios": "https://dc.lft.to/lastmile_qr_scan", "android": "https://dc.lft.to/lastmile_qr_scan"}, "fusion_lon": 0.0, "lat": 38.97512283333333, "is_disabled": 0, "bike_id": "fb8f0f3b0b3357fff51b5692a745ab9f", "fusion_lat": 0.0, "is_reserved": 0, "lon": -77.0166755}, {"type": "electric_scooter", "name": "082d6d051eaa9c4aba7c7c216e2ba8d2", "rental_uris": {"ios": "https://dc.lft.to/lastmile_qr_scan", "android": "https://dc.lft.to/lastmile_qr_scan"}, "fusion_lon": 0.0, "lat": 38.92694983333333, "is_disabled": 0, "bike_id": "082d6d051eaa9c4aba7c7c216e2ba8d2", "fusion_lat": 0.0, "is_reserved": 0, "lon": -77.0323965}, {"type": "electric_scooter", "name": "6287bc2a24716d9ce32415ebb02e31ac", "rental_uris": {"ios": "https://dc.lft.to/lastmile_qr_scan", "android": "https://dc.lft.to/lastmile_qr_scan"},