{"data": {"bikes": [{"rental_uris": {"ios": "https://dc.lft.to/lastmile_qr_scan", "android": "https://dc.lft.to/lastmile_qr_scan"}, "is_disabled": 0, "bike_id": "53d5d54e1e3f00387df496b9b00d5a8b", "fusion_lon": 0.0, "fusion_lat": 0.0, "is_reserved": 0, "type": "electric_scooter", "lon": -77.04487466666667, "name": "53d5d54e1e3f00387df496b9b00d5a8b", "lat": 38.90941183333333}, {"rental_uris": {"ios": "https://dc.lft.to/lastmile_qr_scan", "android": "https://dc.lft.to/lastmile_qr_scan"}, "is_disabled": 0, "bike_id": "cbf2c540f429086c25a8ff0b2284dad0", "fusion_lon": 0.0, "fusion_lat": 0.0, "is_reserved": 0, "type": "electric_scooter", "lon": -77.046483, "name": "cbf2c540f429086c25a8ff0b2284dad0", "lat": 38.9042425}, {"rental_uris": {"ios": "https://dc.lft.to/lastmile_qr_scan", "android": "https://dc.lft.to/lastmile_qr_scan"}, "is_disabled": 0, "bike_id": "7b2824796d59d4c6080ff0ab24661d23", "fusion_lon": 0.0, "fusion_lat": 0.0, "is_reserved": 0, "type": "electric_scooter", "lon": -77.05233666666666, "name": "7b2824796d59d4c6080ff0ab24661d23", "lat": 38.92465133333334}, {"rental_uris": {"ios": "https://dc.lft.to/lastmile_qr_scan", "android": "https://dc.lft.to/lastmile_qr_scan"}, "is_disabled": 0, "bike_id": "8ec1c9840d1c346d71ad652739c2b61b", "fusion_lon": 0.0, "fusion_lat": 0.0, "is_reserved": 0, "type": "electric_scooter", "lon": -77.03175866666666, "name": "8ec1c9840d1c346d71ad652739c2b61b", "lat": 38.914875333333335}, {"rental_uris": {"ios": "https://dc.lft.to/lastmile_qr_scan", "android": "https://dc.lft.to/lastmile_qr_scan"}, "is_disabled": 0, "bike_id": "d48449def00272cd1cde12229282c4ff", "fusion_lon": 0.0, "fusion_lat": 0.0, "is_reserved": 0, "type": "electric_scooter", "lon": -77.0245945, "name": "d48449def00272cd1cde12229282c4ff", "lat": 38.91693766666667}, {"rental_uris": {"ios": "https://dc.lft.to/lastmile_qr_scan", "android": "https://dc.lft.to/lastmile_qr_scan"}, "is_disabled": 0, "bike_id": "1e430236516e2d8a6b3e0fcd54215ea6", "fusion_lon": 0.0, "fusion_lat": 0.0, "is_reserved": 0, "type": "electric_scooter", "lon": -77.0324235, "name": "1e430236516e2d8a6b3e0fcd54215ea6", "lat": 38.9171125}, {"rental_uris": {"ios": "https://dc.lft.to/lastmile_qr_scan", "android": "https://dc.lft.to/lastmile_qr_scan"}, "is_disabled": 0, "bike_id": "f8df9685c45c94fab6ab1fbfa176d893", "fusion_lon": 0.0, "fusion_lat": 0.0, "is_reserved": 0, "type": "electric_scooter", "lon": -77.00607883333333, "name": "f8df9685c45c94fab6ab1fbfa176d893", "lat": 38.87181366666667}, {"rental_uris": {"ios": "https://dc.lft.to/lastmile_qr_scan", "android": "https://dc.lft.to/lastmile_qr_scan"}, "is_disabled": 0, "bike_id": "ad28a402e6569394c7dbe7067458e765", "fusion_lon": 0.0, "fusion_lat": 0.0, "is_reserved": 0, "type": "electric_scooter", "lon": -76.9950955, "name": "ad28a402e6569394c7dbe7067458e765", "lat": 38.86258816666667}, {"rental_uris": {"ios": "https://dc.lft.to/lastmile_qr_scan", "android": "https://dc.lft.to/lastmile_qr_scan"}, "is_disabled": 0, "bike_id": "887e52104a374537df4291df14cf8c56", "fusion_lon": 0.0, "fusion_lat": 0.0, "is_reserved": 0, "type": "electric_scooter", "lon": -77.02776266666666, "name": "887e52104a374537df4291df14cf8c56", "lat": 38.89705933333333}, {"rental_uris": {"ios": "https://dc.lft.to/lastmile_qr_scan", "android": "https://dc.lft.to/lastmile_qr_scan"}, "is_disabled": 0, "bike_id": "0596d3171b6ba1d0d672f714f98c3c1f", "fusion_lon": 0.0, "fusion_lat": 0.0, "is_reserved": 0, "type": "electric_scooter", "lon": -77.07327366666667, "name": "0596d3171b6ba1d0d672f714f98c3c1f", "lat": 38.924936}, {"rental_uris": {"ios": "https://dc.lft.to/lastmile_qr_scan", "android": "https://dc.lft.to/lastmile_qr_scan"}, "is_disabled": 0, "bike_id": "2fdf133ac2c4309061059076c18d6bdc", "fusion_lon": 0.0, "fusion_lat": 0.0, "is_reserved": 0, "type": "electric_bike", "lon": -77.03426166666667, "name": "2fdf133ac2c4309061059076c18d6bdc", "lat": 38.966248666666665}, {"rental_uris": {"ios": "https://dc.lft.to/lastmile_qr_scan", "android": "https://dc.lft.to/lastmile_qr_scan"}, "is_disabled": 0, "bike_id": "be16914fffc0315f6bfbcfaa2ed8288c", "fusion_lon": 0.0, "fusion_lat": 0.0, "is_reserved": 0, "type": "electric_scooter", "lon": -76.99848283333333, "name": "be16914fffc0315f6bfbcfaa2ed8288c", "lat": 38.90000766666667}, {"rental_uris": {"ios": "https://dc.lft.to/lastmile_qr_scan", "android": "https://dc.lft.to/lastmile_qr_scan"}, "is_disabled": 0, "bike_id": "28892859dc6b4bea710148f8c8e8986d", "fusion_lon": 0.0, "fusion_lat": 0.0, "is_reserved": 0, "type": "electric_scooter", "lon": -77.04503816666667, "name": "28892859dc6b4bea710148f8c8e8986d", "lat": 38.91594516666667}, {"rental_uris": {"ios": "https://dc.lft.to/lastmile_qr_scan", "android": "https://dc.lft.to/lastmile_qr_scan"}, "is_disabled": 0, "bike_id": "258d870b8ff1ff7fa760635beb6f62f5", "fusion_lon": 0.0, "fusion_lat": 0.0, "is_reserved": 0, "type": "electric_scooter", "lon": -76.9485235, "name": "258d870b8ff1ff7fa760635beb6f62f5", "lat": 38.89605866666667}, {"rental_uris": {"ios": "https://dc.lft.to/lastmile_qr_scan", "android": "https://dc.lft.to/lastmile_qr_scan"}, "is_disabled": 0, "bike_id": "19cbceedd83e4954ab93f51ee86da2e1", "fusion_lon": 0.0, "fusion_lat": 0.0, "is_reserved": 0, "type": "electric_scooter", "lon": -76.99827816666667, "name": "19cbceedd83e4954ab93f51ee86da2e1", "lat": 38.900271833333335}, {"rental_uris": {"ios": "https://dc.lft.to/lastmile_qr_scan", "android": "https://dc.lft.to/lastmile_qr_scan"}, "is_disabled": 0, "bike_id": "b4ce3da73d000a22dc7e582d7ad772ef", "fusion_lon": 0.0, "fusion_lat": 0.0, "is_reserved": 0, "type": "electric_bike", "lon": -77.02616516666667, "name": "b4ce3da73d000a22dc7e582d7ad772ef", "lat": 38.969306}, {"rental_uris": {"ios": "https://dc.lft.to/lastmile_qr_scan", "android": "https://dc.lft.to/lastmile_qr_scan"}, "is_disabled": 0, "bike_id": "753d7c49b941ef0c8ad642f298a78154", "fusion_lon": 0.0, "fusion_lat": 0.0, "is_reserved": 0, "type": "electric_bike", "lon": -77.11796533333333, "name": "753d7c49b941ef0c8ad642f298a78154", "lat": 38.873774166666664}, {"rental_uris": {"ios": "https://dc.lft.to/lastmile_qr_scan", "android": "https://dc.lft.to/lastmile_qr_scan"}, "is_disabled": 0, "bike_id": "89b667c71a6effa72ca514472e567115", "fusion_lon": 0.0, "fusion_lat": 0.0, "is_reserved": 0, "type": "electric_scooter", "lon": -77.037567, "name": "89b667c71a6effa72ca514472e567115", "lat": 38.90672166666667}, {"rental_uris": {"ios": "https://dc.lft.to/lastmile_qr_scan", "android": "https://dc.lft.to/lastmile_qr_scan"}, "is_disabled": 0, "bike_id": "56185284caed8cccc0115b051b132431", "fusion_lon": 0.0, "fusion_lat": 0.0, "is_reserved": 0, "type": "electric_scooter", "lon": -77.02284966666667, "name": "56185284caed8cccc0115b051b132431", "lat": 38.91438433333333}, {"rental_uris": {"ios": "https://dc.lft.to/lastmile_qr_scan", "android": "https://dc.lft.to/lastmile_qr_scan"}, "is_disabled": 0, "bike_id": "515f2cf4714339d17dfb28a4cf6aaa15", "fusion_lon": 0.0, "fusion_lat": 0.0, "is_reserved": 0, "type": "electric_scooter", "lon": -77.03165366666667, "name": "515f2cf4714339d17dfb28a4cf6aaa15", "lat": 38.8961775}, {"rental_uris": {"ios": "https://dc.lft.to/lastmile_qr_scan", "android": "https://dc.lft.to/lastmile_qr_scan"}, "is_disabled": 0, "bike_id": "ecc3dd83a29ce659db5f6df5230222ca", "fusion_lon": 0.0, "fusion_lat": 0.0, "is_reserved": 0, "type": "electric_scooter", "lon": -76.965241, "name": "ecc3dd83a29ce659db5f6df5230222ca", "lat": 38.8762695}, {"rental_uris": {"ios": "https://dc.lft.to/lastmile_qr_scan", "android": "https://dc.lft.to/lastmile_qr_scan"}, "is_disabled": 0, "bike_id": "9e51e7f65a52ecd07323a3268dbc88da", "fusion_lon": 0.0, "fusion_lat": 0.0, "is_reserved": 0, "type": "electric_scooter", "lon": -77.05495983333333, "name": "9e51e7f65a52ecd07323a3268dbc88da", "lat": 38.909445833333336}, {"rental_uris": {"ios": "https://dc.lft.to/lastmile_qr_scan", "android": "https://dc.lft.to/lastmile_qr_scan"}, "is_disabled": 0, "bike_id": "7ea371bfcf7540df78791ad35fc4a008", "fusion_lon": 0.0, "fusion_lat": 0.0, "is_reserved": 0, "type": "electric_bike", "lon": -77.0472985, "name": "7ea371bfcf7540df78791ad35fc4a008", "lat": 38.90197216666667}, {"rental_uris": {"ios": "https://dc.lft.to/lastmile_qr_scan", "android": "https://dc.lft.to/lastmile_qr_scan"}, "is_disabled": 0, "bike_id": "bb3e0f95211982249b435dc374145068", "fusion_lon": 0.0, "fusion_lat": 0.0, "is_reserved": 0, "type": "electric_scooter", "lon": -77.02190166666666, "name": "bb3e0f95211982249b435dc374145068", "lat": 38.90021733333333}, {"rental_uris": {"ios": "https://dc.lft.to/lastmile_qr_scan", "android": "https://dc.lft.to/lastmile_qr_scan"}, "is_disabled": 0, "bike_id": "eb3742ad6326ad8ab6535af5c6b9f264", "fusion_lon": 0.0, "fusion_lat": 0.0, "is_reserved": 0, "type": "electric_scooter", "lon": -76.965279, "name": "eb3742ad6326ad8ab6535af5c6b9f264", "lat": 38.876295}, {"rental_uris": {"ios": "https://dc.lft.to/lastmile_qr_scan", "android": "https://dc.lft.to/lastmile_qr_scan"}, "is_disabled": 0, "bike_id": "cd0f5b14fb054b14fce207fa47ee84d9", "fusion_lon": 0.0, "fusion_lat": 0.0, "is_reserved": 0, "type": "electric_scooter", "lon": -76.99002116666666, "name": "cd0f5b14fb054b14fce207fa47ee84d9", "lat": 38.863473}, {"rental_uris": {"ios": "https://dc.lft.to/lastmile_qr_scan", "android": "https://dc.lft.to/lastmile_qr_scan"}, "is_disabled": 0, "bike_id": "63448d27a98d4877a5a48d1f51025497", "fusion_lon": 0.0, "fusion_lat": 0.0, "is_reserved": 0, "type": "electric_scooter", "lon": -77.02699866666667, "name": "63448d27a98d4877a5a48d1f51025497", "lat": 38.906788166666665}, {"rental_uris": {"ios": "https://dc.lft.to/lastmile_qr_scan", "android": "https://dc.lft.to/lastmile_qr_scan"}, "is_disabled": 0, "bike_id": "ae3d3b09e5a31267e9b4d59fbc2704b7", "fusion_lon": 0.0, "fusion_lat": 0.0, "is_reserved": 0, "type": "electric_scooter", "lon": -77.029663, "name": "ae3d3b09e5a31267e9b4d59fbc2704b7", "lat": 38.92277166666667}, {"rental_uris": {"ios": "https://dc.lft.to/lastmile_qr_scan", "android": "https://dc.lft.to/lastmile_qr_scan"}, "is_disabled": 0, "bike_id": "25317521e290f72f158b83f1498bc893", "fusion_lon": 0.0, "fusion_lat": 0.0, "is_reserved": 0, "type": "electric_scooter", "lon": -77.034403, "name": "25317521e290f72f158b83f1498bc893", "lat": 38.918487166666665}, {"rental_uris": {"ios": "https://dc.lft.to/lastmile_qr_scan", "android": "https://dc.lft.to/lastmile_qr_scan"}, "is_disabled": 0, "bike_id": "9338bc69852e492f0a4a61e94869a290", "fusion_lon": 0.0, "fusion_lat": 0.0, "is_reserved": 0, "type": "electric_bike", "lon": -76.935429, "name": "9338bc69852e492f0a4a61e94869a290", "lat": 38.955593666666665}, {"rental_uris": {"ios": "https://dc.lft.to/lastmile_qr_scan", "android": "https://dc.lft.to/lastmile_qr_scan"}, "is_disabled": 0, "bike_id": "40d73cc98fbd57d23923d6c23ea40b93", "fusion_lon": 0.0, "fusion_lat": 0.0, "is_reserved": 0, "type": "electric_bike", "lon": -77.0365125, "name": "40d73cc98fbd57d23923d6c23ea40b93", "lat": 38.955759}, {"rental_uris": {"ios": "https://dc.lft.to/lastmile_qr_scan", "android": "https://dc.lft.to/lastmile_qr_scan"}, "is_disabled": 0, "bike_id": "f8c019169356707fac84d5ec72ffba20", "fusion_lon": 0.0, "fusion_lat": 0.0, "is_reserved": 0, "type": "electric_bike", "lon": -77.0692435, "name": "f8c019169356707fac84d5ec72ffba20", "lat": 38.955547}, {"rental_uris": {"ios": "https://dc.lft.to/lastmile_qr_scan", "android": "https://dc.lft.to/lastmile_qr_scan"}, "is_disabled": 0, "bike_id": "067d979492d97279434ad1e8f9ae301c", "fusion_lon": 0.0, "fusion_lat": 0.0, "is_reserved": 0, "type": "electric_scooter", "lon": -77.025955, "name": "067d979492d97279434ad1e8f9ae301c", "lat": 38.9061875}, {"rental_uris": {"ios": "https://dc.lft.to/lastmile_qr_scan", "android": "https://dc.lft.to/lastmile_qr_scan"}, "is_disabled": 0, "bike_id": "5153defc71536de8f564af974e4aa444", "fusion_lon": 0.0, "fusion_lat": 0.0, "is_reserved": 0, "type": "electric_bike", "lon": -77.004968, "name": "5153defc71536de8f564af974e4aa444", "lat": 38.841326333333335}, {"rental_uris": {"ios": "https://dc.lft.to/lastmile_qr_scan", "android": "https://dc.lft.to/lastmile_qr_scan"}, "is_disabled": 0, "bike_id": "d0663cd0f77c3d8ba5bd279b24d9d0ed", "fusion_lon": 0.0, "fusion_lat": 0.0, "is_reserved": 0, "type": "electric_scooter", "lon": -77.00068733333333, "name": "d0663cd0f77c3d8ba5bd279b24d9d0ed", "lat": 38.87533233333333}, {"rental_uris": {"ios": "https://dc.lft.to/lastmile_qr_scan", "android": "https://dc.lft.to/lastmile_qr_scan"}, "is_disabled": 0, "bike_id": "063a6aac957b31d66ab361cc587141c4", "fusion_lon": 0.0, "fusion_lat": 0.0, "is_reserved": 0, "type": "electric_scooter", "lon": -77.03452233333333, "name": "063a6aac957b31d66ab361cc587141c4", "lat": 38.92542183333333}, {"rental_uris": {"ios": "https://dc.lft.to/lastmile_qr_scan", "android": "https://dc.lft.to/lastmile_qr_scan"}, "is_disabled": 0, "bike_id": "078e68a8a85594c7f72c07f0bf1d5d62", "fusion_lon": 0.0, "fusion_lat": 0.0, "is_reserved": 0, "type": "electric_scooter", "lon": -77.04170483333333, "name": "078e68a8a85594c7f72c07f0bf1d5d62", "lat": 38.91819533333334}, {"rental_uris": {"ios": "https://dc.lft.to/lastmile_qr_scan", "android": "https://dc.lft.to/lastmile_qr_scan"}, "is_disabled": 0, "bike_id": "0202742f1fc298f9590d00187a682526", "fusion_lon": 0.0, "fusion_lat": 0.0, "is_reserved": 0, "type": "electric_scooter", "lon": -77.04560616666667, "name": "0202742f1fc298f9590d00187a682526", "lat": 38.896099166666666}, {"rental_uris": {"ios": "https://dc.lft.to/lastmile_qr_scan", "android": "https://dc.lft.to/lastmile_qr_scan"}, "is_disabled": 0, "bike_id": "901377e6e4a5c0e2feaf4ed9be8a3922", "fusion_lon": 0.0, "fusion_lat": 0.0, "is_reserved": 0, "type": "electric_scooter", "lon": -77.03731316666666, "name": "901377e6e4a5c0e2feaf4ed9be8a3922", "lat": 38.917133166666666}, {"rental_uris": {"ios": "https://dc.lft.to/lastmile_qr_scan", "android": "https://dc.lft.to/lastmile_qr_scan"}, "is_disabled": 0, "bike_id": "578acf652748e0aaa95b852954e4bad5", "fusion_lon": 0.0, "fusion_lat": 0.0, "is_reserved": 0, "type": "electric_scooter", "lon": -77.04364816666667, "name": "578acf652748e0aaa95b852954e4bad5", "lat": 38.90533466666667}, {"rental_uris": {"ios": "https://dc.lft.to/lastmile_qr_scan", "android": "https://dc.lft.to/lastmile_qr_scan"}, "is_disabled": 0, "bike_id": "e33edfb00632ffed32bdefbb1aab9ea3", "fusion_lon": 0.0, "fusion_lat": 0.0, "is_reserved": 0, "type": "electric_scooter", "lon": -77.00338316666667, "name": "e33edfb00632ffed32bdefbb1aab9ea3", "lat": 38.89919}, {"rental_uris": {"ios": "https://dc.lft.to/lastmile_qr_scan", "android": "https://dc.lft.to/lastmile_qr_scan"}, "is_disabled": 0, "bike_id": "973978d8d02c70fe89d0e4b344dd6904", "fusion_lon": 0.0, "fusion_lat": 0.0, "is_reserved": 0, "type": "electric_scooter", "lon": -77.042844, "name": "973978d8d02c70fe89d0e4b344dd6904", "lat": 38.922607}, {"rental_uris": {"ios": "https://dc.lft.to/lastmile_qr_scan", "android": "https://dc.lft.to/lastmile_qr_scan"}, "is_disabled": 0, "bike_id": "b666d13339f55e76edf4ccc0f1c928db", "fusion_lon": 0.0, "fusion_lat": 0.0, "is_reserved": 0, "type": "electric_scooter", "lon": -76.99258916666666, "name": "b666d13339f55e76edf4ccc0f1c928db", "lat": 38.89985}, {"rental_uris": {"ios": "https://dc.lft.to/lastmile_qr_scan", "android": "https://dc.lft.to/lastmile_qr_scan"}, "is_disabled": 0, "bike_id": "2a4d8343b04055ed4d6f1910ce2f75aa", "fusion_lon": 0.0, "fusion_lat": 0.0, "is_reserved": 0, "type": "electric_scooter", "lon": -77.04837466666666, "name": "2a4d8343b04055ed4d6f1910ce2f75aa", "lat": 38.91178683333333}, {"rental_uris": {"ios": "https://dc.lft.to/lastmile_qr_scan", "android": "https://dc.lft.to/lastmile_qr_scan"}, "is_disabled": 0, "bike_id": "8b48b9f033c41a9ad374703473cebc2b", "fusion_lon": 0.0, "fusion_lat": 0.0, "is_reserved": 0, "type": "electric_bike", "lon": -77.04126033333333, "name": "8b48b9f033c41a9ad374703473cebc2b", "lat": 38.804993833333334}, {"rental_uris": {"ios": "https://dc.lft.to/lastmile_qr_scan", "android": "https://dc.lft.to/lastmile_qr_scan"}, "is_disabled": 0, "bike_id": "429b2a29ec4fb93535595deb0ed0d08e", "fusion_lon": 0.0, "fusion_lat": 0.0, "is_reserved": 0, "type": "electric_scooter", "lon": -77.025464, "name": "429b2a29ec4fb93535595deb0ed0d08e", "lat": 38.91708333333333}, {"rental_uris": {"ios": "https://dc.lft.to/lastmile_qr_scan", "android": "https://dc.lft.to/lastmile_qr_scan"}, "is_disabled": 0, "bike_id": "cf78b2c0316a547412b69055a3c701ff", "fusion_lon": 0.0, "fusion_lat": 0.0, "is_reserved": 0, "type": "electric_scooter", "lon": -77.02774583333333, "name": "cf78b2c0316a547412b69055a3c701ff", "lat": 38.8921835}, {"rental_uris": {"ios": "https://dc.lft.to/lastmile_qr_scan", "android": "https://dc.lft.to/lastmile_qr_scan"}, "is_disabled": 0, "bike_id": "f8a488208133b05bfbf818ee1f39f58a", "fusion_lon": 0.0, "fusion_lat": 0.0, "is_reserved": 0, "type": "electric_bike", "lon": -76.98985183333333, "name": "f8a488208133b05bfbf818ee1f39f58a", "lat": 38.863882333333336}, {"rental_uris": {"ios": "https://dc.lft.to/lastmile_qr_scan", "android": "https://dc.lft.to/lastmile_qr_scan"}, "is_disabled": 0, "bike_id": "9e0924bc44cc924ee80709a23be6410a", "fusion_lon": 0.0, "fusion_lat": 0.0, "is_reserved": 0, "type": "electric_scooter", "lon": -77.03298733333334, "name": "9e0924bc44cc924ee80709a23be6410a", "lat": 38.91118616666667}, {"rental_uris": {"ios": "https://dc.lft.to/lastmile_qr_scan", "android": "https://dc.lft.to/lastmile_qr_scan"}, "is_disabled": 0, "bike_id": "0fb89a4554e1cac7f62cf1d5051e082f", "fusion_lon": 0.0, "fusion_lat": 0.0, "is_reserved": 0, "type": "electric_scooter", "lon": -77.0412875, "name": "0fb89a4554e1cac7f62cf1d5051e082f", "lat": 38.94178866666667}, {"rental_uris": {"ios": "https://dc.lft.to/lastmile_qr_scan", "android": "https://dc.lft.to/lastmile_qr_scan"}, "is_disabled": 0, "bike_id": "00628645364b7e2d589485d2b3e73e5f", "fusion_lon": 0.0, "fusion_lat": 0.0, "is_reserved": 0, "type": "electric_bike", "lon": -76.91083516666667, "name": "00628645364b7e2d589485d2b3e73e5f", "lat": 39.00015716666667}, {"rental_uris": {"ios": "https://dc.lft.to/lastmile_qr_scan", "android": "https://dc.lft.to/lastmile_qr_scan"}, "is_disabled": 0, "bike_id": "e1b661ac5379c3ef7aaca3ac75a1280f", "fusion_lon": 0.0, "fusion_lat": 0.0, "is_reserved": 0, "type": "electric_scooter", "lon": -77.04116333333333, "name": "e1b661ac5379c3ef7aaca3ac75a1280f", "lat": 38.930519833333335}, {"rental_uris": {"ios": "https://dc.lft.to/lastmile_qr_scan", "android": "https://dc.lft.to/lastmile_qr_scan"}, "is_disabled": 0, "bike_id": "53d4b861a921ee7d53c98dfe6a691921", "fusion_lon": 0.0, "fusion_lat": 0.0, "is_reserved": 0, "type": "electric_scooter", "lon": -77.02688866666666, "name": "53d4b861a921ee7d53c98dfe6a691921", "lat": 38.89766266666667}, {"rental_uris": {"ios": "https://dc.lft.to/lastmile_qr_scan", "android": "https://dc.lft.to/lastmile_qr_scan"}, "is_disabled": 0, "bike_id": "dc073c1f3a14822fe7710fdf1a46cf79", "fusion_lon": 0.0, "fusion_lat": 0.0, "is_reserved": 0, "type": "electric_bike", "lon": -76.98295933333333, "name": "dc073c1f3a14822fe7710fdf1a46cf79", "lat": 38.9628675}, {"rental_uris": {"ios": "https://dc.lft.to/lastmile_qr_scan", "android": "https://dc.lft.to/lastmile_qr_scan"}, "is_disabled": 0, "bike_id": "14ffbb91ad6a9f09a260d00869dc640b", "fusion_lon": 0.0, "fusion_lat": 0.0, "is_reserved": 0, "type": "electric_scooter", "lon": -77.00749783333333, "name": "14ffbb91ad6a9f09a260d00869dc640b", "lat": 38.90064683333333}, {"rental_uris": {"ios": "https://dc.lft.to/lastmile_qr_scan", "android": "https://dc.lft.to/lastmile_qr_scan"}, "is_disabled": 0, "bike_id": "e1c0076778737701c3f6bc833896945e", "fusion_lon": 0.0, "fusion_lat": 0.0, "is_reserved": 0, "type": "electric_scooter", "lon": -76.94153966666667, "name": "e1c0076778737701c3f6bc833896945e", "lat": 38.883647}, {"rental_uris": {"ios": "https://dc.lft.to/lastmile_qr_scan", "android": "https://dc.lft.to/lastmile_qr_scan"}, "is_disabled": 0, "bike_id": "d6fda0713f8954f6f4c9e0f305b31a3e", "fusion_lon": 0.0, "fusion_lat": 0.0, "is_reserved": 0, "type": "electric_scooter", "lon": -77.07882916666667, "name": "d6fda0713f8954f6f4c9e0f305b31a3e", "lat": 38.920665666666665}, {"rental_uris": {"ios": "https://dc.lft.to/lastmile_qr_scan", "android": "https://dc.lft.to/lastmile_qr_scan"}, "is_disabled": 0, "bike_id": "86d6fd0ab18f2bedb6efb6e45b8db361", "fusion_lon": 0.0, "fusion_lat": 0.0, "is_reserved": 0, "type": "electric_scooter", "lon": -77.05854666666667, "name": "86d6fd0ab18f2bedb6efb6e45b8db361", "lat": 38.936101}, {"rental_uris": {"ios": "https://dc.lft.to/lastmile_qr_scan", "android": "https://dc.lft.to/lastmile_qr_scan"}, "is_disabled": 0, "bike_id": "a4dcd3f949c2690e70623bc03039a6b1", "fusion_lon": 0.0, "fusion_lat": 0.0, "is_reserved": 0, "type": "electric_bike", "lon": -76.92482633333333, "name": "a4dcd3f949c2690e70623bc03039a6b1", "lat": 38.958924}, {"rental_uris": {"ios": "https://dc.lft.to/lastmile_qr_scan", "android": "https://dc.lft.to/lastmile_qr_scan"}, "is_disabled": 0, "bike_id": "b0807e8ed0a6c95ba717b32a09b05e6e", "fusion_lon": 0.0, "fusion_lat": 0.0, "is_reserved": 0, "type": "electric_scooter", "lon": -76.965258, "name": "b0807e8ed0a6c95ba717b32a09b05e6e", "lat": 38.876287166666664}, {"rental_uris": {"ios": "https://dc.lft.to/lastmile_qr_scan", "android": "https://dc.lft.to/lastmile_qr_scan"}, "is_disabled": 0, "bike_id": "ef6ef921bc099b7d4f34deb156271100", "fusion_lon": 0.0, "fusion_lat": 0.0, "is_reserved": 0, "type": "electric_scooter", "lon": -77.03290616666666, "name": "ef6ef921bc099b7d4f34deb156271100", "lat": 38.93412816666667}, {"rental_uris": {"ios": "https://dc.lft.to/lastmile_qr_scan", "android": "https://dc.lft.to/lastmile_qr_scan"}, "is_disabled": 0, "bike_id": "2f66a7f489dd0728e2ace3ad440e5a2b", "fusion_lon": 0.0, "fusion_lat": 0.0, "is_reserved": 0, "type": "electric_scooter", "lon": -76.9950355, "name": "2f66a7f489dd0728e2ace3ad440e5a2b", "lat": 38.88366766666667}, {"rental_uris": {"ios": "https://dc.lft.to/lastmile_qr_scan", "android": "https://dc.lft.to/lastmile_qr_scan"}, "is_disabled": 0, "bike_id": "1f35b6a1468bac5c32916275c758d9ed", "fusion_lon": 0.0, "fusion_lat": 0.0, "is_reserved": 0, "type": "electric_scooter", "lon": -77.04010283333334, "name": "1f35b6a1468bac5c32916275c758d9ed", "lat": 38.910075}, {"rental_uris": {"ios": "https://dc.lft.to/lastmile_qr_scan", "android": "https://dc.lft.to/lastmile_qr_scan"}, "is_disabled": 0, "bike_id": "1b93cd1e37b47a257528adb7c9250046", "fusion_lon": 0.0, "fusion_lat": 0.0, "is_reserved": 0, "type": "electric_scooter", "lon": -77.040039, "name": "1b93cd1e37b47a257528adb7c9250046", "lat": 38.907786333333334}, {"rental_uris": {"ios": "https://dc.lft.to/lastmile_qr_scan", "android": "https://dc.lft.to/lastmile_qr_scan"}, "is_disabled": 0, "bike_id": "3054060e70ee6811c4dfb66918be9beb", "fusion_lon": 0.0, "fusion_lat": 0.0, "is_reserved": 0, "type": "electric_scooter", "lon": -77.01642116666666, "name": "3054060e70ee6811c4dfb66918be9beb", "lat": 38.9290105}, {"rental_uris": {"ios": "https://dc.lft.to/lastmile_qr_scan", "android": "https://dc.lft.to/lastmile_qr_scan"}, "is_disabled": 0, "bike_id": "79071d0fc6ee7264760a544b8788a4f7", "fusion_lon": 0.0, "fusion_lat": 0.0, "is_reserved": 0, "type": "electric_scooter", "lon": -76.9334805, "name": "79071d0fc6ee7264760a544b8788a4f7", "lat": 38.89911466666667}, {"rental_uris": {"ios": "https://dc.lft.to/lastmile_qr_scan", "android": "https://dc.lft.to/lastmile_qr_scan"}, "is_disabled": 0, "bike_id": "7d93e79f28cbd4e2427f8bb821233d71", "fusion_lon": 0.0, "fusion_lat": 0.0, "is_reserved": 0, "type": "electric_scooter", "lon": -77.02773633333334, "name": "7d93e79f28cbd4e2427f8bb821233d71", "lat": 38.89220066666667}, {"rental_uris": {"ios": "https://dc.lft.to/lastmile_qr_scan", "android": "https://dc.lft.to/lastmile_qr_scan"}, "is_disabled": 0, "bike_id": "a7ec0ce046799537bed59969bfc4c145", "fusion_lon": 0.0, "fusion_lat": 0.0, "is_reserved": 0, "type": "electric_scooter", "lon": -77.0365585, "name": "a7ec0ce046799537bed59969bfc4c145", "lat": 38.922870833333334}, {"rental_uris": {"ios": "https://dc.lft.to/lastmile_qr_scan", "android": "https://dc.lft.to/lastmile_qr_scan"}, "is_disabled": 0, "bike_id": "d23b6d60fc2debba3bece51438796141", "fusion_lon": 0.0, "fusion_lat": 0.0, "is_reserved": 0, "type": "electric_bike", "lon": -76.9797735, "name": "d23b6d60fc2debba3bece51438796141", "lat": 38.958080333333335}, {"rental_uris": {"ios": "https://dc.lft.to/lastmile_qr_scan", "android": "https://dc.lft.to/lastmile_qr_scan"}, "is_disabled": 0, "bike_id": "f4bc1c4e7232beea2db6a58bac6367a7", "fusion_lon": 0.0, "fusion_lat": 0.0, "is_reserved": 0, "type": "electric_scooter", "lon": -77.02404466666667, "name": "f4bc1c4e7232beea2db6a58bac6367a7", "lat": 38.9073325}, {"rental_uris": {"ios": "https://dc.lft.to/lastmile_qr_scan", "android": "https://dc.lft.to/lastmile_qr_scan"}, "is_disabled": 0, "bike_id": "f8000d8ddfe03d3765bdb06ef18f1301", "fusion_lon": 0.0, "fusion_lat": 0.0, "is_reserved": 0, "type": "electric_scooter", "lon": -77.055036, "name": "f8000d8ddfe03d3765bdb06ef18f1301", "lat": 38.9298635}, {"rental_uris": {"ios": "https://dc.lft.to/lastmile_qr_scan", "android": "https://dc.lft.to/lastmile_qr_scan"}, "is_disabled": 0, "bike_id": "5b2fe14702ded66583bccdf2a400fbe4", "fusion_lon": 0.0, "fusion_lat": 0.0, "is_reserved": 0, "type": "electric_scooter", "lon": -77.03401783333334, "name": "5b2fe14702ded66583bccdf2a400fbe4", "lat": 38.93124483333333}, {"rental_uris": {"ios": "https://dc.lft.to/lastmile_qr_scan", "android": "https://dc.lft.to/lastmile_qr_scan"}, "is_disabled": 0, "bike_id": "eb01819ae4fcb5afae888f426673eb71", "fusion_lon": 0.0, "fusion_lat": 0.0, "is_reserved": 0, "type": "electric_scooter", "lon": -77.019716, "name": "eb01819ae4fcb5afae888f426673eb71", "lat": 38.8985485}, {"rental_uris": {"ios": "https://dc.lft.to/lastmile_qr_scan", "android": "https://dc.lft.to/lastmile_qr_scan"}, "is_disabled": 0, "bike_id": "b8fbdfa6b32f197aecdc884f764f15ff", "fusion_lon": 0.0, "fusion_lat": 0.0, "is_reserved": 0, "type": "electric_scooter", "lon": -77.03917, "name": "b8fbdfa6b32f197aecdc884f764f15ff", "lat": 38.898532833333334}, {"rental_uris": {"ios": "https://dc.lft.to/lastmile_qr_scan", "android": "https://dc.lft.to/lastmile_qr_scan"}, "is_disabled": 0, "bike_id": "56af5c5a0e686bacd88ccb58aab8a600", "fusion_lon": 0.0, "fusion_lat": 0.0, "is_reserved": 0, "type": "electric_bike", "lon": -77.131292, "name": "56af5c5a0e686bacd88ccb58aab8a600", "lat": 38.85309183333333}, {"rental_uris": {"ios": "https://dc.lft.to/lastmile_qr_scan", "android": "https://dc.lft.to/lastmile_qr_scan"}, "is_disabled": 0, "bike_id": "3bce8e18c9fb8637d9904755fb27883d", "fusion_lon": 0.0, "fusion_lat": 0.0, "is_reserved": 0, "type": "electric_bike", "lon": -76.92488666666667, "name": "3bce8e18c9fb8637d9904755fb27883d", "lat": 38.95885333333333}, {"rental_uris": {"ios": "https://dc.lft.to/lastmile_qr_scan", "android": "https://dc.lft.to/lastmile_qr_scan"}, "is_disabled": 0, "bike_id": "2b5b9b6842aca30cf7068d11b580f686", "fusion_lon": 0.0, "fusion_lat": 0.0, "is_reserved": 0, "type": "electric_scooter", "lon": -77.04328316666667, "name": "2b5b9b6842aca30cf7068d11b580f686", "lat": 38.908047333333336}, {"rental_uris": {"ios": "https://dc.lft.to/lastmile_qr_scan", "android": "https://dc.lft.to/lastmile_qr_scan"}, "is_disabled": 0, "bike_id": "5b871f7444c934cb7f644b6bfbd9bfa7", "fusion_lon": 0.0, "fusion_lat": 0.0, "is_reserved": 0, "type": "electric_scooter", "lon": -77.03263983333333, "name": "5b871f7444c934cb7f644b6bfbd9bfa7", "lat": 38.938260666666665}, {"rental_uris": {"ios": "https://dc.lft.to/lastmile_qr_scan", "android": "https://dc.lft.to/lastmile_qr_scan"}, "is_disabled": 0, "bike_id": "0381205a73039356e53b457fb5753fd2", "fusion_lon": 0.0, "fusion_lat": 0.0, "is_reserved": 0, "type": "electric_bike", "lon": -77.0851745, "name": "0381205a73039356e53b457fb5753fd2", "lat": 38.885728}, {"rental_uris": {"ios": "https://dc.lft.to/lastmile_qr_scan", "android": "https://dc.lft.to/lastmile_qr_scan"}, "is_disabled": 0, "bike_id": "9bfa3db36715260e135785e75860707e", "fusion_lon": 0.0, "fusion_lat": 0.0, "is_reserved": 0, "type": "electric_scooter", "lon": -77.02276133333334, "name": "9bfa3db36715260e135785e75860707e", "lat": 38.91662983333333}, {"rental_uris": {"ios": "https://dc.lft.to/lastmile_qr_scan", "android": "https://dc.lft.to/lastmile_qr_scan"}, "is_disabled": 0, "bike_id": "7bcb1f0973c76c68674864e6ffe4e019", "fusion_lon": 0.0, "fusion_lat": 0.0, "is_reserved": 0, "type": "electric_scooter", "lon": -77.04342866666667, "name": "7bcb1f0973c76c68674864e6ffe4e019", "lat": 38.908176166666664}, {"rental_uris": {"ios": "https://dc.lft.to/lastmile_qr_scan", "android": "https://dc.lft.to/lastmile_qr_scan"}, "is_disabled": 0, "bike_id": "e529357c477ef920d2c43d3332e315f9", "fusion_lon": 0.0, "fusion_lat": 0.0, "is_reserved": 0, "type": "electric_scooter", "lon": -77.01513583333333, "name": "e529357c477ef920d2c43d3332e315f9", "lat": 38.8948675}, {"rental_uris": {"ios": "https://dc.lft.to/lastmile_qr_scan", "android": "https://dc.lft.to/lastmile_qr_scan"}, "is_disabled": 0, "bike_id": "5aa72a5b5555e7583b3ba2a73032d93b", "fusion_lon": 0.0, "fusion_lat": 0.0, "is_reserved": 0, "type": "electric_bike", "lon": -77.09811266666667, "name": "5aa72a5b5555e7583b3ba2a73032d93b", "lat": 38.850277}, {"rental_uris": {"ios": "https://dc.lft.to/lastmile_qr_scan", "android": "https://dc.lft.to/lastmile_qr_scan"}, "is_disabled": 0, "bike_id": "e48befc31a1fbab4d3a2d39414005734", "fusion_lon": 0.0, "fusion_lat": 0.0, "is_reserved": 0, "type": "electric_scooter", "lon": -77.05216966666667, "name": "e48befc31a1fbab4d3a2d39414005734", "lat": 38.925019666666664}, {"rental_uris": {"ios": "https://dc.lft.to/lastmile_qr_scan", "android": "https://dc.lft.to/lastmile_qr_scan"}, "is_disabled": 0, "bike_id": "c6f77da6dc7fbb7d07c889622438e966", "fusion_lon": 0.0, "fusion_lat": 0.0, "is_reserved": 0, "type": "electric_scooter", "lon": -76.979426, "name": "c6f77da6dc7fbb7d07c889622438e966", "lat": 38.9452405}, {"rental_uris": {"ios": "https://dc.lft.to/lastmile_qr_scan", "android": "https://dc.lft.to/lastmile_qr_scan"}, "is_disabled": 0, "bike_id": "d8dc135fdade9c7db225a480983152dd", "fusion_lon": 0.0, "fusion_lat": 0.0, "is_reserved": 0, "type": "electric_scooter", "lon": -77.04634433333334, "name": "d8dc135fdade9c7db225a480983152dd", "lat": 38.892244833333336}, {"rental_uris": {"ios": "https://dc.lft.to/lastmile_qr_scan", "android": "https://dc.lft.to/lastmile_qr_scan"}, "is_disabled": 0, "bike_id": "ac522c036f2a6ab85901ad49255a1870", "fusion_lon": 0.0, "fusion_lat": 0.0, "is_reserved": 0, "type": "electric_bike", "lon": -77.099573, "name": "ac522c036f2a6ab85901ad49255a1870", "lat": 38.85791716666667}, {"rental_uris": {"ios": "https://dc.lft.to/lastmile_qr_scan", "android": "https://dc.lft.to/lastmile_qr_scan"}, "is_disabled": 0, "bike_id": "5bbaaeed55a4fcb826f306b206ec2993", "fusion_lon": 0.0, "fusion_lat": 0.0, "is_reserved": 0, "type": "electric_scooter", "lon": -77.0238035, "name": "5bbaaeed55a4fcb826f306b206ec2993", "lat": 38.89274016666667}, {"rental_uris": {"ios": "https://dc.lft.to/lastmile_qr_scan", "android": "https://dc.lft.to/lastmile_qr_scan"}, "is_disabled": 0, "bike_id": "8b1718e7845f0ac2e8f9d54beb623078", "fusion_lon": 0.0, "fusion_lat": 0.0, "is_reserved": 0, "type": "electric_scooter", "lon": -77.04761616666667, "name": "8b1718e7845f0ac2e8f9d54beb623078", "lat": 38.90731233333333}, {"rental_uris": {"ios": "https://dc.lft.to/lastmile_qr_scan", "android": "https://dc.lft.to/lastmile_qr_scan"}, "is_disabled": 0, "bike_id": "1ef0c5aa789cfd2c3247e4b5796ecea5", "fusion_lon": 0.0, "fusion_lat": 0.0, "is_reserved": 0, "type": "electric_scooter", "lon": -77.0307775, "name": "1ef0c5aa789cfd2c3247e4b5796ecea5", "lat": 38.9225305}, {"rental_uris": {"ios": "https://dc.lft.to/lastmile_qr_scan", "android": "https://dc.lft.to/lastmile_qr_scan"}, "is_disabled": 0, "bike_id": "b2ad8de479725d530264c8babbc1e05d", "fusion_lon": 0.0, "fusion_lat": 0.0, "is_reserved": 0, "type": "electric_scooter", "lon": -77.0448985, "name": "b2ad8de479725d530264c8babbc1e05d", "lat": 38.903896}, {"rental_uris": {"ios": "https://dc.lft.to/lastmile_qr_scan", "android": "https://dc.lft.to/lastmile_qr_scan"}, "is_disabled": 0, "bike_id": "38e63728d3609d25f82cf825b7d1883e", "fusion_lon": 0.0, "fusion_lat": 0.0, "is_reserved": 0, "type": "electric_scooter", "lon": -76.92953083333333, "name": "38e63728d3609d25f82cf825b7d1883e", "lat": 38.884456666666665}, {"rental_uris": {"ios": "https://dc.lft.to/lastmile_qr_scan", "android": "https://dc.lft.to/lastmile_qr_scan"}, "is_disabled": 0, "bike_id": "a146d8c327dea95a8d040c3abaddf2f1", "fusion_lon": 0.0, "fusion_lat": 0.0, "is_reserved": 0, "type": "electric_scooter", "lon": -77.03638433333333, "name": "a146d8c327dea95a8d040c3abaddf2f1", "lat": 38.91782766666667}, {"rental_uris": {"ios": "https://dc.lft.to/lastmile_qr_scan", "android": "https://dc.lft.to/lastmile_qr_scan"}, "is_disabled": 0, "bike_id": "261cbd182d818bc38641f24cf6c2ddab", "fusion_lon": 0.0, "fusion_lat": 0.0, "is_reserved": 0, "type": "electric_scooter", "lon": -77.02745666666667, "name": "261cbd182d818bc38641f24cf6c2ddab", "lat": 38.9578025}, {"rental_uris": {"ios": "https://dc.lft.to/lastmile_qr_scan", "android": "https://dc.lft.to/lastmile_qr_scan"}, "is_disabled": 0, "bike_id": "a8f3b4efa8897137891209b4c5747cf2", "fusion_lon": 0.0, "fusion_lat": 0.0, "is_reserved": 0, "type": "electric_scooter", "lon": -77.03440433333333, "name": "a8f3b4efa8897137891209b4c5747cf2", "lat": 38.91800166666667}, {"rental_uris": {"ios": "https://dc.lft.to/lastmile_qr_scan", "android": "https://dc.lft.to/lastmile_qr_scan"}, "is_disabled": 0, "bike_id": "3a7cf9da2e00d23c443f768191ff3af4", "fusion_lon": 0.0, "fusion_lat": 0.0, "is_reserved": 0, "type": "electric_scooter", "lon": -77.03513, "name": "3a7cf9da2e00d23c443f768191ff3af4", "lat": 38.921560166666666}, {"rental_uris": {"ios": "https://dc.lft.to/lastmile_qr_scan", "android": "https://dc.lft.to/lastmile_qr_scan"}, "is_disabled": 0, "bike_id": "409f2a3f740ed09b4114fc561c527abe", "fusion_lon": 0.0, "fusion_lat": 0.0, "is_reserved": 0, "type": "electric_scooter", "lon": -76.99699433333333, "name": "409f2a3f740ed09b4114fc561c527abe", "lat": 38.85931733333334}, {"rental_uris": {"ios": "https://dc.lft.to/lastmile_qr_scan", "android": "https://dc.lft.to/lastmile_qr_scan"}, "is_disabled": 0, "bike_id": "ac4ae76b63372769efabdce2865ccbab", "fusion_lon": 0.0, "fusion_lat": 0.0, "is_reserved": 0, "type": "electric_scooter", "lon": -76.96523233333333, "name": "ac4ae76b63372769efabdce2865ccbab", "lat": 38.876262833333335}, {"rental_uris": {"ios": "https://dc.lft.to/lastmile_qr_scan", "android": "https://dc.lft.to/lastmile_qr_scan"}, "is_disabled": 0, "bike_id": "e991c54ec3704b745775b863d741cd76", "fusion_lon": 0.0, "fusion_lat": 0.0, "is_reserved": 0, "type": "electric_scooter", "lon": -77.0430595, "name": "e991c54ec3704b745775b863d741cd76", "lat": 38.905845}, {"rental_uris": {"ios": "https://dc.lft.to/lastmile_qr_scan", "android": "https://dc.lft.to/lastmile_qr_scan"}, "is_disabled": 0, "bike_id": "c8ef442df717f762d68b98b5dcbdd6c6", "fusion_lon": 0.0, "fusion_lat": 0.0, "is_reserved": 0, "type": "electric_scooter", "lon": -77.01803266666667, "name": "c8ef442df717f762d68b98b5dcbdd6c6", "lat": 38.90263783333333}, {"rental_uris": {"ios": "https://dc.lft.to/lastmile_qr_scan", "android": "https://dc.lft.to/lastmile_qr_scan"}, "is_disabled": 0, "bike_id": "714710de1cf719beebd88436818f68fb", "fusion_lon": 0.0, "fusion_lat": 0.0, "is_reserved": 0, "type": "electric_scooter", "lon": -77.042427, "name": "714710de1cf719beebd88436818f68fb", "lat": 38.922255666666665}, {"rental_uris": {"ios": "https://dc.lft.to/lastmile_qr_scan", "android": "https://dc.lft.to/lastmile_qr_scan"}, "is_disabled": 0, "bike_id": "fbc160abc944055014ca4713dc1e2c97", "fusion_lon": 0.0, "fusion_lat": 0.0, "is_reserved": 0, "type": "electric_scooter", "lon": -76.99873116666667, "name": "fbc160abc944055014ca4713dc1e2c97", "lat": 38.90754783333333}, {"rental_uris": {"ios": "https://dc.lft.to/lastmile_qr_scan", "android": "https://dc.lft.to/lastmile_qr_scan"}, "is_disabled": 0, "bike_id": "243e1c3496e804d786b05dac6d5ca1de", "fusion_lon": 0.0, "fusion_lat": 0.0, "is_reserved": 0, "type": "electric_scooter", "lon": -77.0593085, "name": "243e1c3496e804d786b05dac6d5ca1de", "lat": 38.943064}, {"rental_uris": {"ios": "https://dc.lft.to/lastmile_qr_scan", "android": "https://dc.lft.to/lastmile_qr_scan"}, "is_disabled": 0, "bike_id": "4abd440bae28ccfda180499d928e1353", "fusion_lon": 0.0, "fusion_lat": 0.0, "is_reserved": 0, "type": "electric_scooter", "lon": -76.93171616666666, "name": "4abd440bae28ccfda180499d928e1353", "lat": 38.89884}, {"rental_uris": {"ios": "https://dc.lft.to/lastmile_qr_scan", "android": "https://dc.lft.to/lastmile_qr_scan"}, "is_disabled": 0, "bike_id": "e755364ec5df4e35d27ba463eeb697d5", "fusion_lon": 0.0, "fusion_lat": 0.0, "is_reserved": 0, "type": "electric_scooter", "lon": -77.02876466666666, "name": "e755364ec5df4e35d27ba463eeb697d5", "lat": 38.928205166666665}, {"rental_uris": {"ios": "https://dc.lft.to/lastmile_qr_scan", "android": "https://dc.lft.to/lastmile_qr_scan"}, "is_disabled": 0, "bike_id": "62edd02aa57675bc88f944d14f0d20e7", "fusion_lon": 0.0, "fusion_lat": 0.0, "is_reserved": 0, "type": "electric_scooter", "lon": -77.03207133333333, "name": "62edd02aa57675bc88f944d14f0d20e7", "lat": 38.891801}, {"rental_uris": {"ios": "https://dc.lft.to/lastmile_qr_scan", "android": "https://dc.lft.to/lastmile_qr_scan"}, "is_disabled": 0, "bike_id": "49effd2890281550783c95c52af49082", "fusion_lon": 0.0, "fusion_lat": 0.0, "is_reserved": 0, "type": "electric_scooter", "lon": -77.038455, "name": "49effd2890281550783c95c52af49082", "lat": 38.91544183333333}, {"rental_uris": {"ios": "https://dc.lft.to/lastmile_qr_scan", "android": "https://dc.lft.to/lastmile_qr_scan"}, "is_disabled": 0, "bike_id": "9b6b44af4808659c560a8345d7eae6c0", "fusion_lon": 0.0, "fusion_lat": 0.0, "is_reserved": 0, "type": "electric_scooter", "lon": -77.00837366666667, "name": "9b6b44af4808659c560a8345d7eae6c0", "lat": 38.870643333333334}, {"rental_uris": {"ios": "https://dc.lft.to/lastmile_qr_scan", "android": "https://dc.lft.to/lastmile_qr_scan"}, "is_disabled": 0, "bike_id": "ef384fd09454b0f6aaac2539d1c167eb", "fusion_lon": 0.0, "fusion_lat": 0.0, "is_reserved": 0, "type": "electric_bike", "lon": -76.99779033333333, "name": "ef384fd09454b0f6aaac2539d1c167eb", "lat": 38.8621395}, {"rental_uris": {"ios": "https://dc.lft.to/lastmile_qr_scan", "android": "https://dc.lft.to/lastmile_qr_scan"}, "is_disabled": 0, "bike_id": "b1a69fc84ea30771c266a7c76ea008ea", "fusion_lon": 0.0, "fusion_lat": 0.0, "is_reserved": 0, "type": "electric_scooter", "lon": -77.04027016666667, "name": "b1a69fc84ea30771c266a7c76ea008ea", "lat": 38.90011583333333}, {"rental_uris": {"ios": "https://dc.lft.to/lastmile_qr_scan", "android": "https://dc.lft.to/lastmile_qr_scan"}, "is_disabled": 0, "bike_id": "2851bc2dbf3f5eb885252356977a7a52", "fusion_lon": 0.0, "fusion_lat": 0.0, "is_reserved": 0, "type": "electric_scooter", "lon": -77.038459, "name": "2851bc2dbf3f5eb885252356977a7a52", "lat": 38.91679933333333}, {"rental_uris": {"ios": "https://dc.lft.to/lastmile_qr_scan", "android": "https://dc.lft.to/lastmile_qr_scan"}, "is_disabled": 0, "bike_id": "c7a97b82f4aea6c4b57b6546becc30bd", "fusion_lon": 0.0, "fusion_lat": 0.0, "is_reserved": 0, "type": "electric_scooter", "lon": -76.9954435, "name": "c7a97b82f4aea6c4b57b6546becc30bd", "lat": 38.90107783333333}, {"rental_uris": {"ios": "https://dc.lft.to/lastmile_qr_scan", "android": "https://dc.lft.to/lastmile_qr_scan"}, "is_disabled": 0, "bike_id": "d8f9fff373f693d0dfd918e403510e6c", "fusion_lon": 0.0, "fusion_lat": 0.0, "is_reserved": 0, "type": "electric_scooter", "lon": -77.03630033333333, "name": "d8f9fff373f693d0dfd918e403510e6c", "lat": 38.93289633333333}, {"rental_uris": {"ios": "https://dc.lft.to/lastmile_qr_scan", "android": "https://dc.lft.to/lastmile_qr_scan"}, "is_disabled": 0, "bike_id": "d36fa636e895ecdebd848579178ee0e5", "fusion_lon": 0.0, "fusion_lat": 0.0, "is_reserved": 0, "type": "electric_scooter", "lon": -77.03252216666667, "name": "d36fa636e895ecdebd848579178ee0e5", "lat": 38.898991}, {"rental_uris": {"ios": "https://dc.lft.to/lastmile_qr_scan", "android": "https://dc.lft.to/lastmile_qr_scan"}, "is_disabled": 0, "bike_id": "d580e4a721a4fc314934e3c0c0017388", "fusion_lon": 0.0, "fusion_lat": 0.0, "is_reserved": 0, "type": "electric_scooter", "lon": -77.0689085, "name": "d580e4a721a4fc314934e3c0c0017388", "lat": 38.904183833333335}, {"rental_uris": {"ios": "https://dc.lft.to/lastmile_qr_scan", "android": "https://dc.lft.to/lastmile_qr_scan"}, "is_disabled": 0, "bike_id": "89b8d64b222e520646b957e210904b1d", "fusion_lon": 0.0, "fusion_lat": 0.0, "is_reserved": 0, "type": "electric_scooter", "lon": -76.993851, "name": "89b8d64b222e520646b957e210904b1d", "lat": 38.91013016666667}, {"rental_uris": {"ios": "https://dc.lft.to/lastmile_qr_scan", "android": "https://dc.lft.to/lastmile_qr_scan"}, "is_disabled": 0, "bike_id": "29d0fd22875522b3fcb09045485050e8", "fusion_lon": 0.0, "fusion_lat": 0.0, "is_reserved": 0, "type": "electric_scooter", "lon": -77.04197666666667, "name": "29d0fd22875522b3fcb09045485050e8", "lat": 38.892246666666665}, {"rental_uris": {"ios": "https://dc.lft.to/lastmile_qr_scan", "android": "https://dc.lft.to/lastmile_qr_scan"}, "is_disabled": 0, "bike_id": "89b5a7056519b39e1fe74e8652fcdcb5", "fusion_lon": 0.0, "fusion_lat": 0.0, "is_reserved": 0, "type": "electric_scooter", "lon": -77.01726066666667, "name": "89b5a7056519b39e1fe74e8652fcdcb5", "lat": 38.92079016666667}, {"rental_uris": {"ios": "https://dc.lft.to/lastmile_qr_scan", "android": "https://dc.lft.to/lastmile_qr_scan"}, "is_disabled": 0, "bike_id": "7d37b22a33cdd8a87697d642863e83ae", "fusion_lon": 0.0, "fusion_lat": 0.0, "is_reserved": 0, "type": "electric_scooter", "lon": -77.01062283333333, "name": "7d37b22a33cdd8a87697d642863e83ae", "lat": 38.89599533333333}, {"rental_uris": {"ios": "https://dc.lft.to/lastmile_qr_scan", "android": "https://dc.lft.to/lastmile_qr_scan"}, "is_disabled": 0, "bike_id": "93d6db57be528a3cac70a36b98e3fd86", "fusion_lon": 0.0, "fusion_lat": 0.0, "is_reserved": 0, "type": "electric_scooter", "lon": -77.0364585, "name": "93d6db57be528a3cac70a36b98e3fd86", "lat": 38.92082683333334}, {"rental_uris": {"ios": "https://dc.lft.to/lastmile_qr_scan", "android": "https://dc.lft.to/lastmile_qr_scan"}, "is_disabled": 0, "bike_id": "91b21b028e9e433aec5c2036c1f9a7b4", "fusion_lon": 0.0, "fusion_lat": 0.0, "is_reserved": 0, "type": "electric_scooter", "lon": -76.937395, "name": "91b21b028e9e433aec5c2036c1f9a7b4", "lat": 38.890077}, {"rental_uris": {"ios": "https://dc.lft.to/lastmile_qr_scan", "android": "https://dc.lft.to/lastmile_qr_scan"}, "is_disabled": 0, "bike_id": "11160b72e2ae5ad970890547cc49dcc2", "fusion_lon": 0.0, "fusion_lat": 0.0, "is_reserved": 0, "type": "electric_scooter", "lon": -77.03830066666667, "name": "11160b72e2ae5ad970890547cc49dcc2", "lat": 38.9147295}, {"rental_uris": {"ios": "https://dc.lft.to/lastmile_qr_scan", "android": "https://dc.lft.to/lastmile_qr_scan"}, "is_disabled": 0, "bike_id": "257c2387cb07d5407ceba19f54a776be", "fusion_lon": 0.0, "fusion_lat": 0.0, "is_reserved": 0, "type": "electric_scooter", "lon": -76.94889783333333, "name": "257c2387cb07d5407ceba19f54a776be", "lat": 38.89530383333334}, {"rental_uris": {"ios": "https://dc.lft.to/lastmile_qr_scan", "android": "https://dc.lft.to/lastmile_qr_scan"}, "is_disabled": 0, "bike_id": "80e2b51502b2c83907ef1c65e0671473", "fusion_lon": 0.0, "fusion_lat": 0.0, "is_reserved": 0, "type": "electric_bike", "lon": -77.049225, "name": "80e2b51502b2c83907ef1c65e0671473", "lat": 38.85573566666667}, {"rental_uris": {"ios": "https://dc.lft.to/lastmile_qr_scan", "android": "https://dc.lft.to/lastmile_qr_scan"}, "is_disabled": 0, "bike_id": "f1059e4d829a62a7a383a9954dc58638", "fusion_lon": 0.0, "fusion_lat": 0.0, "is_reserved": 0, "type": "electric_bike", "lon": -77.13100383333334, "name": "f1059e4d829a62a7a383a9954dc58638", "lat": 39.024327}, {"rental_uris": {"ios": "https://dc.lft.to/lastmile_qr_scan", "android": "https://dc.lft.to/lastmile_qr_scan"}, "is_disabled": 0, "bike_id": "168c6f284e951da3e02275caaddd3947", "fusion_lon": 0.0, "fusion_lat": 0.0, "is_reserved": 0, "type": "electric_scooter", "lon": -76.99342633333333, "name": "168c6f284e951da3e02275caaddd3947", "lat": 38.91035883333333}, {"rental_uris": {"ios": "https://dc.lft.to/lastmile_qr_scan", "android": "https://dc.lft.to/lastmile_qr_scan"}, "is_disabled": 0, "bike_id": "6f7564a895ff99f3d574c875882bb90a", "fusion_lon": 0.0, "fusion_lat": 0.0, "is_reserved": 0, "type": "electric_bike", "lon": -77.09477616666666, "name": "6f7564a895ff99f3d574c875882bb90a", "lat": 39.03048316666667}, {"rental_uris": {"ios": "https://dc.lft.to/lastmile_qr_scan", "android": "https://dc.lft.to/lastmile_qr_scan"}, "is_disabled": 0, "bike_id": "f517001fd1918e2a20695f1f84f8057e", "fusion_lon": 0.0, "fusion_lat": 0.0, "is_reserved": 0, "type": "electric_scooter", "lon": -77.0309165, "name": "f517001fd1918e2a20695f1f84f8057e", "lat": 38.93863866666667}, {"rental_uris": {"ios": "https://dc.lft.to/lastmile_qr_scan", "android": "https://dc.lft.to/lastmile_qr_scan"}, "is_disabled": 0, "bike_id": "5a4ef61822f670960a057b4eb21c1e18", "fusion_lon": 0.0, "fusion_lat": 0.0, "is_reserved": 0, "type": "electric_scooter", "lon": -77.03463733333334, "name": "5a4ef61822f670960a057b4eb21c1e18", "lat": 38.90860166666667}, {"rental_uris": {"ios": "https://dc.lft.to/lastmile_qr_scan", "android": "https://dc.lft.to/lastmile_qr_scan"}, "is_disabled": 0, "bike_id": "9d4faf73bfbfa130710b0d3d1fe19f19", "fusion_lon": 0.0, "fusion_lat": 0.0, "is_reserved": 0, "type": "electric_scooter", "lon": -77.004282, "name": "9d4faf73bfbfa130710b0d3d1fe19f19", "lat": 38.87656283333333}, {"rental_uris": {"ios": "https://dc.lft.to/lastmile_qr_scan", "android": "https://dc.lft.to/lastmile_qr_scan"}, "is_disabled": 0, "bike_id": "70ff19485e44f535a39c3a162506ca1d", "fusion_lon": 0.0, "fusion_lat": 0.0, "is_reserved": 0, "type": "electric_scooter", "lon": -77.07241016666667, "name": "70ff19485e44f535a39c3a162506ca1d", "lat": 38.93947216666667}, {"rental_uris": {"ios": "https://dc.lft.to/lastmile_qr_scan", "android": "https://dc.lft.to/lastmile_qr_scan"}, "is_disabled": 0, "bike_id": "ae0c8f10e653c293336fd52724ca3478", "fusion_lon": 0.0, "fusion_lat": 0.0, "is_reserved": 0, "type": "electric_scooter", "lon": -76.99608683333334, "name": "ae0c8f10e653c293336fd52724ca3478", "lat": 38.88722666666666}, {"rental_uris": {"ios": "https://dc.lft.to/lastmile_qr_scan", "android": "https://dc.lft.to/lastmile_qr_scan"}, "is_disabled": 0, "bike_id": "84136a7eaa2d99b958bfbf4517d47d72", "fusion_lon": 0.0, "fusion_lat": 0.0, "is_reserved": 0, "type": "electric_scooter", "lon": -76.99085383333333, "name": "84136a7eaa2d99b958bfbf4517d47d72", "lat": 38.929528166666664}, {"rental_uris": {"ios": "https://dc.lft.to/lastmile_qr_scan", "android": "https://dc.lft.to/lastmile_qr_scan"}, "is_disabled": 0, "bike_id": "a50bd39fc5da226c9b6e99756dc39787", "fusion_lon": 0.0, "fusion_lat": 0.0, "is_reserved": 0, "type": "electric_scooter", "lon": -77.04428666666666, "name": "a50bd39fc5da226c9b6e99756dc39787", "lat": 38.91108}, {"rental_uris": {"ios": "https://dc.lft.to/lastmile_qr_scan", "android": "https://dc.lft.to/lastmile_qr_scan"}, "is_disabled": 0, "bike_id": "8fb561af3609ae93c8cf33e2a94a95ea", "fusion_lon": 0.0, "fusion_lat": 0.0, "is_reserved": 0, "type": "electric_scooter", "lon": -76.95847016666667, "name": "8fb561af3609ae93c8cf33e2a94a95ea", "lat": 38.892876333333334}, {"rental_uris": {"ios": "https://dc.lft.to/lastmile_qr_scan", "android": "https://dc.lft.to/lastmile_qr_scan"}, "is_disabled": 0, "bike_id": "e05378314551ce1343a6f66e6470c21b", "fusion_lon": 0.0, "fusion_lat": 0.0, "is_reserved": 0, "type": "electric_scooter", "lon": -77.03222016666666, "name": "e05378314551ce1343a6f66e6470c21b", "lat": 38.92004133333333}, {"rental_uris": {"ios": "https://dc.lft.to/lastmile_qr_scan", "android": "https://dc.lft.to/lastmile_qr_scan"}, "is_disabled": 0, "bike_id": "9d5e66628855c818398af872b975f445", "fusion_lon": 0.0, "fusion_lat": 0.0, "is_reserved": 0, "type": "electric_scooter", "lon": -77.0234615, "name": "9d5e66628855c818398af872b975f445", "lat": 38.91778883333333}, {"rental_uris": {"ios": "https://dc.lft.to/lastmile_qr_scan", "android": "https://dc.lft.to/lastmile_qr_scan"}, "is_disabled": 0, "bike_id": "3579c33f2d11fb90c5563d2d407428a7", "fusion_lon": 0.0, "fusion_lat": 0.0, "is_reserved": 0, "type": "electric_scooter", "lon": -76.9960275, "name": "3579c33f2d11fb90c5563d2d407428a7", "lat": 38.90967583333333}, {"rental_uris": {"ios": "https://dc.lft.to/lastmile_qr_scan", "android": "https://dc.lft.to/lastmile_qr_scan"}, "is_disabled": 0, "bike_id": "666bfa98d2f9f94c3b1b5f2d8f4db43d", "fusion_lon": 0.0, "fusion_lat": 0.0, "is_reserved": 0, "type": "electric_scooter", "lon": -76.9771435, "name": "666bfa98d2f9f94c3b1b5f2d8f4db43d", "lat": 38.90028233333334}, {"rental_uris": {"ios": "https://dc.lft.to/lastmile_qr_scan", "android": "https://dc.lft.to/lastmile_qr_scan"}, "is_disabled": 0, "bike_id": "da050bf47851f9f38d849a6cfea21004", "fusion_lon": 0.0, "fusion_lat": 0.0, "is_reserved": 0, "type": "electric_scooter", "lon": -77.03193916666666, "name": "da050bf47851f9f38d849a6cfea21004", "lat": 38.9109545}, {"rental_uris": {"ios": "https://dc.lft.to/lastmile_qr_scan", "android": "https://dc.lft.to/lastmile_qr_scan"}, "is_disabled": 0, "bike_id": "b026c9802cd9dad3b45d685feecdb3fc", "fusion_lon": 0.0, "fusion_lat": 0.0, "is_reserved": 0, "type": "electric_scooter", "lon": -76.94631316666667, "name": "b026c9802cd9dad3b45d685feecdb3fc", "lat": 38.89842933333333}, {"rental_uris": {"ios": "https://dc.lft.to/lastmile_qr_scan", "android": "https://dc.lft.to/lastmile_qr_scan"}, "is_disabled": 0, "bike_id": "8c59f435a17cc55e391ab2621e137c75", "fusion_lon": 0.0, "fusion_lat": 0.0, "is_reserved": 0, "type": "electric_scooter", "lon": -77.080236, "name": "8c59f435a17cc55e391ab2621e137c75", "lat": 38.90924433333333}, {"rental_uris": {"ios": "https://dc.lft.to/lastmile_qr_scan", "android": "https://dc.lft.to/lastmile_qr_scan"}, "is_disabled": 0, "bike_id": "9cb635b2f48396f9d264e7c969a7102f", "fusion_lon": 0.0, "fusion_lat": 0.0, "is_reserved": 0, "type": "electric_scooter", "lon": -77.03164033333333, "name": "9cb635b2f48396f9d264e7c969a7102f", "lat": 38.8922285}, {"rental_uris": {"ios": "https://dc.lft.to/lastmile_qr_scan", "android": "https://dc.lft.to/lastmile_qr_scan"}, "is_disabled": 0, "bike_id": "3ab25b7f5dcd5b23940de6923bb0738f", "fusion_lon": 0.0, "fusion_lat": 0.0, "is_reserved": 0, "type": "electric_scooter", "lon": -77.0449205, "name": "3ab25b7f5dcd5b23940de6923bb0738f", "lat": 38.919204}, {"rental_uris": {"ios": "https://dc.lft.to/lastmile_qr_scan", "android": "https://dc.lft.to/lastmile_qr_scan"}, "is_disabled": 0, "bike_id": "c7c45210ab04e38e967961abe320e5c5", "fusion_lon": 0.0, "fusion_lat": 0.0, "is_reserved": 0, "type": "electric_scooter", "lon": -76.97664933333333, "name": "c7c45210ab04e38e967961abe320e5c5", "lat": 38.867471333333334}, {"rental_uris": {"ios": "https://dc.lft.to/lastmile_qr_scan", "android": "https://dc.lft.to/lastmile_qr_scan"}, "is_disabled": 0, "bike_id": "27d4baa36038b80344822948c3f51216", "fusion_lon": 0.0, "fusion_lat": 0.0, "is_reserved": 0, "type": "electric_scooter", "lon": -77.01844516666667, "name": "27d4baa36038b80344822948c3f51216", "lat": 38.946339}, {"rental_uris": {"ios": "https://dc.lft.to/lastmile_qr_scan", "android": "https://dc.lft.to/lastmile_qr_scan"}, "is_disabled": 0, "bike_id": "893d8dc1ba4af7ddc0cb172d4539035d", "fusion_lon": 0.0, "fusion_lat": 0.0, "is_reserved": 0, "type": "electric_bike", "lon": -77.11850166666666, "name": "893d8dc1ba4af7ddc0cb172d4539035d", "lat": 38.877342666666664}, {"rental_uris": {"ios": "https://dc.lft.to/lastmile_qr_scan", "android": "https://dc.lft.to/lastmile_qr_scan"}, "is_disabled": 0, "bike_id": "ca0c9fc6a5e56c86db193c21ff5faac3", "fusion_lon": 0.0, "fusion_lat": 0.0, "is_reserved": 0, "type": "electric_bike", "lon": -77.0284235, "name": "ca0c9fc6a5e56c86db193c21ff5faac3", "lat": 38.9264445}, {"rental_uris": {"ios": "https://dc.lft.to/lastmile_qr_scan", "android": "https://dc.lft.to/lastmile_qr_scan"}, "is_disabled": 0, "bike_id": "fcb805c101327a8076b9a03d78ebfac7", "fusion_lon": 0.0, "fusion_lat": 0.0, "is_reserved": 0, "type": "electric_scooter", "lon": -77.02765833333333, "name": "fcb805c101327a8076b9a03d78ebfac7", "lat": 38.907305666666666}, {"rental_uris": {"ios": "https://dc.lft.to/lastmile_qr_scan", "android": "https://dc.lft.to/lastmile_qr_scan"}, "is_disabled": 0, "bike_id": "ff94e3209aa19bd35c386b367689c7bf", "fusion_lon": 0.0, "fusion_lat": 0.0, "is_reserved": 0, "type": "electric_scooter", "lon": -77.044793, "name": "ff94e3209aa19bd35c386b367689c7bf", "lat": 38.912807666666666}, {"rental_uris": {"ios": "https://dc.lft.to/lastmile_qr_scan", "android": "https://dc.lft.to/lastmile_qr_scan"}, "is_disabled": 0, "bike_id": "d6766c80d111ad69bb0789042418dcae", "fusion_lon": 0.0, "fusion_lat": 0.0, "is_reserved": 0, "type": "electric_scooter", "lon": -77.02764266666667, "name": "d6766c80d111ad69bb0789042418dcae", "lat": 38.907326833333336}, {"rental_uris": {"ios": "https://dc.lft.to/lastmile_qr_scan", "android": "https://dc.lft.to/lastmile_qr_scan"}, "is_disabled": 0, "bike_id": "dfbdd8213a81df87eb0df05ef5e75f0c", "fusion_lon": 0.0, "fusion_lat": 0.0, "is_reserved": 0, "type": "electric_bike", "lon": -76.93542, "name": "dfbdd8213a81df87eb0df05ef5e75f0c", "lat": 38.951878}, {"rental_uris": {"ios": "https://dc.lft.to/lastmile_qr_scan", "android": "https://dc.lft.to/lastmile_qr_scan"}, "is_disabled": 0, "bike_id": "2cbbd17ef7c3148e699f9358efdccb26", "fusion_lon": 0.0, "fusion_lat": 0.0, "is_reserved": 0, "type": "electric_scooter", "lon": -76.99845266666667, "name": "2cbbd17ef7c3148e699f9358efdccb26", "lat": 38.896247333333335}, {"rental_uris": {"ios": "https://dc.lft.to/lastmile_qr_scan", "android": "https://dc.lft.to/lastmile_qr_scan"}, "is_disabled": 0, "bike_id": "aa502238ba51e476843367ce5c46d3ef", "fusion_lon": 0.0, "fusion_lat": 0.0, "is_reserved": 0, "type": "electric_scooter", "lon": -77.02621233333333, "name": "aa502238ba51e476843367ce5c46d3ef", "lat": 38.8922345}, {"rental_uris": {"ios": "https://dc.lft.to/lastmile_qr_scan", "android": "https://dc.lft.to/lastmile_qr_scan"}, "is_disabled": 0, "bike_id": "2b9c67f52ee78c3d64ddd9e4e596891c", "fusion_lon": 0.0, "fusion_lat": 0.0, "is_reserved": 0, "type": "electric_scooter", "lon": -77.03178283333334, "name": "2b9c67f52ee78c3d64ddd9e4e596891c", "lat": 38.9140455}, {"rental_uris": {"ios": "https://dc.lft.to/lastmile_qr_scan", "android": "https://dc.lft.to/lastmile_qr_scan"}, "is_disabled": 0, "bike_id": "0d22454299c5a259b71743f14d4bc2d9", "fusion_lon": 0.0, "fusion_lat": 0.0, "is_reserved": 0, "type": "electric_scooter", "lon": -77.03842966666667, "name": "0d22454299c5a259b71743f14d4bc2d9", "lat": 38.916071333333335}, {"rental_uris": {"ios": "https://dc.lft.to/lastmile_qr_scan", "android": "https://dc.lft.to/lastmile_qr_scan"}, "is_disabled": 0, "bike_id": "0978d8d4519fd5668734c5cbaae379cb", "fusion_lon": 0.0, "fusion_lat": 0.0, "is_reserved": 0, "type": "electric_scooter", "lon": -77.0262215, "name": "0978d8d4519fd5668734c5cbaae379cb", "lat": 38.89223716666667}, {"rental_uris": {"ios": "https://dc.lft.to/lastmile_qr_scan", "android": "https://dc.lft.to/lastmile_qr_scan"}, "is_disabled": 0, "bike_id": "9deeefd86f6e196b2d5aeff05e50e9fd", "fusion_lon": 0.0, "fusion_lat": 0.0, "is_reserved": 0, "type": "electric_scooter", "lon": -77.00759866666667, "name": "9deeefd86f6e196b2d5aeff05e50e9fd", "lat": 38.900575}, {"rental_uris": {"ios": "https://dc.lft.to/lastmile_qr_scan", "android": "https://dc.lft.to/lastmile_qr_scan"}, "is_disabled": 0, "bike_id": "6757bbaa1ab8f0c47d7eaa5b7d8a6370", "fusion_lon": 0.0, "fusion_lat": 0.0, "is_reserved": 0, "type": "electric_bike", "lon": -76.9322725, "name": "6757bbaa1ab8f0c47d7eaa5b7d8a6370", "lat": 38.86594433333333}, {"rental_uris": {"ios": "https://dc.lft.to/lastmile_qr_scan", "android": "https://dc.lft.to/lastmile_qr_scan"}, "is_disabled": 0, "bike_id": "ddade314247588b0d12e0465fce3ad31", "fusion_lon": 0.0, "fusion_lat": 0.0, "is_reserved": 0, "type": "electric_bike", "lon": -77.1295155, "name": "ddade314247588b0d12e0465fce3ad31", "lat": 38.8522125}, {"rental_uris": {"ios": "https://dc.lft.to/lastmile_qr_scan", "android": "https://dc.lft.to/lastmile_qr_scan"}, "is_disabled": 0, "bike_id": "2a052dd72d888d8c5b786846c47a2892", "fusion_lon": 0.0, "fusion_lat": 0.0, "is_reserved": 0, "type": "electric_scooter", "lon": -77.0317165, "name": "2a052dd72d888d8c5b786846c47a2892", "lat": 38.9193035}, {"rental_uris": {"ios": "https://dc.lft.to/lastmile_qr_scan", "android": "https://dc.lft.to/lastmile_qr_scan"}, "is_disabled": 0, "bike_id": "772c35a11dbfea589c5dc7431f365082", "fusion_lon": 0.0, "fusion_lat": 0.0, "is_reserved": 0, "type": "electric_scooter", "lon": -77.046229, "name": "772c35a11dbfea589c5dc7431f365082", "lat": 38.915507833333336}, {"rental_uris": {"ios": "https://dc.lft.to/lastmile_qr_scan", "android": "https://dc.lft.to/lastmile_qr_scan"}, "is_disabled": 0, "bike_id": "25a5d07a505ca20a5f40e2c3f3d9aa7b", "fusion_lon": 0.0, "fusion_lat": 0.0, "is_reserved": 0, "type": "electric_scooter", "lon": -77.0020935, "name": "25a5d07a505ca20a5f40e2c3f3d9aa7b", "lat": 38.9049545}, {"rental_uris": {"ios": "https://dc.lft.to/lastmile_qr_scan", "android": "https://dc.lft.to/lastmile_qr_scan"}, "is_disabled": 0, "bike_id": "92d1c79ed52bd8fdcbca669acf089ae0", "fusion_lon": 0.0, "fusion_lat": 0.0, "is_reserved": 0, "type": "electric_bike", "lon": -76.98093833333333, "name": "92d1c79ed52bd8fdcbca669acf089ae0", "lat": 38.953560333333336}, {"rental_uris": {"ios": "https://dc.lft.to/lastmile_qr_scan", "android": "https://dc.lft.to/lastmile_qr_scan"}, "is_disabled": 0, "bike_id": "a6af0c5a1805593d9eeea081db8efdfc", "fusion_lon": 0.0, "fusion_lat": 0.0, "is_reserved": 0, "type": "electric_scooter", "lon": -77.04004416666666, "name": "a6af0c5a1805593d9eeea081db8efdfc", "lat": 38.91002916666667}, {"rental_uris": {"ios": "https://dc.lft.to/lastmile_qr_scan", "android": "https://dc.lft.to/lastmile_qr_scan"}, "is_disabled": 0, "bike_id": "1bd887f7833d4125b427da57a9111879", "fusion_lon": 0.0, "fusion_lat": 0.0, "is_reserved": 0, "type": "electric_scooter", "lon": -76.99033850000001, "name": "1bd887f7833d4125b427da57a9111879", "lat": 38.86519766666667}, {"rental_uris": {"ios": "https://dc.lft.to/lastmile_qr_scan", "android": "https://dc.lft.to/lastmile_qr_scan"}, "is_disabled": 0, "bike_id": "1246c94799952ca66bbbb7b53a7001d5", "fusion_lon": 0.0, "fusion_lat": 0.0, "is_reserved": 0, "type": "electric_scooter", "lon": -77.04377383333333, "name": "1246c94799952ca66bbbb7b53a7001d5", "lat": 38.933383166666665}, {"rental_uris": {"ios": "https://dc.lft.to/lastmile_qr_scan", "android": "https://dc.lft.to/lastmile_qr_scan"}, "is_disabled": 0, "bike_id": "a87dd8fb2311d32b523dabbdc7b60eec", "fusion_lon": 0.0, "fusion_lat": 0.0, "is_reserved": 0, "type": "electric_scooter", "lon": -77.04019816666667, "name": "a87dd8fb2311d32b523dabbdc7b60eec", "lat": 38.924504666666664}, {"rental_uris": {"ios": "https://dc.lft.to/lastmile_qr_scan", "android": "https://dc.lft.to/lastmile_qr_scan"}, "is_disabled": 0, "bike_id": "fbd0371499c0abf17f1cc6ef1ff307fe", "fusion_lon": 0.0, "fusion_lat": 0.0, "is_reserved": 0, "type": "electric_scooter", "lon": -77.0401465, "name": "fbd0371499c0abf17f1cc6ef1ff307fe", "lat": 38.903938333333336}, {"rental_uris": {"ios": "https://dc.lft.to/lastmile_qr_scan", "android": "https://dc.lft.to/lastmile_qr_scan"}, "is_disabled": 0, "bike_id": "616365e061ff3a37ca5767fbba96d48a", "fusion_lon": 0.0, "fusion_lat": 0.0, "is_reserved": 0, "type": "electric_scooter", "lon": -77.04326433333334, "name": "616365e061ff3a37ca5767fbba96d48a", "lat": 38.904381}, {"rental_uris": {"ios": "https://dc.lft.to/lastmile_qr_scan", "android": "https://dc.lft.to/lastmile_qr_scan"}, "is_disabled": 0, "bike_id": "5906ad98a26c67651063342be969d201", "fusion_lon": 0.0, "fusion_lat": 0.0, "is_reserved": 0, "type": "electric_scooter", "lon": -77.0152455, "name": "5906ad98a26c67651063342be969d201", "lat": 38.8853855}, {"rental_uris": {"ios": "https://dc.lft.to/lastmile_qr_scan", "android": "https://dc.lft.to/lastmile_qr_scan"}, "is_disabled": 0, "bike_id": "7769de00bde3f7cb1b0c06befa602efc", "fusion_lon": 0.0, "fusion_lat": 0.0, "is_reserved": 0, "type": "electric_scooter", "lon": -76.99006566666667, "name": "7769de00bde3f7cb1b0c06befa602efc", "lat": 38.865106833333336}, {"rental_uris": {"ios": "https://dc.lft.to/lastmile_qr_scan", "android": "https://dc.lft.to/lastmile_qr_scan"}, "is_disabled": 0, "bike_id": "466f06b68302ebb17b16f2a191865f5f", "fusion_lon": 0.0, "fusion_lat": 0.0, "is_reserved": 0, "type": "electric_scooter", "lon": -76.98724833333333, "name": "466f06b68302ebb17b16f2a191865f5f", "lat": 38.86712}, {"rental_uris": {"ios": "https://dc.lft.to/lastmile_qr_scan", "android": "https://dc.lft.to/lastmile_qr_scan"}, "is_disabled": 0, "bike_id": "449d09993b72deb75a0269278f4763aa", "fusion_lon": 0.0, "fusion_lat": 0.0, "is_reserved": 0, "type": "electric_scooter", "lon": -77.02666933333333, "name": "449d09993b72deb75a0269278f4763aa", "lat": 38.9170995}, {"rental_uris": {"ios": "https://dc.lft.to/lastmile_qr_scan", "android": "https://dc.lft.to/lastmile_qr_scan"}, "is_disabled": 0, "bike_id": "c184ce9342777dbf0d756f81feedbc7f", "fusion_lon": 0.0, "fusion_lat": 0.0, "is_reserved": 0, "type": "electric_scooter", "lon": -76.99877333333333, "name": "c184ce9342777dbf0d756f81feedbc7f", "lat": 38.9055975}, {"rental_uris": {"ios": "https://dc.lft.to/lastmile_qr_scan", "android": "https://dc.lft.to/lastmile_qr_scan"}, "is_disabled": 0, "bike_id": "5accdef3085824f6520032d2910dcbf1", "fusion_lon": 0.0, "fusion_lat": 0.0, "is_reserved": 0, "type": "electric_scooter", "lon": -77.0270565, "name": "5accdef3085824f6520032d2910dcbf1", "lat": 38.8958885}, {"rental_uris": {"ios": "https://dc.lft.to/lastmile_qr_scan", "android": "https://dc.lft.to/lastmile_qr_scan"}, "is_disabled": 0, "bike_id": "15e1034c4e4dfb879dd2857e468a9c19", "fusion_lon": 0.0, "fusion_lat": 0.0, "is_reserved": 0, "type": "electric_scooter", "lon": -77.026921, "name": "15e1034c4e4dfb879dd2857e468a9c19", "lat": 38.89576266666667}, {"rental_uris": {"ios": "https://dc.lft.to/lastmile_qr_scan", "android": "https://dc.lft.to/lastmile_qr_scan"}, "is_disabled": 0, "bike_id": "2aaa6483e5de8be5ea61a841a31d0e97", "fusion_lon": 0.0, "fusion_lat": 0.0, "is_reserved": 0, "type": "electric_scooter", "lon": -77.02690733333333, "name": "2aaa6483e5de8be5ea61a841a31d0e97", "lat": 38.91124083333333}, {"rental_uris": {"ios": "https://dc.lft.to/lastmile_qr_scan", "android": "https://dc.lft.to/lastmile_qr_scan"}, "is_disabled": 0, "bike_id": "255fd0d47b451afeaddd027d1e17e1f6", "fusion_lon": 0.0, "fusion_lat": 0.0, "is_reserved": 0, "type": "electric_scooter", "lon": -77.0098565, "name": "255fd0d47b451afeaddd027d1e17e1f6", "lat": 38.8728695}, {"rental_uris": {"ios": "https://dc.lft.to/lastmile_qr_scan", "android": "https://dc.lft.to/lastmile_qr_scan"}, "is_disabled": 0, "bike_id": "9dc4b115df649a9acb38dcad76635ba3", "fusion_lon": 0.0, "fusion_lat": 0.0, "is_reserved": 0, "type": "electric_scooter", "lon": -77.04486283333334, "name": "9dc4b115df649a9acb38dcad76635ba3", "lat": 38.91368383333333}, {"rental_uris": {"ios": "https://dc.lft.to/lastmile_qr_scan", "android": "https://dc.lft.to/lastmile_qr_scan"}, "is_disabled": 0, "bike_id": "c59bf2c5acc65a1de43da49e3b1d62f6", "fusion_lon": 0.0, "fusion_lat": 0.0, "is_reserved": 0, "type": "electric_scooter", "lon": -77.04240133333333, "name": "c59bf2c5acc65a1de43da49e3b1d62f6", "lat": 38.92225533333333}, {"rental_uris": {"ios": "https://dc.lft.to/lastmile_qr_scan", "android": "https://dc.lft.to/lastmile_qr_scan"}, "is_disabled": 0, "bike_id": "35eec7c3cc63b1a1b50db7778d4ed769", "fusion_lon": 0.0, "fusion_lat": 0.0, "is_reserved": 0, "type": "electric_scooter", "lon": -77.025351, "name": "35eec7c3cc63b1a1b50db7778d4ed769", "lat": 38.92371133333333}, {"rental_uris": {"ios": "https://dc.lft.to/lastmile_qr_scan", "android": "https://dc.lft.to/lastmile_qr_scan"}, "is_disabled": 0, "bike_id": "e716021a98cf16defe39d97aee8c05d2", "fusion_lon": 0.0, "fusion_lat": 0.0, "is_reserved": 0, "type": "electric_scooter", "lon": -77.023309, "name": "e716021a98cf16defe39d97aee8c05d2", "lat": 38.923024}, {"rental_uris": {"ios": "https://dc.lft.to/lastmile_qr_scan", "android": "https://dc.lft.to/lastmile_qr_scan"}, "is_disabled": 0, "bike_id": "8c24f08f3aabd83632dbac24ca96ebec", "fusion_lon": 0.0, "fusion_lat": 0.0, "is_reserved": 0, "type": "electric_scooter", "lon": -77.03641583333334, "name": "8c24f08f3aabd83632dbac24ca96ebec", "lat": 38.918416}, {"rental_uris": {"ios": "https://dc.lft.to/lastmile_qr_scan", "android": "https://dc.lft.to/lastmile_qr_scan"}, "is_disabled": 0, "bike_id": "1fdd8798b45a7e100a6cff11111bfce0", "fusion_lon": 0.0, "fusion_lat": 0.0, "is_reserved": 0, "type": "electric_scooter", "lon": -77.04551466666666, "name": "1fdd8798b45a7e100a6cff11111bfce0", "lat": 38.9126985}, {"rental_uris": {"ios": "https://dc.lft.to/lastmile_qr_scan", "android": "https://dc.lft.to/lastmile_qr_scan"}, "is_disabled": 0, "bike_id": "2d07d46e5dba8534616bf89738d014f1", "fusion_lon": 0.0, "fusion_lat": 0.0, "is_reserved": 0, "type": "electric_scooter", "lon": -77.02194766666666, "name": "2d07d46e5dba8534616bf89738d014f1", "lat": 38.93295883333333}, {"rental_uris": {"ios": "https://dc.lft.to/lastmile_qr_scan", "android": "https://dc.lft.to/lastmile_qr_scan"}, "is_disabled": 0, "bike_id": "0bbe86bf8248de6cf0d64fe4623c516c", "fusion_lon": 0.0, "fusion_lat": 0.0, "is_reserved": 0, "type": "electric_scooter", "lon": -77.01540966666667, "name": "0bbe86bf8248de6cf0d64fe4623c516c", "lat": 38.891669666666665}, {"rental_uris": {"ios": "https://dc.lft.to/lastmile_qr_scan", "android": "https://dc.lft.to/lastmile_qr_scan"}, "is_disabled": 0, "bike_id": "05665e4bd9121d80fde7b4071823bb37", "fusion_lon": 0.0, "fusion_lat": 0.0, "is_reserved": 0, "type": "electric_scooter", "lon": -77.07233616666667, "name": "05665e4bd9121d80fde7b4071823bb37", "lat": 38.89891683333333}, {"rental_uris": {"ios": "https://dc.lft.to/lastmile_qr_scan", "android": "https://dc.lft.to/lastmile_qr_scan"}, "is_disabled": 0, "bike_id": "1b3dae3d55d11f7788ea3fe321dc7703", "fusion_lon": 0.0, "fusion_lat": 0.0, "is_reserved": 0, "type": "electric_scooter", "lon": -76.94996466666667, "name": "1b3dae3d55d11f7788ea3fe321dc7703", "lat": 38.8939385}, {"rental_uris": {"ios": "https://dc.lft.to/lastmile_qr_scan", "android": "https://dc.lft.to/lastmile_qr_scan"}, "is_disabled": 0, "bike_id": "ffe66b7ccd817866be52a5fdfed4808d", "fusion_lon": 0.0, "fusion_lat": 0.0, "is_reserved": 0, "type": "electric_scooter", "lon": -77.05131533333333, "name": "ffe66b7ccd817866be52a5fdfed4808d", "lat": 38.923638833333335}, {"rental_uris": {"ios": "https://dc.lft.to/lastmile_qr_scan", "android": "https://dc.lft.to/lastmile_qr_scan"}, "is_disabled": 0, "bike_id": "934b6e844419c2b1a64f52122cb147e9", "fusion_lon": 0.0, "fusion_lat": 0.0, "is_reserved": 0, "type": "electric_scooter", "lon": -77.02178233333333, "name": "934b6e844419c2b1a64f52122cb147e9", "lat": 38.906220833333336}, {"rental_uris": {"ios": "https://dc.lft.to/lastmile_qr_scan", "android": "https://dc.lft.to/lastmile_qr_scan"}, "is_disabled": 0, "bike_id": "3edff733c177aafcdb7b01cd5bae43be", "fusion_lon": 0.0, "fusion_lat": 0.0, "is_reserved": 0, "type": "electric_scooter", "lon": -77.04029233333333, "name": "3edff733c177aafcdb7b01cd5bae43be", "lat": 38.918101166666666}, {"rental_uris": {"ios": "https://dc.lft.to/lastmile_qr_scan", "android": "https://dc.lft.to/lastmile_qr_scan"}, "is_disabled": 0, "bike_id": "e1c05d32b83d6e5b02600ad4978e6705", "fusion_lon": 0.0, "fusion_lat": 0.0, "is_reserved": 0, "type": "electric_scooter", "lon": -77.03144283333333, "name": "e1c05d32b83d6e5b02600ad4978e6705", "lat": 38.91111383333333}, {"rental_uris": {"ios": "https://dc.lft.to/lastmile_qr_scan", "android": "https://dc.lft.to/lastmile_qr_scan"}, "is_disabled": 0, "bike_id": "d30e0b4880e37ad8c501e3884029eafd", "fusion_lon": 0.0, "fusion_lat": 0.0, "is_reserved": 0, "type": "electric_scooter", "lon": -77.031482, "name": "d30e0b4880e37ad8c501e3884029eafd", "lat": 38.91123566666667}, {"rental_uris": {"ios": "https://dc.lft.to/lastmile_qr_scan", "android": "https://dc.lft.to/lastmile_qr_scan"}, "is_disabled": 0, "bike_id": "28d1dfc7d8579feb988254b013d410c2", "fusion_lon": 0.0, "fusion_lat": 0.0, "is_reserved": 0, "type": "electric_scooter", "lon": -77.042463, "name": "28d1dfc7d8579feb988254b013d410c2", "lat": 38.922028}, {"rental_uris": {"ios": "https://dc.lft.to/lastmile_qr_scan", "android": "https://dc.lft.to/lastmile_qr_scan"}, "is_disabled": 0, "bike_id": "346ea0577ac23e60bf17c7be854b853d", "fusion_lon": 0.0, "fusion_lat": 0.0, "is_reserved": 0, "type": "electric_scooter", "lon": -77.05519133333334, "name": "346ea0577ac23e60bf17c7be854b853d", "lat": 38.944153166666666}, {"rental_uris": {"ios": "https://dc.lft.to/lastmile_qr_scan", "android": "https://dc.lft.to/lastmile_qr_scan"}, "is_disabled": 0, "bike_id": "bb2824e6c202203e305c4003fcc592cc", "fusion_lon": 0.0, "fusion_lat": 0.0, "is_reserved": 0, "type": "electric_scooter", "lon": -76.99675516666667, "name": "bb2824e6c202203e305c4003fcc592cc", "lat": 38.90731016666667}, {"rental_uris": {"ios": "https://dc.lft.to/lastmile_qr_scan", "android": "https://dc.lft.to/lastmile_qr_scan"}, "is_disabled": 0, "bike_id": "48a0e931ead74b7ff8847bd634dd66f8", "fusion_lon": 0.0, "fusion_lat": 0.0, "is_reserved": 0, "type": "electric_scooter", "lon": -77.02623516666667, "name": "48a0e931ead74b7ff8847bd634dd66f8", "lat": 38.89221466666667}, {"rental_uris": {"ios": "https://dc.lft.to/lastmile_qr_scan", "android": "https://dc.lft.to/lastmile_qr_scan"}, "is_disabled": 0, "bike_id": "a0947a8c36a7288a291d4f211259f207", "fusion_lon": 0.0, "fusion_lat": 0.0, "is_reserved": 0, "type": "electric_scooter", "lon": -77.02003333333333, "name": "a0947a8c36a7288a291d4f211259f207", "lat": 38.9156735}, {"rental_uris": {"ios": "https://dc.lft.to/lastmile_qr_scan", "android": "https://dc.lft.to/lastmile_qr_scan"}, "is_disabled": 0, "bike_id": "86c69576c69c6d35599a968afaa69b5f", "fusion_lon": 0.0, "fusion_lat": 0.0, "is_reserved": 0, "type": "electric_scooter", "lon": -77.038371, "name": "86c69576c69c6d35599a968afaa69b5f", "lat": 38.9067145}, {"rental_uris": {"ios": "https://dc.lft.to/lastmile_qr_scan", "android": "https://dc.lft.to/lastmile_qr_scan"}, "is_disabled": 0, "bike_id": "51e48d5f03eb72e13f06a5ba6f142be1", "fusion_lon": 0.0, "fusion_lat": 0.0, "is_reserved": 0, "type": "electric_scooter", "lon": -77.03838716666667, "name": "51e48d5f03eb72e13f06a5ba6f142be1", "lat": 38.91759666666667}, {"rental_uris": {"ios": "https://dc.lft.to/lastmile_qr_scan", "android": "https://dc.lft.to/lastmile_qr_scan"}, "is_disabled": 0, "bike_id": "e5f102ee3db0e35813a0f791d095e8a5", "fusion_lon": 0.0, "fusion_lat": 0.0, "is_reserved": 0, "type": "electric_scooter", "lon": -77.00865, "name": "e5f102ee3db0e35813a0f791d095e8a5", "lat": 38.9170855}, {"rental_uris": {"ios": "https://dc.lft.to/lastmile_qr_scan", "android": "https://dc.lft.to/lastmile_qr_scan"}, "is_disabled": 0, "bike_id": "dcc3a65c74a22afb6716fef84e58b7fc", "fusion_lon": 0.0, "fusion_lat": 0.0, "is_reserved": 0, "type": "electric_scooter", "lon": -77.03179483333334, "name": "dcc3a65c74a22afb6716fef84e58b7fc", "lat": 38.9143165}, {"rental_uris": {"ios": "https://dc.lft.to/lastmile_qr_scan", "android": "https://dc.lft.to/lastmile_qr_scan"}, "is_disabled": 0, "bike_id": "fc0b6a4ca7500e4aba608d91a8c54805", "fusion_lon": 0.0, "fusion_lat": 0.0, "is_reserved": 0, "type": "electric_scooter", "lon": -77.026245, "name": "fc0b6a4ca7500e4aba608d91a8c54805", "lat": 38.89219}, {"rental_uris": {"ios": "https://dc.lft.to/lastmile_qr_scan", "android": "https://dc.lft.to/lastmile_qr_scan"}, "is_disabled": 0, "bike_id": "1bfc687b1575ed9cd15ace8da9ec526b", "fusion_lon": 0.0, "fusion_lat": 0.0, "is_reserved": 0, "type": "electric_scooter", "lon": -77.02692016666667, "name": "1bfc687b1575ed9cd15ace8da9ec526b", "lat": 38.9068515}, {"rental_uris": {"ios": "https://dc.lft.to/lastmile_qr_scan", "android": "https://dc.lft.to/lastmile_qr_scan"}, "is_disabled": 0, "bike_id": "0f4dbb9b81f49d0de9d79dc35a92d499", "fusion_lon": 0.0, "fusion_lat": 0.0, "is_reserved": 0, "type": "electric_scooter", "lon": -77.00932183333333, "name": "0f4dbb9b81f49d0de9d79dc35a92d499", "lat": 38.883385833333335}, {"rental_uris": {"ios": "https://dc.lft.to/lastmile_qr_scan", "android": "https://dc.lft.to/lastmile_qr_scan"}, "is_disabled": 0, "bike_id": "18afcb4983647089ef1876d8e8166c2b", "fusion_lon": 0.0, "fusion_lat": 0.0, "is_reserved": 0, "type": "electric_scooter", "lon": -77.032449, "name": "18afcb4983647089ef1876d8e8166c2b", "lat": 38.899051666666665}, {"rental_uris": {"ios": "https://dc.lft.to/lastmile_qr_scan", "android": "https://dc.lft.to/lastmile_qr_scan"}, "is_disabled": 0, "bike_id": "b819f6250ed82c4a637fb26d12ae6e9a", "fusion_lon": 0.0, "fusion_lat": 0.0, "is_reserved": 0, "type": "electric_scooter", "lon": -76.99514033333334, "name": "b819f6250ed82c4a637fb26d12ae6e9a", "lat": 38.8837455}, {"rental_uris": {"ios": "https://dc.lft.to/lastmile_qr_scan", "android": "https://dc.lft.to/lastmile_qr_scan"}, "is_disabled": 0, "bike_id": "be2464bbb524e316f57ea20180937822", "fusion_lon": 0.0, "fusion_lat": 0.0, "is_reserved": 0, "type": "electric_scooter", "lon": -77.04398033333334, "name": "be2464bbb524e316f57ea20180937822", "lat": 38.9014485}, {"rental_uris": {"ios": "https://dc.lft.to/lastmile_qr_scan", "android": "https://dc.lft.to/lastmile_qr_scan"}, "is_disabled": 0, "bike_id": "2166331208b2fa06bb21d807a65455c9", "fusion_lon": 0.0, "fusion_lat": 0.0, "is_reserved": 0, "type": "electric_bike", "lon": -77.11803016666667, "name": "2166331208b2fa06bb21d807a65455c9", "lat": 38.873734666666664}, {"rental_uris": {"ios": "https://dc.lft.to/lastmile_qr_scan", "android": "https://dc.lft.to/lastmile_qr_scan"}, "is_disabled": 0, "bike_id": "a8cd048f0b10d4ebf6f8ca4750d41f2c", "fusion_lon": 0.0, "fusion_lat": 0.0, "is_reserved": 0, "type": "electric_scooter", "lon": -77.0282905, "name": "a8cd048f0b10d4ebf6f8ca4750d41f2c", "lat": 38.931930333333334}, {"rental_uris": {"ios": "https://dc.lft.to/lastmile_qr_scan", "android": "https://dc.lft.to/lastmile_qr_scan"}, "is_disabled": 0, "bike_id": "1e7f64af2fd176c2ced1f3fbb9abd4dc", "fusion_lon": 0.0, "fusion_lat": 0.0, "is_reserved": 0, "type": "electric_scooter", "lon": -77.0318655, "name": "1e7f64af2fd176c2ced1f3fbb9abd4dc", "lat": 38.913309166666664}, {"rental_uris": {"ios": "https://dc.lft.to/lastmile_qr_scan", "android": "https://dc.lft.to/lastmile_qr_scan"}, "is_disabled": 0, "bike_id": "54dfe946acf7c34806ff2d73adf58da6", "fusion_lon": 0.0, "fusion_lat": 0.0, "is_reserved": 0, "type": "electric_bike", "lon": -77.04017233333333, "name": "54dfe946acf7c34806ff2d73adf58da6", "lat": 38.793266}, {"rental_uris": {"ios": "https://dc.lft.to/lastmile_qr_scan", "android": "https://dc.lft.to/lastmile_qr_scan"}, "is_disabled": 0, "bike_id": "6d177855a7967b8b50c9d468f9692272", "fusion_lon": 0.0, "fusion_lat": 0.0, "is_reserved": 0, "type": "electric_bike", "lon": -76.97234566666667, "name": "6d177855a7967b8b50c9d468f9692272", "lat": 38.94904916666667}, {"rental_uris": {"ios": "https://dc.lft.to/lastmile_qr_scan", "android": "https://dc.lft.to/lastmile_qr_scan"}, "is_disabled": 0, "bike_id": "24fe4f0ab4d414cad300570e78c4cdf4", "fusion_lon": 0.0, "fusion_lat": 0.0, "is_reserved": 0, "type": "electric_scooter", "lon": -77.02692633333334, "name": "24fe4f0ab4d414cad300570e78c4cdf4", "lat": 38.911253333333335}, {"rental_uris": {"ios": "https://dc.lft.to/lastmile_qr_scan", "android": "https://dc.lft.to/lastmile_qr_scan"}, "is_disabled": 0, "bike_id": "59c1667723be07239e92ad85211caf3d", "fusion_lon": 0.0, "fusion_lat": 0.0, "is_reserved": 0, "type": "electric_bike", "lon": -77.063526, "name": "59c1667723be07239e92ad85211caf3d", "lat": 38.90285433333333}, {"rental_uris": {"ios": "https://dc.lft.to/lastmile_qr_scan", "android": "https://dc.lft.to/lastmile_qr_scan"}, "is_disabled": 0, "bike_id": "59e63fa1f64473085781344f4cfc73fa", "fusion_lon": 0.0, "fusion_lat": 0.0, "is_reserved": 0, "type": "electric_scooter", "lon": -77.03815466666667, "name": "59e63fa1f64473085781344f4cfc73fa", "lat": 38.9096105}, {"rental_uris": {"ios": "https://dc.lft.to/lastmile_qr_scan", "android": "https://dc.lft.to/lastmile_qr_scan"}, "is_disabled": 0, "bike_id": "74477c2e92881e7f19e8501b49c651ee", "fusion_lon": 0.0, "fusion_lat": 0.0, "is_reserved": 0, "type": "electric_scooter", "lon": -77.03344016666667, "name": "74477c2e92881e7f19e8501b49c651ee", "lat": 38.90965283333333}, {"rental_uris": {"ios": "https://dc.lft.to/lastmile_qr_scan", "android": "https://dc.lft.to/lastmile_qr_scan"}, "is_disabled": 0, "bike_id": "f032ee1ace2fad65cda9991c0f0e9366", "fusion_lon": 0.0, "fusion_lat": 0.0, "is_reserved": 0, "type": "electric_scooter", "lon": -77.040346, "name": "f032ee1ace2fad65cda9991c0f0e9366", "lat": 38.91858716666667}, {"rental_uris": {"ios": "https://dc.lft.to/lastmile_qr_scan", "android": "https://dc.lft.to/lastmile_qr_scan"}, "is_disabled": 0, "bike_id": "90b1a268fb0b288ca83fd459377f4e19", "fusion_lon": 0.0, "fusion_lat": 0.0, "is_reserved": 0, "type": "electric_scooter", "lon": -77.0386845, "name": "90b1a268fb0b288ca83fd459377f4e19", "lat": 38.9215435}, {"rental_uris": {"ios": "https://dc.lft.to/lastmile_qr_scan", "android": "https://dc.lft.to/lastmile_qr_scan"}, "is_disabled": 0, "bike_id": "fdf5a11cc69082ad20662078ccfd9f2a", "fusion_lon": 0.0, "fusion_lat": 0.0, "is_reserved": 0, "type": "electric_scooter", "lon": -77.0439235, "name": "fdf5a11cc69082ad20662078ccfd9f2a", "lat": 38.9235565}, {"rental_uris": {"ios": "https://dc.lft.to/lastmile_qr_scan", "android": "https://dc.lft.to/lastmile_qr_scan"}, "is_disabled": 0, "bike_id": "f08943aaec5a15ba989f14e702436a28", "fusion_lon": 0.0, "fusion_lat": 0.0, "is_reserved": 0, "type": "electric_scooter", "lon": -77.03154916666666, "name": "f08943aaec5a15ba989f14e702436a28", "lat": 38.923635833333336}, {"rental_uris": {"ios": "https://dc.lft.to/lastmile_qr_scan", "android": "https://dc.lft.to/lastmile_qr_scan"}, "is_disabled": 0, "bike_id": "71d78588f68797465c657a6fea605b16", "fusion_lon": 0.0, "fusion_lat": 0.0, "is_reserved": 0, "type": "electric_scooter", "lon": -77.02188516666666, "name": "71d78588f68797465c657a6fea605b16", "lat": 38.916626}, {"rental_uris": {"ios": "https://dc.lft.to/lastmile_qr_scan", "android": "https://dc.lft.to/lastmile_qr_scan"}, "is_disabled": 0, "bike_id": "7f95e26eca8decfc72c92b7e20834539", "fusion_lon": 0.0, "fusion_lat": 0.0, "is_reserved": 0, "type": "electric_scooter", "lon": -77.0229255, "name": "7f95e26eca8decfc72c92b7e20834539", "lat": 38.91666566666667}, {"rental_uris": {"ios": "https://dc.lft.to/lastmile_qr_scan", "android": "https://dc.lft.to/lastmile_qr_scan"}, "is_disabled": 0, "bike_id": "df2eea6ae6a6cf9543d0e0b557728f94", "fusion_lon": 0.0, "fusion_lat": 0.0, "is_reserved": 0, "type": "electric_scooter", "lon": -76.97223483333333, "name": "df2eea6ae6a6cf9543d0e0b557728f94", "lat": 38.85454166666667}, {"rental_uris": {"ios": "https://dc.lft.to/lastmile_qr_scan", "android": "https://dc.lft.to/lastmile_qr_scan"}, "is_disabled": 0, "bike_id": "25ac9d5df79d0b4cce6d2a8131b951df", "fusion_lon": 0.0, "fusion_lat": 0.0, "is_reserved": 0, "type": "electric_scooter", "lon": -77.039654, "name": "25ac9d5df79d0b4cce6d2a8131b951df", "lat": 38.905652333333336}, {"rental_uris": {"ios": "https://dc.lft.to/lastmile_qr_scan", "android": "https://dc.lft.to/lastmile_qr_scan"}, "is_disabled": 0, "bike_id": "4ea1c635264dbcb9b666e9427e36a202", "fusion_lon": 0.0, "fusion_lat": 0.0, "is_reserved": 0, "type": "electric_scooter", "lon": -77.02211683333333, "name": "4ea1c635264dbcb9b666e9427e36a202", "lat": 38.8922365}, {"rental_uris": {"ios": "https://dc.lft.to/lastmile_qr_scan", "android": "https://dc.lft.to/lastmile_qr_scan"}, "is_disabled": 0, "bike_id": "0cab9998be9b6522d2fd932ae2dea91e", "fusion_lon": 0.0, "fusion_lat": 0.0, "is_reserved": 0, "type": "electric_scooter", "lon": -77.022863, "name": "0cab9998be9b6522d2fd932ae2dea91e", "lat": 38.915692}, {"rental_uris": {"ios": "https://dc.lft.to/lastmile_qr_scan", "android": "https://dc.lft.to/lastmile_qr_scan"}, "is_disabled": 0, "bike_id": "0c16225bcbc9bd8e28e2dd467e742b39", "fusion_lon": 0.0, "fusion_lat": 0.0, "is_reserved": 0, "type": "electric_scooter", "lon": -77.05903416666666, "name": "0c16225bcbc9bd8e28e2dd467e742b39", "lat": 38.9021935}, {"rental_uris": {"ios": "https://dc.lft.to/lastmile_qr_scan", "android": "https://dc.lft.to/lastmile_qr_scan"}, "is_disabled": 0, "bike_id": "3170d0c99763c1e111a002fb6f060ed1", "fusion_lon": 0.0, "fusion_lat": 0.0, "is_reserved": 0, "type": "electric_scooter", "lon": -77.05600366666667, "name": "3170d0c99763c1e111a002fb6f060ed1", "lat": 38.90094033333333}, {"rental_uris": {"ios": "https://dc.lft.to/lastmile_qr_scan", "android": "https://dc.lft.to/lastmile_qr_scan"}, "is_disabled": 0, "bike_id": "64306be27ef0595ca958eb2b41f2f6b7", "fusion_lon": 0.0, "fusion_lat": 0.0, "is_reserved": 0, "type": "electric_scooter", "lon": -77.024989, "name": "64306be27ef0595ca958eb2b41f2f6b7", "lat": 38.94175933333333}, {"rental_uris": {"ios": "https://dc.lft.to/lastmile_qr_scan", "android": "https://dc.lft.to/lastmile_qr_scan"}, "is_disabled": 0, "bike_id": "d9afb860f67c4003212443a0884c54c5", "fusion_lon": 0.0, "fusion_lat": 0.0, "is_reserved": 0, "type": "electric_scooter", "lon": -77.00728233333334, "name": "d9afb860f67c4003212443a0884c54c5", "lat": 38.90043033333333}, {"rental_uris": {"ios": "https://dc.lft.to/lastmile_qr_scan", "android": "https://dc.lft.to/lastmile_qr_scan"}, "is_disabled": 0, "bike_id": "935d0808844299a80fd8436ce12fa456", "fusion_lon": 0.0, "fusion_lat": 0.0, "is_reserved": 0, "type": "electric_scooter", "lon": -76.99002566666667, "name": "935d0808844299a80fd8436ce12fa456", "lat": 38.86506333333333}, {"rental_uris": {"ios": "https://dc.lft.to/lastmile_qr_scan", "android": "https://dc.lft.to/lastmile_qr_scan"}, "is_disabled": 0, "bike_id": "3b86dd82bd2b0e56ba74bb9b4608a008", "fusion_lon": 0.0, "fusion_lat": 0.0, "is_reserved": 0, "type": "electric_scooter", "lon": -77.02534616666667, "name": "3b86dd82bd2b0e56ba74bb9b4608a008", "lat": 38.90321433333333}, {"rental_uris": {"ios": "https://dc.lft.to/lastmile_qr_scan", "android": "https://dc.lft.to/lastmile_qr_scan"}, "is_disabled": 0, "bike_id": "adba871d91fa5e08db93cbbd06bad40f", "fusion_lon": 0.0, "fusion_lat": 0.0, "is_reserved": 0, "type": "electric_scooter", "lon": -77.02816683333333, "name": "adba871d91fa5e08db93cbbd06bad40f", "lat": 38.89792166666667}, {"rental_uris": {"ios": "https://dc.lft.to/lastmile_qr_scan", "android": "https://dc.lft.to/lastmile_qr_scan"}, "is_disabled": 0, "bike_id": "7b317da10161663b326868fdf51e8c07", "fusion_lon": 0.0, "fusion_lat": 0.0, "is_reserved": 0, "type": "electric_scooter", "lon": -77.03362116666666, "name": "7b317da10161663b326868fdf51e8c07", "lat": 38.913542666666665}, {"rental_uris": {"ios": "https://dc.lft.to/lastmile_qr_scan", "android": "https://dc.lft.to/lastmile_qr_scan"}, "is_disabled": 0, "bike_id": "c97b81474781bfd931bf18134dc46ff0", "fusion_lon": 0.0, "fusion_lat": 0.0, "is_reserved": 0, "type": "electric_scooter", "lon": -76.93298116666666, "name": "c97b81474781bfd931bf18134dc46ff0", "lat": 38.8922475}, {"rental_uris": {"ios": "https://dc.lft.to/lastmile_qr_scan", "android": "https://dc.lft.to/lastmile_qr_scan"}, "is_disabled": 0, "bike_id": "6d7e7db15f119d302c04abae4402c6ae", "fusion_lon": 0.0, "fusion_lat": 0.0, "is_reserved": 0, "type": "electric_scooter", "lon": -77.0484965, "name": "6d7e7db15f119d302c04abae4402c6ae", "lat": 38.90496616666667}, {"rental_uris": {"ios": "https://dc.lft.to/lastmile_qr_scan", "android": "https://dc.lft.to/lastmile_qr_scan"}, "is_disabled": 0, "bike_id": "ad26e4acb8eeec5a4391190249c4d2c6", "fusion_lon": 0.0, "fusion_lat": 0.0, "is_reserved": 0, "type": "electric_scooter", "lon": -76.98773983333334, "name": "ad26e4acb8eeec5a4391190249c4d2c6", "lat": 38.898307}, {"rental_uris": {"ios": "https://dc.lft.to/lastmile_qr_scan", "android": "https://dc.lft.to/lastmile_qr_scan"}, "is_disabled": 0, "bike_id": "ddd31d55207f5093b6d9db545a9a0814", "fusion_lon": 0.0, "fusion_lat": 0.0, "is_reserved": 0, "type": "electric_scooter", "lon": -77.02833083333333, "name": "ddd31d55207f5093b6d9db545a9a0814", "lat": 38.931935833333334}, {"rental_uris": {"ios": "https://dc.lft.to/lastmile_qr_scan", "android": "https://dc.lft.to/lastmile_qr_scan"}, "is_disabled": 0, "bike_id": "b3110d8a0f67302a0ebb4c786ed67bb1", "fusion_lon": 0.0, "fusion_lat": 0.0, "is_reserved": 0, "type": "electric_scooter", "lon": -77.04509883333333, "name": "b3110d8a0f67302a0ebb4c786ed67bb1", "lat": 38.9036655}, {"rental_uris": {"ios": "https://dc.lft.to/lastmile_qr_scan", "android": "https://dc.lft.to/lastmile_qr_scan"}, "is_disabled": 0, "bike_id": "0ff493ed74dbc0cb1f5c85ea7cf67ed4", "fusion_lon": 0.0, "fusion_lat": 0.0, "is_reserved": 0, "type": "electric_scooter", "lon": -77.03464483333333, "name": "0ff493ed74dbc0cb1f5c85ea7cf67ed4", "lat": 38.907375}, {"rental_uris": {"ios": "https://dc.lft.to/lastmile_qr_scan", "android": "https://dc.lft.to/lastmile_qr_scan"}, "is_disabled": 0, "bike_id": "5d1b83a660c3f2c94d365f95f6445f31", "fusion_lon": 0.0, "fusion_lat": 0.0, "is_reserved": 0, "type": "electric_scooter", "lon": -77.0383995, "name": "5d1b83a660c3f2c94d365f95f6445f31", "lat": 38.92317666666667}, {"rental_uris": {"ios": "https://dc.lft.to/lastmile_qr_scan", "android": "https://dc.lft.to/lastmile_qr_scan"}, "is_disabled": 0, "bike_id": "14d406349447c90dd50b80ee5e1874ae", "fusion_lon": 0.0, "fusion_lat": 0.0, "is_reserved": 0, "type": "electric_scooter", "lon": -77.01203016666666, "name": "14d406349447c90dd50b80ee5e1874ae", "lat": 38.893317833333334}, {"rental_uris": {"ios": "https://dc.lft.to/lastmile_qr_scan", "android": "https://dc.lft.to/lastmile_qr_scan"}, "is_disabled": 0, "bike_id": "bdaff853314d7066d9eb76cd3c3e1ac1", "fusion_lon": 0.0, "fusion_lat": 0.0, "is_reserved": 0, "type": "electric_scooter", "lon": -77.04283966666667, "name": "bdaff853314d7066d9eb76cd3c3e1ac1", "lat": 38.903693833333335}, {"rental_uris": {"ios": "https://dc.lft.to/lastmile_qr_scan", "android": "https://dc.lft.to/lastmile_qr_scan"}, "is_disabled": 0, "bike_id": "653782e8c35e401316ef344245ea7773", "fusion_lon": 0.0, "fusion_lat": 0.0, "is_reserved": 0, "type": "electric_bike", "lon": -77.099592, "name": "653782e8c35e401316ef344245ea7773", "lat": 38.93362466666667}, {"rental_uris": {"ios": "https://dc.lft.to/lastmile_qr_scan", "android": "https://dc.lft.to/lastmile_qr_scan"}, "is_disabled": 0, "bike_id": "5eb037e786c827febd98a11bc7d8b5a6", "fusion_lon": 0.0, "fusion_lat": 0.0, "is_reserved": 0, "type": "electric_scooter", "lon": -77.04459283333334, "name": "5eb037e786c827febd98a11bc7d8b5a6", "lat": 38.903544333333336}, {"rental_uris": {"ios": "https://dc.lft.to/lastmile_qr_scan", "android": "https://dc.lft.to/lastmile_qr_scan"}, "is_disabled": 0, "bike_id": "452f4ff89ae88fd15c7ba1aeba59f42e", "fusion_lon": 0.0, "fusion_lat": 0.0, "is_reserved": 0, "type": "electric_scooter", "lon": -77.04132366666667, "name": "452f4ff89ae88fd15c7ba1aeba59f42e", "lat": 38.92650316666667}, {"rental_uris": {"ios": "https://dc.lft.to/lastmile_qr_scan", "android": "https://dc.lft.to/lastmile_qr_scan"}, "is_disabled": 0, "bike_id": "1c386d38b45ce1f93ab8a333e9f63436", "fusion_lon": 0.0, "fusion_lat": 0.0, "is_reserved": 0, "type": "electric_scooter", "lon": -77.04243333333334, "name": "1c386d38b45ce1f93ab8a333e9f63436", "lat": 38.9220325}, {"rental_uris": {"ios": "https://dc.lft.to/lastmile_qr_scan", "android": "https://dc.lft.to/lastmile_qr_scan"}, "is_disabled": 0, "bike_id": "d221a46da7b7eed26fb6381c49d5bb83", "fusion_lon": 0.0, "fusion_lat": 0.0, "is_reserved": 0, "type": "electric_bike", "lon": -76.92328166666667, "name": "d221a46da7b7eed26fb6381c49d5bb83", "lat": 38.8711025}, {"rental_uris": {"ios": "https://dc.lft.to/lastmile_qr_scan", "android": "https://dc.lft.to/lastmile_qr_scan"}, "is_disabled": 0, "bike_id": "733189ccd3e3bbb7f5894c12cd40ecab", "fusion_lon": 0.0, "fusion_lat": 0.0, "is_reserved": 0, "type": "electric_scooter", "lon": -77.05130133333333, "name": "733189ccd3e3bbb7f5894c12cd40ecab", "lat": 38.92364666666667}, {"rental_uris": {"ios": "https://dc.lft.to/lastmile_qr_scan", "android": "https://dc.lft.to/lastmile_qr_scan"}, "is_disabled": 0, "bike_id": "d4db71370b8c609ee074a869b20f2dfd", "fusion_lon": 0.0, "fusion_lat": 0.0, "is_reserved": 0, "type": "electric_scooter", "lon": -77.03179033333333, "name": "d4db71370b8c609ee074a869b20f2dfd", "lat": 38.919312}, {"rental_uris": {"ios": "https://dc.lft.to/lastmile_qr_scan", "android": "https://dc.lft.to/lastmile_qr_scan"}, "is_disabled": 0, "bike_id": "cf5d05c0ec212c686a834520e4d8a08c", "fusion_lon": 0.0, "fusion_lat": 0.0, "is_reserved": 0, "type": "electric_scooter", "lon": -77.034421, "name": "cf5d05c0ec212c686a834520e4d8a08c", "lat": 38.9184635}, {"rental_uris": {"ios": "https://dc.lft.to/lastmile_qr_scan", "android": "https://dc.lft.to/lastmile_qr_scan"}, "is_disabled": 0, "bike_id": "be39524c8d02da772485dba286333a25", "fusion_lon": 0.0, "fusion_lat": 0.0, "is_reserved": 0, "type": "electric_scooter", "lon": -77.02344366666667, "name": "be39524c8d02da772485dba286333a25", "lat": 38.9178115}, {"rental_uris": {"ios": "https://dc.lft.to/lastmile_qr_scan", "android": "https://dc.lft.to/lastmile_qr_scan"}, "is_disabled": 0, "bike_id": "892de10586f6acc129ca9745da6665a2", "fusion_lon": 0.0, "fusion_lat": 0.0, "is_reserved": 0, "type": "electric_bike", "lon": -76.9610805, "name": "892de10586f6acc129ca9745da6665a2", "lat": 38.851925333333334}, {"rental_uris": {"ios": "https://dc.lft.to/lastmile_qr_scan", "android": "https://dc.lft.to/lastmile_qr_scan"}, "is_disabled": 0, "bike_id": "5cd1029a38f517ed0ccd113495355621", "fusion_lon": 0.0, "fusion_lat": 0.0, "is_reserved": 0, "type": "electric_scooter", "lon": -77.03146066666666, "name": "5cd1029a38f517ed0ccd113495355621", "lat": 38.91570083333333}, {"rental_uris": {"ios": "https://dc.lft.to/lastmile_qr_scan", "android": "https://dc.lft.to/lastmile_qr_scan"}, "is_disabled": 0, "bike_id": "2ac85b8c5d616235f1cddec3d577d7a0", "fusion_lon": 0.0, "fusion_lat": 0.0, "is_reserved": 0, "type": "electric_scooter", "lon": -77.01943716666666, "name": "2ac85b8c5d616235f1cddec3d577d7a0", "lat": 38.9492865}, {"rental_uris": {"ios": "https://dc.lft.to/lastmile_qr_scan", "android": "https://dc.lft.to/lastmile_qr_scan"}, "is_disabled": 0, "bike_id": "85525f93c658efc3945aa74c1114d9d1", "fusion_lon": 0.0, "fusion_lat": 0.0, "is_reserved": 0, "type": "electric_scooter", "lon": -76.9463405, "name": "85525f93c658efc3945aa74c1114d9d1", "lat": 38.8984715}, {"rental_uris": {"ios": "https://dc.lft.to/lastmile_qr_scan", "android": "https://dc.lft.to/lastmile_qr_scan"}, "is_disabled": 0, "bike_id": "e40fadad4b80b24a8b1da53ad8bf7478", "fusion_lon": 0.0, "fusion_lat": 0.0, "is_reserved": 0, "type": "electric_scooter", "lon": -76.98543883333333, "name": "e40fadad4b80b24a8b1da53ad8bf7478", "lat": 38.866938833333336}, {"rental_uris": {"ios": "https://dc.lft.to/lastmile_qr_scan", "android": "https://dc.lft.to/lastmile_qr_scan"}, "is_disabled": 0, "bike_id": "70d217e6a3ab2f45a9ded91bc4d6cc90", "fusion_lon": 0.0, "fusion_lat": 0.0, "is_reserved": 0, "type": "electric_scooter", "lon": -77.01897683333334, "name": "70d217e6a3ab2f45a9ded91bc4d6cc90", "lat": 38.91145616666667}, {"rental_uris": {"ios": "https://dc.lft.to/lastmile_qr_scan", "android": "https://dc.lft.to/lastmile_qr_scan"}, "is_disabled": 0, "bike_id": "53d0456eb243fee82116b484009b5f18", "fusion_lon": 0.0, "fusion_lat": 0.0, "is_reserved": 0, "type": "electric_bike", "lon": -77.1201695, "name": "53d0456eb243fee82116b484009b5f18", "lat": 38.855127}, {"rental_uris": {"ios": "https://dc.lft.to/lastmile_qr_scan", "android": "https://dc.lft.to/lastmile_qr_scan"}, "is_disabled": 0, "bike_id": "f09a335b540c2d8d39c61a0b80471d13", "fusion_lon": 0.0, "fusion_lat": 0.0, "is_reserved": 0, "type": "electric_scooter", "lon": -77.062786, "name": "f09a335b540c2d8d39c61a0b80471d13", "lat": 38.905849833333335}, {"rental_uris": {"ios": "https://dc.lft.to/lastmile_qr_scan", "android": "https://dc.lft.to/lastmile_qr_scan"}, "is_disabled": 0, "bike_id": "79bee59feef1e364464bfdc206411c26", "fusion_lon": 0.0, "fusion_lat": 0.0, "is_reserved": 0, "type": "electric_scooter", "lon": -77.03704466666667, "name": "79bee59feef1e364464bfdc206411c26", "lat": 38.928651333333335}, {"rental_uris": {"ios": "https://dc.lft.to/lastmile_qr_scan", "android": "https://dc.lft.to/lastmile_qr_scan"}, "is_disabled": 0, "bike_id": "75cf5ee23f89e5c83d8698f243dc2d59", "fusion_lon": 0.0, "fusion_lat": 0.0, "is_reserved": 0, "type": "electric_scooter", "lon": -77.04325083333333, "name": "75cf5ee23f89e5c83d8698f243dc2d59", "lat": 38.90620233333333}, {"rental_uris": {"ios": "https://dc.lft.to/lastmile_qr_scan", "android": "https://dc.lft.to/lastmile_qr_scan"}, "is_disabled": 0, "bike_id": "45385eeebc94d7f9113f2f4dc6dc19d7", "fusion_lon": 0.0, "fusion_lat": 0.0, "is_reserved": 0, "type": "electric_scooter", "lon": -77.02217116666667, "name": "45385eeebc94d7f9113f2f4dc6dc19d7", "lat": 38.92486733333333}, {"rental_uris": {"ios": "https://dc.lft.to/lastmile_qr_scan", "android": "https://dc.lft.to/lastmile_qr_scan"}, "is_disabled": 0, "bike_id": "d4240e7f332c08182bed6af032bb3ead", "fusion_lon": 0.0, "fusion_lat": 0.0, "is_reserved": 0, "type": "electric_scooter", "lon": -77.03158166666667, "name": "d4240e7f332c08182bed6af032bb3ead", "lat": 38.915602}, {"rental_uris": {"ios": "https://dc.lft.to/lastmile_qr_scan", "android": "https://dc.lft.to/lastmile_qr_scan"}, "is_disabled": 0, "bike_id": "7062839cf00a0fbf97077acb92a5a265", "fusion_lon": 0.0, "fusion_lat": 0.0, "is_reserved": 0, "type": "electric_bike", "lon": -76.98792666666667, "name": "7062839cf00a0fbf97077acb92a5a265", "lat": 38.922139333333334}, {"rental_uris": {"ios": "https://dc.lft.to/lastmile_qr_scan", "android": "https://dc.lft.to/lastmile_qr_scan"}, "is_disabled": 0, "bike_id": "808d3f1bf0fbdf41eb8977219933c16d", "fusion_lon": 0.0, "fusion_lat": 0.0, "is_reserved": 0, "type": "electric_bike", "lon": -77.05023383333334, "name": "808d3f1bf0fbdf41eb8977219933c16d", "lat": 39.03903733333333}, {"rental_uris": {"ios": "https://dc.lft.to/lastmile_qr_scan", "android": "https://dc.lft.to/lastmile_qr_scan"}, "is_disabled": 0, "bike_id": "00140ab16effb76c7fae7b897402dafb", "fusion_lon": 0.0, "fusion_lat": 0.0, "is_reserved": 0, "type": "electric_scooter", "lon": -77.04423433333334, "name": "00140ab16effb76c7fae7b897402dafb", "lat": 38.932036333333336}, {"rental_uris": {"ios": "https://dc.lft.to/lastmile_qr_scan", "android": "https://dc.lft.to/lastmile_qr_scan"}, "is_disabled": 0, "bike_id": "ed02298d710b902586a3c900d98272f4", "fusion_lon": 0.0, "fusion_lat": 0.0, "is_reserved": 0, "type": "electric_scooter", "lon": -76.9940315, "name": "ed02298d710b902586a3c900d98272f4", "lat": 38.87798133333333}, {"rental_uris": {"ios": "https://dc.lft.to/lastmile_qr_scan", "android": "https://dc.lft.to/lastmile_qr_scan"}, "is_disabled": 0, "bike_id": "82b1cc6a0c5d8e6f82f3ad1aa6163958", "fusion_lon": 0.0, "fusion_lat": 0.0, "is_reserved": 0, "type": "electric_scooter", "lon": -77.03591616666667, "name": "82b1cc6a0c5d8e6f82f3ad1aa6163958", "lat": 38.93304233333333}, {"rental_uris": {"ios": "https://dc.lft.to/lastmile_qr_scan", "android": "https://dc.lft.to/lastmile_qr_scan"}, "is_disabled": 0, "bike_id": "a7a0bf03cf1926e16ddfd214e7747562", "fusion_lon": 0.0, "fusion_lat": 0.0, "is_reserved": 0, "type": "electric_scooter", "lon": -77.05019583333333, "name": "a7a0bf03cf1926e16ddfd214e7747562", "lat": 38.893786}, {"rental_uris": {"ios": "https://dc.lft.to/lastmile_qr_scan", "android": "https://dc.lft.to/lastmile_qr_scan"}, "is_disabled": 0, "bike_id": "298930a60f52d07a20fcea4812aa8259", "fusion_lon": 0.0, "fusion_lat": 0.0, "is_reserved": 0, "type": "electric_scooter", "lon": -77.02968383333334, "name": "298930a60f52d07a20fcea4812aa8259", "lat": 38.90258733333334}, {"rental_uris": {"ios": "https://dc.lft.to/lastmile_qr_scan", "android": "https://dc.lft.to/lastmile_qr_scan"}, "is_disabled": 0, "bike_id": "4342988672681ae6595708ed3dd0b11c", "fusion_lon": 0.0, "fusion_lat": 0.0, "is_reserved": 0, "type": "electric_bike", "lon": -77.05642183333333, "name": "4342988672681ae6595708ed3dd0b11c", "lat": 38.9369305}, {"rental_uris": {"ios": "https://dc.lft.to/lastmile_qr_scan", "android": "https://dc.lft.to/lastmile_qr_scan"}, "is_disabled": 0, "bike_id": "a237f96fcfa5f31148d2699a152226fd", "fusion_lon": 0.0, "fusion_lat": 0.0, "is_reserved": 0, "type": "electric_scooter", "lon": -76.99568833333333, "name": "a237f96fcfa5f31148d2699a152226fd", "lat": 38.89214066666667}, {"rental_uris": {"ios": "https://dc.lft.to/lastmile_qr_scan", "android": "https://dc.lft.to/lastmile_qr_scan"}, "is_disabled": 0, "bike_id": "e001ed0e19d3f051c249f728a94d1535", "fusion_lon": 0.0, "fusion_lat": 0.0, "is_reserved": 0, "type": "electric_scooter", "lon": -77.03748616666667, "name": "e001ed0e19d3f051c249f728a94d1535", "lat": 38.92933716666667}, {"rental_uris": {"ios": "https://dc.lft.to/lastmile_qr_scan", "android": "https://dc.lft.to/lastmile_qr_scan"}, "is_disabled": 0, "bike_id": "d56c6470a5bdb6437f1be3096d598410", "fusion_lon": 0.0, "fusion_lat": 0.0, "is_reserved": 0, "type": "electric_scooter", "lon": -77.00602033333334, "name": "d56c6470a5bdb6437f1be3096d598410", "lat": 38.90636216666667}, {"rental_uris": {"ios": "https://dc.lft.to/lastmile_qr_scan", "android": "https://dc.lft.to/lastmile_qr_scan"}, "is_disabled": 0, "bike_id": "f73e2957e2586ac6ce14f92d87449a1e", "fusion_lon": 0.0, "fusion_lat": 0.0, "is_reserved": 0, "type": "electric_scooter", "lon": -77.01150866666667, "name": "f73e2957e2586ac6ce14f92d87449a1e", "lat": 38.94071783333333}, {"rental_uris": {"ios": "https://dc.lft.to/lastmile_qr_scan", "android": "https://dc.lft.to/lastmile_qr_scan"}, "is_disabled": 0, "bike_id": "1bd66f236f24eca07fea718e2cbebc28", "fusion_lon": 0.0, "fusion_lat": 0.0, "is_reserved": 0, "type": "electric_scooter", "lon": -76.98167616666667, "name": "1bd66f236f24eca07fea718e2cbebc28", "lat": 38.85679866666667}, {"rental_uris": {"ios": "https://dc.lft.to/lastmile_qr_scan", "android": "https://dc.lft.to/lastmile_qr_scan"}, "is_disabled": 0, "bike_id": "69d7ac1f9e1cce21c983ff7020e6531c", "fusion_lon": 0.0, "fusion_lat": 0.0, "is_reserved": 0, "type": "electric_bike", "lon": -76.99772133333333, "name": "69d7ac1f9e1cce21c983ff7020e6531c", "lat": 38.8374215}, {"rental_uris": {"ios": "https://dc.lft.to/lastmile_qr_scan", "android": "https://dc.lft.to/lastmile_qr_scan"}, "is_disabled": 0, "bike_id": "80c44097200f122bdb1949931eb22eb6", "fusion_lon": 0.0, "fusion_lat": 0.0, "is_reserved": 0, "type": "electric_bike", "lon": -76.98836366666667, "name": "80c44097200f122bdb1949931eb22eb6", "lat": 38.84269783333333}, {"rental_uris": {"ios": "https://dc.lft.to/lastmile_qr_scan", "android": "https://dc.lft.to/lastmile_qr_scan"}, "is_disabled": 0, "bike_id": "d85e7770d5ad5bf0f4966f668f7642c0", "fusion_lon": 0.0, "fusion_lat": 0.0, "is_reserved": 0, "type": "electric_scooter", "lon": -77.05037166666666, "name": "d85e7770d5ad5bf0f4966f668f7642c0", "lat": 38.903579666666666}, {"rental_uris": {"ios": "https://dc.lft.to/lastmile_qr_scan", "android": "https://dc.lft.to/lastmile_qr_scan"},