{"data": {"bikes": [{"lat": 38.920715333333334, "fusion_lat": 0.0, "type": "electric_scooter", "bike_id": "403d9bb34ea5befb2f60aaa43b1fe6f1", "rental_uris": {"ios": "https://dc.lft.to/lastmile_qr_scan", "android": "https://dc.lft.to/lastmile_qr_scan"}, "fusion_lon": 0.0, "lon": -77.07457883333333, "name": "403d9bb34ea5befb2f60aaa43b1fe6f1", "is_reserved": 0, "is_disabled": 0}, {"lat": 38.950646, "fusion_lat": 0.0, "type": "electric_bike", "bike_id": "ad7903915217324c14e21ddef74146e6", "rental_uris": {"ios": "https://dc.lft.to/lastmile_qr_scan", "android": "https://dc.lft.to/lastmile_qr_scan"}, "fusion_lon": 0.0, "lon": -77.06663966666666, "name": "ad7903915217324c14e21ddef74146e6", "is_reserved": 0, "is_disabled": 0}, {"lat": 38.88727216666667, "fusion_lat": 0.0, "type": "electric_scooter", "bike_id": "8e381b027b0ad58bbaaa5b9e9e54e2aa", "rental_uris": {"ios": "https://dc.lft.to/lastmile_qr_scan", "android": "https://dc.lft.to/lastmile_qr_scan"}, "fusion_lon": 0.0, "lon": -76.98361516666667, "name": "8e381b027b0ad58bbaaa5b9e9e54e2aa", "is_reserved": 0, "is_disabled": 0}, {"lat": 38.923431, "fusion_lat": 0.0, "type": "electric_scooter", "bike_id": "55106342aad2c2e18630eee644de1c3f", "rental_uris": {"ios": "https://dc.lft.to/lastmile_qr_scan", "android": "https://dc.lft.to/lastmile_qr_scan"}, "fusion_lon": 0.0, "lon": -77.05172066666667, "name": "55106342aad2c2e18630eee644de1c3f", "is_reserved": 0, "is_disabled": 0}, {"lat": 38.88415366666667, "fusion_lat": 0.0, "type": "electric_scooter", "bike_id": "ae66370fb1e6a1ddd1987809d49264ab", "rental_uris": {"ios": "https://dc.lft.to/lastmile_qr_scan", "android": "https://dc.lft.to/lastmile_qr_scan"}, "fusion_lon": 0.0, "lon": -76.94213666666667, "name": "ae66370fb1e6a1ddd1987809d49264ab", "is_reserved": 0, "is_disabled": 0}, {"lat": 38.92050033333334, "fusion_lat": 0.0, "type": "electric_bike", "bike_id": "c86d177da7500d89d3a638d4e8343325", "rental_uris": {"ios": "https://dc.lft.to/lastmile_qr_scan", "android": "https://dc.lft.to/lastmile_qr_scan"}, "fusion_lon": 0.0, "lon": -77.033179, "name": "c86d177da7500d89d3a638d4e8343325", "is_reserved": 0, "is_disabled": 0}, {"lat": 38.920549, "fusion_lat": 0.0, "type": "electric_scooter", "bike_id": "1ce1b2790e863ac7bb000a85e0f8f820", "rental_uris": {"ios": "https://dc.lft.to/lastmile_qr_scan", "android": "https://dc.lft.to/lastmile_qr_scan"}, "fusion_lon": 0.0, "lon": -77.0243475, "name": "1ce1b2790e863ac7bb000a85e0f8f820", "is_reserved": 0, "is_disabled": 0}, {"lat": 38.908155, "fusion_lat": 0.0, "type": "electric_scooter", "bike_id": "6584909a77f951c43cd9a489a88193dd", "rental_uris": {"ios": "https://dc.lft.to/lastmile_qr_scan", "android": "https://dc.lft.to/lastmile_qr_scan"}, "fusion_lon": 0.0, "lon": -77.042505, "name": "6584909a77f951c43cd9a489a88193dd", "is_reserved": 0, "is_disabled": 0}, {"lat": 38.92593133333333, "fusion_lat": 0.0, "type": "electric_scooter", "bike_id": "68900ec143e428c178af0a96bedf082c", "rental_uris": {"ios": "https://dc.lft.to/lastmile_qr_scan", "android": "https://dc.lft.to/lastmile_qr_scan"}, "fusion_lon": 0.0, "lon": -77.03982816666667, "name": "68900ec143e428c178af0a96bedf082c", "is_reserved": 0, "is_disabled": 0}, {"lat": 38.918707833333336, "fusion_lat": 0.0, "type": "electric_scooter", "bike_id": "b9da4d0889479fa20ed0100a3d30dd23", "rental_uris": {"ios": "https://dc.lft.to/lastmile_qr_scan", "android": "https://dc.lft.to/lastmile_qr_scan"}, "fusion_lon": 0.0, "lon": -77.03504016666666, "name": "b9da4d0889479fa20ed0100a3d30dd23", "is_reserved": 0, "is_disabled": 0}, {"lat": 38.9003615, "fusion_lat": 0.0, "type": "electric_scooter", "bike_id": "5fd1613ed52ae69820b700e216470326", "rental_uris": {"ios": "https://dc.lft.to/lastmile_qr_scan", "android": "https://dc.lft.to/lastmile_qr_scan"}, "fusion_lon": 0.0, "lon": -77.04821583333333, "name": "5fd1613ed52ae69820b700e216470326", "is_reserved": 0, "is_disabled": 0}, {"lat": 38.902379, "fusion_lat": 0.0, "type": "electric_scooter", "bike_id": "ae97242b84fb9e6f2ff5e73b1eb20906", "rental_uris": {"ios": "https://dc.lft.to/lastmile_qr_scan", "android": "https://dc.lft.to/lastmile_qr_scan"}, "fusion_lon": 0.0, "lon": -77.0020455, "name": "ae97242b84fb9e6f2ff5e73b1eb20906", "is_reserved": 0, "is_disabled": 0}, {"lat": 38.9050575, "fusion_lat": 0.0, "type": "electric_scooter", "bike_id": "1b9a0f7272d36ddbfe9366e93b0bf1a3", "rental_uris": {"ios": "https://dc.lft.to/lastmile_qr_scan", "android": "https://dc.lft.to/lastmile_qr_scan"}, "fusion_lon": 0.0, "lon": -77.05113183333333, "name": "1b9a0f7272d36ddbfe9366e93b0bf1a3", "is_reserved": 0, "is_disabled": 0}, {"lat": 38.907323166666664, "fusion_lat": 0.0, "type": "electric_scooter", "bike_id": "ca54c1e3aaca6306ec55f65fa0456278", "rental_uris": {"ios": "https://dc.lft.to/lastmile_qr_scan", "android": "https://dc.lft.to/lastmile_qr_scan"}, "fusion_lon": 0.0, "lon": -77.03534783333333, "name": "ca54c1e3aaca6306ec55f65fa0456278", "is_reserved": 0, "is_disabled": 0}, {"lat": 38.936297833333334, "fusion_lat": 0.0, "type": "electric_scooter", "bike_id": "f1211f7932dc27c145007a38c16d1e0e", "rental_uris": {"ios": "https://dc.lft.to/lastmile_qr_scan", "android": "https://dc.lft.to/lastmile_qr_scan"}, "fusion_lon": 0.0, "lon": -77.05881266666667, "name": "f1211f7932dc27c145007a38c16d1e0e", "is_reserved": 0, "is_disabled": 0}, {"lat": 38.907002166666665, "fusion_lat": 0.0, "type": "electric_scooter", "bike_id": "7607dcfc6396fbbcfdfe59b746d46c89", "rental_uris": {"ios": "https://dc.lft.to/lastmile_qr_scan", "android": "https://dc.lft.to/lastmile_qr_scan"}, "fusion_lon": 0.0, "lon": -76.9886155, "name": "7607dcfc6396fbbcfdfe59b746d46c89", "is_reserved": 0, "is_disabled": 0}, {"lat": 38.85772816666667, "fusion_lat": 0.0, "type": "electric_bike", "bike_id": "f59dbb38c5819997d3b570af884742ce", "rental_uris": {"ios": "https://dc.lft.to/lastmile_qr_scan", "android": "https://dc.lft.to/lastmile_qr_scan"}, "fusion_lon": 0.0, "lon": -76.98769216666666, "name": "f59dbb38c5819997d3b570af884742ce", "is_reserved": 0, "is_disabled": 0}, {"lat": 38.91570183333333, "fusion_lat": 0.0, "type": "electric_scooter", "bike_id": "b4de45b395d4323f8b9f654cf07cc705", "rental_uris": {"ios": "https://dc.lft.to/lastmile_qr_scan", "android": "https://dc.lft.to/lastmile_qr_scan"}, "fusion_lon": 0.0, "lon": -77.02522383333333, "name": "b4de45b395d4323f8b9f654cf07cc705", "is_reserved": 0, "is_disabled": 0}, {"lat": 39.08614083333333, "fusion_lat": 0.0, "type": "electric_bike", "bike_id": "10b97861fb18855d4a30cdb7f085872b", "rental_uris": {"ios": "https://dc.lft.to/lastmile_qr_scan", "android": "https://dc.lft.to/lastmile_qr_scan"}, "fusion_lon": 0.0, "lon": -77.15266333333334, "name": "10b97861fb18855d4a30cdb7f085872b", "is_reserved": 0, "is_disabled": 0}, {"lat": 38.914008833333334, "fusion_lat": 0.0, "type": "electric_scooter", "bike_id": "47f27a35013427552ae12fe66f20f5fc", "rental_uris": {"ios": "https://dc.lft.to/lastmile_qr_scan", "android": "https://dc.lft.to/lastmile_qr_scan"}, "fusion_lon": 0.0, "lon": -77.03905466666667, "name": "47f27a35013427552ae12fe66f20f5fc", "is_reserved": 0, "is_disabled": 0}, {"lat": 38.937565666666664, "fusion_lat": 0.0, "type": "electric_scooter", "bike_id": "81cbbf3bc61e87f2912f11ddfa45a0bb", "rental_uris": {"ios": "https://dc.lft.to/lastmile_qr_scan", "android": "https://dc.lft.to/lastmile_qr_scan"}, "fusion_lon": 0.0, "lon": -77.03278666666667, "name": "81cbbf3bc61e87f2912f11ddfa45a0bb", "is_reserved": 0, "is_disabled": 0}, {"lat": 38.89926466666667, "fusion_lat": 0.0, "type": "electric_scooter", "bike_id": "a303c35152ded6e2ff1c079fdc0deec6", "rental_uris": {"ios": "https://dc.lft.to/lastmile_qr_scan", "android": "https://dc.lft.to/lastmile_qr_scan"}, "fusion_lon": 0.0, "lon": -77.04132716666666, "name": "a303c35152ded6e2ff1c079fdc0deec6", "is_reserved": 0, "is_disabled": 0}, {"lat": 38.91711433333333, "fusion_lat": 0.0, "type": "electric_scooter", "bike_id": "3df369d5d3c9262c6ea1090d19c0833c", "rental_uris": {"ios": "https://dc.lft.to/lastmile_qr_scan", "android": "https://dc.lft.to/lastmile_qr_scan"}, "fusion_lon": 0.0, "lon": -77.0290285, "name": "3df369d5d3c9262c6ea1090d19c0833c", "is_reserved": 0, "is_disabled": 0}, {"lat": 38.920399, "fusion_lat": 0.0, "type": "electric_scooter", "bike_id": "dc7d13f4f2c2c5cd24ab7183e0b1dfa0", "rental_uris": {"ios": "https://dc.lft.to/lastmile_qr_scan", "android": "https://dc.lft.to/lastmile_qr_scan"}, "fusion_lon": 0.0, "lon": -77.018196, "name": "dc7d13f4f2c2c5cd24ab7183e0b1dfa0", "is_reserved": 0, "is_disabled": 0}, {"lat": 38.91269033333333, "fusion_lat": 0.0, "type": "electric_scooter", "bike_id": "492f4a76d54328e684efde2f6380fc62", "rental_uris": {"ios": "https://dc.lft.to/lastmile_qr_scan", "android": "https://dc.lft.to/lastmile_qr_scan"}, "fusion_lon": 0.0, "lon": -77.03175583333334, "name": "492f4a76d54328e684efde2f6380fc62", "is_reserved": 0, "is_disabled": 0}, {"lat": 38.878826833333335, "fusion_lat": 0.0, "type": "electric_scooter", "bike_id": "a5cab356304521f132410385edcc2d9d", "rental_uris": {"ios": "https://dc.lft.to/lastmile_qr_scan", "android": "https://dc.lft.to/lastmile_qr_scan"}, "fusion_lon": 0.0, "lon": -77.02323383333334, "name": "a5cab356304521f132410385edcc2d9d", "is_reserved": 0, "is_disabled": 0}, {"lat": 38.877578666666665, "fusion_lat": 0.0, "type": "electric_scooter", "bike_id": "acd4a79e3fad04ae4d269946119985cb", "rental_uris": {"ios": "https://dc.lft.to/lastmile_qr_scan", "android": "https://dc.lft.to/lastmile_qr_scan"}, "fusion_lon": 0.0, "lon": -77.01728333333334, "name": "acd4a79e3fad04ae4d269946119985cb", "is_reserved": 0, "is_disabled": 0}, {"lat": 38.92141016666667, "fusion_lat": 0.0, "type": "electric_scooter", "bike_id": "6e9e05cf80a446cfdeb7d56e69265b98", "rental_uris": {"ios": "https://dc.lft.to/lastmile_qr_scan", "android": "https://dc.lft.to/lastmile_qr_scan"}, "fusion_lon": 0.0, "lon": -77.0183215, "name": "6e9e05cf80a446cfdeb7d56e69265b98", "is_reserved": 0, "is_disabled": 0}, {"lat": 39.03429383333334, "fusion_lat": 0.0, "type": "electric_bike", "bike_id": "c2e6f845c304b0ab30c812005d6a5bce", "rental_uris": {"ios": "https://dc.lft.to/lastmile_qr_scan", "android": "https://dc.lft.to/lastmile_qr_scan"}, "fusion_lon": 0.0, "lon": -77.0431425, "name": "c2e6f845c304b0ab30c812005d6a5bce", "is_reserved": 0, "is_disabled": 0}, {"lat": 38.8605915, "fusion_lat": 0.0, "type": "electric_scooter", "bike_id": "e2011005c915c6d655c6d4565064dec0", "rental_uris": {"ios": "https://dc.lft.to/lastmile_qr_scan", "android": "https://dc.lft.to/lastmile_qr_scan"}, "fusion_lon": 0.0, "lon": -76.96713916666667, "name": "e2011005c915c6d655c6d4565064dec0", "is_reserved": 0, "is_disabled": 0}, {"lat": 38.90521666666667, "fusion_lat": 0.0, "type": "electric_scooter", "bike_id": "f1bb742060ab01b342efc529eedfd249", "rental_uris": {"ios": "https://dc.lft.to/lastmile_qr_scan", "android": "https://dc.lft.to/lastmile_qr_scan"}, "fusion_lon": 0.0, "lon": -77.04842333333333, "name": "f1bb742060ab01b342efc529eedfd249", "is_reserved": 0, "is_disabled": 0}, {"lat": 38.9234085, "fusion_lat": 0.0, "type": "electric_scooter", "bike_id": "d07e00696c5434dd69e143f86a78f323", "rental_uris": {"ios": "https://dc.lft.to/lastmile_qr_scan", "android": "https://dc.lft.to/lastmile_qr_scan"}, "fusion_lon": 0.0, "lon": -77.0353715, "name": "d07e00696c5434dd69e143f86a78f323", "is_reserved": 0, "is_disabled": 0}, {"lat": 38.91609, "fusion_lat": 0.0, "type": "electric_scooter", "bike_id": "5dc03943f6576e1dd14f1448d1a6a73f", "rental_uris": {"ios": "https://dc.lft.to/lastmile_qr_scan", "android": "https://dc.lft.to/lastmile_qr_scan"}, "fusion_lon": 0.0, "lon": -77.0115265, "name": "5dc03943f6576e1dd14f1448d1a6a73f", "is_reserved": 0, "is_disabled": 0}, {"lat": 38.9038505, "fusion_lat": 0.0, "type": "electric_scooter", "bike_id": "4eec533af7fc9dc4ad27b3aa1da747f9", "rental_uris": {"ios": "https://dc.lft.to/lastmile_qr_scan", "android": "https://dc.lft.to/lastmile_qr_scan"}, "fusion_lon": 0.0, "lon": -77.0487895, "name": "4eec533af7fc9dc4ad27b3aa1da747f9", "is_reserved": 0, "is_disabled": 0}, {"lat": 38.877291166666666, "fusion_lat": 0.0, "type": "electric_scooter", "bike_id": "50f66306208130fb1460b2feba80e4f8", "rental_uris": {"ios": "https://dc.lft.to/lastmile_qr_scan", "android": "https://dc.lft.to/lastmile_qr_scan"}, "fusion_lon": 0.0, "lon": -77.01736616666666, "name": "50f66306208130fb1460b2feba80e4f8", "is_reserved": 0, "is_disabled": 0}, {"lat": 38.910621166666665, "fusion_lat": 0.0, "type": "electric_scooter", "bike_id": "aae3859e51a06c0bfb6f5e6e946e520e", "rental_uris": {"ios": "https://dc.lft.to/lastmile_qr_scan", "android": "https://dc.lft.to/lastmile_qr_scan"}, "fusion_lon": 0.0, "lon": -77.044835, "name": "aae3859e51a06c0bfb6f5e6e946e520e", "is_reserved": 0, "is_disabled": 0}, {"lat": 38.9179435, "fusion_lat": 0.0, "type": "electric_scooter", "bike_id": "40c22c63268288150c687a3ef51c6076", "rental_uris": {"ios": "https://dc.lft.to/lastmile_qr_scan", "android": "https://dc.lft.to/lastmile_qr_scan"}, "fusion_lon": 0.0, "lon": -77.0229755, "name": "40c22c63268288150c687a3ef51c6076", "is_reserved": 0, "is_disabled": 0}, {"lat": 38.9205335, "fusion_lat": 0.0, "type": "electric_scooter", "bike_id": "4decc56e06858d6769cad5536fbdd004", "rental_uris": {"ios": "https://dc.lft.to/lastmile_qr_scan", "android": "https://dc.lft.to/lastmile_qr_scan"}, "fusion_lon": 0.0, "lon": -77.01711816666666, "name": "4decc56e06858d6769cad5536fbdd004", "is_reserved": 0, "is_disabled": 0}, {"lat": 38.91526366666667, "fusion_lat": 0.0, "type": "electric_scooter", "bike_id": "12d8233f0ea269e88269c58f5972ccbf", "rental_uris": {"ios": "https://dc.lft.to/lastmile_qr_scan", "android": "https://dc.lft.to/lastmile_qr_scan"}, "fusion_lon": 0.0, "lon": -77.03180816666666, "name": "12d8233f0ea269e88269c58f5972ccbf", "is_reserved": 0, "is_disabled": 0}, {"lat": 38.926391833333334, "fusion_lat": 0.0, "type": "electric_scooter", "bike_id": "c10745f107f23d1f6e4c39f1dada94b9", "rental_uris": {"ios": "https://dc.lft.to/lastmile_qr_scan", "android": "https://dc.lft.to/lastmile_qr_scan"}, "fusion_lon": 0.0, "lon": -77.03400416666666, "name": "c10745f107f23d1f6e4c39f1dada94b9", "is_reserved": 0, "is_disabled": 0}, {"lat": 38.90733616666667, "fusion_lat": 0.0, "type": "electric_scooter", "bike_id": "abb59c8249100e7890d75ceeb7bb0e22", "rental_uris": {"ios": "https://dc.lft.to/lastmile_qr_scan", "android": "https://dc.lft.to/lastmile_qr_scan"}, "fusion_lon": 0.0, "lon": -77.02802183333333, "name": "abb59c8249100e7890d75ceeb7bb0e22", "is_reserved": 0, "is_disabled": 0}, {"lat": 38.931155, "fusion_lat": 0.0, "type": "electric_scooter", "bike_id": "824c66c5f39fbf722af5afc448c1c6cf", "rental_uris": {"ios": "https://dc.lft.to/lastmile_qr_scan", "android": "https://dc.lft.to/lastmile_qr_scan"}, "fusion_lon": 0.0, "lon": -77.02135633333333, "name": "824c66c5f39fbf722af5afc448c1c6cf", "is_reserved": 0, "is_disabled": 0}, {"lat": 38.89773133333333, "fusion_lat": 0.0, "type": "electric_scooter", "bike_id": "31f0a052e3b1f9218ddf3daae7ecfe69", "rental_uris": {"ios": "https://dc.lft.to/lastmile_qr_scan", "android": "https://dc.lft.to/lastmile_qr_scan"}, "fusion_lon": 0.0, "lon": -76.98463516666666, "name": "31f0a052e3b1f9218ddf3daae7ecfe69", "is_reserved": 0, "is_disabled": 0}, {"lat": 38.877091, "fusion_lat": 0.0, "type": "electric_scooter", "bike_id": "bd018042a61df0524ad85c45ae3ac4b1", "rental_uris": {"ios": "https://dc.lft.to/lastmile_qr_scan", "android": "https://dc.lft.to/lastmile_qr_scan"}, "fusion_lon": 0.0, "lon": -76.99688966666666, "name": "bd018042a61df0524ad85c45ae3ac4b1", "is_reserved": 0, "is_disabled": 0}, {"lat": 38.90264666666667, "fusion_lat": 0.0, "type": "electric_scooter", "bike_id": "1b0c26ecd50b5eae5ed8045ad1db4aec", "rental_uris": {"ios": "https://dc.lft.to/lastmile_qr_scan", "android": "https://dc.lft.to/lastmile_qr_scan"}, "fusion_lon": 0.0, "lon": -77.05325583333334, "name": "1b0c26ecd50b5eae5ed8045ad1db4aec", "is_reserved": 0, "is_disabled": 0}, {"lat": 38.9219265, "fusion_lat": 0.0, "type": "electric_scooter", "bike_id": "f568188f5677e46b7329f3e256fdb3b2", "rental_uris": {"ios": "https://dc.lft.to/lastmile_qr_scan", "android": "https://dc.lft.to/lastmile_qr_scan"}, "fusion_lon": 0.0, "lon": -77.03787166666666, "name": "f568188f5677e46b7329f3e256fdb3b2", "is_reserved": 0, "is_disabled": 0}, {"lat": 38.913594333333336, "fusion_lat": 0.0, "type": "electric_scooter", "bike_id": "1ebded91b628c90dee46f0b1232ec14f", "rental_uris": {"ios": "https://dc.lft.to/lastmile_qr_scan", "android": "https://dc.lft.to/lastmile_qr_scan"}, "fusion_lon": 0.0, "lon": -77.02250416666666, "name": "1ebded91b628c90dee46f0b1232ec14f", "is_reserved": 0, "is_disabled": 0}, {"lat": 38.89233866666667, "fusion_lat": 0.0, "type": "electric_scooter", "bike_id": "5bd761beb3b68b263006640bd3ad9e69", "rental_uris": {"ios": "https://dc.lft.to/lastmile_qr_scan", "android": "https://dc.lft.to/lastmile_qr_scan"}, "fusion_lon": 0.0, "lon": -77.04486066666666, "name": "5bd761beb3b68b263006640bd3ad9e69", "is_reserved": 0, "is_disabled": 0}, {"lat": 38.93395616666667, "fusion_lat": 0.0, "type": "electric_scooter", "bike_id": "58a54113e0c260ee61201b9f50af72db", "rental_uris": {"ios": "https://dc.lft.to/lastmile_qr_scan", "android": "https://dc.lft.to/lastmile_qr_scan"}, "fusion_lon": 0.0, "lon": -77.057446, "name": "58a54113e0c260ee61201b9f50af72db", "is_reserved": 0, "is_disabled": 0}, {"lat": 38.96607783333333, "fusion_lat": 0.0, "type": "electric_scooter", "bike_id": "ef159412ae86b6644e2f1b01a7d1d66e", "rental_uris": {"ios": "https://dc.lft.to/lastmile_qr_scan", "android": "https://dc.lft.to/lastmile_qr_scan"}, "fusion_lon": 0.0, "lon": -77.0274465, "name": "ef159412ae86b6644e2f1b01a7d1d66e", "is_reserved": 0, "is_disabled": 0}, {"lat": 38.92313766666667, "fusion_lat": 0.0, "type": "electric_scooter", "bike_id": "a0495298649b75640b153786a7bc1505", "rental_uris": {"ios": "https://dc.lft.to/lastmile_qr_scan", "android": "https://dc.lft.to/lastmile_qr_scan"}, "fusion_lon": 0.0, "lon": -77.04041983333333, "name": "a0495298649b75640b153786a7bc1505", "is_reserved": 0, "is_disabled": 0}, {"lat": 38.897337, "fusion_lat": 0.0, "type": "electric_scooter", "bike_id": "deb0dd16d564e767f5973a75f3a2871b", "rental_uris": {"ios": "https://dc.lft.to/lastmile_qr_scan", "android": "https://dc.lft.to/lastmile_qr_scan"}, "fusion_lon": 0.0, "lon": -77.00964533333334, "name": "deb0dd16d564e767f5973a75f3a2871b", "is_reserved": 0, "is_disabled": 0}, {"lat": 38.8960925, "fusion_lat": 0.0, "type": "electric_scooter", "bike_id": "b0aadb2000edf7d3b3fbf41a4f0518e1", "rental_uris": {"ios": "https://dc.lft.to/lastmile_qr_scan", "android": "https://dc.lft.to/lastmile_qr_scan"}, "fusion_lon": 0.0, "lon": -76.998937, "name": "b0aadb2000edf7d3b3fbf41a4f0518e1", "is_reserved": 0, "is_disabled": 0}, {"lat": 38.89578783333333, "fusion_lat": 0.0, "type": "electric_scooter", "bike_id": "b7896c307686cbd816523961c4a6ca80", "rental_uris": {"ios": "https://dc.lft.to/lastmile_qr_scan", "android": "https://dc.lft.to/lastmile_qr_scan"}, "fusion_lon": 0.0, "lon": -76.98321633333333, "name": "b7896c307686cbd816523961c4a6ca80", "is_reserved": 0, "is_disabled": 0}, {"lat": 38.91660783333333, "fusion_lat": 0.0, "type": "electric_scooter", "bike_id": "4be29ee91b93362b363ca48079dc7f2b", "rental_uris": {"ios": "https://dc.lft.to/lastmile_qr_scan", "android": "https://dc.lft.to/lastmile_qr_scan"}, "fusion_lon": 0.0, "lon": -77.02796333333333, "name": "4be29ee91b93362b363ca48079dc7f2b", "is_reserved": 0, "is_disabled": 0}, {"lat": 38.8653945, "fusion_lat": 0.0, "type": "electric_scooter", "bike_id": "a21761d1869e78c7c5b5a5a5cd77097e", "rental_uris": {"ios": "https://dc.lft.to/lastmile_qr_scan", "android": "https://dc.lft.to/lastmile_qr_scan"}, "fusion_lon": 0.0, "lon": -76.98711933333334, "name": "a21761d1869e78c7c5b5a5a5cd77097e", "is_reserved": 0, "is_disabled": 0}, {"lat": 38.862659666666666, "fusion_lat": 0.0, "type": "electric_scooter", "bike_id": "7c2ee5641c669f2dbb947696b152605e", "rental_uris": {"ios": "https://dc.lft.to/lastmile_qr_scan", "android": "https://dc.lft.to/lastmile_qr_scan"}, "fusion_lon": 0.0, "lon": -76.99535683333333, "name": "7c2ee5641c669f2dbb947696b152605e", "is_reserved": 0, "is_disabled": 0}, {"lat": 38.920077666666664, "fusion_lat": 0.0, "type": "electric_scooter", "bike_id": "56fb89f133404e6d971cb17f1b8a24ba", "rental_uris": {"ios": "https://dc.lft.to/lastmile_qr_scan", "android": "https://dc.lft.to/lastmile_qr_scan"}, "fusion_lon": 0.0, "lon": -77.03225016666667, "name": "56fb89f133404e6d971cb17f1b8a24ba", "is_reserved": 0, "is_disabled": 0}, {"lat": 38.899690666666665, "fusion_lat": 0.0, "type": "electric_scooter", "bike_id": "120c4ade534beb70eed982ee6fbd60b9", "rental_uris": {"ios": "https://dc.lft.to/lastmile_qr_scan", "android": "https://dc.lft.to/lastmile_qr_scan"}, "fusion_lon": 0.0, "lon": -77.022224, "name": "120c4ade534beb70eed982ee6fbd60b9", "is_reserved": 0, "is_disabled": 0}, {"lat": 38.90882166666667, "fusion_lat": 0.0, "type": "electric_scooter", "bike_id": "7b4279e0ad4497c86d6174a3483f0133", "rental_uris": {"ios": "https://dc.lft.to/lastmile_qr_scan", "android": "https://dc.lft.to/lastmile_qr_scan"}, "fusion_lon": 0.0, "lon": -77.0026715, "name": "7b4279e0ad4497c86d6174a3483f0133", "is_reserved": 0, "is_disabled": 0}, {"lat": 38.927846833333334, "fusion_lat": 0.0, "type": "electric_scooter", "bike_id": "0a5f7796c20c66a37f032756ce44e10b", "rental_uris": {"ios": "https://dc.lft.to/lastmile_qr_scan", "android": "https://dc.lft.to/lastmile_qr_scan"}, "fusion_lon": 0.0, "lon": -77.0212965, "name": "0a5f7796c20c66a37f032756ce44e10b", "is_reserved": 0, "is_disabled": 0}, {"lat": 38.91924016666667, "fusion_lat": 0.0, "type": "electric_scooter", "bike_id": "a9e5fec4683d81d7418e4074b5674a34", "rental_uris": {"ios": "https://dc.lft.to/lastmile_qr_scan", "android": "https://dc.lft.to/lastmile_qr_scan"}, "fusion_lon": 0.0, "lon": -77.0326235, "name": "a9e5fec4683d81d7418e4074b5674a34", "is_reserved": 0, "is_disabled": 0}, {"lat": 38.903923666666664, "fusion_lat": 0.0, "type": "electric_scooter", "bike_id": "a109fc2ba6b88b1f836375cabb1cac5c", "rental_uris": {"ios": "https://dc.lft.to/lastmile_qr_scan", "android": "https://dc.lft.to/lastmile_qr_scan"}, "fusion_lon": 0.0, "lon": -77.05358366666667, "name": "a109fc2ba6b88b1f836375cabb1cac5c", "is_reserved": 0, "is_disabled": 0}, {"lat": 38.87392066666666, "fusion_lat": 0.0, "type": "electric_scooter", "bike_id": "64b282eafbbfc1f25d888c7b95ff3904", "rental_uris": {"ios": "https://dc.lft.to/lastmile_qr_scan", "android": "https://dc.lft.to/lastmile_qr_scan"}, "fusion_lon": 0.0, "lon": -77.00036683333333, "name": "64b282eafbbfc1f25d888c7b95ff3904", "is_reserved": 0, "is_disabled": 0}, {"lat": 38.91843516666667, "fusion_lat": 0.0, "type": "electric_scooter", "bike_id": "cf2239389c9abc61b625f82385d9004b", "rental_uris": {"ios": "https://dc.lft.to/lastmile_qr_scan", "android": "https://dc.lft.to/lastmile_qr_scan"}, "fusion_lon": 0.0, "lon": -77.02292716666666, "name": "cf2239389c9abc61b625f82385d9004b", "is_reserved": 0, "is_disabled": 0}, {"lat": 38.938768, "fusion_lat": 0.0, "type": "electric_scooter", "bike_id": "33d1619e5642107e897fdf5dc282e990", "rental_uris": {"ios": "https://dc.lft.to/lastmile_qr_scan", "android": "https://dc.lft.to/lastmile_qr_scan"}, "fusion_lon": 0.0, "lon": -77.0248435, "name": "33d1619e5642107e897fdf5dc282e990", "is_reserved": 0, "is_disabled": 0}, {"lat": 38.9309545, "fusion_lat": 0.0, "type": "electric_scooter", "bike_id": "aca508a5a63b094a2e21fd80a80158d5", "rental_uris": {"ios": "https://dc.lft.to/lastmile_qr_scan", "android": "https://dc.lft.to/lastmile_qr_scan"}, "fusion_lon": 0.0, "lon": -77.02656, "name": "aca508a5a63b094a2e21fd80a80158d5", "is_reserved": 0, "is_disabled": 0}, {"lat": 38.896198, "fusion_lat": 0.0, "type": "electric_scooter", "bike_id": "5dbf96b84cecebdf20675939aec0352b", "rental_uris": {"ios": "https://dc.lft.to/lastmile_qr_scan", "android": "https://dc.lft.to/lastmile_qr_scan"}, "fusion_lon": 0.0, "lon": -77.02355616666667, "name": "5dbf96b84cecebdf20675939aec0352b", "is_reserved": 0, "is_disabled": 0}, {"lat": 38.91348966666666, "fusion_lat": 0.0, "type": "electric_scooter", "bike_id": "ec2136a832b8b11d6e38bebd298737a4", "rental_uris": {"ios": "https://dc.lft.to/lastmile_qr_scan", "android": "https://dc.lft.to/lastmile_qr_scan"}, "fusion_lon": 0.0, "lon": -77.04347616666666, "name": "ec2136a832b8b11d6e38bebd298737a4", "is_reserved": 0, "is_disabled": 0}, {"lat": 38.91413883333333, "fusion_lat": 0.0, "type": "electric_scooter", "bike_id": "9f6d0499bfd79e2ae53bf01013482142", "rental_uris": {"ios": "https://dc.lft.to/lastmile_qr_scan", "android": "https://dc.lft.to/lastmile_qr_scan"}, "fusion_lon": 0.0, "lon": -77.02236133333334, "name": "9f6d0499bfd79e2ae53bf01013482142", "is_reserved": 0, "is_disabled": 0}, {"lat": 38.934327, "fusion_lat": 0.0, "type": "electric_scooter", "bike_id": "1eac5ce4b512ef5a24d51f519f19be4d", "rental_uris": {"ios": "https://dc.lft.to/lastmile_qr_scan", "android": "https://dc.lft.to/lastmile_qr_scan"}, "fusion_lon": 0.0, "lon": -77.045398, "name": "1eac5ce4b512ef5a24d51f519f19be4d", "is_reserved": 0, "is_disabled": 0}, {"lat": 38.918726666666664, "fusion_lat": 0.0, "type": "electric_scooter", "bike_id": "bcd984bd8b9bc1e26d1575891e51659d", "rental_uris": {"ios": "https://dc.lft.to/lastmile_qr_scan", "android": "https://dc.lft.to/lastmile_qr_scan"}, "fusion_lon": 0.0, "lon": -77.047668, "name": "bcd984bd8b9bc1e26d1575891e51659d", "is_reserved": 0, "is_disabled": 0}, {"lat": 38.93628183333333, "fusion_lat": 0.0, "type": "electric_scooter", "bike_id": "97bf21c8c93dec5a305da7b3ae4f4ea3", "rental_uris": {"ios": "https://dc.lft.to/lastmile_qr_scan", "android": "https://dc.lft.to/lastmile_qr_scan"}, "fusion_lon": 0.0, "lon": -77.05878716666666, "name": "97bf21c8c93dec5a305da7b3ae4f4ea3", "is_reserved": 0, "is_disabled": 0}, {"lat": 38.956735333333334, "fusion_lat": 0.0, "type": "electric_scooter", "bike_id": "21c6f246e3e04c4ab34eb2e4f86141f7", "rental_uris": {"ios": "https://dc.lft.to/lastmile_qr_scan", "android": "https://dc.lft.to/lastmile_qr_scan"}, "fusion_lon": 0.0, "lon": -77.01356816666667, "name": "21c6f246e3e04c4ab34eb2e4f86141f7", "is_reserved": 0, "is_disabled": 0}, {"lat": 38.941984833333336, "fusion_lat": 0.0, "type": "electric_scooter", "bike_id": "d3420e114ed932f2d15376a4d8ebe40b", "rental_uris": {"ios": "https://dc.lft.to/lastmile_qr_scan", "android": "https://dc.lft.to/lastmile_qr_scan"}, "fusion_lon": 0.0, "lon": -77.02479183333334, "name": "d3420e114ed932f2d15376a4d8ebe40b", "is_reserved": 0, "is_disabled": 0}, {"lat": 38.876653, "fusion_lat": 0.0, "type": "electric_scooter", "bike_id": "0e8fdffe0fdf3358def70c77295f6ccf", "rental_uris": {"ios": "https://dc.lft.to/lastmile_qr_scan", "android": "https://dc.lft.to/lastmile_qr_scan"}, "fusion_lon": 0.0, "lon": -77.0028915, "name": "0e8fdffe0fdf3358def70c77295f6ccf", "is_reserved": 0, "is_disabled": 0}, {"lat": 38.916264, "fusion_lat": 0.0, "type": "electric_scooter", "bike_id": "4a764094b1328026dce5904b0cb648c6", "rental_uris": {"ios": "https://dc.lft.to/lastmile_qr_scan", "android": "https://dc.lft.to/lastmile_qr_scan"}, "fusion_lon": 0.0, "lon": -77.04026016666667, "name": "4a764094b1328026dce5904b0cb648c6", "is_reserved": 0, "is_disabled": 0}, {"lat": 38.891797, "fusion_lat": 0.0, "type": "electric_scooter", "bike_id": "af7fc70f1d89a9b1e9eaa78fb044bea8", "rental_uris": {"ios": "https://dc.lft.to/lastmile_qr_scan", "android": "https://dc.lft.to/lastmile_qr_scan"}, "fusion_lon": 0.0, "lon": -76.99539533333333, "name": "af7fc70f1d89a9b1e9eaa78fb044bea8", "is_reserved": 0, "is_disabled": 0}, {"lat": 38.90158316666667, "fusion_lat": 0.0, "type": "electric_scooter", "bike_id": "f29eaf4a15a9eabacb92dc400f72e868", "rental_uris": {"ios": "https://dc.lft.to/lastmile_qr_scan", "android": "https://dc.lft.to/lastmile_qr_scan"}, "fusion_lon": 0.0, "lon": -77.03938066666667, "name": "f29eaf4a15a9eabacb92dc400f72e868", "is_reserved": 0, "is_disabled": 0}, {"lat": 38.932170166666666, "fusion_lat": 0.0, "type": "electric_scooter", "bike_id": "40ba9e054ec9d74c7f85c5bbbae67f6c", "rental_uris": {"ios": "https://dc.lft.to/lastmile_qr_scan", "android": "https://dc.lft.to/lastmile_qr_scan"}, "fusion_lon": 0.0, "lon": -77.029818, "name": "40ba9e054ec9d74c7f85c5bbbae67f6c", "is_reserved": 0, "is_disabled": 0}, {"lat": 38.93252316666667, "fusion_lat": 0.0, "type": "electric_scooter", "bike_id": "265fab770be1b5de2818d5b7086e0968", "rental_uris": {"ios": "https://dc.lft.to/lastmile_qr_scan", "android": "https://dc.lft.to/lastmile_qr_scan"}, "fusion_lon": 0.0, "lon": -77.0328775, "name": "265fab770be1b5de2818d5b7086e0968", "is_reserved": 0, "is_disabled": 0}, {"lat": 38.920962333333335, "fusion_lat": 0.0, "type": "electric_scooter", "bike_id": "b7da61caf18dc9d90d97595cce791e8c", "rental_uris": {"ios": "https://dc.lft.to/lastmile_qr_scan", "android": "https://dc.lft.to/lastmile_qr_scan"}, "fusion_lon": 0.0, "lon": -77.0365285, "name": "b7da61caf18dc9d90d97595cce791e8c", "is_reserved": 0, "is_disabled": 0}, {"lat": 38.8957045, "fusion_lat": 0.0, "type": "electric_scooter", "bike_id": "698a0680926ee68117cb354f7be39522", "rental_uris": {"ios": "https://dc.lft.to/lastmile_qr_scan", "android": "https://dc.lft.to/lastmile_qr_scan"}, "fusion_lon": 0.0, "lon": -76.983206, "name": "698a0680926ee68117cb354f7be39522", "is_reserved": 0, "is_disabled": 0}, {"lat": 38.908677833333336, "fusion_lat": 0.0, "type": "electric_scooter", "bike_id": "2e5599fd9ed5e8a6000a201763c4b28f", "rental_uris": {"ios": "https://dc.lft.to/lastmile_qr_scan", "android": "https://dc.lft.to/lastmile_qr_scan"}, "fusion_lon": 0.0, "lon": -77.02382716666666, "name": "2e5599fd9ed5e8a6000a201763c4b28f", "is_reserved": 0, "is_disabled": 0}, {"lat": 38.90952933333333, "fusion_lat": 0.0, "type": "electric_scooter", "bike_id": "acc71f3585340fc34308b0689edeb337", "rental_uris": {"ios": "https://dc.lft.to/lastmile_qr_scan", "android": "https://dc.lft.to/lastmile_qr_scan"}, "fusion_lon": 0.0, "lon": -77.04444866666667, "name": "acc71f3585340fc34308b0689edeb337", "is_reserved": 0, "is_disabled": 0}, {"lat": 38.915321666666664, "fusion_lat": 0.0, "type": "electric_scooter", "bike_id": "0658f3d9089c836b79f0c8e7aee9c1f1", "rental_uris": {"ios": "https://dc.lft.to/lastmile_qr_scan", "android": "https://dc.lft.to/lastmile_qr_scan"}, "fusion_lon": 0.0, "lon": -77.031932, "name": "0658f3d9089c836b79f0c8e7aee9c1f1", "is_reserved": 0, "is_disabled": 0}, {"lat": 38.90237916666667, "fusion_lat": 0.0, "type": "electric_scooter", "bike_id": "7d7baf9fbb14f3bfe1e88ef6430b9be8", "rental_uris": {"ios": "https://dc.lft.to/lastmile_qr_scan", "android": "https://dc.lft.to/lastmile_qr_scan"}, "fusion_lon": 0.0, "lon": -77.00206366666667, "name": "7d7baf9fbb14f3bfe1e88ef6430b9be8", "is_reserved": 0, "is_disabled": 0}, {"lat": 38.9371035, "fusion_lat": 0.0, "type": "electric_scooter", "bike_id": "936544fd550ebac1b47ad9c03b7a93b1", "rental_uris": {"ios": "https://dc.lft.to/lastmile_qr_scan", "android": "https://dc.lft.to/lastmile_qr_scan"}, "fusion_lon": 0.0, "lon": -77.035216, "name": "936544fd550ebac1b47ad9c03b7a93b1", "is_reserved": 0, "is_disabled": 0}, {"lat": 38.93424866666667, "fusion_lat": 0.0, "type": "electric_scooter", "bike_id": "c16d955e18c86f0d3a5bc0b2610471ce", "rental_uris": {"ios": "https://dc.lft.to/lastmile_qr_scan", "android": "https://dc.lft.to/lastmile_qr_scan"}, "fusion_lon": 0.0, "lon": -77.04281516666667, "name": "c16d955e18c86f0d3a5bc0b2610471ce", "is_reserved": 0, "is_disabled": 0}, {"lat": 38.9379605, "fusion_lat": 0.0, "type": "electric_scooter", "bike_id": "995dfd3f97f034e2db5038cf4a7c22d3", "rental_uris": {"ios": "https://dc.lft.to/lastmile_qr_scan", "android": "https://dc.lft.to/lastmile_qr_scan"}, "fusion_lon": 0.0, "lon": -77.032842, "name": "995dfd3f97f034e2db5038cf4a7c22d3", "is_reserved": 0, "is_disabled": 0}, {"lat": 38.931035333333334, "fusion_lat": 0.0, "type": "electric_scooter", "bike_id": "74a9a73cdf8f8f3399be0bf060982a65", "rental_uris": {"ios": "https://dc.lft.to/lastmile_qr_scan", "android": "https://dc.lft.to/lastmile_qr_scan"}, "fusion_lon": 0.0, "lon": -77.02466666666666, "name": "74a9a73cdf8f8f3399be0bf060982a65", "is_reserved": 0, "is_disabled": 0}, {"lat": 38.902696166666665, "fusion_lat": 0.0, "type": "electric_scooter", "bike_id": "54eb4fa0b078587c369e039d1787ed13", "rental_uris": {"ios": "https://dc.lft.to/lastmile_qr_scan", "android": "https://dc.lft.to/lastmile_qr_scan"}, "fusion_lon": 0.0, "lon": -77.03407566666667, "name": "54eb4fa0b078587c369e039d1787ed13", "is_reserved": 0, "is_disabled": 0}, {"lat": 38.915555166666664, "fusion_lat": 0.0, "type": "electric_scooter", "bike_id": "211eb413d7b7eb6b04432d215a013b7b", "rental_uris": {"ios": "https://dc.lft.to/lastmile_qr_scan", "android": "https://dc.lft.to/lastmile_qr_scan"}, "fusion_lon": 0.0, "lon": -77.00703833333333, "name": "211eb413d7b7eb6b04432d215a013b7b", "is_reserved": 0, "is_disabled": 0}, {"lat": 38.900454833333335, "fusion_lat": 0.0, "type": "electric_scooter", "bike_id": "9c4e976a6b7fe623d3dc03713da61725", "rental_uris": {"ios": "https://dc.lft.to/lastmile_qr_scan", "android": "https://dc.lft.to/lastmile_qr_scan"}, "fusion_lon": 0.0, "lon": -77.02948283333333, "name": "9c4e976a6b7fe623d3dc03713da61725", "is_reserved": 0, "is_disabled": 0}, {"lat": 38.90087033333333, "fusion_lat": 0.0, "type": "electric_scooter", "bike_id": "e6ebf9fbd22053a903aa5a460ee27eee", "rental_uris": {"ios": "https://dc.lft.to/lastmile_qr_scan", "android": "https://dc.lft.to/lastmile_qr_scan"}, "fusion_lon": 0.0, "lon": -77.00649616666666, "name": "e6ebf9fbd22053a903aa5a460ee27eee", "is_reserved": 0, "is_disabled": 0}, {"lat": 38.927974166666665, "fusion_lat": 0.0, "type": "electric_scooter", "bike_id": "8c977bfa8cd1349c222d7ff077ad20e8", "rental_uris": {"ios": "https://dc.lft.to/lastmile_qr_scan", "android": "https://dc.lft.to/lastmile_qr_scan"}, "fusion_lon": 0.0, "lon": -77.04061016666667, "name": "8c977bfa8cd1349c222d7ff077ad20e8", "is_reserved": 0, "is_disabled": 0}, {"lat": 38.91769933333333, "fusion_lat": 0.0, "type": "electric_scooter", "bike_id": "6977fb13fdc78036eab2f93ff94344be", "rental_uris": {"ios": "https://dc.lft.to/lastmile_qr_scan", "android": "https://dc.lft.to/lastmile_qr_scan"}, "fusion_lon": 0.0, "lon": -77.0149445, "name": "6977fb13fdc78036eab2f93ff94344be", "is_reserved": 0, "is_disabled": 0}, {"lat": 38.90041866666667, "fusion_lat": 0.0, "type": "electric_scooter", "bike_id": "cb0f72842b836b1be18a3c110c1f704d", "rental_uris": {"ios": "https://dc.lft.to/lastmile_qr_scan", "android": "https://dc.lft.to/lastmile_qr_scan"}, "fusion_lon": 0.0, "lon": -77.04826983333334, "name": "cb0f72842b836b1be18a3c110c1f704d", "is_reserved": 0, "is_disabled": 0}, {"lat": 38.922456833333335, "fusion_lat": 0.0, "type": "electric_scooter", "bike_id": "27620868a09e11ee95ae3726d3f7eab7", "rental_uris": {"ios": "https://dc.lft.to/lastmile_qr_scan", "android": "https://dc.lft.to/lastmile_qr_scan"}, "fusion_lon": 0.0, "lon": -77.01946966666667, "name": "27620868a09e11ee95ae3726d3f7eab7", "is_reserved": 0, "is_disabled": 0}, {"lat": 38.93274566666667, "fusion_lat": 0.0, "type": "electric_scooter", "bike_id": "5054de71f240d0bfe6ddaacfc75ad369", "rental_uris": {"ios": "https://dc.lft.to/lastmile_qr_scan", "android": "https://dc.lft.to/lastmile_qr_scan"}, "fusion_lon": 0.0, "lon": -76.98438483333334, "name": "5054de71f240d0bfe6ddaacfc75ad369", "is_reserved": 0, "is_disabled": 0}, {"lat": 38.9120095, "fusion_lat": 0.0, "type": "electric_scooter", "bike_id": "152bd65fd1750f5d30f94c0fe96ba13a", "rental_uris": {"ios": "https://dc.lft.to/lastmile_qr_scan", "android": "https://dc.lft.to/lastmile_qr_scan"}, "fusion_lon": 0.0, "lon": -77.0187965, "name": "152bd65fd1750f5d30f94c0fe96ba13a", "is_reserved": 0, "is_disabled": 0}, {"lat": 38.9275985, "fusion_lat": 0.0, "type": "electric_scooter", "bike_id": "42e2b1e68a61688a8d806039c643f8d9", "rental_uris": {"ios": "https://dc.lft.to/lastmile_qr_scan", "android": "https://dc.lft.to/lastmile_qr_scan"}, "fusion_lon": 0.0, "lon": -77.05262933333333, "name": "42e2b1e68a61688a8d806039c643f8d9", "is_reserved": 0, "is_disabled": 0}, {"lat": 38.94700016666667, "fusion_lat": 0.0, "type": "electric_scooter", "bike_id": "b1873c1f8cd4775dd16690963b9c6b1d", "rental_uris": {"ios": "https://dc.lft.to/lastmile_qr_scan", "android": "https://dc.lft.to/lastmile_qr_scan"}, "fusion_lon": 0.0, "lon": -77.019453, "name": "b1873c1f8cd4775dd16690963b9c6b1d", "is_reserved": 0, "is_disabled": 0}, {"lat": 38.91399, "fusion_lat": 0.0, "type": "electric_scooter", "bike_id": "795d287028d21c585dbd1a20e21216c0", "rental_uris": {"ios": "https://dc.lft.to/lastmile_qr_scan", "android": "https://dc.lft.to/lastmile_qr_scan"}, "fusion_lon": 0.0, "lon": -77.01019333333333, "name": "795d287028d21c585dbd1a20e21216c0", "is_reserved": 0, "is_disabled": 0}, {"lat": 38.911277, "fusion_lat": 0.0, "type": "electric_scooter", "bike_id": "1311cf154cdf37a67347a9a2d1d1372e", "rental_uris": {"ios": "https://dc.lft.to/lastmile_qr_scan", "android": "https://dc.lft.to/lastmile_qr_scan"}, "fusion_lon": 0.0, "lon": -77.0527365, "name": "1311cf154cdf37a67347a9a2d1d1372e", "is_reserved": 0, "is_disabled": 0}, {"lat": 38.90002666666667, "fusion_lat": 0.0, "type": "electric_scooter", "bike_id": "662039e64d7bfffac7f0d0b11da476dd", "rental_uris": {"ios": "https://dc.lft.to/lastmile_qr_scan", "android": "https://dc.lft.to/lastmile_qr_scan"}, "fusion_lon": 0.0, "lon": -77.02370533333334, "name": "662039e64d7bfffac7f0d0b11da476dd", "is_reserved": 0, "is_disabled": 0}, {"lat": 38.89887866666667, "fusion_lat": 0.0, "type": "electric_scooter", "bike_id": "97241812efe4dbd375a2f9e501efa743", "rental_uris": {"ios": "https://dc.lft.to/lastmile_qr_scan", "android": "https://dc.lft.to/lastmile_qr_scan"}, "fusion_lon": 0.0, "lon": -76.93178166666667, "name": "97241812efe4dbd375a2f9e501efa743", "is_reserved": 0, "is_disabled": 0}, {"lat": 38.89195816666667, "fusion_lat": 0.0, "type": "electric_scooter", "bike_id": "0bfa8fd98755782752fab02ebfef8047", "rental_uris": {"ios": "https://dc.lft.to/lastmile_qr_scan", "android": "https://dc.lft.to/lastmile_qr_scan"}, "fusion_lon": 0.0, "lon": -77.02376116666667, "name": "0bfa8fd98755782752fab02ebfef8047", "is_reserved": 0, "is_disabled": 0}, {"lat": 38.93078383333334, "fusion_lat": 0.0, "type": "electric_scooter", "bike_id": "a7391248c89823f83c1dc9178b2b3767", "rental_uris": {"ios": "https://dc.lft.to/lastmile_qr_scan", "android": "https://dc.lft.to/lastmile_qr_scan"}, "fusion_lon": 0.0, "lon": -76.9960785, "name": "a7391248c89823f83c1dc9178b2b3767", "is_reserved": 0, "is_disabled": 0}, {"lat": 38.932486, "fusion_lat": 0.0, "type": "electric_scooter", "bike_id": "1bf512e3d5db05cb97e17750b0d42485", "rental_uris": {"ios": "https://dc.lft.to/lastmile_qr_scan", "android": "https://dc.lft.to/lastmile_qr_scan"}, "fusion_lon": 0.0, "lon": -77.03275116666667, "name": "1bf512e3d5db05cb97e17750b0d42485", "is_reserved": 0, "is_disabled": 0}, {"lat": 38.921916333333336, "fusion_lat": 0.0, "type": "electric_scooter", "bike_id": "831b6153d11dbfa484b94eff8bd04cc5", "rental_uris": {"ios": "https://dc.lft.to/lastmile_qr_scan", "android": "https://dc.lft.to/lastmile_qr_scan"}, "fusion_lon": 0.0, "lon": -77.04249233333333, "name": "831b6153d11dbfa484b94eff8bd04cc5", "is_reserved": 0, "is_disabled": 0}, {"lat": 38.9117545, "fusion_lat": 0.0, "type": "electric_scooter", "bike_id": "bd1ca7b364de3a3f4eb6045058997ee0", "rental_uris": {"ios": "https://dc.lft.to/lastmile_qr_scan", "android": "https://dc.lft.to/lastmile_qr_scan"}, "fusion_lon": 0.0, "lon": -77.0169585, "name": "bd1ca7b364de3a3f4eb6045058997ee0", "is_reserved": 0, "is_disabled": 0}, {"lat": 38.914925, "fusion_lat": 0.0, "type": "electric_scooter", "bike_id": "c56252e7a08a7df9776c3622b4d4d7f8", "rental_uris": {"ios": "https://dc.lft.to/lastmile_qr_scan", "android": "https://dc.lft.to/lastmile_qr_scan"}, "fusion_lon": 0.0, "lon": -77.01995983333333, "name": "c56252e7a08a7df9776c3622b4d4d7f8", "is_reserved": 0, "is_disabled": 0}, {"lat": 38.912419, "fusion_lat": 0.0, "type": "electric_scooter", "bike_id": "24d9fb68afa0ae86ae22ba59c9b3c3a0", "rental_uris": {"ios": "https://dc.lft.to/lastmile_qr_scan", "android": "https://dc.lft.to/lastmile_qr_scan"}, "fusion_lon": 0.0, "lon": -77.04071716666667, "name": "24d9fb68afa0ae86ae22ba59c9b3c3a0", "is_reserved": 0, "is_disabled": 0}, {"lat": 38.927713833333335, "fusion_lat": 0.0, "type": "electric_scooter", "bike_id": "d72bcdbdd6b32854dd5976de0c0d1120", "rental_uris": {"ios": "https://dc.lft.to/lastmile_qr_scan", "android": "https://dc.lft.to/lastmile_qr_scan"}, "fusion_lon": 0.0, "lon": -77.026246, "name": "d72bcdbdd6b32854dd5976de0c0d1120", "is_reserved": 0, "is_disabled": 0}, {"lat": 38.917994166666666, "fusion_lat": 0.0, "type": "electric_scooter", "bike_id": "6d17fdf91a99beb68a1a65021ab57081", "rental_uris": {"ios": "https://dc.lft.to/lastmile_qr_scan", "android": "https://dc.lft.to/lastmile_qr_scan"}, "fusion_lon": 0.0, "lon": -77.02707483333333, "name": "6d17fdf91a99beb68a1a65021ab57081", "is_reserved": 0, "is_disabled": 0}, {"lat": 38.905539166666664, "fusion_lat": 0.0, "type": "electric_scooter", "bike_id": "dc0a69f598d9da94a033fce8aba00253", "rental_uris": {"ios": "https://dc.lft.to/lastmile_qr_scan", "android": "https://dc.lft.to/lastmile_qr_scan"}, "fusion_lon": 0.0, "lon": -77.04679333333333, "name": "dc0a69f598d9da94a033fce8aba00253", "is_reserved": 0, "is_disabled": 0}, {"lat": 38.94205383333333, "fusion_lat": 0.0, "type": "electric_scooter", "bike_id": "00c799dbefda83fe770a7b2fe361e483", "rental_uris": {"ios": "https://dc.lft.to/lastmile_qr_scan", "android": "https://dc.lft.to/lastmile_qr_scan"}, "fusion_lon": 0.0, "lon": -77.02599483333333, "name": "00c799dbefda83fe770a7b2fe361e483", "is_reserved": 0, "is_disabled": 0}, {"lat": 38.892251, "fusion_lat": 0.0, "type": "electric_scooter", "bike_id": "eaa52d526c0bbd9fbffee3509ca81345", "rental_uris": {"ios": "https://dc.lft.to/lastmile_qr_scan", "android": "https://dc.lft.to/lastmile_qr_scan"}, "fusion_lon": 0.0, "lon": -77.02785316666667, "name": "eaa52d526c0bbd9fbffee3509ca81345", "is_reserved": 0, "is_disabled": 0}, {"lat": 38.928856, "fusion_lat": 0.0, "type": "electric_scooter", "bike_id": "6fc89a9b82c788d2011f43e3e26b6a40", "rental_uris": {"ios": "https://dc.lft.to/lastmile_qr_scan", "android": "https://dc.lft.to/lastmile_qr_scan"}, "fusion_lon": 0.0, "lon": -77.03275216666667, "name": "6fc89a9b82c788d2011f43e3e26b6a40", "is_reserved": 0, "is_disabled": 0}, {"lat": 38.891039166666665, "fusion_lat": 0.0, "type": "electric_bike", "bike_id": "e193a8d79d2b903c1c5a9fd5499a6664", "rental_uris": {"ios": "https://dc.lft.to/lastmile_qr_scan", "android": "https://dc.lft.to/lastmile_qr_scan"}, "fusion_lon": 0.0, "lon": -76.9347995, "name": "e193a8d79d2b903c1c5a9fd5499a6664", "is_reserved": 0, "is_disabled": 0}, {"lat": 38.92239283333333, "fusion_lat": 0.0, "type": "electric_scooter", "bike_id": "e13e30ca92f970704550ac6e67deb6a7", "rental_uris": {"ios": "https://dc.lft.to/lastmile_qr_scan", "android": "https://dc.lft.to/lastmile_qr_scan"}, "fusion_lon": 0.0, "lon": -77.07316116666667, "name": "e13e30ca92f970704550ac6e67deb6a7", "is_reserved": 0, "is_disabled": 0}, {"lat": 38.9258565, "fusion_lat": 0.0, "type": "electric_scooter", "bike_id": "35cd4af051bbdbc5241b279931dc88b7", "rental_uris": {"ios": "https://dc.lft.to/lastmile_qr_scan", "android": "https://dc.lft.to/lastmile_qr_scan"}, "fusion_lon": 0.0, "lon": -77.0354305, "name": "35cd4af051bbdbc5241b279931dc88b7", "is_reserved": 0, "is_disabled": 0}, {"lat": 38.8873025, "fusion_lat": 0.0, "type": "electric_scooter", "bike_id": "996ffca4d8433f6529f640cfd4a38b8b", "rental_uris": {"ios": "https://dc.lft.to/lastmile_qr_scan", "android": "https://dc.lft.to/lastmile_qr_scan"}, "fusion_lon": 0.0, "lon": -77.02386633333333, "name": "996ffca4d8433f6529f640cfd4a38b8b", "is_reserved": 0, "is_disabled": 0}, {"lat": 38.891971, "fusion_lat": 0.0, "type": "electric_scooter", "bike_id": "45fcfcc39262aef452d50466737dc0cc", "rental_uris": {"ios": "https://dc.lft.to/lastmile_qr_scan", "android": "https://dc.lft.to/lastmile_qr_scan"}, "fusion_lon": 0.0, "lon": -77.02378233333333, "name": "45fcfcc39262aef452d50466737dc0cc", "is_reserved": 0, "is_disabled": 0}, {"lat": 38.90724633333333, "fusion_lat": 0.0, "type": "electric_scooter", "bike_id": "2db51e0d7f18d7d9e7ea30f4b3151dc3", "rental_uris": {"ios": "https://dc.lft.to/lastmile_qr_scan", "android": "https://dc.lft.to/lastmile_qr_scan"}, "fusion_lon": 0.0, "lon": -77.02966316666667, "name": "2db51e0d7f18d7d9e7ea30f4b3151dc3", "is_reserved": 0, "is_disabled": 0}, {"lat": 38.89605366666667, "fusion_lat": 0.0, "type": "electric_scooter", "bike_id": "4678cb8e38b577f17c247520a07d8430", "rental_uris": {"ios": "https://dc.lft.to/lastmile_qr_scan", "android": "https://dc.lft.to/lastmile_qr_scan"}, "fusion_lon": 0.0, "lon": -77.00935366666667, "name": "4678cb8e38b577f17c247520a07d8430", "is_reserved": 0, "is_disabled": 0}, {"lat": 38.9567415, "fusion_lat": 0.0, "type": "electric_scooter", "bike_id": "44ad38356f6c934ef41dfe8f68a759c5", "rental_uris": {"ios": "https://dc.lft.to/lastmile_qr_scan", "android": "https://dc.lft.to/lastmile_qr_scan"}, "fusion_lon": 0.0, "lon": -77.01361483333334, "name": "44ad38356f6c934ef41dfe8f68a759c5", "is_reserved": 0, "is_disabled": 0}, {"lat": 38.9565035, "fusion_lat": 0.0, "type": "electric_scooter", "bike_id": "65bd5652f172de418bd84ff89b37e589", "rental_uris": {"ios": "https://dc.lft.to/lastmile_qr_scan", "android": "https://dc.lft.to/lastmile_qr_scan"}, "fusion_lon": 0.0, "lon": -77.01968716666667, "name": "65bd5652f172de418bd84ff89b37e589", "is_reserved": 0, "is_disabled": 0}, {"lat": 38.916756166666666, "fusion_lat": 0.0, "type": "electric_scooter", "bike_id": "574cd763f8fc0140bde5c5074a74604c", "rental_uris": {"ios": "https://dc.lft.to/lastmile_qr_scan", "android": "https://dc.lft.to/lastmile_qr_scan"}, "fusion_lon": 0.0, "lon": -77.02796933333333, "name": "574cd763f8fc0140bde5c5074a74604c", "is_reserved": 0, "is_disabled": 0}, {"lat": 38.92039716666667, "fusion_lat": 0.0, "type": "electric_scooter", "bike_id": "046d8ee48c998fcf8c592baad0305fb8", "rental_uris": {"ios": "https://dc.lft.to/lastmile_qr_scan", "android": "https://dc.lft.to/lastmile_qr_scan"}, "fusion_lon": 0.0, "lon": -77.0408575, "name": "046d8ee48c998fcf8c592baad0305fb8", "is_reserved": 0, "is_disabled": 0}, {"lat": 38.90784583333333, "fusion_lat": 0.0, "type": "electric_scooter", "bike_id": "b09b338bb2364fcd76b39d391973d43a", "rental_uris": {"ios": "https://dc.lft.to/lastmile_qr_scan", "android": "https://dc.lft.to/lastmile_qr_scan"}, "fusion_lon": 0.0, "lon": -77.03193, "name": "b09b338bb2364fcd76b39d391973d43a", "is_reserved": 0, "is_disabled": 0}, {"lat": 38.892375333333334, "fusion_lat": 0.0, "type": "electric_scooter", "bike_id": "3101fe9250a33af370ffd36d626d222d", "rental_uris": {"ios": "https://dc.lft.to/lastmile_qr_scan", "android": "https://dc.lft.to/lastmile_qr_scan"}, "fusion_lon": 0.0, "lon": -77.0416615, "name": "3101fe9250a33af370ffd36d626d222d", "is_reserved": 0, "is_disabled": 0}, {"lat": 38.884260833333336, "fusion_lat": 0.0, "type": "electric_scooter", "bike_id": "eececda4cc09b87be62d5e8686479b8a", "rental_uris": {"ios": "https://dc.lft.to/lastmile_qr_scan", "android": "https://dc.lft.to/lastmile_qr_scan"}, "fusion_lon": 0.0, "lon": -77.0173375, "name": "eececda4cc09b87be62d5e8686479b8a", "is_reserved": 0, "is_disabled": 0}, {"lat": 38.906484666666664, "fusion_lat": 0.0, "type": "electric_scooter", "bike_id": "a4ca7d1d29fa06b61ba169142321241f", "rental_uris": {"ios": "https://dc.lft.to/lastmile_qr_scan", "android": "https://dc.lft.to/lastmile_qr_scan"}, "fusion_lon": 0.0, "lon": -77.02476466666667, "name": "a4ca7d1d29fa06b61ba169142321241f", "is_reserved": 0, "is_disabled": 0}, {"lat": 38.925386333333336, "fusion_lat": 0.0, "type": "electric_scooter", "bike_id": "62d5edff723bb509e8a412599c34508e", "rental_uris": {"ios": "https://dc.lft.to/lastmile_qr_scan", "android": "https://dc.lft.to/lastmile_qr_scan"}, "fusion_lon": 0.0, "lon": -77.03828433333334, "name": "62d5edff723bb509e8a412599c34508e", "is_reserved": 0, "is_disabled": 0}, {"lat": 38.90482166666666, "fusion_lat": 0.0, "type": "electric_scooter", "bike_id": "82a14695c25dffec01b9df43eba256d8", "rental_uris": {"ios": "https://dc.lft.to/lastmile_qr_scan", "android": "https://dc.lft.to/lastmile_qr_scan"}, "fusion_lon": 0.0, "lon": -76.97328333333333, "name": "82a14695c25dffec01b9df43eba256d8", "is_reserved": 0, "is_disabled": 0}, {"lat": 38.9086225, "fusion_lat": 0.0, "type": "electric_scooter", "bike_id": "bb22326a1229a65d9e827c8f01afae01", "rental_uris": {"ios": "https://dc.lft.to/lastmile_qr_scan", "android": "https://dc.lft.to/lastmile_qr_scan"}, "fusion_lon": 0.0, "lon": -76.9997345, "name": "bb22326a1229a65d9e827c8f01afae01", "is_reserved": 0, "is_disabled": 0}, {"lat": 38.8974675, "fusion_lat": 0.0, "type": "electric_scooter", "bike_id": "883c130636a10e7c3d166f86683d6269", "rental_uris": {"ios": "https://dc.lft.to/lastmile_qr_scan", "android": "https://dc.lft.to/lastmile_qr_scan"}, "fusion_lon": 0.0, "lon": -77.0434795, "name": "883c130636a10e7c3d166f86683d6269", "is_reserved": 0, "is_disabled": 0}, {"lat": 38.99673133333334, "fusion_lat": 0.0, "type": "electric_bike", "bike_id": "e86f07ff5a25b429440757f672e9affc", "rental_uris": {"ios": "https://dc.lft.to/lastmile_qr_scan", "android": "https://dc.lft.to/lastmile_qr_scan"}, "fusion_lon": 0.0, "lon": -77.0379305, "name": "e86f07ff5a25b429440757f672e9affc", "is_reserved": 0, "is_disabled": 0}, {"lat": 38.912682833333335, "fusion_lat": 0.0, "type": "electric_scooter", "bike_id": "14fc27267db282e77f33742315c1876f", "rental_uris": {"ios": "https://dc.lft.to/lastmile_qr_scan", "android": "https://dc.lft.to/lastmile_qr_scan"}, "fusion_lon": 0.0, "lon": -77.02216633333333, "name": "14fc27267db282e77f33742315c1876f", "is_reserved": 0, "is_disabled": 0}, {"lat": 38.9123395, "fusion_lat": 0.0, "type": "electric_scooter", "bike_id": "6632a9fce6e1982e5f94bd2f5c2a7168", "rental_uris": {"ios": "https://dc.lft.to/lastmile_qr_scan", "android": "https://dc.lft.to/lastmile_qr_scan"}, "fusion_lon": 0.0, "lon": -77.06104333333333, "name": "6632a9fce6e1982e5f94bd2f5c2a7168", "is_reserved": 0, "is_disabled": 0}, {"lat": 38.92344416666667, "fusion_lat": 0.0, "type": "electric_scooter", "bike_id": "511f3a488e97252fcc4ae4c3e8e88176", "rental_uris": {"ios": "https://dc.lft.to/lastmile_qr_scan", "android": "https://dc.lft.to/lastmile_qr_scan"}, "fusion_lon": 0.0, "lon": -77.05181116666667, "name": "511f3a488e97252fcc4ae4c3e8e88176", "is_reserved": 0, "is_disabled": 0}, {"lat": 38.892619833333335, "fusion_lat": 0.0, "type": "electric_scooter", "bike_id": "26e3baeeb48fdc15b6533075109f2cb2", "rental_uris": {"ios": "https://dc.lft.to/lastmile_qr_scan", "android": "https://dc.lft.to/lastmile_qr_scan"}, "fusion_lon": 0.0, "lon": -77.04671283333333, "name": "26e3baeeb48fdc15b6533075109f2cb2", "is_reserved": 0, "is_disabled": 0}, {"lat": 38.932068, "fusion_lat": 0.0, "type": "electric_scooter", "bike_id": "03001dea5f903fe98c243e4fbc39b3c3", "rental_uris": {"ios": "https://dc.lft.to/lastmile_qr_scan", "android": "https://dc.lft.to/lastmile_qr_scan"}, "fusion_lon": 0.0, "lon": -77.03755383333333, "name": "03001dea5f903fe98c243e4fbc39b3c3", "is_reserved": 0, "is_disabled": 0}, {"lat": 38.89195016666667, "fusion_lat": 0.0, "type": "electric_scooter", "bike_id": "52d95c5dd4461d0874f9dee07264aa0a", "rental_uris": {"ios": "https://dc.lft.to/lastmile_qr_scan", "android": "https://dc.lft.to/lastmile_qr_scan"}, "fusion_lon": 0.0, "lon": -77.02381, "name": "52d95c5dd4461d0874f9dee07264aa0a", "is_reserved": 0, "is_disabled": 0}, {"lat": 38.927131833333334, "fusion_lat": 0.0, "type": "electric_scooter", "bike_id": "286915472f4bbb05e7b7585dc2be0a86", "rental_uris": {"ios": "https://dc.lft.to/lastmile_qr_scan", "android": "https://dc.lft.to/lastmile_qr_scan"}, "fusion_lon": 0.0, "lon": -77.05346716666666, "name": "286915472f4bbb05e7b7585dc2be0a86", "is_reserved": 0, "is_disabled": 0}, {"lat": 38.93612233333333, "fusion_lat": 0.0, "type": "electric_scooter", "bike_id": "e74fe8ebc335528b18eb21aea97c691e", "rental_uris": {"ios": "https://dc.lft.to/lastmile_qr_scan", "android": "https://dc.lft.to/lastmile_qr_scan"}, "fusion_lon": 0.0, "lon": -77.07307616666667, "name": "e74fe8ebc335528b18eb21aea97c691e", "is_reserved": 0, "is_disabled": 0}, {"lat": 38.92218316666667, "fusion_lat": 0.0, "type": "electric_scooter", "bike_id": "7583cc53f8a90123bdbe33126943b3b2", "rental_uris": {"ios": "https://dc.lft.to/lastmile_qr_scan", "android": "https://dc.lft.to/lastmile_qr_scan"}, "fusion_lon": 0.0, "lon": -77.0434035, "name": "7583cc53f8a90123bdbe33126943b3b2", "is_reserved": 0, "is_disabled": 0}, {"lat": 38.89875416666667, "fusion_lat": 0.0, "type": "electric_scooter", "bike_id": "d1da8e83925f27bb2634e81eb08f7614", "rental_uris": {"ios": "https://dc.lft.to/lastmile_qr_scan", "android": "https://dc.lft.to/lastmile_qr_scan"}, "fusion_lon": 0.0, "lon": -76.931887, "name": "d1da8e83925f27bb2634e81eb08f7614", "is_reserved": 0, "is_disabled": 0}, {"lat": 38.8921895, "fusion_lat": 0.0, "type": "electric_scooter", "bike_id": "a427f001e2a820a1079558f12fc297f6", "rental_uris": {"ios": "https://dc.lft.to/lastmile_qr_scan", "android": "https://dc.lft.to/lastmile_qr_scan"}, "fusion_lon": 0.0, "lon": -77.03163266666667, "name": "a427f001e2a820a1079558f12fc297f6", "is_reserved": 0, "is_disabled": 0}, {"lat": 38.91116933333333, "fusion_lat": 0.0, "type": "electric_scooter", "bike_id": "bd006cd5f0a4e1fa47fab30272aaa121", "rental_uris": {"ios": "https://dc.lft.to/lastmile_qr_scan", "android": "https://dc.lft.to/lastmile_qr_scan"}, "fusion_lon": 0.0, "lon": -77.03217333333333, "name": "bd006cd5f0a4e1fa47fab30272aaa121", "is_reserved": 0, "is_disabled": 0}, {"lat": 38.939305, "fusion_lat": 0.0, "type": "electric_scooter", "bike_id": "824f67b27c17e45c7a316d614cb11494", "rental_uris": {"ios": "https://dc.lft.to/lastmile_qr_scan", "android": "https://dc.lft.to/lastmile_qr_scan"}, "fusion_lon": 0.0, "lon": -77.02572033333334, "name": "824f67b27c17e45c7a316d614cb11494", "is_reserved": 0, "is_disabled": 0}, {"lat": 38.92359533333333, "fusion_lat": 0.0, "type": "electric_scooter", "bike_id": "c8091a36da4f0a85f61252385a9704b4", "rental_uris": {"ios": "https://dc.lft.to/lastmile_qr_scan", "android": "https://dc.lft.to/lastmile_qr_scan"}, "fusion_lon": 0.0, "lon": -77.03231416666667, "name": "c8091a36da4f0a85f61252385a9704b4", "is_reserved": 0, "is_disabled": 0}, {"lat": 38.91487016666667, "fusion_lat": 0.0, "type": "electric_scooter", "bike_id": "4a64a56269e7cdb78f20c5d4ec0e1e47", "rental_uris": {"ios": "https://dc.lft.to/lastmile_qr_scan", "android": "https://dc.lft.to/lastmile_qr_scan"}, "fusion_lon": 0.0, "lon": -77.040914, "name": "4a64a56269e7cdb78f20c5d4ec0e1e47", "is_reserved": 0, "is_disabled": 0}, {"lat": 38.892218, "fusion_lat": 0.0, "type": "electric_scooter", "bike_id": "1632e28b8c13374fd775ea1a37bf1162", "rental_uris": {"ios": "https://dc.lft.to/lastmile_qr_scan", "android": "https://dc.lft.to/lastmile_qr_scan"}, "fusion_lon": 0.0, "lon": -77.04469866666666, "name": "1632e28b8c13374fd775ea1a37bf1162", "is_reserved": 0, "is_disabled": 0}, {"lat": 38.862672, "fusion_lat": 0.0, "type": "electric_scooter", "bike_id": "994f685a0b860dc6e59c8a63c1f11544", "rental_uris": {"ios": "https://dc.lft.to/lastmile_qr_scan", "android": "https://dc.lft.to/lastmile_qr_scan"}, "fusion_lon": 0.0, "lon": -76.995363, "name": "994f685a0b860dc6e59c8a63c1f11544", "is_reserved": 0, "is_disabled": 0}, {"lat": 38.91622533333334, "fusion_lat": 0.0, "type": "electric_scooter", "bike_id": "15b0d964783fbbfedee575ff3abd0846", "rental_uris": {"ios": "https://dc.lft.to/lastmile_qr_scan", "android": "https://dc.lft.to/lastmile_qr_scan"}, "fusion_lon": 0.0, "lon": -77.03852466666666, "name": "15b0d964783fbbfedee575ff3abd0846", "is_reserved": 0, "is_disabled": 0}, {"lat": 38.92631566666667, "fusion_lat": 0.0, "type": "electric_scooter", "bike_id": "24760c996c3b121e6364f823b18f63ce", "rental_uris": {"ios": "https://dc.lft.to/lastmile_qr_scan", "android": "https://dc.lft.to/lastmile_qr_scan"}, "fusion_lon": 0.0, "lon": -77.03701133333334, "name": "24760c996c3b121e6364f823b18f63ce", "is_reserved": 0, "is_disabled": 0}, {"lat": 38.892192, "fusion_lat": 0.0, "type": "electric_scooter", "bike_id": "19233d67c5b68a699a3eb1492a19279f", "rental_uris": {"ios": "https://dc.lft.to/lastmile_qr_scan", "android": "https://dc.lft.to/lastmile_qr_scan"}, "fusion_lon": 0.0, "lon": -77.0433595, "name": "19233d67c5b68a699a3eb1492a19279f", "is_reserved": 0, "is_disabled": 0}, {"lat": 38.917146, "fusion_lat": 0.0, "type": "electric_scooter", "bike_id": "61077c0a2848d7822ebe9b9ca7a589a8", "rental_uris": {"ios": "https://dc.lft.to/lastmile_qr_scan", "android": "https://dc.lft.to/lastmile_qr_scan"}, "fusion_lon": 0.0, "lon": -77.03252366666666, "name": "61077c0a2848d7822ebe9b9ca7a589a8", "is_reserved": 0, "is_disabled": 0}, {"lat": 38.960823500000004, "fusion_lat": 0.0, "type": "electric_scooter", "bike_id": "1733d74ebb494d83d266ef9473de0d78", "rental_uris": {"ios": "https://dc.lft.to/lastmile_qr_scan", "android": "https://dc.lft.to/lastmile_qr_scan"}, "fusion_lon": 0.0, "lon": -77.02887866666667, "name": "1733d74ebb494d83d266ef9473de0d78", "is_reserved": 0, "is_disabled": 0}, {"lat": 38.93626916666667, "fusion_lat": 0.0, "type": "electric_scooter", "bike_id": "853570ca255cad2d173400f6c85765f8", "rental_uris": {"ios": "https://dc.lft.to/lastmile_qr_scan", "android": "https://dc.lft.to/lastmile_qr_scan"}, "fusion_lon": 0.0, "lon": -77.058781, "name": "853570ca255cad2d173400f6c85765f8", "is_reserved": 0, "is_disabled": 0}, {"lat": 38.91913016666667, "fusion_lat": 0.0, "type": "electric_scooter", "bike_id": "aea35e0b94b1c87004f6be3c30cbe1d5", "rental_uris": {"ios": "https://dc.lft.to/lastmile_qr_scan", "android": "https://dc.lft.to/lastmile_qr_scan"}, "fusion_lon": 0.0, "lon": -77.0241645, "name": "aea35e0b94b1c87004f6be3c30cbe1d5", "is_reserved": 0, "is_disabled": 0}, {"lat": 38.894883, "fusion_lat": 0.0, "type": "electric_scooter", "bike_id": "7764393027226c11a5450c44816093ac", "rental_uris": {"ios": "https://dc.lft.to/lastmile_qr_scan", "android": "https://dc.lft.to/lastmile_qr_scan"}, "fusion_lon": 0.0, "lon": -77.0110505, "name": "7764393027226c11a5450c44816093ac", "is_reserved": 0, "is_disabled": 0}, {"lat": 38.9154635, "fusion_lat": 0.0, "type": "electric_scooter", "bike_id": "be36dafcf3e2d63f6813d621370efa1d", "rental_uris": {"ios": "https://dc.lft.to/lastmile_qr_scan", "android": "https://dc.lft.to/lastmile_qr_scan"}, "fusion_lon": 0.0, "lon": -77.02054166666667, "name": "be36dafcf3e2d63f6813d621370efa1d", "is_reserved": 0, "is_disabled": 0}, {"lat": 38.90110083333333, "fusion_lat": 0.0, "type": "electric_scooter", "bike_id": "a07da603f4b9b9dc7d3015fa3a09a176", "rental_uris": {"ios": "https://dc.lft.to/lastmile_qr_scan", "android": "https://dc.lft.to/lastmile_qr_scan"}, "fusion_lon": 0.0, "lon": -77.03165366666667, "name": "a07da603f4b9b9dc7d3015fa3a09a176", "is_reserved": 0, "is_disabled": 0}, {"lat": 38.9026645, "fusion_lat": 0.0, "type": "electric_scooter", "bike_id": "ad779504beb227467018c1682640e475", "rental_uris": {"ios": "https://dc.lft.to/lastmile_qr_scan", "android": "https://dc.lft.to/lastmile_qr_scan"}, "fusion_lon": 0.0, "lon": -77.02122483333333, "name": "ad779504beb227467018c1682640e475", "is_reserved": 0, "is_disabled": 0}, {"lat": 38.909674833333334, "fusion_lat": 0.0, "type": "electric_scooter", "bike_id": "b5ea99d3f4c5a2aee8d6a194ba0f7391", "rental_uris": {"ios": "https://dc.lft.to/lastmile_qr_scan", "android": "https://dc.lft.to/lastmile_qr_scan"}, "fusion_lon": 0.0, "lon": -77.03863366666667, "name": "b5ea99d3f4c5a2aee8d6a194ba0f7391", "is_reserved": 0, "is_disabled": 0}, {"lat": 38.918473, "fusion_lat": 0.0, "type": "electric_scooter", "bike_id": "f09a8accf2628c5bc5371933a30b5714", "rental_uris": {"ios": "https://dc.lft.to/lastmile_qr_scan", "android": "https://dc.lft.to/lastmile_qr_scan"}, "fusion_lon": 0.0, "lon": -76.96537866666667, "name": "f09a8accf2628c5bc5371933a30b5714", "is_reserved": 0, "is_disabled": 0}, {"lat": 38.903578, "fusion_lat": 0.0, "type": "electric_scooter", "bike_id": "27fedcaddf006c053e397862050b82d1", "rental_uris": {"ios": "https://dc.lft.to/lastmile_qr_scan", "android": "https://dc.lft.to/lastmile_qr_scan"}, "fusion_lon": 0.0, "lon": -77.01750266666667, "name": "27fedcaddf006c053e397862050b82d1", "is_reserved": 0, "is_disabled": 0}, {"lat": 38.92364416666667, "fusion_lat": 0.0, "type": "electric_scooter", "bike_id": "c6b6623ea43465b76af77c288b0af996", "rental_uris": {"ios": "https://dc.lft.to/lastmile_qr_scan", "android": "https://dc.lft.to/lastmile_qr_scan"}, "fusion_lon": 0.0, "lon": -77.05048116666667, "name": "c6b6623ea43465b76af77c288b0af996", "is_reserved": 0, "is_disabled": 0}, {"lat": 38.860158166666665, "fusion_lat": 0.0, "type": "electric_scooter", "bike_id": "0259db8cb42f27b84224411908c45bd0", "rental_uris": {"ios": "https://dc.lft.to/lastmile_qr_scan", "android": "https://dc.lft.to/lastmile_qr_scan"}, "fusion_lon": 0.0, "lon": -76.96707266666667, "name": "0259db8cb42f27b84224411908c45bd0", "is_reserved": 0, "is_disabled": 0}, {"lat": 38.908203, "fusion_lat": 0.0, "type": "electric_scooter", "bike_id": "81dab2344fa143a6e54a06d4e6992764", "rental_uris": {"ios": "https://dc.lft.to/lastmile_qr_scan", "android": "https://dc.lft.to/lastmile_qr_scan"}, "fusion_lon": 0.0, "lon": -77.0318165, "name": "81dab2344fa143a6e54a06d4e6992764", "is_reserved": 0, "is_disabled": 0}, {"lat": 38.89754416666667, "fusion_lat": 0.0, "type": "electric_scooter", "bike_id": "a7952448f0c1157bb80405bc557942b0", "rental_uris": {"ios": "https://dc.lft.to/lastmile_qr_scan", "android": "https://dc.lft.to/lastmile_qr_scan"}, "fusion_lon": 0.0, "lon": -77.02409183333333, "name": "a7952448f0c1157bb80405bc557942b0", "is_reserved": 0, "is_disabled": 0}, {"lat": 38.91116066666667, "fusion_lat": 0.0, "type": "electric_scooter", "bike_id": "d75b1e4bf7297e1281038e0d4a201c03", "rental_uris": {"ios": "https://dc.lft.to/lastmile_qr_scan", "android": "https://dc.lft.to/lastmile_qr_scan"}, "fusion_lon": 0.0, "lon": -77.04546366666666, "name": "d75b1e4bf7297e1281038e0d4a201c03", "is_reserved": 0, "is_disabled": 0}, {"lat": 38.9052715, "fusion_lat": 0.0, "type": "electric_scooter", "bike_id": "d21d9646d6d51be41aac400d3177b58a", "rental_uris": {"ios": "https://dc.lft.to/lastmile_qr_scan", "android": "https://dc.lft.to/lastmile_qr_scan"}, "fusion_lon": 0.0, "lon": -77.049995, "name": "d21d9646d6d51be41aac400d3177b58a", "is_reserved": 0, "is_disabled": 0}, {"lat": 38.904158, "fusion_lat": 0.0, "type": "electric_scooter", "bike_id": "0189ba99e3a05184f8507393c5284d69", "rental_uris": {"ios": "https://dc.lft.to/lastmile_qr_scan", "android": "https://dc.lft.to/lastmile_qr_scan"}, "fusion_lon": 0.0, "lon": -77.0531045, "name": "0189ba99e3a05184f8507393c5284d69", "is_reserved": 0, "is_disabled": 0}, {"lat": 38.886807833333336, "fusion_lat": 0.0, "type": "electric_scooter", "bike_id": "f698a7081d762522db463e4a0a94ce77", "rental_uris": {"ios": "https://dc.lft.to/lastmile_qr_scan", "android": "https://dc.lft.to/lastmile_qr_scan"}, "fusion_lon": 0.0, "lon": -77.00202383333334, "name": "f698a7081d762522db463e4a0a94ce77", "is_reserved": 0, "is_disabled": 0}, {"lat": 38.899773, "fusion_lat": 0.0, "type": "electric_scooter", "bike_id": "168c4b59d7f16664f9de9d66b67da831", "rental_uris": {"ios": "https://dc.lft.to/lastmile_qr_scan", "android": "https://dc.lft.to/lastmile_qr_scan"}, "fusion_lon": 0.0, "lon": -77.022453, "name": "168c4b59d7f16664f9de9d66b67da831", "is_reserved": 0, "is_disabled": 0}, {"lat": 38.90235283333333, "fusion_lat": 0.0, "type": "electric_scooter", "bike_id": "849ac386915411cfdc97dc322bc8125f", "rental_uris": {"ios": "https://dc.lft.to/lastmile_qr_scan", "android": "https://dc.lft.to/lastmile_qr_scan"}, "fusion_lon": 0.0, "lon": -77.016218, "name": "849ac386915411cfdc97dc322bc8125f", "is_reserved": 0, "is_disabled": 0}, {"lat": 38.935128166666665, "fusion_lat": 0.0, "type": "electric_scooter", "bike_id": "b5bb3d12dc48aa8ba82424b1a164d159", "rental_uris": {"ios": "https://dc.lft.to/lastmile_qr_scan", "android": "https://dc.lft.to/lastmile_qr_scan"}, "fusion_lon": 0.0, "lon": -77.07354433333333, "name": "b5bb3d12dc48aa8ba82424b1a164d159", "is_reserved": 0, "is_disabled": 0}, {"lat": 38.926042, "fusion_lat": 0.0, "type": "electric_scooter", "bike_id": "070d4d556925735d333d804cb6c84824", "rental_uris": {"ios": "https://dc.lft.to/lastmile_qr_scan", "android": "https://dc.lft.to/lastmile_qr_scan"}, "fusion_lon": 0.0, "lon": -77.0215875, "name": "070d4d556925735d333d804cb6c84824", "is_reserved": 0, "is_disabled": 0}, {"lat": 38.92711833333333, "fusion_lat": 0.0, "type": "electric_scooter", "bike_id": "99694071d99e66fca6828e4985183271", "rental_uris": {"ios": "https://dc.lft.to/lastmile_qr_scan", "android": "https://dc.lft.to/lastmile_qr_scan"}, "fusion_lon": 0.0, "lon": -77.0419405, "name": "99694071d99e66fca6828e4985183271", "is_reserved": 0, "is_disabled": 0}, {"lat": 38.9245785, "fusion_lat": 0.0, "type": "electric_scooter", "bike_id": "3275e6318a85d13c68761ffd78eabb6e", "rental_uris": {"ios": "https://dc.lft.to/lastmile_qr_scan", "android": "https://dc.lft.to/lastmile_qr_scan"}, "fusion_lon": 0.0, "lon": -77.021616, "name": "3275e6318a85d13c68761ffd78eabb6e", "is_reserved": 0, "is_disabled": 0}, {"lat": 38.94923983333333, "fusion_lat": 0.0, "type": "electric_bike", "bike_id": "2756f4c095952f6a206b8aed1f3c47ed", "rental_uris": {"ios": "https://dc.lft.to/lastmile_qr_scan", "android": "https://dc.lft.to/lastmile_qr_scan"}, "fusion_lon": 0.0, "lon": -77.00795633333334, "name": "2756f4c095952f6a206b8aed1f3c47ed", "is_reserved": 0, "is_disabled": 0}, {"lat": 38.921650166666666, "fusion_lat": 0.0, "type": "electric_scooter", "bike_id": "824938d750810657aa12be0c900cc2d1", "rental_uris": {"ios": "https://dc.lft.to/lastmile_qr_scan", "android": "https://dc.lft.to/lastmile_qr_scan"}, "fusion_lon": 0.0, "lon": -77.081913, "name": "824938d750810657aa12be0c900cc2d1", "is_reserved": 0, "is_disabled": 0}, {"lat": 38.9288005, "fusion_lat": 0.0, "type": "electric_scooter", "bike_id": "34331fae58f50ec28990505345ecd967", "rental_uris": {"ios": "https://dc.lft.to/lastmile_qr_scan", "android": "https://dc.lft.to/lastmile_qr_scan"}, "fusion_lon": 0.0, "lon": -77.03919533333334, "name": "34331fae58f50ec28990505345ecd967", "is_reserved": 0, "is_disabled": 0}, {"lat": 38.9168135, "fusion_lat": 0.0, "type": "electric_scooter", "bike_id": "8fafc67a7671df111204773b6ef994db", "rental_uris": {"ios": "https://dc.lft.to/lastmile_qr_scan", "android": "https://dc.lft.to/lastmile_qr_scan"}, "fusion_lon": 0.0, "lon": -77.02974033333334, "name": "8fafc67a7671df111204773b6ef994db", "is_reserved": 0, "is_disabled": 0}, {"lat": 38.887227333333335, "fusion_lat": 0.0, "type": "electric_scooter", "bike_id": "1cecf5993b6c576e6a422d84d956f811", "rental_uris": {"ios": "https://dc.lft.to/lastmile_qr_scan", "android": "https://dc.lft.to/lastmile_qr_scan"}, "fusion_lon": 0.0, "lon": -77.0283495, "name": "1cecf5993b6c576e6a422d84d956f811", "is_reserved": 0, "is_disabled": 0}, {"lat": 38.905019, "fusion_lat": 0.0, "type": "electric_scooter", "bike_id": "b18e11159945fcdd6980e0f054d0ac13", "rental_uris": {"ios": "https://dc.lft.to/lastmile_qr_scan", "android": "https://dc.lft.to/lastmile_qr_scan"}, "fusion_lon": 0.0, "lon": -77.06379683333333, "name": "b18e11159945fcdd6980e0f054d0ac13", "is_reserved": 0, "is_disabled": 0}, {"lat": 38.911137833333335, "fusion_lat": 0.0, "type": "electric_scooter", "bike_id": "6781535b3885f1489b71749b9670f46e", "rental_uris": {"ios": "https://dc.lft.to/lastmile_qr_scan", "android": "https://dc.lft.to/lastmile_qr_scan"}, "fusion_lon": 0.0, "lon": -77.04498416666667, "name": "6781535b3885f1489b71749b9670f46e", "is_reserved": 0, "is_disabled": 0}, {"lat": 38.921795, "fusion_lat": 0.0, "type": "electric_scooter", "bike_id": "6014aae6651ea438fe8e120ba43de3c6", "rental_uris": {"ios": "https://dc.lft.to/lastmile_qr_scan", "android": "https://dc.lft.to/lastmile_qr_scan"}, "fusion_lon": 0.0, "lon": -77.02664916666667, "name": "6014aae6651ea438fe8e120ba43de3c6", "is_reserved": 0, "is_disabled": 0}, {"lat": 38.905265666666665, "fusion_lat": 0.0, "type": "electric_scooter", "bike_id": "471e8b7f4091b61b2ba8d56742b07c2d", "rental_uris": {"ios": "https://dc.lft.to/lastmile_qr_scan", "android": "https://dc.lft.to/lastmile_qr_scan"}, "fusion_lon": 0.0, "lon": -77.063823, "name": "471e8b7f4091b61b2ba8d56742b07c2d", "is_reserved": 0, "is_disabled": 0}, {"lat": 38.840525666666665, "fusion_lat": 0.0, "type": "electric_scooter", "bike_id": "b548c18ec05d24f0b32001cb1481b791", "rental_uris": {"ios": "https://dc.lft.to/lastmile_qr_scan", "android": "https://dc.lft.to/lastmile_qr_scan"}, "fusion_lon": 0.0, "lon": -76.9767165, "name": "b548c18ec05d24f0b32001cb1481b791", "is_reserved": 0, "is_disabled": 0}, {"lat": 38.90210483333333, "fusion_lat": 0.0, "type": "electric_scooter", "bike_id": "989766c1e06526cce4934766073ab1b3", "rental_uris": {"ios": "https://dc.lft.to/lastmile_qr_scan", "android": "https://dc.lft.to/lastmile_qr_scan"}, "fusion_lon": 0.0, "lon": -77.02374683333333, "name": "989766c1e06526cce4934766073ab1b3", "is_reserved": 0, "is_disabled": 0}, {"lat": 38.919070166666664, "fusion_lat": 0.0, "type": "electric_scooter", "bike_id": "b70006bb0cb39769a10d15492657698d", "rental_uris": {"ios": "https://dc.lft.to/lastmile_qr_scan", "android": "https://dc.lft.to/lastmile_qr_scan"}, "fusion_lon": 0.0, "lon": -77.04618, "name": "b70006bb0cb39769a10d15492657698d", "is_reserved": 0, "is_disabled": 0}, {"lat": 38.921366666666664, "fusion_lat": 0.0, "type": "electric_scooter", "bike_id": "379e849226b7fed0d2fbe97be86fbb66", "rental_uris": {"ios": "https://dc.lft.to/lastmile_qr_scan", "android": "https://dc.lft.to/lastmile_qr_scan"}, "fusion_lon": 0.0, "lon": -77.04703983333333, "name": "379e849226b7fed0d2fbe97be86fbb66", "is_reserved": 0, "is_disabled": 0}, {"lat": 38.917213333333336, "fusion_lat": 0.0, "type": "electric_scooter", "bike_id": "26078529c4ca423a823f89da49ffd948", "rental_uris": {"ios": "https://dc.lft.to/lastmile_qr_scan", "android": "https://dc.lft.to/lastmile_qr_scan"}, "fusion_lon": 0.0, "lon": -77.036624, "name": "26078529c4ca423a823f89da49ffd948", "is_reserved": 0, "is_disabled": 0}, {"lat": 38.906595333333335, "fusion_lat": 0.0, "type": "electric_scooter", "bike_id": "f6256da8c6780546aa87b2a5ce1d8347", "rental_uris": {"ios": "https://dc.lft.to/lastmile_qr_scan", "android": "https://dc.lft.to/lastmile_qr_scan"}, "fusion_lon": 0.0, "lon": -77.0085845, "name": "f6256da8c6780546aa87b2a5ce1d8347", "is_reserved": 0, "is_disabled": 0}, {"lat": 38.91705966666667, "fusion_lat": 0.0, "type": "electric_scooter", "bike_id": "e9f3ca6bfe65704aec6b3446f368fca6", "rental_uris": {"ios": "https://dc.lft.to/lastmile_qr_scan", "android": "https://dc.lft.to/lastmile_qr_scan"}, "fusion_lon": 0.0, "lon": -77.03864416666667, "name": "e9f3ca6bfe65704aec6b3446f368fca6", "is_reserved": 0, "is_disabled": 0}, {"lat": 38.922337166666665, "fusion_lat": 0.0, "type": "electric_scooter", "bike_id": "0af682b8b2be48d0c0dcd36c51a4a88c", "rental_uris": {"ios": "https://dc.lft.to/lastmile_qr_scan", "android": "https://dc.lft.to/lastmile_qr_scan"}, "fusion_lon": 0.0, "lon": -77.0182635, "name": "0af682b8b2be48d0c0dcd36c51a4a88c", "is_reserved": 0, "is_disabled": 0}, {"lat": 38.89939716666667, "fusion_lat": 0.0, "type": "electric_scooter", "bike_id": "e6e01c48fc320e438bb519a803386ee8", "rental_uris": {"ios": "https://dc.lft.to/lastmile_qr_scan", "android": "https://dc.lft.to/lastmile_qr_scan"}, "fusion_lon": 0.0, "lon": -77.044945, "name": "e6e01c48fc320e438bb519a803386ee8", "is_reserved": 0, "is_disabled": 0}, {"lat": 38.92207416666667, "fusion_lat": 0.0, "type": "electric_scooter", "bike_id": "be6d99502f5731bcc52baddcee825814", "rental_uris": {"ios": "https://dc.lft.to/lastmile_qr_scan", "android": "https://dc.lft.to/lastmile_qr_scan"}, "fusion_lon": 0.0, "lon": -77.0419635, "name": "be6d99502f5731bcc52baddcee825814", "is_reserved": 0, "is_disabled": 0}, {"lat": 38.926699666666664, "fusion_lat": 0.0, "type": "electric_scooter", "bike_id": "f7d03557695ff910178541c95e17e0c9", "rental_uris": {"ios": "https://dc.lft.to/lastmile_qr_scan", "android": "https://dc.lft.to/lastmile_qr_scan"}, "fusion_lon": 0.0, "lon": -77.02115566666667, "name": "f7d03557695ff910178541c95e17e0c9", "is_reserved": 0, "is_disabled": 0}, {"lat": 38.89726983333333, "fusion_lat": 0.0, "type": "electric_scooter", "bike_id": "b9852b826c3aabf2d86d2b81d0179795", "rental_uris": {"ios": "https://dc.lft.to/lastmile_qr_scan", "android": "https://dc.lft.to/lastmile_qr_scan"}, "fusion_lon": 0.0, "lon": -76.99679516666667, "name": "b9852b826c3aabf2d86d2b81d0179795", "is_reserved": 0, "is_disabled": 0}, {"lat": 38.937525, "fusion_lat": 0.0, "type": "electric_scooter", "bike_id": "65c0dd129d88e7a5000d1e7e4fe12102", "rental_uris": {"ios": "https://dc.lft.to/lastmile_qr_scan", "android": "https://dc.lft.to/lastmile_qr_scan"}, "fusion_lon": 0.0, "lon": -77.032671, "name": "65c0dd129d88e7a5000d1e7e4fe12102", "is_reserved": 0, "is_disabled": 0}, {"lat": 38.91913133333333, "fusion_lat": 0.0, "type": "electric_scooter", "bike_id": "213bbe195b5ee95cb456c419e41f0a80", "rental_uris": {"ios": "https://dc.lft.to/lastmile_qr_scan", "android": "https://dc.lft.to/lastmile_qr_scan"}, "fusion_lon": 0.0, "lon": -77.019032, "name": "213bbe195b5ee95cb456c419e41f0a80", "is_reserved": 0, "is_disabled": 0}, {"lat": 38.901296, "fusion_lat": 0.0, "type": "electric_scooter", "bike_id": "7188cab1b9a64b2e817c8a65f777d096", "rental_uris": {"ios": "https://dc.lft.to/lastmile_qr_scan", "android": "https://dc.lft.to/lastmile_qr_scan"}, "fusion_lon": 0.0, "lon": -77.0182315, "name": "7188cab1b9a64b2e817c8a65f777d096", "is_reserved": 0, "is_disabled": 0}, {"lat": 38.915540166666666, "fusion_lat": 0.0, "type": "electric_scooter", "bike_id": "fc2f4bb9240df7e8eb95823ea76cb82a", "rental_uris": {"ios": "https://dc.lft.to/lastmile_qr_scan", "android": "https://dc.lft.to/lastmile_qr_scan"}, "fusion_lon": 0.0, "lon": -77.03868833333334, "name": "fc2f4bb9240df7e8eb95823ea76cb82a", "is_reserved": 0, "is_disabled": 0}, {"lat": 38.90263366666667, "fusion_lat": 0.0, "type": "electric_scooter", "bike_id": "15ca2dbcffccb666628e057e2677872e", "rental_uris": {"ios": "https://dc.lft.to/lastmile_qr_scan", "android": "https://dc.lft.to/lastmile_qr_scan"}, "fusion_lon": 0.0, "lon": -77.05322283333334, "name": "15ca2dbcffccb666628e057e2677872e", "is_reserved": 0, "is_disabled": 0}, {"lat": 38.91206416666667, "fusion_lat": 0.0, "type": "electric_scooter", "bike_id": "7b14e5fa11e2e7a6884bb330d46cb9b1", "rental_uris": {"ios": "https://dc.lft.to/lastmile_qr_scan", "android": "https://dc.lft.to/lastmile_qr_scan"}, "fusion_lon": 0.0, "lon": -77.02184933333334, "name": "7b14e5fa11e2e7a6884bb330d46cb9b1", "is_reserved": 0, "is_disabled": 0}, {"lat": 38.91569, "fusion_lat": 0.0, "type": "electric_scooter", "bike_id": "06d7d0a7e4d73e345163c696a4da601a", "rental_uris": {"ios": "https://dc.lft.to/lastmile_qr_scan", "android": "https://dc.lft.to/lastmile_qr_scan"}, "fusion_lon": 0.0, "lon": -77.03159783333334, "name": "06d7d0a7e4d73e345163c696a4da601a", "is_reserved": 0, "is_disabled": 0}, {"lat": 38.90957866666667, "fusion_lat": 0.0, "type": "electric_scooter", "bike_id": "e6fa6dafcb0aacd0ef95e6f20975db1f", "rental_uris": {"ios": "https://dc.lft.to/lastmile_qr_scan", "android": "https://dc.lft.to/lastmile_qr_scan"}, "fusion_lon": 0.0, "lon": -77.03993283333334, "name": "e6fa6dafcb0aacd0ef95e6f20975db1f", "is_reserved": 0, "is_disabled": 0}, {"lat": 38.907297, "fusion_lat": 0.0, "type": "electric_scooter", "bike_id": "09c8ee241f404ca686250403ead78801", "rental_uris": {"ios": "https://dc.lft.to/lastmile_qr_scan", "android": "https://dc.lft.to/lastmile_qr_scan"}, "fusion_lon": 0.0, "lon": -77.02520833333334, "name": "09c8ee241f404ca686250403ead78801", "is_reserved": 0, "is_disabled": 0}, {"lat": 38.914858, "fusion_lat": 0.0, "type": "electric_scooter", "bike_id": "9dd23d55b9d51bcf662d2194c693fc35", "rental_uris": {"ios": "https://dc.lft.to/lastmile_qr_scan", "android": "https://dc.lft.to/lastmile_qr_scan"}, "fusion_lon": 0.0, "lon": -77.03838883333333, "name": "9dd23d55b9d51bcf662d2194c693fc35", "is_reserved": 0, "is_disabled": 0}, {"lat": 38.83248066666667, "fusion_lat": 0.0, "type": "electric_bike", "bike_id": "898e4e69a64f9b9525c1115b37bfa331", "rental_uris": {"ios": "https://dc.lft.to/lastmile_qr_scan", "android": "https://dc.lft.to/lastmile_qr_scan"}, "fusion_lon": 0.0, "lon": -77.007256, "name": "898e4e69a64f9b9525c1115b37bfa331", "is_reserved": 0, "is_disabled": 0}, {"lat": 38.916377, "fusion_lat": 0.0, "type": "electric_scooter", "bike_id": "caed2b9fa9ece4b7a2a5c458c4ac8c4a", "rental_uris": {"ios": "https://dc.lft.to/lastmile_qr_scan", "android": "https://dc.lft.to/lastmile_qr_scan"}, "fusion_lon": 0.0, "lon": -77.04824533333333, "name": "caed2b9fa9ece4b7a2a5c458c4ac8c4a", "is_reserved": 0, "is_disabled": 0}, {"lat": 38.93525866666667, "fusion_lat": 0.0, "type": "electric_scooter", "bike_id": "8794abc2ac547349aa1f10091dbaf80b", "rental_uris": {"ios": "https://dc.lft.to/lastmile_qr_scan", "android": "https://dc.lft.to/lastmile_qr_scan"}, "fusion_lon": 0.0, "lon": -77.03253383333333, "name": "8794abc2ac547349aa1f10091dbaf80b", "is_reserved": 0, "is_disabled": 0}, {"lat": 38.952221333333334, "fusion_lat": 0.0, "type": "electric_scooter", "bike_id": "72600523ac8620c5aee731ee00ff7c95", "rental_uris": {"ios": "https://dc.lft.to/lastmile_qr_scan", "android": "https://dc.lft.to/lastmile_qr_scan"}, "fusion_lon": 0.0, "lon": -77.01756833333333, "name": "72600523ac8620c5aee731ee00ff7c95", "is_reserved": 0, "is_disabled": 0}, {"lat": 38.947354, "fusion_lat": 0.0, "type": "electric_scooter", "bike_id": "ebdd6a38cdc0316a43b058eb698d88e8", "rental_uris": {"ios": "https://dc.lft.to/lastmile_qr_scan", "android": "https://dc.lft.to/lastmile_qr_scan"}, "fusion_lon": 0.0, "lon": -77.01621333333334, "name": "ebdd6a38cdc0316a43b058eb698d88e8", "is_reserved": 0, "is_disabled": 0}, {"lat": 38.90715083333333, "fusion_lat": 0.0, "type": "electric_scooter", "bike_id": "eaecbca803b1da312cd3bda97b5414b6", "rental_uris": {"ios": "https://dc.lft.to/lastmile_qr_scan", "android": "https://dc.lft.to/lastmile_qr_scan"}, "fusion_lon": 0.0, "lon": -77.046664, "name": "eaecbca803b1da312cd3bda97b5414b6", "is_reserved": 0, "is_disabled": 0}, {"lat": 38.918200166666665, "fusion_lat": 0.0, "type": "electric_scooter", "bike_id": "7ecb9bbdc2922b9cc0124012dd358940", "rental_uris": {"ios": "https://dc.lft.to/lastmile_qr_scan", "android": "https://dc.lft.to/lastmile_qr_scan"}, "fusion_lon": 0.0, "lon": -77.0417845, "name": "7ecb9bbdc2922b9cc0124012dd358940", "is_reserved": 0, "is_disabled": 0}, {"lat": 38.931909833333336, "fusion_lat": 0.0, "type": "electric_scooter", "bike_id": "aa6c13e3f2be44a9bd2e9935bc737b69", "rental_uris": {"ios": "https://dc.lft.to/lastmile_qr_scan", "android": "https://dc.lft.to/lastmile_qr_scan"}, "fusion_lon": 0.0, "lon": -77.02987266666666, "name": "aa6c13e3f2be44a9bd2e9935bc737b69", "is_reserved": 0, "is_disabled": 0}, {"lat": 38.89506766666667, "fusion_lat": 0.0, "type": "electric_scooter", "bike_id": "ce746dfe99a80a3ccdb8df3ef5019715", "rental_uris": {"ios": "https://dc.lft.to/lastmile_qr_scan", "android": "https://dc.lft.to/lastmile_qr_scan"}, "fusion_lon": 0.0, "lon": -77.02175516666667, "name": "ce746dfe99a80a3ccdb8df3ef5019715", "is_reserved": 0, "is_disabled": 0}, {"lat": 38.904954833333335, "fusion_lat": 0.0, "type": "electric_scooter", "bike_id": "cf3c8f86a851c48894c70459bc383923", "rental_uris": {"ios": "https://dc.lft.to/lastmile_qr_scan", "android": "https://dc.lft.to/lastmile_qr_scan"}, "fusion_lon": 0.0, "lon": -77.03018133333333, "name": "cf3c8f86a851c48894c70459bc383923", "is_reserved": 0, "is_disabled": 0}, {"lat": 38.931013666666665, "fusion_lat": 0.0, "type": "electric_scooter", "bike_id": "6bf8a9698fb7b05bd4a625cf8ab06839", "rental_uris": {"ios": "https://dc.lft.to/lastmile_qr_scan", "android": "https://dc.lft.to/lastmile_qr_scan"}, "fusion_lon": 0.0, "lon": -77.023669, "name": "6bf8a9698fb7b05bd4a625cf8ab06839", "is_reserved": 0, "is_disabled": 0}, {"lat": 38.9191235, "fusion_lat": 0.0, "type": "electric_scooter", "bike_id": "de948043499a8a17cadaf87d04069512", "rental_uris": {"ios": "https://dc.lft.to/lastmile_qr_scan", "android": "https://dc.lft.to/lastmile_qr_scan"}, "fusion_lon": 0.0, "lon": -77.02492316666667, "name": "de948043499a8a17cadaf87d04069512", "is_reserved": 0, "is_disabled": 0}, {"lat": 38.978326833333334, "fusion_lat": 0.0, "type": "electric_bike", "bike_id": "3604e165b97cdea87f43419a7a19e449", "rental_uris": {"ios": "https://dc.lft.to/lastmile_qr_scan", "android": "https://dc.lft.to/lastmile_qr_scan"}, "fusion_lon": 0.0, "lon": -76.928915, "name": "3604e165b97cdea87f43419a7a19e449", "is_reserved": 0, "is_disabled": 0}, {"lat": 38.9191625, "fusion_lat": 0.0, "type": "electric_scooter", "bike_id": "0c73323230877bda0746be308af89301", "rental_uris": {"ios": "https://dc.lft.to/lastmile_qr_scan", "android": "https://dc.lft.to/lastmile_qr_scan"}, "fusion_lon": 0.0, "lon": -77.03360666666667, "name": "0c73323230877bda0746be308af89301", "is_reserved": 0, "is_disabled": 0}, {"lat": 38.895620666666666, "fusion_lat": 0.0, "type": "electric_bike", "bike_id": "e98021a36cccb781a71ffc8e5bad96e5", "rental_uris": {"ios": "https://dc.lft.to/lastmile_qr_scan", "android": "https://dc.lft.to/lastmile_qr_scan"}, "fusion_lon": 0.0, "lon": -77.12730716666667, "name": "e98021a36cccb781a71ffc8e5bad96e5", "is_reserved": 0, "is_disabled": 0}, {"lat": 38.9257215, "fusion_lat": 0.0, "type": "electric_scooter", "bike_id": "480e11444d3d70aee66a9e23e26c4c0f", "rental_uris": {"ios": "https://dc.lft.to/lastmile_qr_scan", "android": "https://dc.lft.to/lastmile_qr_scan"}, "fusion_lon": 0.0, "lon": -77.02685233333334, "name": "480e11444d3d70aee66a9e23e26c4c0f", "is_reserved": 0, "is_disabled": 0}, {"lat": 38.88464, "fusion_lat": 0.0, "type": "electric_bike", "bike_id": "aef4d44a7f8daf1c45faae4c48464b1e", "rental_uris": {"ios": "https://dc.lft.to/lastmile_qr_scan", "android": "https://dc.lft.to/lastmile_qr_scan"}, "fusion_lon": 0.0, "lon": -76.95241566666667, "name": "aef4d44a7f8daf1c45faae4c48464b1e", "is_reserved": 0, "is_disabled": 0}, {"lat": 38.918926, "fusion_lat": 0.0, "type": "electric_scooter", "bike_id": "e5c095e55c5d818200b384a0eecf6dba", "rental_uris": {"ios": "https://dc.lft.to/lastmile_qr_scan", "android": "https://dc.lft.to/lastmile_qr_scan"}, "fusion_lon": 0.0, "lon": -77.02952233333333, "name": "e5c095e55c5d818200b384a0eecf6dba", "is_reserved": 0, "is_disabled": 0}, {"lat": 38.88719416666667, "fusion_lat": 0.0, "type": "electric_scooter", "bike_id": "e7d0a9da16e03696616f6cc31ec86296", "rental_uris": {"ios": "https://dc.lft.to/lastmile_qr_scan", "android": "https://dc.lft.to/lastmile_qr_scan"}, "fusion_lon": 0.0, "lon": -77.02197483333333, "name": "e7d0a9da16e03696616f6cc31ec86296", "is_reserved": 0, "is_disabled": 0}, {"lat": 38.9267385, "fusion_lat": 0.0, "type": "electric_scooter", "bike_id": "6e0e20acf16a28d5753b569c02065c56", "rental_uris": {"ios": "https://dc.lft.to/lastmile_qr_scan", "android": "https://dc.lft.to/lastmile_qr_scan"}, "fusion_lon": 0.0, "lon": -77.015115, "name": "6e0e20acf16a28d5753b569c02065c56", "is_reserved": 0, "is_disabled": 0}, {"lat": 38.99224916666667, "fusion_lat": 0.0, "type": "electric_bike", "bike_id": "b482bc388de5c66472030477126dee5c", "rental_uris": {"ios": "https://dc.lft.to/lastmile_qr_scan", "android": "https://dc.lft.to/lastmile_qr_scan"}, "fusion_lon": 0.0, "lon": -77.03586283333334, "name": "b482bc388de5c66472030477126dee5c", "is_reserved": 0, "is_disabled": 0}, {"lat": 38.90296266666667, "fusion_lat": 0.0, "type": "electric_scooter", "bike_id": "e5e0c48c4bce79200a3fdf41d2be2ffd", "rental_uris": {"ios": "https://dc.lft.to/lastmile_qr_scan", "android": "https://dc.lft.to/lastmile_qr_scan"}, "fusion_lon": 0.0, "lon": -76.93403583333334, "name": "e5e0c48c4bce79200a3fdf41d2be2ffd", "is_reserved": 0, "is_disabled": 0}, {"lat": 38.94919983333333, "fusion_lat": 0.0, "type": "electric_bike", "bike_id": "bdb123dc2fb7f72d4cb534db3b5fc917", "rental_uris": {"ios": "https://dc.lft.to/lastmile_qr_scan", "android": "https://dc.lft.to/lastmile_qr_scan"}, "fusion_lon": 0.0, "lon": -77.00800716666667, "name": "bdb123dc2fb7f72d4cb534db3b5fc917", "is_reserved": 0, "is_disabled": 0}, {"lat": 38.92176883333333, "fusion_lat": 0.0, "type": "electric_scooter", "bike_id": "0466fbd2406651fda46d89a1024b577a", "rental_uris": {"ios": "https://dc.lft.to/lastmile_qr_scan", "android": "https://dc.lft.to/lastmile_qr_scan"}, "fusion_lon": 0.0, "lon": -77.03836866666667, "name": "0466fbd2406651fda46d89a1024b577a", "is_reserved": 0, "is_disabled": 0}, {"lat": 38.920477166666664, "fusion_lat": 0.0, "type": "electric_bike", "bike_id": "ffd5c55665e4e50032669453a380879b", "rental_uris": {"ios": "https://dc.lft.to/lastmile_qr_scan", "android": "https://dc.lft.to/lastmile_qr_scan"}, "fusion_lon": 0.0, "lon": -77.0347365, "name": "ffd5c55665e4e50032669453a380879b", "is_reserved": 0, "is_disabled": 0}, {"lat": 38.90005083333333, "fusion_lat": 0.0, "type": "electric_scooter", "bike_id": "9564d0cc2ada87fa14dd83974fab15a6", "rental_uris": {"ios": "https://dc.lft.to/lastmile_qr_scan", "android": "https://dc.lft.to/lastmile_qr_scan"}, "fusion_lon": 0.0, "lon": -77.02344083333334, "name": "9564d0cc2ada87fa14dd83974fab15a6", "is_reserved": 0, "is_disabled": 0}, {"lat": 38.916946333333335, "fusion_lat": 0.0, "type": "electric_scooter", "bike_id": "61ef912e540d5b877627af995fd4f088", "rental_uris": {"ios": "https://dc.lft.to/lastmile_qr_scan", "android": "https://dc.lft.to/lastmile_qr_scan"}, "fusion_lon": 0.0, "lon": -77.04110783333333, "name": "61ef912e540d5b877627af995fd4f088", "is_reserved": 0, "is_disabled": 0}, {"lat": 38.92603533333333, "fusion_lat": 0.0, "type": "electric_scooter", "bike_id": "5249f6d6f914902f3bbcec302aa901cd", "rental_uris": {"ios": "https://dc.lft.to/lastmile_qr_scan", "android": "https://dc.lft.to/lastmile_qr_scan"}, "fusion_lon": 0.0, "lon": -77.02398783333334, "name": "5249f6d6f914902f3bbcec302aa901cd", "is_reserved": 0, "is_disabled": 0}, {"lat": 38.899934333333334, "fusion_lat": 0.0, "type": "electric_bike", "bike_id": "8211b6dcdf59b9ed550c1ae0cd328deb", "rental_uris": {"ios": "https://dc.lft.to/lastmile_qr_scan", "android": "https://dc.lft.to/lastmile_qr_scan"}, "fusion_lon": 0.0, "lon": -76.9983735, "name": "8211b6dcdf59b9ed550c1ae0cd328deb", "is_reserved": 0, "is_disabled": 0}, {"lat": 38.89616216666667, "fusion_lat": 0.0, "type": "electric_scooter", "bike_id": "adad8d01ad3772291cbb6ff56b0ac793", "rental_uris": {"ios": "https://dc.lft.to/lastmile_qr_scan", "android": "https://dc.lft.to/lastmile_qr_scan"}, "fusion_lon": 0.0, "lon": -76.9856935, "name": "adad8d01ad3772291cbb6ff56b0ac793", "is_reserved": 0, "is_disabled": 0}, {"lat": 38.91468783333333, "fusion_lat": 0.0, "type": "electric_scooter", "bike_id": "40907bb779e4dc67654386d134ec6c94", "rental_uris": {"ios": "https://dc.lft.to/lastmile_qr_scan", "android": "https://dc.lft.to/lastmile_qr_scan"}, "fusion_lon": 0.0, "lon": -77.01555266666666, "name": "40907bb779e4dc67654386d134ec6c94", "is_reserved": 0, "is_disabled": 0}, {"lat": 38.894909166666665, "fusion_lat": 0.0, "type": "electric_scooter", "bike_id": "6b41ae3392386d1bf22249b5ffbd4f83", "rental_uris": {"ios": "https://dc.lft.to/lastmile_qr_scan", "android": "https://dc.lft.to/lastmile_qr_scan"}, "fusion_lon": 0.0, "lon": -77.027786, "name": "6b41ae3392386d1bf22249b5ffbd4f83", "is_reserved": 0, "is_disabled": 0}, {"lat": 38.916318, "fusion_lat": 0.0, "type": "electric_scooter", "bike_id": "39dd2c7757c460da9e4bda1fc9bf094d", "rental_uris": {"ios": "https://dc.lft.to/lastmile_qr_scan", "android": "https://dc.lft.to/lastmile_qr_scan"}, "fusion_lon": 0.0, "lon": -77.03186816666667, "name": "39dd2c7757c460da9e4bda1fc9bf094d", "is_reserved": 0, "is_disabled": 0}, {"lat": 38.91481316666667, "fusion_lat": 0.0, "type": "electric_scooter", "bike_id": "b5c5a079676598101d543378864bcfd4", "rental_uris": {"ios": "https://dc.lft.to/lastmile_qr_scan", "android": "https://dc.lft.to/lastmile_qr_scan"}, "fusion_lon": 0.0, "lon": -77.04283133333334, "name": "b5c5a079676598101d543378864bcfd4", "is_reserved": 0, "is_disabled": 0}, {"lat": 38.91708916666666, "fusion_lat": 0.0, "type": "electric_scooter", "bike_id": "e9109ebba93c92274c8d1d59de7e3f16", "rental_uris": {"ios": "https://dc.lft.to/lastmile_qr_scan", "android": "https://dc.lft.to/lastmile_qr_scan"}, "fusion_lon": 0.0, "lon": -77.03350266666666, "name": "e9109ebba93c92274c8d1d59de7e3f16", "is_reserved": 0, "is_disabled": 0}, {"lat": 38.9210365, "fusion_lat": 0.0, "type": "electric_scooter", "bike_id": "a266c36bab87225dd929795a75da362d", "rental_uris": {"ios": "https://dc.lft.to/lastmile_qr_scan", "android": "https://dc.lft.to/lastmile_qr_scan"}, "fusion_lon": 0.0, "lon": -77.0421075, "name": "a266c36bab87225dd929795a75da362d", "is_reserved": 0, "is_disabled": 0}, {"lat": 38.92865, "fusion_lat": 0.0, "type": "electric_scooter", "bike_id": "2d2b825f6c4ceec1dbb4d20a0cb490db", "rental_uris": {"ios": "https://dc.lft.to/lastmile_qr_scan", "android": "https://dc.lft.to/lastmile_qr_scan"}, "fusion_lon": 0.0, "lon": -77.03481766666667, "name": "2d2b825f6c4ceec1dbb4d20a0cb490db", "is_reserved": 0, "is_disabled": 0}, {"lat": 38.901362666666664, "fusion_lat": 0.0, "type": "electric_scooter", "bike_id": "cc5d7e384e77a28ec4f68b03642a4a3a", "rental_uris": {"ios": "https://dc.lft.to/lastmile_qr_scan", "android": "https://dc.lft.to/lastmile_qr_scan"}, "fusion_lon": 0.0, "lon": -77.04191783333333, "name": "cc5d7e384e77a28ec4f68b03642a4a3a", "is_reserved": 0, "is_disabled": 0}, {"lat": 38.88428916666667, "fusion_lat": 0.0, "type": "electric_scooter", "bike_id": "c189f8e769a8a628e9aab0715062bcf8", "rental_uris": {"ios": "https://dc.lft.to/lastmile_qr_scan", "android": "https://dc.lft.to/lastmile_qr_scan"}, "fusion_lon": 0.0, "lon": -76.95754566666666, "name": "c189f8e769a8a628e9aab0715062bcf8", "is_reserved": 0, "is_disabled": 0}, {"lat": 38.887271166666665, "fusion_lat": 0.0, "type": "electric_scooter", "bike_id": "41326e948ddfa23b0a70b0b6b490cbe0", "rental_uris": {"ios": "https://dc.lft.to/lastmile_qr_scan", "android": "https://dc.lft.to/lastmile_qr_scan"}, "fusion_lon": 0.0, "lon": -76.98359016666667, "name": "41326e948ddfa23b0a70b0b6b490cbe0", "is_reserved": 0, "is_disabled": 0}, {"lat": 38.905845166666666, "fusion_lat": 0.0, "type": "electric_scooter", "bike_id": "83d1187ff3fd29eceb845d44fcb9f24f", "rental_uris": {"ios": "https://dc.lft.to/lastmile_qr_scan", "android": "https://dc.lft.to/lastmile_qr_scan"}, "fusion_lon": 0.0, "lon": -77.021926, "name": "83d1187ff3fd29eceb845d44fcb9f24f", "is_reserved": 0, "is_disabled": 0}, {"lat": 38.94191416666666, "fusion_lat": 0.0, "type": "electric_scooter", "bike_id": "7f52cb9c94d57c460dc6c42cada01ea3", "rental_uris": {"ios": "https://dc.lft.to/lastmile_qr_scan", "android": "https://dc.lft.to/lastmile_qr_scan"}, "fusion_lon": 0.0, "lon": -77.0384615, "name": "7f52cb9c94d57c460dc6c42cada01ea3", "is_reserved": 0, "is_disabled": 0}, {"lat": 38.91902866666667, "fusion_lat": 0.0, "type": "electric_scooter", "bike_id": "a4bbe102aaae855fa2e1f48c058b4db0", "rental_uris": {"ios": "https://dc.lft.to/lastmile_qr_scan", "android": "https://dc.lft.to/lastmile_qr_scan"}, "fusion_lon": 0.0, "lon": -77.0204915, "name": "a4bbe102aaae855fa2e1f48c058b4db0", "is_reserved": 0, "is_disabled": 0}, {"lat": 38.942881, "fusion_lat": 0.0, "type": "electric_scooter", "bike_id": "a851f873566be1ab2e1ae5b848730d01", "rental_uris": {"ios": "https://dc.lft.to/lastmile_qr_scan", "android": "https://dc.lft.to/lastmile_qr_scan"}, "fusion_lon": 0.0, "lon": -77.02168383333333, "name": "a851f873566be1ab2e1ae5b848730d01", "is_reserved": 0, "is_disabled": 0}, {"lat": 38.89780433333333, "fusion_lat": 0.0, "type": "electric_scooter", "bike_id": "ab0f65dc50bc64a65fcf83d6233001c7", "rental_uris": {"ios": "https://dc.lft.to/lastmile_qr_scan", "android": "https://dc.lft.to/lastmile_qr_scan"}, "fusion_lon": 0.0, "lon": -77.0108195, "name": "ab0f65dc50bc64a65fcf83d6233001c7", "is_reserved": 0, "is_disabled": 0}, {"lat": 38.90835516666667, "fusion_lat": 0.0, "type": "electric_scooter", "bike_id": "bcb33824378c7e9283de17f090a9b224", "rental_uris": {"ios": "https://dc.lft.to/lastmile_qr_scan", "android": "https://dc.lft.to/lastmile_qr_scan"}, "fusion_lon": 0.0, "lon": -77.01255316666666, "name": "bcb33824378c7e9283de17f090a9b224", "is_reserved": 0, "is_disabled": 0}, {"lat": 38.90309666666667, "fusion_lat": 0.0, "type": "electric_scooter", "bike_id": "de704528c5c112907783063acade9699", "rental_uris": {"ios": "https://dc.lft.to/lastmile_qr_scan", "android": "https://dc.lft.to/lastmile_qr_scan"}, "fusion_lon": 0.0, "lon": -76.97802966666667, "name": "de704528c5c112907783063acade9699", "is_reserved": 0, "is_disabled": 0}, {"lat": 38.916691166666666, "fusion_lat": 0.0, "type": "electric_scooter", "bike_id": "b71b41a22766a46c2fca5a53965ce037", "rental_uris": {"ios": "https://dc.lft.to/lastmile_qr_scan", "android": "https://dc.lft.to/lastmile_qr_scan"}, "fusion_lon": 0.0, "lon": -77.02237733333334, "name": "b71b41a22766a46c2fca5a53965ce037", "is_reserved": 0, "is_disabled": 0}, {"lat": 38.90433016666667, "fusion_lat": 0.0, "type": "electric_scooter", "bike_id": "a73f131888eed7394c160d7e842d3ed7", "rental_uris": {"ios": "https://dc.lft.to/lastmile_qr_scan", "android": "https://dc.lft.to/lastmile_qr_scan"}, "fusion_lon": 0.0, "lon": -77.0251695, "name": "a73f131888eed7394c160d7e842d3ed7", "is_reserved": 0, "is_disabled": 0}, {"lat": 38.914128, "fusion_lat": 0.0, "type": "electric_scooter", "bike_id": "c0d198f457a409c2dcd9dcc75941bb3d", "rental_uris": {"ios": "https://dc.lft.to/lastmile_qr_scan", "android": "https://dc.lft.to/lastmile_qr_scan"}, "fusion_lon": 0.0, "lon": -77.0223725, "name": "c0d198f457a409c2dcd9dcc75941bb3d", "is_reserved": 0, "is_disabled": 0}, {"lat": 38.895304, "fusion_lat": 0.0, "type": "electric_scooter", "bike_id": "19737bfdb3953a3c33fe29310bc23119", "rental_uris": {"ios": "https://dc.lft.to/lastmile_qr_scan", "android": "https://dc.lft.to/lastmile_qr_scan"}, "fusion_lon": 0.0, "lon": -77.01106633333333, "name": "19737bfdb3953a3c33fe29310bc23119", "is_reserved": 0, "is_disabled": 0}, {"lat": 38.916655166666665, "fusion_lat": 0.0, "type": "electric_scooter", "bike_id": "29c3cfe4211907817a89b3e0cfc370cb", "rental_uris": {"ios": "https://dc.lft.to/lastmile_qr_scan", "android": "https://dc.lft.to/lastmile_qr_scan"}, "fusion_lon": 0.0, "lon": -77.03847533333334, "name": "29c3cfe4211907817a89b3e0cfc370cb", "is_reserved": 0, "is_disabled": 0}, {"lat": 38.914779333333335, "fusion_lat": 0.0, "type": "electric_scooter", "bike_id": "ddf60bc27b10db5b9358fd12e502dd88", "rental_uris": {"ios": "https://dc.lft.to/lastmile_qr_scan", "android": "https://dc.lft.to/lastmile_qr_scan"}, "fusion_lon": 0.0, "lon": -77.02180416666667, "name": "ddf60bc27b10db5b9358fd12e502dd88", "is_reserved": 0, "is_disabled": 0}, {"lat": 38.89723933333333, "fusion_lat": 0.0, "type": "electric_bike", "bike_id": "24dba712245a841f5e47abf181254500", "rental_uris": {"ios": "https://dc.lft.to/lastmile_qr_scan", "android": "https://dc.lft.to/lastmile_qr_scan"}, "fusion_lon": 0.0, "lon": -76.97337583333334, "name": "24dba712245a841f5e47abf181254500", "is_reserved": 0, "is_disabled": 0}, {"lat": 38.906131, "fusion_lat": 0.0, "type": "electric_scooter", "bike_id": "abaf33981680b8b564bbed57ab313ec1", "rental_uris": {"ios": "https://dc.lft.to/lastmile_qr_scan", "android": "https://dc.lft.to/lastmile_qr_scan"}, "fusion_lon": 0.0, "lon": -77.039695, "name": "abaf33981680b8b564bbed57ab313ec1", "is_reserved": 0, "is_disabled": 0}, {"lat": 38.90958966666667, "fusion_lat": 0.0, "type": "electric_scooter", "bike_id": "25af853626b284d5a48e42fb8fc96fb8", "rental_uris": {"ios": "https://dc.lft.to/lastmile_qr_scan", "android": "https://dc.lft.to/lastmile_qr_scan"}, "fusion_lon": 0.0, "lon": -77.03431366666666, "name": "25af853626b284d5a48e42fb8fc96fb8", "is_reserved": 0, "is_disabled": 0}, {"lat": 38.92057916666667, "fusion_lat": 0.0, "type": "electric_scooter", "bike_id": "fea52d71a7eb12099769b63dbf233c82", "rental_uris": {"ios": "https://dc.lft.to/lastmile_qr_scan", "android": "https://dc.lft.to/lastmile_qr_scan"}, "fusion_lon": 0.0, "lon": -77.02428333333333, "name": "fea52d71a7eb12099769b63dbf233c82", "is_reserved": 0, "is_disabled": 0}, {"lat": 38.898295, "fusion_lat": 0.0, "type": "electric_scooter", "bike_id": "443f8d41b43133aff0312bc42644bba8", "rental_uris": {"ios": "https://dc.lft.to/lastmile_qr_scan", "android": "https://dc.lft.to/lastmile_qr_scan"}, "fusion_lon": 0.0, "lon": -77.049147, "name": "443f8d41b43133aff0312bc42644bba8", "is_reserved": 0, "is_disabled": 0}, {"lat": 38.887629, "fusion_lat": 0.0, "type": "electric_scooter", "bike_id": "fbc9f34c32ce5f366006a9e9af0d948f", "rental_uris": {"ios": "https://dc.lft.to/lastmile_qr_scan", "android": "https://dc.lft.to/lastmile_qr_scan"}, "fusion_lon": 0.0, "lon": -77.0004595, "name": "fbc9f34c32ce5f366006a9e9af0d948f", "is_reserved": 0, "is_disabled": 0}, {"lat": 38.879223, "fusion_lat": 0.0, "type": "electric_scooter", "bike_id": "7747335038480bae3e05d795d4a4a6af", "rental_uris": {"ios": "https://dc.lft.to/lastmile_qr_scan", "android": "https://dc.lft.to/lastmile_qr_scan"}, "fusion_lon": 0.0, "lon": -77.00778383333333, "name": "7747335038480bae3e05d795d4a4a6af", "is_reserved": 0, "is_disabled": 0}, {"lat": 38.944499666666665, "fusion_lat": 0.0, "type": "electric_scooter", "bike_id": "66b7c032a32d02cd79cf3985e426a09f", "rental_uris": {"ios": "https://dc.lft.to/lastmile_qr_scan", "android": "https://dc.lft.to/lastmile_qr_scan"}, "fusion_lon": 0.0, "lon": -77.06356416666667, "name": "66b7c032a32d02cd79cf3985e426a09f", "is_reserved": 0, "is_disabled": 0}, {"lat": 38.92428266666667, "fusion_lat": 0.0, "type": "electric_scooter", "bike_id": "2a8ccfe7dd218f8189bfab6eecc09ea3", "rental_uris": {"ios": "https://dc.lft.to/lastmile_qr_scan", "android": "https://dc.lft.to/lastmile_qr_scan"}, "fusion_lon": 0.0, "lon": -77.02074433333334, "name": "2a8ccfe7dd218f8189bfab6eecc09ea3", "is_reserved": 0, "is_disabled": 0}, {"lat": 38.92308166666667, "fusion_lat": 0.0, "type": "electric_scooter", "bike_id": "9384e925b1bbf542a80d4abb0db24739", "rental_uris": {"ios": "https://dc.lft.to/lastmile_qr_scan", "android": "https://dc.lft.to/lastmile_qr_scan"}, "fusion_lon": 0.0, "lon": -77.0297465, "name": "9384e925b1bbf542a80d4abb0db24739", "is_reserved": 0, "is_disabled": 0}, {"lat": 38.9333245, "fusion_lat": 0.0, "type": "electric_scooter", "bike_id": "c111798ebae37e298a9e9afc1e71d20e", "rental_uris": {"ios": "https://dc.lft.to/lastmile_qr_scan", "android": "https://dc.lft.to/lastmile_qr_scan"}, "fusion_lon": 0.0, "lon": -77.02913383333333, "name": "c111798ebae37e298a9e9afc1e71d20e", "is_reserved": 0, "is_disabled": 0}, {"lat": 38.96123333333333, "fusion_lat": 0.0, "type": "electric_bike", "bike_id": "eac4728a80b061cfd9efd1ae44faaf63", "rental_uris": {"ios": "https://dc.lft.to/lastmile_qr_scan", "android": "https://dc.lft.to/lastmile_qr_scan"}, "fusion_lon": 0.0, "lon": -77.03275433333333, "name": "eac4728a80b061cfd9efd1ae44faaf63", "is_reserved": 0, "is_disabled": 0}, {"lat": 38.95200066666666, "fusion_lat": 0.0, "type": "electric_scooter", "bike_id": "fc0e6adb65d707142bba2661af9c5364", "rental_uris": {"ios": "https://dc.lft.to/lastmile_qr_scan", "android": "https://dc.lft.to/lastmile_qr_scan"}, "fusion_lon": 0.0, "lon": -77.02738616666667, "name": "fc0e6adb65d707142bba2661af9c5364", "is_reserved": 0, "is_disabled": 0},