{"data": {"bikes": [{"bike_id": "993bc7c5845d128389ca129a79731d17", "fusion_lon": 0.0, "lon": -77.02395933333334, "name": "993bc7c5845d128389ca129a79731d17", "is_disabled": 0, "rental_uris": {"android": "https://dc.lft.to/lastmile_qr_scan", "ios": "https://dc.lft.to/lastmile_qr_scan"}, "type": "electric_scooter", "lat": 38.90742733333333, "is_reserved": 0, "fusion_lat": 0.0}, {"bike_id": "77eb1342bc6b2c0e6f667f258b13c9d5", "fusion_lon": 0.0, "lon": -77.04267633333333, "name": "77eb1342bc6b2c0e6f667f258b13c9d5", "is_disabled": 0, "rental_uris": {"android": "https://dc.lft.to/lastmile_qr_scan", "ios": "https://dc.lft.to/lastmile_qr_scan"}, "type": "electric_scooter", "lat": 38.92235016666667, "is_reserved": 0, "fusion_lat": 0.0}, {"bike_id": "be5bb16ba5a0e16db25f3be15d0ff125", "fusion_lon": 0.0, "lon": -77.0370105, "name": "be5bb16ba5a0e16db25f3be15d0ff125", "is_disabled": 0, "rental_uris": {"android": "https://dc.lft.to/lastmile_qr_scan", "ios": "https://dc.lft.to/lastmile_qr_scan"}, "type": "electric_scooter", "lat": 38.926426, "is_reserved": 0, "fusion_lat": 0.0}, {"bike_id": "a4b5d06b62e256e0b568f4c1fca24a56", "fusion_lon": 0.0, "lon": -77.03346566666667, "name": "a4b5d06b62e256e0b568f4c1fca24a56", "is_disabled": 0, "rental_uris": {"android": "https://dc.lft.to/lastmile_qr_scan", "ios": "https://dc.lft.to/lastmile_qr_scan"}, "type": "electric_scooter", "lat": 38.903119333333336, "is_reserved": 0, "fusion_lat": 0.0}, {"bike_id": "1a145b1693fcc83f5c44063c9c888399", "fusion_lon": 0.0, "lon": -77.03891066666667, "name": "1a145b1693fcc83f5c44063c9c888399", "is_disabled": 0, "rental_uris": {"android": "https://dc.lft.to/lastmile_qr_scan", "ios": "https://dc.lft.to/lastmile_qr_scan"}, "type": "electric_scooter", "lat": 38.917062666666666, "is_reserved": 0, "fusion_lat": 0.0}, {"bike_id": "f3fd05e516fd8d25ddb01e8d950c1a36", "fusion_lon": 0.0, "lon": -77.0593115, "name": "f3fd05e516fd8d25ddb01e8d950c1a36", "is_disabled": 0, "rental_uris": {"android": "https://dc.lft.to/lastmile_qr_scan", "ios": "https://dc.lft.to/lastmile_qr_scan"}, "type": "electric_scooter", "lat": 38.90937866666667, "is_reserved": 0, "fusion_lat": 0.0}, {"bike_id": "9f7593640ab1f6f77e6d5f7ec2ac95ba", "fusion_lon": 0.0, "lon": -77.0234535, "name": "9f7593640ab1f6f77e6d5f7ec2ac95ba", "is_disabled": 0, "rental_uris": {"android": "https://dc.lft.to/lastmile_qr_scan", "ios": "https://dc.lft.to/lastmile_qr_scan"}, "type": "electric_scooter", "lat": 38.907228333333336, "is_reserved": 0, "fusion_lat": 0.0}, {"bike_id": "1282c3605523fe479634457bfc786006", "fusion_lon": 0.0, "lon": -77.0367505, "name": "1282c3605523fe479634457bfc786006", "is_disabled": 0, "rental_uris": {"android": "https://dc.lft.to/lastmile_qr_scan", "ios": "https://dc.lft.to/lastmile_qr_scan"}, "type": "electric_scooter", "lat": 38.917093333333334, "is_reserved": 0, "fusion_lat": 0.0}, {"bike_id": "05e0f45f03c67e3f801db70863d8db0b", "fusion_lon": 0.0, "lon": -77.03222516666666, "name": "05e0f45f03c67e3f801db70863d8db0b", "is_disabled": 0, "rental_uris": {"android": "https://dc.lft.to/lastmile_qr_scan", "ios": "https://dc.lft.to/lastmile_qr_scan"}, "type": "electric_scooter", "lat": 38.897317, "is_reserved": 0, "fusion_lat": 0.0}, {"bike_id": "371c2166a5b2316de05bf451714f4a92", "fusion_lon": 0.0, "lon": -76.93226666666666, "name": "371c2166a5b2316de05bf451714f4a92", "is_disabled": 0, "rental_uris": {"android": "https://dc.lft.to/lastmile_qr_scan", "ios": "https://dc.lft.to/lastmile_qr_scan"}, "type": "electric_bike", "lat": 38.86595783333333, "is_reserved": 0, "fusion_lat": 0.0}, {"bike_id": "aafd6c109cff5dbae767461b81c45f77", "fusion_lon": 0.0, "lon": -77.0188275, "name": "aafd6c109cff5dbae767461b81c45f77", "is_disabled": 0, "rental_uris": {"android": "https://dc.lft.to/lastmile_qr_scan", "ios": "https://dc.lft.to/lastmile_qr_scan"}, "type": "electric_scooter", "lat": 38.91772233333333, "is_reserved": 0, "fusion_lat": 0.0}, {"bike_id": "f069c3444d98b61c9af8070551d8b403", "fusion_lon": 0.0, "lon": -77.0348215, "name": "f069c3444d98b61c9af8070551d8b403", "is_disabled": 0, "rental_uris": {"android": "https://dc.lft.to/lastmile_qr_scan", "ios": "https://dc.lft.to/lastmile_qr_scan"}, "type": "electric_bike", "lat": 38.9353805, "is_reserved": 0, "fusion_lat": 0.0}, {"bike_id": "1aef893b4020300a07880d752b214a1b", "fusion_lon": 0.0, "lon": -77.04004816666666, "name": "1aef893b4020300a07880d752b214a1b", "is_disabled": 0, "rental_uris": {"android": "https://dc.lft.to/lastmile_qr_scan", "ios": "https://dc.lft.to/lastmile_qr_scan"}, "type": "electric_scooter", "lat": 38.91006633333333, "is_reserved": 0, "fusion_lat": 0.0}, {"bike_id": "820339104b915f66a0b89f336c4c8579", "fusion_lon": 0.0, "lon": -77.0311995, "name": "820339104b915f66a0b89f336c4c8579", "is_disabled": 0, "rental_uris": {"android": "https://dc.lft.to/lastmile_qr_scan", "ios": "https://dc.lft.to/lastmile_qr_scan"}, "type": "electric_scooter", "lat": 38.917048333333334, "is_reserved": 0, "fusion_lat": 0.0}, {"bike_id": "8e3f46531e48d45b385d897fc99b99d1", "fusion_lon": 0.0, "lon": -77.0147955, "name": "8e3f46531e48d45b385d897fc99b99d1", "is_disabled": 0, "rental_uris": {"android": "https://dc.lft.to/lastmile_qr_scan", "ios": "https://dc.lft.to/lastmile_qr_scan"}, "type": "electric_scooter", "lat": 38.876250166666665, "is_reserved": 0, "fusion_lat": 0.0}, {"bike_id": "306a3f2c3843e7f4874a8151f6e8ccb2", "fusion_lon": 0.0, "lon": -76.99027583333333, "name": "306a3f2c3843e7f4874a8151f6e8ccb2", "is_disabled": 0, "rental_uris": {"android": "https://dc.lft.to/lastmile_qr_scan", "ios": "https://dc.lft.to/lastmile_qr_scan"}, "type": "electric_scooter", "lat": 38.86520483333334, "is_reserved": 0, "fusion_lat": 0.0}, {"bike_id": "10f6cc95fb96df97fb37406da1c42d8a", "fusion_lon": 0.0, "lon": -77.0552485, "name": "10f6cc95fb96df97fb37406da1c42d8a", "is_disabled": 0, "rental_uris": {"android": "https://dc.lft.to/lastmile_qr_scan", "ios": "https://dc.lft.to/lastmile_qr_scan"}, "type": "electric_scooter", "lat": 38.8972765, "is_reserved": 0, "fusion_lat": 0.0}, {"bike_id": "32972308c205922c84371cfb931ef2d8", "fusion_lon": 0.0, "lon": -77.12953116666667, "name": "32972308c205922c84371cfb931ef2d8", "is_disabled": 0, "rental_uris": {"android": "https://dc.lft.to/lastmile_qr_scan", "ios": "https://dc.lft.to/lastmile_qr_scan"}, "type": "electric_bike", "lat": 38.852179, "is_reserved": 0, "fusion_lat": 0.0}, {"bike_id": "aa3765d3ea0cf4db09bc452e2da5311f", "fusion_lon": 0.0, "lon": -77.03880783333334, "name": "aa3765d3ea0cf4db09bc452e2da5311f", "is_disabled": 0, "rental_uris": {"android": "https://dc.lft.to/lastmile_qr_scan", "ios": "https://dc.lft.to/lastmile_qr_scan"}, "type": "electric_scooter", "lat": 38.91708233333333, "is_reserved": 0, "fusion_lat": 0.0}, {"bike_id": "a269db61ed7a34200958f79def2024b0", "fusion_lon": 0.0, "lon": -77.0401855, "name": "a269db61ed7a34200958f79def2024b0", "is_disabled": 0, "rental_uris": {"android": "https://dc.lft.to/lastmile_qr_scan", "ios": "https://dc.lft.to/lastmile_qr_scan"}, "type": "electric_scooter", "lat": 38.92449533333333, "is_reserved": 0, "fusion_lat": 0.0}, {"bike_id": "247bd1bbce3939dc76a0637c97fe18e6", "fusion_lon": 0.0, "lon": -77.02492216666667, "name": "247bd1bbce3939dc76a0637c97fe18e6", "is_disabled": 0, "rental_uris": {"android": "https://dc.lft.to/lastmile_qr_scan", "ios": "https://dc.lft.to/lastmile_qr_scan"}, "type": "electric_scooter", "lat": 38.902703833333334, "is_reserved": 0, "fusion_lat": 0.0}, {"bike_id": "451fdb6da5757c0d389bd93016c72afb", "fusion_lon": 0.0, "lon": -76.99908783333333, "name": "451fdb6da5757c0d389bd93016c72afb", "is_disabled": 0, "rental_uris": {"android": "https://dc.lft.to/lastmile_qr_scan", "ios": "https://dc.lft.to/lastmile_qr_scan"}, "type": "electric_scooter", "lat": 38.94824066666666, "is_reserved": 0, "fusion_lat": 0.0}, {"bike_id": "8bc91deac2ff8db98cb21f8ff30b2ca2", "fusion_lon": 0.0, "lon": -77.05544033333334, "name": "8bc91deac2ff8db98cb21f8ff30b2ca2", "is_disabled": 0, "rental_uris": {"android": "https://dc.lft.to/lastmile_qr_scan", "ios": "https://dc.lft.to/lastmile_qr_scan"}, "type": "electric_scooter", "lat": 38.930082166666665, "is_reserved": 0, "fusion_lat": 0.0}, {"bike_id": "5794acdc918e1e66e86a99fa55adc1d7", "fusion_lon": 0.0, "lon": -77.02489083333333, "name": "5794acdc918e1e66e86a99fa55adc1d7", "is_disabled": 0, "rental_uris": {"android": "https://dc.lft.to/lastmile_qr_scan", "ios": "https://dc.lft.to/lastmile_qr_scan"}, "type": "electric_scooter", "lat": 38.9431095, "is_reserved": 0, "fusion_lat": 0.0}, {"bike_id": "8e0f823d7da204550ad609d10e730462", "fusion_lon": 0.0, "lon": -77.01412633333334, "name": "8e0f823d7da204550ad609d10e730462", "is_disabled": 0, "rental_uris": {"android": "https://dc.lft.to/lastmile_qr_scan", "ios": "https://dc.lft.to/lastmile_qr_scan"}, "type": "electric_scooter", "lat": 38.92831533333333, "is_reserved": 0, "fusion_lat": 0.0}, {"bike_id": "ff89f9a072fd8ba6f8a4d917fc5e37e0", "fusion_lon": 0.0, "lon": -76.93608266666666, "name": "ff89f9a072fd8ba6f8a4d917fc5e37e0", "is_disabled": 0, "rental_uris": {"android": "https://dc.lft.to/lastmile_qr_scan", "ios": "https://dc.lft.to/lastmile_qr_scan"}, "type": "electric_scooter", "lat": 38.896818833333334, "is_reserved": 0, "fusion_lat": 0.0}, {"bike_id": "916006e2e818c406dfaf4fde52b3af10", "fusion_lon": 0.0, "lon": -77.01620883333334, "name": "916006e2e818c406dfaf4fde52b3af10", "is_disabled": 0, "rental_uris": {"android": "https://dc.lft.to/lastmile_qr_scan", "ios": "https://dc.lft.to/lastmile_qr_scan"}, "type": "electric_scooter", "lat": 38.9068555, "is_reserved": 0, "fusion_lat": 0.0}, {"bike_id": "2c18b8df46ce04ea2efd32127b8720d8", "fusion_lon": 0.0, "lon": -77.02401616666667, "name": "2c18b8df46ce04ea2efd32127b8720d8", "is_disabled": 0, "rental_uris": {"android": "https://dc.lft.to/lastmile_qr_scan", "ios": "https://dc.lft.to/lastmile_qr_scan"}, "type": "electric_scooter", "lat": 38.899868833333336, "is_reserved": 0, "fusion_lat": 0.0}, {"bike_id": "e7d12d5b4380244bba8304f86eca0d04", "fusion_lon": 0.0, "lon": -77.06389533333333, "name": "e7d12d5b4380244bba8304f86eca0d04", "is_disabled": 0, "rental_uris": {"android": "https://dc.lft.to/lastmile_qr_scan", "ios": "https://dc.lft.to/lastmile_qr_scan"}, "type": "electric_scooter", "lat": 38.902590833333335, "is_reserved": 0, "fusion_lat": 0.0}, {"bike_id": "378b6d383fd7af8cabe7d54abce481e2", "fusion_lon": 0.0, "lon": -76.98689783333333, "name": "378b6d383fd7af8cabe7d54abce481e2", "is_disabled": 0, "rental_uris": {"android": "https://dc.lft.to/lastmile_qr_scan", "ios": "https://dc.lft.to/lastmile_qr_scan"}, "type": "electric_bike", "lat": 38.944759, "is_reserved": 0, "fusion_lat": 0.0}, {"bike_id": "84d5de67dc440949ff919dadff721e84", "fusion_lon": 0.0, "lon": -77.03164616666666, "name": "84d5de67dc440949ff919dadff721e84", "is_disabled": 0, "rental_uris": {"android": "https://dc.lft.to/lastmile_qr_scan", "ios": "https://dc.lft.to/lastmile_qr_scan"}, "type": "electric_scooter", "lat": 38.909631166666664, "is_reserved": 0, "fusion_lat": 0.0}, {"bike_id": "f4f5d17b7dd71a99c9d1b343c2ef2eb3", "fusion_lon": 0.0, "lon": -77.03542466666667, "name": "f4f5d17b7dd71a99c9d1b343c2ef2eb3", "is_disabled": 0, "rental_uris": {"android": "https://dc.lft.to/lastmile_qr_scan", "ios": "https://dc.lft.to/lastmile_qr_scan"}, "type": "electric_scooter", "lat": 38.918646833333334, "is_reserved": 0, "fusion_lat": 0.0}, {"bike_id": "a2590326047609021ecd5b5f99993ac8", "fusion_lon": 0.0, "lon": -76.98508633333333, "name": "a2590326047609021ecd5b5f99993ac8", "is_disabled": 0, "rental_uris": {"android": "https://dc.lft.to/lastmile_qr_scan", "ios": "https://dc.lft.to/lastmile_qr_scan"}, "type": "electric_scooter", "lat": 38.86658416666667, "is_reserved": 0, "fusion_lat": 0.0}, {"bike_id": "be0a5772e52d9da40df1903e2c6c731a", "fusion_lon": 0.0, "lon": -77.0369445, "name": "be0a5772e52d9da40df1903e2c6c731a", "is_disabled": 0, "rental_uris": {"android": "https://dc.lft.to/lastmile_qr_scan", "ios": "https://dc.lft.to/lastmile_qr_scan"}, "type": "electric_scooter", "lat": 38.9164885, "is_reserved": 0, "fusion_lat": 0.0}, {"bike_id": "ba41592f182826515ba491a5fd5f6f1c", "fusion_lon": 0.0, "lon": -76.99778183333333, "name": "ba41592f182826515ba491a5fd5f6f1c", "is_disabled": 0, "rental_uris": {"android": "https://dc.lft.to/lastmile_qr_scan", "ios": "https://dc.lft.to/lastmile_qr_scan"}, "type": "electric_bike", "lat": 38.8621385, "is_reserved": 0, "fusion_lat": 0.0}, {"bike_id": "56458cd24ad522e72793133abccaff99", "fusion_lon": 0.0, "lon": -77.021859, "name": "56458cd24ad522e72793133abccaff99", "is_disabled": 0, "rental_uris": {"android": "https://dc.lft.to/lastmile_qr_scan", "ios": "https://dc.lft.to/lastmile_qr_scan"}, "type": "electric_scooter", "lat": 38.91507166666667, "is_reserved": 0, "fusion_lat": 0.0}, {"bike_id": "25b2776f92d0cd268536e7966e4e05d9", "fusion_lon": 0.0, "lon": -77.04318433333333, "name": "25b2776f92d0cd268536e7966e4e05d9", "is_disabled": 0, "rental_uris": {"android": "https://dc.lft.to/lastmile_qr_scan", "ios": "https://dc.lft.to/lastmile_qr_scan"}, "type": "electric_scooter", "lat": 38.923744166666665, "is_reserved": 0, "fusion_lat": 0.0}, {"bike_id": "3f5a2bc78be5580a2594706324e0def5", "fusion_lon": 0.0, "lon": -77.03020433333333, "name": "3f5a2bc78be5580a2594706324e0def5", "is_disabled": 0, "rental_uris": {"android": "https://dc.lft.to/lastmile_qr_scan", "ios": "https://dc.lft.to/lastmile_qr_scan"}, "type": "electric_scooter", "lat": 38.89619016666666, "is_reserved": 0, "fusion_lat": 0.0}, {"bike_id": "a0dc97746f95d8acf251b4a7152ccc40", "fusion_lon": 0.0, "lon": -77.05006466666667, "name": "a0dc97746f95d8acf251b4a7152ccc40", "is_disabled": 0, "rental_uris": {"android": "https://dc.lft.to/lastmile_qr_scan", "ios": "https://dc.lft.to/lastmile_qr_scan"}, "type": "electric_scooter", "lat": 38.89227266666666, "is_reserved": 0, "fusion_lat": 0.0}, {"bike_id": "7b0cc7d5f9f18099061411bca6f6ad86", "fusion_lon": 0.0, "lon": -76.94876666666667, "name": "7b0cc7d5f9f18099061411bca6f6ad86", "is_disabled": 0, "rental_uris": {"android": "https://dc.lft.to/lastmile_qr_scan", "ios": "https://dc.lft.to/lastmile_qr_scan"}, "type": "electric_scooter", "lat": 38.89500983333333, "is_reserved": 0, "fusion_lat": 0.0}, {"bike_id": "9ade396a9129a3be445979aa0915dea0", "fusion_lon": 0.0, "lon": -77.0229115, "name": "9ade396a9129a3be445979aa0915dea0", "is_disabled": 0, "rental_uris": {"android": "https://dc.lft.to/lastmile_qr_scan", "ios": "https://dc.lft.to/lastmile_qr_scan"}, "type": "electric_scooter", "lat": 38.916144333333335, "is_reserved": 0, "fusion_lat": 0.0}, {"bike_id": "664b50b719dba75a7b56a89d742f759b", "fusion_lon": 0.0, "lon": -77.0402335, "name": "664b50b719dba75a7b56a89d742f759b", "is_disabled": 0, "rental_uris": {"android": "https://dc.lft.to/lastmile_qr_scan", "ios": "https://dc.lft.to/lastmile_qr_scan"}, "type": "electric_scooter", "lat": 38.922699, "is_reserved": 0, "fusion_lat": 0.0}, {"bike_id": "a02253d7c23ff9ece70be199baabbbfd", "fusion_lon": 0.0, "lon": -77.02786666666667, "name": "a02253d7c23ff9ece70be199baabbbfd", "is_disabled": 0, "rental_uris": {"android": "https://dc.lft.to/lastmile_qr_scan", "ios": "https://dc.lft.to/lastmile_qr_scan"}, "type": "electric_scooter", "lat": 38.91127183333333, "is_reserved": 0, "fusion_lat": 0.0}, {"bike_id": "42fddb9f55c9bd1666d083fe52870a58", "fusion_lon": 0.0, "lon": -77.031822, "name": "42fddb9f55c9bd1666d083fe52870a58", "is_disabled": 0, "rental_uris": {"android": "https://dc.lft.to/lastmile_qr_scan", "ios": "https://dc.lft.to/lastmile_qr_scan"}, "type": "electric_scooter", "lat": 38.917578166666665, "is_reserved": 0, "fusion_lat": 0.0}, {"bike_id": "2db450ac02da445a0e2831a097ed7315", "fusion_lon": 0.0, "lon": -77.00203416666666, "name": "2db450ac02da445a0e2831a097ed7315", "is_disabled": 0, "rental_uris": {"android": "https://dc.lft.to/lastmile_qr_scan", "ios": "https://dc.lft.to/lastmile_qr_scan"}, "type": "electric_bike", "lat": 38.819380833333334, "is_reserved": 0, "fusion_lat": 0.0}, {"bike_id": "7b3298fac089cf6a6e2b5b9c53492944", "fusion_lon": 0.0, "lon": -77.041241, "name": "7b3298fac089cf6a6e2b5b9c53492944", "is_disabled": 0, "rental_uris": {"android": "https://dc.lft.to/lastmile_qr_scan", "ios": "https://dc.lft.to/lastmile_qr_scan"}, "type": "electric_scooter", "lat": 38.921422166666666, "is_reserved": 0, "fusion_lat": 0.0}, {"bike_id": "5bac1d9bef58f3879dee624b0823aaf9", "fusion_lon": 0.0, "lon": -77.02170766666667, "name": "5bac1d9bef58f3879dee624b0823aaf9", "is_disabled": 0, "rental_uris": {"android": "https://dc.lft.to/lastmile_qr_scan", "ios": "https://dc.lft.to/lastmile_qr_scan"}, "type": "electric_scooter", "lat": 38.90569933333333, "is_reserved": 0, "fusion_lat": 0.0}, {"bike_id": "eef795f8ec3d1a697c479f4a2672e0de", "fusion_lon": 0.0, "lon": -77.02373683333333, "name": "eef795f8ec3d1a697c479f4a2672e0de", "is_disabled": 0, "rental_uris": {"android": "https://dc.lft.to/lastmile_qr_scan", "ios": "https://dc.lft.to/lastmile_qr_scan"}, "type": "electric_scooter", "lat": 38.91741966666667, "is_reserved": 0, "fusion_lat": 0.0}, {"bike_id": "12d290d8ff881c0524855996876ce80b", "fusion_lon": 0.0, "lon": -77.04132933333334, "name": "12d290d8ff881c0524855996876ce80b", "is_disabled": 0, "rental_uris": {"android": "https://dc.lft.to/lastmile_qr_scan", "ios": "https://dc.lft.to/lastmile_qr_scan"}, "type": "electric_bike", "lat": 38.80503083333333, "is_reserved": 0, "fusion_lat": 0.0}, {"bike_id": "49742fb03d004ef963a8c2e4ece0f99b", "fusion_lon": 0.0, "lon": -77.04849016666667, "name": "49742fb03d004ef963a8c2e4ece0f99b", "is_disabled": 0, "rental_uris": {"android": "https://dc.lft.to/lastmile_qr_scan", "ios": "https://dc.lft.to/lastmile_qr_scan"}, "type": "electric_scooter", "lat": 38.91182533333333, "is_reserved": 0, "fusion_lat": 0.0}, {"bike_id": "2b6631be8c2e797137a4c52c30a38f53", "fusion_lon": 0.0, "lon": -77.02301166666666, "name": "2b6631be8c2e797137a4c52c30a38f53", "is_disabled": 0, "rental_uris": {"android": "https://dc.lft.to/lastmile_qr_scan", "ios": "https://dc.lft.to/lastmile_qr_scan"}, "type": "electric_scooter", "lat": 38.915499833333335, "is_reserved": 0, "fusion_lat": 0.0}, {"bike_id": "1fd479dc093f94fff9e28f5391764078", "fusion_lon": 0.0, "lon": -77.01352083333333, "name": "1fd479dc093f94fff9e28f5391764078", "is_disabled": 0, "rental_uris": {"android": "https://dc.lft.to/lastmile_qr_scan", "ios": "https://dc.lft.to/lastmile_qr_scan"}, "type": "electric_scooter", "lat": 38.886814666666666, "is_reserved": 0, "fusion_lat": 0.0}, {"bike_id": "922ec76ade12a368b188bdbb4e27eeec", "fusion_lon": 0.0, "lon": -77.03103566666667, "name": "922ec76ade12a368b188bdbb4e27eeec", "is_disabled": 0, "rental_uris": {"android": "https://dc.lft.to/lastmile_qr_scan", "ios": "https://dc.lft.to/lastmile_qr_scan"}, "type": "electric_scooter", "lat": 38.92860833333334, "is_reserved": 0, "fusion_lat": 0.0}, {"bike_id": "d49fb34ec0fbcedc9d99b2c6a1b40de1", "fusion_lon": 0.0, "lon": -77.02696633333333, "name": "d49fb34ec0fbcedc9d99b2c6a1b40de1", "is_disabled": 0, "rental_uris": {"android": "https://dc.lft.to/lastmile_qr_scan", "ios": "https://dc.lft.to/lastmile_qr_scan"}, "type": "electric_scooter", "lat": 38.92776516666667, "is_reserved": 0, "fusion_lat": 0.0}, {"bike_id": "fc71f89567c1e894c596452b153428a4", "fusion_lon": 0.0, "lon": -77.02385083333333, "name": "fc71f89567c1e894c596452b153428a4", "is_disabled": 0, "rental_uris": {"android": "https://dc.lft.to/lastmile_qr_scan", "ios": "https://dc.lft.to/lastmile_qr_scan"}, "type": "electric_scooter", "lat": 38.911081, "is_reserved": 0, "fusion_lat": 0.0}, {"bike_id": "4b94980f8d709f4500fdddcdf1e70a2a", "fusion_lon": 0.0, "lon": -77.04369166666666, "name": "4b94980f8d709f4500fdddcdf1e70a2a", "is_disabled": 0, "rental_uris": {"android": "https://dc.lft.to/lastmile_qr_scan", "ios": "https://dc.lft.to/lastmile_qr_scan"}, "type": "electric_scooter", "lat": 38.89221666666667, "is_reserved": 0, "fusion_lat": 0.0}, {"bike_id": "bb83127f336d238dfd00485732ba1763", "fusion_lon": 0.0, "lon": -77.0321005, "name": "bb83127f336d238dfd00485732ba1763", "is_disabled": 0, "rental_uris": {"android": "https://dc.lft.to/lastmile_qr_scan", "ios": "https://dc.lft.to/lastmile_qr_scan"}, "type": "electric_scooter", "lat": 38.89574183333333, "is_reserved": 0, "fusion_lat": 0.0}, {"bike_id": "9b00876be3676d7afec9534fa27d7f4f", "fusion_lon": 0.0, "lon": -77.03486466666666, "name": "9b00876be3676d7afec9534fa27d7f4f", "is_disabled": 0, "rental_uris": {"android": "https://dc.lft.to/lastmile_qr_scan", "ios": "https://dc.lft.to/lastmile_qr_scan"}, "type": "electric_scooter", "lat": 38.9327005, "is_reserved": 0, "fusion_lat": 0.0}, {"bike_id": "8321ebb22cc2592945c96961c7d97a59", "fusion_lon": 0.0, "lon": -77.04198283333334, "name": "8321ebb22cc2592945c96961c7d97a59", "is_disabled": 0, "rental_uris": {"android": "https://dc.lft.to/lastmile_qr_scan", "ios": "https://dc.lft.to/lastmile_qr_scan"}, "type": "electric_scooter", "lat": 38.89221883333333, "is_reserved": 0, "fusion_lat": 0.0}, {"bike_id": "c39aae102060cc6b9e2f43dce83350cf", "fusion_lon": 0.0, "lon": -77.05290416666666, "name": "c39aae102060cc6b9e2f43dce83350cf", "is_disabled": 0, "rental_uris": {"android": "https://dc.lft.to/lastmile_qr_scan", "ios": "https://dc.lft.to/lastmile_qr_scan"}, "type": "electric_scooter", "lat": 38.92726433333333, "is_reserved": 0, "fusion_lat": 0.0}, {"bike_id": "39ff690f5a813fd66966f4d5ac805586", "fusion_lon": 0.0, "lon": -77.0326565, "name": "39ff690f5a813fd66966f4d5ac805586", "is_disabled": 0, "rental_uris": {"android": "https://dc.lft.to/lastmile_qr_scan", "ios": "https://dc.lft.to/lastmile_qr_scan"}, "type": "electric_scooter", "lat": 38.933097, "is_reserved": 0, "fusion_lat": 0.0}, {"bike_id": "971822fd520b018b4fdf98bbd001f7bd", "fusion_lon": 0.0, "lon": -77.04843933333333, "name": "971822fd520b018b4fdf98bbd001f7bd", "is_disabled": 0, "rental_uris": {"android": "https://dc.lft.to/lastmile_qr_scan", "ios": "https://dc.lft.to/lastmile_qr_scan"}, "type": "electric_scooter", "lat": 38.888385166666666, "is_reserved": 0, "fusion_lat": 0.0}, {"bike_id": "f29b9ca27050efec77009b511bbeb290", "fusion_lon": 0.0, "lon": -77.0296235, "name": "f29b9ca27050efec77009b511bbeb290", "is_disabled": 0, "rental_uris": {"android": "https://dc.lft.to/lastmile_qr_scan", "ios": "https://dc.lft.to/lastmile_qr_scan"}, "type": "electric_scooter", "lat": 38.89762183333333, "is_reserved": 0, "fusion_lat": 0.0}, {"bike_id": "1272d7a8bdcab5080a2ea5366d102058", "fusion_lon": 0.0, "lon": -77.0397605, "name": "1272d7a8bdcab5080a2ea5366d102058", "is_disabled": 0, "rental_uris": {"android": "https://dc.lft.to/lastmile_qr_scan", "ios": "https://dc.lft.to/lastmile_qr_scan"}, "type": "electric_scooter", "lat": 38.92454566666667, "is_reserved": 0, "fusion_lat": 0.0}, {"bike_id": "5e59d4bf131d606903615108d4617991", "fusion_lon": 0.0, "lon": -77.0221265, "name": "5e59d4bf131d606903615108d4617991", "is_disabled": 0, "rental_uris": {"android": "https://dc.lft.to/lastmile_qr_scan", "ios": "https://dc.lft.to/lastmile_qr_scan"}, "type": "electric_scooter", "lat": 38.89984783333333, "is_reserved": 0, "fusion_lat": 0.0}, {"bike_id": "890004c8abc14b316e7d80a70eaba1b1", "fusion_lon": 0.0, "lon": -77.03661583333333, "name": "890004c8abc14b316e7d80a70eaba1b1", "is_disabled": 0, "rental_uris": {"android": "https://dc.lft.to/lastmile_qr_scan", "ios": "https://dc.lft.to/lastmile_qr_scan"}, "type": "electric_scooter", "lat": 38.92093966666667, "is_reserved": 0, "fusion_lat": 0.0}, {"bike_id": "ef9a1dc7924838a363017863dc88ffe4", "fusion_lon": 0.0, "lon": -77.03802733333333, "name": "ef9a1dc7924838a363017863dc88ffe4", "is_disabled": 0, "rental_uris": {"android": "https://dc.lft.to/lastmile_qr_scan", "ios": "https://dc.lft.to/lastmile_qr_scan"}, "type": "electric_scooter", "lat": 38.921942333333334, "is_reserved": 0, "fusion_lat": 0.0}, {"bike_id": "3607621ffc246773fd585c1c437c8101", "fusion_lon": 0.0, "lon": -76.9352375, "name": "3607621ffc246773fd585c1c437c8101", "is_disabled": 0, "rental_uris": {"android": "https://dc.lft.to/lastmile_qr_scan", "ios": "https://dc.lft.to/lastmile_qr_scan"}, "type": "electric_scooter", "lat": 38.878985166666666, "is_reserved": 0, "fusion_lat": 0.0}, {"bike_id": "e7360042c1aabaec55cfebe1a46f1bb9", "fusion_lon": 0.0, "lon": -77.02292733333333, "name": "e7360042c1aabaec55cfebe1a46f1bb9", "is_disabled": 0, "rental_uris": {"android": "https://dc.lft.to/lastmile_qr_scan", "ios": "https://dc.lft.to/lastmile_qr_scan"}, "type": "electric_scooter", "lat": 38.91572883333333, "is_reserved": 0, "fusion_lat": 0.0}, {"bike_id": "0be571ffdab232faeec73749ef68de62", "fusion_lon": 0.0, "lon": -77.032233, "name": "0be571ffdab232faeec73749ef68de62", "is_disabled": 0, "rental_uris": {"android": "https://dc.lft.to/lastmile_qr_scan", "ios": "https://dc.lft.to/lastmile_qr_scan"}, "type": "electric_scooter", "lat": 38.916916666666665, "is_reserved": 0, "fusion_lat": 0.0}, {"bike_id": "4d1914f8b6bd1afe7a2f237aae4a9922", "fusion_lon": 0.0, "lon": -77.024064, "name": "4d1914f8b6bd1afe7a2f237aae4a9922", "is_disabled": 0, "rental_uris": {"android": "https://dc.lft.to/lastmile_qr_scan", "ios": "https://dc.lft.to/lastmile_qr_scan"}, "type": "electric_scooter", "lat": 38.91962016666667, "is_reserved": 0, "fusion_lat": 0.0}, {"bike_id": "564994d2f40ff1f4ae4a5c5d33c91df9", "fusion_lon": 0.0, "lon": -77.038551, "name": "564994d2f40ff1f4ae4a5c5d33c91df9", "is_disabled": 0, "rental_uris": {"android": "https://dc.lft.to/lastmile_qr_scan", "ios": "https://dc.lft.to/lastmile_qr_scan"}, "type": "electric_scooter", "lat": 38.86749533333333, "is_reserved": 0, "fusion_lat": 0.0}, {"bike_id": "364ba4f6dcda3f3bb984984746dc6bec", "fusion_lon": 0.0, "lon": -77.0320415, "name": "364ba4f6dcda3f3bb984984746dc6bec", "is_disabled": 0, "rental_uris": {"android": "https://dc.lft.to/lastmile_qr_scan", "ios": "https://dc.lft.to/lastmile_qr_scan"}, "type": "electric_scooter", "lat": 38.91701533333333, "is_reserved": 0, "fusion_lat": 0.0}, {"bike_id": "175e0ba78fa7fda8e679c6bb6d84412d", "fusion_lon": 0.0, "lon": -77.04000483333333, "name": "175e0ba78fa7fda8e679c6bb6d84412d", "is_disabled": 0, "rental_uris": {"android": "https://dc.lft.to/lastmile_qr_scan", "ios": "https://dc.lft.to/lastmile_qr_scan"}, "type": "electric_scooter", "lat": 38.918150833333335, "is_reserved": 0, "fusion_lat": 0.0}, {"bike_id": "a2688a3a0abdc3f7dadabaedc28453a0", "fusion_lon": 0.0, "lon": -76.988667, "name": "a2688a3a0abdc3f7dadabaedc28453a0", "is_disabled": 0, "rental_uris": {"android": "https://dc.lft.to/lastmile_qr_scan", "ios": "https://dc.lft.to/lastmile_qr_scan"}, "type": "electric_bike", "lat": 38.95481016666667, "is_reserved": 0, "fusion_lat": 0.0}, {"bike_id": "e7dbf8be0172ee8e778cd79daef7cee9", "fusion_lon": 0.0, "lon": -76.93739433333333, "name": "e7dbf8be0172ee8e778cd79daef7cee9", "is_disabled": 0, "rental_uris": {"android": "https://dc.lft.to/lastmile_qr_scan", "ios": "https://dc.lft.to/lastmile_qr_scan"}, "type": "electric_scooter", "lat": 38.89013416666667, "is_reserved": 0, "fusion_lat": 0.0}, {"bike_id": "de0e0ce220652998ef3dc6bfbf35a48b", "fusion_lon": 0.0, "lon": -76.97838216666666, "name": "de0e0ce220652998ef3dc6bfbf35a48b", "is_disabled": 0, "rental_uris": {"android": "https://dc.lft.to/lastmile_qr_scan", "ios": "https://dc.lft.to/lastmile_qr_scan"}, "type": "electric_bike", "lat": 38.87071733333333, "is_reserved": 0, "fusion_lat": 0.0}, {"bike_id": "7163c5bb4396b018c3a43679186c73f2", "fusion_lon": 0.0, "lon": -77.06175266666666, "name": "7163c5bb4396b018c3a43679186c73f2", "is_disabled": 0, "rental_uris": {"android": "https://dc.lft.to/lastmile_qr_scan", "ios": "https://dc.lft.to/lastmile_qr_scan"}, "type": "electric_scooter", "lat": 38.902671833333336, "is_reserved": 0, "fusion_lat": 0.0}, {"bike_id": "f4a877b9cad8183b9af8de0736853f13", "fusion_lon": 0.0, "lon": -77.00609766666666, "name": "f4a877b9cad8183b9af8de0736853f13", "is_disabled": 0, "rental_uris": {"android": "https://dc.lft.to/lastmile_qr_scan", "ios": "https://dc.lft.to/lastmile_qr_scan"}, "type": "electric_scooter", "lat": 38.87183433333333, "is_reserved": 0, "fusion_lat": 0.0}, {"bike_id": "c7ad25fdc90e8311f5957879a1f4dcad", "fusion_lon": 0.0, "lon": -77.0219025, "name": "c7ad25fdc90e8311f5957879a1f4dcad", "is_disabled": 0, "rental_uris": {"android": "https://dc.lft.to/lastmile_qr_scan", "ios": "https://dc.lft.to/lastmile_qr_scan"}, "type": "electric_scooter", "lat": 38.91477066666667, "is_reserved": 0, "fusion_lat": 0.0}, {"bike_id": "df9143d5bbf730084d3a5d284997d463", "fusion_lon": 0.0, "lon": -77.06906183333334, "name": "df9143d5bbf730084d3a5d284997d463", "is_disabled": 0, "rental_uris": {"android": "https://dc.lft.to/lastmile_qr_scan", "ios": "https://dc.lft.to/lastmile_qr_scan"}, "type": "electric_scooter", "lat": 38.910104, "is_reserved": 0, "fusion_lat": 0.0}, {"bike_id": "51128a3c4019d961d4bb1bfc6ee15ab1", "fusion_lon": 0.0, "lon": -76.94793933333334, "name": "51128a3c4019d961d4bb1bfc6ee15ab1", "is_disabled": 0, "rental_uris": {"android": "https://dc.lft.to/lastmile_qr_scan", "ios": "https://dc.lft.to/lastmile_qr_scan"}, "type": "electric_bike", "lat": 38.894053, "is_reserved": 0, "fusion_lat": 0.0}, {"bike_id": "06195a56f818ac67bdee4176e642d30f", "fusion_lon": 0.0, "lon": -77.04392133333333, "name": "06195a56f818ac67bdee4176e642d30f", "is_disabled": 0, "rental_uris": {"android": "https://dc.lft.to/lastmile_qr_scan", "ios": "https://dc.lft.to/lastmile_qr_scan"}, "type": "electric_scooter", "lat": 38.9107125, "is_reserved": 0, "fusion_lat": 0.0}, {"bike_id": "8dcf060c63fe0aef3be9c50f61b444e7", "fusion_lon": 0.0, "lon": -77.04342033333333, "name": "8dcf060c63fe0aef3be9c50f61b444e7", "is_disabled": 0, "rental_uris": {"android": "https://dc.lft.to/lastmile_qr_scan", "ios": "https://dc.lft.to/lastmile_qr_scan"}, "type": "electric_scooter", "lat": 38.89727833333333, "is_reserved": 0, "fusion_lat": 0.0}, {"bike_id": "ad2ea6f95820b708f325898132cc5131", "fusion_lon": 0.0, "lon": -77.04455583333333, "name": "ad2ea6f95820b708f325898132cc5131", "is_disabled": 0, "rental_uris": {"android": "https://dc.lft.to/lastmile_qr_scan", "ios": "https://dc.lft.to/lastmile_qr_scan"}, "type": "electric_scooter", "lat": 38.9125515, "is_reserved": 0, "fusion_lat": 0.0}, {"bike_id": "fe4fe8c0600d4d33b1694dca768b1fd0", "fusion_lon": 0.0, "lon": -77.04497383333333, "name": "fe4fe8c0600d4d33b1694dca768b1fd0", "is_disabled": 0, "rental_uris": {"android": "https://dc.lft.to/lastmile_qr_scan", "ios": "https://dc.lft.to/lastmile_qr_scan"}, "type": "electric_scooter", "lat": 38.9122935, "is_reserved": 0, "fusion_lat": 0.0}, {"bike_id": "2b5ce34ec859276973baa993e8221439", "fusion_lon": 0.0, "lon": -77.00612983333333, "name": "2b5ce34ec859276973baa993e8221439", "is_disabled": 0, "rental_uris": {"android": "https://dc.lft.to/lastmile_qr_scan", "ios": "https://dc.lft.to/lastmile_qr_scan"}, "type": "electric_scooter", "lat": 38.8756595, "is_reserved": 0, "fusion_lat": 0.0}, {"bike_id": "0ef0f1ec25f9aa1d273bd08dde99d416", "fusion_lon": 0.0, "lon": -77.02024683333333, "name": "0ef0f1ec25f9aa1d273bd08dde99d416", "is_disabled": 0, "rental_uris": {"android": "https://dc.lft.to/lastmile_qr_scan", "ios": "https://dc.lft.to/lastmile_qr_scan"}, "type": "electric_scooter", "lat": 38.88745566666667, "is_reserved": 0, "fusion_lat": 0.0}, {"bike_id": "256b94af3cd19b3f679b977abce626dd", "fusion_lon": 0.0, "lon": -76.98058366666666, "name": "256b94af3cd19b3f679b977abce626dd", "is_disabled": 0, "rental_uris": {"android": "https://dc.lft.to/lastmile_qr_scan", "ios": "https://dc.lft.to/lastmile_qr_scan"}, "type": "electric_scooter", "lat": 38.884953, "is_reserved": 0, "fusion_lat": 0.0}, {"bike_id": "6fc59a5e56b64ec7dcc41faa320c7bc5", "fusion_lon": 0.0, "lon": -77.07260383333333, "name": "6fc59a5e56b64ec7dcc41faa320c7bc5", "is_disabled": 0, "rental_uris": {"android": "https://dc.lft.to/lastmile_qr_scan", "ios": "https://dc.lft.to/lastmile_qr_scan"}, "type": "electric_scooter", "lat": 38.9334555, "is_reserved": 0, "fusion_lat": 0.0}, {"bike_id": "658a3ad6ccac4889d9f2a5801f436e1a", "fusion_lon": 0.0, "lon": -77.01789033333333, "name": "658a3ad6ccac4889d9f2a5801f436e1a", "is_disabled": 0, "rental_uris": {"android": "https://dc.lft.to/lastmile_qr_scan", "ios": "https://dc.lft.to/lastmile_qr_scan"}, "type": "electric_scooter", "lat": 38.911122166666665, "is_reserved": 0, "fusion_lat": 0.0}, {"bike_id": "3df676d741f9320fe11ffa3af018d03c", "fusion_lon": 0.0, "lon": -77.02304, "name": "3df676d741f9320fe11ffa3af018d03c", "is_disabled": 0, "rental_uris": {"android": "https://dc.lft.to/lastmile_qr_scan", "ios": "https://dc.lft.to/lastmile_qr_scan"}, "type": "electric_scooter", "lat": 38.91610383333333, "is_reserved": 0, "fusion_lat": 0.0}, {"bike_id": "6f739879a8757898168d4a855a69ccde", "fusion_lon": 0.0, "lon": -77.01534933333333, "name": "6f739879a8757898168d4a855a69ccde", "is_disabled": 0, "rental_uris": {"android": "https://dc.lft.to/lastmile_qr_scan", "ios": "https://dc.lft.to/lastmile_qr_scan"}, "type": "electric_scooter", "lat": 38.88740133333334, "is_reserved": 0, "fusion_lat": 0.0}, {"bike_id": "11cac9c95b3286e584cc89a267fc5685", "fusion_lon": 0.0, "lon": -77.0296265, "name": "11cac9c95b3286e584cc89a267fc5685", "is_disabled": 0, "rental_uris": {"android": "https://dc.lft.to/lastmile_qr_scan", "ios": "https://dc.lft.to/lastmile_qr_scan"}, "type": "electric_scooter", "lat": 38.92691833333333, "is_reserved": 0, "fusion_lat": 0.0}, {"bike_id": "65f0dc4ac833a88256e24143c911c1d2", "fusion_lon": 0.0, "lon": -77.029616, "name": "65f0dc4ac833a88256e24143c911c1d2", "is_disabled": 0, "rental_uris": {"android": "https://dc.lft.to/lastmile_qr_scan", "ios": "https://dc.lft.to/lastmile_qr_scan"}, "type": "electric_bike", "lat": 38.95054283333333, "is_reserved": 0, "fusion_lat": 0.0}, {"bike_id": "fb8e031d0a052c57d36823ffe7e3fe8f", "fusion_lon": 0.0, "lon": -77.0466375, "name": "fb8e031d0a052c57d36823ffe7e3fe8f", "is_disabled": 0, "rental_uris": {"android": "https://dc.lft.to/lastmile_qr_scan", "ios": "https://dc.lft.to/lastmile_qr_scan"}, "type": "electric_scooter", "lat": 38.908467, "is_reserved": 0, "fusion_lat": 0.0}, {"bike_id": "e2cd73594ee22ed949a637e43a756526", "fusion_lon": 0.0, "lon": -76.971862, "name": "e2cd73594ee22ed949a637e43a756526", "is_disabled": 0, "rental_uris": {"android": "https://dc.lft.to/lastmile_qr_scan", "ios": "https://dc.lft.to/lastmile_qr_scan"}, "type": "electric_bike", "lat": 38.93318716666667, "is_reserved": 0, "fusion_lat": 0.0}, {"bike_id": "36a4edb73315df2de84912a141ad2e01", "fusion_lon": 0.0, "lon": -77.0257855, "name": "36a4edb73315df2de84912a141ad2e01", "is_disabled": 0, "rental_uris": {"android": "https://dc.lft.to/lastmile_qr_scan", "ios": "https://dc.lft.to/lastmile_qr_scan"}, "type": "electric_scooter", "lat": 38.920498, "is_reserved": 0, "fusion_lat": 0.0}, {"bike_id": "6901908a2f3ca59fb982e2daa24205f3", "fusion_lon": 0.0, "lon": -77.03198966666666, "name": "6901908a2f3ca59fb982e2daa24205f3", "is_disabled": 0, "rental_uris": {"android": "https://dc.lft.to/lastmile_qr_scan", "ios": "https://dc.lft.to/lastmile_qr_scan"}, "type": "electric_scooter", "lat": 38.917351, "is_reserved": 0, "fusion_lat": 0.0}, {"bike_id": "94cf738d78d74a9bb134b08c5856089e", "fusion_lon": 0.0, "lon": -77.044959, "name": "94cf738d78d74a9bb134b08c5856089e", "is_disabled": 0, "rental_uris": {"android": "https://dc.lft.to/lastmile_qr_scan", "ios": "https://dc.lft.to/lastmile_qr_scan"}, "type": "electric_scooter", "lat": 38.914122166666665, "is_reserved": 0, "fusion_lat": 0.0}, {"bike_id": "010d57cc3f5c4ed372a9b039fae16464", "fusion_lon": 0.0, "lon": -77.03589383333333, "name": "010d57cc3f5c4ed372a9b039fae16464", "is_disabled": 0, "rental_uris": {"android": "https://dc.lft.to/lastmile_qr_scan", "ios": "https://dc.lft.to/lastmile_qr_scan"}, "type": "electric_scooter", "lat": 38.93676383333333, "is_reserved": 0, "fusion_lat": 0.0}, {"bike_id": "5424a1f44d40ce9080fbbb91a6ce624a", "fusion_lon": 0.0, "lon": -77.06856966666666, "name": "5424a1f44d40ce9080fbbb91a6ce624a", "is_disabled": 0, "rental_uris": {"android": "https://dc.lft.to/lastmile_qr_scan", "ios": "https://dc.lft.to/lastmile_qr_scan"}, "type": "electric_bike", "lat": 38.93703433333334, "is_reserved": 0, "fusion_lat": 0.0}, {"bike_id": "85294239f48e7ace74eaf4cfac337214", "fusion_lon": 0.0, "lon": -77.031835, "name": "85294239f48e7ace74eaf4cfac337214", "is_disabled": 0, "rental_uris": {"android": "https://dc.lft.to/lastmile_qr_scan", "ios": "https://dc.lft.to/lastmile_qr_scan"}, "type": "electric_scooter", "lat": 38.91222966666667, "is_reserved": 0, "fusion_lat": 0.0}, {"bike_id": "dac8b0ef965ea2b6bf72cba937ec8b1d", "fusion_lon": 0.0, "lon": -77.045892, "name": "dac8b0ef965ea2b6bf72cba937ec8b1d", "is_disabled": 0, "rental_uris": {"android": "https://dc.lft.to/lastmile_qr_scan", "ios": "https://dc.lft.to/lastmile_qr_scan"}, "type": "electric_scooter", "lat": 38.9085955, "is_reserved": 0, "fusion_lat": 0.0}, {"bike_id": "3e5d93f565caf5d9daa5e2f2a5a47385", "fusion_lon": 0.0, "lon": -76.97595133333333, "name": "3e5d93f565caf5d9daa5e2f2a5a47385", "is_disabled": 0, "rental_uris": {"android": "https://dc.lft.to/lastmile_qr_scan", "ios": "https://dc.lft.to/lastmile_qr_scan"}, "type": "electric_scooter", "lat": 38.90332166666666, "is_reserved": 0, "fusion_lat": 0.0}, {"bike_id": "3906b7ba4878b8e82d9c49950a93d283", "fusion_lon": 0.0, "lon": -77.01310416666666, "name": "3906b7ba4878b8e82d9c49950a93d283", "is_disabled": 0, "rental_uris": {"android": "https://dc.lft.to/lastmile_qr_scan", "ios": "https://dc.lft.to/lastmile_qr_scan"}, "type": "electric_scooter", "lat": 38.91405233333333, "is_reserved": 0, "fusion_lat": 0.0}, {"bike_id": "481953231b22c6e51455d38de26af38a", "fusion_lon": 0.0, "lon": -77.050635, "name": "481953231b22c6e51455d38de26af38a", "is_disabled": 0, "rental_uris": {"android": "https://dc.lft.to/lastmile_qr_scan", "ios": "https://dc.lft.to/lastmile_qr_scan"}, "type": "electric_scooter", "lat": 38.9234235, "is_reserved": 0, "fusion_lat": 0.0}, {"bike_id": "24cfe75f200de30a264cd83f8063975e", "fusion_lon": 0.0, "lon": -77.078243, "name": "24cfe75f200de30a264cd83f8063975e", "is_disabled": 0, "rental_uris": {"android": "https://dc.lft.to/lastmile_qr_scan", "ios": "https://dc.lft.to/lastmile_qr_scan"}, "type": "electric_scooter", "lat": 38.9127365, "is_reserved": 0, "fusion_lat": 0.0}, {"bike_id": "e48a1bd4b00b18d6c4feacdcf1fe1475", "fusion_lon": 0.0, "lon": -77.00345383333334, "name": "e48a1bd4b00b18d6c4feacdcf1fe1475", "is_disabled": 0, "rental_uris": {"android": "https://dc.lft.to/lastmile_qr_scan", "ios": "https://dc.lft.to/lastmile_qr_scan"}, "type": "electric_scooter", "lat": 38.88994566666667, "is_reserved": 0, "fusion_lat": 0.0}, {"bike_id": "f1a8f2f1562f3ce3293076fb8597fc7d", "fusion_lon": 0.0, "lon": -77.03358616666667, "name": "f1a8f2f1562f3ce3293076fb8597fc7d", "is_disabled": 0, "rental_uris": {"android": "https://dc.lft.to/lastmile_qr_scan", "ios": "https://dc.lft.to/lastmile_qr_scan"}, "type": "electric_scooter", "lat": 38.93146333333333, "is_reserved": 0, "fusion_lat": 0.0}, {"bike_id": "404c5fc052801dff9093896f2df175d8", "fusion_lon": 0.0, "lon": -76.9716665, "name": "404c5fc052801dff9093896f2df175d8", "is_disabled": 0, "rental_uris": {"android": "https://dc.lft.to/lastmile_qr_scan", "ios": "https://dc.lft.to/lastmile_qr_scan"}, "type": "electric_bike", "lat": 38.873732, "is_reserved": 0, "fusion_lat": 0.0}, {"bike_id": "9c0f86ebe87671f4b6cfdfbbe33e4d59", "fusion_lon": 0.0, "lon": -77.0269285, "name": "9c0f86ebe87671f4b6cfdfbbe33e4d59", "is_disabled": 0, "rental_uris": {"android": "https://dc.lft.to/lastmile_qr_scan", "ios": "https://dc.lft.to/lastmile_qr_scan"}, "type": "electric_scooter", "lat": 38.911359, "is_reserved": 0, "fusion_lat": 0.0}, {"bike_id": "a21a18bb5423df40f33b100b9d81f813", "fusion_lon": 0.0, "lon": -77.05049833333334, "name": "a21a18bb5423df40f33b100b9d81f813", "is_disabled": 0, "rental_uris": {"android": "https://dc.lft.to/lastmile_qr_scan", "ios": "https://dc.lft.to/lastmile_qr_scan"}, "type": "electric_scooter", "lat": 38.92342, "is_reserved": 0, "fusion_lat": 0.0}, {"bike_id": "231c53eef406d0ae31901d9f34dedccb", "fusion_lon": 0.0, "lon": -77.01586866666666, "name": "231c53eef406d0ae31901d9f34dedccb", "is_disabled": 0, "rental_uris": {"android": "https://dc.lft.to/lastmile_qr_scan", "ios": "https://dc.lft.to/lastmile_qr_scan"}, "type": "electric_scooter", "lat": 38.88495, "is_reserved": 0, "fusion_lat": 0.0}, {"bike_id": "d21c9f2c16f65d44cafae6ec40b3fb31", "fusion_lon": 0.0, "lon": -77.03434833333333, "name": "d21c9f2c16f65d44cafae6ec40b3fb31", "is_disabled": 0, "rental_uris": {"android": "https://dc.lft.to/lastmile_qr_scan", "ios": "https://dc.lft.to/lastmile_qr_scan"}, "type": "electric_scooter", "lat": 38.918048166666665, "is_reserved": 0, "fusion_lat": 0.0}, {"bike_id": "31a80a656f67a7ede339362bc214737d", "fusion_lon": 0.0, "lon": -77.02294116666667, "name": "31a80a656f67a7ede339362bc214737d", "is_disabled": 0, "rental_uris": {"android": "https://dc.lft.to/lastmile_qr_scan", "ios": "https://dc.lft.to/lastmile_qr_scan"}, "type": "electric_scooter", "lat": 38.916039833333336, "is_reserved": 0, "fusion_lat": 0.0}, {"bike_id": "9820615731b85650680bad3cb4db9e59", "fusion_lon": 0.0, "lon": -77.02203183333333, "name": "9820615731b85650680bad3cb4db9e59", "is_disabled": 0, "rental_uris": {"android": "https://dc.lft.to/lastmile_qr_scan", "ios": "https://dc.lft.to/lastmile_qr_scan"}, "type": "electric_scooter", "lat": 38.895681333333336, "is_reserved": 0, "fusion_lat": 0.0}, {"bike_id": "bf9b2229ddc9aedc6b5466f3c5b7f931", "fusion_lon": 0.0, "lon": -77.035717, "name": "bf9b2229ddc9aedc6b5466f3c5b7f931", "is_disabled": 0, "rental_uris": {"android": "https://dc.lft.to/lastmile_qr_scan", "ios": "https://dc.lft.to/lastmile_qr_scan"}, "type": "electric_scooter", "lat": 38.923330666666665, "is_reserved": 0, "fusion_lat": 0.0}, {"bike_id": "58abd6426cedc779147349bc99eaaaf5", "fusion_lon": 0.0, "lon": -77.02977883333334, "name": "58abd6426cedc779147349bc99eaaaf5", "is_disabled": 0, "rental_uris": {"android": "https://dc.lft.to/lastmile_qr_scan", "ios": "https://dc.lft.to/lastmile_qr_scan"}, "type": "electric_scooter", "lat": 38.95194566666667, "is_reserved": 0, "fusion_lat": 0.0}, {"bike_id": "341dfd300de096f9296535f75ee3e7c0", "fusion_lon": 0.0, "lon": -76.9869535, "name": "341dfd300de096f9296535f75ee3e7c0", "is_disabled": 0, "rental_uris": {"android": "https://dc.lft.to/lastmile_qr_scan", "ios": "https://dc.lft.to/lastmile_qr_scan"}, "type": "electric_scooter", "lat": 38.867225833333336, "is_reserved": 0, "fusion_lat": 0.0}, {"bike_id": "594dee2ca6580a9d7b86ed07c0af2a5d", "fusion_lon": 0.0, "lon": -76.97738433333333, "name": "594dee2ca6580a9d7b86ed07c0af2a5d", "is_disabled": 0, "rental_uris": {"android": "https://dc.lft.to/lastmile_qr_scan", "ios": "https://dc.lft.to/lastmile_qr_scan"}, "type": "electric_scooter", "lat": 38.86831333333333, "is_reserved": 0, "fusion_lat": 0.0}, {"bike_id": "81ca09ab7d0520a41dfc31cbe4f69607", "fusion_lon": 0.0, "lon": -77.04663233333333, "name": "81ca09ab7d0520a41dfc31cbe4f69607", "is_disabled": 0, "rental_uris": {"android": "https://dc.lft.to/lastmile_qr_scan", "ios": "https://dc.lft.to/lastmile_qr_scan"}, "type": "electric_scooter", "lat": 38.892402, "is_reserved": 0, "fusion_lat": 0.0}, {"bike_id": "a09d5a4bd2c8787ddc5239e84329f548", "fusion_lon": 0.0, "lon": -77.04001633333333, "name": "a09d5a4bd2c8787ddc5239e84329f548", "is_disabled": 0, "rental_uris": {"android": "https://dc.lft.to/lastmile_qr_scan", "ios": "https://dc.lft.to/lastmile_qr_scan"}, "type": "electric_scooter", "lat": 38.91415683333334, "is_reserved": 0, "fusion_lat": 0.0}, {"bike_id": "6ad4ece71db548efa377ee3c3dd31f55", "fusion_lon": 0.0, "lon": -76.93135483333333, "name": "6ad4ece71db548efa377ee3c3dd31f55", "is_disabled": 0, "rental_uris": {"android": "https://dc.lft.to/lastmile_qr_scan", "ios": "https://dc.lft.to/lastmile_qr_scan"}, "type": "electric_scooter", "lat": 38.8933975, "is_reserved": 0, "fusion_lat": 0.0}, {"bike_id": "d78da3c9dcb148325320af2df6472ec6", "fusion_lon": 0.0, "lon": -77.04317566666667, "name": "d78da3c9dcb148325320af2df6472ec6", "is_disabled": 0, "rental_uris": {"android": "https://dc.lft.to/lastmile_qr_scan", "ios": "https://dc.lft.to/lastmile_qr_scan"}, "type": "electric_scooter", "lat": 38.9231875, "is_reserved": 0, "fusion_lat": 0.0}, {"bike_id": "dac018136e7739554e16fdea6fb5c8ff", "fusion_lon": 0.0, "lon": -77.027673, "name": "dac018136e7739554e16fdea6fb5c8ff", "is_disabled": 0, "rental_uris": {"android": "https://dc.lft.to/lastmile_qr_scan", "ios": "https://dc.lft.to/lastmile_qr_scan"}, "type": "electric_scooter", "lat": 38.954251166666666, "is_reserved": 0, "fusion_lat": 0.0}, {"bike_id": "89ed9b99eaf948eb0511d58e46108036", "fusion_lon": 0.0, "lon": -77.01536183333333, "name": "89ed9b99eaf948eb0511d58e46108036", "is_disabled": 0, "rental_uris": {"android": "https://dc.lft.to/lastmile_qr_scan", "ios": "https://dc.lft.to/lastmile_qr_scan"}, "type": "electric_scooter", "lat": 38.887440833333336, "is_reserved": 0, "fusion_lat": 0.0}, {"bike_id": "d0fa774bcc0907b88b69866084dceba9", "fusion_lon": 0.0, "lon": -77.02817666666667, "name": "d0fa774bcc0907b88b69866084dceba9", "is_disabled": 0, "rental_uris": {"android": "https://dc.lft.to/lastmile_qr_scan", "ios": "https://dc.lft.to/lastmile_qr_scan"}, "type": "electric_scooter", "lat": 38.931721833333334, "is_reserved": 0, "fusion_lat": 0.0}, {"bike_id": "b3fae151c8b2f2cc2e0e6f75b24bbcd4", "fusion_lon": 0.0, "lon": -77.04396416666667, "name": "b3fae151c8b2f2cc2e0e6f75b24bbcd4", "is_disabled": 0, "rental_uris": {"android": "https://dc.lft.to/lastmile_qr_scan", "ios": "https://dc.lft.to/lastmile_qr_scan"}, "type": "electric_scooter", "lat": 38.914108666666664, "is_reserved": 0, "fusion_lat": 0.0}, {"bike_id": "3e4bb86edaf48b3f0a98421a2dcd6d69", "fusion_lon": 0.0, "lon": -77.02627266666667, "name": "3e4bb86edaf48b3f0a98421a2dcd6d69", "is_disabled": 0, "rental_uris": {"android": "https://dc.lft.to/lastmile_qr_scan", "ios": "https://dc.lft.to/lastmile_qr_scan"}, "type": "electric_bike", "lat": 38.962267833333335, "is_reserved": 0, "fusion_lat": 0.0}, {"bike_id": "f7f49576b812dba362f552565d76fe0e", "fusion_lon": 0.0, "lon": -77.04784533333333, "name": "f7f49576b812dba362f552565d76fe0e", "is_disabled": 0, "rental_uris": {"android": "https://dc.lft.to/lastmile_qr_scan", "ios": "https://dc.lft.to/lastmile_qr_scan"}, "type": "electric_scooter", "lat": 38.89369666666666, "is_reserved": 0, "fusion_lat": 0.0}, {"bike_id": "ebf58cd39b4f02ffeeeb740960ef1b82", "fusion_lon": 0.0, "lon": -77.0217295, "name": "ebf58cd39b4f02ffeeeb740960ef1b82", "is_disabled": 0, "rental_uris": {"android": "https://dc.lft.to/lastmile_qr_scan", "ios": "https://dc.lft.to/lastmile_qr_scan"}, "type": "electric_scooter", "lat": 38.942929166666666, "is_reserved": 0, "fusion_lat": 0.0}, {"bike_id": "63960860f22d042b259c15c2099e1c4a", "fusion_lon": 0.0, "lon": -77.04038116666666, "name": "63960860f22d042b259c15c2099e1c4a", "is_disabled": 0, "rental_uris": {"android": "https://dc.lft.to/lastmile_qr_scan", "ios": "https://dc.lft.to/lastmile_qr_scan"}, "type": "electric_scooter", "lat": 38.918614166666664, "is_reserved": 0, "fusion_lat": 0.0}, {"bike_id": "6bf5717b25e224b2e0a2b82ac4389511", "fusion_lon": 0.0, "lon": -77.00578566666667, "name": "6bf5717b25e224b2e0a2b82ac4389511", "is_disabled": 0, "rental_uris": {"android": "https://dc.lft.to/lastmile_qr_scan", "ios": "https://dc.lft.to/lastmile_qr_scan"}, "type": "electric_scooter", "lat": 38.90885883333333, "is_reserved": 0, "fusion_lat": 0.0}, {"bike_id": "199dd90168182875405f287739d9b77c", "fusion_lon": 0.0, "lon": -77.04289033333333, "name": "199dd90168182875405f287739d9b77c", "is_disabled": 0, "rental_uris": {"android": "https://dc.lft.to/lastmile_qr_scan", "ios": "https://dc.lft.to/lastmile_qr_scan"}, "type": "electric_scooter", "lat": 38.9206515, "is_reserved": 0, "fusion_lat": 0.0}, {"bike_id": "4afe4921744b91d0ac36bbd4fb3276ed", "fusion_lon": 0.0, "lon": -77.02005216666667, "name": "4afe4921744b91d0ac36bbd4fb3276ed", "is_disabled": 0, "rental_uris": {"android": "https://dc.lft.to/lastmile_qr_scan", "ios": "https://dc.lft.to/lastmile_qr_scan"}, "type": "electric_scooter", "lat": 38.924194, "is_reserved": 0, "fusion_lat": 0.0}, {"bike_id": "e0d271d378a1449c2f0f1af100f63460", "fusion_lon": 0.0, "lon": -76.98578733333333, "name": "e0d271d378a1449c2f0f1af100f63460", "is_disabled": 0, "rental_uris": {"android": "https://dc.lft.to/lastmile_qr_scan", "ios": "https://dc.lft.to/lastmile_qr_scan"}, "type": "electric_scooter", "lat": 38.8544755, "is_reserved": 0, "fusion_lat": 0.0}, {"bike_id": "5869ed6d72e833b827ff3b1e529a4158", "fusion_lon": 0.0, "lon": -76.96526716666666, "name": "5869ed6d72e833b827ff3b1e529a4158", "is_disabled": 0, "rental_uris": {"android": "https://dc.lft.to/lastmile_qr_scan", "ios": "https://dc.lft.to/lastmile_qr_scan"}, "type": "electric_scooter", "lat": 38.87628733333333, "is_reserved": 0, "fusion_lat": 0.0}, {"bike_id": "f74d761ad8cceaf67c299b65a82b5cd3", "fusion_lon": 0.0, "lon": -76.94637333333333, "name": "f74d761ad8cceaf67c299b65a82b5cd3", "is_disabled": 0, "rental_uris": {"android": "https://dc.lft.to/lastmile_qr_scan", "ios": "https://dc.lft.to/lastmile_qr_scan"}, "type": "electric_scooter", "lat": 38.898449166666666, "is_reserved": 0, "fusion_lat": 0.0}, {"bike_id": "a599c871d81c9cea91e859326f19c949", "fusion_lon": 0.0, "lon": -77.045553, "name": "a599c871d81c9cea91e859326f19c949", "is_disabled": 0, "rental_uris": {"android": "https://dc.lft.to/lastmile_qr_scan", "ios": "https://dc.lft.to/lastmile_qr_scan"}, "type": "electric_scooter", "lat": 38.91929183333333, "is_reserved": 0, "fusion_lat": 0.0}, {"bike_id": "47ed41e5031da32abd710e467fb92c0a", "fusion_lon": 0.0, "lon": -76.98492716666667, "name": "47ed41e5031da32abd710e467fb92c0a", "is_disabled": 0, "rental_uris": {"android": "https://dc.lft.to/lastmile_qr_scan", "ios": "https://dc.lft.to/lastmile_qr_scan"}, "type": "electric_scooter", "lat": 38.86672683333333, "is_reserved": 0, "fusion_lat": 0.0}, {"bike_id": "bd3bf966466549adb485b6a6bbb693c1", "fusion_lon": 0.0, "lon": -76.9464935, "name": "bd3bf966466549adb485b6a6bbb693c1", "is_disabled": 0, "rental_uris": {"android": "https://dc.lft.to/lastmile_qr_scan", "ios": "https://dc.lft.to/lastmile_qr_scan"}, "type": "electric_scooter", "lat": 38.8982575, "is_reserved": 0, "fusion_lat": 0.0}, {"bike_id": "82de03206f5ecf93f8ad6814cac7e5ef", "fusion_lon": 0.0, "lon": -77.02990783333334, "name": "82de03206f5ecf93f8ad6814cac7e5ef", "is_disabled": 0, "rental_uris": {"android": "https://dc.lft.to/lastmile_qr_scan", "ios": "https://dc.lft.to/lastmile_qr_scan"}, "type": "electric_scooter", "lat": 38.938664333333335, "is_reserved": 0, "fusion_lat": 0.0}, {"bike_id": "c081693faac9071a39c839bc1cf65397", "fusion_lon": 0.0, "lon": -77.01533866666666, "name": "c081693faac9071a39c839bc1cf65397", "is_disabled": 0, "rental_uris": {"android": "https://dc.lft.to/lastmile_qr_scan", "ios": "https://dc.lft.to/lastmile_qr_scan"}, "type": "electric_scooter", "lat": 38.88738566666667, "is_reserved": 0, "fusion_lat": 0.0}, {"bike_id": "f018b56c45f1a9fb5ff795c75250f318", "fusion_lon": 0.0, "lon": -77.0318035, "name": "f018b56c45f1a9fb5ff795c75250f318", "is_disabled": 0, "rental_uris": {"android": "https://dc.lft.to/lastmile_qr_scan", "ios": "https://dc.lft.to/lastmile_qr_scan"}, "type": "electric_scooter", "lat": 38.9170155, "is_reserved": 0, "fusion_lat": 0.0}, {"bike_id": "12d01390aa4174298bf92b2c7b4df0f9", "fusion_lon": 0.0, "lon": -77.03866733333334, "name": "12d01390aa4174298bf92b2c7b4df0f9", "is_disabled": 0, "rental_uris": {"android": "https://dc.lft.to/lastmile_qr_scan", "ios": "https://dc.lft.to/lastmile_qr_scan"}, "type": "electric_scooter", "lat": 38.9215135, "is_reserved": 0, "fusion_lat": 0.0}, {"bike_id": "93747595c407fc25043b83e925a15fce", "fusion_lon": 0.0, "lon": -77.1252795, "name": "93747595c407fc25043b83e925a15fce", "is_disabled": 0, "rental_uris": {"android": "https://dc.lft.to/lastmile_qr_scan", "ios": "https://dc.lft.to/lastmile_qr_scan"}, "type": "electric_bike", "lat": 39.0563255, "is_reserved": 0, "fusion_lat": 0.0}, {"bike_id": "e0d58715eae8c56202d645349ddadd5b", "fusion_lon": 0.0, "lon": -77.04372233333333, "name": "e0d58715eae8c56202d645349ddadd5b", "is_disabled": 0, "rental_uris": {"android": "https://dc.lft.to/lastmile_qr_scan", "ios": "https://dc.lft.to/lastmile_qr_scan"}, "type": "electric_scooter", "lat": 38.90297966666667, "is_reserved": 0, "fusion_lat": 0.0}, {"bike_id": "10562305cf5df41c584820d846e63c3d", "fusion_lon": 0.0, "lon": -77.02792866666667, "name": "10562305cf5df41c584820d846e63c3d", "is_disabled": 0, "rental_uris": {"android": "https://dc.lft.to/lastmile_qr_scan", "ios": "https://dc.lft.to/lastmile_qr_scan"}, "type": "electric_scooter", "lat": 38.963427833333334, "is_reserved": 0, "fusion_lat": 0.0}, {"bike_id": "a090c2dbf56cf593507182adee1368fb", "fusion_lon": 0.0, "lon": -76.995097, "name": "a090c2dbf56cf593507182adee1368fb", "is_disabled": 0, "rental_uris": {"android": "https://dc.lft.to/lastmile_qr_scan", "ios": "https://dc.lft.to/lastmile_qr_scan"}, "type": "electric_scooter", "lat": 38.89910183333333, "is_reserved": 0, "fusion_lat": 0.0}, {"bike_id": "abe2aeb703c40db0e4aa4b34ade336df", "fusion_lon": 0.0, "lon": -77.0232775, "name": "abe2aeb703c40db0e4aa4b34ade336df", "is_disabled": 0, "rental_uris": {"android": "https://dc.lft.to/lastmile_qr_scan", "ios": "https://dc.lft.to/lastmile_qr_scan"}, "type": "electric_scooter", "lat": 38.895959, "is_reserved": 0, "fusion_lat": 0.0}, {"bike_id": "38799c7c7c33f0a3a6b379b4661f6299", "fusion_lon": 0.0, "lon": -77.02089433333333, "name": "38799c7c7c33f0a3a6b379b4661f6299", "is_disabled": 0, "rental_uris": {"android": "https://dc.lft.to/lastmile_qr_scan", "ios": "https://dc.lft.to/lastmile_qr_scan"}, "type": "electric_scooter", "lat": 38.927068166666665, "is_reserved": 0, "fusion_lat": 0.0}, {"bike_id": "a638e1c147a1139fc8852abf07314d5b", "fusion_lon": 0.0, "lon": -76.99730266666667, "name": "a638e1c147a1139fc8852abf07314d5b", "is_disabled": 0, "rental_uris": {"android": "https://dc.lft.to/lastmile_qr_scan", "ios": "https://dc.lft.to/lastmile_qr_scan"}, "type": "electric_scooter", "lat": 38.9079295, "is_reserved": 0, "fusion_lat": 0.0}, {"bike_id": "c804aea749bb1e777055479635058442", "fusion_lon": 0.0, "lon": -76.93541016666667, "name": "c804aea749bb1e777055479635058442", "is_disabled": 0, "rental_uris": {"android": "https://dc.lft.to/lastmile_qr_scan", "ios": "https://dc.lft.to/lastmile_qr_scan"}, "type": "electric_bike", "lat": 38.955580833333336, "is_reserved": 0, "fusion_lat": 0.0}, {"bike_id": "8f5ef10a26a7d677e974e26075dbd69f", "fusion_lon": 0.0, "lon": -77.04482666666667, "name": "8f5ef10a26a7d677e974e26075dbd69f", "is_disabled": 0, "rental_uris": {"android": "https://dc.lft.to/lastmile_qr_scan", "ios": "https://dc.lft.to/lastmile_qr_scan"}, "type": "electric_scooter", "lat": 38.9224285, "is_reserved": 0, "fusion_lat": 0.0}, {"bike_id": "394cdd51fd51074afd32a6dab40b0a26", "fusion_lon": 0.0, "lon": -76.98511066666667, "name": "394cdd51fd51074afd32a6dab40b0a26", "is_disabled": 0, "rental_uris": {"android": "https://dc.lft.to/lastmile_qr_scan", "ios": "https://dc.lft.to/lastmile_qr_scan"}, "type": "electric_scooter", "lat": 38.86664183333333, "is_reserved": 0, "fusion_lat": 0.0}, {"bike_id": "12d00d2cba784fd0aa5adef17d6aa678", "fusion_lon": 0.0, "lon": -77.0339655, "name": "12d00d2cba784fd0aa5adef17d6aa678", "is_disabled": 0, "rental_uris": {"android": "https://dc.lft.to/lastmile_qr_scan", "ios": "https://dc.lft.to/lastmile_qr_scan"}, "type": "electric_bike", "lat": 38.96030983333333, "is_reserved": 0, "fusion_lat": 0.0}, {"bike_id": "d30069f2b884ed51f344f579fe68df0d", "fusion_lon": 0.0, "lon": -77.0227855, "name": "d30069f2b884ed51f344f579fe68df0d", "is_disabled": 0, "rental_uris": {"android": "https://dc.lft.to/lastmile_qr_scan", "ios": "https://dc.lft.to/lastmile_qr_scan"}, "type": "electric_bike", "lat": 38.94473083333333, "is_reserved": 0, "fusion_lat": 0.0}, {"bike_id": "8074229911317877385fffea1a39b6b7", "fusion_lon": 0.0, "lon": -77.015801, "name": "8074229911317877385fffea1a39b6b7", "is_disabled": 0, "rental_uris": {"android": "https://dc.lft.to/lastmile_qr_scan", "ios": "https://dc.lft.to/lastmile_qr_scan"}, "type": "electric_scooter", "lat": 38.891831333333336, "is_reserved": 0, "fusion_lat": 0.0}, {"bike_id": "2e0f9e8a828abf666f638ac9a4bba956", "fusion_lon": 0.0, "lon": -77.04171783333334, "name": "2e0f9e8a828abf666f638ac9a4bba956", "is_disabled": 0, "rental_uris": {"android": "https://dc.lft.to/lastmile_qr_scan", "ios": "https://dc.lft.to/lastmile_qr_scan"}, "type": "electric_scooter", "lat": 38.918213, "is_reserved": 0, "fusion_lat": 0.0}, {"bike_id": "abab63f1f0af9553543f37cc8dc20c93", "fusion_lon": 0.0, "lon": -77.03548066666667, "name": "abab63f1f0af9553543f37cc8dc20c93", "is_disabled": 0, "rental_uris": {"android": "https://dc.lft.to/lastmile_qr_scan", "ios": "https://dc.lft.to/lastmile_qr_scan"}, "type": "electric_scooter", "lat": 38.924139, "is_reserved": 0, "fusion_lat": 0.0}, {"bike_id": "4f916fa544ed05c5b841fcf23e294a4c", "fusion_lon": 0.0, "lon": -76.9319745, "name": "4f916fa544ed05c5b841fcf23e294a4c", "is_disabled": 0, "rental_uris": {"android": "https://dc.lft.to/lastmile_qr_scan", "ios": "https://dc.lft.to/lastmile_qr_scan"}, "type": "electric_scooter", "lat": 38.898793166666664, "is_reserved": 0, "fusion_lat": 0.0}, {"bike_id": "95e641dfe13fb87b505244aef54aa040", "fusion_lon": 0.0, "lon": -77.05149033333333, "name": "95e641dfe13fb87b505244aef54aa040", "is_disabled": 0, "rental_uris": {"android": "https://dc.lft.to/lastmile_qr_scan", "ios": "https://dc.lft.to/lastmile_qr_scan"}, "type": "electric_scooter", "lat": 38.90535333333333, "is_reserved": 0, "fusion_lat": 0.0}, {"bike_id": "04b1eb6d49eef3c561e0a0e99e4a2a76", "fusion_lon": 0.0, "lon": -76.9908985, "name": "04b1eb6d49eef3c561e0a0e99e4a2a76", "is_disabled": 0, "rental_uris": {"android": "https://dc.lft.to/lastmile_qr_scan", "ios": "https://dc.lft.to/lastmile_qr_scan"}, "type": "electric_scooter", "lat": 38.8823485, "is_reserved": 0, "fusion_lat": 0.0}, {"bike_id": "548bf81175ad79f4916928961e9f6cf7", "fusion_lon": 0.0, "lon": -77.0280565, "name": "548bf81175ad79f4916928961e9f6cf7", "is_disabled": 0, "rental_uris": {"android": "https://dc.lft.to/lastmile_qr_scan", "ios": "https://dc.lft.to/lastmile_qr_scan"}, "type": "electric_scooter", "lat": 38.9308345, "is_reserved": 0, "fusion_lat": 0.0}, {"bike_id": "932d023417e3aa2568ed380942f44fab", "fusion_lon": 0.0, "lon": -77.05206883333334, "name": "932d023417e3aa2568ed380942f44fab", "is_disabled": 0, "rental_uris": {"android": "https://dc.lft.to/lastmile_qr_scan", "ios": "https://dc.lft.to/lastmile_qr_scan"}, "type": "electric_scooter", "lat": 38.92433066666667, "is_reserved": 0, "fusion_lat": 0.0}, {"bike_id": "2051709d88958ed0359da34e103fc548", "fusion_lon": 0.0, "lon": -77.0218015, "name": "2051709d88958ed0359da34e103fc548", "is_disabled": 0, "rental_uris": {"android": "https://dc.lft.to/lastmile_qr_scan", "ios": "https://dc.lft.to/lastmile_qr_scan"}, "type": "electric_scooter", "lat": 38.899186, "is_reserved": 0, "fusion_lat": 0.0}, {"bike_id": "fe6d56ce2e500e4324438c6a1881cd94", "fusion_lon": 0.0, "lon": -76.98025783333334, "name": "fe6d56ce2e500e4324438c6a1881cd94", "is_disabled": 0, "rental_uris": {"android": "https://dc.lft.to/lastmile_qr_scan", "ios": "https://dc.lft.to/lastmile_qr_scan"}, "type": "electric_scooter", "lat": 38.90379933333333, "is_reserved": 0, "fusion_lat": 0.0}, {"bike_id": "90b9ca12ae3f8061ea441be748749153", "fusion_lon": 0.0, "lon": -77.02446266666666, "name": "90b9ca12ae3f8061ea441be748749153", "is_disabled": 0, "rental_uris": {"android": "https://dc.lft.to/lastmile_qr_scan", "ios": "https://dc.lft.to/lastmile_qr_scan"}, "type": "electric_scooter", "lat": 38.9187535, "is_reserved": 0, "fusion_lat": 0.0}, {"bike_id": "305c573a93bc5094d64c04db8e6eb131", "fusion_lon": 0.0, "lon": -77.02533683333333, "name": "305c573a93bc5094d64c04db8e6eb131", "is_disabled": 0, "rental_uris": {"android": "https://dc.lft.to/lastmile_qr_scan", "ios": "https://dc.lft.to/lastmile_qr_scan"}, "type": "electric_scooter", "lat": 38.9192365, "is_reserved": 0, "fusion_lat": 0.0}, {"bike_id": "696d800dc83aa5636ee3ea7159125219", "fusion_lon": 0.0, "lon": -77.0558585, "name": "696d800dc83aa5636ee3ea7159125219", "is_disabled": 0, "rental_uris": {"android": "https://dc.lft.to/lastmile_qr_scan", "ios": "https://dc.lft.to/lastmile_qr_scan"}, "type": "electric_scooter", "lat": 38.893303333333336, "is_reserved": 0, "fusion_lat": 0.0}, {"bike_id": "3dcb92b01bed55927edcbd3cc015a427", "fusion_lon": 0.0, "lon": -77.04619516666666, "name": "3dcb92b01bed55927edcbd3cc015a427", "is_disabled": 0, "rental_uris": {"android": "https://dc.lft.to/lastmile_qr_scan", "ios": "https://dc.lft.to/lastmile_qr_scan"}, "type": "electric_scooter", "lat": 38.90958166666667, "is_reserved": 0, "fusion_lat": 0.0}, {"bike_id": "63308270925f9efd73a8c41e9177205f", "fusion_lon": 0.0, "lon": -77.041872, "name": "63308270925f9efd73a8c41e9177205f", "is_disabled": 0, "rental_uris": {"android": "https://dc.lft.to/lastmile_qr_scan", "ios": "https://dc.lft.to/lastmile_qr_scan"}, "type": "electric_scooter", "lat": 38.905485, "is_reserved": 0, "fusion_lat": 0.0}, {"bike_id": "14e3c7024349338486277d3699559130", "fusion_lon": 0.0, "lon": -76.99610283333334, "name": "14e3c7024349338486277d3699559130", "is_disabled": 0, "rental_uris": {"android": "https://dc.lft.to/lastmile_qr_scan", "ios": "https://dc.lft.to/lastmile_qr_scan"}, "type": "electric_scooter", "lat": 38.9006215, "is_reserved": 0, "fusion_lat": 0.0}, {"bike_id": "29acd2f8c08bc04d806a8963916cad3a", "fusion_lon": 0.0, "lon": -77.00584416666666, "name": "29acd2f8c08bc04d806a8963916cad3a", "is_disabled": 0, "rental_uris": {"android": "https://dc.lft.to/lastmile_qr_scan", "ios": "https://dc.lft.to/lastmile_qr_scan"}, "type": "electric_scooter", "lat": 38.875888333333336, "is_reserved": 0, "fusion_lat": 0.0}, {"bike_id": "81a8766a5d3356bedbc1fe7ce4ae994a", "fusion_lon": 0.0, "lon": -77.0471235, "name": "81a8766a5d3356bedbc1fe7ce4ae994a", "is_disabled": 0, "rental_uris": {"android": "https://dc.lft.to/lastmile_qr_scan", "ios": "https://dc.lft.to/lastmile_qr_scan"}, "type": "electric_scooter", "lat": 38.92226333333333, "is_reserved": 0, "fusion_lat": 0.0}, {"bike_id": "73013014e202074029b017e71de30d3d", "fusion_lon": 0.0, "lon": -76.99379, "name": "73013014e202074029b017e71de30d3d", "is_disabled": 0, "rental_uris": {"android": "https://dc.lft.to/lastmile_qr_scan", "ios": "https://dc.lft.to/lastmile_qr_scan"}, "type": "electric_scooter", "lat": 38.900377666666664, "is_reserved": 0, "fusion_lat": 0.0}, {"bike_id": "6fd6c683f91f0da620d8745dd0eb1d98", "fusion_lon": 0.0, "lon": -77.04743333333333, "name": "6fd6c683f91f0da620d8745dd0eb1d98", "is_disabled": 0, "rental_uris": {"android": "https://dc.lft.to/lastmile_qr_scan", "ios": "https://dc.lft.to/lastmile_qr_scan"}, "type": "electric_scooter", "lat": 38.90533683333334, "is_reserved": 0, "fusion_lat": 0.0}, {"bike_id": "5665f9b1835b283eaa5d0e951c467412", "fusion_lon": 0.0, "lon": -77.02694016666666, "name": "5665f9b1835b283eaa5d0e951c467412", "is_disabled": 0, "rental_uris": {"android": "https://dc.lft.to/lastmile_qr_scan", "ios": "https://dc.lft.to/lastmile_qr_scan"}, "type": "electric_scooter", "lat": 38.911249833333336, "is_reserved": 0, "fusion_lat": 0.0}, {"bike_id": "bd3111d0f6ba7897f80cdcdf0f75ef19", "fusion_lon": 0.0, "lon": -76.99704666666666, "name": "bd3111d0f6ba7897f80cdcdf0f75ef19", "is_disabled": 0, "rental_uris": {"android": "https://dc.lft.to/lastmile_qr_scan", "ios": "https://dc.lft.to/lastmile_qr_scan"}, "type": "electric_scooter", "lat": 38.84429216666667, "is_reserved": 0, "fusion_lat": 0.0}, {"bike_id": "814ee812611b94c7645549b606053fe4", "fusion_lon": 0.0, "lon": -77.01694, "name": "814ee812611b94c7645549b606053fe4", "is_disabled": 0, "rental_uris": {"android": "https://dc.lft.to/lastmile_qr_scan", "ios": "https://dc.lft.to/lastmile_qr_scan"}, "type": "electric_scooter", "lat": 38.974960833333334, "is_reserved": 0, "fusion_lat": 0.0}, {"bike_id": "5dc2735e36c9858fe05ce7ea3c36e234", "fusion_lon": 0.0, "lon": -77.0416295, "name": "5dc2735e36c9858fe05ce7ea3c36e234", "is_disabled": 0, "rental_uris": {"android": "https://dc.lft.to/lastmile_qr_scan", "ios": "https://dc.lft.to/lastmile_qr_scan"}, "type": "electric_scooter", "lat": 38.918616666666665, "is_reserved": 0, "fusion_lat": 0.0}, {"bike_id": "29d940ea1f40d5ea35b622296366e64f", "fusion_lon": 0.0, "lon": -77.0433305, "name": "29d940ea1f40d5ea35b622296366e64f", "is_disabled": 0, "rental_uris": {"android": "https://dc.lft.to/lastmile_qr_scan", "ios": "https://dc.lft.to/lastmile_qr_scan"}, "type": "electric_scooter", "lat": 38.8922245, "is_reserved": 0, "fusion_lat": 0.0}, {"bike_id": "9258d430644452ac296e448fe2f664f4", "fusion_lon": 0.0, "lon": -77.04836016666667, "name": "9258d430644452ac296e448fe2f664f4", "is_disabled": 0, "rental_uris": {"android": "https://dc.lft.to/lastmile_qr_scan", "ios": "https://dc.lft.to/lastmile_qr_scan"}, "type": "electric_scooter", "lat": 38.910464, "is_reserved": 0, "fusion_lat": 0.0}, {"bike_id": "6972b964efe3c429a1ee301d495e1632", "fusion_lon": 0.0, "lon": -77.032631, "name": "6972b964efe3c429a1ee301d495e1632", "is_disabled": 0, "rental_uris": {"android": "https://dc.lft.to/lastmile_qr_scan", "ios": "https://dc.lft.to/lastmile_qr_scan"}, "type": "electric_scooter", "lat": 38.93776116666667, "is_reserved": 0, "fusion_lat": 0.0}, {"bike_id": "1f5dd8938beaf151720775cd07d8ead4", "fusion_lon": 0.0, "lon": -77.041431, "name": "1f5dd8938beaf151720775cd07d8ead4", "is_disabled": 0, "rental_uris": {"android": "https://dc.lft.to/lastmile_qr_scan", "ios": "https://dc.lft.to/lastmile_qr_scan"}, "type": "electric_scooter", "lat": 38.893553, "is_reserved": 0, "fusion_lat": 0.0}, {"bike_id": "51bf4c8a2980a5cbfae8d2b0334b80a8", "fusion_lon": 0.0, "lon": -77.0226285, "name": "51bf4c8a2980a5cbfae8d2b0334b80a8", "is_disabled": 0, "rental_uris": {"android": "https://dc.lft.to/lastmile_qr_scan", "ios": "https://dc.lft.to/lastmile_qr_scan"}, "type": "electric_bike", "lat": 38.93734233333333, "is_reserved": 0, "fusion_lat": 0.0}, {"bike_id": "5e9e994d5c663a3215de1db9aaad7cf9", "fusion_lon": 0.0, "lon": -77.02597066666667, "name": "5e9e994d5c663a3215de1db9aaad7cf9", "is_disabled": 0, "rental_uris": {"android": "https://dc.lft.to/lastmile_qr_scan", "ios": "https://dc.lft.to/lastmile_qr_scan"}, "type": "electric_scooter", "lat": 38.916957833333335, "is_reserved": 0, "fusion_lat": 0.0}, {"bike_id": "bfd5732143040571776138f6d600af60", "fusion_lon": 0.0, "lon": -76.99494783333333, "name": "bfd5732143040571776138f6d600af60", "is_disabled": 0, "rental_uris": {"android": "https://dc.lft.to/lastmile_qr_scan", "ios": "https://dc.lft.to/lastmile_qr_scan"}, "type": "electric_scooter", "lat": 38.86242133333333, "is_reserved": 0, "fusion_lat": 0.0}, {"bike_id": "9602a0733287fe04fbdfe507cbef7f38", "fusion_lon": 0.0, "lon": -77.01658566666667, "name": "9602a0733287fe04fbdfe507cbef7f38", "is_disabled": 0, "rental_uris": {"android": "https://dc.lft.to/lastmile_qr_scan", "ios": "https://dc.lft.to/lastmile_qr_scan"}, "type": "electric_scooter", "lat": 38.881175, "is_reserved": 0, "fusion_lat": 0.0}, {"bike_id": "94e6b4328321e0b6942b54c8b7ad8e5f", "fusion_lon": 0.0, "lon": -77.04609433333333, "name": "94e6b4328321e0b6942b54c8b7ad8e5f", "is_disabled": 0, "rental_uris": {"android": "https://dc.lft.to/lastmile_qr_scan", "ios": "https://dc.lft.to/lastmile_qr_scan"}, "type": "electric_scooter", "lat": 38.90861183333333, "is_reserved": 0, "fusion_lat": 0.0}, {"bike_id": "2e0290e1aaacc5036c721fb04320ceab", "fusion_lon": 0.0, "lon": -77.0523355, "name": "2e0290e1aaacc5036c721fb04320ceab", "is_disabled": 0, "rental_uris": {"android": "https://dc.lft.to/lastmile_qr_scan", "ios": "https://dc.lft.to/lastmile_qr_scan"}, "type": "electric_scooter", "lat": 38.926978166666665, "is_reserved": 0, "fusion_lat": 0.0}, {"bike_id": "7030789bce37475bd85d1667ff9ec8d4", "fusion_lon": 0.0, "lon": -77.02571233333333, "name": "7030789bce37475bd85d1667ff9ec8d4", "is_disabled": 0, "rental_uris": {"android": "https://dc.lft.to/lastmile_qr_scan", "ios": "https://dc.lft.to/lastmile_qr_scan"}, "type": "electric_scooter", "lat": 38.925759666666664, "is_reserved": 0, "fusion_lat": 0.0}, {"bike_id": "697e9d1dbcdc8e2229e969e40d40dd8e", "fusion_lon": 0.0, "lon": -76.998127, "name": "697e9d1dbcdc8e2229e969e40d40dd8e", "is_disabled": 0, "rental_uris": {"android": "https://dc.lft.to/lastmile_qr_scan", "ios": "https://dc.lft.to/lastmile_qr_scan"}, "type": "electric_scooter", "lat": 38.844320333333336, "is_reserved": 0, "fusion_lat": 0.0}, {"bike_id": "d53d2db0f3b8edceb03de26daef6fe8c", "fusion_lon": 0.0, "lon": -76.990529, "name": "d53d2db0f3b8edceb03de26daef6fe8c", "is_disabled": 0, "rental_uris": {"android": "https://dc.lft.to/lastmile_qr_scan", "ios": "https://dc.lft.to/lastmile_qr_scan"}, "type": "electric_scooter", "lat": 38.863621333333334, "is_reserved": 0, "fusion_lat": 0.0}, {"bike_id": "569532ddced9676de46bfd4ad76549e1", "fusion_lon": 0.0, "lon": -77.02404166666666, "name": "569532ddced9676de46bfd4ad76549e1", "is_disabled": 0, "rental_uris": {"android": "https://dc.lft.to/lastmile_qr_scan", "ios": "https://dc.lft.to/lastmile_qr_scan"}, "type": "electric_bike", "lat": 38.93461333333333, "is_reserved": 0, "fusion_lat": 0.0}, {"bike_id": "928c755ec162eb4d77cbdd41c3dd99b9", "fusion_lon": 0.0, "lon": -77.02962983333333, "name": "928c755ec162eb4d77cbdd41c3dd99b9", "is_disabled": 0, "rental_uris": {"android": "https://dc.lft.to/lastmile_qr_scan", "ios": "https://dc.lft.to/lastmile_qr_scan"}, "type": "electric_scooter", "lat": 38.91683533333333, "is_reserved": 0, "fusion_lat": 0.0}, {"bike_id": "a1541a89d6f8510b63196ff04dad8657", "fusion_lon": 0.0, "lon": -77.02815733333334, "name": "a1541a89d6f8510b63196ff04dad8657", "is_disabled": 0, "rental_uris": {"android": "https://dc.lft.to/lastmile_qr_scan", "ios": "https://dc.lft.to/lastmile_qr_scan"}, "type": "electric_scooter", "lat": 38.91426833333333, "is_reserved": 0, "fusion_lat": 0.0}, {"bike_id": "0753b98fd6789d76602717b913484821", "fusion_lon": 0.0, "lon": -76.99494083333333, "name": "0753b98fd6789d76602717b913484821", "is_disabled": 0, "rental_uris": {"android": "https://dc.lft.to/lastmile_qr_scan", "ios": "https://dc.lft.to/lastmile_qr_scan"}, "type": "electric_scooter", "lat": 38.86244816666667, "is_reserved": 0, "fusion_lat": 0.0}, {"bike_id": "d8a029ec1638df92ba93ac4f655a901b", "fusion_lon": 0.0, "lon": -77.03254433333333, "name": "d8a029ec1638df92ba93ac4f655a901b", "is_disabled": 0, "rental_uris": {"android": "https://dc.lft.to/lastmile_qr_scan", "ios": "https://dc.lft.to/lastmile_qr_scan"}, "type": "electric_scooter", "lat": 38.915547, "is_reserved": 0, "fusion_lat": 0.0}, {"bike_id": "a6e3e3759701a1810ef0c62a61a1134a", "fusion_lon": 0.0, "lon": -77.02339, "name": "a6e3e3759701a1810ef0c62a61a1134a", "is_disabled": 0, "rental_uris": {"android": "https://dc.lft.to/lastmile_qr_scan", "ios": "https://dc.lft.to/lastmile_qr_scan"}, "type": "electric_scooter", "lat": 38.9447145, "is_reserved": 0, "fusion_lat": 0.0}, {"bike_id": "2b83878a4cc973bec0f15b6b744bcaa6", "fusion_lon": 0.0, "lon": -77.12484383333333, "name": "2b83878a4cc973bec0f15b6b744bcaa6", "is_disabled": 0, "rental_uris": {"android": "https://dc.lft.to/lastmile_qr_scan", "ios": "https://dc.lft.to/lastmile_qr_scan"}, "type": "electric_bike", "lat": 38.8539355, "is_reserved": 0, "fusion_lat": 0.0}, {"bike_id": "7f6bf4c86139a812d1661cbad77e3b21", "fusion_lon": 0.0, "lon": -76.995103, "name": "7f6bf4c86139a812d1661cbad77e3b21", "is_disabled": 0, "rental_uris": {"android": "https://dc.lft.to/lastmile_qr_scan", "ios": "https://dc.lft.to/lastmile_qr_scan"}, "type": "electric_scooter", "lat": 38.883724, "is_reserved": 0, "fusion_lat": 0.0}, {"bike_id": "19c5f61ec2598ba781f3843fcbe52a23", "fusion_lon": 0.0, "lon": -77.02707516666666, "name": "19c5f61ec2598ba781f3843fcbe52a23", "is_disabled": 0, "rental_uris": {"android": "https://dc.lft.to/lastmile_qr_scan", "ios": "https://dc.lft.to/lastmile_qr_scan"}, "type": "electric_scooter", "lat": 38.906696833333335, "is_reserved": 0, "fusion_lat": 0.0}, {"bike_id": "0b54997a51f68ac57e7802a461524bdf", "fusion_lon": 0.0, "lon": -77.03595283333334, "name": "0b54997a51f68ac57e7802a461524bdf", "is_disabled": 0, "rental_uris": {"android": "https://dc.lft.to/lastmile_qr_scan", "ios": "https://dc.lft.to/lastmile_qr_scan"}, "type": "electric_scooter", "lat": 38.916955, "is_reserved": 0, "fusion_lat": 0.0}, {"bike_id": "dc73f0c747aa182e8fa40ac773d37ad0", "fusion_lon": 0.0, "lon": -76.9753365, "name": "dc73f0c747aa182e8fa40ac773d37ad0", "is_disabled": 0, "rental_uris": {"android": "https://dc.lft.to/lastmile_qr_scan", "ios": "https://dc.lft.to/lastmile_qr_scan"}, "type": "electric_bike", "lat": 38.84013516666667, "is_reserved": 0, "fusion_lat": 0.0}, {"bike_id": "a3920cae268fe427a8d9eae12d9b1942", "fusion_lon": 0.0, "lon": -77.04192866666666, "name": "a3920cae268fe427a8d9eae12d9b1942", "is_disabled": 0, "rental_uris": {"android": "https://dc.lft.to/lastmile_qr_scan", "ios": "https://dc.lft.to/lastmile_qr_scan"}, "type": "electric_scooter", "lat": 38.920444333333336, "is_reserved": 0, "fusion_lat": 0.0}, {"bike_id": "48a26b52306c90239db412077d9850cd", "fusion_lon": 0.0, "lon": -77.02792066666666, "name": "48a26b52306c90239db412077d9850cd", "is_disabled": 0, "rental_uris": {"android": "https://dc.lft.to/lastmile_qr_scan", "ios": "https://dc.lft.to/lastmile_qr_scan"}, "type": "electric_scooter", "lat": 38.9308165, "is_reserved": 0, "fusion_lat": 0.0}, {"bike_id": "97596493539afc93072f51935bad398a", "fusion_lon": 0.0, "lon": -77.02015166666666, "name": "97596493539afc93072f51935bad398a", "is_disabled": 0, "rental_uris": {"android": "https://dc.lft.to/lastmile_qr_scan", "ios": "https://dc.lft.to/lastmile_qr_scan"}, "type": "electric_scooter", "lat": 38.89967133333333, "is_reserved": 0, "fusion_lat": 0.0}, {"bike_id": "abd5a16d34e36dd1a54afbacd3cf39af", "fusion_lon": 0.0, "lon": -77.1009185, "name": "abd5a16d34e36dd1a54afbacd3cf39af", "is_disabled": 0, "rental_uris": {"android": "https://dc.lft.to/lastmile_qr_scan", "ios": "https://dc.lft.to/lastmile_qr_scan"}, "type": "electric_bike", "lat": 38.95957716666667, "is_reserved": 0, "fusion_lat": 0.0}, {"bike_id": "9297fd9bf135a70fe63e4b12c8ddc051", "fusion_lon": 0.0, "lon": -77.02721566666666, "name": "9297fd9bf135a70fe63e4b12c8ddc051", "is_disabled": 0, "rental_uris": {"android": "https://dc.lft.to/lastmile_qr_scan", "ios": "https://dc.lft.to/lastmile_qr_scan"}, "type": "electric_scooter", "lat": 38.940859, "is_reserved": 0, "fusion_lat": 0.0}, {"bike_id": "4d6104ea41bd538a3d7d17274645d114", "fusion_lon": 0.0, "lon": -77.031827, "name": "4d6104ea41bd538a3d7d17274645d114", "is_disabled": 0, "rental_uris": {"android": "https://dc.lft.to/lastmile_qr_scan", "ios": "https://dc.lft.to/lastmile_qr_scan"}, "type": "electric_scooter", "lat": 38.91353733333333, "is_reserved": 0, "fusion_lat": 0.0}, {"bike_id": "879946e5ed7d8f6658538f3638e9998f", "fusion_lon": 0.0, "lon": -77.03506566666667, "name": "879946e5ed7d8f6658538f3638e9998f", "is_disabled": 0, "rental_uris": {"android": "https://dc.lft.to/lastmile_qr_scan", "ios": "https://dc.lft.to/lastmile_qr_scan"}, "type": "electric_bike", "lat": 38.9351835, "is_reserved": 0, "fusion_lat": 0.0}, {"bike_id": "50d1d879cedcea734ee977f6024f8471", "fusion_lon": 0.0, "lon": -77.0242845, "name": "50d1d879cedcea734ee977f6024f8471", "is_disabled": 0, "rental_uris": {"android": "https://dc.lft.to/lastmile_qr_scan", "ios": "https://dc.lft.to/lastmile_qr_scan"}, "type": "electric_scooter", "lat": 38.91806, "is_reserved": 0, "fusion_lat": 0.0}, {"bike_id": "dcbbc7d96274af622158c7fbaf09be80", "fusion_lon": 0.0, "lon": -77.02318416666667, "name": "dcbbc7d96274af622158c7fbaf09be80", "is_disabled": 0, "rental_uris": {"android": "https://dc.lft.to/lastmile_qr_scan", "ios": "https://dc.lft.to/lastmile_qr_scan"}, "type": "electric_scooter", "lat": 38.927752166666664, "is_reserved": 0, "fusion_lat": 0.0}, {"bike_id": "adfcc859df5e1cb656097944ff0f9123", "fusion_lon": 0.0, "lon": -76.994321, "name": "adfcc859df5e1cb656097944ff0f9123", "is_disabled": 0, "rental_uris": {"android": "https://dc.lft.to/lastmile_qr_scan", "ios": "https://dc.lft.to/lastmile_qr_scan"}, "type": "electric_scooter", "lat": 38.90315566666666, "is_reserved": 0, "fusion_lat": 0.0}, {"bike_id": "991b586658349031726336d1c792cac8", "fusion_lon": 0.0, "lon": -77.02960116666667, "name": "991b586658349031726336d1c792cac8", "is_disabled": 0, "rental_uris": {"android": "https://dc.lft.to/lastmile_qr_scan", "ios": "https://dc.lft.to/lastmile_qr_scan"}, "type": "electric_scooter", "lat": 38.88396083333333, "is_reserved": 0, "fusion_lat": 0.0}, {"bike_id": "12028963af1f6708f5a24cc16b057e5e", "fusion_lon": 0.0, "lon": -77.03748683333333, "name": "12028963af1f6708f5a24cc16b057e5e", "is_disabled": 0, "rental_uris": {"android": "https://dc.lft.to/lastmile_qr_scan", "ios": "https://dc.lft.to/lastmile_qr_scan"}, "type": "electric_scooter", "lat": 38.9170035, "is_reserved": 0, "fusion_lat": 0.0}, {"bike_id": "e87879ac9b1ecb3aa730ec4a656730fd", "fusion_lon": 0.0, "lon": -77.016747, "name": "e87879ac9b1ecb3aa730ec4a656730fd", "is_disabled": 0, "rental_uris": {"android": "https://dc.lft.to/lastmile_qr_scan", "ios": "https://dc.lft.to/lastmile_qr_scan"}, "type": "electric_scooter", "lat": 38.881178166666665, "is_reserved": 0, "fusion_lat": 0.0}, {"bike_id": "1fe9e1ea8c29a83f393834e3f9372698", "fusion_lon": 0.0, "lon": -77.03887216666666, "name": "1fe9e1ea8c29a83f393834e3f9372698", "is_disabled": 0, "rental_uris": {"android": "https://dc.lft.to/lastmile_qr_scan", "ios": "https://dc.lft.to/lastmile_qr_scan"}, "type": "electric_scooter", "lat": 38.917103833333336, "is_reserved": 0, "fusion_lat": 0.0}, {"bike_id": "ba21727e2116a015cae612db3aa62498", "fusion_lon": 0.0, "lon": -77.0024865, "name": "ba21727e2116a015cae612db3aa62498", "is_disabled": 0, "rental_uris": {"android": "https://dc.lft.to/lastmile_qr_scan", "ios": "https://dc.lft.to/lastmile_qr_scan"}, "type": "electric_scooter", "lat": 38.901346, "is_reserved": 0, "fusion_lat": 0.0}, {"bike_id": "7207d9bf9324f10424c561917b37668c", "fusion_lon": 0.0, "lon": -77.0327985, "name": "7207d9bf9324f10424c561917b37668c", "is_disabled": 0, "rental_uris": {"android": "https://dc.lft.to/lastmile_qr_scan", "ios": "https://dc.lft.to/lastmile_qr_scan"}, "type": "electric_scooter", "lat": 38.9161475, "is_reserved": 0, "fusion_lat": 0.0}, {"bike_id": "a17c85b6f7d0a95fff032b4af8502511", "fusion_lon": 0.0, "lon": -77.02394466666667, "name": "a17c85b6f7d0a95fff032b4af8502511", "is_disabled": 0, "rental_uris": {"android": "https://dc.lft.to/lastmile_qr_scan", "ios": "https://dc.lft.to/lastmile_qr_scan"}, "type": "electric_scooter", "lat": 38.91743733333333, "is_reserved": 0, "fusion_lat": 0.0}, {"bike_id": "1829619d5b22e7ae9fa3a39ed2372c0f", "fusion_lon": 0.0, "lon": -77.02348416666666, "name": "1829619d5b22e7ae9fa3a39ed2372c0f", "is_disabled": 0, "rental_uris": {"android": "https://dc.lft.to/lastmile_qr_scan", "ios": "https://dc.lft.to/lastmile_qr_scan"}, "type": "electric_scooter", "lat": 38.93076166666667, "is_reserved": 0, "fusion_lat": 0.0}, {"bike_id": "6db50bc4f56e7b8ad0132fbd6e5c5d7c", "fusion_lon": 0.0, "lon": -76.94939733333334, "name": "6db50bc4f56e7b8ad0132fbd6e5c5d7c", "is_disabled": 0, "rental_uris": {"android": "https://dc.lft.to/lastmile_qr_scan", "ios": "https://dc.lft.to/lastmile_qr_scan"}, "type": "electric_scooter", "lat": 38.89346533333333, "is_reserved": 0, "fusion_lat": 0.0}, {"bike_id": "8920ed02afd0a341a8f6e3ce2b1a84f0", "fusion_lon": 0.0, "lon": -76.98977916666666, "name": "8920ed02afd0a341a8f6e3ce2b1a84f0", "is_disabled": 0, "rental_uris": {"android": "https://dc.lft.to/lastmile_qr_scan", "ios": "https://dc.lft.to/lastmile_qr_scan"}, "type": "electric_scooter", "lat": 38.8649495, "is_reserved": 0, "fusion_lat": 0.0}, {"bike_id": "49df86cb27ef499f6d8fd682d8fe583e", "fusion_lon": 0.0, "lon": -77.0560805, "name": "49df86cb27ef499f6d8fd682d8fe583e", "is_disabled": 0, "rental_uris": {"android": "https://dc.lft.to/lastmile_qr_scan", "ios": "https://dc.lft.to/lastmile_qr_scan"}, "type": "electric_scooter", "lat": 38.931621166666666, "is_reserved": 0, "fusion_lat": 0.0}, {"bike_id": "defe543eb44b5bd54c4988923bf6ca33", "fusion_lon": 0.0, "lon": -77.01778683333333, "name": "defe543eb44b5bd54c4988923bf6ca33", "is_disabled": 0, "rental_uris": {"android": "https://dc.lft.to/lastmile_qr_scan", "ios": "https://dc.lft.to/lastmile_qr_scan"}, "type": "electric_scooter", "lat": 38.907835166666665, "is_reserved": 0, "fusion_lat": 0.0}, {"bike_id": "c1baef72ce7c2d8d24893c4cc4158f7a", "fusion_lon": 0.0, "lon": -77.02197516666666, "name": "c1baef72ce7c2d8d24893c4cc4158f7a", "is_disabled": 0, "rental_uris": {"android": "https://dc.lft.to/lastmile_qr_scan", "ios": "https://dc.lft.to/lastmile_qr_scan"}, "type": "electric_scooter", "lat": 38.93292, "is_reserved": 0, "fusion_lat": 0.0}, {"bike_id": "744ff8e85355f38dc72154437011d093", "fusion_lon": 0.0, "lon": -77.01817683333333, "name": "744ff8e85355f38dc72154437011d093", "is_disabled": 0, "rental_uris": {"android": "https://dc.lft.to/lastmile_qr_scan", "ios": "https://dc.lft.to/lastmile_qr_scan"}, "type": "electric_scooter", "lat": 38.91108666666667, "is_reserved": 0, "fusion_lat": 0.0}, {"bike_id": "867989ee3047f7daced1dc49964abf92", "fusion_lon": 0.0, "lon": -77.03414516666666, "name": "867989ee3047f7daced1dc49964abf92", "is_disabled": 0, "rental_uris": {"android": "https://dc.lft.to/lastmile_qr_scan", "ios": "https://dc.lft.to/lastmile_qr_scan"}, "type": "electric_scooter", "lat": 38.902539166666664, "is_reserved": 0, "fusion_lat": 0.0}, {"bike_id": "a2dea40de2e0e45d529d527dd98b3e26", "fusion_lon": 0.0, "lon": -77.02317466666666, "name": "a2dea40de2e0e45d529d527dd98b3e26", "is_disabled": 0, "rental_uris": {"android": "https://dc.lft.to/lastmile_qr_scan", "ios": "https://dc.lft.to/lastmile_qr_scan"}, "type": "electric_scooter", "lat": 38.918329, "is_reserved": 0, "fusion_lat": 0.0}, {"bike_id": "1c68f2cef1211bc248a7bac37513060e", "fusion_lon": 0.0, "lon": -77.0257695, "name": "1c68f2cef1211bc248a7bac37513060e", "is_disabled": 0, "rental_uris": {"android": "https://dc.lft.to/lastmile_qr_scan", "ios": "https://dc.lft.to/lastmile_qr_scan"}, "type": "electric_scooter", "lat": 38.917074166666666, "is_reserved": 0, "fusion_lat": 0.0}, {"bike_id": "d85d066d09f71d1622af770c49a7b3d3", "fusion_lon": 0.0, "lon": -77.0440285, "name": "d85d066d09f71d1622af770c49a7b3d3", "is_disabled": 0, "rental_uris": {"android": "https://dc.lft.to/lastmile_qr_scan", "ios": "https://dc.lft.to/lastmile_qr_scan"}, "type": "electric_scooter", "lat": 38.920637666666664, "is_reserved": 0, "fusion_lat": 0.0}, {"bike_id": "ba4846fc36b082ce74a7ba20b4cb4c75", "fusion_lon": 0.0, "lon": -77.032834, "name": "ba4846fc36b082ce74a7ba20b4cb4c75", "is_disabled": 0, "rental_uris": {"android": "https://dc.lft.to/lastmile_qr_scan", "ios": "https://dc.lft.to/lastmile_qr_scan"}, "type": "electric_scooter", "lat": 38.89906666666667, "is_reserved": 0, "fusion_lat": 0.0}, {"bike_id": "f6f5b4b4ea85c0679bdec46a9a7a9e65", "fusion_lon": 0.0, "lon": -76.97240083333334, "name": "f6f5b4b4ea85c0679bdec46a9a7a9e65", "is_disabled": 0, "rental_uris": {"android": "https://dc.lft.to/lastmile_qr_scan", "ios": "https://dc.lft.to/lastmile_qr_scan"}, "type": "electric_bike", "lat": 38.94905833333333, "is_reserved": 0, "fusion_lat": 0.0}, {"bike_id": "c70c265bf1a01de7a5ea139dde35611f", "fusion_lon": 0.0, "lon": -77.02692116666667, "name": "c70c265bf1a01de7a5ea139dde35611f", "is_disabled": 0, "rental_uris": {"android": "https://dc.lft.to/lastmile_qr_scan", "ios": "https://dc.lft.to/lastmile_qr_scan"}, "type": "electric_scooter", "lat": 38.90684866666667, "is_reserved": 0, "fusion_lat": 0.0}, {"bike_id": "7d3e7f5edc2ee0a45c44ccfdc6519be9", "fusion_lon": 0.0, "lon": -77.03035583333333, "name": "7d3e7f5edc2ee0a45c44ccfdc6519be9", "is_disabled": 0, "rental_uris": {"android": "https://dc.lft.to/lastmile_qr_scan", "ios": "https://dc.lft.to/lastmile_qr_scan"}, "type": "electric_scooter", "lat": 38.9097915, "is_reserved": 0, "fusion_lat": 0.0}, {"bike_id": "485189bb5a20e925c7174193336f2857", "fusion_lon": 0.0, "lon": -77.0224295, "name": "485189bb5a20e925c7174193336f2857", "is_disabled": 0, "rental_uris": {"android": "https://dc.lft.to/lastmile_qr_scan", "ios": "https://dc.lft.to/lastmile_qr_scan"}, "type": "electric_scooter", "lat": 38.916564, "is_reserved": 0, "fusion_lat": 0.0}, {"bike_id": "bc3c472b5b7b997ec6e3740ee49a5cc8", "fusion_lon": 0.0, "lon": -77.02150133333333, "name": "bc3c472b5b7b997ec6e3740ee49a5cc8", "is_disabled": 0, "rental_uris": {"android": "https://dc.lft.to/lastmile_qr_scan", "ios": "https://dc.lft.to/lastmile_qr_scan"}, "type": "electric_scooter", "lat": 38.9035555, "is_reserved": 0, "fusion_lat": 0.0}, {"bike_id": "a6baddf9a3ffd8ec65472bdaea5baeaf", "fusion_lon": 0.0, "lon": -76.99537433333333, "name": "a6baddf9a3ffd8ec65472bdaea5baeaf", "is_disabled": 0, "rental_uris": {"android": "https://dc.lft.to/lastmile_qr_scan", "ios": "https://dc.lft.to/lastmile_qr_scan"}, "type": "electric_scooter", "lat": 38.92064466666667, "is_reserved": 0, "fusion_lat": 0.0}, {"bike_id": "4807c97bae79dbba54d7d235c8c8595e", "fusion_lon": 0.0, "lon": -77.10720933333333, "name": "4807c97bae79dbba54d7d235c8c8595e", "is_disabled": 0, "rental_uris": {"android": "https://dc.lft.to/lastmile_qr_scan", "ios": "https://dc.lft.to/lastmile_qr_scan"}, "type": "electric_bike", "lat": 38.964907833333335, "is_reserved": 0, "fusion_lat": 0.0}, {"bike_id": "38bf08b563add05887c44f0f3f416bd3", "fusion_lon": 0.0, "lon": -77.04394316666666, "name": "38bf08b563add05887c44f0f3f416bd3", "is_disabled": 0, "rental_uris": {"android": "https://dc.lft.to/lastmile_qr_scan", "ios": "https://dc.lft.to/lastmile_qr_scan"}, "type": "electric_scooter", "lat": 38.92070233333333, "is_reserved": 0, "fusion_lat": 0.0}, {"bike_id": "252a571f46bad86f7dfbc6d396aa26f4", "fusion_lon": 0.0, "lon": -77.03190283333333, "name": "252a571f46bad86f7dfbc6d396aa26f4", "is_disabled": 0, "rental_uris": {"android": "https://dc.lft.to/lastmile_qr_scan", "ios": "https://dc.lft.to/lastmile_qr_scan"}, "type": "electric_scooter", "lat": 38.93062366666667, "is_reserved": 0, "fusion_lat": 0.0}, {"bike_id": "84a2d31502a0b5a4c3823f401512d931", "fusion_lon": 0.0, "lon": -77.04016583333333, "name": "84a2d31502a0b5a4c3823f401512d931", "is_disabled": 0, "rental_uris": {"android": "https://dc.lft.to/lastmile_qr_scan", "ios": "https://dc.lft.to/lastmile_qr_scan"}, "type": "electric_bike", "lat": 38.7932765, "is_reserved": 0, "fusion_lat": 0.0}, {"bike_id": "ef2d1a93ed312525991b9032690dbf09", "fusion_lon": 0.0, "lon": -76.999408, "name": "ef2d1a93ed312525991b9032690dbf09", "is_disabled": 0, "rental_uris": {"android": "https://dc.lft.to/lastmile_qr_scan", "ios": "https://dc.lft.to/lastmile_qr_scan"}, "type": "electric_scooter", "lat": 38.891998, "is_reserved": 0, "fusion_lat": 0.0}, {"bike_id": "6a92ff721db7bf442509ebe6fe614fbb", "fusion_lon": 0.0, "lon": -77.044521, "name": "6a92ff721db7bf442509ebe6fe614fbb", "is_disabled": 0, "rental_uris": {"android": "https://dc.lft.to/lastmile_qr_scan", "ios": "https://dc.lft.to/lastmile_qr_scan"}, "type": "electric_scooter", "lat": 38.91185633333333, "is_reserved": 0, "fusion_lat": 0.0}, {"bike_id": "fb7ac07a361705027401bbc77ef9b9a8", "fusion_lon": 0.0, "lon": -77.01750233333334, "name": "fb7ac07a361705027401bbc77ef9b9a8", "is_disabled": 0, "rental_uris": {"android": "https://dc.lft.to/lastmile_qr_scan", "ios": "https://dc.lft.to/lastmile_qr_scan"}, "type": "electric_scooter", "lat": 38.87776366666667, "is_reserved": 0, "fusion_lat": 0.0}, {"bike_id": "e8adf7f9bafcfa70e7357cb4ec493e66", "fusion_lon": 0.0, "lon": -77.0433595, "name": "e8adf7f9bafcfa70e7357cb4ec493e66", "is_disabled": 0, "rental_uris": {"android": "https://dc.lft.to/lastmile_qr_scan", "ios": "https://dc.lft.to/lastmile_qr_scan"}, "type": "electric_scooter", "lat": 38.89520516666666, "is_reserved": 0, "fusion_lat": 0.0}, {"bike_id": "b5eb36cb9c0c3e461464ff67a76badea", "fusion_lon": 0.0, "lon": -77.031997, "name": "b5eb36cb9c0c3e461464ff67a76badea", "is_disabled": 0, "rental_uris": {"android": "https://dc.lft.to/lastmile_qr_scan", "ios": "https://dc.lft.to/lastmile_qr_scan"}, "type": "electric_scooter", "lat": 38.91737583333333, "is_reserved": 0, "fusion_lat": 0.0}, {"bike_id": "c8306916ab48754a6e2818c28a8cea56", "fusion_lon": 0.0, "lon": -76.99536916666666, "name": "c8306916ab48754a6e2818c28a8cea56", "is_disabled": 0, "rental_uris": {"android": "https://dc.lft.to/lastmile_qr_scan", "ios": "https://dc.lft.to/lastmile_qr_scan"}, "type": "electric_scooter", "lat": 38.92065016666667, "is_reserved": 0, "fusion_lat": 0.0}, {"bike_id": "7535a7bf19e5edd2217c6a656273defa", "fusion_lon": 0.0, "lon": -77.07300883333333, "name": "7535a7bf19e5edd2217c6a656273defa", "is_disabled": 0, "rental_uris": {"android": "https://dc.lft.to/lastmile_qr_scan", "ios": "https://dc.lft.to/lastmile_qr_scan"}, "type": "electric_scooter", "lat": 38.92882083333333, "is_reserved": 0, "fusion_lat": 0.0}, {"bike_id": "f467199dea0efdad65debab5d84600b0", "fusion_lon": 0.0, "lon": -76.99947883333333, "name": "f467199dea0efdad65debab5d84600b0", "is_disabled": 0, "rental_uris": {"android": "https://dc.lft.to/lastmile_qr_scan", "ios": "https://dc.lft.to/lastmile_qr_scan"}, "type": "electric_scooter", "lat": 38.8429305, "is_reserved": 0, "fusion_lat": 0.0}, {"bike_id": "8f27baeae8435b82119981cbe98a9521", "fusion_lon": 0.0, "lon": -77.02814133333334, "name": "8f27baeae8435b82119981cbe98a9521", "is_disabled": 0, "rental_uris": {"android": "https://dc.lft.to/lastmile_qr_scan", "ios": "https://dc.lft.to/lastmile_qr_scan"}, "type": "electric_scooter", "lat": 38.91681333333333, "is_reserved": 0, "fusion_lat": 0.0}, {"bike_id": "9fc88158b24b956847dd57d631596891", "fusion_lon": 0.0, "lon": -77.03148516666667, "name": "9fc88158b24b956847dd57d631596891", "is_disabled": 0, "rental_uris": {"android": "https://dc.lft.to/lastmile_qr_scan", "ios": "https://dc.lft.to/lastmile_qr_scan"}, "type": "electric_scooter", "lat": 38.9202675, "is_reserved": 0, "fusion_lat": 0.0}, {"bike_id": "a811449926ed089b7c0e85d189224ae9", "fusion_lon": 0.0, "lon": -77.00759666666667, "name": "a811449926ed089b7c0e85d189224ae9", "is_disabled": 0, "rental_uris": {"android": "https://dc.lft.to/lastmile_qr_scan", "ios": "https://dc.lft.to/lastmile_qr_scan"}, "type": "electric_scooter", "lat": 38.877375, "is_reserved": 0, "fusion_lat": 0.0}, {"bike_id": "9147212f64f733ab91f8f4cd1c773fff", "fusion_lon": 0.0, "lon": -77.0440145, "name": "9147212f64f733ab91f8f4cd1c773fff", "is_disabled": 0, "rental_uris": {"android": "https://dc.lft.to/lastmile_qr_scan", "ios": "https://dc.lft.to/lastmile_qr_scan"}, "type": "electric_scooter", "lat": 38.910907, "is_reserved": 0, "fusion_lat": 0.0}, {"bike_id": "8be4ad8b8bd35b5901763050c7534e32", "fusion_lon": 0.0, "lon": -77.06758116666667, "name": "8be4ad8b8bd35b5901763050c7534e32", "is_disabled": 0, "rental_uris": {"android": "https://dc.lft.to/lastmile_qr_scan", "ios": "https://dc.lft.to/lastmile_qr_scan"}, "type": "electric_scooter", "lat": 38.90683083333333, "is_reserved": 0, "fusion_lat": 0.0}, {"bike_id": "6f5b547cd3a2d6881718aa103033d1dd", "fusion_lon": 0.0, "lon": -76.99793283333334, "name": "6f5b547cd3a2d6881718aa103033d1dd", "is_disabled": 0, "rental_uris": {"android": "https://dc.lft.to/lastmile_qr_scan", "ios": "https://dc.lft.to/lastmile_qr_scan"}, "type": "electric_bike", "lat": 38.956438, "is_reserved": 0, "fusion_lat": 0.0}, {"bike_id": "1a4140512d387e0af16a0137d08621aa", "fusion_lon": 0.0, "lon": -77.0221195, "name": "1a4140512d387e0af16a0137d08621aa", "is_disabled": 0, "rental_uris": {"android": "https://dc.lft.to/lastmile_qr_scan", "ios": "https://dc.lft.to/lastmile_qr_scan"}, "type": "electric_scooter", "lat": 38.9156115, "is_reserved": 0, "fusion_lat": 0.0}, {"bike_id": "852311930d76e5eceac4f49b65f9f315", "fusion_lon": 0.0, "lon": -77.023072, "name": "852311930d76e5eceac4f49b65f9f315", "is_disabled": 0, "rental_uris": {"android": "https://dc.lft.to/lastmile_qr_scan", "ios": "https://dc.lft.to/lastmile_qr_scan"}, "type": "electric_scooter", "lat": 38.89666783333333, "is_reserved": 0, "fusion_lat": 0.0}, {"bike_id": "1815866777823beba326c21269b33a42", "fusion_lon": 0.0, "lon": -77.02699466666667, "name": "1815866777823beba326c21269b33a42", "is_disabled": 0, "rental_uris": {"android": "https://dc.lft.to/lastmile_qr_scan", "ios": "https://dc.lft.to/lastmile_qr_scan"}, "type": "electric_scooter", "lat": 38.90678833333333, "is_reserved": 0, "fusion_lat": 0.0}, {"bike_id": "fad5768bcf7460704fb9475542b1fef1", "fusion_lon": 0.0, "lon": -76.93989833333333, "name": "fad5768bcf7460704fb9475542b1fef1", "is_disabled": 0, "rental_uris": {"android": "https://dc.lft.to/lastmile_qr_scan", "ios": "https://dc.lft.to/lastmile_qr_scan"}, "type": "electric_scooter", "lat": 38.899818, "is_reserved": 0, "fusion_lat": 0.0}, {"bike_id": "6abfc3abf826edae0bfc82fa49c1f316", "fusion_lon": 0.0, "lon": -77.17843133333334, "name": "6abfc3abf826edae0bfc82fa49c1f316", "is_disabled": 0, "rental_uris": {"android": "https://dc.lft.to/lastmile_qr_scan", "ios": "https://dc.lft.to/lastmile_qr_scan"}, "type": "electric_bike", "lat": 39.08858816666667, "is_reserved": 0, "fusion_lat": 0.0}, {"bike_id": "d06ac8d2f4b3460b1f6626651a83ab14", "fusion_lon": 0.0, "lon": -77.0242085, "name": "d06ac8d2f4b3460b1f6626651a83ab14", "is_disabled": 0, "rental_uris": {"android": "https://dc.lft.to/lastmile_qr_scan", "ios": "https://dc.lft.to/lastmile_qr_scan"}, "type": "electric_scooter", "lat": 38.91405966666667, "is_reserved": 0, "fusion_lat": 0.0}, {"bike_id": "3ecd013447e0c321e3a3a0182e0aeff0", "fusion_lon": 0.0, "lon": -77.03186066666666, "name": "3ecd013447e0c321e3a3a0182e0aeff0", "is_disabled": 0, "rental_uris": {"android": "https://dc.lft.to/lastmile_qr_scan", "ios": "https://dc.lft.to/lastmile_qr_scan"}, "type": "electric_scooter", "lat": 38.91817, "is_reserved": 0, "fusion_lat": 0.0}, {"bike_id": "4034f7a1cefe82700850410f8a000b02", "fusion_lon": 0.0, "lon": -77.03152, "name": "4034f7a1cefe82700850410f8a000b02", "is_disabled": 0, "rental_uris": {"android": "https://dc.lft.to/lastmile_qr_scan", "ios": "https://dc.lft.to/lastmile_qr_scan"}, "type": "electric_scooter", "lat": 38.92796466666667, "is_reserved": 0, "fusion_lat": 0.0}, {"bike_id": "f329f83ca54f650277c86529ea465531", "fusion_lon": 0.0, "lon": -76.97890016666666, "name": "f329f83ca54f650277c86529ea465531", "is_disabled": 0, "rental_uris": {"android": "https://dc.lft.to/lastmile_qr_scan", "ios": "https://dc.lft.to/lastmile_qr_scan"}, "type": "electric_bike", "lat": 38.915871833333334, "is_reserved": 0, "fusion_lat": 0.0}, {"bike_id": "bd3e7c5d0c58126bcd150fa03647677b", "fusion_lon": 0.0, "lon": -76.96524383333333, "name": "bd3e7c5d0c58126bcd150fa03647677b", "is_disabled": 0, "rental_uris": {"android": "https://dc.lft.to/lastmile_qr_scan", "ios": "https://dc.lft.to/lastmile_qr_scan"}, "type": "electric_bike", "lat": 38.8748575, "is_reserved": 0, "fusion_lat": 0.0}, {"bike_id": "0a0d3c4169eb73124df1df21a308e5d5", "fusion_lon": 0.0, "lon": -77.22222466666666, "name": "0a0d3c4169eb73124df1df21a308e5d5", "is_disabled": 0, "rental_uris": {"android": "https://dc.lft.to/lastmile_qr_scan", "ios": "https://dc.lft.to/lastmile_qr_scan"}, "type": "electric_bike", "lat": 38.92859333333333, "is_reserved": 0, "fusion_lat": 0.0}, {"bike_id": "0aa6528b0e5b16f41af2bfdd51b89a2a", "fusion_lon": 0.0, "lon": -77.02156233333334, "name": "0aa6528b0e5b16f41af2bfdd51b89a2a", "is_disabled": 0, "rental_uris": {"android": "https://dc.lft.to/lastmile_qr_scan", "ios": "https://dc.lft.to/lastmile_qr_scan"}, "type": "electric_scooter", "lat": 38.930735, "is_reserved": 0, "fusion_lat": 0.0}, {"bike_id": "ead0fd6a8b641b8c6700e8d2e1b13409", "fusion_lon": 0.0, "lon": -77.024198, "name": "ead0fd6a8b641b8c6700e8d2e1b13409", "is_disabled": 0, "rental_uris": {"android": "https://dc.lft.to/lastmile_qr_scan", "ios": "https://dc.lft.to/lastmile_qr_scan"}, "type": "electric_scooter", "lat": 38.9192105, "is_reserved": 0, "fusion_lat": 0.0}, {"bike_id": "288e16d95a7a87011e34e26b73ccb191", "fusion_lon": 0.0, "lon": -77.05730466666667, "name": "288e16d95a7a87011e34e26b73ccb191", "is_disabled": 0, "rental_uris": {"android": "https://dc.lft.to/lastmile_qr_scan", "ios": "https://dc.lft.to/lastmile_qr_scan"}, "type": "electric_scooter", "lat": 38.92434816666667, "is_reserved": 0, "fusion_lat": 0.0}, {"bike_id": "8a25aa0032efab78f142a5e66a3a9586", "fusion_lon": 0.0, "lon": -76.99473, "name": "8a25aa0032efab78f142a5e66a3a9586", "is_disabled": 0, "rental_uris": {"android": "https://dc.lft.to/lastmile_qr_scan", "ios": "https://dc.lft.to/lastmile_qr_scan"}, "type": "electric_scooter", "lat": 38.882662, "is_reserved": 0, "fusion_lat": 0.0}, {"bike_id": "da8de2a470d57daae132f7438915bb74", "fusion_lon": 0.0, "lon": -77.049279, "name": "da8de2a470d57daae132f7438915bb74", "is_disabled": 0, "rental_uris": {"android": "https://dc.lft.to/lastmile_qr_scan", "ios": "https://dc.lft.to/lastmile_qr_scan"}, "type": "electric_bike", "lat": 38.813505666666664, "is_reserved": 0, "fusion_lat": 0.0}, {"bike_id": "0d601f4e45b2127b9c1c5c9c6446d8f5", "fusion_lon": 0.0, "lon": -77.00893833333333, "name": "0d601f4e45b2127b9c1c5c9c6446d8f5", "is_disabled": 0, "rental_uris": {"android": "https://dc.lft.to/lastmile_qr_scan", "ios": "https://dc.lft.to/lastmile_qr_scan"}, "type": "electric_scooter", "lat": 38.876661666666664, "is_reserved": 0, "fusion_lat": 0.0}, {"bike_id": "5b7f152e1080678a1b4158bfd9a4d079", "fusion_lon": 0.0, "lon": -77.00878866666666, "name": "5b7f152e1080678a1b4158bfd9a4d079", "is_disabled": 0, "rental_uris": {"android": "https://dc.lft.to/lastmile_qr_scan", "ios": "https://dc.lft.to/lastmile_qr_scan"}, "type": "electric_scooter", "lat": 38.906551, "is_reserved": 0, "fusion_lat": 0.0}, {"bike_id": "7baff31ddd462a16d7b6c5cf29a173c0", "fusion_lon": 0.0, "lon": -77.01572383333334, "name": "7baff31ddd462a16d7b6c5cf29a173c0", "is_disabled": 0, "rental_uris": {"android": "https://dc.lft.to/lastmile_qr_scan", "ios": "https://dc.lft.to/lastmile_qr_scan"}, "type": "electric_scooter", "lat": 38.87652766666667, "is_reserved": 0, "fusion_lat": 0.0}, {"bike_id": "c49946636a2d3ad8d2f856e38d858d1e", "fusion_lon": 0.0, "lon": -77.03497066666667, "name": "c49946636a2d3ad8d2f856e38d858d1e", "is_disabled": 0, "rental_uris": {"android": "https://dc.lft.to/lastmile_qr_scan", "ios": "https://dc.lft.to/lastmile_qr_scan"}, "type": "electric_scooter", "lat": 38.91694233333333, "is_reserved": 0, "fusion_lat": 0.0}, {"bike_id": "f09ec7a3165557e96626e0f60a6b862f", "fusion_lon": 0.0, "lon": -77.05553466666667, "name": "f09ec7a3165557e96626e0f60a6b862f", "is_disabled": 0, "rental_uris": {"android": "https://dc.lft.to/lastmile_qr_scan", "ios": "https://dc.lft.to/lastmile_qr_scan"}, "type": "electric_scooter", "lat": 38.9342575, "is_reserved": 0, "fusion_lat": 0.0}, {"bike_id": "0c02b5f81650b50a1ae6c630740912ba", "fusion_lon": 0.0, "lon": -77.05717233333333, "name": "0c02b5f81650b50a1ae6c630740912ba", "is_disabled": 0, "rental_uris": {"android": "https://dc.lft.to/lastmile_qr_scan", "ios": "https://dc.lft.to/lastmile_qr_scan"}, "type": "electric_scooter", "lat": 38.933645, "is_reserved": 0, "fusion_lat": 0.0}, {"bike_id": "1ae40de441dc3683599cea902f3c944f", "fusion_lon": 0.0, "lon": -77.03265016666667, "name": "1ae40de441dc3683599cea902f3c944f", "is_disabled": 0, "rental_uris": {"android": "https://dc.lft.to/lastmile_qr_scan", "ios": "https://dc.lft.to/lastmile_qr_scan"}, "type": "electric_scooter", "lat": 38.929145, "is_reserved": 0, "fusion_lat": 0.0},