{"data": {"bikes": [{"fusion_lat": 0.0, "name": "15e2090fc29ecbad10a34695d2f8cc0c", "is_disabled": 0, "rental_uris": {"android": "https://dc.lft.to/lastmile_qr_scan", "ios": "https://dc.lft.to/lastmile_qr_scan"}, "fusion_lon": 0.0, "lat": 38.91806116666667, "bike_id": "15e2090fc29ecbad10a34695d2f8cc0c", "type": "electric_scooter", "is_reserved": 0, "lon": -77.03440983333333}, {"fusion_lat": 0.0, "name": "934a4756b95153c9b6feec891d5782e1", "is_disabled": 0, "rental_uris": {"android": "https://dc.lft.to/lastmile_qr_scan", "ios": "https://dc.lft.to/lastmile_qr_scan"}, "fusion_lon": 0.0, "lat": 38.930690166666665, "bike_id": "934a4756b95153c9b6feec891d5782e1", "type": "electric_scooter", "is_reserved": 0, "lon": -77.0297845}, {"fusion_lat": 0.0, "name": "63faad4371c9eb5ec8a32a951f8bf97b", "is_disabled": 0, "rental_uris": {"android": "https://dc.lft.to/lastmile_qr_scan", "ios": "https://dc.lft.to/lastmile_qr_scan"}, "fusion_lon": 0.0, "lat": 38.918084666666665, "bike_id": "63faad4371c9eb5ec8a32a951f8bf97b", "type": "electric_scooter", "is_reserved": 0, "lon": -77.036397}, {"fusion_lat": 0.0, "name": "e6a6797e35d2ee3ad4c4b7e72fcf3bfc", "is_disabled": 0, "rental_uris": {"android": "https://dc.lft.to/lastmile_qr_scan", "ios": "https://dc.lft.to/lastmile_qr_scan"}, "fusion_lon": 0.0, "lat": 38.892226666666666, "bike_id": "e6a6797e35d2ee3ad4c4b7e72fcf3bfc", "type": "electric_scooter", "is_reserved": 0, "lon": -77.04307966666667}, {"fusion_lat": 0.0, "name": "3aaadab109eae30c21b242a28a720090", "is_disabled": 0, "rental_uris": {"android": "https://dc.lft.to/lastmile_qr_scan", "ios": "https://dc.lft.to/lastmile_qr_scan"}, "fusion_lon": 0.0, "lat": 38.91177483333333, "bike_id": "3aaadab109eae30c21b242a28a720090", "type": "electric_bike", "is_reserved": 0, "lon": -77.002843}, {"fusion_lat": 0.0, "name": "e27705399719362c6f67560cee347773", "is_disabled": 0, "rental_uris": {"android": "https://dc.lft.to/lastmile_qr_scan", "ios": "https://dc.lft.to/lastmile_qr_scan"}, "fusion_lon": 0.0, "lat": 38.9317045, "bike_id": "e27705399719362c6f67560cee347773", "type": "electric_scooter", "is_reserved": 0, "lon": -77.04289283333334}, {"fusion_lat": 0.0, "name": "8a8f21322b2487cc5de1a4eafbc43a6c", "is_disabled": 0, "rental_uris": {"android": "https://dc.lft.to/lastmile_qr_scan", "ios": "https://dc.lft.to/lastmile_qr_scan"}, "fusion_lon": 0.0, "lat": 38.896359833333335, "bike_id": "8a8f21322b2487cc5de1a4eafbc43a6c", "type": "electric_scooter", "is_reserved": 0, "lon": -77.04650566666666}, {"fusion_lat": 0.0, "name": "e4eb4d8aec0d0d1e78fb538f5563ea68", "is_disabled": 0, "rental_uris": {"android": "https://dc.lft.to/lastmile_qr_scan", "ios": "https://dc.lft.to/lastmile_qr_scan"}, "fusion_lon": 0.0, "lat": 38.8922535, "bike_id": "e4eb4d8aec0d0d1e78fb538f5563ea68", "type": "electric_scooter", "is_reserved": 0, "lon": -77.04328266666667}, {"fusion_lat": 0.0, "name": "ac1f7ab6f5d8ffb8caea384dab0331ff", "is_disabled": 0, "rental_uris": {"android": "https://dc.lft.to/lastmile_qr_scan", "ios": "https://dc.lft.to/lastmile_qr_scan"}, "fusion_lon": 0.0, "lat": 38.902982333333334, "bike_id": "ac1f7ab6f5d8ffb8caea384dab0331ff", "type": "electric_scooter", "is_reserved": 0, "lon": -77.06510983333334}, {"fusion_lat": 0.0, "name": "df54d4c590cedb68b1188d3650d3a136", "is_disabled": 0, "rental_uris": {"android": "https://dc.lft.to/lastmile_qr_scan", "ios": "https://dc.lft.to/lastmile_qr_scan"}, "fusion_lon": 0.0, "lat": 38.905621, "bike_id": "df54d4c590cedb68b1188d3650d3a136", "type": "electric_scooter", "is_reserved": 0, "lon": -77.01310683333334}, {"fusion_lat": 0.0, "name": "a92a355c323f932cd59d83eff7ab51dd", "is_disabled": 0, "rental_uris": {"android": "https://dc.lft.to/lastmile_qr_scan", "ios": "https://dc.lft.to/lastmile_qr_scan"}, "fusion_lon": 0.0, "lat": 38.899792166666664, "bike_id": "a92a355c323f932cd59d83eff7ab51dd", "type": "electric_scooter", "is_reserved": 0, "lon": -77.01905366666666}, {"fusion_lat": 0.0, "name": "07e37bd0e7319295983b93ab357d5186", "is_disabled": 0, "rental_uris": {"android": "https://dc.lft.to/lastmile_qr_scan", "ios": "https://dc.lft.to/lastmile_qr_scan"}, "fusion_lon": 0.0, "lat": 38.940858166666665, "bike_id": "07e37bd0e7319295983b93ab357d5186", "type": "electric_scooter", "is_reserved": 0, "lon": -77.0617975}, {"fusion_lat": 0.0, "name": "b23101bbd3f8b4af81f5a5457f016bb5", "is_disabled": 0, "rental_uris": {"android": "https://dc.lft.to/lastmile_qr_scan", "ios": "https://dc.lft.to/lastmile_qr_scan"}, "fusion_lon": 0.0, "lat": 38.916910333333334, "bike_id": "b23101bbd3f8b4af81f5a5457f016bb5", "type": "electric_scooter", "is_reserved": 0, "lon": -77.02826133333333}, {"fusion_lat": 0.0, "name": "7b68918fa018a6a674ca2147541edcec", "is_disabled": 0, "rental_uris": {"android": "https://dc.lft.to/lastmile_qr_scan", "ios": "https://dc.lft.to/lastmile_qr_scan"}, "fusion_lon": 0.0, "lat": 38.8838935, "bike_id": "7b68918fa018a6a674ca2147541edcec", "type": "electric_scooter", "is_reserved": 0, "lon": -76.93048183333333}, {"fusion_lat": 0.0, "name": "ea731444252c826597bad513f5fb1f6d", "is_disabled": 0, "rental_uris": {"android": "https://dc.lft.to/lastmile_qr_scan", "ios": "https://dc.lft.to/lastmile_qr_scan"}, "fusion_lon": 0.0, "lat": 38.913952, "bike_id": "ea731444252c826597bad513f5fb1f6d", "type": "electric_scooter", "is_reserved": 0, "lon": -77.036302}, {"fusion_lat": 0.0, "name": "6da9c34115130309b2446957883d46f5", "is_disabled": 0, "rental_uris": {"android": "https://dc.lft.to/lastmile_qr_scan", "ios": "https://dc.lft.to/lastmile_qr_scan"}, "fusion_lon": 0.0, "lat": 38.9231335, "bike_id": "6da9c34115130309b2446957883d46f5", "type": "electric_scooter", "is_reserved": 0, "lon": -77.04399233333334}, {"fusion_lat": 0.0, "name": "ed339270dab9a479a63d487acc329b1b", "is_disabled": 0, "rental_uris": {"android": "https://dc.lft.to/lastmile_qr_scan", "ios": "https://dc.lft.to/lastmile_qr_scan"}, "fusion_lon": 0.0, "lat": 38.9489625, "bike_id": "ed339270dab9a479a63d487acc329b1b", "type": "electric_bike", "is_reserved": 0, "lon": -76.96374516666667}, {"fusion_lat": 0.0, "name": "7ddb41f5ca44b86ddd725c6b3e292b64", "is_disabled": 0, "rental_uris": {"android": "https://dc.lft.to/lastmile_qr_scan", "ios": "https://dc.lft.to/lastmile_qr_scan"}, "fusion_lon": 0.0, "lat": 38.930662166666664, "bike_id": "7ddb41f5ca44b86ddd725c6b3e292b64", "type": "electric_scooter", "is_reserved": 0, "lon": -77.02322183333334}, {"fusion_lat": 0.0, "name": "736109a2c9ddff8adca9836ee6c35397", "is_disabled": 0, "rental_uris": {"android": "https://dc.lft.to/lastmile_qr_scan", "ios": "https://dc.lft.to/lastmile_qr_scan"}, "fusion_lon": 0.0, "lat": 38.9127385, "bike_id": "736109a2c9ddff8adca9836ee6c35397", "type": "electric_scooter", "is_reserved": 0, "lon": -77.03177016666666}, {"fusion_lat": 0.0, "name": "54053a2c39a64484ed7fdf91491345da", "is_disabled": 0, "rental_uris": {"android": "https://dc.lft.to/lastmile_qr_scan", "ios": "https://dc.lft.to/lastmile_qr_scan"}, "fusion_lon": 0.0, "lat": 38.916956166666665, "bike_id": "54053a2c39a64484ed7fdf91491345da", "type": "electric_scooter", "is_reserved": 0, "lon": -77.0343995}, {"fusion_lat": 0.0, "name": "a1e31db34cdf043fa45f346c88505836", "is_disabled": 0, "rental_uris": {"android": "https://dc.lft.to/lastmile_qr_scan", "ios": "https://dc.lft.to/lastmile_qr_scan"}, "fusion_lon": 0.0, "lat": 38.876412, "bike_id": "a1e31db34cdf043fa45f346c88505836", "type": "electric_scooter", "is_reserved": 0, "lon": -77.0072625}, {"fusion_lat": 0.0, "name": "3364720f899d29acc8985818a47a441c", "is_disabled": 0, "rental_uris": {"android": "https://dc.lft.to/lastmile_qr_scan", "ios": "https://dc.lft.to/lastmile_qr_scan"}, "fusion_lon": 0.0, "lat": 38.902924166666665, "bike_id": "3364720f899d29acc8985818a47a441c", "type": "electric_scooter", "is_reserved": 0, "lon": -77.02314033333333}, {"fusion_lat": 0.0, "name": "20a03df7393357eaf334ae55a36ab97f", "is_disabled": 0, "rental_uris": {"android": "https://dc.lft.to/lastmile_qr_scan", "ios": "https://dc.lft.to/lastmile_qr_scan"}, "fusion_lon": 0.0, "lat": 38.8876345, "bike_id": "20a03df7393357eaf334ae55a36ab97f", "type": "electric_scooter", "is_reserved": 0, "lon": -76.9775205}, {"fusion_lat": 0.0, "name": "3f727d87da37062d5ac92c04b037b899", "is_disabled": 0, "rental_uris": {"android": "https://dc.lft.to/lastmile_qr_scan", "ios": "https://dc.lft.to/lastmile_qr_scan"}, "fusion_lon": 0.0, "lat": 38.91300733333333, "bike_id": "3f727d87da37062d5ac92c04b037b899", "type": "electric_scooter", "is_reserved": 0, "lon": -76.9846995}, {"fusion_lat": 0.0, "name": "9d7a2155291a69b7cabb4e2a0e8c6cd7", "is_disabled": 0, "rental_uris": {"android": "https://dc.lft.to/lastmile_qr_scan", "ios": "https://dc.lft.to/lastmile_qr_scan"}, "fusion_lon": 0.0, "lat": 38.91878833333333, "bike_id": "9d7a2155291a69b7cabb4e2a0e8c6cd7", "type": "electric_scooter", "is_reserved": 0, "lon": -77.0431015}, {"fusion_lat": 0.0, "name": "dc20bf03ff6715ccb865c4fc54a0a5d7", "is_disabled": 0, "rental_uris": {"android": "https://dc.lft.to/lastmile_qr_scan", "ios": "https://dc.lft.to/lastmile_qr_scan"}, "fusion_lon": 0.0, "lat": 38.912707166666664, "bike_id": "dc20bf03ff6715ccb865c4fc54a0a5d7", "type": "electric_scooter", "is_reserved": 0, "lon": -77.04838583333333}, {"fusion_lat": 0.0, "name": "1f75de13335a9019973e4f349ce3093e", "is_disabled": 0, "rental_uris": {"android": "https://dc.lft.to/lastmile_qr_scan", "ios": "https://dc.lft.to/lastmile_qr_scan"}, "fusion_lon": 0.0, "lat": 38.90009383333334, "bike_id": "1f75de13335a9019973e4f349ce3093e", "type": "electric_scooter", "is_reserved": 0, "lon": -77.0070485}, {"fusion_lat": 0.0, "name": "f9742c452ca3f9f831f428137409e5c2", "is_disabled": 0, "rental_uris": {"android": "https://dc.lft.to/lastmile_qr_scan", "ios": "https://dc.lft.to/lastmile_qr_scan"}, "fusion_lon": 0.0, "lat": 38.96163883333333, "bike_id": "f9742c452ca3f9f831f428137409e5c2", "type": "electric_scooter", "is_reserved": 0, "lon": -77.07352033333333}, {"fusion_lat": 0.0, "name": "51eb9d83950f2608197cd538839b9eb2", "is_disabled": 0, "rental_uris": {"android": "https://dc.lft.to/lastmile_qr_scan", "ios": "https://dc.lft.to/lastmile_qr_scan"}, "fusion_lon": 0.0, "lat": 38.893620166666665, "bike_id": "51eb9d83950f2608197cd538839b9eb2", "type": "electric_scooter", "is_reserved": 0, "lon": -76.92592783333333}, {"fusion_lat": 0.0, "name": "ae6e8b2ca60b709cfce3577035a18bad", "is_disabled": 0, "rental_uris": {"android": "https://dc.lft.to/lastmile_qr_scan", "ios": "https://dc.lft.to/lastmile_qr_scan"}, "fusion_lon": 0.0, "lat": 38.9231055, "bike_id": "ae6e8b2ca60b709cfce3577035a18bad", "type": "electric_scooter", "is_reserved": 0, "lon": -77.0411355}, {"fusion_lat": 0.0, "name": "794e6ba885cd907fb325cc6275d3b6a0", "is_disabled": 0, "rental_uris": {"android": "https://dc.lft.to/lastmile_qr_scan", "ios": "https://dc.lft.to/lastmile_qr_scan"}, "fusion_lon": 0.0, "lat": 38.909571166666666, "bike_id": "794e6ba885cd907fb325cc6275d3b6a0", "type": "electric_scooter", "is_reserved": 0, "lon": -76.9854125}, {"fusion_lat": 0.0, "name": "819eb0aa125a6596ac789310a0047c6b", "is_disabled": 0, "rental_uris": {"android": "https://dc.lft.to/lastmile_qr_scan", "ios": "https://dc.lft.to/lastmile_qr_scan"}, "fusion_lon": 0.0, "lat": 38.91698733333333, "bike_id": "819eb0aa125a6596ac789310a0047c6b", "type": "electric_scooter", "is_reserved": 0, "lon": -77.04217516666667}, {"fusion_lat": 0.0, "name": "4592256ee74e9e424c82aad9e75428a1", "is_disabled": 0, "rental_uris": {"android": "https://dc.lft.to/lastmile_qr_scan", "ios": "https://dc.lft.to/lastmile_qr_scan"}, "fusion_lon": 0.0, "lat": 38.905204166666664, "bike_id": "4592256ee74e9e424c82aad9e75428a1", "type": "electric_scooter", "is_reserved": 0, "lon": -77.06106666666666}, {"fusion_lat": 0.0, "name": "256cf79f17a5972adfb3d5c23bb99565", "is_disabled": 0, "rental_uris": {"android": "https://dc.lft.to/lastmile_qr_scan", "ios": "https://dc.lft.to/lastmile_qr_scan"}, "fusion_lon": 0.0, "lat": 38.86515816666667, "bike_id": "256cf79f17a5972adfb3d5c23bb99565", "type": "electric_bike", "is_reserved": 0, "lon": -77.12936183333333}, {"fusion_lat": 0.0, "name": "6e52edc9817fb03a65d9454d34ffefb3", "is_disabled": 0, "rental_uris": {"android": "https://dc.lft.to/lastmile_qr_scan", "ios": "https://dc.lft.to/lastmile_qr_scan"}, "fusion_lon": 0.0, "lat": 38.92360866666667, "bike_id": "6e52edc9817fb03a65d9454d34ffefb3", "type": "electric_scooter", "is_reserved": 0, "lon": -77.05052716666667}, {"fusion_lat": 0.0, "name": "6a9a5e5bab6d6c77023f1733a3790877", "is_disabled": 0, "rental_uris": {"android": "https://dc.lft.to/lastmile_qr_scan", "ios": "https://dc.lft.to/lastmile_qr_scan"}, "fusion_lon": 0.0, "lat": 38.82459033333333, "bike_id": "6a9a5e5bab6d6c77023f1733a3790877", "type": "electric_bike", "is_reserved": 0, "lon": -77.00792283333334}, {"fusion_lat": 0.0, "name": "3f3414595243bfd84680aa51a367857e", "is_disabled": 0, "rental_uris": {"android": "https://dc.lft.to/lastmile_qr_scan", "ios": "https://dc.lft.to/lastmile_qr_scan"}, "fusion_lon": 0.0, "lat": 38.90799333333333, "bike_id": "3f3414595243bfd84680aa51a367857e", "type": "electric_bike", "is_reserved": 0, "lon": -76.99700083333333}, {"fusion_lat": 0.0, "name": "36ede1f441f70c553604a96c71c0f47b", "is_disabled": 0, "rental_uris": {"android": "https://dc.lft.to/lastmile_qr_scan", "ios": "https://dc.lft.to/lastmile_qr_scan"}, "fusion_lon": 0.0, "lat": 38.905761166666665, "bike_id": "36ede1f441f70c553604a96c71c0f47b", "type": "electric_scooter", "is_reserved": 0, "lon": -77.0407645}, {"fusion_lat": 0.0, "name": "7764d25d8f68922f1e45937b32f88e6b", "is_disabled": 0, "rental_uris": {"android": "https://dc.lft.to/lastmile_qr_scan", "ios": "https://dc.lft.to/lastmile_qr_scan"}, "fusion_lon": 0.0, "lat": 39.00369416666667, "bike_id": "7764d25d8f68922f1e45937b32f88e6b", "type": "electric_bike", "is_reserved": 0, "lon": -77.012973}, {"fusion_lat": 0.0, "name": "12871ca3f0aea852e05705ef3fcd78f8", "is_disabled": 0, "rental_uris": {"android": "https://dc.lft.to/lastmile_qr_scan", "ios": "https://dc.lft.to/lastmile_qr_scan"}, "fusion_lon": 0.0, "lat": 38.899812833333336, "bike_id": "12871ca3f0aea852e05705ef3fcd78f8", "type": "electric_scooter", "is_reserved": 0, "lon": -77.019591}, {"fusion_lat": 0.0, "name": "5014cd75b62c7083d7da37cf2175e7da", "is_disabled": 0, "rental_uris": {"android": "https://dc.lft.to/lastmile_qr_scan", "ios": "https://dc.lft.to/lastmile_qr_scan"}, "fusion_lon": 0.0, "lat": 38.88473066666667, "bike_id": "5014cd75b62c7083d7da37cf2175e7da", "type": "electric_scooter", "is_reserved": 0, "lon": -77.01530633333333}, {"fusion_lat": 0.0, "name": "c360eb0ef307c170807d09d78b653f26", "is_disabled": 0, "rental_uris": {"android": "https://dc.lft.to/lastmile_qr_scan", "ios": "https://dc.lft.to/lastmile_qr_scan"}, "fusion_lon": 0.0, "lat": 38.8830205, "bike_id": "c360eb0ef307c170807d09d78b653f26", "type": "electric_scooter", "is_reserved": 0, "lon": -77.01681833333333}, {"fusion_lat": 0.0, "name": "5f03b5e0e7201adfe34c8d7a5347b20a", "is_disabled": 0, "rental_uris": {"android": "https://dc.lft.to/lastmile_qr_scan", "ios": "https://dc.lft.to/lastmile_qr_scan"}, "fusion_lon": 0.0, "lat": 38.931876, "bike_id": "5f03b5e0e7201adfe34c8d7a5347b20a", "type": "electric_scooter", "is_reserved": 0, "lon": -77.07324316666667}, {"fusion_lat": 0.0, "name": "8b816e3a940f8dd7e3a2ef039fe1649f", "is_disabled": 0, "rental_uris": {"android": "https://dc.lft.to/lastmile_qr_scan", "ios": "https://dc.lft.to/lastmile_qr_scan"}, "fusion_lon": 0.0, "lat": 38.92376133333333, "bike_id": "8b816e3a940f8dd7e3a2ef039fe1649f", "type": "electric_scooter", "is_reserved": 0, "lon": -77.01905033333334}, {"fusion_lat": 0.0, "name": "6be0558c6c24c749ab8b94c6f939a36b", "is_disabled": 0, "rental_uris": {"android": "https://dc.lft.to/lastmile_qr_scan", "ios": "https://dc.lft.to/lastmile_qr_scan"}, "fusion_lon": 0.0, "lat": 38.88494383333333, "bike_id": "6be0558c6c24c749ab8b94c6f939a36b", "type": "electric_scooter", "is_reserved": 0, "lon": -77.010853}, {"fusion_lat": 0.0, "name": "8a0fafcc66811080e2a4be540f1e50dd", "is_disabled": 0, "rental_uris": {"android": "https://dc.lft.to/lastmile_qr_scan", "ios": "https://dc.lft.to/lastmile_qr_scan"}, "fusion_lon": 0.0, "lat": 38.904941666666666, "bike_id": "8a0fafcc66811080e2a4be540f1e50dd", "type": "electric_scooter", "is_reserved": 0, "lon": -77.04356716666666}, {"fusion_lat": 0.0, "name": "d482e2662f349aca9fd483f816bb778d", "is_disabled": 0, "rental_uris": {"android": "https://dc.lft.to/lastmile_qr_scan", "ios": "https://dc.lft.to/lastmile_qr_scan"}, "fusion_lon": 0.0, "lat": 38.92370483333333, "bike_id": "d482e2662f349aca9fd483f816bb778d", "type": "electric_scooter", "is_reserved": 0, "lon": -77.05029916666666}, {"fusion_lat": 0.0, "name": "e4e94e130bbcc529498279c6c62d0361", "is_disabled": 0, "rental_uris": {"android": "https://dc.lft.to/lastmile_qr_scan", "ios": "https://dc.lft.to/lastmile_qr_scan"}, "fusion_lon": 0.0, "lat": 38.93512033333333, "bike_id": "e4e94e130bbcc529498279c6c62d0361", "type": "electric_scooter", "is_reserved": 0, "lon": -77.02410116666667}, {"fusion_lat": 0.0, "name": "98c76563959ad60aebb32d2f20e4e165", "is_disabled": 0, "rental_uris": {"android": "https://dc.lft.to/lastmile_qr_scan", "ios": "https://dc.lft.to/lastmile_qr_scan"}, "fusion_lon": 0.0, "lat": 38.90034, "bike_id": "98c76563959ad60aebb32d2f20e4e165", "type": "electric_scooter", "is_reserved": 0, "lon": -77.03467666666667}, {"fusion_lat": 0.0, "name": "8fe981e82338064fa03696eaf3b1c30c", "is_disabled": 0, "rental_uris": {"android": "https://dc.lft.to/lastmile_qr_scan", "ios": "https://dc.lft.to/lastmile_qr_scan"}, "fusion_lon": 0.0, "lat": 38.92259966666667, "bike_id": "8fe981e82338064fa03696eaf3b1c30c", "type": "electric_scooter", "is_reserved": 0, "lon": -77.00918233333333}, {"fusion_lat": 0.0, "name": "b55afee36bdd44dcd95007ebf0ac9dad", "is_disabled": 0, "rental_uris": {"android": "https://dc.lft.to/lastmile_qr_scan", "ios": "https://dc.lft.to/lastmile_qr_scan"}, "fusion_lon": 0.0, "lat": 38.9115595, "bike_id": "b55afee36bdd44dcd95007ebf0ac9dad", "type": "electric_scooter", "is_reserved": 0, "lon": -77.00470066666666}, {"fusion_lat": 0.0, "name": "4ee251435eccb9f8ca58277ea9e16c13", "is_disabled": 0, "rental_uris": {"android": "https://dc.lft.to/lastmile_qr_scan", "ios": "https://dc.lft.to/lastmile_qr_scan"}, "fusion_lon": 0.0, "lat": 38.91449, "bike_id": "4ee251435eccb9f8ca58277ea9e16c13", "type": "electric_scooter", "is_reserved": 0, "lon": -76.98820166666667}, {"fusion_lat": 0.0, "name": "32fc737beb9ec476a24617f70174c253", "is_disabled": 0, "rental_uris": {"android": "https://dc.lft.to/lastmile_qr_scan", "ios": "https://dc.lft.to/lastmile_qr_scan"}, "fusion_lon": 0.0, "lat": 38.831617, "bike_id": "32fc737beb9ec476a24617f70174c253", "type": "electric_bike", "is_reserved": 0, "lon": -76.995455}, {"fusion_lat": 0.0, "name": "a19d0ae07e6af573e16aec51f465c848", "is_disabled": 0, "rental_uris": {"android": "https://dc.lft.to/lastmile_qr_scan", "ios": "https://dc.lft.to/lastmile_qr_scan"}, "fusion_lon": 0.0, "lat": 38.90027516666667, "bike_id": "a19d0ae07e6af573e16aec51f465c848", "type": "electric_scooter", "is_reserved": 0, "lon": -77.0117725}, {"fusion_lat": 0.0, "name": "f57dae17f8b18239071d283c8cd0e710", "is_disabled": 0, "rental_uris": {"android": "https://dc.lft.to/lastmile_qr_scan", "ios": "https://dc.lft.to/lastmile_qr_scan"}, "fusion_lon": 0.0, "lat": 38.938597333333334, "bike_id": "f57dae17f8b18239071d283c8cd0e710", "type": "electric_scooter", "is_reserved": 0, "lon": -77.02553566666667}, {"fusion_lat": 0.0, "name": "7ed4cdd254ed86f8d04bfda48ae44d4d", "is_disabled": 0, "rental_uris": {"android": "https://dc.lft.to/lastmile_qr_scan", "ios": "https://dc.lft.to/lastmile_qr_scan"}, "fusion_lon": 0.0, "lat": 38.89241166666667, "bike_id": "7ed4cdd254ed86f8d04bfda48ae44d4d", "type": "electric_scooter", "is_reserved": 0, "lon": -77.03142483333333}, {"fusion_lat": 0.0, "name": "2d2b340092d72b6e89a195bbbb9f922f", "is_disabled": 0, "rental_uris": {"android": "https://dc.lft.to/lastmile_qr_scan", "ios": "https://dc.lft.to/lastmile_qr_scan"}, "fusion_lon": 0.0, "lat": 38.9003855, "bike_id": "2d2b340092d72b6e89a195bbbb9f922f", "type": "electric_bike", "is_reserved": 0, "lon": -76.972253}, {"fusion_lat": 0.0, "name": "7dd857f6e102b5ded12fafeb227a9c33", "is_disabled": 0, "rental_uris": {"android": "https://dc.lft.to/lastmile_qr_scan", "ios": "https://dc.lft.to/lastmile_qr_scan"}, "fusion_lon": 0.0, "lat": 38.8771525, "bike_id": "7dd857f6e102b5ded12fafeb227a9c33", "type": "electric_scooter", "is_reserved": 0, "lon": -77.0042135}, {"fusion_lat": 0.0, "name": "a1988849f32a76a031afddaa7bfaefd2", "is_disabled": 0, "rental_uris": {"android": "https://dc.lft.to/lastmile_qr_scan", "ios": "https://dc.lft.to/lastmile_qr_scan"}, "fusion_lon": 0.0, "lat": 38.910393166666665, "bike_id": "a1988849f32a76a031afddaa7bfaefd2", "type": "electric_scooter", "is_reserved": 0, "lon": -77.04229783333334}, {"fusion_lat": 0.0, "name": "1833e333ce4c8c689510f3af3a3b8900", "is_disabled": 0, "rental_uris": {"android": "https://dc.lft.to/lastmile_qr_scan", "ios": "https://dc.lft.to/lastmile_qr_scan"}, "fusion_lon": 0.0, "lat": 38.9057155, "bike_id": "1833e333ce4c8c689510f3af3a3b8900", "type": "electric_scooter", "is_reserved": 0, "lon": -77.04357216666666}, {"fusion_lat": 0.0, "name": "46139caddbc0fdc5ff90d88c83cbec40", "is_disabled": 0, "rental_uris": {"android": "https://dc.lft.to/lastmile_qr_scan", "ios": "https://dc.lft.to/lastmile_qr_scan"}, "fusion_lon": 0.0, "lat": 38.92079916666667, "bike_id": "46139caddbc0fdc5ff90d88c83cbec40", "type": "electric_bike", "is_reserved": 0, "lon": -76.98946533333333}, {"fusion_lat": 0.0, "name": "38887d57b31e21240f1b4c4eb9d95498", "is_disabled": 0, "rental_uris": {"android": "https://dc.lft.to/lastmile_qr_scan", "ios": "https://dc.lft.to/lastmile_qr_scan"}, "fusion_lon": 0.0, "lat": 38.895269166666665, "bike_id": "38887d57b31e21240f1b4c4eb9d95498", "type": "electric_scooter", "is_reserved": 0, "lon": -77.00334533333333}, {"fusion_lat": 0.0, "name": "338d43f44aa8085f1db4dccca0de0ef6", "is_disabled": 0, "rental_uris": {"android": "https://dc.lft.to/lastmile_qr_scan", "ios": "https://dc.lft.to/lastmile_qr_scan"}, "fusion_lon": 0.0, "lat": 38.9171325, "bike_id": "338d43f44aa8085f1db4dccca0de0ef6", "type": "electric_scooter", "is_reserved": 0, "lon": -77.011061}, {"fusion_lat": 0.0, "name": "d4581a1d758febfec71640f104e4b87e", "is_disabled": 0, "rental_uris": {"android": "https://dc.lft.to/lastmile_qr_scan", "ios": "https://dc.lft.to/lastmile_qr_scan"}, "fusion_lon": 0.0, "lat": 38.895556666666664, "bike_id": "d4581a1d758febfec71640f104e4b87e", "type": "electric_scooter", "is_reserved": 0, "lon": -76.99840383333333}, {"fusion_lat": 0.0, "name": "0cbd42946df58afba2f4154fb017160a", "is_disabled": 0, "rental_uris": {"android": "https://dc.lft.to/lastmile_qr_scan", "ios": "https://dc.lft.to/lastmile_qr_scan"}, "fusion_lon": 0.0, "lat": 38.87460216666667, "bike_id": "0cbd42946df58afba2f4154fb017160a", "type": "electric_scooter", "is_reserved": 0, "lon": -77.00965633333334}, {"fusion_lat": 0.0, "name": "fa0e1242011d213916ca487e1299fb2a", "is_disabled": 0, "rental_uris": {"android": "https://dc.lft.to/lastmile_qr_scan", "ios": "https://dc.lft.to/lastmile_qr_scan"}, "fusion_lon": 0.0, "lat": 38.985049333333336, "bike_id": "fa0e1242011d213916ca487e1299fb2a", "type": "electric_bike", "is_reserved": 0, "lon": -76.9819915}, {"fusion_lat": 0.0, "name": "2ad600b358cf1f6d0d50586ff39b1244", "is_disabled": 0, "rental_uris": {"android": "https://dc.lft.to/lastmile_qr_scan", "ios": "https://dc.lft.to/lastmile_qr_scan"}, "fusion_lon": 0.0, "lat": 38.8840475, "bike_id": "2ad600b358cf1f6d0d50586ff39b1244", "type": "electric_scooter", "is_reserved": 0, "lon": -76.98589583333333}, {"fusion_lat": 0.0, "name": "6f52f82e08a77d5a4f23ca3103c279f4", "is_disabled": 0, "rental_uris": {"android": "https://dc.lft.to/lastmile_qr_scan", "ios": "https://dc.lft.to/lastmile_qr_scan"}, "fusion_lon": 0.0, "lat": 38.884953333333335, "bike_id": "6f52f82e08a77d5a4f23ca3103c279f4", "type": "electric_scooter", "is_reserved": 0, "lon": -77.00727983333333}, {"fusion_lat": 0.0, "name": "25620ca58594ca8e2265a8b02a6bec2e", "is_disabled": 0, "rental_uris": {"android": "https://dc.lft.to/lastmile_qr_scan", "ios": "https://dc.lft.to/lastmile_qr_scan"}, "fusion_lon": 0.0, "lat": 38.860670666666664, "bike_id": "25620ca58594ca8e2265a8b02a6bec2e", "type": "electric_scooter", "is_reserved": 0, "lon": -76.98499333333334}, {"fusion_lat": 0.0, "name": "9bfa6881d12b146fad0f6d87761f2c75", "is_disabled": 0, "rental_uris": {"android": "https://dc.lft.to/lastmile_qr_scan", "ios": "https://dc.lft.to/lastmile_qr_scan"}, "fusion_lon": 0.0, "lat": 38.902391333333334, "bike_id": "9bfa6881d12b146fad0f6d87761f2c75", "type": "electric_scooter", "is_reserved": 0, "lon": -77.00198783333333}, {"fusion_lat": 0.0, "name": "915db9c068b8571c68a8d18cb68e649f", "is_disabled": 0, "rental_uris": {"android": "https://dc.lft.to/lastmile_qr_scan", "ios": "https://dc.lft.to/lastmile_qr_scan"}, "fusion_lon": 0.0, "lat": 38.884853, "bike_id": "915db9c068b8571c68a8d18cb68e649f", "type": "electric_scooter", "is_reserved": 0, "lon": -77.00711516666667}, {"fusion_lat": 0.0, "name": "d5d320cb34c5b613c077203761eba21c", "is_disabled": 0, "rental_uris": {"android": "https://dc.lft.to/lastmile_qr_scan", "ios": "https://dc.lft.to/lastmile_qr_scan"}, "fusion_lon": 0.0, "lat": 38.92214583333333, "bike_id": "d5d320cb34c5b613c077203761eba21c", "type": "electric_scooter", "is_reserved": 0, "lon": -77.04124733333333}, {"fusion_lat": 0.0, "name": "43faa3cbb45d77d4511d4c30abdded9e", "is_disabled": 0, "rental_uris": {"android": "https://dc.lft.to/lastmile_qr_scan", "ios": "https://dc.lft.to/lastmile_qr_scan"}, "fusion_lon": 0.0, "lat": 38.887482, "bike_id": "43faa3cbb45d77d4511d4c30abdded9e", "type": "electric_scooter", "is_reserved": 0, "lon": -77.017811}, {"fusion_lat": 0.0, "name": "c3802b531d741d1eab90b185b3f2c7ab", "is_disabled": 0, "rental_uris": {"android": "https://dc.lft.to/lastmile_qr_scan", "ios": "https://dc.lft.to/lastmile_qr_scan"}, "fusion_lon": 0.0, "lat": 38.88522666666667, "bike_id": "c3802b531d741d1eab90b185b3f2c7ab", "type": "electric_scooter", "is_reserved": 0, "lon": -77.0149735}, {"fusion_lat": 0.0, "name": "6307bb6af8c269170a70d5e7f9334a5d", "is_disabled": 0, "rental_uris": {"android": "https://dc.lft.to/lastmile_qr_scan", "ios": "https://dc.lft.to/lastmile_qr_scan"}, "fusion_lon": 0.0, "lat": 38.91432983333333, "bike_id": "6307bb6af8c269170a70d5e7f9334a5d", "type": "electric_scooter", "is_reserved": 0, "lon": -77.06418033333334}, {"fusion_lat": 0.0, "name": "4566268a47f1387fa67149fc5b353da0", "is_disabled": 0, "rental_uris": {"android": "https://dc.lft.to/lastmile_qr_scan", "ios": "https://dc.lft.to/lastmile_qr_scan"}, "fusion_lon": 0.0, "lat": 38.883777333333335, "bike_id": "4566268a47f1387fa67149fc5b353da0", "type": "electric_scooter", "is_reserved": 0, "lon": -77.0264}, {"fusion_lat": 0.0, "name": "894cca6d61f8e819adf7e8fb94be9cbd", "is_disabled": 0, "rental_uris": {"android": "https://dc.lft.to/lastmile_qr_scan", "ios": "https://dc.lft.to/lastmile_qr_scan"}, "fusion_lon": 0.0, "lat": 38.917082, "bike_id": "894cca6d61f8e819adf7e8fb94be9cbd", "type": "electric_scooter", "is_reserved": 0, "lon": -77.041237}, {"fusion_lat": 0.0, "name": "ec157c8ea3d3d70f78d02f01be7f3a51", "is_disabled": 0, "rental_uris": {"android": "https://dc.lft.to/lastmile_qr_scan", "ios": "https://dc.lft.to/lastmile_qr_scan"}, "fusion_lon": 0.0, "lat": 38.8988835, "bike_id": "ec157c8ea3d3d70f78d02f01be7f3a51", "type": "electric_scooter", "is_reserved": 0, "lon": -77.027185}, {"fusion_lat": 0.0, "name": "f2d8c0a8d0b93dd0229704d61ad72588", "is_disabled": 0, "rental_uris": {"android": "https://dc.lft.to/lastmile_qr_scan", "ios": "https://dc.lft.to/lastmile_qr_scan"}, "fusion_lon": 0.0, "lat": 38.8872265, "bike_id": "f2d8c0a8d0b93dd0229704d61ad72588", "type": "electric_scooter", "is_reserved": 0, "lon": -77.01330816666666}, {"fusion_lat": 0.0, "name": "d2c11ef2914e1665ac03307bea932fb8", "is_disabled": 0, "rental_uris": {"android": "https://dc.lft.to/lastmile_qr_scan", "ios": "https://dc.lft.to/lastmile_qr_scan"}, "fusion_lon": 0.0, "lat": 38.9225185, "bike_id": "d2c11ef2914e1665ac03307bea932fb8", "type": "electric_scooter", "is_reserved": 0, "lon": -77.02995633333333}, {"fusion_lat": 0.0, "name": "851a85771d72518081d3b7d0f4051842", "is_disabled": 0, "rental_uris": {"android": "https://dc.lft.to/lastmile_qr_scan", "ios": "https://dc.lft.to/lastmile_qr_scan"}, "fusion_lon": 0.0, "lat": 38.946607666666665, "bike_id": "851a85771d72518081d3b7d0f4051842", "type": "electric_bike", "is_reserved": 0, "lon": -77.00696033333334}, {"fusion_lat": 0.0, "name": "13e95886272c68f1fe910cf1205165a5", "is_disabled": 0, "rental_uris": {"android": "https://dc.lft.to/lastmile_qr_scan", "ios": "https://dc.lft.to/lastmile_qr_scan"}, "fusion_lon": 0.0, "lat": 38.93675966666667, "bike_id": "13e95886272c68f1fe910cf1205165a5", "type": "electric_scooter", "is_reserved": 0, "lon": -77.03587866666666}, {"fusion_lat": 0.0, "name": "5dd32e2ae29785fdabb1f35f41c8d2ce", "is_disabled": 0, "rental_uris": {"android": "https://dc.lft.to/lastmile_qr_scan", "ios": "https://dc.lft.to/lastmile_qr_scan"}, "fusion_lon": 0.0, "lat": 38.86506583333333, "bike_id": "5dd32e2ae29785fdabb1f35f41c8d2ce", "type": "electric_scooter", "is_reserved": 0, "lon": -76.9900535}, {"fusion_lat": 0.0, "name": "052cd89f5773dcf6095ddc4ba5901311", "is_disabled": 0, "rental_uris": {"android": "https://dc.lft.to/lastmile_qr_scan", "ios": "https://dc.lft.to/lastmile_qr_scan"}, "fusion_lon": 0.0, "lat": 38.996077166666666, "bike_id": "052cd89f5773dcf6095ddc4ba5901311", "type": "electric_bike", "is_reserved": 0, "lon": -77.07806083333334}, {"fusion_lat": 0.0, "name": "326805ed844f1b9f8765f4b478023895", "is_disabled": 0, "rental_uris": {"android": "https://dc.lft.to/lastmile_qr_scan", "ios": "https://dc.lft.to/lastmile_qr_scan"}, "fusion_lon": 0.0, "lat": 38.953808333333335, "bike_id": "326805ed844f1b9f8765f4b478023895", "type": "electric_scooter", "is_reserved": 0, "lon": -77.0256045}, {"fusion_lat": 0.0, "name": "b1332a7804e6167b808590544f33f765", "is_disabled": 0, "rental_uris": {"android": "https://dc.lft.to/lastmile_qr_scan", "ios": "https://dc.lft.to/lastmile_qr_scan"}, "fusion_lon": 0.0, "lat": 38.916943, "bike_id": "b1332a7804e6167b808590544f33f765", "type": "electric_scooter", "is_reserved": 0, "lon": -77.037666}, {"fusion_lat": 0.0, "name": "25727f5524250d966bfb985ee71a356c", "is_disabled": 0, "rental_uris": {"android": "https://dc.lft.to/lastmile_qr_scan", "ios": "https://dc.lft.to/lastmile_qr_scan"}, "fusion_lon": 0.0, "lat": 38.918138, "bike_id": "25727f5524250d966bfb985ee71a356c", "type": "electric_scooter", "is_reserved": 0, "lon": -77.02714016666667}, {"fusion_lat": 0.0, "name": "3f28a5ab7d64a6660de0b91e4f4561e1", "is_disabled": 0, "rental_uris": {"android": "https://dc.lft.to/lastmile_qr_scan", "ios": "https://dc.lft.to/lastmile_qr_scan"}, "fusion_lon": 0.0, "lat": 38.8835925, "bike_id": "3f28a5ab7d64a6660de0b91e4f4561e1", "type": "electric_scooter", "is_reserved": 0, "lon": -76.98218}, {"fusion_lat": 0.0, "name": "30b9c8ebe3a4145cbf85f5dbbe6d5b74", "is_disabled": 0, "rental_uris": {"android": "https://dc.lft.to/lastmile_qr_scan", "ios": "https://dc.lft.to/lastmile_qr_scan"}, "fusion_lon": 0.0, "lat": 38.91273016666667, "bike_id": "30b9c8ebe3a4145cbf85f5dbbe6d5b74", "type": "electric_scooter", "is_reserved": 0, "lon": -77.03145216666667}, {"fusion_lat": 0.0, "name": "f5b31e07284ccbe6277c27bca1935f28", "is_disabled": 0, "rental_uris": {"android": "https://dc.lft.to/lastmile_qr_scan", "ios": "https://dc.lft.to/lastmile_qr_scan"}, "fusion_lon": 0.0, "lat": 38.900366, "bike_id": "f5b31e07284ccbe6277c27bca1935f28", "type": "electric_scooter", "is_reserved": 0, "lon": -76.9986385}, {"fusion_lat": 0.0, "name": "1182d12e911486826940b9a2b9d9c3d0", "is_disabled": 0, "rental_uris": {"android": "https://dc.lft.to/lastmile_qr_scan", "ios": "https://dc.lft.to/lastmile_qr_scan"}, "fusion_lon": 0.0, "lat": 38.904952, "bike_id": "1182d12e911486826940b9a2b9d9c3d0", "type": "electric_bike", "is_reserved": 0, "lon": -76.9742045}, {"fusion_lat": 0.0, "name": "e556fd80f2846820858e5ef7a3d8e393", "is_disabled": 0, "rental_uris": {"android": "https://dc.lft.to/lastmile_qr_scan", "ios": "https://dc.lft.to/lastmile_qr_scan"}, "fusion_lon": 0.0, "lat": 38.86260866666667, "bike_id": "e556fd80f2846820858e5ef7a3d8e393", "type": "electric_bike", "is_reserved": 0, "lon": -76.98354933333333}, {"fusion_lat": 0.0, "name": "8d7b95d0d4352047e6bde43646129a11", "is_disabled": 0, "rental_uris": {"android": "https://dc.lft.to/lastmile_qr_scan", "ios": "https://dc.lft.to/lastmile_qr_scan"}, "fusion_lon": 0.0, "lat": 38.92476283333333, "bike_id": "8d7b95d0d4352047e6bde43646129a11", "type": "electric_scooter", "is_reserved": 0, "lon": -77.02752966666667}, {"fusion_lat": 0.0, "name": "ca8b8b3cdbdbef14de008bd79788c713", "is_disabled": 0, "rental_uris": {"android": "https://dc.lft.to/lastmile_qr_scan", "ios": "https://dc.lft.to/lastmile_qr_scan"}, "fusion_lon": 0.0, "lat": 38.84587116666667, "bike_id": "ca8b8b3cdbdbef14de008bd79788c713", "type": "electric_bike", "is_reserved": 0, "lon": -76.98167383333333}, {"fusion_lat": 0.0, "name": "d8f5e21ee3cb08d0ecd6fa7fb2977597", "is_disabled": 0, "rental_uris": {"android": "https://dc.lft.to/lastmile_qr_scan", "ios": "https://dc.lft.to/lastmile_qr_scan"}, "fusion_lon": 0.0, "lat": 38.90412, "bike_id": "d8f5e21ee3cb08d0ecd6fa7fb2977597", "type": "electric_scooter", "is_reserved": 0, "lon": -76.973302}, {"fusion_lat": 0.0, "name": "d899429e4796ea3045f39121c8994303", "is_disabled": 0, "rental_uris": {"android": "https://dc.lft.to/lastmile_qr_scan", "ios": "https://dc.lft.to/lastmile_qr_scan"}, "fusion_lon": 0.0, "lat": 38.89751033333334, "bike_id": "d899429e4796ea3045f39121c8994303", "type": "electric_scooter", "is_reserved": 0, "lon": -77.03043483333333}, {"fusion_lat": 0.0, "name": "38d83fd92f0a8184343742f023fc2ad9", "is_disabled": 0, "rental_uris": {"android": "https://dc.lft.to/lastmile_qr_scan", "ios": "https://dc.lft.to/lastmile_qr_scan"}, "fusion_lon": 0.0, "lat": 38.9121315, "bike_id": "38d83fd92f0a8184343742f023fc2ad9", "type": "electric_scooter", "is_reserved": 0, "lon": -77.03792}, {"fusion_lat": 0.0, "name": "54a22e78893997a509750c5039fc4378", "is_disabled": 0, "rental_uris": {"android": "https://dc.lft.to/lastmile_qr_scan", "ios": "https://dc.lft.to/lastmile_qr_scan"}, "fusion_lon": 0.0, "lat": 38.959291, "bike_id": "54a22e78893997a509750c5039fc4378", "type": "electric_scooter", "is_reserved": 0, "lon": -77.03111466666667}, {"fusion_lat": 0.0, "name": "23361251167403ec5877542a5fc72b38", "is_disabled": 0, "rental_uris": {"android": "https://dc.lft.to/lastmile_qr_scan", "ios": "https://dc.lft.to/lastmile_qr_scan"}, "fusion_lon": 0.0, "lat": 38.91825733333334, "bike_id": "23361251167403ec5877542a5fc72b38", "type": "electric_scooter", "is_reserved": 0, "lon": -77.04174183333333}, {"fusion_lat": 0.0, "name": "af12599a7ae06c6762b196cfe04f5562", "is_disabled": 0, "rental_uris": {"android": "https://dc.lft.to/lastmile_qr_scan", "ios": "https://dc.lft.to/lastmile_qr_scan"}, "fusion_lon": 0.0, "lat": 38.916996833333336, "bike_id": "af12599a7ae06c6762b196cfe04f5562", "type": "electric_scooter", "is_reserved": 0, "lon": -77.01166266666667}, {"fusion_lat": 0.0, "name": "5597aa82894ba0d20b2f3923b7d4e242", "is_disabled": 0, "rental_uris": {"android": "https://dc.lft.to/lastmile_qr_scan", "ios": "https://dc.lft.to/lastmile_qr_scan"}, "fusion_lon": 0.0, "lat": 38.9024755, "bike_id": "5597aa82894ba0d20b2f3923b7d4e242", "type": "electric_scooter", "is_reserved": 0, "lon": -77.01794616666666}, {"fusion_lat": 0.0, "name": "23ac8d21c257d04c29c59b722b0ba3ef", "is_disabled": 0, "rental_uris": {"android": "https://dc.lft.to/lastmile_qr_scan", "ios": "https://dc.lft.to/lastmile_qr_scan"}, "fusion_lon": 0.0, "lat": 38.936086833333334, "bike_id": "23ac8d21c257d04c29c59b722b0ba3ef", "type": "electric_scooter", "is_reserved": 0, "lon": -77.05859666666667}, {"fusion_lat": 0.0, "name": "41da0470c5f9777ef1c4cc9f4c8a93d3", "is_disabled": 0, "rental_uris": {"android": "https://dc.lft.to/lastmile_qr_scan", "ios": "https://dc.lft.to/lastmile_qr_scan"}, "fusion_lon": 0.0, "lat": 38.863996, "bike_id": "41da0470c5f9777ef1c4cc9f4c8a93d3", "type": "electric_scooter", "is_reserved": 0, "lon": -76.974446}, {"fusion_lat": 0.0, "name": "765ad3ea6ad96694866d26dc21a06363", "is_disabled": 0, "rental_uris": {"android": "https://dc.lft.to/lastmile_qr_scan", "ios": "https://dc.lft.to/lastmile_qr_scan"}, "fusion_lon": 0.0, "lat": 38.902673, "bike_id": "765ad3ea6ad96694866d26dc21a06363", "type": "electric_scooter", "is_reserved": 0, "lon": -77.0353395}, {"fusion_lat": 0.0, "name": "50927582f72c4d3a30ab53aaab204235", "is_disabled": 0, "rental_uris": {"android": "https://dc.lft.to/lastmile_qr_scan", "ios": "https://dc.lft.to/lastmile_qr_scan"}, "fusion_lon": 0.0, "lat": 38.8813385, "bike_id": "50927582f72c4d3a30ab53aaab204235", "type": "electric_scooter", "is_reserved": 0, "lon": -76.99619466666667}, {"fusion_lat": 0.0, "name": "a9c0aa42d16e4c68379b9603610ddf70", "is_disabled": 0, "rental_uris": {"android": "https://dc.lft.to/lastmile_qr_scan", "ios": "https://dc.lft.to/lastmile_qr_scan"}, "fusion_lon": 0.0, "lat": 38.89789916666667, "bike_id": "a9c0aa42d16e4c68379b9603610ddf70", "type": "electric_scooter", "is_reserved": 0, "lon": -76.9312365}, {"fusion_lat": 0.0, "name": "1f4b92220ff6a0a6103f1412d2349001", "is_disabled": 0, "rental_uris": {"android": "https://dc.lft.to/lastmile_qr_scan", "ios": "https://dc.lft.to/lastmile_qr_scan"}, "fusion_lon": 0.0, "lat": 38.897372, "bike_id": "1f4b92220ff6a0a6103f1412d2349001", "type": "electric_scooter", "is_reserved": 0, "lon": -77.0043325}, {"fusion_lat": 0.0, "name": "2b87ed5e20c248c371bb381b5f28e8df", "is_disabled": 0, "rental_uris": {"android": "https://dc.lft.to/lastmile_qr_scan", "ios": "https://dc.lft.to/lastmile_qr_scan"}, "fusion_lon": 0.0, "lat": 38.917085166666666, "bike_id": "2b87ed5e20c248c371bb381b5f28e8df", "type": "electric_scooter", "is_reserved": 0, "lon": -77.02465333333333}, {"fusion_lat": 0.0, "name": "33edb21bc9822b815afa54efd4427b4f", "is_disabled": 0, "rental_uris": {"android": "https://dc.lft.to/lastmile_qr_scan", "ios": "https://dc.lft.to/lastmile_qr_scan"}, "fusion_lon": 0.0, "lat": 38.9015045, "bike_id": "33edb21bc9822b815afa54efd4427b4f", "type": "electric_scooter", "is_reserved": 0, "lon": -77.013291}, {"fusion_lat": 0.0, "name": "b7cd9511b08e46bf296c5b8ebff0f2ea", "is_disabled": 0, "rental_uris": {"android": "https://dc.lft.to/lastmile_qr_scan", "ios": "https://dc.lft.to/lastmile_qr_scan"}, "fusion_lon": 0.0, "lat": 38.8962805, "bike_id": "b7cd9511b08e46bf296c5b8ebff0f2ea", "type": "electric_scooter", "is_reserved": 0, "lon": -77.03223216666666}, {"fusion_lat": 0.0, "name": "61ce45460459927fc69b81c0130a066a", "is_disabled": 0, "rental_uris": {"android": "https://dc.lft.to/lastmile_qr_scan", "ios": "https://dc.lft.to/lastmile_qr_scan"}, "fusion_lon": 0.0, "lat": 38.913386, "bike_id": "61ce45460459927fc69b81c0130a066a", "type": "electric_scooter", "is_reserved": 0, "lon": -77.03175783333333}, {"fusion_lat": 0.0, "name": "4120565dac7e29369379dfab05f1fff8", "is_disabled": 0, "rental_uris": {"android": "https://dc.lft.to/lastmile_qr_scan", "ios": "https://dc.lft.to/lastmile_qr_scan"}, "fusion_lon": 0.0, "lat": 38.9583555, "bike_id": "4120565dac7e29369379dfab05f1fff8", "type": "electric_bike", "is_reserved": 0, "lon": -77.00088316666667}, {"fusion_lat": 0.0, "name": "a19acb946fb427725111fb79f34e3c6e", "is_disabled": 0, "rental_uris": {"android": "https://dc.lft.to/lastmile_qr_scan", "ios": "https://dc.lft.to/lastmile_qr_scan"}, "fusion_lon": 0.0, "lat": 38.92331633333333, "bike_id": "a19acb946fb427725111fb79f34e3c6e", "type": "electric_scooter", "is_reserved": 0, "lon": -77.02049266666667}, {"fusion_lat": 0.0, "name": "fca718a9ced53ecfbe6084c196cb98af", "is_disabled": 0, "rental_uris": {"android": "https://dc.lft.to/lastmile_qr_scan", "ios": "https://dc.lft.to/lastmile_qr_scan"}, "fusion_lon": 0.0, "lat": 38.91032, "bike_id": "fca718a9ced53ecfbe6084c196cb98af", "type": "electric_scooter", "is_reserved": 0, "lon": -77.03444033333334}, {"fusion_lat": 0.0, "name": "7ede49e410164a57401ebcd49fce0b7b", "is_disabled": 0, "rental_uris": {"android": "https://dc.lft.to/lastmile_qr_scan", "ios": "https://dc.lft.to/lastmile_qr_scan"}, "fusion_lon": 0.0, "lat": 38.90022716666667, "bike_id": "7ede49e410164a57401ebcd49fce0b7b", "type": "electric_scooter", "is_reserved": 0, "lon": -76.98790633333333}, {"fusion_lat": 0.0, "name": "6d265fb1d582c9992bf3548e839780bc", "is_disabled": 0, "rental_uris": {"android": "https://dc.lft.to/lastmile_qr_scan", "ios": "https://dc.lft.to/lastmile_qr_scan"}, "fusion_lon": 0.0, "lat": 38.91923516666667, "bike_id": "6d265fb1d582c9992bf3548e839780bc", "type": "electric_scooter", "is_reserved": 0, "lon": -77.02196666666667}, {"fusion_lat": 0.0, "name": "5e4435892f4a655602ff41c403ffa47c", "is_disabled": 0, "rental_uris": {"android": "https://dc.lft.to/lastmile_qr_scan", "ios": "https://dc.lft.to/lastmile_qr_scan"}, "fusion_lon": 0.0, "lat": 38.89876683333333, "bike_id": "5e4435892f4a655602ff41c403ffa47c", "type": "electric_scooter", "is_reserved": 0, "lon": -76.9318465}, {"fusion_lat": 0.0, "name": "c956a0dcf76e3b40682f9b079a24699b", "is_disabled": 0, "rental_uris": {"android": "https://dc.lft.to/lastmile_qr_scan", "ios": "https://dc.lft.to/lastmile_qr_scan"}, "fusion_lon": 0.0, "lat": 38.831499666666666, "bike_id": "c956a0dcf76e3b40682f9b079a24699b", "type": "electric_scooter", "is_reserved": 0, "lon": -77.0084155}, {"fusion_lat": 0.0, "name": "92f85121acf1a46cd8a7d9faa506c6c7", "is_disabled": 0, "rental_uris": {"android": "https://dc.lft.to/lastmile_qr_scan", "ios": "https://dc.lft.to/lastmile_qr_scan"}, "fusion_lon": 0.0, "lat": 38.93503333333334, "bike_id": "92f85121acf1a46cd8a7d9faa506c6c7", "type": "electric_scooter", "is_reserved": 0, "lon": -77.04536283333333}, {"fusion_lat": 0.0, "name": "6968c44537a7a7c896f0725d600ad1d5", "is_disabled": 0, "rental_uris": {"android": "https://dc.lft.to/lastmile_qr_scan", "ios": "https://dc.lft.to/lastmile_qr_scan"}, "fusion_lon": 0.0, "lat": 38.91854583333333, "bike_id": "6968c44537a7a7c896f0725d600ad1d5", "type": "electric_scooter", "is_reserved": 0, "lon": -77.04170683333334}, {"fusion_lat": 0.0, "name": "f62e4f31f54bacab4aa87a42179f776e", "is_disabled": 0, "rental_uris": {"android": "https://dc.lft.to/lastmile_qr_scan", "ios": "https://dc.lft.to/lastmile_qr_scan"}, "fusion_lon": 0.0, "lat": 38.955444166666666, "bike_id": "f62e4f31f54bacab4aa87a42179f776e", "type": "electric_scooter", "is_reserved": 0, "lon": -77.06988966666667}, {"fusion_lat": 0.0, "name": "5fb306dc6cfd84fe800ef3d243afa0a0", "is_disabled": 0, "rental_uris": {"android": "https://dc.lft.to/lastmile_qr_scan", "ios": "https://dc.lft.to/lastmile_qr_scan"}, "fusion_lon": 0.0, "lat": 39.084568166666664, "bike_id": "5fb306dc6cfd84fe800ef3d243afa0a0", "type": "electric_bike", "is_reserved": 0, "lon": -76.9519455}, {"fusion_lat": 0.0, "name": "47c54c7bb0fc91d232677e867bcf4547", "is_disabled": 0, "rental_uris": {"android": "https://dc.lft.to/lastmile_qr_scan", "ios": "https://dc.lft.to/lastmile_qr_scan"}, "fusion_lon": 0.0, "lat": 38.896189666666665, "bike_id": "47c54c7bb0fc91d232677e867bcf4547", "type": "electric_scooter", "is_reserved": 0, "lon": -77.0219935}, {"fusion_lat": 0.0, "name": "dd688d0c9ee01bdd3ad06866bf48a6ed", "is_disabled": 0, "rental_uris": {"android": "https://dc.lft.to/lastmile_qr_scan", "ios": "https://dc.lft.to/lastmile_qr_scan"}, "fusion_lon": 0.0, "lat": 38.89354866666667, "bike_id": "dd688d0c9ee01bdd3ad06866bf48a6ed", "type": "electric_bike", "is_reserved": 0, "lon": -77.18737216666666}, {"fusion_lat": 0.0, "name": "25a72e96a307af15d2395d55ff276ef3", "is_disabled": 0, "rental_uris": {"android": "https://dc.lft.to/lastmile_qr_scan", "ios": "https://dc.lft.to/lastmile_qr_scan"}, "fusion_lon": 0.0, "lat": 38.89404283333333, "bike_id": "25a72e96a307af15d2395d55ff276ef3", "type": "electric_scooter", "is_reserved": 0, "lon": -76.9915675}, {"fusion_lat": 0.0, "name": "a4eb4a6fb1f8ffd039b192b4051da49b", "is_disabled": 0, "rental_uris": {"android": "https://dc.lft.to/lastmile_qr_scan", "ios": "https://dc.lft.to/lastmile_qr_scan"}, "fusion_lon": 0.0, "lat": 38.873992666666666, "bike_id": "a4eb4a6fb1f8ffd039b192b4051da49b", "type": "electric_scooter", "is_reserved": 0, "lon": -77.0001635}, {"fusion_lat": 0.0, "name": "3d8399ead6d4643b4d57da9e3b5765bd", "is_disabled": 0, "rental_uris": {"android": "https://dc.lft.to/lastmile_qr_scan", "ios": "https://dc.lft.to/lastmile_qr_scan"}, "fusion_lon": 0.0, "lat": 38.901583, "bike_id": "3d8399ead6d4643b4d57da9e3b5765bd", "type": "electric_scooter", "is_reserved": 0, "lon": -77.03465783333333}, {"fusion_lat": 0.0, "name": "1acc18c48acccc478c72b4ab1d36f2f9", "is_disabled": 0, "rental_uris": {"android": "https://dc.lft.to/lastmile_qr_scan", "ios": "https://dc.lft.to/lastmile_qr_scan"}, "fusion_lon": 0.0, "lat": 38.86621983333333, "bike_id": "1acc18c48acccc478c72b4ab1d36f2f9", "type": "electric_scooter", "is_reserved": 0, "lon": -76.98714533333333}, {"fusion_lat": 0.0, "name": "9fa80e86310a0279fbbf854b0283392e", "is_disabled": 0, "rental_uris": {"android": "https://dc.lft.to/lastmile_qr_scan", "ios": "https://dc.lft.to/lastmile_qr_scan"}, "fusion_lon": 0.0, "lat": 38.899669333333335, "bike_id": "9fa80e86310a0279fbbf854b0283392e", "type": "electric_scooter", "is_reserved": 0, "lon": -77.0465125}, {"fusion_lat": 0.0, "name": "9a8f1c5c04082d8b6f9a3d99f203c2ff", "is_disabled": 0, "rental_uris": {"android": "https://dc.lft.to/lastmile_qr_scan", "ios": "https://dc.lft.to/lastmile_qr_scan"}, "fusion_lon": 0.0, "lat": 38.8922315, "bike_id": "9a8f1c5c04082d8b6f9a3d99f203c2ff", "type": "electric_scooter", "is_reserved": 0, "lon": -77.04687483333333}, {"fusion_lat": 0.0, "name": "5b5b4ebc1f8686d47d4ad7c1f3ed6593", "is_disabled": 0, "rental_uris": {"android": "https://dc.lft.to/lastmile_qr_scan", "ios": "https://dc.lft.to/lastmile_qr_scan"}, "fusion_lon": 0.0, "lat": 38.931840666666666, "bike_id": "5b5b4ebc1f8686d47d4ad7c1f3ed6593", "type": "electric_scooter", "is_reserved": 0, "lon": -77.0784465}, {"fusion_lat": 0.0, "name": "bcc631ef636b81d9113dcee4b0456226", "is_disabled": 0, "rental_uris": {"android": "https://dc.lft.to/lastmile_qr_scan", "ios": "https://dc.lft.to/lastmile_qr_scan"}, "fusion_lon": 0.0, "lat": 38.88010833333333, "bike_id": "bcc631ef636b81d9113dcee4b0456226", "type": "electric_scooter", "is_reserved": 0, "lon": -77.02479833333334}, {"fusion_lat": 0.0, "name": "c1d8b559c320e0a4715abfd5b18d2892", "is_disabled": 0, "rental_uris": {"android": "https://dc.lft.to/lastmile_qr_scan", "ios": "https://dc.lft.to/lastmile_qr_scan"}, "fusion_lon": 0.0, "lat": 38.94448416666667, "bike_id": "c1d8b559c320e0a4715abfd5b18d2892", "type": "electric_scooter", "is_reserved": 0, "lon": -77.02342016666667}, {"fusion_lat": 0.0, "name": "15006a046c51217779aae444327c533e", "is_disabled": 0, "rental_uris": {"android": "https://dc.lft.to/lastmile_qr_scan", "ios": "https://dc.lft.to/lastmile_qr_scan"}, "fusion_lon": 0.0, "lat": 38.9072065, "bike_id": "15006a046c51217779aae444327c533e", "type": "electric_scooter", "is_reserved": 0, "lon": -77.02509316666666}, {"fusion_lat": 0.0, "name": "9246cf3b62c9d4efb9010e6d66cb19ee", "is_disabled": 0, "rental_uris": {"android": "https://dc.lft.to/lastmile_qr_scan", "ios": "https://dc.lft.to/lastmile_qr_scan"}, "fusion_lon": 0.0, "lat": 38.896992, "bike_id": "9246cf3b62c9d4efb9010e6d66cb19ee", "type": "electric_scooter", "is_reserved": 0, "lon": -77.00759616666667}, {"fusion_lat": 0.0, "name": "c9f8446a2571bfc5d704d51f074d258e", "is_disabled": 0, "rental_uris": {"android": "https://dc.lft.to/lastmile_qr_scan", "ios": "https://dc.lft.to/lastmile_qr_scan"}, "fusion_lon": 0.0, "lat": 38.91961916666666, "bike_id": "c9f8446a2571bfc5d704d51f074d258e", "type": "electric_scooter", "is_reserved": 0, "lon": -77.01782583333333}, {"fusion_lat": 0.0, "name": "467ef37e203753f7810d607142ccb0dc", "is_disabled": 0, "rental_uris": {"android": "https://dc.lft.to/lastmile_qr_scan", "ios": "https://dc.lft.to/lastmile_qr_scan"}, "fusion_lon": 0.0, "lat": 38.921063, "bike_id": "467ef37e203753f7810d607142ccb0dc", "type": "electric_scooter", "is_reserved": 0, "lon": -77.04179433333333}, {"fusion_lat": 0.0, "name": "d10d75fc981fe3a176a2646e21245ab2", "is_disabled": 0, "rental_uris": {"android": "https://dc.lft.to/lastmile_qr_scan", "ios": "https://dc.lft.to/lastmile_qr_scan"}, "fusion_lon": 0.0, "lat": 38.92364416666667, "bike_id": "d10d75fc981fe3a176a2646e21245ab2", "type": "electric_scooter", "is_reserved": 0, "lon": -77.019552}, {"fusion_lat": 0.0, "name": "5290d5f2c8bf7863a23a544c4a2a754c", "is_disabled": 0, "rental_uris": {"android": "https://dc.lft.to/lastmile_qr_scan", "ios": "https://dc.lft.to/lastmile_qr_scan"}, "fusion_lon": 0.0, "lat": 38.907357166666664, "bike_id": "5290d5f2c8bf7863a23a544c4a2a754c", "type": "electric_scooter", "is_reserved": 0, "lon": -77.02984566666667}, {"fusion_lat": 0.0, "name": "30e062c9327a34647c0465763024dea1", "is_disabled": 0, "rental_uris": {"android": "https://dc.lft.to/lastmile_qr_scan", "ios": "https://dc.lft.to/lastmile_qr_scan"}, "fusion_lon": 0.0, "lat": 38.889494, "bike_id": "30e062c9327a34647c0465763024dea1", "type": "electric_scooter", "is_reserved": 0, "lon": -76.99161666666667}, {"fusion_lat": 0.0, "name": "efe37dab461dd68221c27f16ef35f9d1", "is_disabled": 0, "rental_uris": {"android": "https://dc.lft.to/lastmile_qr_scan", "ios": "https://dc.lft.to/lastmile_qr_scan"}, "fusion_lon": 0.0, "lat": 38.928770166666666, "bike_id": "efe37dab461dd68221c27f16ef35f9d1", "type": "electric_scooter", "is_reserved": 0, "lon": -77.05443533333333}, {"fusion_lat": 0.0, "name": "7fe6fef0eadc8688fc6956a7faec08e3", "is_disabled": 0, "rental_uris": {"android": "https://dc.lft.to/lastmile_qr_scan", "ios": "https://dc.lft.to/lastmile_qr_scan"}, "fusion_lon": 0.0, "lat": 38.91986633333333, "bike_id": "7fe6fef0eadc8688fc6956a7faec08e3", "type": "electric_scooter", "is_reserved": 0, "lon": -77.0178765}, {"fusion_lat": 0.0, "name": "b971a5bdfd61f46128c272b70d311a6c", "is_disabled": 0, "rental_uris": {"android": "https://dc.lft.to/lastmile_qr_scan", "ios": "https://dc.lft.to/lastmile_qr_scan"}, "fusion_lon": 0.0, "lat": 38.899873666666664, "bike_id": "b971a5bdfd61f46128c272b70d311a6c", "type": "electric_scooter", "is_reserved": 0, "lon": -77.0403725}, {"fusion_lat": 0.0, "name": "b2e91dc6eec630ad6b818bdba96a4218", "is_disabled": 0, "rental_uris": {"android": "https://dc.lft.to/lastmile_qr_scan", "ios": "https://dc.lft.to/lastmile_qr_scan"}, "fusion_lon": 0.0, "lat": 38.93708783333334, "bike_id": "b2e91dc6eec630ad6b818bdba96a4218", "type": "electric_scooter", "is_reserved": 0, "lon": -77.03281933333334}, {"fusion_lat": 0.0, "name": "1f9f477480c589d5af601b2315cdfb2a", "is_disabled": 0, "rental_uris": {"android": "https://dc.lft.to/lastmile_qr_scan", "ios": "https://dc.lft.to/lastmile_qr_scan"}, "fusion_lon": 0.0, "lat": 38.92320216666667, "bike_id": "1f9f477480c589d5af601b2315cdfb2a", "type": "electric_scooter", "is_reserved": 0, "lon": -77.0205355}, {"fusion_lat": 0.0, "name": "d9f0c10d7caf15bfe951ab6fa146c753", "is_disabled": 0, "rental_uris": {"android": "https://dc.lft.to/lastmile_qr_scan", "ios": "https://dc.lft.to/lastmile_qr_scan"}, "fusion_lon": 0.0, "lat": 38.97471816666667, "bike_id": "d9f0c10d7caf15bfe951ab6fa146c753", "type": "electric_bike", "is_reserved": 0, "lon": -77.0119045}, {"fusion_lat": 0.0, "name": "adf10eab5834a709ab7117b2431d15d8", "is_disabled": 0, "rental_uris": {"android": "https://dc.lft.to/lastmile_qr_scan", "ios": "https://dc.lft.to/lastmile_qr_scan"}, "fusion_lon": 0.0, "lat": 38.91907466666667, "bike_id": "adf10eab5834a709ab7117b2431d15d8", "type": "electric_scooter", "is_reserved": 0, "lon": -77.02758533333333}, {"fusion_lat": 0.0, "name": "137fe412f23e263a9e648077080fea0e", "is_disabled": 0, "rental_uris": {"android": "https://dc.lft.to/lastmile_qr_scan", "ios": "https://dc.lft.to/lastmile_qr_scan"}, "fusion_lon": 0.0, "lat": 38.93599583333334, "bike_id": "137fe412f23e263a9e648077080fea0e", "type": "electric_scooter", "is_reserved": 0, "lon": -77.03518816666667}, {"fusion_lat": 0.0, "name": "5c752c4a6b734ce21cf4b5fdfcbb8f02", "is_disabled": 0, "rental_uris": {"android": "https://dc.lft.to/lastmile_qr_scan", "ios": "https://dc.lft.to/lastmile_qr_scan"}, "fusion_lon": 0.0, "lat": 38.90592633333333, "bike_id": "5c752c4a6b734ce21cf4b5fdfcbb8f02", "type": "electric_scooter", "is_reserved": 0, "lon": -77.06618216666666}, {"fusion_lat": 0.0, "name": "98a504ca933c2b3cfb05c2d06bc86126", "is_disabled": 0, "rental_uris": {"android": "https://dc.lft.to/lastmile_qr_scan", "ios": "https://dc.lft.to/lastmile_qr_scan"}, "fusion_lon": 0.0, "lat": 38.794693333333335, "bike_id": "98a504ca933c2b3cfb05c2d06bc86126", "type": "electric_bike", "is_reserved": 0, "lon": -76.99246766666667}, {"fusion_lat": 0.0, "name": "9d7088d73700c0041a70a6b14635fc88", "is_disabled": 0, "rental_uris": {"android": "https://dc.lft.to/lastmile_qr_scan", "ios": "https://dc.lft.to/lastmile_qr_scan"}, "fusion_lon": 0.0, "lat": 38.922474, "bike_id": "9d7088d73700c0041a70a6b14635fc88", "type": "electric_scooter", "is_reserved": 0, "lon": -77.02976966666667}, {"fusion_lat": 0.0, "name": "0fe45631552507fbb953665b4be0ed91", "is_disabled": 0, "rental_uris": {"android": "https://dc.lft.to/lastmile_qr_scan", "ios": "https://dc.lft.to/lastmile_qr_scan"}, "fusion_lon": 0.0, "lat": 38.90386916666667, "bike_id": "0fe45631552507fbb953665b4be0ed91", "type": "electric_scooter", "is_reserved": 0, "lon": -77.04445283333334}, {"fusion_lat": 0.0, "name": "3880563f872dfd485d4e12fbace8fd60", "is_disabled": 0, "rental_uris": {"android": "https://dc.lft.to/lastmile_qr_scan", "ios": "https://dc.lft.to/lastmile_qr_scan"}, "fusion_lon": 0.0, "lat": 38.900281, "bike_id": "3880563f872dfd485d4e12fbace8fd60", "type": "electric_scooter", "is_reserved": 0, "lon": -77.0582755}, {"fusion_lat": 0.0, "name": "a79a17e886cf885e9cd4353f5ea1f954", "is_disabled": 0, "rental_uris": {"android": "https://dc.lft.to/lastmile_qr_scan", "ios": "https://dc.lft.to/lastmile_qr_scan"}, "fusion_lon": 0.0, "lat": 38.9483485, "bike_id": "a79a17e886cf885e9cd4353f5ea1f954", "type": "electric_scooter", "is_reserved": 0, "lon": -77.02563816666667}, {"fusion_lat": 0.0, "name": "5c5e4f0b9ae3d83bd41e9fd94e4fd887", "is_disabled": 0, "rental_uris": {"android": "https://dc.lft.to/lastmile_qr_scan", "ios": "https://dc.lft.to/lastmile_qr_scan"}, "fusion_lon": 0.0, "lat": 38.90019183333333, "bike_id": "5c5e4f0b9ae3d83bd41e9fd94e4fd887", "type": "electric_scooter", "is_reserved": 0, "lon": -77.03670616666666}, {"fusion_lat": 0.0, "name": "85a061fa6f2668e0aa6471905f420adf", "is_disabled": 0, "rental_uris": {"android": "https://dc.lft.to/lastmile_qr_scan", "ios": "https://dc.lft.to/lastmile_qr_scan"}, "fusion_lon": 0.0, "lat": 38.89219466666667, "bike_id": "85a061fa6f2668e0aa6471905f420adf", "type": "electric_scooter", "is_reserved": 0, "lon": -77.02424}, {"fusion_lat": 0.0, "name": "0df570c87e39caf64d69231321d1ec3d", "is_disabled": 0, "rental_uris": {"android": "https://dc.lft.to/lastmile_qr_scan", "ios": "https://dc.lft.to/lastmile_qr_scan"}, "fusion_lon": 0.0, "lat": 38.90573633333333, "bike_id": "0df570c87e39caf64d69231321d1ec3d", "type": "electric_scooter", "is_reserved": 0, "lon": -77.0435625}, {"fusion_lat": 0.0, "name": "2d8feeb73df64e63974caec0ed42fa16", "is_disabled": 0, "rental_uris": {"android": "https://dc.lft.to/lastmile_qr_scan", "ios": "https://dc.lft.to/lastmile_qr_scan"}, "fusion_lon": 0.0, "lat": 38.90446266666667, "bike_id": "2d8feeb73df64e63974caec0ed42fa16", "type": "electric_scooter", "is_reserved": 0, "lon": -76.97426783333333}, {"fusion_lat": 0.0, "name": "6a738572905adb1af412943471b8e5ed", "is_disabled": 0, "rental_uris": {"android": "https://dc.lft.to/lastmile_qr_scan", "ios": "https://dc.lft.to/lastmile_qr_scan"}, "fusion_lon": 0.0, "lat": 38.898762, "bike_id": "6a738572905adb1af412943471b8e5ed", "type": "electric_scooter", "is_reserved": 0, "lon": -77.03914433333334}, {"fusion_lat": 0.0, "name": "f2998ced9d637eb33d96eab97a3a1a2c", "is_disabled": 0, "rental_uris": {"android": "https://dc.lft.to/lastmile_qr_scan", "ios": "https://dc.lft.to/lastmile_qr_scan"}, "fusion_lon": 0.0, "lat": 38.918214666666664, "bike_id": "f2998ced9d637eb33d96eab97a3a1a2c", "type": "electric_scooter", "is_reserved": 0, "lon": -77.04171916666667}, {"fusion_lat": 0.0, "name": "3a2048bec1839cb5fff94ba80906e4fd", "is_disabled": 0, "rental_uris": {"android": "https://dc.lft.to/lastmile_qr_scan", "ios": "https://dc.lft.to/lastmile_qr_scan"}, "fusion_lon": 0.0, "lat": 38.928684833333335, "bike_id": "3a2048bec1839cb5fff94ba80906e4fd", "type": "electric_scooter", "is_reserved": 0, "lon": -77.0321865}, {"fusion_lat": 0.0, "name": "60f9615638f5e78c9af962fa8d958615", "is_disabled": 0, "rental_uris": {"android": "https://dc.lft.to/lastmile_qr_scan", "ios": "https://dc.lft.to/lastmile_qr_scan"}, "fusion_lon": 0.0, "lat": 38.924955833333335, "bike_id": "60f9615638f5e78c9af962fa8d958615", "type": "electric_scooter", "is_reserved": 0, "lon": -77.05107816666667}, {"fusion_lat": 0.0, "name": "4f6067b059e9c3f423882494288ca8aa", "is_disabled": 0, "rental_uris": {"android": "https://dc.lft.to/lastmile_qr_scan", "ios": "https://dc.lft.to/lastmile_qr_scan"}, "fusion_lon": 0.0, "lat": 38.88953133333333, "bike_id": "4f6067b059e9c3f423882494288ca8aa", "type": "electric_bike", "is_reserved": 0, "lon": -77.0764425}, {"fusion_lat": 0.0, "name": "ebd15e9d2e3eace0bc3685f17056c127", "is_disabled": 0, "rental_uris": {"android": "https://dc.lft.to/lastmile_qr_scan", "ios": "https://dc.lft.to/lastmile_qr_scan"}, "fusion_lon": 0.0, "lat": 38.93394966666666, "bike_id": "ebd15e9d2e3eace0bc3685f17056c127", "type": "electric_scooter", "is_reserved": 0, "lon": -77.05769933333333}, {"fusion_lat": 0.0, "name": "5a15fdebf3ea99dd0a1b5c467c97823f", "is_disabled": 0, "rental_uris": {"android": "https://dc.lft.to/lastmile_qr_scan", "ios": "https://dc.lft.to/lastmile_qr_scan"}, "fusion_lon": 0.0, "lat": 38.89609266666667, "bike_id": "5a15fdebf3ea99dd0a1b5c467c97823f", "type": "electric_scooter", "is_reserved": 0, "lon": -76.992787}, {"fusion_lat": 0.0, "name": "80fa522b4bae973aff6243033d268e8d", "is_disabled": 0, "rental_uris": {"android": "https://dc.lft.to/lastmile_qr_scan", "ios": "https://dc.lft.to/lastmile_qr_scan"}, "fusion_lon": 0.0, "lat": 38.932628666666666, "bike_id": "80fa522b4bae973aff6243033d268e8d", "type": "electric_scooter", "is_reserved": 0, "lon": -77.03107883333334}, {"fusion_lat": 0.0, "name": "2d1b665ba992f2eef60e4e8e6fe013ca", "is_disabled": 0, "rental_uris": {"android": "https://dc.lft.to/lastmile_qr_scan", "ios": "https://dc.lft.to/lastmile_qr_scan"}, "fusion_lon": 0.0, "lat": 38.90844766666667, "bike_id": "2d1b665ba992f2eef60e4e8e6fe013ca", "type": "electric_scooter", "is_reserved": 0, "lon": -76.99949183333334}, {"fusion_lat": 0.0, "name": "718dabeba57ab6060c61c86d1aabb942", "is_disabled": 0, "rental_uris": {"android": "https://dc.lft.to/lastmile_qr_scan", "ios": "https://dc.lft.to/lastmile_qr_scan"}, "fusion_lon": 0.0, "lat": 38.901474, "bike_id": "718dabeba57ab6060c61c86d1aabb942", "type": "electric_scooter", "is_reserved": 0, "lon": -77.00920183333334}, {"fusion_lat": 0.0, "name": "0335cd125c675bac3c8ff833743cd734", "is_disabled": 0, "rental_uris": {"android": "https://dc.lft.to/lastmile_qr_scan", "ios": "https://dc.lft.to/lastmile_qr_scan"}, "fusion_lon": 0.0, "lat": 38.930969, "bike_id": "0335cd125c675bac3c8ff833743cd734", "type": "electric_scooter", "is_reserved": 0, "lon": -77.0248025}, {"fusion_lat": 0.0, "name": "5fe52c887309c8846f58ab994b91ee58", "is_disabled": 0, "rental_uris": {"android": "https://dc.lft.to/lastmile_qr_scan", "ios": "https://dc.lft.to/lastmile_qr_scan"}, "fusion_lon": 0.0, "lat": 38.9242295, "bike_id": "5fe52c887309c8846f58ab994b91ee58", "type": "electric_scooter", "is_reserved": 0, "lon": -77.019502}, {"fusion_lat": 0.0, "name": "8341aa8e9d108a93cf0ccb7932a8894c", "is_disabled": 0, "rental_uris": {"android": "https://dc.lft.to/lastmile_qr_scan", "ios": "https://dc.lft.to/lastmile_qr_scan"}, "fusion_lon": 0.0, "lat": 38.89221583333333, "bike_id": "8341aa8e9d108a93cf0ccb7932a8894c", "type": "electric_scooter", "is_reserved": 0, "lon": -77.02221633333333}, {"fusion_lat": 0.0, "name": "1ae44e8fd751cc52f3d98a62431d3c63", "is_disabled": 0, "rental_uris": {"android": "https://dc.lft.to/lastmile_qr_scan", "ios": "https://dc.lft.to/lastmile_qr_scan"}, "fusion_lon": 0.0, "lat": 38.928685333333334, "bike_id": "1ae44e8fd751cc52f3d98a62431d3c63", "type": "electric_scooter", "is_reserved": 0, "lon": -77.03282216666666}, {"fusion_lat": 0.0, "name": "a100798e2ab249b709c90d2832212084", "is_disabled": 0, "rental_uris": {"android": "https://dc.lft.to/lastmile_qr_scan", "ios": "https://dc.lft.to/lastmile_qr_scan"}, "fusion_lon": 0.0, "lat": 38.94164216666667, "bike_id": "a100798e2ab249b709c90d2832212084", "type": "electric_scooter", "is_reserved": 0, "lon": -77.025005}, {"fusion_lat": 0.0, "name": "ad6b79c8c67250cbe1f74d49ee3c9b63", "is_disabled": 0, "rental_uris": {"android": "https://dc.lft.to/lastmile_qr_scan", "ios": "https://dc.lft.to/lastmile_qr_scan"}, "fusion_lon": 0.0, "lat": 38.9247915, "bike_id": "ad6b79c8c67250cbe1f74d49ee3c9b63", "type": "electric_scooter", "is_reserved": 0, "lon": -77.052039}, {"fusion_lat": 0.0, "name": "4cac239f10524c7508a3a58a59ee38bf", "is_disabled": 0, "rental_uris": {"android": "https://dc.lft.to/lastmile_qr_scan", "ios": "https://dc.lft.to/lastmile_qr_scan"}, "fusion_lon": 0.0, "lat": 38.894873, "bike_id": "4cac239f10524c7508a3a58a59ee38bf", "type": "electric_scooter", "is_reserved": 0, "lon": -77.0097425}, {"fusion_lat": 0.0, "name": "c2d20939ce19c540e31c9e6ce1d43184", "is_disabled": 0, "rental_uris": {"android": "https://dc.lft.to/lastmile_qr_scan", "ios": "https://dc.lft.to/lastmile_qr_scan"}, "fusion_lon": 0.0, "lat": 38.894312666666664, "bike_id": "c2d20939ce19c540e31c9e6ce1d43184", "type": "electric_scooter", "is_reserved": 0, "lon": -77.00101866666667}, {"fusion_lat": 0.0, "name": "45b11e01dd1c07bbf1f9ab92837d81c5", "is_disabled": 0, "rental_uris": {"android": "https://dc.lft.to/lastmile_qr_scan", "ios": "https://dc.lft.to/lastmile_qr_scan"}, "fusion_lon": 0.0, "lat": 38.904928166666664, "bike_id": "45b11e01dd1c07bbf1f9ab92837d81c5", "type": "electric_bike", "is_reserved": 0, "lon": -76.97577216666667}, {"fusion_lat": 0.0, "name": "c4ac0edda6167b0c4120d5ee6942615d", "is_disabled": 0, "rental_uris": {"android": "https://dc.lft.to/lastmile_qr_scan", "ios": "https://dc.lft.to/lastmile_qr_scan"}, "fusion_lon": 0.0, "lat": 38.88899166666667, "bike_id": "c4ac0edda6167b0c4120d5ee6942615d", "type": "electric_scooter", "is_reserved": 0, "lon": -76.992064}, {"fusion_lat": 0.0, "name": "bbdcac60af48e72f45478f489ef857a0", "is_disabled": 0, "rental_uris": {"android": "https://dc.lft.to/lastmile_qr_scan", "ios": "https://dc.lft.to/lastmile_qr_scan"}, "fusion_lon": 0.0, "lat": 38.90734416666667, "bike_id": "bbdcac60af48e72f45478f489ef857a0", "type": "electric_scooter", "is_reserved": 0, "lon": -77.029829}, {"fusion_lat": 0.0, "name": "c4e6c41e7628a7092c8232df06ab784e", "is_disabled": 0, "rental_uris": {"android": "https://dc.lft.to/lastmile_qr_scan", "ios": "https://dc.lft.to/lastmile_qr_scan"}, "fusion_lon": 0.0, "lat": 38.88193733333333, "bike_id": "c4e6c41e7628a7092c8232df06ab784e", "type": "electric_scooter", "is_reserved": 0, "lon": -76.99489083333333}, {"fusion_lat": 0.0, "name": "b034fbbe1aa99e14db4390d823dfa8ac", "is_disabled": 0, "rental_uris": {"android": "https://dc.lft.to/lastmile_qr_scan", "ios": "https://dc.lft.to/lastmile_qr_scan"}, "fusion_lon": 0.0, "lat": 38.9613035, "bike_id": "b034fbbe1aa99e14db4390d823dfa8ac", "type": "electric_scooter", "is_reserved": 0, "lon": -77.0278435}, {"fusion_lat": 0.0, "name": "17319984ed6d4808544f3b854bf0c7cf", "is_disabled": 0, "rental_uris": {"android": "https://dc.lft.to/lastmile_qr_scan", "ios": "https://dc.lft.to/lastmile_qr_scan"}, "fusion_lon": 0.0, "lat": 38.876926833333336, "bike_id": "17319984ed6d4808544f3b854bf0c7cf", "type": "electric_scooter", "is_reserved": 0, "lon": -76.994247}, {"fusion_lat": 0.0, "name": "50cfc14866b59dbb23a7ba183d3639ae", "is_disabled": 0, "rental_uris": {"android": "https://dc.lft.to/lastmile_qr_scan", "ios": "https://dc.lft.to/lastmile_qr_scan"}, "fusion_lon": 0.0, "lat": 38.92238433333333, "bike_id": "50cfc14866b59dbb23a7ba183d3639ae", "type": "electric_scooter", "is_reserved": 0, "lon": -77.0463055}, {"fusion_lat": 0.0, "name": "a67fa88d036c59831ffae121e081e30b", "is_disabled": 0, "rental_uris": {"android": "https://dc.lft.to/lastmile_qr_scan", "ios": "https://dc.lft.to/lastmile_qr_scan"}, "fusion_lon": 0.0, "lat": 38.912840333333335, "bike_id": "a67fa88d036c59831ffae121e081e30b", "type": "electric_scooter", "is_reserved": 0, "lon": -77.01223483333334}, {"fusion_lat": 0.0, "name": "f0a30b49f0e1d47048bf7254e3d1a2af", "is_disabled": 0, "rental_uris": {"android": "https://dc.lft.to/lastmile_qr_scan", "ios": "https://dc.lft.to/lastmile_qr_scan"}, "fusion_lon": 0.0, "lat": 38.975219, "bike_id": "f0a30b49f0e1d47048bf7254e3d1a2af", "type": "electric_scooter", "is_reserved": 0, "lon": -77.01732633333333}, {"fusion_lat": 0.0, "name": "bbaedeefec518e394ce3506031bd4cd3", "is_disabled": 0, "rental_uris": {"android": "https://dc.lft.to/lastmile_qr_scan", "ios": "https://dc.lft.to/lastmile_qr_scan"}, "fusion_lon": 0.0, "lat": 38.893560666666666, "bike_id": "bbaedeefec518e394ce3506031bd4cd3", "type": "electric_bike", "is_reserved": 0, "lon": -77.18742033333334}, {"fusion_lat": 0.0, "name": "dcaf4c9b05365ee71e5ced9be32fd7a6", "is_disabled": 0, "rental_uris": {"android": "https://dc.lft.to/lastmile_qr_scan", "ios": "https://dc.lft.to/lastmile_qr_scan"}, "fusion_lon": 0.0, "lat": 38.9051775, "bike_id": "dcaf4c9b05365ee71e5ced9be32fd7a6", "type": "electric_scooter", "is_reserved": 0, "lon": -77.06136416666666}, {"fusion_lat": 0.0, "name": "7cb2e448bbb3ffa4901a2ed898f43d2f", "is_disabled": 0, "rental_uris": {"android": "https://dc.lft.to/lastmile_qr_scan", "ios": "https://dc.lft.to/lastmile_qr_scan"}, "fusion_lon": 0.0, "lat": 38.93453233333334, "bike_id": "7cb2e448bbb3ffa4901a2ed898f43d2f", "type": "electric_scooter", "is_reserved": 0, "lon": -77.02729083333334}, {"fusion_lat": 0.0, "name": "a1b75cca5355e2d3d12bd4b821efbded", "is_disabled": 0, "rental_uris": {"android": "https://dc.lft.to/lastmile_qr_scan", "ios": "https://dc.lft.to/lastmile_qr_scan"}, "fusion_lon": 0.0, "lat": 38.90959216666667, "bike_id": "a1b75cca5355e2d3d12bd4b821efbded", "type": "electric_scooter", "is_reserved": 0, "lon": -77.02387133333333}, {"fusion_lat": 0.0, "name": "a03b4282cbeb7aec0f80fead3e5ea180", "is_disabled": 0, "rental_uris": {"android": "https://dc.lft.to/lastmile_qr_scan", "ios": "https://dc.lft.to/lastmile_qr_scan"}, "fusion_lon": 0.0, "lat": 38.90861433333333, "bike_id": "a03b4282cbeb7aec0f80fead3e5ea180", "type": "electric_scooter", "is_reserved": 0, "lon": -77.034575}, {"fusion_lat": 0.0, "name": "b4d8fbf60554456a5dca0af4d8660128", "is_disabled": 0, "rental_uris": {"android": "https://dc.lft.to/lastmile_qr_scan", "ios": "https://dc.lft.to/lastmile_qr_scan"}, "fusion_lon": 0.0, "lat": 38.85617233333333, "bike_id": "b4d8fbf60554456a5dca0af4d8660128", "type": "electric_scooter", "is_reserved": 0, "lon": -76.972801}, {"fusion_lat": 0.0, "name": "3b36f69f72a96ed8837535fad69acf93", "is_disabled": 0, "rental_uris": {"android": "https://dc.lft.to/lastmile_qr_scan", "ios": "https://dc.lft.to/lastmile_qr_scan"}, "fusion_lon": 0.0, "lat": 38.892488166666666, "bike_id": "3b36f69f72a96ed8837535fad69acf93", "type": "electric_scooter", "is_reserved": 0, "lon": -77.0465175}, {"fusion_lat": 0.0, "name": "86c74f31762e7fcebe81cb14857aa836", "is_disabled": 0, "rental_uris": {"android": "https://dc.lft.to/lastmile_qr_scan", "ios": "https://dc.lft.to/lastmile_qr_scan"}, "fusion_lon": 0.0, "lat": 38.892399, "bike_id": "86c74f31762e7fcebe81cb14857aa836", "type": "electric_scooter", "is_reserved": 0, "lon": -77.04874533333333}, {"fusion_lat": 0.0, "name": "8786cf78f7f2f17b47eb69297e6eeaea", "is_disabled": 0, "rental_uris": {"android": "https://dc.lft.to/lastmile_qr_scan", "ios": "https://dc.lft.to/lastmile_qr_scan"}, "fusion_lon": 0.0, "lat": 38.914831166666666, "bike_id": "8786cf78f7f2f17b47eb69297e6eeaea", "type": "electric_scooter", "is_reserved": 0, "lon": -77.02292833333334}, {"fusion_lat": 0.0, "name": "1b2d7fa5dce363039baef927dae1bb16", "is_disabled": 0, "rental_uris": {"android": "https://dc.lft.to/lastmile_qr_scan", "ios": "https://dc.lft.to/lastmile_qr_scan"}, "fusion_lon": 0.0, "lat": 38.905033, "bike_id": "1b2d7fa5dce363039baef927dae1bb16", "type": "electric_scooter", "is_reserved": 0, "lon": -77.0513775}, {"fusion_lat": 0.0, "name": "3bae3499a21a4c9eaf47e131bb0196eb", "is_disabled": 0, "rental_uris": {"android": "https://dc.lft.to/lastmile_qr_scan", "ios": "https://dc.lft.to/lastmile_qr_scan"}, "fusion_lon": 0.0, "lat": 38.90203533333333, "bike_id": "3bae3499a21a4c9eaf47e131bb0196eb", "type": "electric_scooter", "is_reserved": 0, "lon": -77.047706}, {"fusion_lat": 0.0, "name": "bdbd89adca38c6fef41076186dbc313a", "is_disabled": 0, "rental_uris": {"android": "https://dc.lft.to/lastmile_qr_scan", "ios": "https://dc.lft.to/lastmile_qr_scan"}, "fusion_lon": 0.0, "lat": 38.9522425, "bike_id": "bdbd89adca38c6fef41076186dbc313a", "type": "electric_scooter", "is_reserved": 0, "lon": -77.002284}, {"fusion_lat": 0.0, "name": "7cd0f6809f406ec5fd0c8cecea949e70", "is_disabled": 0, "rental_uris": {"android": "https://dc.lft.to/lastmile_qr_scan", "ios": "https://dc.lft.to/lastmile_qr_scan"}, "fusion_lon": 0.0, "lat": 38.90892183333333, "bike_id": "7cd0f6809f406ec5fd0c8cecea949e70", "type": "electric_scooter", "is_reserved": 0, "lon": -77.034427}, {"fusion_lat": 0.0, "name": "dab8d8e8d3786e5899d004836169e698", "is_disabled": 0, "rental_uris": {"android": "https://dc.lft.to/lastmile_qr_scan", "ios": "https://dc.lft.to/lastmile_qr_scan"}, "fusion_lon": 0.0, "lat": 38.920781, "bike_id": "dab8d8e8d3786e5899d004836169e698", "type": "electric_scooter", "is_reserved": 0, "lon": -77.0045805}, {"fusion_lat": 0.0, "name": "e3990de3d394fb44019e0889d16ec897", "is_disabled": 0, "rental_uris": {"android": "https://dc.lft.to/lastmile_qr_scan", "ios": "https://dc.lft.to/lastmile_qr_scan"}, "fusion_lon": 0.0, "lat": 38.9186725, "bike_id": "e3990de3d394fb44019e0889d16ec897", "type": "electric_scooter", "is_reserved": 0, "lon": -77.04039516666667}, {"fusion_lat": 0.0, "name": "27f7b20b2a11256bcf26b01b50a76d62", "is_disabled": 0, "rental_uris": {"android": "https://dc.lft.to/lastmile_qr_scan", "ios": "https://dc.lft.to/lastmile_qr_scan"}, "fusion_lon": 0.0, "lat": 38.892327, "bike_id": "27f7b20b2a11256bcf26b01b50a76d62", "type": "electric_scooter", "is_reserved": 0, "lon": -77.04997516666667}, {"fusion_lat": 0.0, "name": "e37924620fced3f72f497102040e6d95", "is_disabled": 0, "rental_uris": {"android": "https://dc.lft.to/lastmile_qr_scan", "ios": "https://dc.lft.to/lastmile_qr_scan"}, "fusion_lon": 0.0, "lat": 38.937755333333335, "bike_id": "e37924620fced3f72f497102040e6d95", "type": "electric_scooter", "is_reserved": 0, "lon": -77.02466366666667}, {"fusion_lat": 0.0, "name": "e36119988852e3259195f9c8695020e1", "is_disabled": 0, "rental_uris": {"android": "https://dc.lft.to/lastmile_qr_scan", "ios": "https://dc.lft.to/lastmile_qr_scan"}, "fusion_lon": 0.0, "lat": 38.8947865, "bike_id": "e36119988852e3259195f9c8695020e1", "type": "electric_scooter", "is_reserved": 0, "lon": -77.01534966666667}, {"fusion_lat": 0.0, "name": "d0cce4c832e7f0140134af5453c84e30", "is_disabled": 0, "rental_uris": {"android": "https://dc.lft.to/lastmile_qr_scan", "ios": "https://dc.lft.to/lastmile_qr_scan"}, "fusion_lon": 0.0, "lat": 38.931915333333336, "bike_id": "d0cce4c832e7f0140134af5453c84e30", "type": "electric_scooter", "is_reserved": 0, "lon": -77.042934}, {"fusion_lat": 0.0, "name": "bed5f97b570c093b3c07c9570b1ea6f5", "is_disabled": 0, "rental_uris": {"android": "https://dc.lft.to/lastmile_qr_scan", "ios": "https://dc.lft.to/lastmile_qr_scan"}, "fusion_lon": 0.0, "lat": 38.937909833333336, "bike_id": "bed5f97b570c093b3c07c9570b1ea6f5", "type": "electric_scooter", "is_reserved": 0, "lon": -77.02438216666667}, {"fusion_lat": 0.0, "name": "7f26e5c1633bd6e48693f205e01a3218", "is_disabled": 0, "rental_uris": {"android": "https://dc.lft.to/lastmile_qr_scan", "ios": "https://dc.lft.to/lastmile_qr_scan"}, "fusion_lon": 0.0, "lat": 38.884553833333335, "bike_id": "7f26e5c1633bd6e48693f205e01a3218", "type": "electric_scooter", "is_reserved": 0, "lon": -76.99830083333333}, {"fusion_lat": 0.0, "name": "71c6cf88388af71c4bec08380bdb7937", "is_disabled": 0, "rental_uris": {"android": "https://dc.lft.to/lastmile_qr_scan", "ios": "https://dc.lft.to/lastmile_qr_scan"}, "fusion_lon": 0.0, "lat": 38.920231666666666, "bike_id": "71c6cf88388af71c4bec08380bdb7937", "type": "electric_scooter", "is_reserved": 0, "lon": -77.0125685}, {"fusion_lat": 0.0, "name": "20b5d527a9061769047d7271b815313a", "is_disabled": 0, "rental_uris": {"android": "https://dc.lft.to/lastmile_qr_scan", "ios": "https://dc.lft.to/lastmile_qr_scan"}, "fusion_lon": 0.0, "lat": 38.92885033333334, "bike_id": "20b5d527a9061769047d7271b815313a", "type": "electric_scooter", "is_reserved": 0, "lon": -77.03266}, {"fusion_lat": 0.0, "name": "f784be15592f85b6d2efdacae727e2ca", "is_disabled": 0, "rental_uris": {"android": "https://dc.lft.to/lastmile_qr_scan", "ios": "https://dc.lft.to/lastmile_qr_scan"}, "fusion_lon": 0.0, "lat": 38.9612, "bike_id": "f784be15592f85b6d2efdacae727e2ca", "type": "electric_scooter", "is_reserved": 0, "lon": -77.02861666666666}, {"fusion_lat": 0.0, "name": "5db3e743fa74222dde705a5ee50ee5eb", "is_disabled": 0, "rental_uris": {"android": "https://dc.lft.to/lastmile_qr_scan", "ios": "https://dc.lft.to/lastmile_qr_scan"}, "fusion_lon": 0.0, "lat": 38.90821666666667, "bike_id": "5db3e743fa74222dde705a5ee50ee5eb", "type": "electric_scooter", "is_reserved": 0, "lon": -77.05494333333333}, {"fusion_lat": 0.0, "name": "0ee4d4bdda7ef66b8d8f337ecca77c1f", "is_disabled": 0, "rental_uris": {"android": "https://dc.lft.to/lastmile_qr_scan", "ios": "https://dc.lft.to/lastmile_qr_scan"}, "fusion_lon": 0.0, "lat": 38.91707133333333, "bike_id": "0ee4d4bdda7ef66b8d8f337ecca77c1f", "type": "electric_scooter", "is_reserved": 0, "lon": -77.0121525}, {"fusion_lat": 0.0, "name": "24d7a8c0716a317dfcdae7604cdb1bcf", "is_disabled": 0, "rental_uris": {"android": "https://dc.lft.to/lastmile_qr_scan", "ios": "https://dc.lft.to/lastmile_qr_scan"}, "fusion_lon": 0.0, "lat": 38.92367216666667, "bike_id": "24d7a8c0716a317dfcdae7604cdb1bcf", "type": "electric_scooter", "is_reserved": 0, "lon": -77.01953466666667}, {"fusion_lat": 0.0, "name": "67f751e1d7733e9dbe699776ee2dbfcb", "is_disabled": 0, "rental_uris": {"android": "https://dc.lft.to/lastmile_qr_scan", "ios": "https://dc.lft.to/lastmile_qr_scan"}, "fusion_lon": 0.0, "lat": 38.8792415, "bike_id": "67f751e1d7733e9dbe699776ee2dbfcb", "type": "electric_scooter", "is_reserved": 0, "lon": -77.02367133333334}, {"fusion_lat": 0.0, "name": "3bdc7ef0c1933f41033e86f12789a135", "is_disabled": 0, "rental_uris": {"android": "https://dc.lft.to/lastmile_qr_scan", "ios": "https://dc.lft.to/lastmile_qr_scan"}, "fusion_lon": 0.0, "lat": 38.88876616666667, "bike_id": "3bdc7ef0c1933f41033e86f12789a135", "type": "electric_scooter", "is_reserved": 0, "lon": -76.98451416666667}, {"fusion_lat": 0.0, "name": "efdf6c7d5c56d3c38352e1efd008013d", "is_disabled": 0, "rental_uris": {"android": "https://dc.lft.to/lastmile_qr_scan", "ios": "https://dc.lft.to/lastmile_qr_scan"}, "fusion_lon": 0.0, "lat": 38.89617033333333, "bike_id": "efdf6c7d5c56d3c38352e1efd008013d", "type": "electric_scooter", "is_reserved": 0, "lon": -77.0298985}, {"fusion_lat": 0.0, "name": "e481f4ea6ea538b662fa52c4b14c5784", "is_disabled": 0, "rental_uris": {"android": "https://dc.lft.to/lastmile_qr_scan", "ios": "https://dc.lft.to/lastmile_qr_scan"}, "fusion_lon": 0.0, "lat": 38.920465666666665, "bike_id": "e481f4ea6ea538b662fa52c4b14c5784", "type": "electric_scooter", "is_reserved": 0, "lon": -77.00207566666667}, {"fusion_lat": 0.0, "name": "258c1780712c446f24b448a611c780df", "is_disabled": 0, "rental_uris": {"android": "https://dc.lft.to/lastmile_qr_scan", "ios": "https://dc.lft.to/lastmile_qr_scan"}, "fusion_lon": 0.0, "lat": 38.892243, "bike_id": "258c1780712c446f24b448a611c780df", "type": "electric_scooter", "is_reserved": 0, "lon": -77.04804133333333}, {"fusion_lat": 0.0, "name": "8bfea1da807961f1464f9b9006f2c86b", "is_disabled": 0, "rental_uris": {"android": "https://dc.lft.to/lastmile_qr_scan", "ios": "https://dc.lft.to/lastmile_qr_scan"}, "fusion_lon": 0.0, "lat": 38.90034266666667, "bike_id": "8bfea1da807961f1464f9b9006f2c86b", "type": "electric_scooter", "is_reserved": 0, "lon": -76.9883125}, {"fusion_lat": 0.0, "name": "f5c9ed14894925536941295b4e62d741", "is_disabled": 0, "rental_uris": {"android": "https://dc.lft.to/lastmile_qr_scan", "ios": "https://dc.lft.to/lastmile_qr_scan"}, "fusion_lon": 0.0, "lat": 38.901836, "bike_id": "f5c9ed14894925536941295b4e62d741", "type": "electric_scooter", "is_reserved": 0, "lon": -76.928964}, {"fusion_lat": 0.0, "name": "08a277a8996583ba063a9e596d95cc51", "is_disabled": 0, "rental_uris": {"android": "https://dc.lft.to/lastmile_qr_scan", "ios": "https://dc.lft.to/lastmile_qr_scan"}, "fusion_lon": 0.0, "lat": 38.855081166666665, "bike_id": "08a277a8996583ba063a9e596d95cc51", "type": "electric_bike", "is_reserved": 0, "lon": -77.1054055}, {"fusion_lat": 0.0, "name": "d04aaa632b466f1a82b40b0164410d9e", "is_disabled": 0, "rental_uris": {"android": "https://dc.lft.to/lastmile_qr_scan", "ios": "https://dc.lft.to/lastmile_qr_scan"}, "fusion_lon": 0.0, "lat": 38.928278166666665, "bike_id": "d04aaa632b466f1a82b40b0164410d9e", "type": "electric_scooter", "is_reserved": 0, "lon": -77.054372}, {"fusion_lat": 0.0, "name": "5ef5a9ce6dc221d093410250184cfc95", "is_disabled": 0, "rental_uris": {"android": "https://dc.lft.to/lastmile_qr_scan", "ios": "https://dc.lft.to/lastmile_qr_scan"}, "fusion_lon": 0.0, "lat": 38.91404033333333, "bike_id": "5ef5a9ce6dc221d093410250184cfc95", "type": "electric_scooter", "is_reserved": 0, "lon": -77.03182433333333}, {"fusion_lat": 0.0, "name": "0a2009d159fce7237dae507dbbf9b94e", "is_disabled": 0, "rental_uris": {"android": "https://dc.lft.to/lastmile_qr_scan", "ios": "https://dc.lft.to/lastmile_qr_scan"}, "fusion_lon": 0.0, "lat": 38.88630783333333, "bike_id": "0a2009d159fce7237dae507dbbf9b94e", "type": "electric_scooter", "is_reserved": 0, "lon": -76.92585216666667}, {"fusion_lat": 0.0, "name": "b94cb9f9e88f88900d7887d32feb55fe", "is_disabled": 0, "rental_uris": {"android": "https://dc.lft.to/lastmile_qr_scan", "ios": "https://dc.lft.to/lastmile_qr_scan"}, "fusion_lon": 0.0, "lat": 38.883529, "bike_id": "b94cb9f9e88f88900d7887d32feb55fe", "type": "electric_scooter", "is_reserved": 0, "lon": -76.99502416666667}, {"fusion_lat": 0.0, "name": "c6388dc7819e6aefc1cb0ba0709c4b2f", "is_disabled": 0, "rental_uris": {"android": "https://dc.lft.to/lastmile_qr_scan", "ios": "https://dc.lft.to/lastmile_qr_scan"}, "fusion_lon": 0.0, "lat": 38.90158316666667, "bike_id": "c6388dc7819e6aefc1cb0ba0709c4b2f", "type": "electric_scooter", "is_reserved": 0, "lon": -77.049989}, {"fusion_lat": 0.0, "name": "12c8941ce06b5010b10a2a0477a08201", "is_disabled": 0, "rental_uris": {"android": "https://dc.lft.to/lastmile_qr_scan", "ios": "https://dc.lft.to/lastmile_qr_scan"}, "fusion_lon": 0.0, "lat": 38.88628083333333, "bike_id": "12c8941ce06b5010b10a2a0477a08201", "type": "electric_scooter", "is_reserved": 0, "lon": -77.02216566666667}, {"fusion_lat": 0.0, "name": "004aaadb7bc302ffe06350f034d77f73", "is_disabled": 0, "rental_uris": {"android": "https://dc.lft.to/lastmile_qr_scan", "ios": "https://dc.lft.to/lastmile_qr_scan"}, "fusion_lon": 0.0, "lat": 38.916971, "bike_id": "004aaadb7bc302ffe06350f034d77f73", "type": "electric_scooter", "is_reserved": 0, "lon": -77.031546}, {"fusion_lat": 0.0, "name": "f894205373d7ff721f6b1d5d47e81612", "is_disabled": 0, "rental_uris": {"android": "https://dc.lft.to/lastmile_qr_scan", "ios": "https://dc.lft.to/lastmile_qr_scan"}, "fusion_lon": 0.0, "lat": 38.907189333333335, "bike_id": "f894205373d7ff721f6b1d5d47e81612", "type": "electric_scooter", "is_reserved": 0, "lon": -77.04801566666667}, {"fusion_lat": 0.0, "name": "cd127c691c17486c723b0d09fd6913df", "is_disabled": 0, "rental_uris": {"android": "https://dc.lft.to/lastmile_qr_scan", "ios": "https://dc.lft.to/lastmile_qr_scan"}, "fusion_lon": 0.0, "lat": 38.89906883333333, "bike_id": "cd127c691c17486c723b0d09fd6913df", "type": "electric_scooter", "is_reserved": 0, "lon": -77.03289683333334}, {"fusion_lat": 0.0, "name": "8a9ad46cb7d881793eb149a2491d35d7", "is_disabled": 0, "rental_uris": {"android": "https://dc.lft.to/lastmile_qr_scan", "ios": "https://dc.lft.to/lastmile_qr_scan"}, "fusion_lon": 0.0, "lat": 38.9133465, "bike_id": "8a9ad46cb7d881793eb149a2491d35d7", "type": "electric_scooter", "is_reserved": 0, "lon": -77.04868583333334}, {"fusion_lat": 0.0, "name": "64cad8d5dd8d6bdef504bc4bfcd0b282", "is_disabled": 0, "rental_uris": {"android": "https://dc.lft.to/lastmile_qr_scan", "ios": "https://dc.lft.to/lastmile_qr_scan"}, "fusion_lon": 0.0, "lat": 38.91943366666667, "bike_id": "64cad8d5dd8d6bdef504bc4bfcd0b282", "type": "electric_scooter", "is_reserved": 0, "lon": -77.0448}, {"fusion_lat": 0.0, "name": "935fe97aad3cb56e53bb68bad8e195a9", "is_disabled": 0, "rental_uris": {"android": "https://dc.lft.to/lastmile_qr_scan", "ios": "https://dc.lft.to/lastmile_qr_scan"}, "fusion_lon": 0.0, "lat": 38.89832216666667, "bike_id": "935fe97aad3cb56e53bb68bad8e195a9", "type": "electric_scooter", "is_reserved": 0, "lon": -77.03279366666666}, {"fusion_lat": 0.0, "name": "381f5ba4ded3574bb5711552734aa97a", "is_disabled": 0, "rental_uris": {"android": "https://dc.lft.to/lastmile_qr_scan", "ios": "https://dc.lft.to/lastmile_qr_scan"}, "fusion_lon": 0.0, "lat": 38.95758, "bike_id": "381f5ba4ded3574bb5711552734aa97a", "type": "electric_bike", "is_reserved": 0, "lon": -76.98089016666667}, {"fusion_lat": 0.0, "name": "935ade372d5e46f363ada13e2867056b", "is_disabled": 0, "rental_uris": {"android": "https://dc.lft.to/lastmile_qr_scan", "ios": "https://dc.lft.to/lastmile_qr_scan"}, "fusion_lon": 0.0, "lat": 38.92085633333333, "bike_id": "935ade372d5e46f363ada13e2867056b", "type": "electric_scooter", "is_reserved": 0, "lon": -77.02723066666667}, {"fusion_lat": 0.0, "name": "3c104db19f9f4e289a32c8170038e02d", "is_disabled": 0, "rental_uris": {"android": "https://dc.lft.to/lastmile_qr_scan", "ios": "https://dc.lft.to/lastmile_qr_scan"}, "fusion_lon": 0.0, "lat": 38.959684833333334, "bike_id": "3c104db19f9f4e289a32c8170038e02d", "type": "electric_bike", "is_reserved": 0, "lon": -76.98159183333334}, {"fusion_lat": 0.0, "name": "34faaf3a17090240cb217d30769b38f1", "is_disabled": 0, "rental_uris": {"android": "https://dc.lft.to/lastmile_qr_scan", "ios": "https://dc.lft.to/lastmile_qr_scan"}, "fusion_lon": 0.0, "lat": 38.90024433333333, "bike_id": "34faaf3a17090240cb217d30769b38f1", "type": "electric_scooter", "is_reserved": 0, "lon": -77.04382716666667}, {"fusion_lat": 0.0, "name": "d29163cf47f4ef5b2a329474ec8ca5ea", "is_disabled": 0, "rental_uris": {"android": "https://dc.lft.to/lastmile_qr_scan", "ios": "https://dc.lft.to/lastmile_qr_scan"}, "fusion_lon": 0.0, "lat": 38.932007166666665, "bike_id": "d29163cf47f4ef5b2a329474ec8ca5ea", "type": "electric_scooter", "is_reserved": 0, "lon": -76.982822}, {"fusion_lat": 0.0, "name": "c05980d1ac956c7ec9aab5f1ae43e37e", "is_disabled": 0, "rental_uris": {"android": "https://dc.lft.to/lastmile_qr_scan", "ios": "https://dc.lft.to/lastmile_qr_scan"}, "fusion_lon": 0.0, "lat": 38.924172, "bike_id": "c05980d1ac956c7ec9aab5f1ae43e37e", "type": "electric_scooter", "is_reserved": 0, "lon": -77.01943266666666}, {"fusion_lat": 0.0, "name": "d5c6e700e7db516336167c16483741d0", "is_disabled": 0, "rental_uris": {"android": "https://dc.lft.to/lastmile_qr_scan", "ios": "https://dc.lft.to/lastmile_qr_scan"}, "fusion_lon": 0.0, "lat": 38.91911666666667, "bike_id": "d5c6e700e7db516336167c16483741d0", "type": "electric_scooter", "is_reserved": 0, "lon": -77.02617283333333}, {"fusion_lat": 0.0, "name": "89132982df760aaf308c9f30bb741f73", "is_disabled": 0, "rental_uris": {"android": "https://dc.lft.to/lastmile_qr_scan", "ios": "https://dc.lft.to/lastmile_qr_scan"}, "fusion_lon": 0.0, "lat": 38.91598883333333, "bike_id": "89132982df760aaf308c9f30bb741f73", "type": "electric_scooter", "is_reserved": 0, "lon": -77.02391366666667}, {"fusion_lat": 0.0, "name": "53b2563644da1329ba2a9c980b811a46", "is_disabled": 0, "rental_uris": {"android": "https://dc.lft.to/lastmile_qr_scan", "ios": "https://dc.lft.to/lastmile_qr_scan"}, "fusion_lon": 0.0, "lat": 38.9286465, "bike_id": "53b2563644da1329ba2a9c980b811a46", "type": "electric_scooter", "is_reserved": 0, "lon": -77.032232}, {"fusion_lat": 0.0, "name": "9037bcaa3f9a304a1ac9fad43db6d2cc", "is_disabled": 0, "rental_uris": {"android": "https://dc.lft.to/lastmile_qr_scan", "ios": "https://dc.lft.to/lastmile_qr_scan"}, "fusion_lon": 0.0, "lat": 38.896319166666665, "bike_id": "9037bcaa3f9a304a1ac9fad43db6d2cc", "type": "electric_scooter", "is_reserved": 0, "lon": -77.02665583333334}, {"fusion_lat": 0.0, "name": "c5576ead0d9f4fe4f774c65f5914d7f4", "is_disabled": 0, "rental_uris": {"android": "https://dc.lft.to/lastmile_qr_scan", "ios": "https://dc.lft.to/lastmile_qr_scan"}, "fusion_lon": 0.0, "lat": 38.89631133333334, "bike_id": "c5576ead0d9f4fe4f774c65f5914d7f4", "type": "electric_scooter", "is_reserved": 0, "lon": -77.02854566666667}, {"fusion_lat": 0.0, "name": "826a903e2be46459f4e5b3bab4e302ab", "is_disabled": 0, "rental_uris": {"android": "https://dc.lft.to/lastmile_qr_scan", "ios": "https://dc.lft.to/lastmile_qr_scan"}, "fusion_lon": 0.0, "lat": 38.92251366666667, "bike_id": "826a903e2be46459f4e5b3bab4e302ab", "type": "electric_scooter", "is_reserved": 0, "lon": -77.03525933333333}, {"fusion_lat": 0.0, "name": "f8c541570210fea2cdcb17ff20e082bb", "is_disabled": 0, "rental_uris": {"android": "https://dc.lft.to/lastmile_qr_scan", "ios": "https://dc.lft.to/lastmile_qr_scan"}, "fusion_lon": 0.0, "lat": 38.89856983333333, "bike_id": "f8c541570210fea2cdcb17ff20e082bb", "type": "electric_scooter", "is_reserved": 0, "lon": -77.00736733333333}, {"fusion_lat": 0.0, "name": "1d102b76e2cdc092ca102ad8825f6189", "is_disabled": 0, "rental_uris": {"android": "https://dc.lft.to/lastmile_qr_scan", "ios": "https://dc.lft.to/lastmile_qr_scan"}, "fusion_lon": 0.0, "lat": 38.8832565, "bike_id": "1d102b76e2cdc092ca102ad8825f6189", "type": "electric_scooter", "is_reserved": 0, "lon": -77.01742866666666}, {"fusion_lat": 0.0, "name": "7196a816c97ac2edb82dd0618cdb96bb", "is_disabled": 0, "rental_uris": {"android": "https://dc.lft.to/lastmile_qr_scan", "ios": "https://dc.lft.to/lastmile_qr_scan"}, "fusion_lon": 0.0, "lat": 38.892541, "bike_id": "7196a816c97ac2edb82dd0618cdb96bb", "type": "electric_bike", "is_reserved": 0, "lon": -76.9511965}, {"fusion_lat": 0.0, "name": "4febe108dbf959fa4bfef18e2f245a26", "is_disabled": 0, "rental_uris": {"android": "https://dc.lft.to/lastmile_qr_scan", "ios": "https://dc.lft.to/lastmile_qr_scan"}, "fusion_lon": 0.0, "lat": 38.8850875, "bike_id": "4febe108dbf959fa4bfef18e2f245a26", "type": "electric_scooter", "is_reserved": 0, "lon": -77.00568316666667}, {"fusion_lat": 0.0, "name": "964f16d8bb28d0a29ff4c0db75f57765", "is_disabled": 0, "rental_uris": {"android": "https://dc.lft.to/lastmile_qr_scan", "ios": "https://dc.lft.to/lastmile_qr_scan"}, "fusion_lon": 0.0, "lat": 38.90517166666667, "bike_id": "964f16d8bb28d0a29ff4c0db75f57765", "type": "electric_scooter", "is_reserved": 0, "lon": -77.06380833333333}, {"fusion_lat": 0.0, "name": "d69e7b30f6d50bdde1c29055f9cb9e0f", "is_disabled": 0, "rental_uris": {"android": "https://dc.lft.to/lastmile_qr_scan", "ios": "https://dc.lft.to/lastmile_qr_scan"}, "fusion_lon": 0.0, "lat": 38.96731316666666, "bike_id": "d69e7b30f6d50bdde1c29055f9cb9e0f", "type": "electric_scooter", "is_reserved": 0, "lon": -77.00919616666667}, {"fusion_lat": 0.0, "name": "ec095bb6ae48db138b01fd260a9dd797", "is_disabled": 0, "rental_uris": {"android": "https://dc.lft.to/lastmile_qr_scan", "ios": "https://dc.lft.to/lastmile_qr_scan"}, "fusion_lon": 0.0, "lat": 38.952458166666666, "bike_id": "ec095bb6ae48db138b01fd260a9dd797", "type": "electric_scooter", "is_reserved": 0, "lon": -77.023767}, {"fusion_lat": 0.0, "name": "e2bddfaa9c76306a673522b4ac6a3f17", "is_disabled": 0, "rental_uris": {"android": "https://dc.lft.to/lastmile_qr_scan", "ios": "https://dc.lft.to/lastmile_qr_scan"}, "fusion_lon": 0.0, "lat": 38.8873645, "bike_id": "e2bddfaa9c76306a673522b4ac6a3f17", "type": "electric_scooter", "is_reserved": 0, "lon": -77.02579783333333}, {"fusion_lat": 0.0, "name": "eb67d31c67907c10969e4d96ea56fca6", "is_disabled": 0, "rental_uris": {"android": "https://dc.lft.to/lastmile_qr_scan", "ios": "https://dc.lft.to/lastmile_qr_scan"}, "fusion_lon": 0.0, "lat": 38.9148895, "bike_id": "eb67d31c67907c10969e4d96ea56fca6", "type": "electric_scooter", "is_reserved": 0, "lon": -77.03721066666667}, {"fusion_lat": 0.0, "name": "3a47aaa4b815c35caefe0e7b3d436262", "is_disabled": 0, "rental_uris": {"android": "https://dc.lft.to/lastmile_qr_scan", "ios": "https://dc.lft.to/lastmile_qr_scan"}, "fusion_lon": 0.0, "lat": 38.89915366666666, "bike_id": "3a47aaa4b815c35caefe0e7b3d436262", "type": "electric_scooter", "is_reserved": 0, "lon": -77.0271485}, {"fusion_lat": 0.0, "name": "655b956d062031e4228428b94cb4d436", "is_disabled": 0, "rental_uris": {"android": "https://dc.lft.to/lastmile_qr_scan", "ios": "https://dc.lft.to/lastmile_qr_scan"}, "fusion_lon": 0.0, "lat": 38.874500833333336, "bike_id": "655b956d062031e4228428b94cb4d436", "type": "electric_scooter", "is_reserved": 0, "lon": -77.0187915}, {"fusion_lat": 0.0, "name": "3155fd58b8d5f24353166f681691e312", "is_disabled": 0, "rental_uris": {"android": "https://dc.lft.to/lastmile_qr_scan", "ios": "https://dc.lft.to/lastmile_qr_scan"}, "fusion_lon": 0.0, "lat": 38.90971966666667, "bike_id": "3155fd58b8d5f24353166f681691e312", "type": "electric_scooter", "is_reserved": 0, "lon": -77.03317766666666}, {"fusion_lat": 0.0, "name": "ef0c0547cb281a9979291b49997f3d6d", "is_disabled": 0, "rental_uris": {"android": "https://dc.lft.to/lastmile_qr_scan", "ios": "https://dc.lft.to/lastmile_qr_scan"}, "fusion_lon": 0.0, "lat": 38.892228833333334, "bike_id": "ef0c0547cb281a9979291b49997f3d6d", "type": "electric_scooter", "is_reserved": 0, "lon": -77.03977183333333}, {"fusion_lat": 0.0, "name": "af525a7aa000d648bbc2389b687f0402", "is_disabled": 0, "rental_uris": {"android": "https://dc.lft.to/lastmile_qr_scan", "ios": "https://dc.lft.to/lastmile_qr_scan"}, "fusion_lon": 0.0, "lat": 38.8873765, "bike_id": "af525a7aa000d648bbc2389b687f0402", "type": "electric_scooter", "is_reserved": 0, "lon": -77.015288}, {"fusion_lat": 0.0, "name": "48bff038bcdb8556b6c6e1d2c51ed305", "is_disabled": 0, "rental_uris": {"android": "https://dc.lft.to/lastmile_qr_scan", "ios": "https://dc.lft.to/lastmile_qr_scan"}, "fusion_lon": 0.0, "lat": 38.90239116666667, "bike_id": "48bff038bcdb8556b6c6e1d2c51ed305", "type": "electric_scooter", "is_reserved": 0, "lon": -77.001977}, {"fusion_lat": 0.0, "name": "815dd92201c21636a470fcfae1d9e73d", "is_disabled": 0, "rental_uris": {"android": "https://dc.lft.to/lastmile_qr_scan", "ios": "https://dc.lft.to/lastmile_qr_scan"}, "fusion_lon": 0.0, "lat": 38.9156015, "bike_id": "815dd92201c21636a470fcfae1d9e73d", "type": "electric_scooter", "is_reserved": 0, "lon": -77.02135866666667}, {"fusion_lat": 0.0, "name": "f4b8484529a8809d37934fdff4437419", "is_disabled": 0, "rental_uris": {"android": "https://dc.lft.to/lastmile_qr_scan", "ios": "https://dc.lft.to/lastmile_qr_scan"}, "fusion_lon": 0.0, "lat": 38.9787655, "bike_id": "f4b8484529a8809d37934fdff4437419", "type": "electric_bike", "is_reserved": 0, "lon": -77.06023916666666}, {"fusion_lat": 0.0, "name": "2db652c9c955d2241d009414a89e53db", "is_disabled": 0, "rental_uris": {"android": "https://dc.lft.to/lastmile_qr_scan", "ios": "https://dc.lft.to/lastmile_qr_scan"}, "fusion_lon": 0.0, "lat": 38.8392935, "bike_id": "2db652c9c955d2241d009414a89e53db", "type": "electric_bike", "is_reserved": 0, "lon": -77.078971}, {"fusion_lat": 0.0, "name": "c73df1d8e4cccf63b1c63ec07eb9d6b2", "is_disabled": 0, "rental_uris": {"android": "https://dc.lft.to/lastmile_qr_scan", "ios": "https://dc.lft.to/lastmile_qr_scan"}, "fusion_lon": 0.0, "lat": 38.9436845, "bike_id": "c73df1d8e4cccf63b1c63ec07eb9d6b2", "type": "electric_bike", "is_reserved": 0, "lon": -77.02226333333333}, {"fusion_lat": 0.0, "name": "24aae4d9601b488048216f86488fe354", "is_disabled": 0, "rental_uris": {"android": "https://dc.lft.to/lastmile_qr_scan", "ios": "https://dc.lft.to/lastmile_qr_scan"}, "fusion_lon": 0.0, "lat": 38.9135725, "bike_id": "24aae4d9601b488048216f86488fe354", "type": "electric_scooter", "is_reserved": 0, "lon": -77.04570633333333}, {"fusion_lat": 0.0, "name": "35677163ca99dc419392dcbea877e1b1", "is_disabled": 0, "rental_uris": {"android": "https://dc.lft.to/lastmile_qr_scan", "ios": "https://dc.lft.to/lastmile_qr_scan"}, "fusion_lon": 0.0, "lat": 38.921023, "bike_id": "35677163ca99dc419392dcbea877e1b1", "type": "electric_scooter", "is_reserved": 0, "lon": -77.0421995}, {"fusion_lat": 0.0, "name": "330f39c1e7d7345f41a9fd54c5718c7a", "is_disabled": 0, "rental_uris": {"android": "https://dc.lft.to/lastmile_qr_scan", "ios": "https://dc.lft.to/lastmile_qr_scan"}, "fusion_lon": 0.0, "lat": 38.89676633333333, "bike_id": "330f39c1e7d7345f41a9fd54c5718c7a", "type": "electric_scooter", "is_reserved": 0, "lon": -77.032248}, {"fusion_lat": 0.0, "name": "1e167aa01e3a451a4a0ae3640359b903", "is_disabled": 0, "rental_uris": {"android": "https://dc.lft.to/lastmile_qr_scan", "ios": "https://dc.lft.to/lastmile_qr_scan"}, "fusion_lon": 0.0, "lat": 38.90737133333333, "bike_id": "1e167aa01e3a451a4a0ae3640359b903", "type": "electric_scooter", "is_reserved": 0, "lon": -76.99779616666666}, {"fusion_lat": 0.0, "name": "80964da65cab2f0b65e9466c9e820575", "is_disabled": 0, "rental_uris": {"android": "https://dc.lft.to/lastmile_qr_scan", "ios": "https://dc.lft.to/lastmile_qr_scan"}, "fusion_lon": 0.0, "lat": 38.917503833333335, "bike_id": "80964da65cab2f0b65e9466c9e820575", "type": "electric_scooter", "is_reserved": 0, "lon": -77.03850816666667}, {"fusion_lat": 0.0, "name": "1b495afe67cdec5e709afb6df66214e2", "is_disabled": 0, "rental_uris": {"android": "https://dc.lft.to/lastmile_qr_scan", "ios": "https://dc.lft.to/lastmile_qr_scan"}, "fusion_lon": 0.0, "lat": 38.900372, "bike_id": "1b495afe67cdec5e709afb6df66214e2", "type": "electric_scooter", "is_reserved": 0, "lon": -77.01174016666667}, {"fusion_lat": 0.0, "name": "a86efa11459167e6b9ce5865f9117afd", "is_disabled": 0, "rental_uris": {"android": "https://dc.lft.to/lastmile_qr_scan", "ios": "https://dc.lft.to/lastmile_qr_scan"}, "fusion_lon": 0.0, "lat": 38.88488866666667, "bike_id": "a86efa11459167e6b9ce5865f9117afd", "type": "electric_scooter", "is_reserved": 0, "lon": -77.00709083333334}, {"fusion_lat": 0.0, "name": "00bf2d434cbcec2ce9e6771f83243c77", "is_disabled": 0, "rental_uris": {"android": "https://dc.lft.to/lastmile_qr_scan", "ios": "https://dc.lft.to/lastmile_qr_scan"}, "fusion_lon": 0.0, "lat": 38.86763916666666, "bike_id": "00bf2d434cbcec2ce9e6771f83243c77", "type": "electric_scooter", "is_reserved": 0, "lon": -76.98279}, {"fusion_lat": 0.0, "name": "1a731f09e1e340f99da0c63f20b25eff", "is_disabled": 0, "rental_uris": {"android": "https://dc.lft.to/lastmile_qr_scan", "ios": "https://dc.lft.to/lastmile_qr_scan"}, "fusion_lon": 0.0, "lat": 38.888747, "bike_id": "1a731f09e1e340f99da0c63f20b25eff", "type": "electric_scooter", "is_reserved": 0, "lon": -76.97732183333333}, {"fusion_lat": 0.0, "name": "857f6c6f30cf157f1773d0252eb907b0", "is_disabled": 0, "rental_uris": {"android": "https://dc.lft.to/lastmile_qr_scan", "ios": "https://dc.lft.to/lastmile_qr_scan"}, "fusion_lon": 0.0, "lat": 38.90279483333333, "bike_id": "857f6c6f30cf157f1773d0252eb907b0", "type": "electric_scooter", "is_reserved": 0, "lon": -77.01767566666666}, {"fusion_lat": 0.0, "name": "ddffd0c6779b98b1c82627763e867465", "is_disabled": 0, "rental_uris": {"android": "https://dc.lft.to/lastmile_qr_scan", "ios": "https://dc.lft.to/lastmile_qr_scan"}, "fusion_lon": 0.0, "lat": 38.87604133333333, "bike_id": "ddffd0c6779b98b1c82627763e867465", "type": "electric_scooter", "is_reserved": 0, "lon": -77.00658816666666}, {"fusion_lat": 0.0, "name": "60ee63bd5d171c7ee6f9997c91f75790", "is_disabled": 0, "rental_uris": {"android": "https://dc.lft.to/lastmile_qr_scan", "ios": "https://dc.lft.to/lastmile_qr_scan"}, "fusion_lon": 0.0, "lat": 38.820039, "bike_id": "60ee63bd5d171c7ee6f9997c91f75790", "type": "electric_bike", "is_reserved": 0, "lon": -76.998175}, {"fusion_lat": 0.0, "name": "e2b9e544f142e418220fe628b7ac915e", "is_disabled": 0, "rental_uris": {"android": "https://dc.lft.to/lastmile_qr_scan", "ios": "https://dc.lft.to/lastmile_qr_scan"}, "fusion_lon": 0.0, "lat": 38.92885966666667, "bike_id": "e2b9e544f142e418220fe628b7ac915e", "type": "electric_scooter", "is_reserved": 0, "lon": -77.03285516666666}, {"fusion_lat": 0.0, "name": "f3252e6039818e0b0a9dc0f6f9a6f517", "is_disabled": 0, "rental_uris": {"android": "https://dc.lft.to/lastmile_qr_scan", "ios": "https://dc.lft.to/lastmile_qr_scan"}, "fusion_lon": 0.0, "lat": 38.91309833333333, "bike_id": "f3252e6039818e0b0a9dc0f6f9a6f517", "type": "electric_scooter", "is_reserved": 0, "lon": -77.038546}, {"fusion_lat": 0.0, "name": "7289a88cdb30003853e1883fdc912cec", "is_disabled": 0, "rental_uris": {"android": "https://dc.lft.to/lastmile_qr_scan", "ios": "https://dc.lft.to/lastmile_qr_scan"}, "fusion_lon": 0.0, "lat": 38.96130216666667, "bike_id": "7289a88cdb30003853e1883fdc912cec", "type": "electric_scooter", "is_reserved": 0, "lon": -77.027841}, {"fusion_lat": 0.0, "name": "9909295514eac5c4a639f8897ea5e34c", "is_disabled": 0, "rental_uris": {"android": "https://dc.lft.to/lastmile_qr_scan", "ios": "https://dc.lft.to/lastmile_qr_scan"}, "fusion_lon": 0.0, "lat": 38.903024, "bike_id": "9909295514eac5c4a639f8897ea5e34c", "type": "electric_scooter", "is_reserved": 0, "lon": -77.0601615}, {"fusion_lat": 0.0, "name": "44416d36f196ad95e919c1c7353cc92c", "is_disabled": 0, "rental_uris": {"android": "https://dc.lft.to/lastmile_qr_scan", "ios": "https://dc.lft.to/lastmile_qr_scan"}, "fusion_lon": 0.0, "lat": 38.86629116666667, "bike_id": "44416d36f196ad95e919c1c7353cc92c", "type": "electric_scooter", "is_reserved": 0, "lon": -76.987114}, {"fusion_lat": 0.0, "name": "a6d0c8b0778750a329f96169153ccb0b", "is_disabled": 0, "rental_uris": {"android": "https://dc.lft.to/lastmile_qr_scan", "ios": "https://dc.lft.to/lastmile_qr_scan"}, "fusion_lon": 0.0, "lat": 38.920621, "bike_id": "a6d0c8b0778750a329f96169153ccb0b", "type": "electric_scooter", "is_reserved": 0, "lon": -76.99537466666666}, {"fusion_lat": 0.0, "name": "52268301175d7a36200c9329157b7b94", "is_disabled": 0, "rental_uris": {"android": "https://dc.lft.to/lastmile_qr_scan", "ios": "https://dc.lft.to/lastmile_qr_scan"}, "fusion_lon": 0.0, "lat": 38.913510333333335, "bike_id": "52268301175d7a36200c9329157b7b94", "type": "electric_scooter", "is_reserved": 0, "lon": -77.0205485}, {"fusion_lat": 0.0, "name": "0555110c4e1368afde607469c826570c", "is_disabled": 0, "rental_uris": {"android": "https://dc.lft.to/lastmile_qr_scan", "ios": "https://dc.lft.to/lastmile_qr_scan"},