{"data": {"bikes": [{"is_disabled": 0, "rental_uris": {"android": "https://dc.lft.to/lastmile_qr_scan", "ios": "https://dc.lft.to/lastmile_qr_scan"}, "is_reserved": 0, "name": "f7870907af85c68fadc36fc958d697e1", "lon": -77.03956683333334, "type": "electric_scooter", "bike_id": "f7870907af85c68fadc36fc958d697e1", "fusion_lon": 0.0, "lat": 38.9096105, "fusion_lat": 0.0}, {"is_disabled": 0, "rental_uris": {"android": "https://dc.lft.to/lastmile_qr_scan", "ios": "https://dc.lft.to/lastmile_qr_scan"}, "is_reserved": 0, "name": "aaa2d972493fcd1a44f05aedafe1c9b7", "lon": -77.03662166666666, "type": "electric_scooter", "bike_id": "aaa2d972493fcd1a44f05aedafe1c9b7", "fusion_lon": 0.0, "lat": 38.917154833333335, "fusion_lat": 0.0}, {"is_disabled": 0, "rental_uris": {"android": "https://dc.lft.to/lastmile_qr_scan", "ios": "https://dc.lft.to/lastmile_qr_scan"}, "is_reserved": 0, "name": "ed25f5bcbc9830e58b7c80f78e9f6fc8", "lon": -76.96369516666667, "type": "electric_bike", "bike_id": "ed25f5bcbc9830e58b7c80f78e9f6fc8", "fusion_lon": 0.0, "lat": 38.948964833333335, "fusion_lat": 0.0}, {"is_disabled": 0, "rental_uris": {"android": "https://dc.lft.to/lastmile_qr_scan", "ios": "https://dc.lft.to/lastmile_qr_scan"}, "is_reserved": 0, "name": "6ffdefed97c6558e2f730c9e3bc03b37", "lon": -77.02256933333334, "type": "electric_scooter", "bike_id": "6ffdefed97c6558e2f730c9e3bc03b37", "fusion_lon": 0.0, "lat": 38.92827066666667, "fusion_lat": 0.0}, {"is_disabled": 0, "rental_uris": {"android": "https://dc.lft.to/lastmile_qr_scan", "ios": "https://dc.lft.to/lastmile_qr_scan"}, "is_reserved": 0, "name": "7f7fa950db2c148cd80d9b1b8581f8fb", "lon": -77.043861, "type": "electric_bike", "bike_id": "7f7fa950db2c148cd80d9b1b8581f8fb", "fusion_lon": 0.0, "lat": 39.0526905, "fusion_lat": 0.0}, {"is_disabled": 0, "rental_uris": {"android": "https://dc.lft.to/lastmile_qr_scan", "ios": "https://dc.lft.to/lastmile_qr_scan"}, "is_reserved": 0, "name": "fbcd83c0ae030f189253568e6eaf5bf9", "lon": -77.02204333333333, "type": "electric_scooter", "bike_id": "fbcd83c0ae030f189253568e6eaf5bf9", "fusion_lon": 0.0, "lat": 38.91113466666667, "fusion_lat": 0.0}, {"is_disabled": 0, "rental_uris": {"android": "https://dc.lft.to/lastmile_qr_scan", "ios": "https://dc.lft.to/lastmile_qr_scan"}, "is_reserved": 0, "name": "6af028135ac2cd43be9c784739ad8e7b", "lon": -77.02957766666667, "type": "electric_bike", "bike_id": "6af028135ac2cd43be9c784739ad8e7b", "fusion_lon": 0.0, "lat": 38.93713, "fusion_lat": 0.0}, {"is_disabled": 0, "rental_uris": {"android": "https://dc.lft.to/lastmile_qr_scan", "ios": "https://dc.lft.to/lastmile_qr_scan"}, "is_reserved": 0, "name": "e9670c1ace5a3424dde8369f06795fff", "lon": -77.04137683333333, "type": "electric_scooter", "bike_id": "e9670c1ace5a3424dde8369f06795fff", "fusion_lon": 0.0, "lat": 38.93338116666666, "fusion_lat": 0.0}, {"is_disabled": 0, "rental_uris": {"android": "https://dc.lft.to/lastmile_qr_scan", "ios": "https://dc.lft.to/lastmile_qr_scan"}, "is_reserved": 0, "name": "333a14ba5b72947770518bdf6239dd39", "lon": -77.02661283333333, "type": "electric_scooter", "bike_id": "333a14ba5b72947770518bdf6239dd39", "fusion_lon": 0.0, "lat": 38.921837, "fusion_lat": 0.0}, {"is_disabled": 0, "rental_uris": {"android": "https://dc.lft.to/lastmile_qr_scan", "ios": "https://dc.lft.to/lastmile_qr_scan"}, "is_reserved": 0, "name": "94aee53e06c451c6973b749656695cd3", "lon": -77.03806566666667, "type": "electric_scooter", "bike_id": "94aee53e06c451c6973b749656695cd3", "fusion_lon": 0.0, "lat": 38.93218233333333, "fusion_lat": 0.0}, {"is_disabled": 0, "rental_uris": {"android": "https://dc.lft.to/lastmile_qr_scan", "ios": "https://dc.lft.to/lastmile_qr_scan"}, "is_reserved": 0, "name": "88f3522270bac631bc04095dd284b572", "lon": -77.04622966666666, "type": "electric_scooter", "bike_id": "88f3522270bac631bc04095dd284b572", "fusion_lon": 0.0, "lat": 38.923208833333334, "fusion_lat": 0.0}, {"is_disabled": 0, "rental_uris": {"android": "https://dc.lft.to/lastmile_qr_scan", "ios": "https://dc.lft.to/lastmile_qr_scan"}, "is_reserved": 0, "name": "9ed8d09174c52d4ca6746f547756ae5e", "lon": -77.0421035, "type": "electric_scooter", "bike_id": "9ed8d09174c52d4ca6746f547756ae5e", "fusion_lon": 0.0, "lat": 38.916992666666665, "fusion_lat": 0.0}, {"is_disabled": 0, "rental_uris": {"android": "https://dc.lft.to/lastmile_qr_scan", "ios": "https://dc.lft.to/lastmile_qr_scan"}, "is_reserved": 0, "name": "97ba565896cfed8554f2d3fe15ab7624", "lon": -77.03193733333333, "type": "electric_scooter", "bike_id": "97ba565896cfed8554f2d3fe15ab7624", "fusion_lon": 0.0, "lat": 38.922832166666666, "fusion_lat": 0.0}, {"is_disabled": 0, "rental_uris": {"android": "https://dc.lft.to/lastmile_qr_scan", "ios": "https://dc.lft.to/lastmile_qr_scan"}, "is_reserved": 0, "name": "401210ea3e3a9dc0b1490f945bfe0b18", "lon": -77.03940233333333, "type": "electric_scooter", "bike_id": "401210ea3e3a9dc0b1490f945bfe0b18", "fusion_lon": 0.0, "lat": 38.915573, "fusion_lat": 0.0}, {"is_disabled": 0, "rental_uris": {"android": "https://dc.lft.to/lastmile_qr_scan", "ios": "https://dc.lft.to/lastmile_qr_scan"}, "is_reserved": 0, "name": "bd3648a887ac69a90dd478a09626d1ff", "lon": -77.03855616666667, "type": "electric_scooter", "bike_id": "bd3648a887ac69a90dd478a09626d1ff", "fusion_lon": 0.0, "lat": 38.9037095, "fusion_lat": 0.0}, {"is_disabled": 0, "rental_uris": {"android": "https://dc.lft.to/lastmile_qr_scan", "ios": "https://dc.lft.to/lastmile_qr_scan"}, "is_reserved": 0, "name": "68931f3c7f498b13e7e286ea02b8a678", "lon": -76.92701266666667, "type": "electric_scooter", "bike_id": "68931f3c7f498b13e7e286ea02b8a678", "fusion_lon": 0.0, "lat": 38.88534816666667, "fusion_lat": 0.0}, {"is_disabled": 0, "rental_uris": {"android": "https://dc.lft.to/lastmile_qr_scan", "ios": "https://dc.lft.to/lastmile_qr_scan"}, "is_reserved": 0, "name": "538487f7bca2dd7bd6b0b626c016b5e5", "lon": -77.02963183333334, "type": "electric_scooter", "bike_id": "538487f7bca2dd7bd6b0b626c016b5e5", "fusion_lon": 0.0, "lat": 38.92146983333333, "fusion_lat": 0.0}, {"is_disabled": 0, "rental_uris": {"android": "https://dc.lft.to/lastmile_qr_scan", "ios": "https://dc.lft.to/lastmile_qr_scan"}, "is_reserved": 0, "name": "9f582da8befdc645ee862322e398d4cf", "lon": -77.032039, "type": "electric_scooter", "bike_id": "9f582da8befdc645ee862322e398d4cf", "fusion_lon": 0.0, "lat": 38.903569166666664, "fusion_lat": 0.0}, {"is_disabled": 0, "rental_uris": {"android": "https://dc.lft.to/lastmile_qr_scan", "ios": "https://dc.lft.to/lastmile_qr_scan"}, "is_reserved": 0, "name": "f10d9cc2ddff8f21e756052ad3c9cc19", "lon": -77.01014133333334, "type": "electric_scooter", "bike_id": "f10d9cc2ddff8f21e756052ad3c9cc19", "fusion_lon": 0.0, "lat": 38.87965916666667, "fusion_lat": 0.0}, {"is_disabled": 0, "rental_uris": {"android": "https://dc.lft.to/lastmile_qr_scan", "ios": "https://dc.lft.to/lastmile_qr_scan"}, "is_reserved": 0, "name": "575deea8d97f4c7ed09113c74b0dc532", "lon": -77.022265, "type": "electric_scooter", "bike_id": "575deea8d97f4c7ed09113c74b0dc532", "fusion_lon": 0.0, "lat": 38.892204166666666, "fusion_lat": 0.0}, {"is_disabled": 0, "rental_uris": {"android": "https://dc.lft.to/lastmile_qr_scan", "ios": "https://dc.lft.to/lastmile_qr_scan"}, "is_reserved": 0, "name": "fa787437ae1676947850c8c2dab8b3be", "lon": -77.0057755, "type": "electric_scooter", "bike_id": "fa787437ae1676947850c8c2dab8b3be", "fusion_lon": 0.0, "lat": 38.928166166666664, "fusion_lat": 0.0}, {"is_disabled": 0, "rental_uris": {"android": "https://dc.lft.to/lastmile_qr_scan", "ios": "https://dc.lft.to/lastmile_qr_scan"}, "is_reserved": 0, "name": "c7142d0d80807bcf7121b113808b3b95", "lon": -76.99059516666667, "type": "electric_scooter", "bike_id": "c7142d0d80807bcf7121b113808b3b95", "fusion_lon": 0.0, "lat": 38.863638, "fusion_lat": 0.0}, {"is_disabled": 0, "rental_uris": {"android": "https://dc.lft.to/lastmile_qr_scan", "ios": "https://dc.lft.to/lastmile_qr_scan"}, "is_reserved": 0, "name": "33866cdce66d8b388e2b919d4c0e95f8", "lon": -76.9951735, "type": "electric_scooter", "bike_id": "33866cdce66d8b388e2b919d4c0e95f8", "fusion_lon": 0.0, "lat": 38.894833, "fusion_lat": 0.0}, {"is_disabled": 0, "rental_uris": {"android": "https://dc.lft.to/lastmile_qr_scan", "ios": "https://dc.lft.to/lastmile_qr_scan"}, "is_reserved": 0, "name": "c8fefeecb147c79fb95efe601add9574", "lon": -77.00340033333333, "type": "electric_scooter", "bike_id": "c8fefeecb147c79fb95efe601add9574", "fusion_lon": 0.0, "lat": 38.90362866666667, "fusion_lat": 0.0}, {"is_disabled": 0, "rental_uris": {"android": "https://dc.lft.to/lastmile_qr_scan", "ios": "https://dc.lft.to/lastmile_qr_scan"}, "is_reserved": 0, "name": "d3297348d709eb0a3a921f80274e6de7", "lon": -77.04783216666667, "type": "electric_scooter", "bike_id": "d3297348d709eb0a3a921f80274e6de7", "fusion_lon": 0.0, "lat": 38.89974, "fusion_lat": 0.0}, {"is_disabled": 0, "rental_uris": {"android": "https://dc.lft.to/lastmile_qr_scan", "ios": "https://dc.lft.to/lastmile_qr_scan"}, "is_reserved": 0, "name": "079365f8144dbb04fa7f85d08ae90c84", "lon": -76.994124, "type": "electric_scooter", "bike_id": "079365f8144dbb04fa7f85d08ae90c84", "fusion_lon": 0.0, "lat": 38.89491066666667, "fusion_lat": 0.0}, {"is_disabled": 0, "rental_uris": {"android": "https://dc.lft.to/lastmile_qr_scan", "ios": "https://dc.lft.to/lastmile_qr_scan"}, "is_reserved": 0, "name": "c1c5c56964a7cf3bc2e469a45d6ad07f", "lon": -77.0118265, "type": "electric_scooter", "bike_id": "c1c5c56964a7cf3bc2e469a45d6ad07f", "fusion_lon": 0.0, "lat": 38.900273166666665, "fusion_lat": 0.0}, {"is_disabled": 0, "rental_uris": {"android": "https://dc.lft.to/lastmile_qr_scan", "ios": "https://dc.lft.to/lastmile_qr_scan"}, "is_reserved": 0, "name": "d266c67e3fa3c47cccc59871292c1358", "lon": -77.01861583333333, "type": "electric_scooter", "bike_id": "d266c67e3fa3c47cccc59871292c1358", "fusion_lon": 0.0, "lat": 38.90416966666667, "fusion_lat": 0.0}, {"is_disabled": 0, "rental_uris": {"android": "https://dc.lft.to/lastmile_qr_scan", "ios": "https://dc.lft.to/lastmile_qr_scan"}, "is_reserved": 0, "name": "91f85e554dad1f3270d1993043a88521", "lon": -76.94883833333333, "type": "electric_scooter", "bike_id": "91f85e554dad1f3270d1993043a88521", "fusion_lon": 0.0, "lat": 38.8950975, "fusion_lat": 0.0}, {"is_disabled": 0, "rental_uris": {"android": "https://dc.lft.to/lastmile_qr_scan", "ios": "https://dc.lft.to/lastmile_qr_scan"}, "is_reserved": 0, "name": "5172accc24ac776a088b2f2618411490", "lon": -77.04125383333333, "type": "electric_scooter", "bike_id": "5172accc24ac776a088b2f2618411490", "fusion_lon": 0.0, "lat": 38.917088666666665, "fusion_lat": 0.0}, {"is_disabled": 0, "rental_uris": {"android": "https://dc.lft.to/lastmile_qr_scan", "ios": "https://dc.lft.to/lastmile_qr_scan"}, "is_reserved": 0, "name": "91d697fb8c1936a71e03531904275cab", "lon": -76.996812, "type": "electric_scooter", "bike_id": "91d697fb8c1936a71e03531904275cab", "fusion_lon": 0.0, "lat": 38.8603095, "fusion_lat": 0.0}, {"is_disabled": 0, "rental_uris": {"android": "https://dc.lft.to/lastmile_qr_scan", "ios": "https://dc.lft.to/lastmile_qr_scan"}, "is_reserved": 0, "name": "3fd3420415434ea8a2be6aa7dfc502fa", "lon": -76.992285, "type": "electric_scooter", "bike_id": "3fd3420415434ea8a2be6aa7dfc502fa", "fusion_lon": 0.0, "lat": 38.8988795, "fusion_lat": 0.0}, {"is_disabled": 0, "rental_uris": {"android": "https://dc.lft.to/lastmile_qr_scan", "ios": "https://dc.lft.to/lastmile_qr_scan"}, "is_reserved": 0, "name": "91d644452e75e869564474701609a13b", "lon": -77.04791766666666, "type": "electric_bike", "bike_id": "91d644452e75e869564474701609a13b", "fusion_lon": 0.0, "lat": 38.919342, "fusion_lat": 0.0}, {"is_disabled": 0, "rental_uris": {"android": "https://dc.lft.to/lastmile_qr_scan", "ios": "https://dc.lft.to/lastmile_qr_scan"}, "is_reserved": 0, "name": "8a4c0fb46a83d7b756ad26fb6dac0fec", "lon": -77.00126316666666, "type": "electric_bike", "bike_id": "8a4c0fb46a83d7b756ad26fb6dac0fec", "fusion_lon": 0.0, "lat": 38.9993585, "fusion_lat": 0.0}, {"is_disabled": 0, "rental_uris": {"android": "https://dc.lft.to/lastmile_qr_scan", "ios": "https://dc.lft.to/lastmile_qr_scan"}, "is_reserved": 0, "name": "d7c2c481148a81e6640dafe593061449", "lon": -77.09581183333333, "type": "electric_bike", "bike_id": "d7c2c481148a81e6640dafe593061449", "fusion_lon": 0.0, "lat": 38.837923333333336, "fusion_lat": 0.0}, {"is_disabled": 0, "rental_uris": {"android": "https://dc.lft.to/lastmile_qr_scan", "ios": "https://dc.lft.to/lastmile_qr_scan"}, "is_reserved": 0, "name": "4ca5119c8d328605ecd7ca8630c6e3ea", "lon": -77.002632, "type": "electric_scooter", "bike_id": "4ca5119c8d328605ecd7ca8630c6e3ea", "fusion_lon": 0.0, "lat": 38.91175233333333, "fusion_lat": 0.0}, {"is_disabled": 0, "rental_uris": {"android": "https://dc.lft.to/lastmile_qr_scan", "ios": "https://dc.lft.to/lastmile_qr_scan"}, "is_reserved": 0, "name": "ef6ef3f11abbe3787ca730759eb22455", "lon": -77.025687, "type": "electric_scooter", "bike_id": "ef6ef3f11abbe3787ca730759eb22455", "fusion_lon": 0.0, "lat": 38.899602, "fusion_lat": 0.0}, {"is_disabled": 0, "rental_uris": {"android": "https://dc.lft.to/lastmile_qr_scan", "ios": "https://dc.lft.to/lastmile_qr_scan"}, "is_reserved": 0, "name": "64ab7b529ee108618f48518a76b71a11", "lon": -77.03610883333333, "type": "electric_scooter", "bike_id": "64ab7b529ee108618f48518a76b71a11", "fusion_lon": 0.0, "lat": 38.9315075, "fusion_lat": 0.0}, {"is_disabled": 0, "rental_uris": {"android": "https://dc.lft.to/lastmile_qr_scan", "ios": "https://dc.lft.to/lastmile_qr_scan"}, "is_reserved": 0, "name": "8d2b86a6729a7c4e774646bc92cc174d", "lon": -76.94701766666667, "type": "electric_scooter", "bike_id": "8d2b86a6729a7c4e774646bc92cc174d", "fusion_lon": 0.0, "lat": 38.89728733333333, "fusion_lat": 0.0}, {"is_disabled": 0, "rental_uris": {"android": "https://dc.lft.to/lastmile_qr_scan", "ios": "https://dc.lft.to/lastmile_qr_scan"}, "is_reserved": 0, "name": "b89f2850324f0443fd3cce246f4795f6", "lon": -77.03061483333333, "type": "electric_scooter", "bike_id": "b89f2850324f0443fd3cce246f4795f6", "fusion_lon": 0.0, "lat": 38.9562795, "fusion_lat": 0.0}, {"is_disabled": 0, "rental_uris": {"android": "https://dc.lft.to/lastmile_qr_scan", "ios": "https://dc.lft.to/lastmile_qr_scan"}, "is_reserved": 0, "name": "434ec8fed4ea05ff4ff2015282cec97e", "lon": -77.1477995, "type": "electric_bike", "bike_id": "434ec8fed4ea05ff4ff2015282cec97e", "fusion_lon": 0.0, "lat": 39.095967333333334, "fusion_lat": 0.0}, {"is_disabled": 0, "rental_uris": {"android": "https://dc.lft.to/lastmile_qr_scan", "ios": "https://dc.lft.to/lastmile_qr_scan"}, "is_reserved": 0, "name": "126dc37d9e73c86e9009c6b007c039dd", "lon": -76.99736133333333, "type": "electric_scooter", "bike_id": "126dc37d9e73c86e9009c6b007c039dd", "fusion_lon": 0.0, "lat": 38.924598, "fusion_lat": 0.0}, {"is_disabled": 0, "rental_uris": {"android": "https://dc.lft.to/lastmile_qr_scan", "ios": "https://dc.lft.to/lastmile_qr_scan"}, "is_reserved": 0, "name": "f964bcae256829984853d3ecd9d4b159", "lon": -77.03462183333333, "type": "electric_scooter", "bike_id": "f964bcae256829984853d3ecd9d4b159", "fusion_lon": 0.0, "lat": 38.91388333333333, "fusion_lat": 0.0}, {"is_disabled": 0, "rental_uris": {"android": "https://dc.lft.to/lastmile_qr_scan", "ios": "https://dc.lft.to/lastmile_qr_scan"}, "is_reserved": 0, "name": "b332d51a664a1d362adfa52b16210501", "lon": -77.01615066666666, "type": "electric_scooter", "bike_id": "b332d51a664a1d362adfa52b16210501", "fusion_lon": 0.0, "lat": 38.898626166666666, "fusion_lat": 0.0}, {"is_disabled": 0, "rental_uris": {"android": "https://dc.lft.to/lastmile_qr_scan", "ios": "https://dc.lft.to/lastmile_qr_scan"}, "is_reserved": 0, "name": "486946e5dc81d0b45f8d84df817457e8", "lon": -77.353095, "type": "electric_bike", "bike_id": "486946e5dc81d0b45f8d84df817457e8", "fusion_lon": 0.0, "lat": 38.950004, "fusion_lat": 0.0}, {"is_disabled": 0, "rental_uris": {"android": "https://dc.lft.to/lastmile_qr_scan", "ios": "https://dc.lft.to/lastmile_qr_scan"}, "is_reserved": 0, "name": "eb471c15d2d52832eca76f52ed057330", "lon": -77.04679733333333, "type": "electric_scooter", "bike_id": "eb471c15d2d52832eca76f52ed057330", "fusion_lon": 0.0, "lat": 38.91581583333333, "fusion_lat": 0.0}, {"is_disabled": 0, "rental_uris": {"android": "https://dc.lft.to/lastmile_qr_scan", "ios": "https://dc.lft.to/lastmile_qr_scan"}, "is_reserved": 0, "name": "8ef790ca28f06a4298842c91a25939ab", "lon": -77.02487616666667, "type": "electric_scooter", "bike_id": "8ef790ca28f06a4298842c91a25939ab", "fusion_lon": 0.0, "lat": 38.939119, "fusion_lat": 0.0}, {"is_disabled": 0, "rental_uris": {"android": "https://dc.lft.to/lastmile_qr_scan", "ios": "https://dc.lft.to/lastmile_qr_scan"}, "is_reserved": 0, "name": "9b389d319ad3baa718a90d4280dc905b", "lon": -77.045049, "type": "electric_scooter", "bike_id": "9b389d319ad3baa718a90d4280dc905b", "fusion_lon": 0.0, "lat": 38.90659983333333, "fusion_lat": 0.0}, {"is_disabled": 0, "rental_uris": {"android": "https://dc.lft.to/lastmile_qr_scan", "ios": "https://dc.lft.to/lastmile_qr_scan"}, "is_reserved": 0, "name": "a410a8f79b78ea0a0999121c60652cd1", "lon": -77.03856983333333, "type": "electric_scooter", "bike_id": "a410a8f79b78ea0a0999121c60652cd1", "fusion_lon": 0.0, "lat": 38.912251166666664, "fusion_lat": 0.0}, {"is_disabled": 0, "rental_uris": {"android": "https://dc.lft.to/lastmile_qr_scan", "ios": "https://dc.lft.to/lastmile_qr_scan"}, "is_reserved": 0, "name": "791bb1b03509606f3ad3508093816a78", "lon": -77.055459, "type": "electric_scooter", "bike_id": "791bb1b03509606f3ad3508093816a78", "fusion_lon": 0.0, "lat": 38.89976883333333, "fusion_lat": 0.0}, {"is_disabled": 0, "rental_uris": {"android": "https://dc.lft.to/lastmile_qr_scan", "ios": "https://dc.lft.to/lastmile_qr_scan"}, "is_reserved": 0, "name": "ef91565a8c7194606bee50c312d761e5", "lon": -77.032018, "type": "electric_scooter", "bike_id": "ef91565a8c7194606bee50c312d761e5", "fusion_lon": 0.0, "lat": 38.93070766666666, "fusion_lat": 0.0}, {"is_disabled": 0, "rental_uris": {"android": "https://dc.lft.to/lastmile_qr_scan", "ios": "https://dc.lft.to/lastmile_qr_scan"}, "is_reserved": 0, "name": "e1b42d4e60422c850d647333c283b905", "lon": -77.05113116666666, "type": "electric_bike", "bike_id": "e1b42d4e60422c850d647333c283b905", "fusion_lon": 0.0, "lat": 38.945597, "fusion_lat": 0.0}, {"is_disabled": 0, "rental_uris": {"android": "https://dc.lft.to/lastmile_qr_scan", "ios": "https://dc.lft.to/lastmile_qr_scan"}, "is_reserved": 0, "name": "c90be97364560b2a8c5efcbecd5269ca", "lon": -77.10722133333333, "type": "electric_bike", "bike_id": "c90be97364560b2a8c5efcbecd5269ca", "fusion_lon": 0.0, "lat": 38.8556105, "fusion_lat": 0.0}, {"is_disabled": 0, "rental_uris": {"android": "https://dc.lft.to/lastmile_qr_scan", "ios": "https://dc.lft.to/lastmile_qr_scan"}, "is_reserved": 0, "name": "54938d79b313282b60871c482778d164", "lon": -77.0064645, "type": "electric_bike", "bike_id": "54938d79b313282b60871c482778d164", "fusion_lon": 0.0, "lat": 38.94476233333334, "fusion_lat": 0.0}, {"is_disabled": 0, "rental_uris": {"android": "https://dc.lft.to/lastmile_qr_scan", "ios": "https://dc.lft.to/lastmile_qr_scan"}, "is_reserved": 0, "name": "99d22a21d9efa0065fd0d2233c255c54", "lon": -76.9996545, "type": "electric_scooter", "bike_id": "99d22a21d9efa0065fd0d2233c255c54", "fusion_lon": 0.0, "lat": 38.903422666666664, "fusion_lat": 0.0}, {"is_disabled": 0, "rental_uris": {"android": "https://dc.lft.to/lastmile_qr_scan", "ios": "https://dc.lft.to/lastmile_qr_scan"}, "is_reserved": 0, "name": "538a38a2988d5493b216781479e788c6", "lon": -77.0387695, "type": "electric_scooter", "bike_id": "538a38a2988d5493b216781479e788c6", "fusion_lon": 0.0, "lat": 38.934312166666665, "fusion_lat": 0.0}, {"is_disabled": 0, "rental_uris": {"android": "https://dc.lft.to/lastmile_qr_scan", "ios": "https://dc.lft.to/lastmile_qr_scan"}, "is_reserved": 0, "name": "b3e4a59963084bc4120341f6d40c7c26", "lon": -76.99404766666666, "type": "electric_scooter", "bike_id": "b3e4a59963084bc4120341f6d40c7c26", "fusion_lon": 0.0, "lat": 38.92165683333333, "fusion_lat": 0.0}, {"is_disabled": 0, "rental_uris": {"android": "https://dc.lft.to/lastmile_qr_scan", "ios": "https://dc.lft.to/lastmile_qr_scan"}, "is_reserved": 0, "name": "052c59c2ba23b12d5711fb10fea36132", "lon": -77.05841216666667, "type": "electric_scooter", "bike_id": "052c59c2ba23b12d5711fb10fea36132", "fusion_lon": 0.0, "lat": 38.93428433333333, "fusion_lat": 0.0}, {"is_disabled": 0, "rental_uris": {"android": "https://dc.lft.to/lastmile_qr_scan", "ios": "https://dc.lft.to/lastmile_qr_scan"}, "is_reserved": 0, "name": "4b9d3720644d350f1bb707f2a455ac12", "lon": -77.028291, "type": "electric_scooter", "bike_id": "4b9d3720644d350f1bb707f2a455ac12", "fusion_lon": 0.0, "lat": 38.9141495, "fusion_lat": 0.0}, {"is_disabled": 0, "rental_uris": {"android": "https://dc.lft.to/lastmile_qr_scan", "ios": "https://dc.lft.to/lastmile_qr_scan"}, "is_reserved": 0, "name": "e63abcb4d5af865ad1885f5eeede436e", "lon": -77.0296375, "type": "electric_scooter", "bike_id": "e63abcb4d5af865ad1885f5eeede436e", "fusion_lon": 0.0, "lat": 38.924628, "fusion_lat": 0.0}, {"is_disabled": 0, "rental_uris": {"android": "https://dc.lft.to/lastmile_qr_scan", "ios": "https://dc.lft.to/lastmile_qr_scan"}, "is_reserved": 0, "name": "a9ef37712867bd933d11ba15c115493e", "lon": -77.03999133333333, "type": "electric_scooter", "bike_id": "a9ef37712867bd933d11ba15c115493e", "fusion_lon": 0.0, "lat": 38.914150666666664, "fusion_lat": 0.0}, {"is_disabled": 0, "rental_uris": {"android": "https://dc.lft.to/lastmile_qr_scan", "ios": "https://dc.lft.to/lastmile_qr_scan"}, "is_reserved": 0, "name": "4be35d416e787b2ff2d283fd44a6bce9", "lon": -76.94869766666666, "type": "electric_bike", "bike_id": "4be35d416e787b2ff2d283fd44a6bce9", "fusion_lon": 0.0, "lat": 38.88973416666666, "fusion_lat": 0.0}, {"is_disabled": 0, "rental_uris": {"android": "https://dc.lft.to/lastmile_qr_scan", "ios": "https://dc.lft.to/lastmile_qr_scan"}, "is_reserved": 0, "name": "787e758d12d47cc885b792d08d8e5066", "lon": -76.87776433333333, "type": "electric_bike", "bike_id": "787e758d12d47cc885b792d08d8e5066", "fusion_lon": 0.0, "lat": 38.992275, "fusion_lat": 0.0}, {"is_disabled": 0, "rental_uris": {"android": "https://dc.lft.to/lastmile_qr_scan", "ios": "https://dc.lft.to/lastmile_qr_scan"}, "is_reserved": 0, "name": "1df635a02230df3227d774ee071b27b5", "lon": -77.02408283333334, "type": "electric_scooter", "bike_id": "1df635a02230df3227d774ee071b27b5", "fusion_lon": 0.0, "lat": 38.892522166666666, "fusion_lat": 0.0}, {"is_disabled": 0, "rental_uris": {"android": "https://dc.lft.to/lastmile_qr_scan", "ios": "https://dc.lft.to/lastmile_qr_scan"}, "is_reserved": 0, "name": "c5df1851752fcd18ecdc2ad24afe0410", "lon": -77.01479616666667, "type": "electric_scooter", "bike_id": "c5df1851752fcd18ecdc2ad24afe0410", "fusion_lon": 0.0, "lat": 38.87650816666667, "fusion_lat": 0.0}, {"is_disabled": 0, "rental_uris": {"android": "https://dc.lft.to/lastmile_qr_scan", "ios": "https://dc.lft.to/lastmile_qr_scan"}, "is_reserved": 0, "name": "6cb5b990dac68995beb4c69cdc19e194", "lon": -76.96386916666667, "type": "electric_bike", "bike_id": "6cb5b990dac68995beb4c69cdc19e194", "fusion_lon": 0.0, "lat": 38.97580883333333, "fusion_lat": 0.0}, {"is_disabled": 0, "rental_uris": {"android": "https://dc.lft.to/lastmile_qr_scan", "ios": "https://dc.lft.to/lastmile_qr_scan"}, "is_reserved": 0, "name": "9b273de8c613cfc3c16557548a3c9c2e", "lon": -76.98373983333333, "type": "electric_scooter", "bike_id": "9b273de8c613cfc3c16557548a3c9c2e", "fusion_lon": 0.0, "lat": 38.844445666666665, "fusion_lat": 0.0}, {"is_disabled": 0, "rental_uris": {"android": "https://dc.lft.to/lastmile_qr_scan", "ios": "https://dc.lft.to/lastmile_qr_scan"}, "is_reserved": 0, "name": "7a414c4e516d71ad7906bff8656c890a", "lon": -77.01668466666666, "type": "electric_scooter", "bike_id": "7a414c4e516d71ad7906bff8656c890a", "fusion_lon": 0.0, "lat": 38.92892166666667, "fusion_lat": 0.0}, {"is_disabled": 0, "rental_uris": {"android": "https://dc.lft.to/lastmile_qr_scan", "ios": "https://dc.lft.to/lastmile_qr_scan"}, "is_reserved": 0, "name": "65fc77da6c40d33fc32ede2ea05adbfe", "lon": -77.0131255, "type": "electric_scooter", "bike_id": "65fc77da6c40d33fc32ede2ea05adbfe", "fusion_lon": 0.0, "lat": 38.901401666666665, "fusion_lat": 0.0}, {"is_disabled": 0, "rental_uris": {"android": "https://dc.lft.to/lastmile_qr_scan", "ios": "https://dc.lft.to/lastmile_qr_scan"}, "is_reserved": 0, "name": "1e221cba292c87db344b1269abdc0689", "lon": -77.02881716666667, "type": "electric_bike", "bike_id": "1e221cba292c87db344b1269abdc0689", "fusion_lon": 0.0, "lat": 38.99887666666667, "fusion_lat": 0.0}, {"is_disabled": 0, "rental_uris": {"android": "https://dc.lft.to/lastmile_qr_scan", "ios": "https://dc.lft.to/lastmile_qr_scan"}, "is_reserved": 0, "name": "6d31b582897b559760a18186df1d4d35", "lon": -77.05148283333334, "type": "electric_scooter", "bike_id": "6d31b582897b559760a18186df1d4d35", "fusion_lon": 0.0, "lat": 38.90037183333333, "fusion_lat": 0.0}, {"is_disabled": 0, "rental_uris": {"android": "https://dc.lft.to/lastmile_qr_scan", "ios": "https://dc.lft.to/lastmile_qr_scan"}, "is_reserved": 0, "name": "7d1a34f68d8960c520f8011c10182a3e", "lon": -77.02690533333333, "type": "electric_scooter", "bike_id": "7d1a34f68d8960c520f8011c10182a3e", "fusion_lon": 0.0, "lat": 38.9087465, "fusion_lat": 0.0}, {"is_disabled": 0, "rental_uris": {"android": "https://dc.lft.to/lastmile_qr_scan", "ios": "https://dc.lft.to/lastmile_qr_scan"}, "is_reserved": 0, "name": "abd168abdb1172213ff83b9493271c05", "lon": -76.97221816666666, "type": "electric_bike", "bike_id": "abd168abdb1172213ff83b9493271c05", "fusion_lon": 0.0, "lat": 38.84481683333333, "fusion_lat": 0.0}, {"is_disabled": 0, "rental_uris": {"android": "https://dc.lft.to/lastmile_qr_scan", "ios": "https://dc.lft.to/lastmile_qr_scan"}, "is_reserved": 0, "name": "3e7f717a24d060f46204b36cb52186a7", "lon": -77.047295, "type": "electric_scooter", "bike_id": "3e7f717a24d060f46204b36cb52186a7", "fusion_lon": 0.0, "lat": 38.8982945, "fusion_lat": 0.0}, {"is_disabled": 0, "rental_uris": {"android": "https://dc.lft.to/lastmile_qr_scan", "ios": "https://dc.lft.to/lastmile_qr_scan"}, "is_reserved": 0, "name": "58d413b557900f22d1063bbf700159dd", "lon": -77.08196683333334, "type": "electric_bike", "bike_id": "58d413b557900f22d1063bbf700159dd", "fusion_lon": 0.0, "lat": 38.92206733333333, "fusion_lat": 0.0}, {"is_disabled": 0, "rental_uris": {"android": "https://dc.lft.to/lastmile_qr_scan", "ios": "https://dc.lft.to/lastmile_qr_scan"}, "is_reserved": 0, "name": "d61945dd05673defb851f02d2cb7d3b4", "lon": -77.04951583333333, "type": "electric_bike", "bike_id": "d61945dd05673defb851f02d2cb7d3b4", "fusion_lon": 0.0, "lat": 38.91106166666667, "fusion_lat": 0.0}, {"is_disabled": 0, "rental_uris": {"android": "https://dc.lft.to/lastmile_qr_scan", "ios": "https://dc.lft.to/lastmile_qr_scan"}, "is_reserved": 0, "name": "fbfd4a3f4a7528befdc1edaf68a6cbf3", "lon": -77.041616, "type": "electric_scooter", "bike_id": "fbfd4a3f4a7528befdc1edaf68a6cbf3", "fusion_lon": 0.0, "lat": 38.913139, "fusion_lat": 0.0}, {"is_disabled": 0, "rental_uris": {"android": "https://dc.lft.to/lastmile_qr_scan", "ios": "https://dc.lft.to/lastmile_qr_scan"}, "is_reserved": 0, "name": "1d062b415b850b3cf2b6a0e00d1a4874", "lon": -77.01761566666667, "type": "electric_scooter", "bike_id": "1d062b415b850b3cf2b6a0e00d1a4874", "fusion_lon": 0.0, "lat": 38.92114316666667, "fusion_lat": 0.0}, {"is_disabled": 0, "rental_uris": {"android": "https://dc.lft.to/lastmile_qr_scan", "ios": "https://dc.lft.to/lastmile_qr_scan"}, "is_reserved": 0, "name": "a7c44471e4830d95be10ad9cb9b2af17", "lon": -76.974249, "type": "electric_scooter", "bike_id": "a7c44471e4830d95be10ad9cb9b2af17", "fusion_lon": 0.0, "lat": 38.865167166666666, "fusion_lat": 0.0}, {"is_disabled": 0, "rental_uris": {"android": "https://dc.lft.to/lastmile_qr_scan", "ios": "https://dc.lft.to/lastmile_qr_scan"}, "is_reserved": 0, "name": "a3b4003aa0451a2fd157a9bee9458420", "lon": -77.0676965, "type": "electric_scooter", "bike_id": "a3b4003aa0451a2fd157a9bee9458420", "fusion_lon": 0.0, "lat": 38.94972383333333, "fusion_lat": 0.0}, {"is_disabled": 0, "rental_uris": {"android": "https://dc.lft.to/lastmile_qr_scan", "ios": "https://dc.lft.to/lastmile_qr_scan"}, "is_reserved": 0, "name": "af8545456abc9cbf6ded1c8043a29301", "lon": -77.02227383333333, "type": "electric_scooter", "bike_id": "af8545456abc9cbf6ded1c8043a29301", "fusion_lon": 0.0, "lat": 38.915698166666665, "fusion_lat": 0.0}, {"is_disabled": 0, "rental_uris": {"android": "https://dc.lft.to/lastmile_qr_scan", "ios": "https://dc.lft.to/lastmile_qr_scan"}, "is_reserved": 0, "name": "2b76a3bf363f64151bc19e971e60c75e", "lon": -77.04048616666667, "type": "electric_scooter", "bike_id": "2b76a3bf363f64151bc19e971e60c75e", "fusion_lon": 0.0, "lat": 38.924153, "fusion_lat": 0.0}, {"is_disabled": 0, "rental_uris": {"android": "https://dc.lft.to/lastmile_qr_scan", "ios": "https://dc.lft.to/lastmile_qr_scan"}, "is_reserved": 0, "name": "16fb97a372898a5bc4d018f69796de2c", "lon": -77.0020895, "type": "electric_scooter", "bike_id": "16fb97a372898a5bc4d018f69796de2c", "fusion_lon": 0.0, "lat": 38.91171766666667, "fusion_lat": 0.0}, {"is_disabled": 0, "rental_uris": {"android": "https://dc.lft.to/lastmile_qr_scan", "ios": "https://dc.lft.to/lastmile_qr_scan"}, "is_reserved": 0, "name": "adfd407993a3d5a05d1231ae94938006", "lon": -76.98730283333333, "type": "electric_scooter", "bike_id": "adfd407993a3d5a05d1231ae94938006", "fusion_lon": 0.0, "lat": 38.86711916666667, "fusion_lat": 0.0}, {"is_disabled": 0, "rental_uris": {"android": "https://dc.lft.to/lastmile_qr_scan", "ios": "https://dc.lft.to/lastmile_qr_scan"}, "is_reserved": 0, "name": "b1acf386163b1617b69bfb449e8289b5", "lon": -77.03659766666667, "type": "electric_scooter", "bike_id": "b1acf386163b1617b69bfb449e8289b5", "fusion_lon": 0.0, "lat": 38.92281166666667, "fusion_lat": 0.0}, {"is_disabled": 0, "rental_uris": {"android": "https://dc.lft.to/lastmile_qr_scan", "ios": "https://dc.lft.to/lastmile_qr_scan"}, "is_reserved": 0, "name": "7b40a92f4a329bb4d7415fcb0d722e29", "lon": -76.93743516666666, "type": "electric_scooter", "bike_id": "7b40a92f4a329bb4d7415fcb0d722e29", "fusion_lon": 0.0, "lat": 38.89013033333333, "fusion_lat": 0.0}, {"is_disabled": 0, "rental_uris": {"android": "https://dc.lft.to/lastmile_qr_scan", "ios": "https://dc.lft.to/lastmile_qr_scan"}, "is_reserved": 0, "name": "8a8da1761117dfebe64241efb8415553", "lon": -77.05416366666667, "type": "electric_scooter", "bike_id": "8a8da1761117dfebe64241efb8415553", "fusion_lon": 0.0, "lat": 38.928213, "fusion_lat": 0.0}, {"is_disabled": 0, "rental_uris": {"android": "https://dc.lft.to/lastmile_qr_scan", "ios": "https://dc.lft.to/lastmile_qr_scan"}, "is_reserved": 0, "name": "51c982ce1ceadae00a3a9d3172fac81f", "lon": -77.04207633333333, "type": "electric_scooter", "bike_id": "51c982ce1ceadae00a3a9d3172fac81f", "fusion_lon": 0.0, "lat": 38.9112505, "fusion_lat": 0.0}, {"is_disabled": 0, "rental_uris": {"android": "https://dc.lft.to/lastmile_qr_scan", "ios": "https://dc.lft.to/lastmile_qr_scan"}, "is_reserved": 0, "name": "957ca6ccd25ea80eaffb7e3190669d78", "lon": -76.97370033333334, "type": "electric_bike", "bike_id": "957ca6ccd25ea80eaffb7e3190669d78", "fusion_lon": 0.0, "lat": 38.86554366666667, "fusion_lat": 0.0}, {"is_disabled": 0, "rental_uris": {"android": "https://dc.lft.to/lastmile_qr_scan", "ios": "https://dc.lft.to/lastmile_qr_scan"}, "is_reserved": 0, "name": "6c3320ae82ef267ef10b8ff8c34d57a8", "lon": -76.99404183333333, "type": "electric_scooter", "bike_id": "6c3320ae82ef267ef10b8ff8c34d57a8", "fusion_lon": 0.0, "lat": 38.921680333333335, "fusion_lat": 0.0}, {"is_disabled": 0, "rental_uris": {"android": "https://dc.lft.to/lastmile_qr_scan", "ios": "https://dc.lft.to/lastmile_qr_scan"}, "is_reserved": 0, "name": "7d311f9ed31c501b55869eb654e0bb6a", "lon": -77.04184, "type": "electric_scooter", "bike_id": "7d311f9ed31c501b55869eb654e0bb6a", "fusion_lon": 0.0, "lat": 38.903802666666664, "fusion_lat": 0.0}, {"is_disabled": 0, "rental_uris": {"android": "https://dc.lft.to/lastmile_qr_scan", "ios": "https://dc.lft.to/lastmile_qr_scan"}, "is_reserved": 0, "name": "b0e75147a592527b73e6a4339a678a62", "lon": -77.03446566666666, "type": "electric_scooter", "bike_id": "b0e75147a592527b73e6a4339a678a62", "fusion_lon": 0.0, "lat": 38.9336765, "fusion_lat": 0.0}, {"is_disabled": 0, "rental_uris": {"android": "https://dc.lft.to/lastmile_qr_scan", "ios": "https://dc.lft.to/lastmile_qr_scan"}, "is_reserved": 0, "name": "96665f420fd6bc0b6610fba1920e576c", "lon": -77.02748133333333, "type": "electric_scooter", "bike_id": "96665f420fd6bc0b6610fba1920e576c", "fusion_lon": 0.0, "lat": 38.93580733333334, "fusion_lat": 0.0}, {"is_disabled": 0, "rental_uris": {"android": "https://dc.lft.to/lastmile_qr_scan", "ios": "https://dc.lft.to/lastmile_qr_scan"}, "is_reserved": 0, "name": "bef5517713cbcfc7633c1dbdcf61a0bc", "lon": -77.05519716666667, "type": "electric_bike", "bike_id": "bef5517713cbcfc7633c1dbdcf61a0bc", "fusion_lon": 0.0, "lat": 38.91060316666667, "fusion_lat": 0.0}, {"is_disabled": 0, "rental_uris": {"android": "https://dc.lft.to/lastmile_qr_scan", "ios": "https://dc.lft.to/lastmile_qr_scan"}, "is_reserved": 0, "name": "b1a8e3e3dc287efb0a9c2b6e04bd8183", "lon": -77.0455365, "type": "electric_bike", "bike_id": "b1a8e3e3dc287efb0a9c2b6e04bd8183", "fusion_lon": 0.0, "lat": 38.919256833333336, "fusion_lat": 0.0}, {"is_disabled": 0, "rental_uris": {"android": "https://dc.lft.to/lastmile_qr_scan", "ios": "https://dc.lft.to/lastmile_qr_scan"}, "is_reserved": 0, "name": "fc76b2299cb81afd1ccd5dd6cfe99af6", "lon": -77.04171466666666, "type": "electric_scooter", "bike_id": "fc76b2299cb81afd1ccd5dd6cfe99af6", "fusion_lon": 0.0, "lat": 38.8989355, "fusion_lat": 0.0}, {"is_disabled": 0, "rental_uris": {"android": "https://dc.lft.to/lastmile_qr_scan", "ios": "https://dc.lft.to/lastmile_qr_scan"}, "is_reserved": 0, "name": "527743906fffcb2edd7b05e7b828d08a", "lon": -77.02223466666666, "type": "electric_scooter", "bike_id": "527743906fffcb2edd7b05e7b828d08a", "fusion_lon": 0.0, "lat": 38.91414983333333, "fusion_lat": 0.0}, {"is_disabled": 0, "rental_uris": {"android": "https://dc.lft.to/lastmile_qr_scan", "ios": "https://dc.lft.to/lastmile_qr_scan"}, "is_reserved": 0, "name": "ea1361e78ae69896378874a447beb93e", "lon": -77.03190833333333, "type": "electric_scooter", "bike_id": "ea1361e78ae69896378874a447beb93e", "fusion_lon": 0.0, "lat": 38.930616666666666, "fusion_lat": 0.0}, {"is_disabled": 0, "rental_uris": {"android": "https://dc.lft.to/lastmile_qr_scan", "ios": "https://dc.lft.to/lastmile_qr_scan"}, "is_reserved": 0, "name": "5f9872fe9888d1b0550fe03b8c056619", "lon": -77.00724316666667, "type": "electric_scooter", "bike_id": "5f9872fe9888d1b0550fe03b8c056619", "fusion_lon": 0.0, "lat": 38.9058735, "fusion_lat": 0.0}, {"is_disabled": 0, "rental_uris": {"android": "https://dc.lft.to/lastmile_qr_scan", "ios": "https://dc.lft.to/lastmile_qr_scan"}, "is_reserved": 0, "name": "bbc3c52a7f9ebedac4e0b8f829a9b011", "lon": -77.0198085, "type": "electric_scooter", "bike_id": "bbc3c52a7f9ebedac4e0b8f829a9b011", "fusion_lon": 0.0, "lat": 38.89513216666667, "fusion_lat": 0.0}, {"is_disabled": 0, "rental_uris": {"android": "https://dc.lft.to/lastmile_qr_scan", "ios": "https://dc.lft.to/lastmile_qr_scan"}, "is_reserved": 0, "name": "eae78f16a51d02debb07d2cc25448ead", "lon": -76.99904, "type": "electric_scooter", "bike_id": "eae78f16a51d02debb07d2cc25448ead", "fusion_lon": 0.0, "lat": 38.924552, "fusion_lat": 0.0}, {"is_disabled": 0, "rental_uris": {"android": "https://dc.lft.to/lastmile_qr_scan", "ios": "https://dc.lft.to/lastmile_qr_scan"}, "is_reserved": 0, "name": "e8ba822bb0a4e1506274bcd19a5a3835", "lon": -76.94885766666667, "type": "electric_scooter", "bike_id": "e8ba822bb0a4e1506274bcd19a5a3835", "fusion_lon": 0.0, "lat": 38.89512666666667, "fusion_lat": 0.0}, {"is_disabled": 0, "rental_uris": {"android": "https://dc.lft.to/lastmile_qr_scan", "ios": "https://dc.lft.to/lastmile_qr_scan"}, "is_reserved": 0, "name": "3eed28faa7949cff997ca962f8743d77", "lon": -77.03292166666667, "type": "electric_scooter", "bike_id": "3eed28faa7949cff997ca962f8743d77", "fusion_lon": 0.0, "lat": 38.908416833333334, "fusion_lat": 0.0}, {"is_disabled": 0, "rental_uris": {"android": "https://dc.lft.to/lastmile_qr_scan", "ios": "https://dc.lft.to/lastmile_qr_scan"}, "is_reserved": 0, "name": "c89f7b81ad1ce1757c3ee9d7b2a38034", "lon": -77.0278645, "type": "electric_scooter", "bike_id": "c89f7b81ad1ce1757c3ee9d7b2a38034", "fusion_lon": 0.0, "lat": 38.9613125, "fusion_lat": 0.0}, {"is_disabled": 0, "rental_uris": {"android": "https://dc.lft.to/lastmile_qr_scan", "ios": "https://dc.lft.to/lastmile_qr_scan"}, "is_reserved": 0, "name": "c390d858a235ad801c798a2b6b4f41ac", "lon": -77.02717266666667, "type": "electric_scooter", "bike_id": "c390d858a235ad801c798a2b6b4f41ac", "fusion_lon": 0.0, "lat": 38.91101183333333, "fusion_lat": 0.0}, {"is_disabled": 0, "rental_uris": {"android": "https://dc.lft.to/lastmile_qr_scan", "ios": "https://dc.lft.to/lastmile_qr_scan"}, "is_reserved": 0, "name": "03e219af656cd57be7319b95fc7eb4c6", "lon": -77.002015, "type": "electric_scooter", "bike_id": "03e219af656cd57be7319b95fc7eb4c6", "fusion_lon": 0.0, "lat": 38.90235666666667, "fusion_lat": 0.0}, {"is_disabled": 0, "rental_uris": {"android": "https://dc.lft.to/lastmile_qr_scan", "ios": "https://dc.lft.to/lastmile_qr_scan"}, "is_reserved": 0, "name": "4e481b014baf2a47e45ae88f28fe7592", "lon": -77.06767033333334, "type": "electric_scooter", "bike_id": "4e481b014baf2a47e45ae88f28fe7592", "fusion_lon": 0.0, "lat": 38.9050855, "fusion_lat": 0.0}, {"is_disabled": 0, "rental_uris": {"android": "https://dc.lft.to/lastmile_qr_scan", "ios": "https://dc.lft.to/lastmile_qr_scan"}, "is_reserved": 0, "name": "04609effcfb9ee78f30c606fffa16ab4", "lon": -77.03263983333333, "type": "electric_scooter", "bike_id": "04609effcfb9ee78f30c606fffa16ab4", "fusion_lon": 0.0, "lat": 38.93262416666666, "fusion_lat": 0.0}, {"is_disabled": 0, "rental_uris": {"android": "https://dc.lft.to/lastmile_qr_scan", "ios": "https://dc.lft.to/lastmile_qr_scan"}, "is_reserved": 0, "name": "4e2bdf575da423e442533ea0c82c199f", "lon": -77.02871266666666, "type": "electric_scooter", "bike_id": "4e2bdf575da423e442533ea0c82c199f", "fusion_lon": 0.0, "lat": 38.90240683333333, "fusion_lat": 0.0}, {"is_disabled": 0, "rental_uris": {"android": "https://dc.lft.to/lastmile_qr_scan", "ios": "https://dc.lft.to/lastmile_qr_scan"}, "is_reserved": 0, "name": "a8574a3e95e2ccab549c983878adfa11", "lon": -77.04462216666667, "type": "electric_scooter", "bike_id": "a8574a3e95e2ccab549c983878adfa11", "fusion_lon": 0.0, "lat": 38.91405183333333, "fusion_lat": 0.0}, {"is_disabled": 0, "rental_uris": {"android": "https://dc.lft.to/lastmile_qr_scan", "ios": "https://dc.lft.to/lastmile_qr_scan"}, "is_reserved": 0, "name": "df71fbb4f7d7c9dd3d1329edf367fad3", "lon": -77.01256016666666, "type": "electric_scooter", "bike_id": "df71fbb4f7d7c9dd3d1329edf367fad3", "fusion_lon": 0.0, "lat": 38.908472833333335, "fusion_lat": 0.0}, {"is_disabled": 0, "rental_uris": {"android": "https://dc.lft.to/lastmile_qr_scan", "ios": "https://dc.lft.to/lastmile_qr_scan"}, "is_reserved": 0, "name": "efee1a0fe4a4c0d389a614c969fd2b73", "lon": -77.02989516666666, "type": "electric_scooter", "bike_id": "efee1a0fe4a4c0d389a614c969fd2b73", "fusion_lon": 0.0, "lat": 38.907196, "fusion_lat": 0.0}, {"is_disabled": 0, "rental_uris": {"android": "https://dc.lft.to/lastmile_qr_scan", "ios": "https://dc.lft.to/lastmile_qr_scan"}, "is_reserved": 0, "name": "efcb63309217c8dcd7a8271f106d4df9", "lon": -77.03197416666667, "type": "electric_bike", "bike_id": "efcb63309217c8dcd7a8271f106d4df9", "fusion_lon": 0.0, "lat": 38.919967, "fusion_lat": 0.0}, {"is_disabled": 0, "rental_uris": {"android": "https://dc.lft.to/lastmile_qr_scan", "ios": "https://dc.lft.to/lastmile_qr_scan"}, "is_reserved": 0, "name": "0699301ab7c750a904e5dc34b21e8680", "lon": -77.030566, "type": "electric_scooter", "bike_id": "0699301ab7c750a904e5dc34b21e8680", "fusion_lon": 0.0, "lat": 38.899801, "fusion_lat": 0.0}, {"is_disabled": 0, "rental_uris": {"android": "https://dc.lft.to/lastmile_qr_scan", "ios": "https://dc.lft.to/lastmile_qr_scan"}, "is_reserved": 0, "name": "0c05fa198392a572466e22f0ae58bec5", "lon": -77.02389816666667, "type": "electric_scooter", "bike_id": "0c05fa198392a572466e22f0ae58bec5", "fusion_lon": 0.0, "lat": 38.932587166666664, "fusion_lat": 0.0}, {"is_disabled": 0, "rental_uris": {"android": "https://dc.lft.to/lastmile_qr_scan", "ios": "https://dc.lft.to/lastmile_qr_scan"}, "is_reserved": 0, "name": "dea2a693789dff971698e1bdfaec073d", "lon": -76.9652605, "type": "electric_scooter", "bike_id": "dea2a693789dff971698e1bdfaec073d", "fusion_lon": 0.0, "lat": 38.876288333333335, "fusion_lat": 0.0}, {"is_disabled": 0, "rental_uris": {"android": "https://dc.lft.to/lastmile_qr_scan", "ios": "https://dc.lft.to/lastmile_qr_scan"}, "is_reserved": 0, "name": "17e7358c6530fe5e3fe4d51c52f4cb83", "lon": -76.93375316666666, "type": "electric_scooter", "bike_id": "17e7358c6530fe5e3fe4d51c52f4cb83", "fusion_lon": 0.0, "lat": 38.899220166666666, "fusion_lat": 0.0}, {"is_disabled": 0, "rental_uris": {"android": "https://dc.lft.to/lastmile_qr_scan", "ios": "https://dc.lft.to/lastmile_qr_scan"}, "is_reserved": 0, "name": "e0f64883f3fc0ebfb66bd3d92164888e", "lon": -77.0251415, "type": "electric_scooter", "bike_id": "e0f64883f3fc0ebfb66bd3d92164888e", "fusion_lon": 0.0, "lat": 38.919395, "fusion_lat": 0.0}, {"is_disabled": 0, "rental_uris": {"android": "https://dc.lft.to/lastmile_qr_scan", "ios": "https://dc.lft.to/lastmile_qr_scan"}, "is_reserved": 0, "name": "427675d5e498fcba06c8324da2614bd3", "lon": -77.009222, "type": "electric_scooter", "bike_id": "427675d5e498fcba06c8324da2614bd3", "fusion_lon": 0.0, "lat": 38.89555166666667, "fusion_lat": 0.0}, {"is_disabled": 0, "rental_uris": {"android": "https://dc.lft.to/lastmile_qr_scan", "ios": "https://dc.lft.to/lastmile_qr_scan"}, "is_reserved": 0, "name": "a01b4aec9a94e5283f9dea306749aa86", "lon": -77.02252716666666, "type": "electric_scooter", "bike_id": "a01b4aec9a94e5283f9dea306749aa86", "fusion_lon": 0.0, "lat": 38.886384, "fusion_lat": 0.0}, {"is_disabled": 0, "rental_uris": {"android": "https://dc.lft.to/lastmile_qr_scan", "ios": "https://dc.lft.to/lastmile_qr_scan"}, "is_reserved": 0, "name": "ed74601c01afaba0e11ab18aefb8b723", "lon": -76.99001966666667, "type": "electric_scooter", "bike_id": "ed74601c01afaba0e11ab18aefb8b723", "fusion_lon": 0.0, "lat": 38.86504716666666, "fusion_lat": 0.0}, {"is_disabled": 0, "rental_uris": {"android": "https://dc.lft.to/lastmile_qr_scan", "ios": "https://dc.lft.to/lastmile_qr_scan"}, "is_reserved": 0, "name": "936753c8b55f296dbcf86eb8cf4020be", "lon": -77.0284855, "type": "electric_scooter", "bike_id": "936753c8b55f296dbcf86eb8cf4020be", "fusion_lon": 0.0, "lat": 38.922398333333334, "fusion_lat": 0.0}, {"is_disabled": 0, "rental_uris": {"android": "https://dc.lft.to/lastmile_qr_scan", "ios": "https://dc.lft.to/lastmile_qr_scan"}, "is_reserved": 0, "name": "18ab752617da9475b7bdb31797bcdbd8", "lon": -77.00658966666667, "type": "electric_scooter", "bike_id": "18ab752617da9475b7bdb31797bcdbd8", "fusion_lon": 0.0, "lat": 38.944613, "fusion_lat": 0.0}, {"is_disabled": 0, "rental_uris": {"android": "https://dc.lft.to/lastmile_qr_scan", "ios": "https://dc.lft.to/lastmile_qr_scan"}, "is_reserved": 0, "name": "45b44869c5e9b9a9bc54270c440b8fcd", "lon": -76.91656533333334, "type": "electric_bike", "bike_id": "45b44869c5e9b9a9bc54270c440b8fcd", "fusion_lon": 0.0, "lat": 38.86860216666667, "fusion_lat": 0.0}, {"is_disabled": 0, "rental_uris": {"android": "https://dc.lft.to/lastmile_qr_scan", "ios": "https://dc.lft.to/lastmile_qr_scan"}, "is_reserved": 0, "name": "d27cfc1da0e658fb186166ac6b75ab19", "lon": -77.038744, "type": "electric_scooter", "bike_id": "d27cfc1da0e658fb186166ac6b75ab19", "fusion_lon": 0.0, "lat": 38.91475583333333, "fusion_lat": 0.0}, {"is_disabled": 0, "rental_uris": {"android": "https://dc.lft.to/lastmile_qr_scan", "ios": "https://dc.lft.to/lastmile_qr_scan"}, "is_reserved": 0, "name": "cdd79a36e304bdf1b758a803c95f15c0", "lon": -77.0383205, "type": "electric_scooter", "bike_id": "cdd79a36e304bdf1b758a803c95f15c0", "fusion_lon": 0.0, "lat": 38.911181666666664, "fusion_lat": 0.0}, {"is_disabled": 0, "rental_uris": {"android": "https://dc.lft.to/lastmile_qr_scan", "ios": "https://dc.lft.to/lastmile_qr_scan"}, "is_reserved": 0, "name": "95cc3faf881efdabb7935ddcc1b44513", "lon": -77.02226483333334, "type": "electric_scooter", "bike_id": "95cc3faf881efdabb7935ddcc1b44513", "fusion_lon": 0.0, "lat": 38.892218, "fusion_lat": 0.0}, {"is_disabled": 0, "rental_uris": {"android": "https://dc.lft.to/lastmile_qr_scan", "ios": "https://dc.lft.to/lastmile_qr_scan"}, "is_reserved": 0, "name": "f7ef98e627923a76c610bd09375d0c46", "lon": -77.024899, "type": "electric_scooter", "bike_id": "f7ef98e627923a76c610bd09375d0c46", "fusion_lon": 0.0, "lat": 38.91750966666667, "fusion_lat": 0.0}, {"is_disabled": 0, "rental_uris": {"android": "https://dc.lft.to/lastmile_qr_scan", "ios": "https://dc.lft.to/lastmile_qr_scan"}, "is_reserved": 0, "name": "4300861ca134c6792c8671508b1fdb00", "lon": -77.025403, "type": "electric_scooter", "bike_id": "4300861ca134c6792c8671508b1fdb00", "fusion_lon": 0.0, "lat": 38.924041833333334, "fusion_lat": 0.0}, {"is_disabled": 0, "rental_uris": {"android": "https://dc.lft.to/lastmile_qr_scan", "ios": "https://dc.lft.to/lastmile_qr_scan"}, "is_reserved": 0, "name": "39b5c5aed20d228d36b9e2860986ce36", "lon": -77.03210416666667, "type": "electric_scooter", "bike_id": "39b5c5aed20d228d36b9e2860986ce36", "fusion_lon": 0.0, "lat": 38.909474833333334, "fusion_lat": 0.0}, {"is_disabled": 0, "rental_uris": {"android": "https://dc.lft.to/lastmile_qr_scan", "ios": "https://dc.lft.to/lastmile_qr_scan"}, "is_reserved": 0, "name": "8cd65c6d874804c8222ba4ec8c83b5d2", "lon": -77.00567516666666, "type": "electric_scooter", "bike_id": "8cd65c6d874804c8222ba4ec8c83b5d2", "fusion_lon": 0.0, "lat": 38.885033166666666, "fusion_lat": 0.0}, {"is_disabled": 0, "rental_uris": {"android": "https://dc.lft.to/lastmile_qr_scan", "ios": "https://dc.lft.to/lastmile_qr_scan"}, "is_reserved": 0, "name": "6ec28ddaa70ad52b05fe68dad681f9e5", "lon": -77.02171066666666, "type": "electric_scooter", "bike_id": "6ec28ddaa70ad52b05fe68dad681f9e5", "fusion_lon": 0.0, "lat": 38.89971233333333, "fusion_lat": 0.0}, {"is_disabled": 0, "rental_uris": {"android": "https://dc.lft.to/lastmile_qr_scan", "ios": "https://dc.lft.to/lastmile_qr_scan"}, "is_reserved": 0, "name": "90d5f9543b67d346276aad7fbd182fb4", "lon": -77.22937583333334, "type": "electric_bike", "bike_id": "90d5f9543b67d346276aad7fbd182fb4", "fusion_lon": 0.0, "lat": 38.931897166666666, "fusion_lat": 0.0}, {"is_disabled": 0, "rental_uris": {"android": "https://dc.lft.to/lastmile_qr_scan", "ios": "https://dc.lft.to/lastmile_qr_scan"}, "is_reserved": 0, "name": "055d22c54f2967b60b08c647084fd283", "lon": -77.0291235, "type": "electric_bike", "bike_id": "055d22c54f2967b60b08c647084fd283", "fusion_lon": 0.0, "lat": 38.99866633333333, "fusion_lat": 0.0}, {"is_disabled": 0, "rental_uris": {"android": "https://dc.lft.to/lastmile_qr_scan", "ios": "https://dc.lft.to/lastmile_qr_scan"}, "is_reserved": 0, "name": "a03ee27484ce35ad265d5426227d0030", "lon": -77.04548716666666, "type": "electric_scooter", "bike_id": "a03ee27484ce35ad265d5426227d0030", "fusion_lon": 0.0, "lat": 38.91320066666667, "fusion_lat": 0.0}, {"is_disabled": 0, "rental_uris": {"android": "https://dc.lft.to/lastmile_qr_scan", "ios": "https://dc.lft.to/lastmile_qr_scan"}, "is_reserved": 0, "name": "99084606da80503cad8639029e7b01e0", "lon": -77.03854966666667, "type": "electric_scooter", "bike_id": "99084606da80503cad8639029e7b01e0", "fusion_lon": 0.0, "lat": 38.93201766666667, "fusion_lat": 0.0}, {"is_disabled": 0, "rental_uris": {"android": "https://dc.lft.to/lastmile_qr_scan", "ios": "https://dc.lft.to/lastmile_qr_scan"}, "is_reserved": 0, "name": "5bdcab12c8d3c1a41cfd5c6e0b834d38", "lon": -76.946312, "type": "electric_scooter", "bike_id": "5bdcab12c8d3c1a41cfd5c6e0b834d38", "fusion_lon": 0.0, "lat": 38.8983395, "fusion_lat": 0.0}, {"is_disabled": 0, "rental_uris": {"android": "https://dc.lft.to/lastmile_qr_scan", "ios": "https://dc.lft.to/lastmile_qr_scan"}, "is_reserved": 0, "name": "a9586be1eaa3cd269ec55c7a667eafce", "lon": -76.9984975, "type": "electric_scooter", "bike_id": "a9586be1eaa3cd269ec55c7a667eafce", "fusion_lon": 0.0, "lat": 38.90886016666666, "fusion_lat": 0.0}, {"is_disabled": 0, "rental_uris": {"android": "https://dc.lft.to/lastmile_qr_scan", "ios": "https://dc.lft.to/lastmile_qr_scan"}, "is_reserved": 0, "name": "3626da07f53195d2c5e95221865b24f7", "lon": -77.0305265, "type": "electric_scooter", "bike_id": "3626da07f53195d2c5e95221865b24f7", "fusion_lon": 0.0, "lat": 38.9237175, "fusion_lat": 0.0}, {"is_disabled": 0, "rental_uris": {"android": "https://dc.lft.to/lastmile_qr_scan", "ios": "https://dc.lft.to/lastmile_qr_scan"}, "is_reserved": 0, "name": "0162e0ce4c1b58fed646aaf7e4e1abe0", "lon": -76.98314916666666, "type": "electric_bike", "bike_id": "0162e0ce4c1b58fed646aaf7e4e1abe0", "fusion_lon": 0.0, "lat": 38.92252716666667, "fusion_lat": 0.0}, {"is_disabled": 0, "rental_uris": {"android": "https://dc.lft.to/lastmile_qr_scan", "ios": "https://dc.lft.to/lastmile_qr_scan"}, "is_reserved": 0, "name": "d1dc4a833be9b15b84d781f6bb5a9408", "lon": -77.03253033333333, "type": "electric_scooter", "bike_id": "d1dc4a833be9b15b84d781f6bb5a9408", "fusion_lon": 0.0, "lat": 38.936998833333334, "fusion_lat": 0.0}, {"is_disabled": 0, "rental_uris": {"android": "https://dc.lft.to/lastmile_qr_scan", "ios": "https://dc.lft.to/lastmile_qr_scan"}, "is_reserved": 0, "name": "8b88dd9f8d35d101cc54549456c28415", "lon": -77.00755966666667, "type": "electric_scooter", "bike_id": "8b88dd9f8d35d101cc54549456c28415", "fusion_lon": 0.0, "lat": 38.91028283333333, "fusion_lat": 0.0}, {"is_disabled": 0, "rental_uris": {"android": "https://dc.lft.to/lastmile_qr_scan", "ios": "https://dc.lft.to/lastmile_qr_scan"}, "is_reserved": 0, "name": "870550ad6cce540cafd083d370a55c77", "lon": -77.00925983333333, "type": "electric_scooter", "bike_id": "870550ad6cce540cafd083d370a55c77", "fusion_lon": 0.0, "lat": 38.8964365, "fusion_lat": 0.0}, {"is_disabled": 0, "rental_uris": {"android": "https://dc.lft.to/lastmile_qr_scan", "ios": "https://dc.lft.to/lastmile_qr_scan"}, "is_reserved": 0, "name": "ca75cb04578c61963531ace8b9fcdaad", "lon": -77.04240166666666, "type": "electric_scooter", "bike_id": "ca75cb04578c61963531ace8b9fcdaad", "fusion_lon": 0.0, "lat": 38.90776783333333, "fusion_lat": 0.0}, {"is_disabled": 0, "rental_uris": {"android": "https://dc.lft.to/lastmile_qr_scan", "ios": "https://dc.lft.to/lastmile_qr_scan"}, "is_reserved": 0, "name": "b0db5523f30d41b337ee600ec61bf083", "lon": -76.99874616666666, "type": "electric_scooter", "bike_id": "b0db5523f30d41b337ee600ec61bf083", "fusion_lon": 0.0, "lat": 38.900312, "fusion_lat": 0.0}, {"is_disabled": 0, "rental_uris": {"android": "https://dc.lft.to/lastmile_qr_scan", "ios": "https://dc.lft.to/lastmile_qr_scan"}, "is_reserved": 0, "name": "67b45fc51571e43d511b55908244246a", "lon": -77.04999183333334, "type": "electric_scooter", "bike_id": "67b45fc51571e43d511b55908244246a", "fusion_lon": 0.0, "lat": 38.905108, "fusion_lat": 0.0}, {"is_disabled": 0, "rental_uris": {"android": "https://dc.lft.to/lastmile_qr_scan", "ios": "https://dc.lft.to/lastmile_qr_scan"}, "is_reserved": 0, "name": "531a0a21d5ee31accddba274ee485022", "lon": -77.05213133333334, "type": "electric_scooter", "bike_id": "531a0a21d5ee31accddba274ee485022", "fusion_lon": 0.0, "lat": 38.924781, "fusion_lat": 0.0}, {"is_disabled": 0, "rental_uris": {"android": "https://dc.lft.to/lastmile_qr_scan", "ios": "https://dc.lft.to/lastmile_qr_scan"}, "is_reserved": 0, "name": "43d7aa850c931989878171d9553b8a7a", "lon": -77.02665033333334, "type": "electric_scooter", "bike_id": "43d7aa850c931989878171d9553b8a7a", "fusion_lon": 0.0, "lat": 38.92382666666666, "fusion_lat": 0.0}, {"is_disabled": 0, "rental_uris": {"android": "https://dc.lft.to/lastmile_qr_scan", "ios": "https://dc.lft.to/lastmile_qr_scan"}, "is_reserved": 0, "name": "6a697e3a9f23cbf549736df00ae7c619", "lon": -77.02984933333333, "type": "electric_scooter", "bike_id": "6a697e3a9f23cbf549736df00ae7c619", "fusion_lon": 0.0, "lat": 38.924723, "fusion_lat": 0.0}, {"is_disabled": 0, "rental_uris": {"android": "https://dc.lft.to/lastmile_qr_scan", "ios": "https://dc.lft.to/lastmile_qr_scan"}, "is_reserved": 0, "name": "8c4a40dcf06508686c2fccf82caf790e", "lon": -77.0604285, "type": "electric_scooter", "bike_id": "8c4a40dcf06508686c2fccf82caf790e", "fusion_lon": 0.0, "lat": 38.939076166666666, "fusion_lat": 0.0}, {"is_disabled": 0, "rental_uris": {"android": "https://dc.lft.to/lastmile_qr_scan", "ios": "https://dc.lft.to/lastmile_qr_scan"}, "is_reserved": 0, "name": "58ccd6a2a0ce05f4b029e15fbd44b842", "lon": -76.98020633333333, "type": "electric_scooter", "bike_id": "58ccd6a2a0ce05f4b029e15fbd44b842", "fusion_lon": 0.0, "lat": 38.86402833333333, "fusion_lat": 0.0}, {"is_disabled": 0, "rental_uris": {"android": "https://dc.lft.to/lastmile_qr_scan", "ios": "https://dc.lft.to/lastmile_qr_scan"}, "is_reserved": 0, "name": "4c3552a2b09ac7f9526f2e9d53086d0d", "lon": -77.02491466666666, "type": "electric_scooter", "bike_id": "4c3552a2b09ac7f9526f2e9d53086d0d", "fusion_lon": 0.0, "lat": 38.94184716666667, "fusion_lat": 0.0}, {"is_disabled": 0, "rental_uris": {"android": "https://dc.lft.to/lastmile_qr_scan", "ios": "https://dc.lft.to/lastmile_qr_scan"}, "is_reserved": 0, "name": "567aa5733c7e8b28a95daf7e8238ea89", "lon": -77.0240835, "type": "electric_scooter", "bike_id": "567aa5733c7e8b28a95daf7e8238ea89", "fusion_lon": 0.0, "lat": 38.915693166666664, "fusion_lat": 0.0}, {"is_disabled": 0, "rental_uris": {"android": "https://dc.lft.to/lastmile_qr_scan", "ios": "https://dc.lft.to/lastmile_qr_scan"}, "is_reserved": 0, "name": "e7cb227b3b55fe4b373eaf8e1d2bac08", "lon": -77.0416555, "type": "electric_scooter", "bike_id": "e7cb227b3b55fe4b373eaf8e1d2bac08", "fusion_lon": 0.0, "lat": 38.91618283333333, "fusion_lat": 0.0}, {"is_disabled": 0, "rental_uris": {"android": "https://dc.lft.to/lastmile_qr_scan", "ios": "https://dc.lft.to/lastmile_qr_scan"}, "is_reserved": 0, "name": "e4af4ecb50e8a1bc036d42e856511d00", "lon": -77.0371075, "type": "electric_scooter", "bike_id": "e4af4ecb50e8a1bc036d42e856511d00", "fusion_lon": 0.0, "lat": 38.918072, "fusion_lat": 0.0}, {"is_disabled": 0, "rental_uris": {"android": "https://dc.lft.to/lastmile_qr_scan", "ios": "https://dc.lft.to/lastmile_qr_scan"}, "is_reserved": 0, "name": "5cb138bf9d9452ac3be1b905450c07ca", "lon": -77.0111095, "type": "electric_scooter", "bike_id": "5cb138bf9d9452ac3be1b905450c07ca", "fusion_lon": 0.0, "lat": 38.907950166666666, "fusion_lat": 0.0}, {"is_disabled": 0, "rental_uris": {"android": "https://dc.lft.to/lastmile_qr_scan", "ios": "https://dc.lft.to/lastmile_qr_scan"}, "is_reserved": 0, "name": "80d6cdf0f07bde73af1f4e0c05feae04", "lon": -77.0779925, "type": "electric_bike", "bike_id": "80d6cdf0f07bde73af1f4e0c05feae04", "fusion_lon": 0.0, "lat": 38.84516516666667, "fusion_lat": 0.0}, {"is_disabled": 0, "rental_uris": {"android": "https://dc.lft.to/lastmile_qr_scan", "ios": "https://dc.lft.to/lastmile_qr_scan"}, "is_reserved": 0, "name": "4f439d934c19e34364a8163759531b11", "lon": -77.00068083333333, "type": "electric_scooter", "bike_id": "4f439d934c19e34364a8163759531b11", "fusion_lon": 0.0, "lat": 38.9239225, "fusion_lat": 0.0}, {"is_disabled": 0, "rental_uris": {"android": "https://dc.lft.to/lastmile_qr_scan", "ios": "https://dc.lft.to/lastmile_qr_scan"}, "is_reserved": 0, "name": "6994e248d6fce0756f0835d19d379b59", "lon": -77.0353075, "type": "electric_scooter", "bike_id": "6994e248d6fce0756f0835d19d379b59", "fusion_lon": 0.0, "lat": 38.90970166666666, "fusion_lat": 0.0}, {"is_disabled": 0, "rental_uris": {"android": "https://dc.lft.to/lastmile_qr_scan", "ios": "https://dc.lft.to/lastmile_qr_scan"}, "is_reserved": 0, "name": "ec1bfe6f27ad1886c5e4eab490dc4626", "lon": -77.0280825, "type": "electric_scooter", "bike_id": "ec1bfe6f27ad1886c5e4eab490dc4626", "fusion_lon": 0.0, "lat": 38.89618133333333, "fusion_lat": 0.0}, {"is_disabled": 0, "rental_uris": {"android": "https://dc.lft.to/lastmile_qr_scan", "ios": "https://dc.lft.to/lastmile_qr_scan"}, "is_reserved": 0, "name": "9e6848d140a0572f44265e1f001dd7c6", "lon": -77.02995316666667, "type": "electric_scooter", "bike_id": "9e6848d140a0572f44265e1f001dd7c6", "fusion_lon": 0.0, "lat": 38.924706, "fusion_lat": 0.0}, {"is_disabled": 0, "rental_uris": {"android": "https://dc.lft.to/lastmile_qr_scan", "ios": "https://dc.lft.to/lastmile_qr_scan"}, "is_reserved": 0, "name": "2867d34a6d92de0e027bbb81d0fe6143", "lon": -77.02930966666666, "type": "electric_scooter", "bike_id": "2867d34a6d92de0e027bbb81d0fe6143", "fusion_lon": 0.0, "lat": 38.882209, "fusion_lat": 0.0}, {"is_disabled": 0, "rental_uris": {"android": "https://dc.lft.to/lastmile_qr_scan", "ios": "https://dc.lft.to/lastmile_qr_scan"}, "is_reserved": 0, "name": "22bcd8a118df09380988146662c01bf4", "lon": -77.029584, "type": "electric_scooter", "bike_id": "22bcd8a118df09380988146662c01bf4", "fusion_lon": 0.0, "lat": 38.92145383333333, "fusion_lat": 0.0}, {"is_disabled": 0, "rental_uris": {"android": "https://dc.lft.to/lastmile_qr_scan", "ios": "https://dc.lft.to/lastmile_qr_scan"}, "is_reserved": 0, "name": "e0763a6d287b9bb85c4ed1011354f011", "lon": -77.04059816666667, "type": "electric_scooter", "bike_id": "e0763a6d287b9bb85c4ed1011354f011", "fusion_lon": 0.0, "lat": 38.91036, "fusion_lat": 0.0}, {"is_disabled": 0, "rental_uris": {"android": "https://dc.lft.to/lastmile_qr_scan", "ios": "https://dc.lft.to/lastmile_qr_scan"}, "is_reserved": 0, "name": "75c06d9a11477fd61a2a2f5331d49dcf", "lon": -76.981539, "type": "electric_bike", "bike_id": "75c06d9a11477fd61a2a2f5331d49dcf", "fusion_lon": 0.0, "lat": 38.95962933333333, "fusion_lat": 0.0}, {"is_disabled": 0, "rental_uris": {"android": "https://dc.lft.to/lastmile_qr_scan", "ios": "https://dc.lft.to/lastmile_qr_scan"}, "is_reserved": 0, "name": "de700890adcd7514e4cf7875b8263444", "lon": -76.93186366666667, "type": "electric_scooter", "bike_id": "de700890adcd7514e4cf7875b8263444", "fusion_lon": 0.0, "lat": 38.898779833333336, "fusion_lat": 0.0}, {"is_disabled": 0, "rental_uris": {"android": "https://dc.lft.to/lastmile_qr_scan", "ios": "https://dc.lft.to/lastmile_qr_scan"}, "is_reserved": 0, "name": "353345452f403bc3bbd66f2944f2a4ec", "lon": -77.02787366666666, "type": "electric_scooter", "bike_id": "353345452f403bc3bbd66f2944f2a4ec", "fusion_lon": 0.0, "lat": 38.961298666666664, "fusion_lat": 0.0}, {"is_disabled": 0, "rental_uris": {"android": "https://dc.lft.to/lastmile_qr_scan", "ios": "https://dc.lft.to/lastmile_qr_scan"}, "is_reserved": 0, "name": "4f892b4f12795e6d962dbd4c60832411", "lon": -77.05706533333333, "type": "electric_scooter", "bike_id": "4f892b4f12795e6d962dbd4c60832411", "fusion_lon": 0.0, "lat": 38.92619333333333, "fusion_lat": 0.0}, {"is_disabled": 0, "rental_uris": {"android": "https://dc.lft.to/lastmile_qr_scan", "ios": "https://dc.lft.to/lastmile_qr_scan"}, "is_reserved": 0, "name": "e41079aac108bf5a90e23a8935024355", "lon": -77.01974916666667, "type": "electric_scooter", "bike_id": "e41079aac108bf5a90e23a8935024355", "fusion_lon": 0.0, "lat": 38.91196933333333, "fusion_lat": 0.0}, {"is_disabled": 0, "rental_uris": {"android": "https://dc.lft.to/lastmile_qr_scan", "ios": "https://dc.lft.to/lastmile_qr_scan"}, "is_reserved": 0, "name": "0d8cadddde071fbf9876b162bea9353e", "lon": -77.02379066666667, "type": "electric_scooter", "bike_id": "0d8cadddde071fbf9876b162bea9353e", "fusion_lon": 0.0, "lat": 38.905873, "fusion_lat": 0.0}, {"is_disabled": 0, "rental_uris": {"android": "https://dc.lft.to/lastmile_qr_scan", "ios": "https://dc.lft.to/lastmile_qr_scan"}, "is_reserved": 0, "name": "e2aaa424394e758fbca99226e8827dd8", "lon": -76.95668983333333, "type": "electric_scooter", "bike_id": "e2aaa424394e758fbca99226e8827dd8", "fusion_lon": 0.0, "lat": 38.88766733333333, "fusion_lat": 0.0}, {"is_disabled": 0, "rental_uris": {"android": "https://dc.lft.to/lastmile_qr_scan", "ios": "https://dc.lft.to/lastmile_qr_scan"}, "is_reserved": 0, "name": "188655059d863ea294d23c7b16903d2d", "lon": -77.04145116666666, "type": "electric_scooter", "bike_id": "188655059d863ea294d23c7b16903d2d", "fusion_lon": 0.0, "lat": 38.912671833333334, "fusion_lat": 0.0}, {"is_disabled": 0, "rental_uris": {"android": "https://dc.lft.to/lastmile_qr_scan", "ios": "https://dc.lft.to/lastmile_qr_scan"}, "is_reserved": 0, "name": "3530ed2ca814e4883db158238e703a5e", "lon": -77.04643866666666, "type": "electric_scooter", "bike_id": "3530ed2ca814e4883db158238e703a5e", "fusion_lon": 0.0, "lat": 38.905613, "fusion_lat": 0.0}, {"is_disabled": 0, "rental_uris": {"android": "https://dc.lft.to/lastmile_qr_scan", "ios": "https://dc.lft.to/lastmile_qr_scan"}, "is_reserved": 0, "name": "28bd7eeface3cca6062f3607eaefe31a", "lon": -77.02465333333333, "type": "electric_bike", "bike_id": "28bd7eeface3cca6062f3607eaefe31a", "fusion_lon": 0.0, "lat": 38.95575, "fusion_lat": 0.0}, {"is_disabled": 0, "rental_uris": {"android": "https://dc.lft.to/lastmile_qr_scan", "ios": "https://dc.lft.to/lastmile_qr_scan"}, "is_reserved": 0, "name": "275fcf61ba76dbd9521236b3ea5f7fad", "lon": -77.0073195, "type": "electric_scooter", "bike_id": "275fcf61ba76dbd9521236b3ea5f7fad", "fusion_lon": 0.0, "lat": 38.915519333333336, "fusion_lat": 0.0}, {"is_disabled": 0, "rental_uris": {"android": "https://dc.lft.to/lastmile_qr_scan", "ios": "https://dc.lft.to/lastmile_qr_scan"}, "is_reserved": 0, "name": "f54ddc0b805686712f4f19651db1f8f6", "lon": -77.02957416666666, "type": "electric_scooter", "bike_id": "f54ddc0b805686712f4f19651db1f8f6", "fusion_lon": 0.0, "lat": 38.89228033333333, "fusion_lat": 0.0}, {"is_disabled": 0, "rental_uris": {"android": "https://dc.lft.to/lastmile_qr_scan", "ios": "https://dc.lft.to/lastmile_qr_scan"}, "is_reserved": 0, "name": "8c77d194a2a585dc32bfefff5a6f44ae", "lon": -77.04870933333333, "type": "electric_scooter", "bike_id": "8c77d194a2a585dc32bfefff5a6f44ae", "fusion_lon": 0.0, "lat": 38.90949283333333, "fusion_lat": 0.0}, {"is_disabled": 0, "rental_uris": {"android": "https://dc.lft.to/lastmile_qr_scan", "ios": "https://dc.lft.to/lastmile_qr_scan"}, "is_reserved": 0, "name": "98590c932952f9761cd03943a86a7fe3", "lon": -77.17530383333333, "type": "electric_bike", "bike_id": "98590c932952f9761cd03943a86a7fe3", "fusion_lon": 0.0, "lat": 39.09601166666667, "fusion_lat": 0.0}, {"is_disabled": 0, "rental_uris": {"android": "https://dc.lft.to/lastmile_qr_scan", "ios": "https://dc.lft.to/lastmile_qr_scan"}, "is_reserved": 0, "name": "3a1b2b4f7295491ef965a6bebdc5fc0a", "lon": -77.026499, "type": "electric_bike", "bike_id": "3a1b2b4f7295491ef965a6bebdc5fc0a", "fusion_lon": 0.0, "lat": 38.98821866666667, "fusion_lat": 0.0}, {"is_disabled": 0, "rental_uris": {"android": "https://dc.lft.to/lastmile_qr_scan", "ios": "https://dc.lft.to/lastmile_qr_scan"}, "is_reserved": 0, "name": "70227526fb58a7f7975e078fa11fe311", "lon": -77.024086, "type": "electric_scooter", "bike_id": "70227526fb58a7f7975e078fa11fe311", "fusion_lon": 0.0, "lat": 38.904120166666665, "fusion_lat": 0.0}, {"is_disabled": 0, "rental_uris": {"android": "https://dc.lft.to/lastmile_qr_scan", "ios": "https://dc.lft.to/lastmile_qr_scan"}, "is_reserved": 0, "name": "54c16a17834a9a6d4ffcb2ef2163b2fe", "lon": -77.06154416666666, "type": "electric_scooter", "bike_id": "54c16a17834a9a6d4ffcb2ef2163b2fe", "fusion_lon": 0.0, "lat": 38.90519583333333, "fusion_lat": 0.0}, {"is_disabled": 0, "rental_uris": {"android": "https://dc.lft.to/lastmile_qr_scan", "ios": "https://dc.lft.to/lastmile_qr_scan"}, "is_reserved": 0, "name": "17c191c48406506d4c8df88022ba26e6", "lon": -77.02130116666666, "type": "electric_scooter", "bike_id": "17c191c48406506d4c8df88022ba26e6", "fusion_lon": 0.0, "lat": 38.887488833333336, "fusion_lat": 0.0}, {"is_disabled": 0, "rental_uris": {"android": "https://dc.lft.to/lastmile_qr_scan", "ios": "https://dc.lft.to/lastmile_qr_scan"}, "is_reserved": 0, "name": "68607c99f1b2a66273970adebe0a413e", "lon": -77.12625933333334, "type": "electric_bike", "bike_id": "68607c99f1b2a66273970adebe0a413e", "fusion_lon": 0.0, "lat": 39.058130166666665, "fusion_lat": 0.0}, {"is_disabled": 0, "rental_uris": {"android": "https://dc.lft.to/lastmile_qr_scan", "ios": "https://dc.lft.to/lastmile_qr_scan"}, "is_reserved": 0, "name": "fc26c1b823085d79b9349548627cd5bb", "lon": -77.02228283333334, "type": "electric_scooter", "bike_id": "fc26c1b823085d79b9349548627cd5bb", "fusion_lon": 0.0, "lat": 38.887449, "fusion_lat": 0.0}, {"is_disabled": 0, "rental_uris": {"android": "https://dc.lft.to/lastmile_qr_scan", "ios": "https://dc.lft.to/lastmile_qr_scan"}, "is_reserved": 0, "name": "e14526bbd60c471855e69a27f41fb2e0", "lon": -77.04160233333333, "type": "electric_scooter", "bike_id": "e14526bbd60c471855e69a27f41fb2e0", "fusion_lon": 0.0, "lat": 38.9103135, "fusion_lat": 0.0}, {"is_disabled": 0, "rental_uris": {"android": "https://dc.lft.to/lastmile_qr_scan", "ios": "https://dc.lft.to/lastmile_qr_scan"}, "is_reserved": 0, "name": "c475aef4344a100bbffc44a49212d5ac", "lon": -77.035251, "type": "electric_scooter", "bike_id": "c475aef4344a100bbffc44a49212d5ac", "fusion_lon": 0.0, "lat": 38.927255, "fusion_lat": 0.0}, {"is_disabled": 0, "rental_uris": {"android": "https://dc.lft.to/lastmile_qr_scan", "ios": "https://dc.lft.to/lastmile_qr_scan"}, "is_reserved": 0, "name": "d6bc54076e1bd841f13b29012d65b09e", "lon": -77.00533566666667, "type": "electric_scooter", "bike_id": "d6bc54076e1bd841f13b29012d65b09e", "fusion_lon": 0.0, "lat": 38.92968283333333, "fusion_lat": 0.0}, {"is_disabled": 0, "rental_uris": {"android": "https://dc.lft.to/lastmile_qr_scan", "ios": "https://dc.lft.to/lastmile_qr_scan"}, "is_reserved": 0, "name": "24e4a165468d7cf3bf5f472f3f5f552a", "lon": -77.003342, "type": "electric_scooter", "bike_id": "24e4a165468d7cf3bf5f472f3f5f552a", "fusion_lon": 0.0, "lat": 38.89358133333333, "fusion_lat": 0.0}, {"is_disabled": 0, "rental_uris": {"android": "https://dc.lft.to/lastmile_qr_scan", "ios": "https://dc.lft.to/lastmile_qr_scan"}, "is_reserved": 0, "name": "7e753395da094963c9676657891066ad", "lon": -77.04050683333334, "type": "electric_scooter", "bike_id": "7e753395da094963c9676657891066ad", "fusion_lon": 0.0, "lat": 38.90035733333333, "fusion_lat": 0.0}, {"is_disabled": 0, "rental_uris": {"android": "https://dc.lft.to/lastmile_qr_scan", "ios": "https://dc.lft.to/lastmile_qr_scan"}, "is_reserved": 0, "name": "6132ae13dbb007f59a9f659c99bd8505", "lon": -77.04159083333333, "type": "electric_scooter", "bike_id": "6132ae13dbb007f59a9f659c99bd8505", "fusion_lon": 0.0, "lat": 38.914230333333336, "fusion_lat": 0.0}, {"is_disabled": 0, "rental_uris": {"android": "https://dc.lft.to/lastmile_qr_scan", "ios": "https://dc.lft.to/lastmile_qr_scan"}, "is_reserved": 0, "name": "633f8a7ec7b00baa451d20ab6bf954c6", "lon": -77.03338983333333, "type": "electric_scooter", "bike_id": "633f8a7ec7b00baa451d20ab6bf954c6", "fusion_lon": 0.0, "lat": 38.9180985, "fusion_lat": 0.0}, {"is_disabled": 0, "rental_uris": {"android": "https://dc.lft.to/lastmile_qr_scan", "ios": "https://dc.lft.to/lastmile_qr_scan"}, "is_reserved": 0, "name": "973ebccaff2a1720c511c01ca248bae5", "lon": -77.0231695, "type": "electric_scooter", "bike_id": "973ebccaff2a1720c511c01ca248bae5", "fusion_lon": 0.0, "lat": 38.920934, "fusion_lat": 0.0}, {"is_disabled": 0, "rental_uris": {"android": "https://dc.lft.to/lastmile_qr_scan", "ios": "https://dc.lft.to/lastmile_qr_scan"}, "is_reserved": 0, "name": "7f6b75cb6ab21a73f4b7e2799d51ce3b", "lon": -77.02181883333333, "type": "electric_scooter", "bike_id": "7f6b75cb6ab21a73f4b7e2799d51ce3b", "fusion_lon": 0.0, "lat": 38.8948195, "fusion_lat": 0.0}, {"is_disabled": 0, "rental_uris": {"android": "https://dc.lft.to/lastmile_qr_scan", "ios": "https://dc.lft.to/lastmile_qr_scan"}, "is_reserved": 0, "name": "c44759a29eac08844b06f03705ad1b8b", "lon": -77.0320875, "type": "electric_scooter", "bike_id": "c44759a29eac08844b06f03705ad1b8b", "fusion_lon": 0.0, "lat": 38.918518166666665, "fusion_lat": 0.0}, {"is_disabled": 0, "rental_uris": {"android": "https://dc.lft.to/lastmile_qr_scan", "ios": "https://dc.lft.to/lastmile_qr_scan"}, "is_reserved": 0, "name": "8013f63c366e647417a2b0e21160c5dd", "lon": -76.996328, "type": "electric_scooter", "bike_id": "8013f63c366e647417a2b0e21160c5dd", "fusion_lon": 0.0, "lat": 38.84621416666667, "fusion_lat": 0.0}, {"is_disabled": 0, "rental_uris": {"android": "https://dc.lft.to/lastmile_qr_scan", "ios": "https://dc.lft.to/lastmile_qr_scan"}, "is_reserved": 0, "name": "96f59fb93778636e0f957af54b658970", "lon": -77.12741666666666, "type": "electric_bike", "bike_id": "96f59fb93778636e0f957af54b658970", "fusion_lon": 0.0, "lat": 38.89565783333333, "fusion_lat": 0.0}, {"is_disabled": 0, "rental_uris": {"android": "https://dc.lft.to/lastmile_qr_scan", "ios": "https://dc.lft.to/lastmile_qr_scan"}, "is_reserved": 0, "name": "ef80f704b18e4a13b2040cf9675a6a25", "lon": -77.03916733333334, "type": "electric_scooter", "bike_id": "ef80f704b18e4a13b2040cf9675a6a25", "fusion_lon": 0.0, "lat": 38.919131166666666, "fusion_lat": 0.0}, {"is_disabled": 0, "rental_uris": {"android": "https://dc.lft.to/lastmile_qr_scan", "ios": "https://dc.lft.to/lastmile_qr_scan"}, "is_reserved": 0, "name": "f7df59b7ac073cd88cb40e4ca9e829be", "lon": -77.0365525, "type": "electric_scooter", "bike_id": "f7df59b7ac073cd88cb40e4ca9e829be", "fusion_lon": 0.0, "lat": 38.9281385, "fusion_lat": 0.0}, {"is_disabled": 0, "rental_uris": {"android": "https://dc.lft.to/lastmile_qr_scan", "ios": "https://dc.lft.to/lastmile_qr_scan"}, "is_reserved": 0, "name": "f3164d692a38cfc48d9d6a816b0201ab", "lon": -76.930532, "type": "electric_scooter", "bike_id": "f3164d692a38cfc48d9d6a816b0201ab", "fusion_lon": 0.0, "lat": 38.897984666666666, "fusion_lat": 0.0}, {"is_disabled": 0, "rental_uris": {"android": "https://dc.lft.to/lastmile_qr_scan", "ios": "https://dc.lft.to/lastmile_qr_scan"}, "is_reserved": 0, "name": "dc137518f19189cb54e7c28e3ce092ab", "lon": -76.98072766666667, "type": "electric_scooter", "bike_id": "dc137518f19189cb54e7c28e3ce092ab", "fusion_lon": 0.0, "lat": 38.91936366666667, "fusion_lat": 0.0}, {"is_disabled": 0, "rental_uris": {"android": "https://dc.lft.to/lastmile_qr_scan", "ios": "https://dc.lft.to/lastmile_qr_scan"}, "is_reserved": 0, "name": "b34fbd0dcf2bb5b88851fac6cbff5b3e", "lon": -77.03902983333333, "type": "electric_scooter", "bike_id": "b34fbd0dcf2bb5b88851fac6cbff5b3e", "fusion_lon": 0.0, "lat": 38.914267833333334, "fusion_lat": 0.0}, {"is_disabled": 0, "rental_uris": {"android": "https://dc.lft.to/lastmile_qr_scan", "ios": "https://dc.lft.to/lastmile_qr_scan"}, "is_reserved": 0, "name": "ce5de4645bbd10da4a26a775c2e9286b", "lon": -77.00587516666667, "type": "electric_scooter", "bike_id": "ce5de4645bbd10da4a26a775c2e9286b", "fusion_lon": 0.0, "lat": 38.9275905, "fusion_lat": 0.0}, {"is_disabled": 0, "rental_uris": {"android": "https://dc.lft.to/lastmile_qr_scan", "ios": "https://dc.lft.to/lastmile_qr_scan"}, "is_reserved": 0, "name": "1f698b8b7c8820fde2ed9181ccdb177c", "lon": -77.00809833333334, "type": "electric_scooter", "bike_id": "1f698b8b7c8820fde2ed9181ccdb177c", "fusion_lon": 0.0, "lat": 38.883358333333334, "fusion_lat": 0.0}, {"is_disabled": 0, "rental_uris": {"android": "https://dc.lft.to/lastmile_qr_scan", "ios": "https://dc.lft.to/lastmile_qr_scan"}, "is_reserved": 0, "name": "79e849e2578f596f0ad62c36600e862b", "lon": -77.01849883333334, "type": "electric_scooter", "bike_id": "79e849e2578f596f0ad62c36600e862b", "fusion_lon": 0.0, "lat": 38.95430983333333, "fusion_lat": 0.0}, {"is_disabled": 0, "rental_uris": {"android": "https://dc.lft.to/lastmile_qr_scan", "ios": "https://dc.lft.to/lastmile_qr_scan"}, "is_reserved": 0, "name": "c027c8fe3a594a795e46c598b2157ddb", "lon": -77.0323915, "type": "electric_scooter", "bike_id": "c027c8fe3a594a795e46c598b2157ddb", "fusion_lon": 0.0, "lat": 38.92104966666667, "fusion_lat": 0.0}, {"is_disabled": 0, "rental_uris": {"android": "https://dc.lft.to/lastmile_qr_scan", "ios": "https://dc.lft.to/lastmile_qr_scan"}, "is_reserved": 0, "name": "6fa265fbc2db114d1867f2783d449c27", "lon": -76.9953595, "type": "electric_scooter", "bike_id": "6fa265fbc2db114d1867f2783d449c27", "fusion_lon": 0.0, "lat": 38.884150166666664, "fusion_lat": 0.0}, {"is_disabled": 0, "rental_uris": {"android": "https://dc.lft.to/lastmile_qr_scan", "ios": "https://dc.lft.to/lastmile_qr_scan"}, "is_reserved": 0, "name": "54a6a0fb2f1f9336922b91f4bf38538c", "lon": -77.02374133333333, "type": "electric_scooter", "bike_id": "54a6a0fb2f1f9336922b91f4bf38538c", "fusion_lon": 0.0, "lat": 38.91908183333334, "fusion_lat": 0.0}, {"is_disabled": 0, "rental_uris": {"android": "https://dc.lft.to/lastmile_qr_scan", "ios": "https://dc.lft.to/lastmile_qr_scan"}, "is_reserved": 0, "name": "f8e4c1e2525aa0bed870194758602953", "lon": -77.01890016666667, "type": "electric_scooter", "bike_id": "f8e4c1e2525aa0bed870194758602953", "fusion_lon": 0.0, "lat": 38.92953166666667, "fusion_lat": 0.0}, {"is_disabled": 0, "rental_uris": {"android": "https://dc.lft.to/lastmile_qr_scan", "ios": "https://dc.lft.to/lastmile_qr_scan"}, "is_reserved": 0, "name": "97d6600633e21b9f06ca1cbb47d6978b", "lon": -77.043255, "type": "electric_scooter", "bike_id": "97d6600633e21b9f06ca1cbb47d6978b", "fusion_lon": 0.0, "lat": 38.92334366666667, "fusion_lat": 0.0}, {"is_disabled": 0, "rental_uris": {"android": "https://dc.lft.to/lastmile_qr_scan", "ios": "https://dc.lft.to/lastmile_qr_scan"}, "is_reserved": 0, "name": "9dea784a8f716e0ed5c8509ce0615428", "lon": -76.9763165, "type": "electric_scooter", "bike_id": "9dea784a8f716e0ed5c8509ce0615428", "fusion_lon": 0.0, "lat": 38.90286616666667, "fusion_lat": 0.0}, {"is_disabled": 0, "rental_uris": {"android": "https://dc.lft.to/lastmile_qr_scan", "ios": "https://dc.lft.to/lastmile_qr_scan"}, "is_reserved": 0, "name": "e1d36ce94c58324c1e55fca9bd6dbac7", "lon": -77.00871616666667, "type": "electric_scooter", "bike_id": "e1d36ce94c58324c1e55fca9bd6dbac7", "fusion_lon": 0.0, "lat": 38.90574433333333, "fusion_lat": 0.0}, {"is_disabled": 0, "rental_uris": {"android": "https://dc.lft.to/lastmile_qr_scan", "ios": "https://dc.lft.to/lastmile_qr_scan"}, "is_reserved": 0, "name": "d433959fff26c97dc13983728626532a", "lon": -77.01228016666667, "type": "electric_scooter", "bike_id": "d433959fff26c97dc13983728626532a", "fusion_lon": 0.0, "lat": 38.907212666666666, "fusion_lat": 0.0}, {"is_disabled": 0, "rental_uris": {"android": "https://dc.lft.to/lastmile_qr_scan", "ios": "https://dc.lft.to/lastmile_qr_scan"}, "is_reserved": 0, "name": "597c174c165f1c676e43d9d583e71a43", "lon": -76.93202566666666, "type": "electric_bike", "bike_id": "597c174c165f1c676e43d9d583e71a43", "fusion_lon": 0.0, "lat": 38.872331833333334, "fusion_lat": 0.0}, {"is_disabled": 0, "rental_uris": {"android": "https://dc.lft.to/lastmile_qr_scan", "ios": "https://dc.lft.to/lastmile_qr_scan"}, "is_reserved": 0, "name": "2598edca0439f41bb71f2968a720e85d", "lon": -76.98822766666666, "type": "electric_scooter", "bike_id": "2598edca0439f41bb71f2968a720e85d", "fusion_lon": 0.0, "lat": 38.90038583333333, "fusion_lat": 0.0}, {"is_disabled": 0, "rental_uris": {"android": "https://dc.lft.to/lastmile_qr_scan", "ios": "https://dc.lft.to/lastmile_qr_scan"}, "is_reserved": 0, "name": "e695d175a7f326112a7a4683f76e474e", "lon": -77.034424, "type": "electric_scooter", "bike_id": "e695d175a7f326112a7a4683f76e474e", "fusion_lon": 0.0, "lat": 38.908874, "fusion_lat": 0.0}, {"is_disabled": 0, "rental_uris": {"android": "https://dc.lft.to/lastmile_qr_scan", "ios": "https://dc.lft.to/lastmile_qr_scan"}, "is_reserved": 0, "name": "21f81d1614120b376d7859e9b5b93a0b", "lon": -77.02841066666667, "type": "electric_scooter", "bike_id": "21f81d1614120b376d7859e9b5b93a0b", "fusion_lon": 0.0, "lat": 38.93192583333333, "fusion_lat": 0.0}, {"is_disabled": 0, "rental_uris": {"android": "https://dc.lft.to/lastmile_qr_scan", "ios": "https://dc.lft.to/lastmile_qr_scan"}, "is_reserved": 0, "name": "d42f2186d465d1ea76c95a6658bcea22", "lon": -77.00047816666667, "type": "electric_scooter", "bike_id": "d42f2186d465d1ea76c95a6658bcea22", "fusion_lon": 0.0, "lat": 38.91901566666667, "fusion_lat": 0.0}, {"is_disabled": 0, "rental_uris": {"android": "https://dc.lft.to/lastmile_qr_scan", "ios": "https://dc.lft.to/lastmile_qr_scan"}, "is_reserved": 0, "name": "ccca5fb4ab2f79e9c21ba8c5f5262957", "lon": -77.02004266666667, "type": "electric_scooter", "bike_id": "ccca5fb4ab2f79e9c21ba8c5f5262957", "fusion_lon": 0.0, "lat": 38.900649666666666, "fusion_lat": 0.0}, {"is_disabled": 0, "rental_uris": {"android": "https://dc.lft.to/lastmile_qr_scan", "ios": "https://dc.lft.to/lastmile_qr_scan"}, "is_reserved": 0, "name": "d9be7851c0b3a136e271a5e731770d52", "lon": -77.03351283333333, "type": "electric_scooter", "bike_id": "d9be7851c0b3a136e271a5e731770d52", "fusion_lon": 0.0, "lat": 38.892308666666665, "fusion_lat": 0.0}, {"is_disabled": 0, "rental_uris": {"android": "https://dc.lft.to/lastmile_qr_scan", "ios": "https://dc.lft.to/lastmile_qr_scan"}, "is_reserved": 0, "name": "e0ca0f05f5c4c804d3b9abc9b4abe5aa", "lon": -77.01181066666666, "type": "electric_scooter", "bike_id": "e0ca0f05f5c4c804d3b9abc9b4abe5aa", "fusion_lon": 0.0, "lat": 38.90034266666667, "fusion_lat": 0.0}, {"is_disabled": 0, "rental_uris": {"android": "https://dc.lft.to/lastmile_qr_scan", "ios": "https://dc.lft.to/lastmile_qr_scan"}, "is_reserved": 0, "name": "bf09125c1bd8caae533a7101115b0c7c", "lon": -76.9858065, "type": "electric_scooter", "bike_id": "bf09125c1bd8caae533a7101115b0c7c", "fusion_lon": 0.0, "lat": 38.910315833333335, "fusion_lat": 0.0}, {"is_disabled": 0, "rental_uris": {"android": "https://dc.lft.to/lastmile_qr_scan", "ios": "https://dc.lft.to/lastmile_qr_scan"}, "is_reserved": 0, "name": "a5ae22e350e20516ea0eec7a72442d98", "lon": -77.01901183333334, "type": "electric_scooter", "bike_id": "a5ae22e350e20516ea0eec7a72442d98", "fusion_lon": 0.0, "lat": 38.903577, "fusion_lat": 0.0}, {"is_disabled": 0, "rental_uris": {"android": "https://dc.lft.to/lastmile_qr_scan", "ios": "https://dc.lft.to/lastmile_qr_scan"}, "is_reserved": 0, "name": "df16a2b43d0e8a0196beee268f84c777", "lon": -77.05058066666666, "type": "electric_scooter", "bike_id": "df16a2b43d0e8a0196beee268f84c777", "fusion_lon": 0.0, "lat": 38.916427, "fusion_lat": 0.0}, {"is_disabled": 0, "rental_uris": {"android": "https://dc.lft.to/lastmile_qr_scan", "ios": "https://dc.lft.to/lastmile_qr_scan"}, "is_reserved": 0, "name": "e905c3defcb2b8096967b6ec5cb6a1cf", "lon": -77.043719, "type": "electric_scooter", "bike_id": "e905c3defcb2b8096967b6ec5cb6a1cf", "fusion_lon": 0.0, "lat": 38.922317, "fusion_lat": 0.0}, {"is_disabled": 0, "rental_uris": {"android": "https://dc.lft.to/lastmile_qr_scan", "ios": "https://dc.lft.to/lastmile_qr_scan"}, "is_reserved": 0, "name": "ca2702bcd29568c070ae30805e70e399", "lon": -77.01658583333334, "type": "electric_bike", "bike_id": "ca2702bcd29568c070ae30805e70e399", "fusion_lon": 0.0, "lat": 38.954314833333335, "fusion_lat": 0.0}, {"is_disabled": 0, "rental_uris": {"android": "https://dc.lft.to/lastmile_qr_scan", "ios": "https://dc.lft.to/lastmile_qr_scan"}, "is_reserved": 0, "name": "1d00a329e5e874ba7630eed3a61cdf85", "lon": -77.05252866666666, "type": "electric_scooter", "bike_id": "1d00a329e5e874ba7630eed3a61cdf85", "fusion_lon": 0.0, "lat": 38.92735066666667, "fusion_lat": 0.0}, {"is_disabled": 0, "rental_uris": {"android": "https://dc.lft.to/lastmile_qr_scan", "ios": "https://dc.lft.to/lastmile_qr_scan"}, "is_reserved": 0, "name": "65e256d07d52d7d6e1b513352a98ed75", "lon": -77.05292716666666, "type": "electric_scooter", "bike_id": "65e256d07d52d7d6e1b513352a98ed75", "fusion_lon": 0.0, "lat": 38.903400166666664, "fusion_lat": 0.0}, {"is_disabled": 0, "rental_uris": {"android": "https://dc.lft.to/lastmile_qr_scan", "ios": "https://dc.lft.to/lastmile_qr_scan"}, "is_reserved": 0, "name": "3ac9d1b7bbdea06e54bab6a8738d6ea1", "lon": -77.0226305, "type": "electric_scooter", "bike_id": "3ac9d1b7bbdea06e54bab6a8738d6ea1", "fusion_lon": 0.0, "lat": 38.92737433333333, "fusion_lat": 0.0}, {"is_disabled": 0, "rental_uris": {"android": "https://dc.lft.to/lastmile_qr_scan", "ios": "https://dc.lft.to/lastmile_qr_scan"}, "is_reserved": 0, "name": "f1c46fe7ce99996f0dbb86eb5283f5b9", "lon": -76.9869845, "type": "electric_scooter", "bike_id": "f1c46fe7ce99996f0dbb86eb5283f5b9", "fusion_lon": 0.0, "lat": 38.8669695, "fusion_lat": 0.0}, {"is_disabled": 0, "rental_uris": {"android": "https://dc.lft.to/lastmile_qr_scan", "ios": "https://dc.lft.to/lastmile_qr_scan"}, "is_reserved": 0, "name": "8844733cbf922647591f315c50b11dda", "lon": -77.032688, "type": "electric_scooter", "bike_id": "8844733cbf922647591f315c50b11dda", "fusion_lon": 0.0, "lat": 38.933315666666665, "fusion_lat": 0.0}, {"is_disabled": 0, "rental_uris": {"android": "https://dc.lft.to/lastmile_qr_scan", "ios": "https://dc.lft.to/lastmile_qr_scan"}, "is_reserved": 0, "name": "5bd42e2bf8358721857cd17b545e1068", "lon": -77.009192, "type": "electric_scooter", "bike_id": "5bd42e2bf8358721857cd17b545e1068", "fusion_lon": 0.0, "lat": 38.8978505, "fusion_lat": 0.0}, {"is_disabled": 0, "rental_uris": {"android": "https://dc.lft.to/lastmile_qr_scan", "ios": "https://dc.lft.to/lastmile_qr_scan"}, "is_reserved": 0, "name": "b2760b5931441aa2a1aea4f7ded8eac2", "lon": -77.04167333333334, "type": "electric_scooter", "bike_id": "b2760b5931441aa2a1aea4f7ded8eac2", "fusion_lon": 0.0, "lat": 38.9102885, "fusion_lat": 0.0}, {"is_disabled": 0, "rental_uris": {"android": "https://dc.lft.to/lastmile_qr_scan", "ios": "https://dc.lft.to/lastmile_qr_scan"}, "is_reserved": 0, "name": "ec1c361ab0c49d198789ec574f033ba1", "lon": -77.0420205, "type": "electric_scooter", "bike_id": "ec1c361ab0c49d198789ec574f033ba1", "fusion_lon": 0.0, "lat": 38.92962583333333, "fusion_lat": 0.0}, {"is_disabled": 0, "rental_uris": {"android": "https://dc.lft.to/lastmile_qr_scan", "ios": "https://dc.lft.to/lastmile_qr_scan"}, "is_reserved": 0, "name": "9096b6a93c2475e8b893c3e08c5228f3", "lon": -77.029473, "type": "electric_scooter", "bike_id": "9096b6a93c2475e8b893c3e08c5228f3", "fusion_lon": 0.0, "lat": 38.9177325, "fusion_lat": 0.0}, {"is_disabled": 0, "rental_uris": {"android": "https://dc.lft.to/lastmile_qr_scan", "ios": "https://dc.lft.to/lastmile_qr_scan"}, "is_reserved": 0, "name": "dd6a753ee86b2cc40d16beb1f194fdfb", "lon": -76.99569516666666, "type": "electric_bike", "bike_id": "dd6a753ee86b2cc40d16beb1f194fdfb", "fusion_lon": 0.0, "lat": 39.007787, "fusion_lat": 0.0}, {"is_disabled": 0, "rental_uris": {"android": "https://dc.lft.to/lastmile_qr_scan", "ios": "https://dc.lft.to/lastmile_qr_scan"}, "is_reserved": 0, "name": "fc54f6ecb7c48e94af311b3358d77a50", "lon": -77.02684416666666, "type": "electric_scooter", "bike_id": "fc54f6ecb7c48e94af311b3358d77a50", "fusion_lon": 0.0, "lat": 38.89609516666667, "fusion_lat": 0.0}, {"is_disabled": 0, "rental_uris": {"android": "https://dc.lft.to/lastmile_qr_scan", "ios": "https://dc.lft.to/lastmile_qr_scan"}, "is_reserved": 0, "name": "ccbc33c1049c8a9d7d2e876b326874ef", "lon": -77.03214433333333, "type": "electric_scooter", "bike_id": "ccbc33c1049c8a9d7d2e876b326874ef", "fusion_lon": 0.0, "lat": 38.925810166666665, "fusion_lat": 0.0}, {"is_disabled": 0, "rental_uris": {"android": "https://dc.lft.to/lastmile_qr_scan", "ios": "https://dc.lft.to/lastmile_qr_scan"}, "is_reserved": 0, "name": "fc1aed9f59dffb5ddfc985f8b14f5e8b", "lon": -77.0402385, "type": "electric_scooter", "bike_id": "fc1aed9f59dffb5ddfc985f8b14f5e8b", "fusion_lon": 0.0, "lat": 38.9171105, "fusion_lat": 0.0}, {"is_disabled": 0, "rental_uris": {"android": "https://dc.lft.to/lastmile_qr_scan", "ios": "https://dc.lft.to/lastmile_qr_scan"}, "is_reserved": 0, "name": "29b74db06f3946ee2630034e5ae76c25", "lon": -77.03777883333333, "type": "electric_bike", "bike_id": "29b74db06f3946ee2630034e5ae76c25", "fusion_lon": 0.0, "lat": 38.929456333333334, "fusion_lat": 0.0}, {"is_disabled": 0, "rental_uris": {"android": "https://dc.lft.to/lastmile_qr_scan", "ios": "https://dc.lft.to/lastmile_qr_scan"}, "is_reserved": 0, "name": "857fe94c518e153e07b32113c1ae9291", "lon": -77.02154916666667, "type": "electric_scooter", "bike_id": "857fe94c518e153e07b32113c1ae9291", "fusion_lon": 0.0, "lat": 38.926029666666665, "fusion_lat": 0.0}, {"is_disabled": 0, "rental_uris": {"android": "https://dc.lft.to/lastmile_qr_scan", "ios": "https://dc.lft.to/lastmile_qr_scan"}, "is_reserved": 0, "name": "ccf5938cd3a602fcbbe2ef904946a198", "lon": -77.04542516666666, "type": "electric_scooter", "bike_id": "ccf5938cd3a602fcbbe2ef904946a198", "fusion_lon": 0.0, "lat": 38.90662366666667, "fusion_lat": 0.0}, {"is_disabled": 0, "rental_uris": {"android": "https://dc.lft.to/lastmile_qr_scan", "ios": "https://dc.lft.to/lastmile_qr_scan"}, "is_reserved": 0, "name": "cc21a6bb5cc0be4f913f1b903604bc20", "lon": -76.98868866666666, "type": "electric_scooter", "bike_id": "cc21a6bb5cc0be4f913f1b903604bc20", "fusion_lon": 0.0, "lat": 38.8920745, "fusion_lat": 0.0}, {"is_disabled": 0, "rental_uris": {"android": "https://dc.lft.to/lastmile_qr_scan", "ios": "https://dc.lft.to/lastmile_qr_scan"}, "is_reserved": 0, "name": "4b34c409a417a276a4a04e07886d93fa", "lon": -77.0226655, "type": "electric_scooter", "bike_id": "4b34c409a417a276a4a04e07886d93fa", "fusion_lon": 0.0, "lat": 38.9273755, "fusion_lat": 0.0}, {"is_disabled": 0, "rental_uris": {"android": "https://dc.lft.to/lastmile_qr_scan", "ios": "https://dc.lft.to/lastmile_qr_scan"}, "is_reserved": 0, "name": "b890066cb1941b7e96998520b8258f33", "lon": -76.98710283333334, "type": "electric_scooter", "bike_id": "b890066cb1941b7e96998520b8258f33", "fusion_lon": 0.0, "lat": 38.86700783333333, "fusion_lat": 0.0}, {"is_disabled": 0, "rental_uris": {"android": "https://dc.lft.to/lastmile_qr_scan", "ios": "https://dc.lft.to/lastmile_qr_scan"}, "is_reserved": 0, "name": "11984760d404178f8b16172c3eeca8c3", "lon": -76.976168, "type": "electric_scooter", "bike_id": "11984760d404178f8b16172c3eeca8c3", "fusion_lon": 0.0, "lat": 38.93143283333333, "fusion_lat": 0.0}, {"is_disabled": 0, "rental_uris": {"android": "https://dc.lft.to/lastmile_qr_scan", "ios": "https://dc.lft.to/lastmile_qr_scan"}, "is_reserved": 0, "name": "298bc253c813055cd5592ece1875de41", "lon": -77.0202175, "type": "electric_scooter", "bike_id": "298bc253c813055cd5592ece1875de41", "fusion_lon": 0.0, "lat": 38.89739066666667, "fusion_lat": 0.0}, {"is_disabled": 0, "rental_uris": {"android": "https://dc.lft.to/lastmile_qr_scan", "ios": "https://dc.lft.to/lastmile_qr_scan"}, "is_reserved": 0, "name": "83bca1884438b77955a3ea362a238b42", "lon": -76.93741183333333, "type": "electric_scooter", "bike_id": "83bca1884438b77955a3ea362a238b42", "fusion_lon": 0.0, "lat": 38.89014, "fusion_lat": 0.0}, {"is_disabled": 0, "rental_uris": {"android": "https://dc.lft.to/lastmile_qr_scan", "ios": "https://dc.lft.to/lastmile_qr_scan"}, "is_reserved": 0, "name": "732942a1fd6e064c3a164229d0d1ced5", "lon": -77.03192116666666, "type": "electric_scooter", "bike_id": "732942a1fd6e064c3a164229d0d1ced5", "fusion_lon": 0.0, "lat": 38.917807333333336, "fusion_lat": 0.0}, {"is_disabled": 0, "rental_uris": {"android": "https://dc.lft.to/lastmile_qr_scan", "ios": "https://dc.lft.to/lastmile_qr_scan"}, "is_reserved": 0, "name": "04b1509ba1bc0aa4a0fe5207d8c5c0ce", "lon": -76.94060766666666, "type": "electric_scooter", "bike_id": "04b1509ba1bc0aa4a0fe5207d8c5c0ce", "fusion_lon": 0.0, "lat": 38.89052433333333, "fusion_lat": 0.0}, {"is_disabled": 0, "rental_uris": {"android": "https://dc.lft.to/lastmile_qr_scan", "ios": "https://dc.lft.to/lastmile_qr_scan"}, "is_reserved": 0, "name": "92dc3db42f6f178b718485e762aa6afc", "lon": -76.98773, "type": "electric_scooter", "bike_id": "92dc3db42f6f178b718485e762aa6afc", "fusion_lon": 0.0, "lat": 38.911731833333334, "fusion_lat": 0.0}, {"is_disabled": 0, "rental_uris": {"android": "https://dc.lft.to/lastmile_qr_scan", "ios": "https://dc.lft.to/lastmile_qr_scan"}, "is_reserved": 0, "name": "981a96cd22b1c365923e017e09a77416", "lon": -76.932358, "type": "electric_bike", "bike_id": "981a96cd22b1c365923e017e09a77416", "fusion_lon": 0.0, "lat": 38.86593833333333, "fusion_lat": 0.0}, {"is_disabled": 0, "rental_uris": {"android": "https://dc.lft.to/lastmile_qr_scan", "ios": "https://dc.lft.to/lastmile_qr_scan"}, "is_reserved": 0, "name": "2d52426085e2e5f86f661fced0feba42", "lon": -77.047286, "type": "electric_scooter", "bike_id": "2d52426085e2e5f86f661fced0feba42", "fusion_lon": 0.0, "lat": 38.89738466666667, "fusion_lat": 0.0}, {"is_disabled": 0, "rental_uris": {"android": "https://dc.lft.to/lastmile_qr_scan", "ios": "https://dc.lft.to/lastmile_qr_scan"}, "is_reserved": 0, "name": "02bcc90f3021af6342a56e81909c048e", "lon": -77.01819133333333, "type": "electric_scooter", "bike_id": "02bcc90f3021af6342a56e81909c048e", "fusion_lon": 0.0, "lat": 38.92217133333333, "fusion_lat": 0.0}, {"is_disabled": 0, "rental_uris": {"android": "https://dc.lft.to/lastmile_qr_scan", "ios": "https://dc.lft.to/lastmile_qr_scan"}, "is_reserved": 0, "name": "5ac9e4931033dca08f35972ddf660479", "lon": -77.03740316666666, "type": "electric_scooter", "bike_id": "5ac9e4931033dca08f35972ddf660479", "fusion_lon": 0.0, "lat": 38.911888, "fusion_lat": 0.0}, {"is_disabled": 0, "rental_uris": {"android": "https://dc.lft.to/lastmile_qr_scan", "ios": "https://dc.lft.to/lastmile_qr_scan"}, "is_reserved": 0, "name": "4641fc664d5819e1425530f61b315313", "lon": -77.0372015, "type": "electric_scooter", "bike_id": "4641fc664d5819e1425530f61b315313", "fusion_lon": 0.0, "lat": 38.91111383333333, "fusion_lat": 0.0}, {"is_disabled": 0, "rental_uris": {"android": "https://dc.lft.to/lastmile_qr_scan", "ios": "https://dc.lft.to/lastmile_qr_scan"}, "is_reserved": 0, "name": "25208d48d159a61fc46c88721875d8c2", "lon": -76.99083116666667, "type": "electric_scooter", "bike_id": "25208d48d159a61fc46c88721875d8c2", "fusion_lon": 0.0, "lat": 38.88232033333333, "fusion_lat": 0.0}, {"is_disabled": 0, "rental_uris": {"android": "https://dc.lft.to/lastmile_qr_scan", "ios": "https://dc.lft.to/lastmile_qr_scan"}, "is_reserved": 0, "name": "b9aaf2f7de95239d233a5b642be07f1d", "lon": -77.03784933333333, "type": "electric_scooter", "bike_id": "b9aaf2f7de95239d233a5b642be07f1d", "fusion_lon": 0.0, "lat": 38.93024233333333, "fusion_lat": 0.0}, {"is_disabled": 0, "rental_uris": {"android": "https://dc.lft.to/lastmile_qr_scan", "ios": "https://dc.lft.to/lastmile_qr_scan"}, "is_reserved": 0, "name": "463baf67f6a4508b0073c7946845a65b", "lon": -77.0471705, "type": "electric_scooter", "bike_id": "463baf67f6a4508b0073c7946845a65b", "fusion_lon": 0.0, "lat": 38.90598933333333, "fusion_lat": 0.0}, {"is_disabled": 0, "rental_uris": {"android": "https://dc.lft.to/lastmile_qr_scan", "ios": "https://dc.lft.to/lastmile_qr_scan"}, "is_reserved": 0, "name": "405834de544e57d1594da37998d17c7e", "lon": -77.12583766666667, "type": "electric_bike", "bike_id": "405834de544e57d1594da37998d17c7e", "fusion_lon": 0.0, "lat": 38.851450166666666, "fusion_lat": 0.0}, {"is_disabled": 0, "rental_uris": {"android": "https://dc.lft.to/lastmile_qr_scan", "ios": "https://dc.lft.to/lastmile_qr_scan"}, "is_reserved": 0, "name": "ddb3f8ca235900e8ccaafe0d02299cd6", "lon": -77.03421983333334, "type": "electric_scooter", "bike_id": "ddb3f8ca235900e8ccaafe0d02299cd6", "fusion_lon": 0.0, "lat": 38.93537883333333, "fusion_lat": 0.0}, {"is_disabled": 0, "rental_uris": {"android": "https://dc.lft.to/lastmile_qr_scan", "ios": "https://dc.lft.to/lastmile_qr_scan"}, "is_reserved": 0, "name": "88782e855c6a9c9cfa66be5bf29a78e6", "lon": -76.99631183333334, "type": "electric_scooter", "bike_id": "88782e855c6a9c9cfa66be5bf29a78e6", "fusion_lon": 0.0, "lat": 38.84620866666667, "fusion_lat": 0.0}, {"is_disabled": 0, "rental_uris": {"android": "https://dc.lft.to/lastmile_qr_scan", "ios": "https://dc.lft.to/lastmile_qr_scan"}, "is_reserved": 0, "name": "e9079c6313eccf7eb1ce7be9f25da69d", "lon": -77.03901916666666, "type": "electric_scooter", "bike_id": "e9079c6313eccf7eb1ce7be9f25da69d", "fusion_lon": 0.0, "lat": 38.91424283333333, "fusion_lat": 0.0}, {"is_disabled": 0, "rental_uris": {"android": "https://dc.lft.to/lastmile_qr_scan", "ios": "https://dc.lft.to/lastmile_qr_scan"}, "is_reserved": 0, "name": "bea49eefc7839b28b8740f6910edfa49", "lon": -77.03671883333334, "type": "electric_scooter", "bike_id": "bea49eefc7839b28b8740f6910edfa49", "fusion_lon": 0.0, "lat": 38.912487, "fusion_lat": 0.0}, {"is_disabled": 0, "rental_uris": {"android": "https://dc.lft.to/lastmile_qr_scan", "ios": "https://dc.lft.to/lastmile_qr_scan"}, "is_reserved": 0, "name": "7a0211222f19b776924844328091a27c", "lon": -77.04662116666667, "type": "electric_scooter", "bike_id": "7a0211222f19b776924844328091a27c", "fusion_lon": 0.0, "lat": 38.89261466666667, "fusion_lat": 0.0}, {"is_disabled": 0, "rental_uris": {"android": "https://dc.lft.to/lastmile_qr_scan", "ios": "https://dc.lft.to/lastmile_qr_scan"}, "is_reserved": 0, "name": "8d155570147014cfd881565ebfc1c122", "lon": -77.02491283333333, "type": "electric_bike", "bike_id": "8d155570147014cfd881565ebfc1c122", "fusion_lon": 0.0, "lat": 38.9736925, "fusion_lat": 0.0}, {"is_disabled": 0, "rental_uris": {"android": "https://dc.lft.to/lastmile_qr_scan", "ios": "https://dc.lft.to/lastmile_qr_scan"}, "is_reserved": 0, "name": "52a41b041faf22b28ff469dad64b191a", "lon": -76.99018716666667, "type": "electric_scooter", "bike_id": "52a41b041faf22b28ff469dad64b191a", "fusion_lon": 0.0, "lat": 38.861070166666664, "fusion_lat": 0.0}, {"is_disabled": 0, "rental_uris": {"android": "https://dc.lft.to/lastmile_qr_scan", "ios": "https://dc.lft.to/lastmile_qr_scan"}, "is_reserved": 0, "name": "48142c03ce8850c826ec1da369d5b6f8", "lon": -77.02978966666667, "type": "electric_scooter", "bike_id": "48142c03ce8850c826ec1da369d5b6f8", "fusion_lon": 0.0, "lat": 38.945193833333335, "fusion_lat": 0.0}, {"is_disabled": 0, "rental_uris": {"android": "https://dc.lft.to/lastmile_qr_scan", "ios": "https://dc.lft.to/lastmile_qr_scan"}, "is_reserved": 0, "name": "2aa9c6f4e6b2500c182dd2d1314252ad", "lon": -77.04294216666666, "type": "electric_bike", "bike_id": "2aa9c6f4e6b2500c182dd2d1314252ad", "fusion_lon": 0.0, "lat": 38.83093733333333, "fusion_lat": 0.0}, {"is_disabled": 0, "rental_uris": {"android": "https://dc.lft.to/lastmile_qr_scan", "ios": "https://dc.lft.to/lastmile_qr_scan"}, "is_reserved": 0, "name": "f49f98ec550a02cb15e4950e94b52a53", "lon": -77.02492716666667, "type": "electric_scooter", "bike_id": "f49f98ec550a02cb15e4950e94b52a53", "fusion_lon": 0.0, "lat": 38.94185216666666, "fusion_lat": 0.0}, {"is_disabled": 0, "rental_uris": {"android": "https://dc.lft.to/lastmile_qr_scan", "ios": "https://dc.lft.to/lastmile_qr_scan"}, "is_reserved": 0, "name": "9b00b686e046eb54ebe3bf54358e4809", "lon": -77.02155716666667, "type": "electric_scooter", "bike_id": "9b00b686e046eb54ebe3bf54358e4809", "fusion_lon": 0.0, "lat": 38.900915, "fusion_lat": 0.0}, {"is_disabled": 0, "rental_uris": {"android": "https://dc.lft.to/lastmile_qr_scan", "ios": "https://dc.lft.to/lastmile_qr_scan"}, "is_reserved": 0, "name": "eb47ba9a14cd549dd054cf8a98d18219", "lon": -77.03409816666667, "type": "electric_scooter", "bike_id": "eb47ba9a14cd549dd054cf8a98d18219", "fusion_lon": 0.0, "lat": 38.91925483333333, "fusion_lat": 0.0}, {"is_disabled": 0, "rental_uris": {"android": "https://dc.lft.to/lastmile_qr_scan", "ios": "https://dc.lft.to/lastmile_qr_scan"}, "is_reserved": 0, "name": "8c6d81b81ff4ced1601ad452fc73d44b", "lon": -76.9939035, "type": "electric_scooter", "bike_id": "8c6d81b81ff4ced1601ad452fc73d44b", "fusion_lon": 0.0, "lat": 38.884533166666664, "fusion_lat": 0.0}, {"is_disabled": 0, "rental_uris": {"android": "https://dc.lft.to/lastmile_qr_scan", "ios": "https://dc.lft.to/lastmile_qr_scan"}, "is_reserved": 0, "name": "264b7c51fd0fd9dbfdb5bd2a35a1b88a", "lon": -77.00776116666667, "type": "electric_scooter", "bike_id": "264b7c51fd0fd9dbfdb5bd2a35a1b88a", "fusion_lon": 0.0, "lat": 38.91497916666667, "fusion_lat": 0.0}, {"is_disabled": 0, "rental_uris": {"android": "https://dc.lft.to/lastmile_qr_scan", "ios": "https://dc.lft.to/lastmile_qr_scan"}, "is_reserved": 0, "name": "f27318652d5ee7282e13c6e1a57f54e3", "lon": -76.94896333333334, "type": "electric_scooter", "bike_id": "f27318652d5ee7282e13c6e1a57f54e3", "fusion_lon": 0.0, "lat": 38.895266666666664, "fusion_lat": 0.0}, {"is_disabled": 0, "rental_uris": {"android": "https://dc.lft.to/lastmile_qr_scan", "ios": "https://dc.lft.to/lastmile_qr_scan"}, "is_reserved": 0, "name": "5eaecbda83c7d2028f4b06fc4d3025f1", "lon": -76.999511, "type": "electric_scooter", "bike_id": "5eaecbda83c7d2028f4b06fc4d3025f1", "fusion_lon": 0.0, "lat": 38.84290016666667, "fusion_lat": 0.0}, {"is_disabled": 0, "rental_uris": {"android": "https://dc.lft.to/lastmile_qr_scan", "ios": "https://dc.lft.to/lastmile_qr_scan"}, "is_reserved": 0, "name": "d6045a8a153502098356fe91fdb6ff9a", "lon": -77.04396333333334, "type": "electric_scooter", "bike_id": "d6045a8a153502098356fe91fdb6ff9a", "fusion_lon": 0.0, "lat": 38.9058585, "fusion_lat": 0.0}, {"is_disabled": 0, "rental_uris": {"android": "https://dc.lft.to/lastmile_qr_scan", "ios": "https://dc.lft.to/lastmile_qr_scan"}, "is_reserved": 0, "name": "071bf8a2cc0ee0ab390889c7325e9200", "lon": -77.02312966666666, "type": "electric_scooter", "bike_id": "071bf8a2cc0ee0ab390889c7325e9200", "fusion_lon": 0.0, "lat": 38.9183745, "fusion_lat": 0.0}, {"is_disabled": 0, "rental_uris": {"android": "https://dc.lft.to/lastmile_qr_scan", "ios": "https://dc.lft.to/lastmile_qr_scan"}, "is_reserved": 0, "name": "b0a0e28a71f06b05ee28a8f5d12ce057", "lon": -76.98238566666667, "type": "electric_scooter", "bike_id": "b0a0e28a71f06b05ee28a8f5d12ce057", "fusion_lon": 0.0, "lat": 38.864726166666664, "fusion_lat": 0.0}, {"is_disabled": 0, "rental_uris": {"android": "https://dc.lft.to/lastmile_qr_scan", "ios": "https://dc.lft.to/lastmile_qr_scan"}, "is_reserved": 0, "name": "f094d7ca0bc1a15d084ec05417b10eab", "lon": -77.02609933333333, "type": "electric_scooter", "bike_id": "f094d7ca0bc1a15d084ec05417b10eab", "fusion_lon": 0.0, "lat": 38.90427316666667, "fusion_lat": 0.0}, {"is_disabled": 0, "rental_uris": {"android": "https://dc.lft.to/lastmile_qr_scan", "ios": "https://dc.lft.to/lastmile_qr_scan"}, "is_reserved": 0, "name": "89773ba27406f2d80aff9c564aa98125", "lon": -76.94781316666666, "type": "electric_scooter", "bike_id": "89773ba27406f2d80aff9c564aa98125", "fusion_lon": 0.0, "lat": 38.884600666666664, "fusion_lat": 0.0}, {"is_disabled": 0, "rental_uris": {"android": "https://dc.lft.to/lastmile_qr_scan", "ios": "https://dc.lft.to/lastmile_qr_scan"}, "is_reserved": 0, "name": "49f6ee431e59e38de0e935f716978b6f", "lon": -77.0069965, "type": "electric_scooter", "bike_id": "49f6ee431e59e38de0e935f716978b6f", "fusion_lon": 0.0, "lat": 38.899989833333336, "fusion_lat": 0.0}, {"is_disabled": 0, "rental_uris": {"android": "https://dc.lft.to/lastmile_qr_scan", "ios": "https://dc.lft.to/lastmile_qr_scan"}, "is_reserved": 0, "name": "1d8db07f60baea72c92af42232989282", "lon": -77.01646916666667, "type": "electric_scooter", "bike_id": "1d8db07f60baea72c92af42232989282", "fusion_lon": 0.0, "lat": 38.87634583333333, "fusion_lat": 0.0}, {"is_disabled": 0, "rental_uris": {"android": "https://dc.lft.to/lastmile_qr_scan", "ios": "https://dc.lft.to/lastmile_qr_scan"},