{"data": {"bikes": [{"rental_uris": {"android": "https://dc.lft.to/lastmile_qr_scan", "ios": "https://dc.lft.to/lastmile_qr_scan"}, "bike_id": "35e9bfc358c1008284ffbb43fe00a227", "name": "35e9bfc358c1008284ffbb43fe00a227", "type": "electric_scooter", "lon": -77.0160465, "lat": 38.8951185, "is_disabled": 0, "is_reserved": 0, "fusion_lat": 0.0, "fusion_lon": 0.0}, {"rental_uris": {"android": "https://dc.lft.to/lastmile_qr_scan", "ios": "https://dc.lft.to/lastmile_qr_scan"}, "bike_id": "3f73907b8a0dfb7eabf9bd78266ffacd", "name": "3f73907b8a0dfb7eabf9bd78266ffacd", "type": "electric_scooter", "lon": -77.0332525, "lat": 38.9283895, "is_disabled": 0, "is_reserved": 0, "fusion_lat": 0.0, "fusion_lon": 0.0}, {"rental_uris": {"android": "https://dc.lft.to/lastmile_qr_scan", "ios": "https://dc.lft.to/lastmile_qr_scan"}, "bike_id": "2b2153c75280ab57e4ccf07b2cb009f0", "name": "2b2153c75280ab57e4ccf07b2cb009f0", "type": "electric_scooter", "lon": -77.04240866666666, "lat": 38.921598833333334, "is_disabled": 0, "is_reserved": 0, "fusion_lat": 0.0, "fusion_lon": 0.0}, {"rental_uris": {"android": "https://dc.lft.to/lastmile_qr_scan", "ios": "https://dc.lft.to/lastmile_qr_scan"}, "bike_id": "a4296accd3f7f8723356ef7386e64ba9", "name": "a4296accd3f7f8723356ef7386e64ba9", "type": "electric_scooter", "lon": -77.06074133333334, "lat": 38.901494, "is_disabled": 0, "is_reserved": 0, "fusion_lat": 0.0, "fusion_lon": 0.0}, {"rental_uris": {"android": "https://dc.lft.to/lastmile_qr_scan", "ios": "https://dc.lft.to/lastmile_qr_scan"}, "bike_id": "7ac994022f6123bfdf3d6cba81f66a5b", "name": "7ac994022f6123bfdf3d6cba81f66a5b", "type": "electric_scooter", "lon": -77.03352233333334, "lat": 38.886286166666665, "is_disabled": 0, "is_reserved": 0, "fusion_lat": 0.0, "fusion_lon": 0.0}, {"rental_uris": {"android": "https://dc.lft.to/lastmile_qr_scan", "ios": "https://dc.lft.to/lastmile_qr_scan"}, "bike_id": "abd850babda205da0943cb1672122c05", "name": "abd850babda205da0943cb1672122c05", "type": "electric_scooter", "lon": -77.03076266666666, "lat": 38.9174425, "is_disabled": 0, "is_reserved": 0, "fusion_lat": 0.0, "fusion_lon": 0.0}, {"rental_uris": {"android": "https://dc.lft.to/lastmile_qr_scan", "ios": "https://dc.lft.to/lastmile_qr_scan"}, "bike_id": "3c8e00b34a5b343482bfc9fc0e37bd4d", "name": "3c8e00b34a5b343482bfc9fc0e37bd4d", "type": "electric_scooter", "lon": -77.035735, "lat": 38.903753333333334, "is_disabled": 0, "is_reserved": 0, "fusion_lat": 0.0, "fusion_lon": 0.0}, {"rental_uris": {"android": "https://dc.lft.to/lastmile_qr_scan", "ios": "https://dc.lft.to/lastmile_qr_scan"}, "bike_id": "e3c15994d7cf223fa415b6e93e9beed9", "name": "e3c15994d7cf223fa415b6e93e9beed9", "type": "electric_scooter", "lon": -77.02242583333333, "lat": 38.90953283333333, "is_disabled": 0, "is_reserved": 0, "fusion_lat": 0.0, "fusion_lon": 0.0}, {"rental_uris": {"android": "https://dc.lft.to/lastmile_qr_scan", "ios": "https://dc.lft.to/lastmile_qr_scan"}, "bike_id": "a7b1217a2993f1f2770642aa146f1e3e", "name": "a7b1217a2993f1f2770642aa146f1e3e", "type": "electric_scooter", "lon": -77.02967983333333, "lat": 38.92323433333333, "is_disabled": 0, "is_reserved": 0, "fusion_lat": 0.0, "fusion_lon": 0.0}, {"rental_uris": {"android": "https://dc.lft.to/lastmile_qr_scan", "ios": "https://dc.lft.to/lastmile_qr_scan"}, "bike_id": "c6eecd65422ce3c2fffea298bab40f97", "name": "c6eecd65422ce3c2fffea298bab40f97", "type": "electric_scooter", "lon": -76.9861565, "lat": 38.938264833333335, "is_disabled": 0, "is_reserved": 0, "fusion_lat": 0.0, "fusion_lon": 0.0}, {"rental_uris": {"android": "https://dc.lft.to/lastmile_qr_scan", "ios": "https://dc.lft.to/lastmile_qr_scan"}, "bike_id": "98c9632b0bdc3f033e598806909f81d2", "name": "98c9632b0bdc3f033e598806909f81d2", "type": "electric_scooter", "lon": -76.97672266666666, "lat": 38.89861533333333, "is_disabled": 0, "is_reserved": 0, "fusion_lat": 0.0, "fusion_lon": 0.0}, {"rental_uris": {"android": "https://dc.lft.to/lastmile_qr_scan", "ios": "https://dc.lft.to/lastmile_qr_scan"}, "bike_id": "3c6c1033ccdb1e7ce57572703e92b3b9", "name": "3c6c1033ccdb1e7ce57572703e92b3b9", "type": "electric_scooter", "lon": -77.04178666666667, "lat": 38.9163155, "is_disabled": 0, "is_reserved": 0, "fusion_lat": 0.0, "fusion_lon": 0.0}, {"rental_uris": {"android": "https://dc.lft.to/lastmile_qr_scan", "ios": "https://dc.lft.to/lastmile_qr_scan"}, "bike_id": "8fd075ca3ac4dcf2ec83aee25b3cba2a", "name": "8fd075ca3ac4dcf2ec83aee25b3cba2a", "type": "electric_scooter", "lon": -77.02720216666667, "lat": 38.94965, "is_disabled": 0, "is_reserved": 0, "fusion_lat": 0.0, "fusion_lon": 0.0}, {"rental_uris": {"android": "https://dc.lft.to/lastmile_qr_scan", "ios": "https://dc.lft.to/lastmile_qr_scan"}, "bike_id": "58bbf0ae130c4e653012a241cb9b2653", "name": "58bbf0ae130c4e653012a241cb9b2653", "type": "electric_scooter", "lon": -76.99388683333333, "lat": 38.89738416666667, "is_disabled": 0, "is_reserved": 0, "fusion_lat": 0.0, "fusion_lon": 0.0}, {"rental_uris": {"android": "https://dc.lft.to/lastmile_qr_scan", "ios": "https://dc.lft.to/lastmile_qr_scan"}, "bike_id": "c864a747155ea62cecae7b7ebb6686c1", "name": "c864a747155ea62cecae7b7ebb6686c1", "type": "electric_scooter", "lon": -77.02091333333334, "lat": 38.92686966666667, "is_disabled": 0, "is_reserved": 0, "fusion_lat": 0.0, "fusion_lon": 0.0}, {"rental_uris": {"android": "https://dc.lft.to/lastmile_qr_scan", "ios": "https://dc.lft.to/lastmile_qr_scan"}, "bike_id": "5e43d8168cf678f92bcba708ee0544bc", "name": "5e43d8168cf678f92bcba708ee0544bc", "type": "electric_bike", "lon": -77.0323755, "lat": 38.901430166666664, "is_disabled": 0, "is_reserved": 0, "fusion_lat": 0.0, "fusion_lon": 0.0}, {"rental_uris": {"android": "https://dc.lft.to/lastmile_qr_scan", "ios": "https://dc.lft.to/lastmile_qr_scan"}, "bike_id": "03e7d6d8fc03802b7bb6ae49e699819d", "name": "03e7d6d8fc03802b7bb6ae49e699819d", "type": "electric_scooter", "lon": -76.99949483333333, "lat": 38.842928666666666, "is_disabled": 0, "is_reserved": 0, "fusion_lat": 0.0, "fusion_lon": 0.0}, {"rental_uris": {"android": "https://dc.lft.to/lastmile_qr_scan", "ios": "https://dc.lft.to/lastmile_qr_scan"}, "bike_id": "a06b333f98b01ed9c40aba7da13eeef3", "name": "a06b333f98b01ed9c40aba7da13eeef3", "type": "electric_scooter", "lon": -77.0484915, "lat": 38.9195415, "is_disabled": 0, "is_reserved": 0, "fusion_lat": 0.0, "fusion_lon": 0.0}, {"rental_uris": {"android": "https://dc.lft.to/lastmile_qr_scan", "ios": "https://dc.lft.to/lastmile_qr_scan"}, "bike_id": "97e78d8bae5d4cbd136ac95ff7fd595c", "name": "97e78d8bae5d4cbd136ac95ff7fd595c", "type": "electric_scooter", "lon": -77.02911433333334, "lat": 38.9009035, "is_disabled": 0, "is_reserved": 0, "fusion_lat": 0.0, "fusion_lon": 0.0}, {"rental_uris": {"android": "https://dc.lft.to/lastmile_qr_scan", "ios": "https://dc.lft.to/lastmile_qr_scan"}, "bike_id": "80fda16a898d013f8ae6bc2824f98352", "name": "80fda16a898d013f8ae6bc2824f98352", "type": "electric_scooter", "lon": -76.99709216666666, "lat": 38.84429016666667, "is_disabled": 0, "is_reserved": 0, "fusion_lat": 0.0, "fusion_lon": 0.0}, {"rental_uris": {"android": "https://dc.lft.to/lastmile_qr_scan", "ios": "https://dc.lft.to/lastmile_qr_scan"}, "bike_id": "cea6b86839b6882e7d60a009476f65b1", "name": "cea6b86839b6882e7d60a009476f65b1", "type": "electric_scooter", "lon": -77.023911, "lat": 38.93361216666667, "is_disabled": 0, "is_reserved": 0, "fusion_lat": 0.0, "fusion_lon": 0.0}, {"rental_uris": {"android": "https://dc.lft.to/lastmile_qr_scan", "ios": "https://dc.lft.to/lastmile_qr_scan"}, "bike_id": "36ee5e14e2671b8672c4f7af364d9265", "name": "36ee5e14e2671b8672c4f7af364d9265", "type": "electric_scooter", "lon": -77.05121533333333, "lat": 38.92346383333334, "is_disabled": 0, "is_reserved": 0, "fusion_lat": 0.0, "fusion_lon": 0.0}, {"rental_uris": {"android": "https://dc.lft.to/lastmile_qr_scan", "ios": "https://dc.lft.to/lastmile_qr_scan"}, "bike_id": "fd7d13af68f351892594e3be1c8b32db", "name": "fd7d13af68f351892594e3be1c8b32db", "type": "electric_scooter", "lon": -77.02693683333334, "lat": 38.91129866666667, "is_disabled": 0, "is_reserved": 0, "fusion_lat": 0.0, "fusion_lon": 0.0}, {"rental_uris": {"android": "https://dc.lft.to/lastmile_qr_scan", "ios": "https://dc.lft.to/lastmile_qr_scan"}, "bike_id": "63c5ad0b09c26971c3ba8f17513408dd", "name": "63c5ad0b09c26971c3ba8f17513408dd", "type": "electric_scooter", "lon": -77.03669116666667, "lat": 38.903742666666666, "is_disabled": 0, "is_reserved": 0, "fusion_lat": 0.0, "fusion_lon": 0.0}, {"rental_uris": {"android": "https://dc.lft.to/lastmile_qr_scan", "ios": "https://dc.lft.to/lastmile_qr_scan"}, "bike_id": "97442b2da0295ff5e23be99fc9fec6b9", "name": "97442b2da0295ff5e23be99fc9fec6b9", "type": "electric_scooter", "lon": -77.03203583333334, "lat": 38.8981725, "is_disabled": 0, "is_reserved": 0, "fusion_lat": 0.0, "fusion_lon": 0.0}, {"rental_uris": {"android": "https://dc.lft.to/lastmile_qr_scan", "ios": "https://dc.lft.to/lastmile_qr_scan"}, "bike_id": "ffedaf2b28331490be592fb1b2bfdf54", "name": "ffedaf2b28331490be592fb1b2bfdf54", "type": "electric_scooter", "lon": -76.99809033333334, "lat": 38.88566016666667, "is_disabled": 0, "is_reserved": 0, "fusion_lat": 0.0, "fusion_lon": 0.0}, {"rental_uris": {"android": "https://dc.lft.to/lastmile_qr_scan", "ios": "https://dc.lft.to/lastmile_qr_scan"}, "bike_id": "4d30c9ed6da50cfa5ff57ad8bde09410", "name": "4d30c9ed6da50cfa5ff57ad8bde09410", "type": "electric_scooter", "lon": -77.002011, "lat": 38.90236383333333, "is_disabled": 0, "is_reserved": 0, "fusion_lat": 0.0, "fusion_lon": 0.0}, {"rental_uris": {"android": "https://dc.lft.to/lastmile_qr_scan", "ios": "https://dc.lft.to/lastmile_qr_scan"}, "bike_id": "0637600937685a1be59100da4bee95b5", "name": "0637600937685a1be59100da4bee95b5", "type": "electric_scooter", "lon": -77.048185, "lat": 38.910374166666664, "is_disabled": 0, "is_reserved": 0, "fusion_lat": 0.0, "fusion_lon": 0.0}, {"rental_uris": {"android": "https://dc.lft.to/lastmile_qr_scan", "ios": "https://dc.lft.to/lastmile_qr_scan"}, "bike_id": "2b428aa13a5ca057a4c4c0b11c98f3e0", "name": "2b428aa13a5ca057a4c4c0b11c98f3e0", "type": "electric_scooter", "lon": -77.02303283333333, "lat": 38.920882, "is_disabled": 0, "is_reserved": 0, "fusion_lat": 0.0, "fusion_lon": 0.0}, {"rental_uris": {"android": "https://dc.lft.to/lastmile_qr_scan", "ios": "https://dc.lft.to/lastmile_qr_scan"}, "bike_id": "fbf470c3563067d3af59a94114ebf57a", "name": "fbf470c3563067d3af59a94114ebf57a", "type": "electric_scooter", "lon": -77.03078633333334, "lat": 38.911184, "is_disabled": 0, "is_reserved": 0, "fusion_lat": 0.0, "fusion_lon": 0.0}, {"rental_uris": {"android": "https://dc.lft.to/lastmile_qr_scan", "ios": "https://dc.lft.to/lastmile_qr_scan"}, "bike_id": "1736cf1ab9f7e937588ecd0a074fd5d9", "name": "1736cf1ab9f7e937588ecd0a074fd5d9", "type": "electric_scooter", "lon": -77.03184933333333, "lat": 38.924839666666664, "is_disabled": 0, "is_reserved": 0, "fusion_lat": 0.0, "fusion_lon": 0.0}, {"rental_uris": {"android": "https://dc.lft.to/lastmile_qr_scan", "ios": "https://dc.lft.to/lastmile_qr_scan"}, "bike_id": "9a60f3db1f04063847c24b8b8b975e97", "name": "9a60f3db1f04063847c24b8b8b975e97", "type": "electric_scooter", "lon": -76.99385483333333, "lat": 38.8775995, "is_disabled": 0, "is_reserved": 0, "fusion_lat": 0.0, "fusion_lon": 0.0}, {"rental_uris": {"android": "https://dc.lft.to/lastmile_qr_scan", "ios": "https://dc.lft.to/lastmile_qr_scan"}, "bike_id": "62e0a79643c6f687ef3cff7c24bcc641", "name": "62e0a79643c6f687ef3cff7c24bcc641", "type": "electric_scooter", "lon": -77.04004266666666, "lat": 38.93427766666667, "is_disabled": 0, "is_reserved": 0, "fusion_lat": 0.0, "fusion_lon": 0.0}, {"rental_uris": {"android": "https://dc.lft.to/lastmile_qr_scan", "ios": "https://dc.lft.to/lastmile_qr_scan"}, "bike_id": "9ed57454d11dbb9563185280aeab3ac0", "name": "9ed57454d11dbb9563185280aeab3ac0", "type": "electric_bike", "lon": -77.03021683333333, "lat": 38.93484816666667, "is_disabled": 0, "is_reserved": 0, "fusion_lat": 0.0, "fusion_lon": 0.0}, {"rental_uris": {"android": "https://dc.lft.to/lastmile_qr_scan", "ios": "https://dc.lft.to/lastmile_qr_scan"}, "bike_id": "e1b542d3d8f35522ada6709cfdbcac08", "name": "e1b542d3d8f35522ada6709cfdbcac08", "type": "electric_scooter", "lon": -77.00588183333333, "lat": 38.906251166666664, "is_disabled": 0, "is_reserved": 0, "fusion_lat": 0.0, "fusion_lon": 0.0}, {"rental_uris": {"android": "https://dc.lft.to/lastmile_qr_scan", "ios": "https://dc.lft.to/lastmile_qr_scan"}, "bike_id": "da3ce856cb9bd2720f96c5f9c71a749f", "name": "da3ce856cb9bd2720f96c5f9c71a749f", "type": "electric_scooter", "lon": -77.05217216666667, "lat": 38.92483283333333, "is_disabled": 0, "is_reserved": 0, "fusion_lat": 0.0, "fusion_lon": 0.0}, {"rental_uris": {"android": "https://dc.lft.to/lastmile_qr_scan", "ios": "https://dc.lft.to/lastmile_qr_scan"}, "bike_id": "588ac9e0e96644e7d3497b08aa3d3a6f", "name": "588ac9e0e96644e7d3497b08aa3d3a6f", "type": "electric_scooter", "lon": -77.00917066666666, "lat": 38.82786016666667, "is_disabled": 0, "is_reserved": 0, "fusion_lat": 0.0, "fusion_lon": 0.0}, {"rental_uris": {"android": "https://dc.lft.to/lastmile_qr_scan", "ios": "https://dc.lft.to/lastmile_qr_scan"}, "bike_id": "46ca4eb2e12d73e67733815aa96cb979", "name": "46ca4eb2e12d73e67733815aa96cb979", "type": "electric_scooter", "lon": -77.01955783333334, "lat": 38.9289585, "is_disabled": 0, "is_reserved": 0, "fusion_lat": 0.0, "fusion_lon": 0.0}, {"rental_uris": {"android": "https://dc.lft.to/lastmile_qr_scan", "ios": "https://dc.lft.to/lastmile_qr_scan"}, "bike_id": "26e30f75670f5e6f51d579b5425ca1c3", "name": "26e30f75670f5e6f51d579b5425ca1c3", "type": "electric_bike", "lon": -76.97704616666667, "lat": 38.94918766666667, "is_disabled": 0, "is_reserved": 0, "fusion_lat": 0.0, "fusion_lon": 0.0}, {"rental_uris": {"android": "https://dc.lft.to/lastmile_qr_scan", "ios": "https://dc.lft.to/lastmile_qr_scan"}, "bike_id": "6983d637c756799a071ff4fa563c8689", "name": "6983d637c756799a071ff4fa563c8689", "type": "electric_scooter", "lon": -76.9514135, "lat": 38.89044883333333, "is_disabled": 0, "is_reserved": 0, "fusion_lat": 0.0, "fusion_lon": 0.0}, {"rental_uris": {"android": "https://dc.lft.to/lastmile_qr_scan", "ios": "https://dc.lft.to/lastmile_qr_scan"}, "bike_id": "77fba22f835eb6a4076912c96dd22afd", "name": "77fba22f835eb6a4076912c96dd22afd", "type": "electric_scooter", "lon": -77.03235283333333, "lat": 38.917121333333334, "is_disabled": 0, "is_reserved": 0, "fusion_lat": 0.0, "fusion_lon": 0.0}, {"rental_uris": {"android": "https://dc.lft.to/lastmile_qr_scan", "ios": "https://dc.lft.to/lastmile_qr_scan"}, "bike_id": "bd5d3a96e445c05254ac10a23e1d32cd", "name": "bd5d3a96e445c05254ac10a23e1d32cd", "type": "electric_scooter", "lon": -77.039703, "lat": 38.911828166666666, "is_disabled": 0, "is_reserved": 0, "fusion_lat": 0.0, "fusion_lon": 0.0}, {"rental_uris": {"android": "https://dc.lft.to/lastmile_qr_scan", "ios": "https://dc.lft.to/lastmile_qr_scan"}, "bike_id": "00ea331b22296d58e6ffd514fe6afed1", "name": "00ea331b22296d58e6ffd514fe6afed1", "type": "electric_scooter", "lon": -77.03286966666667, "lat": 38.900086, "is_disabled": 0, "is_reserved": 0, "fusion_lat": 0.0, "fusion_lon": 0.0}, {"rental_uris": {"android": "https://dc.lft.to/lastmile_qr_scan", "ios": "https://dc.lft.to/lastmile_qr_scan"}, "bike_id": "1759ed67ca02f86bd476633c322a8b61", "name": "1759ed67ca02f86bd476633c322a8b61", "type": "electric_scooter", "lon": -77.07008016666667, "lat": 38.905907166666665, "is_disabled": 0, "is_reserved": 0, "fusion_lat": 0.0, "fusion_lon": 0.0}, {"rental_uris": {"android": "https://dc.lft.to/lastmile_qr_scan", "ios": "https://dc.lft.to/lastmile_qr_scan"}, "bike_id": "d5c95cd95b64f9d72f2a0bb290b9109e", "name": "d5c95cd95b64f9d72f2a0bb290b9109e", "type": "electric_bike", "lon": -77.36084766666667, "lat": 38.93966283333334, "is_disabled": 0, "is_reserved": 0, "fusion_lat": 0.0, "fusion_lon": 0.0}, {"rental_uris": {"android": "https://dc.lft.to/lastmile_qr_scan", "ios": "https://dc.lft.to/lastmile_qr_scan"}, "bike_id": "360330a02b874a2c799d12fb258660fb", "name": "360330a02b874a2c799d12fb258660fb", "type": "electric_bike", "lon": -77.02623566666666, "lat": 38.962178333333334, "is_disabled": 0, "is_reserved": 0, "fusion_lat": 0.0, "fusion_lon": 0.0}, {"rental_uris": {"android": "https://dc.lft.to/lastmile_qr_scan", "ios": "https://dc.lft.to/lastmile_qr_scan"}, "bike_id": "5c674acc80a945805d20cdc13bb71092", "name": "5c674acc80a945805d20cdc13bb71092", "type": "electric_scooter", "lon": -77.03839283333333, "lat": 38.9024245, "is_disabled": 0, "is_reserved": 0, "fusion_lat": 0.0, "fusion_lon": 0.0}, {"rental_uris": {"android": "https://dc.lft.to/lastmile_qr_scan", "ios": "https://dc.lft.to/lastmile_qr_scan"}, "bike_id": "2bbd46677a3fdb91a235cf057ff89a56", "name": "2bbd46677a3fdb91a235cf057ff89a56", "type": "electric_bike", "lon": -76.88370083333334, "lat": 38.99840116666667, "is_disabled": 0, "is_reserved": 0, "fusion_lat": 0.0, "fusion_lon": 0.0}, {"rental_uris": {"android": "https://dc.lft.to/lastmile_qr_scan", "ios": "https://dc.lft.to/lastmile_qr_scan"}, "bike_id": "fc48348c0ff881ef45a50e0c1d9b644f", "name": "fc48348c0ff881ef45a50e0c1d9b644f", "type": "electric_scooter", "lon": -77.02272216666667, "lat": 38.92488566666667, "is_disabled": 0, "is_reserved": 0, "fusion_lat": 0.0, "fusion_lon": 0.0}, {"rental_uris": {"android": "https://dc.lft.to/lastmile_qr_scan", "ios": "https://dc.lft.to/lastmile_qr_scan"}, "bike_id": "961eeafae444202b7291a85f2d74ca16", "name": "961eeafae444202b7291a85f2d74ca16", "type": "electric_scooter", "lon": -77.03658533333333, "lat": 38.92284766666667, "is_disabled": 0, "is_reserved": 0, "fusion_lat": 0.0, "fusion_lon": 0.0}, {"rental_uris": {"android": "https://dc.lft.to/lastmile_qr_scan", "ios": "https://dc.lft.to/lastmile_qr_scan"}, "bike_id": "6ece7038360791e095c2ab66b33e8a27", "name": "6ece7038360791e095c2ab66b33e8a27", "type": "electric_scooter", "lon": -77.02980183333334, "lat": 38.895616833333335, "is_disabled": 0, "is_reserved": 0, "fusion_lat": 0.0, "fusion_lon": 0.0}, {"rental_uris": {"android": "https://dc.lft.to/lastmile_qr_scan", "ios": "https://dc.lft.to/lastmile_qr_scan"}, "bike_id": "a2f98e0005dfac74a18486067c4e0b58", "name": "a2f98e0005dfac74a18486067c4e0b58", "type": "electric_scooter", "lon": -77.04323533333333, "lat": 38.90864083333334, "is_disabled": 0, "is_reserved": 0, "fusion_lat": 0.0, "fusion_lon": 0.0}, {"rental_uris": {"android": "https://dc.lft.to/lastmile_qr_scan", "ios": "https://dc.lft.to/lastmile_qr_scan"}, "bike_id": "beafd8acb85c1e2662552d78d9db0d83", "name": "beafd8acb85c1e2662552d78d9db0d83", "type": "electric_scooter", "lon": -77.04181133333333, "lat": 38.9197745, "is_disabled": 0, "is_reserved": 0, "fusion_lat": 0.0, "fusion_lon": 0.0}, {"rental_uris": {"android": "https://dc.lft.to/lastmile_qr_scan", "ios": "https://dc.lft.to/lastmile_qr_scan"}, "bike_id": "3834e433f1538f77a5c84f84c438de67", "name": "3834e433f1538f77a5c84f84c438de67", "type": "electric_bike", "lon": -76.985641, "lat": 38.8995875, "is_disabled": 0, "is_reserved": 0, "fusion_lat": 0.0, "fusion_lon": 0.0}, {"rental_uris": {"android": "https://dc.lft.to/lastmile_qr_scan", "ios": "https://dc.lft.to/lastmile_qr_scan"}, "bike_id": "10c66b9759980b5d03d2712b5e421a68", "name": "10c66b9759980b5d03d2712b5e421a68", "type": "electric_bike", "lon": -77.051749, "lat": 38.92349033333333, "is_disabled": 0, "is_reserved": 0, "fusion_lat": 0.0, "fusion_lon": 0.0}, {"rental_uris": {"android": "https://dc.lft.to/lastmile_qr_scan", "ios": "https://dc.lft.to/lastmile_qr_scan"}, "bike_id": "2a27364db6e539b24193d268cdafd60e", "name": "2a27364db6e539b24193d268cdafd60e", "type": "electric_scooter", "lon": -77.00259716666666, "lat": 38.922364, "is_disabled": 0, "is_reserved": 0, "fusion_lat": 0.0, "fusion_lon": 0.0}, {"rental_uris": {"android": "https://dc.lft.to/lastmile_qr_scan", "ios": "https://dc.lft.to/lastmile_qr_scan"}, "bike_id": "caf54e64da30902d675f445950e22688", "name": "caf54e64da30902d675f445950e22688", "type": "electric_scooter", "lon": -77.01669066666666, "lat": 38.8814845, "is_disabled": 0, "is_reserved": 0, "fusion_lat": 0.0, "fusion_lon": 0.0}, {"rental_uris": {"android": "https://dc.lft.to/lastmile_qr_scan", "ios": "https://dc.lft.to/lastmile_qr_scan"}, "bike_id": "5f8073ab4254c6fc3fe96a3f64261450", "name": "5f8073ab4254c6fc3fe96a3f64261450", "type": "electric_scooter", "lon": -77.00892383333333, "lat": 38.9248935, "is_disabled": 0, "is_reserved": 0, "fusion_lat": 0.0, "fusion_lon": 0.0}, {"rental_uris": {"android": "https://dc.lft.to/lastmile_qr_scan", "ios": "https://dc.lft.to/lastmile_qr_scan"}, "bike_id": "9e46bbe0f0b113fabe1dd51a34edcc93", "name": "9e46bbe0f0b113fabe1dd51a34edcc93", "type": "electric_scooter", "lon": -77.03852333333333, "lat": 38.91699966666667, "is_disabled": 0, "is_reserved": 0, "fusion_lat": 0.0, "fusion_lon": 0.0}, {"rental_uris": {"android": "https://dc.lft.to/lastmile_qr_scan", "ios": "https://dc.lft.to/lastmile_qr_scan"}, "bike_id": "4af989e4705269fc1dc577c8df28bba1", "name": "4af989e4705269fc1dc577c8df28bba1", "type": "electric_scooter", "lon": -77.02297833333333, "lat": 38.90149733333333, "is_disabled": 0, "is_reserved": 0, "fusion_lat": 0.0, "fusion_lon": 0.0}, {"rental_uris": {"android": "https://dc.lft.to/lastmile_qr_scan", "ios": "https://dc.lft.to/lastmile_qr_scan"}, "bike_id": "81ed05906a4c7cb5c26fa25b0fa6417e", "name": "81ed05906a4c7cb5c26fa25b0fa6417e", "type": "electric_scooter", "lon": -77.07147583333334, "lat": 38.92044933333333, "is_disabled": 0, "is_reserved": 0, "fusion_lat": 0.0, "fusion_lon": 0.0}, {"rental_uris": {"android": "https://dc.lft.to/lastmile_qr_scan", "ios": "https://dc.lft.to/lastmile_qr_scan"}, "bike_id": "766ef12ca9d5253219d016f357412075", "name": "766ef12ca9d5253219d016f357412075", "type": "electric_bike", "lon": -76.98775333333333, "lat": 38.865884333333334, "is_disabled": 0, "is_reserved": 0, "fusion_lat": 0.0, "fusion_lon": 0.0}, {"rental_uris": {"android": "https://dc.lft.to/lastmile_qr_scan", "ios": "https://dc.lft.to/lastmile_qr_scan"}, "bike_id": "6b4fc43bba7ceec6f53086466e6c2147", "name": "6b4fc43bba7ceec6f53086466e6c2147", "type": "electric_scooter", "lon": -77.03501366666667, "lat": 38.91696133333333, "is_disabled": 0, "is_reserved": 0, "fusion_lat": 0.0, "fusion_lon": 0.0}, {"rental_uris": {"android": "https://dc.lft.to/lastmile_qr_scan", "ios": "https://dc.lft.to/lastmile_qr_scan"}, "bike_id": "7eddc7947384ba85dfa507cd3ae40dca", "name": "7eddc7947384ba85dfa507cd3ae40dca", "type": "electric_scooter", "lon": -77.021677, "lat": 38.908258000000004, "is_disabled": 0, "is_reserved": 0, "fusion_lat": 0.0, "fusion_lon": 0.0}, {"rental_uris": {"android": "https://dc.lft.to/lastmile_qr_scan", "ios": "https://dc.lft.to/lastmile_qr_scan"}, "bike_id": "01dddd458c0fcd3b3fabf7a74b5a422e", "name": "01dddd458c0fcd3b3fabf7a74b5a422e", "type": "electric_scooter", "lon": -77.03865216666667, "lat": 38.92153283333333, "is_disabled": 0, "is_reserved": 0, "fusion_lat": 0.0, "fusion_lon": 0.0}, {"rental_uris": {"android": "https://dc.lft.to/lastmile_qr_scan", "ios": "https://dc.lft.to/lastmile_qr_scan"}, "bike_id": "31569b2e8d5ff1531759653b28e50c76", "name": "31569b2e8d5ff1531759653b28e50c76", "type": "electric_bike", "lon": -76.99217116666667, "lat": 38.89005316666667, "is_disabled": 0, "is_reserved": 0, "fusion_lat": 0.0, "fusion_lon": 0.0}, {"rental_uris": {"android": "https://dc.lft.to/lastmile_qr_scan", "ios": "https://dc.lft.to/lastmile_qr_scan"}, "bike_id": "d48f30e5db5b6aae137479bbb8c274b7", "name": "d48f30e5db5b6aae137479bbb8c274b7", "type": "electric_scooter", "lon": -77.042741, "lat": 38.913438, "is_disabled": 0, "is_reserved": 0, "fusion_lat": 0.0, "fusion_lon": 0.0}, {"rental_uris": {"android": "https://dc.lft.to/lastmile_qr_scan", "ios": "https://dc.lft.to/lastmile_qr_scan"}, "bike_id": "7ce47e15023484692c5ede243eb589c5", "name": "7ce47e15023484692c5ede243eb589c5", "type": "electric_scooter", "lon": -77.03825083333334, "lat": 38.9247305, "is_disabled": 0, "is_reserved": 0, "fusion_lat": 0.0, "fusion_lon": 0.0}, {"rental_uris": {"android": "https://dc.lft.to/lastmile_qr_scan", "ios": "https://dc.lft.to/lastmile_qr_scan"}, "bike_id": "790857b93d014305fcffe47faaa85957", "name": "790857b93d014305fcffe47faaa85957", "type": "electric_bike", "lon": -77.00796266666667, "lat": 38.9492375, "is_disabled": 0, "is_reserved": 0, "fusion_lat": 0.0, "fusion_lon": 0.0}, {"rental_uris": {"android": "https://dc.lft.to/lastmile_qr_scan", "ios": "https://dc.lft.to/lastmile_qr_scan"}, "bike_id": "b8641f263a70dd40f57177a0d602d62b", "name": "b8641f263a70dd40f57177a0d602d62b", "type": "electric_scooter", "lon": -77.04838766666667, "lat": 38.900534666666665, "is_disabled": 0, "is_reserved": 0, "fusion_lat": 0.0, "fusion_lon": 0.0}, {"rental_uris": {"android": "https://dc.lft.to/lastmile_qr_scan", "ios": "https://dc.lft.to/lastmile_qr_scan"}, "bike_id": "5993663e6b908ca71d7d971593cdc919", "name": "5993663e6b908ca71d7d971593cdc919", "type": "electric_scooter", "lon": -77.02974316666666, "lat": 38.92319, "is_disabled": 0, "is_reserved": 0, "fusion_lat": 0.0, "fusion_lon": 0.0}, {"rental_uris": {"android": "https://dc.lft.to/lastmile_qr_scan", "ios": "https://dc.lft.to/lastmile_qr_scan"}, "bike_id": "7b2d17c6e135e353d8d6dd7f463e19fb", "name": "7b2d17c6e135e353d8d6dd7f463e19fb", "type": "electric_scooter", "lon": -77.02963433333333, "lat": 38.92371416666667, "is_disabled": 0, "is_reserved": 0, "fusion_lat": 0.0, "fusion_lon": 0.0}, {"rental_uris": {"android": "https://dc.lft.to/lastmile_qr_scan", "ios": "https://dc.lft.to/lastmile_qr_scan"}, "bike_id": "7b30f8e6ca989978f41e1e2a9c02f28e", "name": "7b30f8e6ca989978f41e1e2a9c02f28e", "type": "electric_scooter", "lon": -77.05857416666667, "lat": 38.936088, "is_disabled": 0, "is_reserved": 0, "fusion_lat": 0.0, "fusion_lon": 0.0}, {"rental_uris": {"android": "https://dc.lft.to/lastmile_qr_scan", "ios": "https://dc.lft.to/lastmile_qr_scan"}, "bike_id": "276a0eee33c745dc155923d459f0dd83", "name": "276a0eee33c745dc155923d459f0dd83", "type": "electric_scooter", "lon": -77.01762916666667, "lat": 38.87723866666666, "is_disabled": 0, "is_reserved": 0, "fusion_lat": 0.0, "fusion_lon": 0.0}, {"rental_uris": {"android": "https://dc.lft.to/lastmile_qr_scan", "ios": "https://dc.lft.to/lastmile_qr_scan"}, "bike_id": "6380ab48d91169234970238ec735e304", "name": "6380ab48d91169234970238ec735e304", "type": "electric_scooter", "lon": -77.0499925, "lat": 38.90625416666666, "is_disabled": 0, "is_reserved": 0, "fusion_lat": 0.0, "fusion_lon": 0.0}, {"rental_uris": {"android": "https://dc.lft.to/lastmile_qr_scan", "ios": "https://dc.lft.to/lastmile_qr_scan"}, "bike_id": "933db27495dd77ef5fe2f5eeb38e917b", "name": "933db27495dd77ef5fe2f5eeb38e917b", "type": "electric_scooter", "lon": -77.023777, "lat": 38.91948716666667, "is_disabled": 0, "is_reserved": 0, "fusion_lat": 0.0, "fusion_lon": 0.0}, {"rental_uris": {"android": "https://dc.lft.to/lastmile_qr_scan", "ios": "https://dc.lft.to/lastmile_qr_scan"}, "bike_id": "d3c000ee5bbb06b0f150c99c9986ccc3", "name": "d3c000ee5bbb06b0f150c99c9986ccc3", "type": "electric_scooter", "lon": -76.984128, "lat": 38.900049333333335, "is_disabled": 0, "is_reserved": 0, "fusion_lat": 0.0, "fusion_lon": 0.0}, {"rental_uris": {"android": "https://dc.lft.to/lastmile_qr_scan", "ios": "https://dc.lft.to/lastmile_qr_scan"}, "bike_id": "05dcd998188491763032027d832ab548", "name": "05dcd998188491763032027d832ab548", "type": "electric_scooter", "lon": -77.0423315, "lat": 38.905575666666664, "is_disabled": 0, "is_reserved": 0, "fusion_lat": 0.0, "fusion_lon": 0.0}, {"rental_uris": {"android": "https://dc.lft.to/lastmile_qr_scan", "ios": "https://dc.lft.to/lastmile_qr_scan"}, "bike_id": "897e2e7d8af7cbaa588c9a006a736be2", "name": "897e2e7d8af7cbaa588c9a006a736be2", "type": "electric_scooter", "lon": -77.032571, "lat": 38.911955166666665, "is_disabled": 0, "is_reserved": 0, "fusion_lat": 0.0, "fusion_lon": 0.0}, {"rental_uris": {"android": "https://dc.lft.to/lastmile_qr_scan", "ios": "https://dc.lft.to/lastmile_qr_scan"}, "bike_id": "69f7d681e958bb8f34861dee182c0b9a", "name": "69f7d681e958bb8f34861dee182c0b9a", "type": "electric_bike", "lon": -77.18742016666667, "lat": 38.893542, "is_disabled": 0, "is_reserved": 0, "fusion_lat": 0.0, "fusion_lon": 0.0}, {"rental_uris": {"android": "https://dc.lft.to/lastmile_qr_scan", "ios": "https://dc.lft.to/lastmile_qr_scan"}, "bike_id": "4461ee7174084247b42ced4e2227a2a3", "name": "4461ee7174084247b42ced4e2227a2a3", "type": "electric_scooter", "lon": -77.04462316666667, "lat": 38.903777166666664, "is_disabled": 0, "is_reserved": 0, "fusion_lat": 0.0, "fusion_lon": 0.0}, {"rental_uris": {"android": "https://dc.lft.to/lastmile_qr_scan", "ios": "https://dc.lft.to/lastmile_qr_scan"}, "bike_id": "955a917031fc625864848ecfd43a6ec6", "name": "955a917031fc625864848ecfd43a6ec6", "type": "electric_scooter", "lon": -77.005531, "lat": 38.911845666666665, "is_disabled": 0, "is_reserved": 0, "fusion_lat": 0.0, "fusion_lon": 0.0}, {"rental_uris": {"android": "https://dc.lft.to/lastmile_qr_scan", "ios": "https://dc.lft.to/lastmile_qr_scan"}, "bike_id": "6812ba9726799364c5c538f21c0c6116", "name": "6812ba9726799364c5c538f21c0c6116", "type": "electric_scooter", "lon": -77.04235233333333, "lat": 38.91120733333333, "is_disabled": 0, "is_reserved": 0, "fusion_lat": 0.0, "fusion_lon": 0.0}, {"rental_uris": {"android": "https://dc.lft.to/lastmile_qr_scan", "ios": "https://dc.lft.to/lastmile_qr_scan"}, "bike_id": "d6137e48e012bc7a3de3470f6f3dbbb0", "name": "d6137e48e012bc7a3de3470f6f3dbbb0", "type": "electric_scooter", "lon": -77.04367716666667, "lat": 38.8923005, "is_disabled": 0, "is_reserved": 0, "fusion_lat": 0.0, "fusion_lon": 0.0}, {"rental_uris": {"android": "https://dc.lft.to/lastmile_qr_scan", "ios": "https://dc.lft.to/lastmile_qr_scan"}, "bike_id": "30390397da343f9139905a6fe829693d", "name": "30390397da343f9139905a6fe829693d", "type": "electric_bike", "lon": -77.03701966666667, "lat": 38.93551183333334, "is_disabled": 0, "is_reserved": 0, "fusion_lat": 0.0, "fusion_lon": 0.0}, {"rental_uris": {"android": "https://dc.lft.to/lastmile_qr_scan", "ios": "https://dc.lft.to/lastmile_qr_scan"}, "bike_id": "ef9342517dab963691309505b073c578", "name": "ef9342517dab963691309505b073c578", "type": "electric_scooter", "lon": -76.98119983333333, "lat": 38.9146765, "is_disabled": 0, "is_reserved": 0, "fusion_lat": 0.0, "fusion_lon": 0.0}, {"rental_uris": {"android": "https://dc.lft.to/lastmile_qr_scan", "ios": "https://dc.lft.to/lastmile_qr_scan"}, "bike_id": "f60dd3c93f8cda833d558999c489e5b3", "name": "f60dd3c93f8cda833d558999c489e5b3", "type": "electric_scooter", "lon": -77.032005, "lat": 38.9080115, "is_disabled": 0, "is_reserved": 0, "fusion_lat": 0.0, "fusion_lon": 0.0}, {"rental_uris": {"android": "https://dc.lft.to/lastmile_qr_scan", "ios": "https://dc.lft.to/lastmile_qr_scan"}, "bike_id": "8172bef1230f0343c5516d9c5d2cabc5", "name": "8172bef1230f0343c5516d9c5d2cabc5", "type": "electric_scooter", "lon": -77.07246933333333, "lat": 38.939504666666664, "is_disabled": 0, "is_reserved": 0, "fusion_lat": 0.0, "fusion_lon": 0.0}, {"rental_uris": {"android": "https://dc.lft.to/lastmile_qr_scan", "ios": "https://dc.lft.to/lastmile_qr_scan"}, "bike_id": "f10be3f53f587ebce7284b260f5573d2", "name": "f10be3f53f587ebce7284b260f5573d2", "type": "electric_scooter", "lon": -77.01200283333333, "lat": 38.90015316666667, "is_disabled": 0, "is_reserved": 0, "fusion_lat": 0.0, "fusion_lon": 0.0}, {"rental_uris": {"android": "https://dc.lft.to/lastmile_qr_scan", "ios": "https://dc.lft.to/lastmile_qr_scan"}, "bike_id": "40d2cf54f711a52c9029683e864a1ef5", "name": "40d2cf54f711a52c9029683e864a1ef5", "type": "electric_scooter", "lon": -77.01797366666666, "lat": 38.8767355, "is_disabled": 0, "is_reserved": 0, "fusion_lat": 0.0, "fusion_lon": 0.0}, {"rental_uris": {"android": "https://dc.lft.to/lastmile_qr_scan", "ios": "https://dc.lft.to/lastmile_qr_scan"}, "bike_id": "fa06538d1784b03c3fa93fb9bbccecc5", "name": "fa06538d1784b03c3fa93fb9bbccecc5", "type": "electric_scooter", "lon": -77.03252383333333, "lat": 38.918252333333335, "is_disabled": 0, "is_reserved": 0, "fusion_lat": 0.0, "fusion_lon": 0.0}, {"rental_uris": {"android": "https://dc.lft.to/lastmile_qr_scan", "ios": "https://dc.lft.to/lastmile_qr_scan"}, "bike_id": "898a53b6a64fb5493ab38fffa5d8be69", "name": "898a53b6a64fb5493ab38fffa5d8be69", "type": "electric_scooter", "lon": -76.97716216666667, "lat": 38.88820116666667, "is_disabled": 0, "is_reserved": 0, "fusion_lat": 0.0, "fusion_lon": 0.0}, {"rental_uris": {"android": "https://dc.lft.to/lastmile_qr_scan", "ios": "https://dc.lft.to/lastmile_qr_scan"}, "bike_id": "f1aeb5c3ed2e81bb0e84b5e3351216aa", "name": "f1aeb5c3ed2e81bb0e84b5e3351216aa", "type": "electric_scooter", "lon": -77.01784016666667, "lat": 38.901309499999996, "is_disabled": 0, "is_reserved": 0, "fusion_lat": 0.0, "fusion_lon": 0.0}, {"rental_uris": {"android": "https://dc.lft.to/lastmile_qr_scan", "ios": "https://dc.lft.to/lastmile_qr_scan"}, "bike_id": "fb5f9d53b1ebbd4b0dcf6f6b353d0789", "name": "fb5f9d53b1ebbd4b0dcf6f6b353d0789", "type": "electric_scooter", "lon": -77.0418, "lat": 38.918843, "is_disabled": 0, "is_reserved": 0, "fusion_lat": 0.0, "fusion_lon": 0.0}, {"rental_uris": {"android": "https://dc.lft.to/lastmile_qr_scan", "ios": "https://dc.lft.to/lastmile_qr_scan"}, "bike_id": "0d6398f76bcfe178b52d3020ad9d9929", "name": "0d6398f76bcfe178b52d3020ad9d9929", "type": "electric_bike", "lon": -76.96052683333333, "lat": 38.88404766666667, "is_disabled": 0, "is_reserved": 0, "fusion_lat": 0.0, "fusion_lon": 0.0}, {"rental_uris": {"android": "https://dc.lft.to/lastmile_qr_scan", "ios": "https://dc.lft.to/lastmile_qr_scan"}, "bike_id": "4274e9659e01c90cbd0169ffe6b90ed3", "name": "4274e9659e01c90cbd0169ffe6b90ed3", "type": "electric_bike", "lon": -77.064024, "lat": 38.8406275, "is_disabled": 0, "is_reserved": 0, "fusion_lat": 0.0, "fusion_lon": 0.0}, {"rental_uris": {"android": "https://dc.lft.to/lastmile_qr_scan", "ios": "https://dc.lft.to/lastmile_qr_scan"}, "bike_id": "b571a1fba6bc741ff16f045a0503fab2", "name": "b571a1fba6bc741ff16f045a0503fab2", "type": "electric_scooter", "lon": -76.99527566666667, "lat": 38.86249383333333, "is_disabled": 0, "is_reserved": 0, "fusion_lat": 0.0, "fusion_lon": 0.0}, {"rental_uris": {"android": "https://dc.lft.to/lastmile_qr_scan", "ios": "https://dc.lft.to/lastmile_qr_scan"}, "bike_id": "80a25e6f89ccceae13ee28ef4ac79cec", "name": "80a25e6f89ccceae13ee28ef4ac79cec", "type": "electric_scooter", "lon": -76.98378433333333, "lat": 38.861239166666664, "is_disabled": 0, "is_reserved": 0, "fusion_lat": 0.0, "fusion_lon": 0.0}, {"rental_uris": {"android": "https://dc.lft.to/lastmile_qr_scan", "ios": "https://dc.lft.to/lastmile_qr_scan"}, "bike_id": "9f553062863ebe58acf978b1af944b39", "name": "9f553062863ebe58acf978b1af944b39", "type": "electric_scooter", "lon": -77.03183433333334, "lat": 38.92379483333333, "is_disabled": 0, "is_reserved": 0, "fusion_lat": 0.0, "fusion_lon": 0.0}, {"rental_uris": {"android": "https://dc.lft.to/lastmile_qr_scan", "ios": "https://dc.lft.to/lastmile_qr_scan"}, "bike_id": "56db4961d4960d3d7abfe8a611e62c8b", "name": "56db4961d4960d3d7abfe8a611e62c8b", "type": "electric_scooter", "lon": -76.93156116666667, "lat": 38.898779, "is_disabled": 0, "is_reserved": 0, "fusion_lat": 0.0, "fusion_lon": 0.0}, {"rental_uris": {"android": "https://dc.lft.to/lastmile_qr_scan", "ios": "https://dc.lft.to/lastmile_qr_scan"}, "bike_id": "b3f42dbeea3d9186c2900b510ee60e63", "name": "b3f42dbeea3d9186c2900b510ee60e63", "type": "electric_bike", "lon": -77.06865033333334, "lat": 38.805804, "is_disabled": 0, "is_reserved": 0, "fusion_lat": 0.0, "fusion_lon": 0.0}, {"rental_uris": {"android": "https://dc.lft.to/lastmile_qr_scan", "ios": "https://dc.lft.to/lastmile_qr_scan"}, "bike_id": "e2988b1370f1afa013fbb38ed168e47d", "name": "e2988b1370f1afa013fbb38ed168e47d", "type": "electric_scooter", "lon": -76.9850335, "lat": 38.866611166666665, "is_disabled": 0, "is_reserved": 0, "fusion_lat": 0.0, "fusion_lon": 0.0}, {"rental_uris": {"android": "https://dc.lft.to/lastmile_qr_scan", "ios": "https://dc.lft.to/lastmile_qr_scan"}, "bike_id": "6964b0dc193b94c5b7c2cc1c713c3bf7", "name": "6964b0dc193b94c5b7c2cc1c713c3bf7", "type": "electric_scooter", "lon": -77.00907883333333, "lat": 38.906831333333336, "is_disabled": 0, "is_reserved": 0, "fusion_lat": 0.0, "fusion_lon": 0.0}, {"rental_uris": {"android": "https://dc.lft.to/lastmile_qr_scan", "ios": "https://dc.lft.to/lastmile_qr_scan"}, "bike_id": "00dcd0532abbe9a070afef41e054852d", "name": "00dcd0532abbe9a070afef41e054852d", "type": "electric_scooter", "lon": -77.02586866666667, "lat": 38.90493816666667, "is_disabled": 0, "is_reserved": 0, "fusion_lat": 0.0, "fusion_lon": 0.0}, {"rental_uris": {"android": "https://dc.lft.to/lastmile_qr_scan", "ios": "https://dc.lft.to/lastmile_qr_scan"}, "bike_id": "3cb3873e03aad3d880c6078a58d189ab", "name": "3cb3873e03aad3d880c6078a58d189ab", "type": "electric_scooter", "lon": -77.0233105, "lat": 38.928851333333334, "is_disabled": 0, "is_reserved": 0, "fusion_lat": 0.0, "fusion_lon": 0.0}, {"rental_uris": {"android": "https://dc.lft.to/lastmile_qr_scan", "ios": "https://dc.lft.to/lastmile_qr_scan"}, "bike_id": "fa0e5bd05b0cfed2aac3a08902a8e87f", "name": "fa0e5bd05b0cfed2aac3a08902a8e87f", "type": "electric_bike", "lon": -76.98796883333333, "lat": 38.922155833333335, "is_disabled": 0, "is_reserved": 0, "fusion_lat": 0.0, "fusion_lon": 0.0}, {"rental_uris": {"android": "https://dc.lft.to/lastmile_qr_scan", "ios": "https://dc.lft.to/lastmile_qr_scan"}, "bike_id": "856d56b39291e50ac9e4cff22eeabb84", "name": "856d56b39291e50ac9e4cff22eeabb84", "type": "electric_scooter", "lon": -77.02293833333333, "lat": 38.91029, "is_disabled": 0, "is_reserved": 0, "fusion_lat": 0.0, "fusion_lon": 0.0}, {"rental_uris": {"android": "https://dc.lft.to/lastmile_qr_scan", "ios": "https://dc.lft.to/lastmile_qr_scan"}, "bike_id": "0ddaef56aa395a984357502d1978000f", "name": "0ddaef56aa395a984357502d1978000f", "type": "electric_scooter", "lon": -77.004929, "lat": 38.87460766666667, "is_disabled": 0, "is_reserved": 0, "fusion_lat": 0.0, "fusion_lon": 0.0}, {"rental_uris": {"android": "https://dc.lft.to/lastmile_qr_scan", "ios": "https://dc.lft.to/lastmile_qr_scan"}, "bike_id": "1047dac1e80935497934f21f6cbbe5e6", "name": "1047dac1e80935497934f21f6cbbe5e6", "type": "electric_bike", "lon": -77.05061733333334, "lat": 39.039400666666666, "is_disabled": 0, "is_reserved": 0, "fusion_lat": 0.0, "fusion_lon": 0.0}, {"rental_uris": {"android": "https://dc.lft.to/lastmile_qr_scan", "ios": "https://dc.lft.to/lastmile_qr_scan"}, "bike_id": "b33959afbb69ca3dc1a838d6c7ca4808", "name": "b33959afbb69ca3dc1a838d6c7ca4808", "type": "electric_scooter", "lon": -77.01936766666667, "lat": 38.946990666666665, "is_disabled": 0, "is_reserved": 0, "fusion_lat": 0.0, "fusion_lon": 0.0}, {"rental_uris": {"android": "https://dc.lft.to/lastmile_qr_scan", "ios": "https://dc.lft.to/lastmile_qr_scan"}, "bike_id": "64d90d3ed3922d1f664a929f67a122c0", "name": "64d90d3ed3922d1f664a929f67a122c0", "type": "electric_scooter", "lon": -77.03897233333333, "lat": 38.924648166666664, "is_disabled": 0, "is_reserved": 0, "fusion_lat": 0.0, "fusion_lon": 0.0}, {"rental_uris": {"android": "https://dc.lft.to/lastmile_qr_scan", "ios": "https://dc.lft.to/lastmile_qr_scan"}, "bike_id": "1c52c0fafee6ec065e4eb6c5ed860ea2", "name": "1c52c0fafee6ec065e4eb6c5ed860ea2", "type": "electric_scooter", "lon": -76.927369, "lat": 38.88968116666667, "is_disabled": 0, "is_reserved": 0, "fusion_lat": 0.0, "fusion_lon": 0.0}, {"rental_uris": {"android": "https://dc.lft.to/lastmile_qr_scan", "ios": "https://dc.lft.to/lastmile_qr_scan"}, "bike_id": "4c9816b508e029f70dfdfb59f0df679d", "name": "4c9816b508e029f70dfdfb59f0df679d", "type": "electric_scooter", "lon": -77.02221033333333, "lat": 38.910172, "is_disabled": 0, "is_reserved": 0, "fusion_lat": 0.0, "fusion_lon": 0.0}, {"rental_uris": {"android": "https://dc.lft.to/lastmile_qr_scan", "ios": "https://dc.lft.to/lastmile_qr_scan"}, "bike_id": "e4f09b342d7c4161c4a7f9d2ada062fc", "name": "e4f09b342d7c4161c4a7f9d2ada062fc", "type": "electric_scooter", "lon": -77.0467445, "lat": 38.89947166666666, "is_disabled": 0, "is_reserved": 0, "fusion_lat": 0.0, "fusion_lon": 0.0}, {"rental_uris": {"android": "https://dc.lft.to/lastmile_qr_scan", "ios": "https://dc.lft.to/lastmile_qr_scan"}, "bike_id": "82ddb4fb2ab8f7a08fbc16792c9429c3", "name": "82ddb4fb2ab8f7a08fbc16792c9429c3", "type": "electric_scooter", "lon": -76.99788583333333, "lat": 38.909012833333335, "is_disabled": 0, "is_reserved": 0, "fusion_lat": 0.0, "fusion_lon": 0.0}, {"rental_uris": {"android": "https://dc.lft.to/lastmile_qr_scan", "ios": "https://dc.lft.to/lastmile_qr_scan"}, "bike_id": "0a3b268b2a7c136c5856a8df8c88564f", "name": "0a3b268b2a7c136c5856a8df8c88564f", "type": "electric_bike", "lon": -77.08934866666667, "lat": 38.8410405, "is_disabled": 0, "is_reserved": 0, "fusion_lat": 0.0, "fusion_lon": 0.0}, {"rental_uris": {"android": "https://dc.lft.to/lastmile_qr_scan", "ios": "https://dc.lft.to/lastmile_qr_scan"}, "bike_id": "fbfa6428dda47e68bd7c4af1642e31d8", "name": "fbfa6428dda47e68bd7c4af1642e31d8", "type": "electric_bike", "lon": -77.11598216666667, "lat": 39.074943833333336, "is_disabled": 0, "is_reserved": 0, "fusion_lat": 0.0, "fusion_lon": 0.0}, {"rental_uris": {"android": "https://dc.lft.to/lastmile_qr_scan", "ios": "https://dc.lft.to/lastmile_qr_scan"}, "bike_id": "4ad9857206e35f47400d77e853b4f670", "name": "4ad9857206e35f47400d77e853b4f670", "type": "electric_bike", "lon": -77.00445966666666, "lat": 38.912104, "is_disabled": 0, "is_reserved": 0, "fusion_lat": 0.0, "fusion_lon": 0.0}, {"rental_uris": {"android": "https://dc.lft.to/lastmile_qr_scan", "ios": "https://dc.lft.to/lastmile_qr_scan"}, "bike_id": "7ca9bd2cc829e1b6bde67b832a58fb14", "name": "7ca9bd2cc829e1b6bde67b832a58fb14", "type": "electric_scooter", "lon": -77.03252916666666, "lat": 38.91818, "is_disabled": 0, "is_reserved": 0, "fusion_lat": 0.0, "fusion_lon": 0.0}, {"rental_uris": {"android": "https://dc.lft.to/lastmile_qr_scan", "ios": "https://dc.lft.to/lastmile_qr_scan"}, "bike_id": "2a2f91e5007e9b5e4edf491112958db9", "name": "2a2f91e5007e9b5e4edf491112958db9", "type": "electric_scooter", "lon": -77.01519366666666, "lat": 38.886211, "is_disabled": 0, "is_reserved": 0, "fusion_lat": 0.0, "fusion_lon": 0.0}, {"rental_uris": {"android": "https://dc.lft.to/lastmile_qr_scan", "ios": "https://dc.lft.to/lastmile_qr_scan"}, "bike_id": "edb8a6eeb901d4357a82b7bde77f48e2", "name": "edb8a6eeb901d4357a82b7bde77f48e2", "type": "electric_scooter", "lon": -77.03267283333334, "lat": 38.935367166666666, "is_disabled": 0, "is_reserved": 0, "fusion_lat": 0.0, "fusion_lon": 0.0}, {"rental_uris": {"android": "https://dc.lft.to/lastmile_qr_scan", "ios": "https://dc.lft.to/lastmile_qr_scan"}, "bike_id": "aee73468d263c67bad09d265e6a5512e", "name": "aee73468d263c67bad09d265e6a5512e", "type": "electric_scooter", "lon": -77.03634316666667, "lat": 38.902836666666666, "is_disabled": 0, "is_reserved": 0, "fusion_lat": 0.0, "fusion_lon": 0.0}, {"rental_uris": {"android": "https://dc.lft.to/lastmile_qr_scan", "ios": "https://dc.lft.to/lastmile_qr_scan"}, "bike_id": "5130273c75acecdb742f94a99a8a1b08", "name": "5130273c75acecdb742f94a99a8a1b08", "type": "electric_bike", "lon": -77.05084066666667, "lat": 38.8133405, "is_disabled": 0, "is_reserved": 0, "fusion_lat": 0.0, "fusion_lon": 0.0}, {"rental_uris": {"android": "https://dc.lft.to/lastmile_qr_scan", "ios": "https://dc.lft.to/lastmile_qr_scan"}, "bike_id": "c93cbafbb93d2f2cdad173bea1444c22", "name": "c93cbafbb93d2f2cdad173bea1444c22", "type": "electric_scooter", "lon": -77.05531183333333, "lat": 38.92987016666667, "is_disabled": 0, "is_reserved": 0, "fusion_lat": 0.0, "fusion_lon": 0.0}, {"rental_uris": {"android": "https://dc.lft.to/lastmile_qr_scan", "ios": "https://dc.lft.to/lastmile_qr_scan"}, "bike_id": "427266754b0a963ecc66bdf48fb7e4f0", "name": "427266754b0a963ecc66bdf48fb7e4f0", "type": "electric_bike", "lon": -77.03005883333333, "lat": 38.99147333333333, "is_disabled": 0, "is_reserved": 0, "fusion_lat": 0.0, "fusion_lon": 0.0}, {"rental_uris": {"android": "https://dc.lft.to/lastmile_qr_scan", "ios": "https://dc.lft.to/lastmile_qr_scan"}, "bike_id": "c642201527b81f8668c5d5459829c09e", "name": "c642201527b81f8668c5d5459829c09e", "type": "electric_scooter", "lon": -77.0337195, "lat": 38.920487666666666, "is_disabled": 0, "is_reserved": 0, "fusion_lat": 0.0, "fusion_lon": 0.0}, {"rental_uris": {"android": "https://dc.lft.to/lastmile_qr_scan", "ios": "https://dc.lft.to/lastmile_qr_scan"}, "bike_id": "626a48e1d957b02430299d923f88130b", "name": "626a48e1d957b02430299d923f88130b", "type": "electric_bike", "lon": -76.993517, "lat": 38.8451, "is_disabled": 0, "is_reserved": 0, "fusion_lat": 0.0, "fusion_lon": 0.0}, {"rental_uris": {"android": "https://dc.lft.to/lastmile_qr_scan", "ios": "https://dc.lft.to/lastmile_qr_scan"}, "bike_id": "9065bfcd5b5729e746f71e68da60191e", "name": "9065bfcd5b5729e746f71e68da60191e", "type": "electric_scooter", "lon": -77.02702366666666, "lat": 38.9066975, "is_disabled": 0, "is_reserved": 0, "fusion_lat": 0.0, "fusion_lon": 0.0}, {"rental_uris": {"android": "https://dc.lft.to/lastmile_qr_scan", "ios": "https://dc.lft.to/lastmile_qr_scan"}, "bike_id": "41b1a796280604172a8e0790f8a70f3f", "name": "41b1a796280604172a8e0790f8a70f3f", "type": "electric_scooter", "lon": -77.0222875, "lat": 38.8788065, "is_disabled": 0, "is_reserved": 0, "fusion_lat": 0.0, "fusion_lon": 0.0}, {"rental_uris": {"android": "https://dc.lft.to/lastmile_qr_scan", "ios": "https://dc.lft.to/lastmile_qr_scan"}, "bike_id": "4eb684c3ba022822978924cb0c76563e", "name": "4eb684c3ba022822978924cb0c76563e", "type": "electric_scooter", "lon": -77.02011066666667, "lat": 38.879283666666666, "is_disabled": 0, "is_reserved": 0, "fusion_lat": 0.0, "fusion_lon": 0.0}, {"rental_uris": {"android": "https://dc.lft.to/lastmile_qr_scan", "ios": "https://dc.lft.to/lastmile_qr_scan"}, "bike_id": "d62a670a150cda968fbfc1129fb56e88", "name": "d62a670a150cda968fbfc1129fb56e88", "type": "electric_scooter", "lon": -77.02156033333333, "lat": 38.91285233333333, "is_disabled": 0, "is_reserved": 0, "fusion_lat": 0.0, "fusion_lon": 0.0}, {"rental_uris": {"android": "https://dc.lft.to/lastmile_qr_scan", "ios": "https://dc.lft.to/lastmile_qr_scan"}, "bike_id": "42710f70be029991e2fb989eae5acd6c", "name": "42710f70be029991e2fb989eae5acd6c", "type": "electric_scooter", "lon": -77.01765266666666, "lat": 38.881405, "is_disabled": 0, "is_reserved": 0, "fusion_lat": 0.0, "fusion_lon": 0.0}, {"rental_uris": {"android": "https://dc.lft.to/lastmile_qr_scan", "ios": "https://dc.lft.to/lastmile_qr_scan"}, "bike_id": "719a81cfc6e5cceca02318072904d67f", "name": "719a81cfc6e5cceca02318072904d67f", "type": "electric_scooter", "lon": -77.06113966666666, "lat": 38.93993716666667, "is_disabled": 0, "is_reserved": 0, "fusion_lat": 0.0, "fusion_lon": 0.0}, {"rental_uris": {"android": "https://dc.lft.to/lastmile_qr_scan", "ios": "https://dc.lft.to/lastmile_qr_scan"}, "bike_id": "04ca8e2549f2e6302f1522e125c2c4db", "name": "04ca8e2549f2e6302f1522e125c2c4db", "type": "electric_scooter", "lon": -77.02298166666667, "lat": 38.92084583333333, "is_disabled": 0, "is_reserved": 0, "fusion_lat": 0.0, "fusion_lon": 0.0}, {"rental_uris": {"android": "https://dc.lft.to/lastmile_qr_scan", "ios": "https://dc.lft.to/lastmile_qr_scan"}, "bike_id": "8d068667f01a2ac73c886d5dda70afb1", "name": "8d068667f01a2ac73c886d5dda70afb1", "type": "electric_scooter", "lon": -76.9915415, "lat": 38.909991833333336, "is_disabled": 0, "is_reserved": 0, "fusion_lat": 0.0, "fusion_lon": 0.0}, {"rental_uris": {"android": "https://dc.lft.to/lastmile_qr_scan", "ios": "https://dc.lft.to/lastmile_qr_scan"}, "bike_id": "9a0846426c36be2cc3a4e72395c49704", "name": "9a0846426c36be2cc3a4e72395c49704", "type": "electric_scooter", "lon": -77.05316816666667, "lat": 38.9025895, "is_disabled": 0, "is_reserved": 0, "fusion_lat": 0.0, "fusion_lon": 0.0}, {"rental_uris": {"android": "https://dc.lft.to/lastmile_qr_scan", "ios": "https://dc.lft.to/lastmile_qr_scan"}, "bike_id": "f30e246ea5683b9016dcdc1fcf48f502", "name": "f30e246ea5683b9016dcdc1fcf48f502", "type": "electric_scooter", "lon": -77.00604633333333, "lat": 38.875613333333334, "is_disabled": 0, "is_reserved": 0, "fusion_lat": 0.0, "fusion_lon": 0.0}, {"rental_uris": {"android": "https://dc.lft.to/lastmile_qr_scan", "ios": "https://dc.lft.to/lastmile_qr_scan"}, "bike_id": "82305026c436dfdbe2998b6dd55a797f", "name": "82305026c436dfdbe2998b6dd55a797f", "type": "electric_scooter", "lon": -77.0496775, "lat": 38.9052655, "is_disabled": 0, "is_reserved": 0, "fusion_lat": 0.0, "fusion_lon": 0.0}, {"rental_uris": {"android": "https://dc.lft.to/lastmile_qr_scan", "ios": "https://dc.lft.to/lastmile_qr_scan"}, "bike_id": "cce18f34aebe174ae6052e7ad66f6c23", "name": "cce18f34aebe174ae6052e7ad66f6c23", "type": "electric_scooter", "lon": -76.98230316666667, "lat": 38.864752833333334, "is_disabled": 0, "is_reserved": 0, "fusion_lat": 0.0, "fusion_lon": 0.0}, {"rental_uris": {"android": "https://dc.lft.to/lastmile_qr_scan", "ios": "https://dc.lft.to/lastmile_qr_scan"}, "bike_id": "dff491b1365b106b2bd46aff4958c79f", "name": "dff491b1365b106b2bd46aff4958c79f", "type": "electric_scooter", "lon": -76.9865315, "lat": 38.900159, "is_disabled": 0, "is_reserved": 0, "fusion_lat": 0.0, "fusion_lon": 0.0}, {"rental_uris": {"android": "https://dc.lft.to/lastmile_qr_scan", "ios": "https://dc.lft.to/lastmile_qr_scan"}, "bike_id": "6a6cf0f73e0dc360a7d667b8d9383cbf", "name": "6a6cf0f73e0dc360a7d667b8d9383cbf", "type": "electric_scooter", "lon": -77.0152485, "lat": 38.886385833333335, "is_disabled": 0, "is_reserved": 0, "fusion_lat": 0.0, "fusion_lon": 0.0}, {"rental_uris": {"android": "https://dc.lft.to/lastmile_qr_scan", "ios": "https://dc.lft.to/lastmile_qr_scan"}, "bike_id": "040b5bab6a7d41431f68930e4dbb25e0", "name": "040b5bab6a7d41431f68930e4dbb25e0", "type": "electric_scooter", "lon": -77.04393933333333, "lat": 38.9142805, "is_disabled": 0, "is_reserved": 0, "fusion_lat": 0.0, "fusion_lon": 0.0}, {"rental_uris": {"android": "https://dc.lft.to/lastmile_qr_scan", "ios": "https://dc.lft.to/lastmile_qr_scan"}, "bike_id": "f189d7cfdb49b43635784a4bb3982bc3", "name": "f189d7cfdb49b43635784a4bb3982bc3", "type": "electric_scooter", "lon": -77.04069, "lat": 38.917043166666666, "is_disabled": 0, "is_reserved": 0, "fusion_lat": 0.0, "fusion_lon": 0.0}, {"rental_uris": {"android": "https://dc.lft.to/lastmile_qr_scan", "ios": "https://dc.lft.to/lastmile_qr_scan"}, "bike_id": "2430b26a7f7de5296f5535835aed8417", "name": "2430b26a7f7de5296f5535835aed8417", "type": "electric_scooter", "lon": -77.04074283333334, "lat": 38.900116833333335, "is_disabled": 0, "is_reserved": 0, "fusion_lat": 0.0, "fusion_lon": 0.0}, {"rental_uris": {"android": "https://dc.lft.to/lastmile_qr_scan", "ios": "https://dc.lft.to/lastmile_qr_scan"}, "bike_id": "861263134d06808b078432113cb47a94", "name": "861263134d06808b078432113cb47a94", "type": "electric_scooter", "lon": -77.03235266666667, "lat": 38.917160333333335, "is_disabled": 0, "is_reserved": 0, "fusion_lat": 0.0, "fusion_lon": 0.0}, {"rental_uris": {"android": "https://dc.lft.to/lastmile_qr_scan", "ios": "https://dc.lft.to/lastmile_qr_scan"}, "bike_id": "4d7a31bec141a3ed256e9fd6ae0cc346", "name": "4d7a31bec141a3ed256e9fd6ae0cc346", "type": "electric_scooter", "lon": -77.00205783333334, "lat": 38.900673, "is_disabled": 0, "is_reserved": 0, "fusion_lat": 0.0, "fusion_lon": 0.0}, {"rental_uris": {"android": "https://dc.lft.to/lastmile_qr_scan", "ios": "https://dc.lft.to/lastmile_qr_scan"}, "bike_id": "ef549a45f816ff47bf56d8975cf758b7", "name": "ef549a45f816ff47bf56d8975cf758b7", "type": "electric_scooter", "lon": -77.00210966666667, "lat": 38.90019933333333, "is_disabled": 0, "is_reserved": 0, "fusion_lat": 0.0, "fusion_lon": 0.0}, {"rental_uris": {"android": "https://dc.lft.to/lastmile_qr_scan", "ios": "https://dc.lft.to/lastmile_qr_scan"}, "bike_id": "78c6292e4550fc0a53c8b8ce0028f15e", "name": "78c6292e4550fc0a53c8b8ce0028f15e", "type": "electric_scooter", "lon": -77.03907233333334, "lat": 38.9182825, "is_disabled": 0, "is_reserved": 0, "fusion_lat": 0.0, "fusion_lon": 0.0}, {"rental_uris": {"android": "https://dc.lft.to/lastmile_qr_scan", "ios": "https://dc.lft.to/lastmile_qr_scan"}, "bike_id": "0a1bbd6908b83fb84af615d624d73c43", "name": "0a1bbd6908b83fb84af615d624d73c43", "type": "electric_scooter", "lon": -77.03402516666667, "lat": 38.91694316666667, "is_disabled": 0, "is_reserved": 0, "fusion_lat": 0.0, "fusion_lon": 0.0}, {"rental_uris": {"android": "https://dc.lft.to/lastmile_qr_scan", "ios": "https://dc.lft.to/lastmile_qr_scan"}, "bike_id": "99819442e6370fa94a1920a45a2dd07a", "name": "99819442e6370fa94a1920a45a2dd07a", "type": "electric_scooter", "lon": -77.03866183333334, "lat": 38.91713683333333, "is_disabled": 0, "is_reserved": 0, "fusion_lat": 0.0, "fusion_lon": 0.0}, {"rental_uris": {"android": "https://dc.lft.to/lastmile_qr_scan", "ios": "https://dc.lft.to/lastmile_qr_scan"}, "bike_id": "f04b2c30cdd0bcb1d7e234229ddb160c", "name": "f04b2c30cdd0bcb1d7e234229ddb160c", "type": "electric_scooter", "lon": -77.06165616666667, "lat": 38.912996, "is_disabled": 0, "is_reserved": 0, "fusion_lat": 0.0, "fusion_lon": 0.0}, {"rental_uris": {"android": "https://dc.lft.to/lastmile_qr_scan", "ios": "https://dc.lft.to/lastmile_qr_scan"}, "bike_id": "246f7e42d5cb63d55a3b85915ac3e933", "name": "246f7e42d5cb63d55a3b85915ac3e933", "type": "electric_scooter", "lon": -77.03223766666666, "lat": 38.91405266666666, "is_disabled": 0, "is_reserved": 0, "fusion_lat": 0.0, "fusion_lon": 0.0}, {"rental_uris": {"android": "https://dc.lft.to/lastmile_qr_scan", "ios": "https://dc.lft.to/lastmile_qr_scan"}, "bike_id": "4cbed179baef4ea40f211c2699738594", "name": "4cbed179baef4ea40f211c2699738594", "type": "electric_scooter", "lon": -77.03270883333333, "lat": 38.92746266666666, "is_disabled": 0, "is_reserved": 0, "fusion_lat": 0.0, "fusion_lon": 0.0}, {"rental_uris": {"android": "https://dc.lft.to/lastmile_qr_scan", "ios": "https://dc.lft.to/lastmile_qr_scan"}, "bike_id": "be4bf8f80892bc2c18cf651b540a8ca4", "name": "be4bf8f80892bc2c18cf651b540a8ca4", "type": "electric_scooter", "lon": -77.004343, "lat": 38.912434, "is_disabled": 0, "is_reserved": 0, "fusion_lat": 0.0, "fusion_lon": 0.0}, {"rental_uris": {"android": "https://dc.lft.to/lastmile_qr_scan", "ios": "https://dc.lft.to/lastmile_qr_scan"}, "bike_id": "1600db4066cfaf27a20fbab2f8f6e0ce", "name": "1600db4066cfaf27a20fbab2f8f6e0ce", "type": "electric_scooter", "lon": -77.04561066666666, "lat": 38.917819333333334, "is_disabled": 0, "is_reserved": 0, "fusion_lat": 0.0, "fusion_lon": 0.0}, {"rental_uris": {"android": "https://dc.lft.to/lastmile_qr_scan", "ios": "https://dc.lft.to/lastmile_qr_scan"}, "bike_id": "d7e8568f1b1dc57b0067c857e33b8eaa", "name": "d7e8568f1b1dc57b0067c857e33b8eaa", "type": "electric_scooter", "lon": -77.081859, "lat": 38.935415666666664, "is_disabled": 0, "is_reserved": 0, "fusion_lat": 0.0, "fusion_lon": 0.0}, {"rental_uris": {"android": "https://dc.lft.to/lastmile_qr_scan", "ios": "https://dc.lft.to/lastmile_qr_scan"}, "bike_id": "80664a74bd84d5ad0d62fb8285bcfd4d", "name": "80664a74bd84d5ad0d62fb8285bcfd4d", "type": "electric_scooter", "lon": -77.01536066666667, "lat": 38.887505166666664, "is_disabled": 0, "is_reserved": 0, "fusion_lat": 0.0, "fusion_lon": 0.0}, {"rental_uris": {"android": "https://dc.lft.to/lastmile_qr_scan", "ios": "https://dc.lft.to/lastmile_qr_scan"}, "bike_id": "ad2caae93974b5911a5edbb458b89975", "name": "ad2caae93974b5911a5edbb458b89975", "type": "electric_scooter", "lon": -77.0239345, "lat": 38.907120666666664, "is_disabled": 0, "is_reserved": 0, "fusion_lat": 0.0, "fusion_lon": 0.0}, {"rental_uris": {"android": "https://dc.lft.to/lastmile_qr_scan", "ios": "https://dc.lft.to/lastmile_qr_scan"}, "bike_id": "4bcd4fe25562377a32c125dabb891358", "name": "4bcd4fe25562377a32c125dabb891358", "type": "electric_scooter", "lon": -77.02469266666667, "lat": 38.933057166666664, "is_disabled": 0, "is_reserved": 0, "fusion_lat": 0.0, "fusion_lon": 0.0}, {"rental_uris": {"android": "https://dc.lft.to/lastmile_qr_scan", "ios": "https://dc.lft.to/lastmile_qr_scan"}, "bike_id": "f1c277f997d146c90c0db6f00145cac2", "name": "f1c277f997d146c90c0db6f00145cac2", "type": "electric_scooter", "lon": -77.04068583333333, "lat": 38.902680333333336, "is_disabled": 0, "is_reserved": 0, "fusion_lat": 0.0, "fusion_lon": 0.0}, {"rental_uris": {"android": "https://dc.lft.to/lastmile_qr_scan", "ios": "https://dc.lft.to/lastmile_qr_scan"}, "bike_id": "ee98bd5ec8415b984ec35362b2aee94c", "name": "ee98bd5ec8415b984ec35362b2aee94c", "type": "electric_scooter", "lon": -77.02914883333334, "lat": 38.898274, "is_disabled": 0, "is_reserved": 0, "fusion_lat": 0.0, "fusion_lon": 0.0}, {"rental_uris": {"android": "https://dc.lft.to/lastmile_qr_scan", "ios": "https://dc.lft.to/lastmile_qr_scan"}, "bike_id": "0647d0dde6ce606e8e2022cad63313a3", "name": "0647d0dde6ce606e8e2022cad63313a3", "type": "electric_scooter", "lon": -77.01342516666666, "lat": 38.89939233333333, "is_disabled": 0, "is_reserved": 0, "fusion_lat": 0.0, "fusion_lon": 0.0}, {"rental_uris": {"android": "https://dc.lft.to/lastmile_qr_scan", "ios": "https://dc.lft.to/lastmile_qr_scan"}, "bike_id": "1ba6536defebfdfcdc5b6b06a82a5c46", "name": "1ba6536defebfdfcdc5b6b06a82a5c46", "type": "electric_scooter", "lon": -77.02390533333333, "lat": 38.9200385, "is_disabled": 0, "is_reserved": 0, "fusion_lat": 0.0, "fusion_lon": 0.0}, {"rental_uris": {"android": "https://dc.lft.to/lastmile_qr_scan", "ios": "https://dc.lft.to/lastmile_qr_scan"}, "bike_id": "c357e98e33dcb83e033c42c96bad30f4", "name": "c357e98e33dcb83e033c42c96bad30f4", "type": "electric_scooter", "lon": -77.008001, "lat": 38.897163166666665, "is_disabled": 0, "is_reserved": 0, "fusion_lat": 0.0, "fusion_lon": 0.0}, {"rental_uris": {"android": "https://dc.lft.to/lastmile_qr_scan", "ios": "https://dc.lft.to/lastmile_qr_scan"}, "bike_id": "19f7f0e8890996ff44d469a58876c54c", "name": "19f7f0e8890996ff44d469a58876c54c", "type": "electric_scooter", "lon": -77.04374583333333, "lat": 38.9111885, "is_disabled": 0, "is_reserved": 0, "fusion_lat": 0.0, "fusion_lon": 0.0}, {"rental_uris": {"android": "https://dc.lft.to/lastmile_qr_scan", "ios": "https://dc.lft.to/lastmile_qr_scan"}, "bike_id": "6d1c774343ddf65802e0970465f10df8", "name": "6d1c774343ddf65802e0970465f10df8", "type": "electric_scooter", "lon": -77.02404716666666, "lat": 38.892509, "is_disabled": 0, "is_reserved": 0, "fusion_lat": 0.0, "fusion_lon": 0.0}, {"rental_uris": {"android": "https://dc.lft.to/lastmile_qr_scan", "ios": "https://dc.lft.to/lastmile_qr_scan"}, "bike_id": "f8f777e30395672db539ab0bdf5989e0", "name": "f8f777e30395672db539ab0bdf5989e0", "type": "electric_scooter", "lon": -77.04667733333334, "lat": 38.909132, "is_disabled": 0, "is_reserved": 0, "fusion_lat": 0.0, "fusion_lon": 0.0}, {"rental_uris": {"android": "https://dc.lft.to/lastmile_qr_scan", "ios": "https://dc.lft.to/lastmile_qr_scan"}, "bike_id": "a5246b286216509834f40ee9fe5cc751", "name": "a5246b286216509834f40ee9fe5cc751", "type": "electric_scooter", "lon": -77.02288533333333, "lat": 38.91652416666667, "is_disabled": 0, "is_reserved": 0, "fusion_lat": 0.0, "fusion_lon": 0.0}, {"rental_uris": {"android": "https://dc.lft.to/lastmile_qr_scan", "ios": "https://dc.lft.to/lastmile_qr_scan"}, "bike_id": "1708bdc00734cdba2f8ec154f23788ea", "name": "1708bdc00734cdba2f8ec154f23788ea", "type": "electric_scooter", "lon": -77.03166566666667, "lat": 38.89978716666667, "is_disabled": 0, "is_reserved": 0, "fusion_lat": 0.0, "fusion_lon": 0.0}, {"rental_uris": {"android": "https://dc.lft.to/lastmile_qr_scan", "ios": "https://dc.lft.to/lastmile_qr_scan"}, "bike_id": "5f4c0dc5ef8c889ba401fc47d8c3e13c", "name": "5f4c0dc5ef8c889ba401fc47d8c3e13c", "type": "electric_scooter", "lon": -77.02239216666666, "lat": 38.9224505, "is_disabled": 0, "is_reserved": 0, "fusion_lat": 0.0, "fusion_lon": 0.0}, {"rental_uris": {"android": "https://dc.lft.to/lastmile_qr_scan", "ios": "https://dc.lft.to/lastmile_qr_scan"}, "bike_id": "23360de85d38b238fd3a82acae2516fa", "name": "23360de85d38b238fd3a82acae2516fa", "type": "electric_scooter", "lon": -77.0240695, "lat": 38.920781166666664, "is_disabled": 0, "is_reserved": 0, "fusion_lat": 0.0, "fusion_lon": 0.0}, {"rental_uris": {"android": "https://dc.lft.to/lastmile_qr_scan", "ios": "https://dc.lft.to/lastmile_qr_scan"}, "bike_id": "26566409b82bbb788de278d13a4964cc", "name": "26566409b82bbb788de278d13a4964cc", "type": "electric_scooter", "lon": -77.026431, "lat": 38.892221166666666, "is_disabled": 0, "is_reserved": 0, "fusion_lat": 0.0, "fusion_lon": 0.0}, {"rental_uris": {"android": "https://dc.lft.to/lastmile_qr_scan", "ios": "https://dc.lft.to/lastmile_qr_scan"}, "bike_id": "5412f09319acfdb610c5016c927cbb1d", "name": "5412f09319acfdb610c5016c927cbb1d", "type": "electric_scooter", "lon": -77.02505566666666, "lat": 38.90576216666667, "is_disabled": 0, "is_reserved": 0, "fusion_lat": 0.0, "fusion_lon": 0.0}, {"rental_uris": {"android": "https://dc.lft.to/lastmile_qr_scan", "ios": "https://dc.lft.to/lastmile_qr_scan"}, "bike_id": "17fd0098f325e430d4da329afb054bee", "name": "17fd0098f325e430d4da329afb054bee", "type": "electric_bike", "lon": -77.07914266666667, "lat": 38.80235583333334, "is_disabled": 0, "is_reserved": 0, "fusion_lat": 0.0, "fusion_lon": 0.0}, {"rental_uris": {"android": "https://dc.lft.to/lastmile_qr_scan", "ios": "https://dc.lft.to/lastmile_qr_scan"}, "bike_id": "6c1bba4f7e0bfd55f0ac76f694b2a72a", "name": "6c1bba4f7e0bfd55f0ac76f694b2a72a", "type": "electric_bike", "lon": -76.9806345, "lat": 38.9570175, "is_disabled": 0, "is_reserved": 0, "fusion_lat": 0.0, "fusion_lon": 0.0}, {"rental_uris": {"android": "https://dc.lft.to/lastmile_qr_scan", "ios": "https://dc.lft.to/lastmile_qr_scan"}, "bike_id": "e3134d9a4fbcfec595201d3f880e6639", "name": "e3134d9a4fbcfec595201d3f880e6639", "type": "electric_scooter", "lon": -77.02971833333334, "lat": 38.922579166666665, "is_disabled": 0, "is_reserved": 0, "fusion_lat": 0.0, "fusion_lon": 0.0}, {"rental_uris": {"android": "https://dc.lft.to/lastmile_qr_scan", "ios": "https://dc.lft.to/lastmile_qr_scan"}, "bike_id": "a0851ae2b9236f923471087d24656b2e", "name": "a0851ae2b9236f923471087d24656b2e", "type": "electric_scooter", "lon": -76.98883466666666, "lat": 38.86660116666667, "is_disabled": 0, "is_reserved": 0, "fusion_lat": 0.0, "fusion_lon": 0.0}, {"rental_uris": {"android": "https://dc.lft.to/lastmile_qr_scan", "ios": "https://dc.lft.to/lastmile_qr_scan"}, "bike_id": "358d2364f9357315fbfb2e2d9c286158", "name": "358d2364f9357315fbfb2e2d9c286158", "type": "electric_scooter", "lon": -77.041012, "lat": 38.92457983333333, "is_disabled": 0, "is_reserved": 0, "fusion_lat": 0.0, "fusion_lon": 0.0}, {"rental_uris": {"android": "https://dc.lft.to/lastmile_qr_scan", "ios": "https://dc.lft.to/lastmile_qr_scan"}, "bike_id": "cf1d87b1e26d5b90e2bb5839b29ac9a3", "name": "cf1d87b1e26d5b90e2bb5839b29ac9a3", "type": "electric_scooter", "lon": -77.028772, "lat": 38.9169255, "is_disabled": 0, "is_reserved": 0, "fusion_lat": 0.0, "fusion_lon": 0.0}, {"rental_uris": {"android": "https://dc.lft.to/lastmile_qr_scan", "ios": "https://dc.lft.to/lastmile_qr_scan"}, "bike_id": "4d939fef69da3e0ff666801eb4c77fdb", "name": "4d939fef69da3e0ff666801eb4c77fdb", "type": "electric_bike", "lon": -77.1608605, "lat": 38.8868515, "is_disabled": 0, "is_reserved": 0, "fusion_lat": 0.0, "fusion_lon": 0.0}, {"rental_uris": {"android": "https://dc.lft.to/lastmile_qr_scan", "ios": "https://dc.lft.to/lastmile_qr_scan"}, "bike_id": "b7411d848cd85a6f2f6991cb38032296", "name": "b7411d848cd85a6f2f6991cb38032296", "type": "electric_scooter", "lon": -77.02794366666667, "lat": 38.9540705, "is_disabled": 0, "is_reserved": 0, "fusion_lat": 0.0, "fusion_lon": 0.0}, {"rental_uris": {"android": "https://dc.lft.to/lastmile_qr_scan", "ios": "https://dc.lft.to/lastmile_qr_scan"}, "bike_id": "5e80dfcbc8ffcbd7f73fad8f82e53a00", "name": "5e80dfcbc8ffcbd7f73fad8f82e53a00", "type": "electric_scooter", "lon": -77.051196, "lat": 38.923468166666666, "is_disabled": 0, "is_reserved": 0, "fusion_lat": 0.0, "fusion_lon": 0.0}, {"rental_uris": {"android": "https://dc.lft.to/lastmile_qr_scan", "ios": "https://dc.lft.to/lastmile_qr_scan"}, "bike_id": "7309062348645a738dde008e28fe9ecf", "name": "7309062348645a738dde008e28fe9ecf", "type": "electric_scooter", "lon": -77.05238966666667, "lat": 38.923624333333336, "is_disabled": 0, "is_reserved": 0, "fusion_lat": 0.0, "fusion_lon": 0.0}, {"rental_uris": {"android": "https://dc.lft.to/lastmile_qr_scan", "ios": "https://dc.lft.to/lastmile_qr_scan"}, "bike_id": "8c0fc05740486d4bbd885cf0a872a1fe", "name": "8c0fc05740486d4bbd885cf0a872a1fe", "type": "electric_bike", "lon": -76.97593983333333, "lat": 38.90332883333333, "is_disabled": 0, "is_reserved": 0, "fusion_lat": 0.0, "fusion_lon": 0.0}, {"rental_uris": {"android": "https://dc.lft.to/lastmile_qr_scan", "ios": "https://dc.lft.to/lastmile_qr_scan"}, "bike_id": "67386349c8a3dabe1bdaa25d13486378", "name": "67386349c8a3dabe1bdaa25d13486378", "type": "electric_scooter", "lon": -77.07265066666666, "lat": 38.934817333333335, "is_disabled": 0, "is_reserved": 0, "fusion_lat": 0.0, "fusion_lon": 0.0}, {"rental_uris": {"android": "https://dc.lft.to/lastmile_qr_scan", "ios": "https://dc.lft.to/lastmile_qr_scan"}, "bike_id": "4c33bb6cf59014cffbf28eaf554b954e", "name": "4c33bb6cf59014cffbf28eaf554b954e", "type": "electric_scooter", "lon": -77.02648416666666, "lat": 38.899975166666664, "is_disabled": 0, "is_reserved": 0, "fusion_lat": 0.0, "fusion_lon": 0.0}, {"rental_uris": {"android": "https://dc.lft.to/lastmile_qr_scan", "ios": "https://dc.lft.to/lastmile_qr_scan"}, "bike_id": "718f9c48e462d03684aac4634e1e25ef", "name": "718f9c48e462d03684aac4634e1e25ef", "type": "electric_scooter", "lon": -77.042055, "lat": 38.922902, "is_disabled": 0, "is_reserved": 0, "fusion_lat": 0.0, "fusion_lon": 0.0}, {"rental_uris": {"android": "https://dc.lft.to/lastmile_qr_scan", "ios": "https://dc.lft.to/lastmile_qr_scan"}, "bike_id": "dff6667972c871a400deca2e9de91614", "name": "dff6667972c871a400deca2e9de91614", "type": "electric_scooter", "lon": -77.031231, "lat": 38.91489116666666, "is_disabled": 0, "is_reserved": 0, "fusion_lat": 0.0, "fusion_lon": 0.0}, {"rental_uris": {"android": "https://dc.lft.to/lastmile_qr_scan", "ios": "https://dc.lft.to/lastmile_qr_scan"}, "bike_id": "6aa36ef7c1a953a006db32e2b0ffda47", "name": "6aa36ef7c1a953a006db32e2b0ffda47", "type": "electric_scooter", "lon": -77.03804316666667, "lat": 38.9305985, "is_disabled": 0, "is_reserved": 0, "fusion_lat": 0.0, "fusion_lon": 0.0}, {"rental_uris": {"android": "https://dc.lft.to/lastmile_qr_scan", "ios": "https://dc.lft.to/lastmile_qr_scan"}, "bike_id": "faa1e2dedae50aabd43545fcba8f10b8", "name": "faa1e2dedae50aabd43545fcba8f10b8", "type": "electric_scooter", "lon": -77.04428316666667, "lat": 38.921222666666665, "is_disabled": 0, "is_reserved": 0, "fusion_lat": 0.0, "fusion_lon": 0.0}, {"rental_uris": {"android": "https://dc.lft.to/lastmile_qr_scan", "ios": "https://dc.lft.to/lastmile_qr_scan"}, "bike_id": "609da45b3474fcb1721caffd846c5f2d", "name": "609da45b3474fcb1721caffd846c5f2d", "type": "electric_scooter", "lon": -77.05062283333334, "lat": 38.92416, "is_disabled": 0, "is_reserved": 0, "fusion_lat": 0.0, "fusion_lon": 0.0}, {"rental_uris": {"android": "https://dc.lft.to/lastmile_qr_scan", "ios": "https://dc.lft.to/lastmile_qr_scan"}, "bike_id": "c5ef67c35248fb7987e7426a7e94ee9b", "name": "c5ef67c35248fb7987e7426a7e94ee9b", "type": "electric_scooter", "lon": -77.0382545, "lat": 38.918166, "is_disabled": 0, "is_reserved": 0, "fusion_lat": 0.0, "fusion_lon": 0.0}, {"rental_uris": {"android": "https://dc.lft.to/lastmile_qr_scan", "ios": "https://dc.lft.to/lastmile_qr_scan"}, "bike_id": "1860f09c5cb6738ada21df6a1c0d135e", "name": "1860f09c5cb6738ada21df6a1c0d135e", "type": "electric_scooter", "lon": -76.95122683333334, "lat": 38.88789933333334, "is_disabled": 0, "is_reserved": 0, "fusion_lat": 0.0, "fusion_lon": 0.0}, {"rental_uris": {"android": "https://dc.lft.to/lastmile_qr_scan", "ios": "https://dc.lft.to/lastmile_qr_scan"}, "bike_id": "fd5d610046b725092c96b7323bbca303", "name": "fd5d610046b725092c96b7323bbca303", "type": "electric_bike", "lon": -77.0341955, "lat": 38.935325666666664, "is_disabled": 0, "is_reserved": 0, "fusion_lat": 0.0, "fusion_lon": 0.0}, {"rental_uris": {"android": "https://dc.lft.to/lastmile_qr_scan", "ios": "https://dc.lft.to/lastmile_qr_scan"}, "bike_id": "92be018920fcd34339c888b1bd159b36", "name": "92be018920fcd34339c888b1bd159b36", "type": "electric_scooter", "lon": -77.044031, "lat": 38.92019166666667, "is_disabled": 0, "is_reserved": 0, "fusion_lat": 0.0, "fusion_lon": 0.0}, {"rental_uris": {"android": "https://dc.lft.to/lastmile_qr_scan", "ios": "https://dc.lft.to/lastmile_qr_scan"}, "bike_id": "5089b2c413b24d08ad95a44c70863a07", "name": "5089b2c413b24d08ad95a44c70863a07", "type": "electric_scooter", "lon": -77.00614816666666, "lat": 38.87197583333333, "is_disabled": 0, "is_reserved": 0, "fusion_lat": 0.0, "fusion_lon": 0.0}, {"rental_uris": {"android": "https://dc.lft.to/lastmile_qr_scan", "ios": "https://dc.lft.to/lastmile_qr_scan"}, "bike_id": "f9dcd96bdaa4895aa12819e1a5ae7e44", "name": "f9dcd96bdaa4895aa12819e1a5ae7e44", "type": "electric_scooter", "lon": -76.949613, "lat": 38.9049665, "is_disabled": 0, "is_reserved": 0, "fusion_lat": 0.0, "fusion_lon": 0.0}, {"rental_uris": {"android": "https://dc.lft.to/lastmile_qr_scan", "ios": "https://dc.lft.to/lastmile_qr_scan"}, "bike_id": "e576b95d7899e1ac8ddcfc05446151f1", "name": "e576b95d7899e1ac8ddcfc05446151f1", "type": "electric_scooter", "lon": -76.937499, "lat": 38.89047566666667, "is_disabled": 0, "is_reserved": 0, "fusion_lat": 0.0, "fusion_lon": 0.0}, {"rental_uris": {"android": "https://dc.lft.to/lastmile_qr_scan", "ios": "https://dc.lft.to/lastmile_qr_scan"}, "bike_id": "fc4f5d67b1806051362dc232254345c1", "name": "fc4f5d67b1806051362dc232254345c1", "type": "electric_bike", "lon": -77.24487433333333, "lat": 38.881919333333336, "is_disabled": 0, "is_reserved": 0, "fusion_lat": 0.0, "fusion_lon": 0.0}, {"rental_uris": {"android": "https://dc.lft.to/lastmile_qr_scan", "ios": "https://dc.lft.to/lastmile_qr_scan"}, "bike_id": "aaa38cd1e4c3fdd568821e7e4a3aaa46", "name": "aaa38cd1e4c3fdd568821e7e4a3aaa46", "type": "electric_scooter", "lon": -77.02179783333334, "lat": 38.883204666666664, "is_disabled": 0, "is_reserved": 0, "fusion_lat": 0.0, "fusion_lon": 0.0}, {"rental_uris": {"android": "https://dc.lft.to/lastmile_qr_scan", "ios": "https://dc.lft.to/lastmile_qr_scan"}, "bike_id": "b9c675e743e10b348283c21b75ecfc17", "name": "b9c675e743e10b348283c21b75ecfc17", "type": "electric_scooter", "lon": -77.027211, "lat": 38.91815916666667, "is_disabled": 0, "is_reserved": 0, "fusion_lat": 0.0, "fusion_lon": 0.0}, {"rental_uris": {"android": "https://dc.lft.to/lastmile_qr_scan", "ios": "https://dc.lft.to/lastmile_qr_scan"}, "bike_id": "be947724e82fbc52cccb22cf23b75b17", "name": "be947724e82fbc52cccb22cf23b75b17", "type": "electric_bike", "lon": -77.023763, "lat": 38.879340166666665, "is_disabled": 0, "is_reserved": 0, "fusion_lat": 0.0, "fusion_lon": 0.0}, {"rental_uris": {"android": "https://dc.lft.to/lastmile_qr_scan", "ios": "https://dc.lft.to/lastmile_qr_scan"}, "bike_id": "88773da06452ea44a05dcf4a6ca948f2", "name": "88773da06452ea44a05dcf4a6ca948f2", "type": "electric_bike", "lon": -76.97177683333334, "lat": 38.916626, "is_disabled": 0, "is_reserved": 0, "fusion_lat": 0.0, "fusion_lon": 0.0}, {"rental_uris": {"android": "https://dc.lft.to/lastmile_qr_scan", "ios": "https://dc.lft.to/lastmile_qr_scan"}, "bike_id": "4bd8273d8cac37a4f68c5d337d2e0de7", "name": "4bd8273d8cac37a4f68c5d337d2e0de7", "type": "electric_scooter", "lon": -77.04315383333334, "lat": 38.91886366666667, "is_disabled": 0, "is_reserved": 0, "fusion_lat": 0.0, "fusion_lon": 0.0}, {"rental_uris": {"android": "https://dc.lft.to/lastmile_qr_scan", "ios": "https://dc.lft.to/lastmile_qr_scan"}, "bike_id": "3ab15c9274d44bced6439061608f12d2", "name": "3ab15c9274d44bced6439061608f12d2", "type": "electric_scooter", "lon": -77.02796566666666, "lat": 38.912232, "is_disabled": 0, "is_reserved": 0, "fusion_lat": 0.0, "fusion_lon": 0.0}, {"rental_uris": {"android": "https://dc.lft.to/lastmile_qr_scan", "ios": "https://dc.lft.to/lastmile_qr_scan"}, "bike_id": "9c0b179ba976d7b2e54e0f03469d1ee0", "name": "9c0b179ba976d7b2e54e0f03469d1ee0", "type": "electric_scooter", "lon": -77.04326166666667, "lat": 38.89222616666667, "is_disabled": 0, "is_reserved": 0, "fusion_lat": 0.0, "fusion_lon": 0.0}, {"rental_uris": {"android": "https://dc.lft.to/lastmile_qr_scan", "ios": "https://dc.lft.to/lastmile_qr_scan"}, "bike_id": "d8f1701ce2e9af231c48b9951805c74b", "name": "d8f1701ce2e9af231c48b9951805c74b", "type": "electric_bike", "lon": -77.23318716666667, "lat": 38.872882, "is_disabled": 0, "is_reserved": 0, "fusion_lat": 0.0, "fusion_lon": 0.0}, {"rental_uris": {"android": "https://dc.lft.to/lastmile_qr_scan", "ios": "https://dc.lft.to/lastmile_qr_scan"}, "bike_id": "a48913b519e865219644bb6a1195c567", "name": "a48913b519e865219644bb6a1195c567", "type": "electric_scooter", "lon": -77.03811333333333, "lat": 38.91120766666667, "is_disabled": 0, "is_reserved": 0, "fusion_lat": 0.0, "fusion_lon": 0.0}, {"rental_uris": {"android": "https://dc.lft.to/lastmile_qr_scan", "ios": "https://dc.lft.to/lastmile_qr_scan"}, "bike_id": "7f98ccb1a75c84e0f1b3368eca2a97e6", "name": "7f98ccb1a75c84e0f1b3368eca2a97e6", "type": "electric_scooter", "lon": -77.03238666666667, "lat": 38.96158666666667, "is_disabled": 0, "is_reserved": 0, "fusion_lat": 0.0, "fusion_lon": 0.0}, {"rental_uris": {"android": "https://dc.lft.to/lastmile_qr_scan", "ios": "https://dc.lft.to/lastmile_qr_scan"}, "bike_id": "baad636540680aee15a1f840bb6e7719", "name": "baad636540680aee15a1f840bb6e7719", "type": "electric_scooter", "lon": -77.02475933333334, "lat": 38.918164833333336, "is_disabled": 0, "is_reserved": 0, "fusion_lat": 0.0, "fusion_lon": 0.0}, {"rental_uris": {"android": "https://dc.lft.to/lastmile_qr_scan", "ios": "https://dc.lft.to/lastmile_qr_scan"}, "bike_id": "e11ae78b1817d0181ad948f061458b05", "name": "e11ae78b1817d0181ad948f061458b05", "type": "electric_scooter", "lon": -77.0417465, "lat": 38.9182545, "is_disabled": 0, "is_reserved": 0, "fusion_lat": 0.0, "fusion_lon": 0.0}, {"rental_uris": {"android": "https://dc.lft.to/lastmile_qr_scan", "ios": "https://dc.lft.to/lastmile_qr_scan"}, "bike_id": "93bb3d65c5425b5e8405a92184579190", "name": "93bb3d65c5425b5e8405a92184579190", "type": "electric_scooter", "lon": -77.02813183333333, "lat": 38.904778666666665, "is_disabled": 0, "is_reserved": 0, "fusion_lat": 0.0, "fusion_lon": 0.0}, {"rental_uris": {"android": "https://dc.lft.to/lastmile_qr_scan", "ios": "https://dc.lft.to/lastmile_qr_scan"}, "bike_id": "5822b4c24fb89d0d0c018ba647d1e79b", "name": "5822b4c24fb89d0d0c018ba647d1e79b", "type": "electric_scooter", "lon": -76.99525733333333, "lat": 38.862480166666664, "is_disabled": 0, "is_reserved": 0, "fusion_lat": 0.0, "fusion_lon": 0.0}, {"rental_uris": {"android": "https://dc.lft.to/lastmile_qr_scan", "ios": "https://dc.lft.to/lastmile_qr_scan"}, "bike_id": "c305b831445f834cfcd700df6dca113f", "name": "c305b831445f834cfcd700df6dca113f", "type": "electric_scooter", "lon": -77.054983, "lat": 38.936571666666666, "is_disabled": 0, "is_reserved": 0, "fusion_lat": 0.0, "fusion_lon": 0.0}, {"rental_uris": {"android": "https://dc.lft.to/lastmile_qr_scan", "ios": "https://dc.lft.to/lastmile_qr_scan"}, "bike_id": "8b0ae3a4e4513679e524866cb7a8c102", "name": "8b0ae3a4e4513679e524866cb7a8c102", "type": "electric_bike", "lon": -77.11755116666667, "lat": 39.049073166666666, "is_disabled": 0, "is_reserved": 0, "fusion_lat": 0.0, "fusion_lon": 0.0}, {"rental_uris": {"android": "https://dc.lft.to/lastmile_qr_scan", "ios": "https://dc.lft.to/lastmile_qr_scan"}, "bike_id": "48dda1e8d9a529f4f2081ec6aec0e377", "name": "48dda1e8d9a529f4f2081ec6aec0e377", "type": "electric_scooter", "lon": -77.019184, "lat": 38.923718, "is_disabled": 0, "is_reserved": 0, "fusion_lat": 0.0, "fusion_lon": 0.0}, {"rental_uris": {"android": "https://dc.lft.to/lastmile_qr_scan", "ios": "https://dc.lft.to/lastmile_qr_scan"}, "bike_id": "016c34fbea8e8c4ef609595fed9a1684", "name": "016c34fbea8e8c4ef609595fed9a1684", "type": "electric_scooter", "lon": -76.97309266666667, "lat": 38.91993983333333, "is_disabled": 0, "is_reserved": 0, "fusion_lat": 0.0, "fusion_lon": 0.0}, {"rental_uris": {"android": "https://dc.lft.to/lastmile_qr_scan", "ios": "https://dc.lft.to/lastmile_qr_scan"}, "bike_id": "bd2802853ba7cf05c25021ccee37bde3", "name": "bd2802853ba7cf05c25021ccee37bde3", "type": "electric_scooter", "lon": -77.04307933333334, "lat": 38.8810785, "is_disabled": 0, "is_reserved": 0, "fusion_lat": 0.0, "fusion_lon": 0.0}, {"rental_uris": {"android": "https://dc.lft.to/lastmile_qr_scan", "ios": "https://dc.lft.to/lastmile_qr_scan"}, "bike_id": "f57b305b8e19ac0d38f3729e8366a140", "name": "f57b305b8e19ac0d38f3729e8366a140", "type": "electric_scooter", "lon": -77.03111883333334, "lat": 38.89463083333333, "is_disabled": 0, "is_reserved": 0, "fusion_lat": 0.0, "fusion_lon": 0.0}, {"rental_uris": {"android": "https://dc.lft.to/lastmile_qr_scan", "ios": "https://dc.lft.to/lastmile_qr_scan"}, "bike_id": "839cb8bb9fe33c41f604423499aba415", "name": "839cb8bb9fe33c41f604423499aba415", "type": "electric_scooter", "lon": -77.003087, "lat": 38.90372283333333, "is_disabled": 0, "is_reserved": 0, "fusion_lat": 0.0, "fusion_lon": 0.0}, {"rental_uris": {"android": "https://dc.lft.to/lastmile_qr_scan", "ios": "https://dc.lft.to/lastmile_qr_scan"}, "bike_id": "4c7008151b4f79b097729de59f54f423", "name": "4c7008151b4f79b097729de59f54f423", "type": "electric_bike", "lon": -76.97177933333333, "lat": 38.917927, "is_disabled": 0, "is_reserved": 0, "fusion_lat": 0.0, "fusion_lon": 0.0}, {"rental_uris": {"android": "https://dc.lft.to/lastmile_qr_scan", "ios": "https://dc.lft.to/lastmile_qr_scan"}, "bike_id": "17e395458ad671f842ee77d55b9944f5", "name": "17e395458ad671f842ee77d55b9944f5", "type": "electric_scooter", "lon": -77.04515166666667, "lat": 38.90396633333334, "is_disabled": 0, "is_reserved": 0, "fusion_lat": 0.0, "fusion_lon": 0.0}, {"rental_uris": {"android": "https://dc.lft.to/lastmile_qr_scan", "ios": "https://dc.lft.to/lastmile_qr_scan"}, "bike_id": "75529f66d45826f15851597763e58f18", "name": "75529f66d45826f15851597763e58f18", "type": "electric_scooter", "lon": -76.99614783333334, "lat": 38.88490983333333, "is_disabled": 0, "is_reserved": 0, "fusion_lat": 0.0, "fusion_lon": 0.0}, {"rental_uris": {"android": "https://dc.lft.to/lastmile_qr_scan", "ios": "https://dc.lft.to/lastmile_qr_scan"}, "bike_id": "ddc4468ef6254ce88cceb6c4679fb1b4", "name": "ddc4468ef6254ce88cceb6c4679fb1b4", "type": "electric_scooter", "lon": -77.05765433333333, "lat": 38.93391883333334, "is_disabled": 0, "is_reserved": 0, "fusion_lat": 0.0, "fusion_lon": 0.0}, {"rental_uris": {"android": "https://dc.lft.to/lastmile_qr_scan", "ios": "https://dc.lft.to/lastmile_qr_scan"}, "bike_id": "d6ca0757c35bfd15b0d757e9f5835de9", "name": "d6ca0757c35bfd15b0d757e9f5835de9", "type": "electric_scooter", "lon": -77.02615866666666, "lat": 38.9170975, "is_disabled": 0, "is_reserved": 0, "fusion_lat": 0.0, "fusion_lon": 0.0}, {"rental_uris": {"android": "https://dc.lft.to/lastmile_qr_scan", "ios": "https://dc.lft.to/lastmile_qr_scan"}, "bike_id": "8a6ed8b93017bec5da5b3e09f25ec205", "name": "8a6ed8b93017bec5da5b3e09f25ec205", "type": "electric_scooter", "lon": -77.01132883333334, "lat": 38.88525333333333, "is_disabled": 0, "is_reserved": 0, "fusion_lat": 0.0, "fusion_lon": 0.0}, {"rental_uris": {"android": "https://dc.lft.to/lastmile_qr_scan", "ios": "https://dc.lft.to/lastmile_qr_scan"}, "bike_id": "14cf43972a9ed93c7573b63a237fad5d", "name": "14cf43972a9ed93c7573b63a237fad5d", "type": "electric_scooter", "lon": -77.051494, "lat": 38.903838666666665, "is_disabled": 0, "is_reserved": 0, "fusion_lat": 0.0, "fusion_lon": 0.0}, {"rental_uris": {"android": "https://dc.lft.to/lastmile_qr_scan", "ios": "https://dc.lft.to/lastmile_qr_scan"}, "bike_id": "73a9a7679e4c65c0e27c7535e7ad51b8", "name": "73a9a7679e4c65c0e27c7535e7ad51b8", "type": "electric_scooter", "lon": -77.02170883333334, "lat": 38.942902333333336, "is_disabled": 0, "is_reserved": 0, "fusion_lat": 0.0, "fusion_lon": 0.0}, {"rental_uris": {"android": "https://dc.lft.to/lastmile_qr_scan", "ios": "https://dc.lft.to/lastmile_qr_scan"}, "bike_id": "bd2dca357312b50625ec0d5c6c80bb6b", "name": "bd2dca357312b50625ec0d5c6c80bb6b", "type": "electric_scooter", "lon": -77.03782833333334, "lat": 38.922012, "is_disabled": 0, "is_reserved": 0, "fusion_lat": 0.0, "fusion_lon": 0.0}, {"rental_uris": {"android": "https://dc.lft.to/lastmile_qr_scan", "ios": "https://dc.lft.to/lastmile_qr_scan"}, "bike_id": "ce797b23a27fb561a0a84190b3008afe", "name": "ce797b23a27fb561a0a84190b3008afe", "type": "electric_bike", "lon": -77.1314585, "lat": 38.861722, "is_disabled": 0, "is_reserved": 0, "fusion_lat": 0.0, "fusion_lon": 0.0}, {"rental_uris": {"android": "https://dc.lft.to/lastmile_qr_scan", "ios": "https://dc.lft.to/lastmile_qr_scan"}, "bike_id": "bef423c45ab167da620accbffb3f293b", "name": "bef423c45ab167da620accbffb3f293b", "type": "electric_bike", "lon": -77.04649916666666, "lat": 39.0550535, "is_disabled": 0, "is_reserved": 0, "fusion_lat": 0.0, "fusion_lon": 0.0}, {"rental_uris": {"android": "https://dc.lft.to/lastmile_qr_scan", "ios": "https://dc.lft.to/lastmile_qr_scan"}, "bike_id": "76781b4e7943111222f5ffb4a52c36df", "name": "76781b4e7943111222f5ffb4a52c36df", "type": "electric_scooter", "lon": -77.03021816666667, "lat": 38.905033833333334, "is_disabled": 0, "is_reserved": 0, "fusion_lat": 0.0, "fusion_lon": 0.0}, {"rental_uris": {"android": "https://dc.lft.to/lastmile_qr_scan", "ios": "https://dc.lft.to/lastmile_qr_scan"}, "bike_id": "571de3fe097094dba39ff32e8ed5615b", "name": "571de3fe097094dba39ff32e8ed5615b", "type": "electric_scooter", "lon": -76.98884516666666, "lat": 38.866620166666664, "is_disabled": 0, "is_reserved": 0, "fusion_lat": 0.0, "fusion_lon": 0.0}, {"rental_uris": {"android": "https://dc.lft.to/lastmile_qr_scan", "ios": "https://dc.lft.to/lastmile_qr_scan"}, "bike_id": "6a999afba53ed8d5fc4b3e407cf9dd2a", "name": "6a999afba53ed8d5fc4b3e407cf9dd2a", "type": "electric_bike", "lon": -77.02898616666667, "lat": 38.99872833333333, "is_disabled": 0, "is_reserved": 0, "fusion_lat": 0.0, "fusion_lon": 0.0}, {"rental_uris": {"android": "https://dc.lft.to/lastmile_qr_scan", "ios": "https://dc.lft.to/lastmile_qr_scan"}, "bike_id": "615ab975406f2eb5d769010adb28197a", "name": "615ab975406f2eb5d769010adb28197a", "type": "electric_scooter", "lon": -77.03421466666667, "lat": 38.9125275, "is_disabled": 0, "is_reserved": 0, "fusion_lat": 0.0, "fusion_lon": 0.0}, {"rental_uris": {"android": "https://dc.lft.to/lastmile_qr_scan", "ios": "https://dc.lft.to/lastmile_qr_scan"}, "bike_id": "84dc8a3ec73d6a41ae2a8f74c71c8d6a", "name": "84dc8a3ec73d6a41ae2a8f74c71c8d6a", "type": "electric_bike", "lon": -77.216499, "lat": 38.930135666666665, "is_disabled": 0, "is_reserved": 0, "fusion_lat": 0.0, "fusion_lon": 0.0}, {"rental_uris": {"android": "https://dc.lft.to/lastmile_qr_scan", "ios": "https://dc.lft.to/lastmile_qr_scan"}, "bike_id": "3afdd33b61474f4584a3cacbf5747f08", "name": "3afdd33b61474f4584a3cacbf5747f08", "type": "electric_scooter", "lon": -77.0239285, "lat": 38.919583833333334, "is_disabled": 0, "is_reserved": 0, "fusion_lat": 0.0, "fusion_lon": 0.0}, {"rental_uris": {"android": "https://dc.lft.to/lastmile_qr_scan", "ios": "https://dc.lft.to/lastmile_qr_scan"}, "bike_id": "f11de4d3a87841fe25bbafcabe78c3e0", "name": "f11de4d3a87841fe25bbafcabe78c3e0", "type": "electric_bike", "lon": -77.05876483333333, "lat": 38.958954166666665, "is_disabled": 0, "is_reserved": 0, "fusion_lat": 0.0, "fusion_lon": 0.0}, {"rental_uris": {"android": "https://dc.lft.to/lastmile_qr_scan", "ios": "https://dc.lft.to/lastmile_qr_scan"}, "bike_id": "b3dce8a110fa1445c9384dea056e1f98", "name": "b3dce8a110fa1445c9384dea056e1f98", "type": "electric_scooter", "lon": -76.93738483333334, "lat": 38.890209166666665, "is_disabled": 0, "is_reserved": 0, "fusion_lat": 0.0, "fusion_lon": 0.0}, {"rental_uris": {"android": "https://dc.lft.to/lastmile_qr_scan", "ios": "https://dc.lft.to/lastmile_qr_scan"}, "bike_id": "4dc6a444310b9d4c4cd1c06cf92cdfbb", "name": "4dc6a444310b9d4c4cd1c06cf92cdfbb", "type": "electric_scooter", "lon": -77.04204233333333, "lat": 38.90700183333333, "is_disabled": 0, "is_reserved": 0, "fusion_lat": 0.0, "fusion_lon": 0.0}, {"rental_uris": {"android": "https://dc.lft.to/lastmile_qr_scan", "ios": "https://dc.lft.to/lastmile_qr_scan"}, "bike_id": "19e8acb9d868539905a898c322a8f1d9", "name": "19e8acb9d868539905a898c322a8f1d9", "type": "electric_scooter", "lon": -77.003483, "lat": 38.90825666666667, "is_disabled": 0, "is_reserved": 0, "fusion_lat": 0.0, "fusion_lon": 0.0}, {"rental_uris": {"android": "https://dc.lft.to/lastmile_qr_scan", "ios": "https://dc.lft.to/lastmile_qr_scan"}, "bike_id": "f92ad6fdc3daf3353ec733e752ec317b", "name": "f92ad6fdc3daf3353ec733e752ec317b", "type": "electric_scooter", "lon": -77.0228795, "lat": 38.92728816666666, "is_disabled": 0, "is_reserved": 0, "fusion_lat": 0.0, "fusion_lon": 0.0}, {"rental_uris": {"android": "https://dc.lft.to/lastmile_qr_scan", "ios": "https://dc.lft.to/lastmile_qr_scan"}, "bike_id": "0af3bddd98a706b607a807344451aa43", "name": "0af3bddd98a706b607a807344451aa43", "type": "electric_scooter", "lon": -77.02417783333334, "lat": 38.905628, "is_disabled": 0, "is_reserved": 0, "fusion_lat": 0.0, "fusion_lon": 0.0}, {"rental_uris": {"android": "https://dc.lft.to/lastmile_qr_scan", "ios": "https://dc.lft.to/lastmile_qr_scan"}, "bike_id": "5afc33ddfede8e1ed2c0a0b29098991f", "name": "5afc33ddfede8e1ed2c0a0b29098991f", "type": "electric_scooter", "lon": -77.060103, "lat": 38.90175833333333, "is_disabled": 0, "is_reserved": 0, "fusion_lat": 0.0, "fusion_lon": 0.0}, {"rental_uris": {"android": "https://dc.lft.to/lastmile_qr_scan", "ios": "https://dc.lft.to/lastmile_qr_scan"}, "bike_id": "2c116ee3d7a789151a3c51771eced379", "name": "2c116ee3d7a789151a3c51771eced379", "type": "electric_scooter", "lon": -77.01400333333333, "lat": 38.92835516666667, "is_disabled": 0, "is_reserved": 0, "fusion_lat": 0.0, "fusion_lon": 0.0}, {"rental_uris": {"android": "https://dc.lft.to/lastmile_qr_scan", "ios": "https://dc.lft.to/lastmile_qr_scan"}, "bike_id": "a35d78cc2f859c87ad73414080ed2276", "name": "a35d78cc2f859c87ad73414080ed2276", "type": "electric_scooter", "lon": -76.999034, "lat": 38.948244833333334, "is_disabled": 0, "is_reserved": 0, "fusion_lat": 0.0, "fusion_lon": 0.0}, {"rental_uris": {"android": "https://dc.lft.to/lastmile_qr_scan", "ios": "https://dc.lft.to/lastmile_qr_scan"}, "bike_id": "ce5bbf1ec505cddcb68d1889b21669ee", "name": "ce5bbf1ec505cddcb68d1889b21669ee", "type": "electric_scooter", "lon": -77.04026733333333, "lat": 38.9183585, "is_disabled": 0, "is_reserved": 0, "fusion_lat": 0.0, "fusion_lon": 0.0}, {"rental_uris": {"android": "https://dc.lft.to/lastmile_qr_scan", "ios": "https://dc.lft.to/lastmile_qr_scan"}, "bike_id": "bb292d96dc6074fce72ecaacbdded346", "name": "bb292d96dc6074fce72ecaacbdded346", "type": "electric_scooter", "lon": -77.02817666666667, "lat": 38.9104445, "is_disabled": 0, "is_reserved": 0, "fusion_lat": 0.0, "fusion_lon": 0.0}, {"rental_uris": {"android": "https://dc.lft.to/lastmile_qr_scan", "ios": "https://dc.lft.to/lastmile_qr_scan"}, "bike_id": "6d0f6f8f4aa75b92a343a3b11495542a", "name": "6d0f6f8f4aa75b92a343a3b11495542a", "type": "electric_bike", "lon": -76.99677716666666, "lat": 38.9248795, "is_disabled": 0, "is_reserved": 0, "fusion_lat": 0.0, "fusion_lon": 0.0}, {"rental_uris": {"android": "https://dc.lft.to/lastmile_qr_scan", "ios": "https://dc.lft.to/lastmile_qr_scan"}, "bike_id": "354a8adf97d86f038f0f7af72307f866", "name": "354a8adf97d86f038f0f7af72307f866", "type": "electric_scooter", "lon": -77.02996333333333, "lat": 38.89729283333333, "is_disabled": 0, "is_reserved": 0, "fusion_lat": 0.0, "fusion_lon": 0.0}, {"rental_uris": {"android": "https://dc.lft.to/lastmile_qr_scan", "ios": "https://dc.lft.to/lastmile_qr_scan"}, "bike_id": "9e71b488562b6bf9785a69a5aff8edf8", "name": "9e71b488562b6bf9785a69a5aff8edf8", "type": "electric_scooter", "lon": -77.04026316666666, "lat": 38.90381933333333, "is_disabled": 0, "is_reserved": 0, "fusion_lat": 0.0, "fusion_lon": 0.0}, {"rental_uris": {"android": "https://dc.lft.to/lastmile_qr_scan", "ios": "https://dc.lft.to/lastmile_qr_scan"}, "bike_id": "583bf2ebe1c4e14298ae05aef2d825c3", "name": "583bf2ebe1c4e14298ae05aef2d825c3", "type": "electric_scooter", "lon": -77.02494383333334, "lat": 38.943106666666665, "is_disabled": 0, "is_reserved": 0, "fusion_lat": 0.0, "fusion_lon": 0.0}, {"rental_uris": {"android": "https://dc.lft.to/lastmile_qr_scan", "ios": "https://dc.lft.to/lastmile_qr_scan"}, "bike_id": "6e84f1743ae8110f86cf2cc55c785cf1", "name": "6e84f1743ae8110f86cf2cc55c785cf1", "type": "electric_bike", "lon": -76.98690116666667, "lat": 38.944818, "is_disabled": 0, "is_reserved": 0, "fusion_lat": 0.0, "fusion_lon": 0.0}, {"rental_uris": {"android": "https://dc.lft.to/lastmile_qr_scan", "ios": "https://dc.lft.to/lastmile_qr_scan"}, "bike_id": "8dfe5fc8e9ff296b6ec93a8e78265bb8", "name": "8dfe5fc8e9ff296b6ec93a8e78265bb8", "type": "electric_bike", "lon": -77.081465, "lat": 38.9526185, "is_disabled": 0, "is_reserved": 0, "fusion_lat": 0.0, "fusion_lon": 0.0}, {"rental_uris": {"android": "https://dc.lft.to/lastmile_qr_scan", "ios": "https://dc.lft.to/lastmile_qr_scan"}, "bike_id": "d42e549c3f10170fc32bb0a0cce612ce", "name": "d42e549c3f10170fc32bb0a0cce612ce", "type": "electric_scooter", "lon": -77.0554275, "lat": 38.930111, "is_disabled": 0, "is_reserved": 0, "fusion_lat": 0.0, "fusion_lon": 0.0}, {"rental_uris": {"android": "https://dc.lft.to/lastmile_qr_scan", "ios": "https://dc.lft.to/lastmile_qr_scan"}, "bike_id": "70807a91f899a603f7bdf2ffa6bb0953", "name": "70807a91f899a603f7bdf2ffa6bb0953", "type": "electric_scooter", "lon": -77.03671066666666, "lat": 38.9272175, "is_disabled": 0, "is_reserved": 0, "fusion_lat": 0.0, "fusion_lon": 0.0}, {"rental_uris": {"android": "https://dc.lft.to/lastmile_qr_scan", "ios": "https://dc.lft.to/lastmile_qr_scan"}, "bike_id": "e17da6fe425f948852bd392bcd6e2533", "name": "e17da6fe425f948852bd392bcd6e2533", "type": "electric_scooter", "lon": -77.0486875, "lat": 38.89221166666667, "is_disabled": 0, "is_reserved": 0, "fusion_lat": 0.0, "fusion_lon": 0.0}, {"rental_uris": {"android": "https://dc.lft.to/lastmile_qr_scan", "ios": "https://dc.lft.to/lastmile_qr_scan"}, "bike_id": "032b4b1066e1a68e8cd09ece222ed917", "name": "032b4b1066e1a68e8cd09ece222ed917", "type": "electric_scooter", "lon": -77.03132483333333, "lat": 38.92377466666667, "is_disabled": 0, "is_reserved": 0, "fusion_lat": 0.0, "fusion_lon": 0.0}, {"rental_uris": {"android": "https://dc.lft.to/lastmile_qr_scan", "ios": "https://dc.lft.to/lastmile_qr_scan"}, "bike_id": "c977d334ba22953651f3eb409bfebc18", "name": "c977d334ba22953651f3eb409bfebc18", "type": "electric_scooter", "lon": -77.03733433333333, "lat": 38.93572483333333, "is_disabled": 0, "is_reserved": 0, "fusion_lat": 0.0, "fusion_lon": 0.0}, {"rental_uris": {"android": "https://dc.lft.to/lastmile_qr_scan", "ios": "https://dc.lft.to/lastmile_qr_scan"}, "bike_id": "80967c065c1dfbecb1723e181625907f", "name": "80967c065c1dfbecb1723e181625907f", "type": "electric_scooter", "lon": -77.0583885, "lat": 38.910467833333335, "is_disabled": 0, "is_reserved": 0, "fusion_lat": 0.0, "fusion_lon": 0.0}, {"rental_uris": {"android": "https://dc.lft.to/lastmile_qr_scan", "ios": "https://dc.lft.to/lastmile_qr_scan"}, "bike_id": "83b103446c5609e4904dad1d3829067b", "name": "83b103446c5609e4904dad1d3829067b", "type": "electric_bike", "lon": -77.2084045, "lat": 38.924731333333334, "is_disabled": 0, "is_reserved": 0, "fusion_lat": 0.0, "fusion_lon": 0.0}, {"rental_uris": {"android": "https://dc.lft.to/lastmile_qr_scan", "ios": "https://dc.lft.to/lastmile_qr_scan"}, "bike_id": "75b9a1a0afb7e88b3168784d5f36324e", "name": "75b9a1a0afb7e88b3168784d5f36324e", "type": "electric_scooter", "lon": -76.999247, "lat": 38.9203855, "is_disabled": 0, "is_reserved": 0, "fusion_lat": 0.0, "fusion_lon": 0.0}, {"rental_uris": {"android": "https://dc.lft.to/lastmile_qr_scan", "ios": "https://dc.lft.to/lastmile_qr_scan"}, "bike_id": "5c1aa8e561c7c1276f132766350a6a3b", "name": "5c1aa8e561c7c1276f132766350a6a3b", "type": "electric_bike", "lon": -77.11352483333333, "lat": 38.83094333333333, "is_disabled": 0, "is_reserved": 0, "fusion_lat": 0.0, "fusion_lon": 0.0}, {"rental_uris": {"android": "https://dc.lft.to/lastmile_qr_scan", "ios": "https://dc.lft.to/lastmile_qr_scan"}, "bike_id": "bd6370c79aaf8b9022a9db15e04ccd16", "name": "bd6370c79aaf8b9022a9db15e04ccd16", "type": "electric_bike", "lon": -77.00232133333333, "lat": 38.819335333333335, "is_disabled": 0, "is_reserved": 0, "fusion_lat": 0.0, "fusion_lon": 0.0}, {"rental_uris": {"android": "https://dc.lft.to/lastmile_qr_scan", "ios": "https://dc.lft.to/lastmile_qr_scan"}, "bike_id": "d1c5ef87812d65dbbf9ca00537a49897", "name": "d1c5ef87812d65dbbf9ca00537a49897", "type": "electric_scooter", "lon": -77.018855, "lat": 38.9226345, "is_disabled": 0, "is_reserved": 0, "fusion_lat": 0.0, "fusion_lon": 0.0}, {"rental_uris": {"android": "https://dc.lft.to/lastmile_qr_scan", "ios": "https://dc.lft.to/lastmile_qr_scan"}, "bike_id": "99ff0df571b1503b131623023b5d7cc3", "name": "99ff0df571b1503b131623023b5d7cc3", "type": "electric_scooter", "lon": -77.014121, "lat": 38.928551666666664, "is_disabled": 0, "is_reserved": 0, "fusion_lat": 0.0, "fusion_lon": 0.0}, {"rental_uris": {"android": "https://dc.lft.to/lastmile_qr_scan", "ios": "https://dc.lft.to/lastmile_qr_scan"}, "bike_id": "e44c3b3809b9dd8333b71c691f0efa84", "name": "e44c3b3809b9dd8333b71c691f0efa84", "type": "electric_scooter", "lon": -77.05899033333333, "lat": 38.90308066666667, "is_disabled": 0, "is_reserved": 0, "fusion_lat": 0.0, "fusion_lon": 0.0}, {"rental_uris": {"android": "https://dc.lft.to/lastmile_qr_scan", "ios": "https://dc.lft.to/lastmile_qr_scan"}, "bike_id": "d700cc41f1e2a8b00b9bb93bc342cf3f", "name": "d700cc41f1e2a8b00b9bb93bc342cf3f", "type": "electric_scooter", "lon": -77.03126883333333, "lat": 38.92014666666667, "is_disabled": 0, "is_reserved": 0, "fusion_lat": 0.0, "fusion_lon": 0.0}, {"rental_uris": {"android": "https://dc.lft.to/lastmile_qr_scan", "ios": "https://dc.lft.to/lastmile_qr_scan"}, "bike_id": "125ee131fccd670ec06b77261d67c088", "name": "125ee131fccd670ec06b77261d67c088", "type": "electric_scooter", "lon": -76.99000533333333, "lat": 38.86419033333333, "is_disabled": 0, "is_reserved": 0, "fusion_lat": 0.0, "fusion_lon": 0.0}, {"rental_uris": {"android": "https://dc.lft.to/lastmile_qr_scan", "ios": "https://dc.lft.to/lastmile_qr_scan"}, "bike_id": "7fd960b359d046d0a0eb90fcaf2aedc8", "name": "7fd960b359d046d0a0eb90fcaf2aedc8", "type": "electric_scooter", "lon": -77.03449433333333, "lat": 38.906248833333336, "is_disabled": 0, "is_reserved": 0, "fusion_lat": 0.0, "fusion_lon": 0.0}, {"rental_uris": {"android": "https://dc.lft.to/lastmile_qr_scan", "ios": "https://dc.lft.to/lastmile_qr_scan"}, "bike_id": "0721fcd6b8dea1ea2c312ee17e801c6f", "name": "0721fcd6b8dea1ea2c312ee17e801c6f", "type": "electric_scooter", "lon": -77.02800616666667, "lat": 38.8989395, "is_disabled": 0, "is_reserved": 0, "fusion_lat": 0.0, "fusion_lon": 0.0}, {"rental_uris": {"android": "https://dc.lft.to/lastmile_qr_scan", "ios": "https://dc.lft.to/lastmile_qr_scan"}, "bike_id": "d714cc6aed91ea4bfa180cccd821d74a", "name": "d714cc6aed91ea4bfa180cccd821d74a", "type": "electric_scooter", "lon": -77.00209966666667, "lat": 38.900740166666665, "is_disabled": 0, "is_reserved": 0, "fusion_lat": 0.0, "fusion_lon": 0.0}, {"rental_uris": {"android": "https://dc.lft.to/lastmile_qr_scan", "ios": "https://dc.lft.to/lastmile_qr_scan"}, "bike_id": "3a635f34f70dd5a3bf49d1a623c506a1", "name": "3a635f34f70dd5a3bf49d1a623c506a1", "type": "electric_scooter", "lon": -77.03440866666666, "lat": 38.90971583333334, "is_disabled": 0, "is_reserved": 0, "fusion_lat": 0.0, "fusion_lon": 0.0}, {"rental_uris": {"android": "https://dc.lft.to/lastmile_qr_scan", "ios": "https://dc.lft.to/lastmile_qr_scan"}, "bike_id": "74f9be7be865787613328bde2f064f69", "name": "74f9be7be865787613328bde2f064f69", "type": "electric_bike", "lon": -77.0083085, "lat": 38.829093666666665, "is_disabled": 0, "is_reserved": 0, "fusion_lat": 0.0, "fusion_lon": 0.0}, {"rental_uris": {"android": "https://dc.lft.to/lastmile_qr_scan", "ios": "https://dc.lft.to/lastmile_qr_scan"}, "bike_id": "934fc53909a971ff07dd5052cee3da6c", "name": "934fc53909a971ff07dd5052cee3da6c", "type": "electric_bike", "lon": -76.94536533333333, "lat": 38.86460483333333, "is_disabled": 0, "is_reserved": 0, "fusion_lat": 0.0, "fusion_lon": 0.0}, {"rental_uris": {"android": "https://dc.lft.to/lastmile_qr_scan", "ios": "https://dc.lft.to/lastmile_qr_scan"}, "bike_id": "18a508db0eec51e7d2749cae4e105def", "name": "18a508db0eec51e7d2749cae4e105def", "type": "electric_scooter", "lon": -77.037727, "lat": 38.916909, "is_disabled": 0, "is_reserved": 0, "fusion_lat": 0.0, "fusion_lon": 0.0}, {"rental_uris": {"android": "https://dc.lft.to/lastmile_qr_scan", "ios": "https://dc.lft.to/lastmile_qr_scan"}, "bike_id": "253605158c89d2b0f39024b9fa09c97a", "name": "253605158c89d2b0f39024b9fa09c97a", "type": "electric_scooter", "lon": -77.03866316666667, "lat": 38.917111, "is_disabled": 0, "is_reserved": 0, "fusion_lat": 0.0, "fusion_lon": 0.0}, {"rental_uris": {"android": "https://dc.lft.to/lastmile_qr_scan", "ios": "https://dc.lft.to/lastmile_qr_scan"}, "bike_id": "7867378e932646566d34559305c4e31d", "name": "7867378e932646566d34559305c4e31d", "type": "electric_scooter", "lon": -76.98596066666667, "lat": 38.91049, "is_disabled": 0, "is_reserved": 0, "fusion_lat": 0.0, "fusion_lon": 0.0}, {"rental_uris": {"android": "https://dc.lft.to/lastmile_qr_scan", "ios": "https://dc.lft.to/lastmile_qr_scan"}, "bike_id": "58c2c02ed6dd8a937c15f09c358abf49", "name": "58c2c02ed6dd8a937c15f09c358abf49", "type": "electric_scooter", "lon": -76.9953335, "lat": 38.862482, "is_disabled": 0, "is_reserved": 0, "fusion_lat": 0.0, "fusion_lon": 0.0}, {"rental_uris": {"android": "https://dc.lft.to/lastmile_qr_scan", "ios": "https://dc.lft.to/lastmile_qr_scan"}, "bike_id": "c55bfed39f36d672b856c537490a638e", "name": "c55bfed39f36d672b856c537490a638e", "type": "electric_scooter", "lon": -77.03041033333334, "lat": 38.938751333333336, "is_disabled": 0, "is_reserved": 0, "fusion_lat": 0.0, "fusion_lon": 0.0}, {"rental_uris": {"android": "https://dc.lft.to/lastmile_qr_scan", "ios": "https://dc.lft.to/lastmile_qr_scan"}, "bike_id": "c37c911642f3384d73e62feed8d7d902", "name": "c37c911642f3384d73e62feed8d7d902", "type": "electric_scooter", "lon": -77.04137033333333, "lat": 38.922599, "is_disabled": 0, "is_reserved": 0, "fusion_lat": 0.0, "fusion_lon": 0.0}, {"rental_uris": {"android": "https://dc.lft.to/lastmile_qr_scan", "ios": "https://dc.lft.to/lastmile_qr_scan"}, "bike_id": "9b6fd98ad756d1fea2ca151a24898889", "name": "9b6fd98ad756d1fea2ca151a24898889", "type": "electric_scooter", "lon": -76.949425, "lat": 38.89496166666667, "is_disabled": 0, "is_reserved": 0, "fusion_lat": 0.0, "fusion_lon": 0.0}, {"rental_uris": {"android": "https://dc.lft.to/lastmile_qr_scan", "ios": "https://dc.lft.to/lastmile_qr_scan"},