{"data": {"bikes": [{"lon": -77.00362316666667, "bike_id": "d3c6ddd3d30a995bfab53212398d70f9", "lat": 38.916699333333334, "fusion_lon": 0.0, "fusion_lat": 0.0, "type": "electric_scooter", "name": "d3c6ddd3d30a995bfab53212398d70f9", "is_disabled": 0, "rental_uris": {"ios": "https://dc.lft.to/lastmile_qr_scan", "android": "https://dc.lft.to/lastmile_qr_scan"}, "is_reserved": 0}, {"lon": -77.04690983333333, "bike_id": "c575206b987ad328baec4f5f9724b612", "lat": 39.02388766666667, "fusion_lon": 0.0, "fusion_lat": 0.0, "type": "electric_bike", "name": "c575206b987ad328baec4f5f9724b612", "is_disabled": 0, "rental_uris": {"ios": "https://dc.lft.to/lastmile_qr_scan", "android": "https://dc.lft.to/lastmile_qr_scan"}, "is_reserved": 0}, {"lon": -77.0573125, "bike_id": "b0e1c88822c6222e289753cea040ee2e", "lat": 38.93369416666667, "fusion_lon": 0.0, "fusion_lat": 0.0, "type": "electric_scooter", "name": "b0e1c88822c6222e289753cea040ee2e", "is_disabled": 0, "rental_uris": {"ios": "https://dc.lft.to/lastmile_qr_scan", "android": "https://dc.lft.to/lastmile_qr_scan"}, "is_reserved": 0}, {"lon": -76.98233666666667, "bike_id": "17943b622b1128ad481ad8b76a3cded7", "lat": 38.916437, "fusion_lon": 0.0, "fusion_lat": 0.0, "type": "electric_scooter", "name": "17943b622b1128ad481ad8b76a3cded7", "is_disabled": 0, "rental_uris": {"ios": "https://dc.lft.to/lastmile_qr_scan", "android": "https://dc.lft.to/lastmile_qr_scan"}, "is_reserved": 0}, {"lon": -77.05095483333334, "bike_id": "57e77fe20408afcb197f63503e514825", "lat": 38.909671, "fusion_lon": 0.0, "fusion_lat": 0.0, "type": "electric_scooter", "name": "57e77fe20408afcb197f63503e514825", "is_disabled": 0, "rental_uris": {"ios": "https://dc.lft.to/lastmile_qr_scan", "android": "https://dc.lft.to/lastmile_qr_scan"}, "is_reserved": 0}, {"lon": -77.0279895, "bike_id": "307bc8f9d6d08bd4d6629bf51087af42", "lat": 38.934215333333334, "fusion_lon": 0.0, "fusion_lat": 0.0, "type": "electric_scooter", "name": "307bc8f9d6d08bd4d6629bf51087af42", "is_disabled": 0, "rental_uris": {"ios": "https://dc.lft.to/lastmile_qr_scan", "android": "https://dc.lft.to/lastmile_qr_scan"}, "is_reserved": 0}, {"lon": -77.0370435, "bike_id": "c542bc76205069d148569d0a3ec72cbf", "lat": 38.932704333333334, "fusion_lon": 0.0, "fusion_lat": 0.0, "type": "electric_scooter", "name": "c542bc76205069d148569d0a3ec72cbf", "is_disabled": 0, "rental_uris": {"ios": "https://dc.lft.to/lastmile_qr_scan", "android": "https://dc.lft.to/lastmile_qr_scan"}, "is_reserved": 0}, {"lon": -77.04583983333333, "bike_id": "f78fca15e3e7b68db5452654751ec996", "lat": 38.92122633333334, "fusion_lon": 0.0, "fusion_lat": 0.0, "type": "electric_scooter", "name": "f78fca15e3e7b68db5452654751ec996", "is_disabled": 0, "rental_uris": {"ios": "https://dc.lft.to/lastmile_qr_scan", "android": "https://dc.lft.to/lastmile_qr_scan"}, "is_reserved": 0}, {"lon": -76.99508983333334, "bike_id": "8c9480ca54cbc98408306886e6513aef", "lat": 38.88051033333333, "fusion_lon": 0.0, "fusion_lat": 0.0, "type": "electric_scooter", "name": "8c9480ca54cbc98408306886e6513aef", "is_disabled": 0, "rental_uris": {"ios": "https://dc.lft.to/lastmile_qr_scan", "android": "https://dc.lft.to/lastmile_qr_scan"}, "is_reserved": 0}, {"lon": -77.016227, "bike_id": "f89b71984e91c600d22d4d93f2928d7d", "lat": 38.91008, "fusion_lon": 0.0, "fusion_lat": 0.0, "type": "electric_scooter", "name": "f89b71984e91c600d22d4d93f2928d7d", "is_disabled": 0, "rental_uris": {"ios": "https://dc.lft.to/lastmile_qr_scan", "android": "https://dc.lft.to/lastmile_qr_scan"}, "is_reserved": 0}, {"lon": -77.02282433333333, "bike_id": "60fb5049e24f1e976c0889cfc9c8cadc", "lat": 38.901539666666665, "fusion_lon": 0.0, "fusion_lat": 0.0, "type": "electric_scooter", "name": "60fb5049e24f1e976c0889cfc9c8cadc", "is_disabled": 0, "rental_uris": {"ios": "https://dc.lft.to/lastmile_qr_scan", "android": "https://dc.lft.to/lastmile_qr_scan"}, "is_reserved": 0}, {"lon": -77.031832, "bike_id": "5636df9c2d9c2fcc00820f7594e7a225", "lat": 38.936908, "fusion_lon": 0.0, "fusion_lat": 0.0, "type": "electric_scooter", "name": "5636df9c2d9c2fcc00820f7594e7a225", "is_disabled": 0, "rental_uris": {"ios": "https://dc.lft.to/lastmile_qr_scan", "android": "https://dc.lft.to/lastmile_qr_scan"}, "is_reserved": 0}, {"lon": -76.973241, "bike_id": "1fc7eaeff8738a072b5e60abcd11af65", "lat": 38.865517, "fusion_lon": 0.0, "fusion_lat": 0.0, "type": "electric_scooter", "name": "1fc7eaeff8738a072b5e60abcd11af65", "is_disabled": 0, "rental_uris": {"ios": "https://dc.lft.to/lastmile_qr_scan", "android": "https://dc.lft.to/lastmile_qr_scan"}, "is_reserved": 0}, {"lon": -77.11156883333334, "bike_id": "1ff26334303b5ab5bc1883c11200eb0b", "lat": 38.855025, "fusion_lon": 0.0, "fusion_lat": 0.0, "type": "electric_bike", "name": "1ff26334303b5ab5bc1883c11200eb0b", "is_disabled": 0, "rental_uris": {"ios": "https://dc.lft.to/lastmile_qr_scan", "android": "https://dc.lft.to/lastmile_qr_scan"}, "is_reserved": 0}, {"lon": -77.02424766666667, "bike_id": "4f145ae892e2cc60109c0565c8836d8c", "lat": 38.920845666666665, "fusion_lon": 0.0, "fusion_lat": 0.0, "type": "electric_scooter", "name": "4f145ae892e2cc60109c0565c8836d8c", "is_disabled": 0, "rental_uris": {"ios": "https://dc.lft.to/lastmile_qr_scan", "android": "https://dc.lft.to/lastmile_qr_scan"}, "is_reserved": 0}, {"lon": -77.10490066666667, "bike_id": "60394852e07f59a10fe9eafd0145270f", "lat": 38.855998, "fusion_lon": 0.0, "fusion_lat": 0.0, "type": "electric_bike", "name": "60394852e07f59a10fe9eafd0145270f", "is_disabled": 0, "rental_uris": {"ios": "https://dc.lft.to/lastmile_qr_scan", "android": "https://dc.lft.to/lastmile_qr_scan"}, "is_reserved": 0}, {"lon": -77.0056585, "bike_id": "217bf519d5504aa98694fbba526793bb", "lat": 38.874682166666666, "fusion_lon": 0.0, "fusion_lat": 0.0, "type": "electric_scooter", "name": "217bf519d5504aa98694fbba526793bb", "is_disabled": 0, "rental_uris": {"ios": "https://dc.lft.to/lastmile_qr_scan", "android": "https://dc.lft.to/lastmile_qr_scan"}, "is_reserved": 0}, {"lon": -77.0296105, "bike_id": "8bc25b326e7ac51dcf56f400564630e7", "lat": 38.910722166666666, "fusion_lon": 0.0, "fusion_lat": 0.0, "type": "electric_scooter", "name": "8bc25b326e7ac51dcf56f400564630e7", "is_disabled": 0, "rental_uris": {"ios": "https://dc.lft.to/lastmile_qr_scan", "android": "https://dc.lft.to/lastmile_qr_scan"}, "is_reserved": 0}, {"lon": -77.04585666666667, "bike_id": "1c9aedad7c8b821fdca158d91c25b946", "lat": 38.908511833333336, "fusion_lon": 0.0, "fusion_lat": 0.0, "type": "electric_scooter", "name": "1c9aedad7c8b821fdca158d91c25b946", "is_disabled": 0, "rental_uris": {"ios": "https://dc.lft.to/lastmile_qr_scan", "android": "https://dc.lft.to/lastmile_qr_scan"}, "is_reserved": 0}, {"lon": -77.07296416666667, "bike_id": "dca968cbd0791df59fc998be1034af7e", "lat": 38.92461133333333, "fusion_lon": 0.0, "fusion_lat": 0.0, "type": "electric_scooter", "name": "dca968cbd0791df59fc998be1034af7e", "is_disabled": 0, "rental_uris": {"ios": "https://dc.lft.to/lastmile_qr_scan", "android": "https://dc.lft.to/lastmile_qr_scan"}, "is_reserved": 0}, {"lon": -76.98232533333334, "bike_id": "1a392b463640506a477578fb02e01e47", "lat": 38.8864165, "fusion_lon": 0.0, "fusion_lat": 0.0, "type": "electric_scooter", "name": "1a392b463640506a477578fb02e01e47", "is_disabled": 0, "rental_uris": {"ios": "https://dc.lft.to/lastmile_qr_scan", "android": "https://dc.lft.to/lastmile_qr_scan"}, "is_reserved": 0}, {"lon": -77.02219616666666, "bike_id": "6c3b2426dda5204e9ff09d0a58bd6156", "lat": 38.89971666666667, "fusion_lon": 0.0, "fusion_lat": 0.0, "type": "electric_scooter", "name": "6c3b2426dda5204e9ff09d0a58bd6156", "is_disabled": 0, "rental_uris": {"ios": "https://dc.lft.to/lastmile_qr_scan", "android": "https://dc.lft.to/lastmile_qr_scan"}, "is_reserved": 0}, {"lon": -77.04866666666666, "bike_id": "6272fe1cbce223cde73a5cd19f82ec11", "lat": 38.906448833333336, "fusion_lon": 0.0, "fusion_lat": 0.0, "type": "electric_scooter", "name": "6272fe1cbce223cde73a5cd19f82ec11", "is_disabled": 0, "rental_uris": {"ios": "https://dc.lft.to/lastmile_qr_scan", "android": "https://dc.lft.to/lastmile_qr_scan"}, "is_reserved": 0}, {"lon": -77.02599233333333, "bike_id": "88d4fafe4b1d9c0c76bb45a3b0bb75da", "lat": 38.91411133333333, "fusion_lon": 0.0, "fusion_lat": 0.0, "type": "electric_scooter", "name": "88d4fafe4b1d9c0c76bb45a3b0bb75da", "is_disabled": 0, "rental_uris": {"ios": "https://dc.lft.to/lastmile_qr_scan", "android": "https://dc.lft.to/lastmile_qr_scan"}, "is_reserved": 0}, {"lon": -77.05499283333333, "bike_id": "cf01149c31d4b1cad0387bedd1d9836c", "lat": 38.899928833333334, "fusion_lon": 0.0, "fusion_lat": 0.0, "type": "electric_scooter", "name": "cf01149c31d4b1cad0387bedd1d9836c", "is_disabled": 0, "rental_uris": {"ios": "https://dc.lft.to/lastmile_qr_scan", "android": "https://dc.lft.to/lastmile_qr_scan"}, "is_reserved": 0}, {"lon": -77.04377033333333, "bike_id": "229a7a85f669071820c3ce945d7eeead", "lat": 38.902307, "fusion_lon": 0.0, "fusion_lat": 0.0, "type": "electric_scooter", "name": "229a7a85f669071820c3ce945d7eeead", "is_disabled": 0, "rental_uris": {"ios": "https://dc.lft.to/lastmile_qr_scan", "android": "https://dc.lft.to/lastmile_qr_scan"}, "is_reserved": 0}, {"lon": -77.03044833333334, "bike_id": "2f73da06124d8b9551d462870ec6cc80", "lat": 38.913268333333335, "fusion_lon": 0.0, "fusion_lat": 0.0, "type": "electric_scooter", "name": "2f73da06124d8b9551d462870ec6cc80", "is_disabled": 0, "rental_uris": {"ios": "https://dc.lft.to/lastmile_qr_scan", "android": "https://dc.lft.to/lastmile_qr_scan"}, "is_reserved": 0}, {"lon": -77.04226783333333, "bike_id": "1ea2633cdc61d0d0f245bd6a44ceaf2c", "lat": 38.92122116666667, "fusion_lon": 0.0, "fusion_lat": 0.0, "type": "electric_scooter", "name": "1ea2633cdc61d0d0f245bd6a44ceaf2c", "is_disabled": 0, "rental_uris": {"ios": "https://dc.lft.to/lastmile_qr_scan", "android": "https://dc.lft.to/lastmile_qr_scan"}, "is_reserved": 0}, {"lon": -76.98617916666667, "bike_id": "029abd38553bc7e91134520499ca3428", "lat": 38.88275216666667, "fusion_lon": 0.0, "fusion_lat": 0.0, "type": "electric_scooter", "name": "029abd38553bc7e91134520499ca3428", "is_disabled": 0, "rental_uris": {"ios": "https://dc.lft.to/lastmile_qr_scan", "android": "https://dc.lft.to/lastmile_qr_scan"}, "is_reserved": 0}, {"lon": -77.03225416666666, "bike_id": "5378169ef720d3fdf178f19bd06e8d9f", "lat": 38.917015, "fusion_lon": 0.0, "fusion_lat": 0.0, "type": "electric_scooter", "name": "5378169ef720d3fdf178f19bd06e8d9f", "is_disabled": 0, "rental_uris": {"ios": "https://dc.lft.to/lastmile_qr_scan", "android": "https://dc.lft.to/lastmile_qr_scan"}, "is_reserved": 0}, {"lon": -76.97332283333333, "bike_id": "6bcda50db34cd123c33a99db44be562d", "lat": 38.8651065, "fusion_lon": 0.0, "fusion_lat": 0.0, "type": "electric_scooter", "name": "6bcda50db34cd123c33a99db44be562d", "is_disabled": 0, "rental_uris": {"ios": "https://dc.lft.to/lastmile_qr_scan", "android": "https://dc.lft.to/lastmile_qr_scan"}, "is_reserved": 0}, {"lon": -77.032773, "bike_id": "e1385691a4bd8b5e6fe524a16e1e6958", "lat": 38.93554866666667, "fusion_lon": 0.0, "fusion_lat": 0.0, "type": "electric_scooter", "name": "e1385691a4bd8b5e6fe524a16e1e6958", "is_disabled": 0, "rental_uris": {"ios": "https://dc.lft.to/lastmile_qr_scan", "android": "https://dc.lft.to/lastmile_qr_scan"}, "is_reserved": 0}, {"lon": -77.04573766666667, "bike_id": "bf196674ea946fb5f53e8d7079722a82", "lat": 38.918600833333336, "fusion_lon": 0.0, "fusion_lat": 0.0, "type": "electric_scooter", "name": "bf196674ea946fb5f53e8d7079722a82", "is_disabled": 0, "rental_uris": {"ios": "https://dc.lft.to/lastmile_qr_scan", "android": "https://dc.lft.to/lastmile_qr_scan"}, "is_reserved": 0}, {"lon": -77.0422425, "bike_id": "b21a2586c3471f5777d6c2bf04b77dc1", "lat": 38.92122066666667, "fusion_lon": 0.0, "fusion_lat": 0.0, "type": "electric_scooter", "name": "b21a2586c3471f5777d6c2bf04b77dc1", "is_disabled": 0, "rental_uris": {"ios": "https://dc.lft.to/lastmile_qr_scan", "android": "https://dc.lft.to/lastmile_qr_scan"}, "is_reserved": 0}, {"lon": -77.04362916666666, "bike_id": "3a766979cc08223a2cdb71280112845b", "lat": 39.0153395, "fusion_lon": 0.0, "fusion_lat": 0.0, "type": "electric_bike", "name": "3a766979cc08223a2cdb71280112845b", "is_disabled": 0, "rental_uris": {"ios": "https://dc.lft.to/lastmile_qr_scan", "android": "https://dc.lft.to/lastmile_qr_scan"}, "is_reserved": 0}, {"lon": -76.98689166666666, "bike_id": "3fbfedf2d19dc25a178e0e4cb35c0efd", "lat": 38.907289166666665, "fusion_lon": 0.0, "fusion_lat": 0.0, "type": "electric_bike", "name": "3fbfedf2d19dc25a178e0e4cb35c0efd", "is_disabled": 0, "rental_uris": {"ios": "https://dc.lft.to/lastmile_qr_scan", "android": "https://dc.lft.to/lastmile_qr_scan"}, "is_reserved": 0}, {"lon": -77.02809333333333, "bike_id": "3ddb73a947f73ceed0e406eb146370fa", "lat": 38.941923833333334, "fusion_lon": 0.0, "fusion_lat": 0.0, "type": "electric_scooter", "name": "3ddb73a947f73ceed0e406eb146370fa", "is_disabled": 0, "rental_uris": {"ios": "https://dc.lft.to/lastmile_qr_scan", "android": "https://dc.lft.to/lastmile_qr_scan"}, "is_reserved": 0}, {"lon": -77.037751, "bike_id": "9f4a9018a3ea7abec4edb2fd76b4f63a", "lat": 38.92967383333333, "fusion_lon": 0.0, "fusion_lat": 0.0, "type": "electric_scooter", "name": "9f4a9018a3ea7abec4edb2fd76b4f63a", "is_disabled": 0, "rental_uris": {"ios": "https://dc.lft.to/lastmile_qr_scan", "android": "https://dc.lft.to/lastmile_qr_scan"}, "is_reserved": 0}, {"lon": -77.05001066666667, "bike_id": "809f901fdbcfdf77b0d2b31bbd331180", "lat": 38.90060716666667, "fusion_lon": 0.0, "fusion_lat": 0.0, "type": "electric_scooter", "name": "809f901fdbcfdf77b0d2b31bbd331180", "is_disabled": 0, "rental_uris": {"ios": "https://dc.lft.to/lastmile_qr_scan", "android": "https://dc.lft.to/lastmile_qr_scan"}, "is_reserved": 0}, {"lon": -76.98946366666667, "bike_id": "f7d0477609d1c0d97f24114b7824bf7d", "lat": 38.918331333333334, "fusion_lon": 0.0, "fusion_lat": 0.0, "type": "electric_scooter", "name": "f7d0477609d1c0d97f24114b7824bf7d", "is_disabled": 0, "rental_uris": {"ios": "https://dc.lft.to/lastmile_qr_scan", "android": "https://dc.lft.to/lastmile_qr_scan"}, "is_reserved": 0}, {"lon": -76.98408533333334, "bike_id": "1a0720189728c1d37dd97f8eb8b58c0c", "lat": 38.9063395, "fusion_lon": 0.0, "fusion_lat": 0.0, "type": "electric_scooter", "name": "1a0720189728c1d37dd97f8eb8b58c0c", "is_disabled": 0, "rental_uris": {"ios": "https://dc.lft.to/lastmile_qr_scan", "android": "https://dc.lft.to/lastmile_qr_scan"}, "is_reserved": 0}, {"lon": -77.02586233333334, "bike_id": "d5234650cd3872ada959807b940b4b37", "lat": 38.900606333333336, "fusion_lon": 0.0, "fusion_lat": 0.0, "type": "electric_scooter", "name": "d5234650cd3872ada959807b940b4b37", "is_disabled": 0, "rental_uris": {"ios": "https://dc.lft.to/lastmile_qr_scan", "android": "https://dc.lft.to/lastmile_qr_scan"}, "is_reserved": 0}, {"lon": -77.024167, "bike_id": "f77e1507fd050aed006972ce4ad8baa8", "lat": 38.9207815, "fusion_lon": 0.0, "fusion_lat": 0.0, "type": "electric_scooter", "name": "f77e1507fd050aed006972ce4ad8baa8", "is_disabled": 0, "rental_uris": {"ios": "https://dc.lft.to/lastmile_qr_scan", "android": "https://dc.lft.to/lastmile_qr_scan"}, "is_reserved": 0}, {"lon": -77.05931516666666, "bike_id": "422e0519eca46060c8ad49919517b957", "lat": 38.90529766666667, "fusion_lon": 0.0, "fusion_lat": 0.0, "type": "electric_scooter", "name": "422e0519eca46060c8ad49919517b957", "is_disabled": 0, "rental_uris": {"ios": "https://dc.lft.to/lastmile_qr_scan", "android": "https://dc.lft.to/lastmile_qr_scan"}, "is_reserved": 0}, {"lon": -77.02570866666667, "bike_id": "f24ca5af1d7712b995752c9b56a2d2e1", "lat": 38.90715483333334, "fusion_lon": 0.0, "fusion_lat": 0.0, "type": "electric_scooter", "name": "f24ca5af1d7712b995752c9b56a2d2e1", "is_disabled": 0, "rental_uris": {"ios": "https://dc.lft.to/lastmile_qr_scan", "android": "https://dc.lft.to/lastmile_qr_scan"}, "is_reserved": 0}, {"lon": -77.02308366666666, "bike_id": "674be3e8a9c6fadf777f2b5868df9434", "lat": 38.908968333333334, "fusion_lon": 0.0, "fusion_lat": 0.0, "type": "electric_scooter", "name": "674be3e8a9c6fadf777f2b5868df9434", "is_disabled": 0, "rental_uris": {"ios": "https://dc.lft.to/lastmile_qr_scan", "android": "https://dc.lft.to/lastmile_qr_scan"}, "is_reserved": 0}, {"lon": -77.03742066666666, "bike_id": "40d85511bca5e02b28358ad35722429d", "lat": 38.879946833333335, "fusion_lon": 0.0, "fusion_lat": 0.0, "type": "electric_scooter", "name": "40d85511bca5e02b28358ad35722429d", "is_disabled": 0, "rental_uris": {"ios": "https://dc.lft.to/lastmile_qr_scan", "android": "https://dc.lft.to/lastmile_qr_scan"}, "is_reserved": 0}, {"lon": -77.02557233333333, "bike_id": "45195f840d08cdfd6b58a0484fb89667", "lat": 38.920808666666666, "fusion_lon": 0.0, "fusion_lat": 0.0, "type": "electric_scooter", "name": "45195f840d08cdfd6b58a0484fb89667", "is_disabled": 0, "rental_uris": {"ios": "https://dc.lft.to/lastmile_qr_scan", "android": "https://dc.lft.to/lastmile_qr_scan"}, "is_reserved": 0}, {"lon": -77.02715366666666, "bike_id": "876ee11145187843164e16e7ba323df2", "lat": 38.90663166666667, "fusion_lon": 0.0, "fusion_lat": 0.0, "type": "electric_scooter", "name": "876ee11145187843164e16e7ba323df2", "is_disabled": 0, "rental_uris": {"ios": "https://dc.lft.to/lastmile_qr_scan", "android": "https://dc.lft.to/lastmile_qr_scan"}, "is_reserved": 0}, {"lon": -76.996249, "bike_id": "b34c5361b3ed77a2379b3e5b8d29163f", "lat": 38.9093335, "fusion_lon": 0.0, "fusion_lat": 0.0, "type": "electric_scooter", "name": "b34c5361b3ed77a2379b3e5b8d29163f", "is_disabled": 0, "rental_uris": {"ios": "https://dc.lft.to/lastmile_qr_scan", "android": "https://dc.lft.to/lastmile_qr_scan"}, "is_reserved": 0}, {"lon": -76.93739133333334, "bike_id": "7716fa2788e860de0fce68616aef2b34", "lat": 38.89039266666666, "fusion_lon": 0.0, "fusion_lat": 0.0, "type": "electric_scooter", "name": "7716fa2788e860de0fce68616aef2b34", "is_disabled": 0, "rental_uris": {"ios": "https://dc.lft.to/lastmile_qr_scan", "android": "https://dc.lft.to/lastmile_qr_scan"}, "is_reserved": 0}, {"lon": -77.03725383333334, "bike_id": "9af51cf4d8e0576ffe4e17af1122c727", "lat": 38.91476766666667, "fusion_lon": 0.0, "fusion_lat": 0.0, "type": "electric_scooter", "name": "9af51cf4d8e0576ffe4e17af1122c727", "is_disabled": 0, "rental_uris": {"ios": "https://dc.lft.to/lastmile_qr_scan", "android": "https://dc.lft.to/lastmile_qr_scan"}, "is_reserved": 0}, {"lon": -77.03591683333333, "bike_id": "4cba8837bd35ab728d0df6e6c61dad2a", "lat": 38.92668116666667, "fusion_lon": 0.0, "fusion_lat": 0.0, "type": "electric_scooter", "name": "4cba8837bd35ab728d0df6e6c61dad2a", "is_disabled": 0, "rental_uris": {"ios": "https://dc.lft.to/lastmile_qr_scan", "android": "https://dc.lft.to/lastmile_qr_scan"}, "is_reserved": 0}, {"lon": -77.02313, "bike_id": "146cdf2d9fbd114f0ddbdb51f68f2a7d", "lat": 38.87905533333333, "fusion_lon": 0.0, "fusion_lat": 0.0, "type": "electric_scooter", "name": "146cdf2d9fbd114f0ddbdb51f68f2a7d", "is_disabled": 0, "rental_uris": {"ios": "https://dc.lft.to/lastmile_qr_scan", "android": "https://dc.lft.to/lastmile_qr_scan"}, "is_reserved": 0}, {"lon": -77.0373235, "bike_id": "86f0c6ee4a5d17667d037527a9c53965", "lat": 38.928385166666665, "fusion_lon": 0.0, "fusion_lat": 0.0, "type": "electric_scooter", "name": "86f0c6ee4a5d17667d037527a9c53965", "is_disabled": 0, "rental_uris": {"ios": "https://dc.lft.to/lastmile_qr_scan", "android": "https://dc.lft.to/lastmile_qr_scan"}, "is_reserved": 0}, {"lon": -77.04322066666667, "bike_id": "9b83c02f2cc4f772c530c5f0e8145f52", "lat": 38.921933, "fusion_lon": 0.0, "fusion_lat": 0.0, "type": "electric_scooter", "name": "9b83c02f2cc4f772c530c5f0e8145f52", "is_disabled": 0, "rental_uris": {"ios": "https://dc.lft.to/lastmile_qr_scan", "android": "https://dc.lft.to/lastmile_qr_scan"}, "is_reserved": 0}, {"lon": -77.11607366666667, "bike_id": "26a3550ee929f102fec734a5bf8c55ea", "lat": 38.85483133333334, "fusion_lon": 0.0, "fusion_lat": 0.0, "type": "electric_bike", "name": "26a3550ee929f102fec734a5bf8c55ea", "is_disabled": 0, "rental_uris": {"ios": "https://dc.lft.to/lastmile_qr_scan", "android": "https://dc.lft.to/lastmile_qr_scan"}, "is_reserved": 0}, {"lon": -77.0520735, "bike_id": "157fe98d9c2f193329535180678c55a9", "lat": 38.9244055, "fusion_lon": 0.0, "fusion_lat": 0.0, "type": "electric_scooter", "name": "157fe98d9c2f193329535180678c55a9", "is_disabled": 0, "rental_uris": {"ios": "https://dc.lft.to/lastmile_qr_scan", "android": "https://dc.lft.to/lastmile_qr_scan"}, "is_reserved": 0}, {"lon": -77.04130816666667, "bike_id": "138265ed1073570e607adece5de061ad", "lat": 38.944031833333334, "fusion_lon": 0.0, "fusion_lat": 0.0, "type": "electric_bike", "name": "138265ed1073570e607adece5de061ad", "is_disabled": 0, "rental_uris": {"ios": "https://dc.lft.to/lastmile_qr_scan", "android": "https://dc.lft.to/lastmile_qr_scan"}, "is_reserved": 0}, {"lon": -77.0380555, "bike_id": "3770af2ee33953235f226b98304925c5", "lat": 38.92059783333333, "fusion_lon": 0.0, "fusion_lat": 0.0, "type": "electric_scooter", "name": "3770af2ee33953235f226b98304925c5", "is_disabled": 0, "rental_uris": {"ios": "https://dc.lft.to/lastmile_qr_scan", "android": "https://dc.lft.to/lastmile_qr_scan"}, "is_reserved": 0}, {"lon": -76.98560083333334, "bike_id": "26beb980b762434e5e0261d59cc2c21d", "lat": 38.910305, "fusion_lon": 0.0, "fusion_lat": 0.0, "type": "electric_scooter", "name": "26beb980b762434e5e0261d59cc2c21d", "is_disabled": 0, "rental_uris": {"ios": "https://dc.lft.to/lastmile_qr_scan", "android": "https://dc.lft.to/lastmile_qr_scan"}, "is_reserved": 0}, {"lon": -77.024022, "bike_id": "affd944629211a85980d88080cbb7546", "lat": 38.90296016666667, "fusion_lon": 0.0, "fusion_lat": 0.0, "type": "electric_scooter", "name": "affd944629211a85980d88080cbb7546", "is_disabled": 0, "rental_uris": {"ios": "https://dc.lft.to/lastmile_qr_scan", "android": "https://dc.lft.to/lastmile_qr_scan"}, "is_reserved": 0}, {"lon": -76.9982485, "bike_id": "2cdc4913e02e2e41eab803c80630aa41", "lat": 38.9071815, "fusion_lon": 0.0, "fusion_lat": 0.0, "type": "electric_scooter", "name": "2cdc4913e02e2e41eab803c80630aa41", "is_disabled": 0, "rental_uris": {"ios": "https://dc.lft.to/lastmile_qr_scan", "android": "https://dc.lft.to/lastmile_qr_scan"}, "is_reserved": 0}, {"lon": -77.0543655, "bike_id": "78e8472c8243e5157b1cc4f1a3a91cb5", "lat": 38.92835083333333, "fusion_lon": 0.0, "fusion_lat": 0.0, "type": "electric_scooter", "name": "78e8472c8243e5157b1cc4f1a3a91cb5", "is_disabled": 0, "rental_uris": {"ios": "https://dc.lft.to/lastmile_qr_scan", "android": "https://dc.lft.to/lastmile_qr_scan"}, "is_reserved": 0}, {"lon": -77.03422566666667, "bike_id": "03c26708ba1103b6260c579f76927119", "lat": 38.903426, "fusion_lon": 0.0, "fusion_lat": 0.0, "type": "electric_scooter", "name": "03c26708ba1103b6260c579f76927119", "is_disabled": 0, "rental_uris": {"ios": "https://dc.lft.to/lastmile_qr_scan", "android": "https://dc.lft.to/lastmile_qr_scan"}, "is_reserved": 0}, {"lon": -77.04338266666667, "bike_id": "1f732ceb3f7ae7b81b1bede830b49787", "lat": 38.922117166666666, "fusion_lon": 0.0, "fusion_lat": 0.0, "type": "electric_scooter", "name": "1f732ceb3f7ae7b81b1bede830b49787", "is_disabled": 0, "rental_uris": {"ios": "https://dc.lft.to/lastmile_qr_scan", "android": "https://dc.lft.to/lastmile_qr_scan"}, "is_reserved": 0}, {"lon": -77.01547533333333, "bike_id": "d5c00476c589ed922dfeb78b14c6f7e1", "lat": 38.88495966666667, "fusion_lon": 0.0, "fusion_lat": 0.0, "type": "electric_scooter", "name": "d5c00476c589ed922dfeb78b14c6f7e1", "is_disabled": 0, "rental_uris": {"ios": "https://dc.lft.to/lastmile_qr_scan", "android": "https://dc.lft.to/lastmile_qr_scan"}, "is_reserved": 0}, {"lon": -77.02401933333333, "bike_id": "34f9fbe65f2db25a83a137267904241a", "lat": 38.90298266666667, "fusion_lon": 0.0, "fusion_lat": 0.0, "type": "electric_scooter", "name": "34f9fbe65f2db25a83a137267904241a", "is_disabled": 0, "rental_uris": {"ios": "https://dc.lft.to/lastmile_qr_scan", "android": "https://dc.lft.to/lastmile_qr_scan"}, "is_reserved": 0}, {"lon": -77.02689783333334, "bike_id": "5be0b1df92a4bc6342d1b80cd0299a59", "lat": 38.90472033333333, "fusion_lon": 0.0, "fusion_lat": 0.0, "type": "electric_scooter", "name": "5be0b1df92a4bc6342d1b80cd0299a59", "is_disabled": 0, "rental_uris": {"ios": "https://dc.lft.to/lastmile_qr_scan", "android": "https://dc.lft.to/lastmile_qr_scan"}, "is_reserved": 0}, {"lon": -77.02206016666666, "bike_id": "201a12734018636be357abe4fd358cff", "lat": 38.90534616666667, "fusion_lon": 0.0, "fusion_lat": 0.0, "type": "electric_scooter", "name": "201a12734018636be357abe4fd358cff", "is_disabled": 0, "rental_uris": {"ios": "https://dc.lft.to/lastmile_qr_scan", "android": "https://dc.lft.to/lastmile_qr_scan"}, "is_reserved": 0}, {"lon": -77.0375485, "bike_id": "a89e0f16d792d59d81a5150e671efd96", "lat": 38.91185183333333, "fusion_lon": 0.0, "fusion_lat": 0.0, "type": "electric_scooter", "name": "a89e0f16d792d59d81a5150e671efd96", "is_disabled": 0, "rental_uris": {"ios": "https://dc.lft.to/lastmile_qr_scan", "android": "https://dc.lft.to/lastmile_qr_scan"}, "is_reserved": 0}, {"lon": -77.04356666666666, "bike_id": "f90ae4fa7c1ef2b61576f87fd48e323a", "lat": 38.91590466666667, "fusion_lon": 0.0, "fusion_lat": 0.0, "type": "electric_scooter", "name": "f90ae4fa7c1ef2b61576f87fd48e323a", "is_disabled": 0, "rental_uris": {"ios": "https://dc.lft.to/lastmile_qr_scan", "android": "https://dc.lft.to/lastmile_qr_scan"}, "is_reserved": 0}, {"lon": -76.98080433333334, "bike_id": "9debcb37dd091c58327b3e9f09a71d3a", "lat": 38.90176733333333, "fusion_lon": 0.0, "fusion_lat": 0.0, "type": "electric_scooter", "name": "9debcb37dd091c58327b3e9f09a71d3a", "is_disabled": 0, "rental_uris": {"ios": "https://dc.lft.to/lastmile_qr_scan", "android": "https://dc.lft.to/lastmile_qr_scan"}, "is_reserved": 0}, {"lon": -77.00743783333333, "bike_id": "b0081ee51d07fe54fa23e1d7c21b100a", "lat": 38.898430833333336, "fusion_lon": 0.0, "fusion_lat": 0.0, "type": "electric_scooter", "name": "b0081ee51d07fe54fa23e1d7c21b100a", "is_disabled": 0, "rental_uris": {"ios": "https://dc.lft.to/lastmile_qr_scan", "android": "https://dc.lft.to/lastmile_qr_scan"}, "is_reserved": 0}, {"lon": -77.00625066666667, "bike_id": "56d386d8e87fd5e68ee3c3c53630118c", "lat": 38.87171283333333, "fusion_lon": 0.0, "fusion_lat": 0.0, "type": "electric_scooter", "name": "56d386d8e87fd5e68ee3c3c53630118c", "is_disabled": 0, "rental_uris": {"ios": "https://dc.lft.to/lastmile_qr_scan", "android": "https://dc.lft.to/lastmile_qr_scan"}, "is_reserved": 0}, {"lon": -77.026116, "bike_id": "1c48c24ea6e14bce07fea1a9c62d1e30", "lat": 38.896007833333336, "fusion_lon": 0.0, "fusion_lat": 0.0, "type": "electric_bike", "name": "1c48c24ea6e14bce07fea1a9c62d1e30", "is_disabled": 0, "rental_uris": {"ios": "https://dc.lft.to/lastmile_qr_scan", "android": "https://dc.lft.to/lastmile_qr_scan"}, "is_reserved": 0}, {"lon": -76.99758566666667, "bike_id": "f4871ef84826d1a90c50f9321ac098f9", "lat": 38.95010333333333, "fusion_lon": 0.0, "fusion_lat": 0.0, "type": "electric_bike", "name": "f4871ef84826d1a90c50f9321ac098f9", "is_disabled": 0, "rental_uris": {"ios": "https://dc.lft.to/lastmile_qr_scan", "android": "https://dc.lft.to/lastmile_qr_scan"}, "is_reserved": 0}, {"lon": -76.9501215, "bike_id": "bf5f7581ddfc6402c717ef2b63894327", "lat": 38.893763166666666, "fusion_lon": 0.0, "fusion_lat": 0.0, "type": "electric_scooter", "name": "bf5f7581ddfc6402c717ef2b63894327", "is_disabled": 0, "rental_uris": {"ios": "https://dc.lft.to/lastmile_qr_scan", "android": "https://dc.lft.to/lastmile_qr_scan"}, "is_reserved": 0}, {"lon": -77.02258066666667, "bike_id": "a453a49cfe81c6b0260ec2ddca5a4b1a", "lat": 38.92524866666667, "fusion_lon": 0.0, "fusion_lat": 0.0, "type": "electric_scooter", "name": "a453a49cfe81c6b0260ec2ddca5a4b1a", "is_disabled": 0, "rental_uris": {"ios": "https://dc.lft.to/lastmile_qr_scan", "android": "https://dc.lft.to/lastmile_qr_scan"}, "is_reserved": 0}, {"lon": -77.02420483333333, "bike_id": "039fb8d268d44d8738b32b0a0b59903b", "lat": 38.919161833333334, "fusion_lon": 0.0, "fusion_lat": 0.0, "type": "electric_scooter", "name": "039fb8d268d44d8738b32b0a0b59903b", "is_disabled": 0, "rental_uris": {"ios": "https://dc.lft.to/lastmile_qr_scan", "android": "https://dc.lft.to/lastmile_qr_scan"}, "is_reserved": 0}, {"lon": -77.042396, "bike_id": "7d5c57dc184a5edd0b0937ccc3c91891", "lat": 38.92174383333333, "fusion_lon": 0.0, "fusion_lat": 0.0, "type": "electric_scooter", "name": "7d5c57dc184a5edd0b0937ccc3c91891", "is_disabled": 0, "rental_uris": {"ios": "https://dc.lft.to/lastmile_qr_scan", "android": "https://dc.lft.to/lastmile_qr_scan"}, "is_reserved": 0}, {"lon": -76.9818405, "bike_id": "5e8492b47f81c77116ea7664a263c54b", "lat": 38.895726333333336, "fusion_lon": 0.0, "fusion_lat": 0.0, "type": "electric_scooter", "name": "5e8492b47f81c77116ea7664a263c54b", "is_disabled": 0, "rental_uris": {"ios": "https://dc.lft.to/lastmile_qr_scan", "android": "https://dc.lft.to/lastmile_qr_scan"}, "is_reserved": 0}, {"lon": -77.03864116666666, "bike_id": "9914bd7954d6edba1c0051c42f284a07", "lat": 38.915763166666665, "fusion_lon": 0.0, "fusion_lat": 0.0, "type": "electric_scooter", "name": "9914bd7954d6edba1c0051c42f284a07", "is_disabled": 0, "rental_uris": {"ios": "https://dc.lft.to/lastmile_qr_scan", "android": "https://dc.lft.to/lastmile_qr_scan"}, "is_reserved": 0}, {"lon": -77.02314916666667, "bike_id": "20ddfb63ea7cb249982f83471352740d", "lat": 38.90974766666667, "fusion_lon": 0.0, "fusion_lat": 0.0, "type": "electric_scooter", "name": "20ddfb63ea7cb249982f83471352740d", "is_disabled": 0, "rental_uris": {"ios": "https://dc.lft.to/lastmile_qr_scan", "android": "https://dc.lft.to/lastmile_qr_scan"}, "is_reserved": 0}, {"lon": -76.93388983333334, "bike_id": "3f8b8c54172e0844f0885027e5f1feb7", "lat": 38.899116, "fusion_lon": 0.0, "fusion_lat": 0.0, "type": "electric_scooter", "name": "3f8b8c54172e0844f0885027e5f1feb7", "is_disabled": 0, "rental_uris": {"ios": "https://dc.lft.to/lastmile_qr_scan", "android": "https://dc.lft.to/lastmile_qr_scan"}, "is_reserved": 0}, {"lon": -77.03185883333333, "bike_id": "f906594088e5fab573ff2f3735b00935", "lat": 38.9162605, "fusion_lon": 0.0, "fusion_lat": 0.0, "type": "electric_scooter", "name": "f906594088e5fab573ff2f3735b00935", "is_disabled": 0, "rental_uris": {"ios": "https://dc.lft.to/lastmile_qr_scan", "android": "https://dc.lft.to/lastmile_qr_scan"}, "is_reserved": 0}, {"lon": -77.03331433333334, "bike_id": "88898d31d478b5f5eaf7a0717c6f945e", "lat": 38.8974605, "fusion_lon": 0.0, "fusion_lat": 0.0, "type": "electric_scooter", "name": "88898d31d478b5f5eaf7a0717c6f945e", "is_disabled": 0, "rental_uris": {"ios": "https://dc.lft.to/lastmile_qr_scan", "android": "https://dc.lft.to/lastmile_qr_scan"}, "is_reserved": 0}, {"lon": -77.03222466666666, "bike_id": "681d23e7abcd589ff0bc33dd261139ce", "lat": 38.899155666666665, "fusion_lon": 0.0, "fusion_lat": 0.0, "type": "electric_scooter", "name": "681d23e7abcd589ff0bc33dd261139ce", "is_disabled": 0, "rental_uris": {"ios": "https://dc.lft.to/lastmile_qr_scan", "android": "https://dc.lft.to/lastmile_qr_scan"}, "is_reserved": 0}, {"lon": -77.03187583333333, "bike_id": "ed74f59e116c666932f3867de78b79bb", "lat": 38.913261, "fusion_lon": 0.0, "fusion_lat": 0.0, "type": "electric_scooter", "name": "ed74f59e116c666932f3867de78b79bb", "is_disabled": 0, "rental_uris": {"ios": "https://dc.lft.to/lastmile_qr_scan", "android": "https://dc.lft.to/lastmile_qr_scan"}, "is_reserved": 0}, {"lon": -77.04347333333334, "bike_id": "27e8278bbb2aeefd0be2293a42e3f93f", "lat": 38.929623666666664, "fusion_lon": 0.0, "fusion_lat": 0.0, "type": "electric_scooter", "name": "27e8278bbb2aeefd0be2293a42e3f93f", "is_disabled": 0, "rental_uris": {"ios": "https://dc.lft.to/lastmile_qr_scan", "android": "https://dc.lft.to/lastmile_qr_scan"}, "is_reserved": 0}, {"lon": -77.029882, "bike_id": "f76ca93099c710a88a1c9bb56477929e", "lat": 38.897895166666665, "fusion_lon": 0.0, "fusion_lat": 0.0, "type": "electric_scooter", "name": "f76ca93099c710a88a1c9bb56477929e", "is_disabled": 0, "rental_uris": {"ios": "https://dc.lft.to/lastmile_qr_scan", "android": "https://dc.lft.to/lastmile_qr_scan"}, "is_reserved": 0}, {"lon": -77.1158125, "bike_id": "065936b9e0d3f2f288958ffcc0f07289", "lat": 38.99341016666666, "fusion_lon": 0.0, "fusion_lat": 0.0, "type": "electric_bike", "name": "065936b9e0d3f2f288958ffcc0f07289", "is_disabled": 0, "rental_uris": {"ios": "https://dc.lft.to/lastmile_qr_scan", "android": "https://dc.lft.to/lastmile_qr_scan"}, "is_reserved": 0}, {"lon": -77.03092033333333, "bike_id": "aba93df222b1bdfd016b84a81363b592", "lat": 38.90423033333333, "fusion_lon": 0.0, "fusion_lat": 0.0, "type": "electric_scooter", "name": "aba93df222b1bdfd016b84a81363b592", "is_disabled": 0, "rental_uris": {"ios": "https://dc.lft.to/lastmile_qr_scan", "android": "https://dc.lft.to/lastmile_qr_scan"}, "is_reserved": 0}, {"lon": -77.1389825, "bike_id": "b845918b5ae611536d03a1779a4e5979", "lat": 38.896708833333335, "fusion_lon": 0.0, "fusion_lat": 0.0, "type": "electric_bike", "name": "b845918b5ae611536d03a1779a4e5979", "is_disabled": 0, "rental_uris": {"ios": "https://dc.lft.to/lastmile_qr_scan", "android": "https://dc.lft.to/lastmile_qr_scan"}, "is_reserved": 0}, {"lon": -77.021996, "bike_id": "9b3386bb01899952153b18b5cd188d1d", "lat": 38.91123866666667, "fusion_lon": 0.0, "fusion_lat": 0.0, "type": "electric_scooter", "name": "9b3386bb01899952153b18b5cd188d1d", "is_disabled": 0, "rental_uris": {"ios": "https://dc.lft.to/lastmile_qr_scan", "android": "https://dc.lft.to/lastmile_qr_scan"}, "is_reserved": 0}, {"lon": -77.02823883333333, "bike_id": "047411c8180c9f98a772eacb1d19696a", "lat": 38.91706333333333, "fusion_lon": 0.0, "fusion_lat": 0.0, "type": "electric_scooter", "name": "047411c8180c9f98a772eacb1d19696a", "is_disabled": 0, "rental_uris": {"ios": "https://dc.lft.to/lastmile_qr_scan", "android": "https://dc.lft.to/lastmile_qr_scan"}, "is_reserved": 0}, {"lon": -77.02693266666667, "bike_id": "c69867f532a7f94483a82a9ce29772ad", "lat": 38.90261183333333, "fusion_lon": 0.0, "fusion_lat": 0.0, "type": "electric_scooter", "name": "c69867f532a7f94483a82a9ce29772ad", "is_disabled": 0, "rental_uris": {"ios": "https://dc.lft.to/lastmile_qr_scan", "android": "https://dc.lft.to/lastmile_qr_scan"}, "is_reserved": 0}, {"lon": -77.02549733333333, "bike_id": "7b8086a6586c9ef5ad28806505640a8e", "lat": 38.922571833333336, "fusion_lon": 0.0, "fusion_lat": 0.0, "type": "electric_scooter", "name": "7b8086a6586c9ef5ad28806505640a8e", "is_disabled": 0, "rental_uris": {"ios": "https://dc.lft.to/lastmile_qr_scan", "android": "https://dc.lft.to/lastmile_qr_scan"}, "is_reserved": 0}, {"lon": -77.04993233333333, "bike_id": "476ee13bf5fcd690004c55ea924f7a91", "lat": 38.901150666666666, "fusion_lon": 0.0, "fusion_lat": 0.0, "type": "electric_scooter", "name": "476ee13bf5fcd690004c55ea924f7a91", "is_disabled": 0, "rental_uris": {"ios": "https://dc.lft.to/lastmile_qr_scan", "android": "https://dc.lft.to/lastmile_qr_scan"}, "is_reserved": 0}, {"lon": -77.014811, "bike_id": "064cb05374a302e549b6cdcb077ff409", "lat": 38.9586495, "fusion_lon": 0.0, "fusion_lat": 0.0, "type": "electric_scooter", "name": "064cb05374a302e549b6cdcb077ff409", "is_disabled": 0, "rental_uris": {"ios": "https://dc.lft.to/lastmile_qr_scan", "android": "https://dc.lft.to/lastmile_qr_scan"}, "is_reserved": 0}, {"lon": -76.99270866666667, "bike_id": "0406af9bdab00ed6c4477da370d5faa4", "lat": 38.89765, "fusion_lon": 0.0, "fusion_lat": 0.0, "type": "electric_scooter", "name": "0406af9bdab00ed6c4477da370d5faa4", "is_disabled": 0, "rental_uris": {"ios": "https://dc.lft.to/lastmile_qr_scan", "android": "https://dc.lft.to/lastmile_qr_scan"}, "is_reserved": 0}, {"lon": -77.02143633333333, "bike_id": "6f5661ec688da7f084392e67c60606c2", "lat": 38.92456, "fusion_lon": 0.0, "fusion_lat": 0.0, "type": "electric_scooter", "name": "6f5661ec688da7f084392e67c60606c2", "is_disabled": 0, "rental_uris": {"ios": "https://dc.lft.to/lastmile_qr_scan", "android": "https://dc.lft.to/lastmile_qr_scan"}, "is_reserved": 0}, {"lon": -77.01458316666667, "bike_id": "894485a96abf1cd8167b284ee38903c0", "lat": 38.899161666666664, "fusion_lon": 0.0, "fusion_lat": 0.0, "type": "electric_scooter", "name": "894485a96abf1cd8167b284ee38903c0", "is_disabled": 0, "rental_uris": {"ios": "https://dc.lft.to/lastmile_qr_scan", "android": "https://dc.lft.to/lastmile_qr_scan"}, "is_reserved": 0}, {"lon": -77.0237285, "bike_id": "ab60b77da00e669d8e79fcd769a80c76", "lat": 38.9195335, "fusion_lon": 0.0, "fusion_lat": 0.0, "type": "electric_scooter", "name": "ab60b77da00e669d8e79fcd769a80c76", "is_disabled": 0, "rental_uris": {"ios": "https://dc.lft.to/lastmile_qr_scan", "android": "https://dc.lft.to/lastmile_qr_scan"}, "is_reserved": 0}, {"lon": -76.94161433333333, "bike_id": "f41b9c197b3558e761b8e2ccfc5aa3db", "lat": 38.879050166666666, "fusion_lon": 0.0, "fusion_lat": 0.0, "type": "electric_scooter", "name": "f41b9c197b3558e761b8e2ccfc5aa3db", "is_disabled": 0, "rental_uris": {"ios": "https://dc.lft.to/lastmile_qr_scan", "android": "https://dc.lft.to/lastmile_qr_scan"}, "is_reserved": 0}, {"lon": -77.05231933333333, "bike_id": "999012ab719769957592c08bad4c5435", "lat": 38.92351566666667, "fusion_lon": 0.0, "fusion_lat": 0.0, "type": "electric_scooter", "name": "999012ab719769957592c08bad4c5435", "is_disabled": 0, "rental_uris": {"ios": "https://dc.lft.to/lastmile_qr_scan", "android": "https://dc.lft.to/lastmile_qr_scan"}, "is_reserved": 0}, {"lon": -77.00715966666667, "bike_id": "5a890c4fec0bd54cc08d27b76befc4ed", "lat": 38.884897, "fusion_lon": 0.0, "fusion_lat": 0.0, "type": "electric_scooter", "name": "5a890c4fec0bd54cc08d27b76befc4ed", "is_disabled": 0, "rental_uris": {"ios": "https://dc.lft.to/lastmile_qr_scan", "android": "https://dc.lft.to/lastmile_qr_scan"}, "is_reserved": 0}, {"lon": -77.04608433333334, "bike_id": "3a76502b8faacf04c0c1026b0993013c", "lat": 38.9217665, "fusion_lon": 0.0, "fusion_lat": 0.0, "type": "electric_scooter", "name": "3a76502b8faacf04c0c1026b0993013c", "is_disabled": 0, "rental_uris": {"ios": "https://dc.lft.to/lastmile_qr_scan", "android": "https://dc.lft.to/lastmile_qr_scan"}, "is_reserved": 0}, {"lon": -77.088227, "bike_id": "09dd0f7d022de6c1d7a7d25b73ae63fd", "lat": 38.9097595, "fusion_lon": 0.0, "fusion_lat": 0.0, "type": "electric_scooter", "name": "09dd0f7d022de6c1d7a7d25b73ae63fd", "is_disabled": 0, "rental_uris": {"ios": "https://dc.lft.to/lastmile_qr_scan", "android": "https://dc.lft.to/lastmile_qr_scan"}, "is_reserved": 0}, {"lon": -77.01802983333333, "bike_id": "d952b6b36328e60c7fd5c86eebb5fa79", "lat": 38.90106316666667, "fusion_lon": 0.0, "fusion_lat": 0.0, "type": "electric_scooter", "name": "d952b6b36328e60c7fd5c86eebb5fa79", "is_disabled": 0, "rental_uris": {"ios": "https://dc.lft.to/lastmile_qr_scan", "android": "https://dc.lft.to/lastmile_qr_scan"}, "is_reserved": 0}, {"lon": -76.9833545, "bike_id": "41fb4e90580f41f1d3f3751b712c6cf8", "lat": 38.900754166666665, "fusion_lon": 0.0, "fusion_lat": 0.0, "type": "electric_scooter", "name": "41fb4e90580f41f1d3f3751b712c6cf8", "is_disabled": 0, "rental_uris": {"ios": "https://dc.lft.to/lastmile_qr_scan", "android": "https://dc.lft.to/lastmile_qr_scan"}, "is_reserved": 0}, {"lon": -77.04761466666666, "bike_id": "04de8f7c7df91ca4867116e76fa9b24b", "lat": 38.909543666666664, "fusion_lon": 0.0, "fusion_lat": 0.0, "type": "electric_scooter", "name": "04de8f7c7df91ca4867116e76fa9b24b", "is_disabled": 0, "rental_uris": {"ios": "https://dc.lft.to/lastmile_qr_scan", "android": "https://dc.lft.to/lastmile_qr_scan"}, "is_reserved": 0}, {"lon": -77.028769, "bike_id": "5e6b5e81cd0eaf43d8d3aa34da4f4c46", "lat": 38.928186333333336, "fusion_lon": 0.0, "fusion_lat": 0.0, "type": "electric_scooter", "name": "5e6b5e81cd0eaf43d8d3aa34da4f4c46", "is_disabled": 0, "rental_uris": {"ios": "https://dc.lft.to/lastmile_qr_scan", "android": "https://dc.lft.to/lastmile_qr_scan"}, "is_reserved": 0}, {"lon": -77.02114566666667, "bike_id": "258507516722302dab53a829f86c0fbb", "lat": 38.89758883333333, "fusion_lon": 0.0, "fusion_lat": 0.0, "type": "electric_scooter", "name": "258507516722302dab53a829f86c0fbb", "is_disabled": 0, "rental_uris": {"ios": "https://dc.lft.to/lastmile_qr_scan", "android": "https://dc.lft.to/lastmile_qr_scan"}, "is_reserved": 0}, {"lon": -77.03656166666667, "bike_id": "7f4e940322711374592536ee807914b3", "lat": 38.940884, "fusion_lon": 0.0, "fusion_lat": 0.0, "type": "electric_scooter", "name": "7f4e940322711374592536ee807914b3", "is_disabled": 0, "rental_uris": {"ios": "https://dc.lft.to/lastmile_qr_scan", "android": "https://dc.lft.to/lastmile_qr_scan"}, "is_reserved": 0}, {"lon": -77.0434015, "bike_id": "f70429fe3ec550fdd7a266bb476e1581", "lat": 38.917683833333335, "fusion_lon": 0.0, "fusion_lat": 0.0, "type": "electric_scooter", "name": "f70429fe3ec550fdd7a266bb476e1581", "is_disabled": 0, "rental_uris": {"ios": "https://dc.lft.to/lastmile_qr_scan", "android": "https://dc.lft.to/lastmile_qr_scan"}, "is_reserved": 0}, {"lon": -76.99688016666667, "bike_id": "c8f14e43db27e6795a8ddd53d630c5e2", "lat": 38.86018983333334, "fusion_lon": 0.0, "fusion_lat": 0.0, "type": "electric_scooter", "name": "c8f14e43db27e6795a8ddd53d630c5e2", "is_disabled": 0, "rental_uris": {"ios": "https://dc.lft.to/lastmile_qr_scan", "android": "https://dc.lft.to/lastmile_qr_scan"}, "is_reserved": 0}, {"lon": -77.023737, "bike_id": "65b9276d018b9b7401893cb5f61ea15a", "lat": 38.8921865, "fusion_lon": 0.0, "fusion_lat": 0.0, "type": "electric_scooter", "name": "65b9276d018b9b7401893cb5f61ea15a", "is_disabled": 0, "rental_uris": {"ios": "https://dc.lft.to/lastmile_qr_scan", "android": "https://dc.lft.to/lastmile_qr_scan"}, "is_reserved": 0}, {"lon": -77.03670083333333, "bike_id": "ca8790b53a012b8cce7a7076496def8b", "lat": 38.912899, "fusion_lon": 0.0, "fusion_lat": 0.0, "type": "electric_scooter", "name": "ca8790b53a012b8cce7a7076496def8b", "is_disabled": 0, "rental_uris": {"ios": "https://dc.lft.to/lastmile_qr_scan", "android": "https://dc.lft.to/lastmile_qr_scan"}, "is_reserved": 0}, {"lon": -77.0302635, "bike_id": "bd0ef6c38f0199273b8a3cee884f7089", "lat": 38.93109183333333, "fusion_lon": 0.0, "fusion_lat": 0.0, "type": "electric_scooter", "name": "bd0ef6c38f0199273b8a3cee884f7089", "is_disabled": 0, "rental_uris": {"ios": "https://dc.lft.to/lastmile_qr_scan", "android": "https://dc.lft.to/lastmile_qr_scan"}, "is_reserved": 0}, {"lon": -77.0505445, "bike_id": "511fb54c072f9388f4d8feebfc66fd37", "lat": 38.90714216666667, "fusion_lon": 0.0, "fusion_lat": 0.0, "type": "electric_scooter", "name": "511fb54c072f9388f4d8feebfc66fd37", "is_disabled": 0, "rental_uris": {"ios": "https://dc.lft.to/lastmile_qr_scan", "android": "https://dc.lft.to/lastmile_qr_scan"}, "is_reserved": 0}, {"lon": -77.04370883333333, "bike_id": "a2efb1b7dc911e3c1b6f1d21dea452e9", "lat": 38.90265516666667, "fusion_lon": 0.0, "fusion_lat": 0.0, "type": "electric_scooter", "name": "a2efb1b7dc911e3c1b6f1d21dea452e9", "is_disabled": 0, "rental_uris": {"ios": "https://dc.lft.to/lastmile_qr_scan", "android": "https://dc.lft.to/lastmile_qr_scan"}, "is_reserved": 0}, {"lon": -77.043918, "bike_id": "771ccdf135c84b37b5e79a2c75bf8dbc", "lat": 38.9108005, "fusion_lon": 0.0, "fusion_lat": 0.0, "type": "electric_scooter", "name": "771ccdf135c84b37b5e79a2c75bf8dbc", "is_disabled": 0, "rental_uris": {"ios": "https://dc.lft.to/lastmile_qr_scan", "android": "https://dc.lft.to/lastmile_qr_scan"}, "is_reserved": 0}, {"lon": -77.04178683333333, "bike_id": "0ba937d9fe7cfffcdf858b2c74710d7b", "lat": 38.916404, "fusion_lon": 0.0, "fusion_lat": 0.0, "type": "electric_scooter", "name": "0ba937d9fe7cfffcdf858b2c74710d7b", "is_disabled": 0, "rental_uris": {"ios": "https://dc.lft.to/lastmile_qr_scan", "android": "https://dc.lft.to/lastmile_qr_scan"}, "is_reserved": 0}, {"lon": -77.023866, "bike_id": "952f1f672961f182214ff63d264bdd88", "lat": 38.9265525, "fusion_lon": 0.0, "fusion_lat": 0.0, "type": "electric_scooter", "name": "952f1f672961f182214ff63d264bdd88", "is_disabled": 0, "rental_uris": {"ios": "https://dc.lft.to/lastmile_qr_scan", "android": "https://dc.lft.to/lastmile_qr_scan"}, "is_reserved": 0}, {"lon": -77.011039, "bike_id": "8a8e480cf36a1a4bba4bd371efda2c4e", "lat": 38.90347083333333, "fusion_lon": 0.0, "fusion_lat": 0.0, "type": "electric_scooter", "name": "8a8e480cf36a1a4bba4bd371efda2c4e", "is_disabled": 0, "rental_uris": {"ios": "https://dc.lft.to/lastmile_qr_scan", "android": "https://dc.lft.to/lastmile_qr_scan"}, "is_reserved": 0}, {"lon": -77.02681116666666, "bike_id": "a8d15a515776d57ddaca656809c7c817", "lat": 38.89724733333333, "fusion_lon": 0.0, "fusion_lat": 0.0, "type": "electric_scooter", "name": "a8d15a515776d57ddaca656809c7c817", "is_disabled": 0, "rental_uris": {"ios": "https://dc.lft.to/lastmile_qr_scan", "android": "https://dc.lft.to/lastmile_qr_scan"}, "is_reserved": 0}, {"lon": -77.00634683333334, "bike_id": "51d8c81b0cec6bba342239281cbd3d8c", "lat": 38.955968, "fusion_lon": 0.0, "fusion_lat": 0.0, "type": "electric_scooter", "name": "51d8c81b0cec6bba342239281cbd3d8c", "is_disabled": 0, "rental_uris": {"ios": "https://dc.lft.to/lastmile_qr_scan", "android": "https://dc.lft.to/lastmile_qr_scan"}, "is_reserved": 0}, {"lon": -77.00192333333334, "bike_id": "65b9ceec767d90207656a8675d7e6f3e", "lat": 38.900194666666664, "fusion_lon": 0.0, "fusion_lat": 0.0, "type": "electric_scooter", "name": "65b9ceec767d90207656a8675d7e6f3e", "is_disabled": 0, "rental_uris": {"ios": "https://dc.lft.to/lastmile_qr_scan", "android": "https://dc.lft.to/lastmile_qr_scan"}, "is_reserved": 0}, {"lon": -77.233219, "bike_id": "d4b1b5112a55c78be6764e8d1de6812e", "lat": 38.8727905, "fusion_lon": 0.0, "fusion_lat": 0.0, "type": "electric_bike", "name": "d4b1b5112a55c78be6764e8d1de6812e", "is_disabled": 0, "rental_uris": {"ios": "https://dc.lft.to/lastmile_qr_scan", "android": "https://dc.lft.to/lastmile_qr_scan"}, "is_reserved": 0}, {"lon": -76.98886633333333, "bike_id": "95457b73c8d50a54aef67c76986000ef", "lat": 38.86656966666666, "fusion_lon": 0.0, "fusion_lat": 0.0, "type": "electric_scooter", "name": "95457b73c8d50a54aef67c76986000ef", "is_disabled": 0, "rental_uris": {"ios": "https://dc.lft.to/lastmile_qr_scan", "android": "https://dc.lft.to/lastmile_qr_scan"}, "is_reserved": 0}, {"lon": -76.99081316666667, "bike_id": "ca5ffa045424326430d94130be941119", "lat": 38.92863466666667, "fusion_lon": 0.0, "fusion_lat": 0.0, "type": "electric_scooter", "name": "ca5ffa045424326430d94130be941119", "is_disabled": 0, "rental_uris": {"ios": "https://dc.lft.to/lastmile_qr_scan", "android": "https://dc.lft.to/lastmile_qr_scan"}, "is_reserved": 0}, {"lon": -77.2333565, "bike_id": "ed61362a4364b030e9a3efaa423b9c92", "lat": 38.8727055, "fusion_lon": 0.0, "fusion_lat": 0.0, "type": "electric_bike", "name": "ed61362a4364b030e9a3efaa423b9c92", "is_disabled": 0, "rental_uris": {"ios": "https://dc.lft.to/lastmile_qr_scan", "android": "https://dc.lft.to/lastmile_qr_scan"}, "is_reserved": 0}, {"lon": -77.01234383333333, "bike_id": "faacc9af7c9487568b12590e60351c27", "lat": 38.910917, "fusion_lon": 0.0, "fusion_lat": 0.0, "type": "electric_scooter", "name": "faacc9af7c9487568b12590e60351c27", "is_disabled": 0, "rental_uris": {"ios": "https://dc.lft.to/lastmile_qr_scan", "android": "https://dc.lft.to/lastmile_qr_scan"}, "is_reserved": 0}, {"lon": -77.00903983333333, "bike_id": "afeb2318b81493012b063b1f1da3f91e", "lat": 38.922751833333336, "fusion_lon": 0.0, "fusion_lat": 0.0, "type": "electric_scooter", "name": "afeb2318b81493012b063b1f1da3f91e", "is_disabled": 0, "rental_uris": {"ios": "https://dc.lft.to/lastmile_qr_scan", "android": "https://dc.lft.to/lastmile_qr_scan"}, "is_reserved": 0}, {"lon": -76.973004, "bike_id": "59734d8f389ca17af98f743a419f2a67", "lat": 38.91639833333333, "fusion_lon": 0.0, "fusion_lat": 0.0, "type": "electric_bike", "name": "59734d8f389ca17af98f743a419f2a67", "is_disabled": 0, "rental_uris": {"ios": "https://dc.lft.to/lastmile_qr_scan", "android": "https://dc.lft.to/lastmile_qr_scan"}, "is_reserved": 0}, {"lon": -77.028878, "bike_id": "d0c9c6757ecd8b3a9f2186be771e6886", "lat": 38.9042525, "fusion_lon": 0.0, "fusion_lat": 0.0, "type": "electric_scooter", "name": "d0c9c6757ecd8b3a9f2186be771e6886", "is_disabled": 0, "rental_uris": {"ios": "https://dc.lft.to/lastmile_qr_scan", "android": "https://dc.lft.to/lastmile_qr_scan"}, "is_reserved": 0}, {"lon": -77.02826, "bike_id": "bd58ca8abd211312e5142f235dc42ac9", "lat": 38.887276666666665, "fusion_lon": 0.0, "fusion_lat": 0.0, "type": "electric_scooter", "name": "bd58ca8abd211312e5142f235dc42ac9", "is_disabled": 0, "rental_uris": {"ios": "https://dc.lft.to/lastmile_qr_scan", "android": "https://dc.lft.to/lastmile_qr_scan"}, "is_reserved": 0}, {"lon": -76.96544016666667, "bike_id": "754d63cfbfbe5d0b62a9531b2c5ff1b0", "lat": 38.9183695, "fusion_lon": 0.0, "fusion_lat": 0.0, "type": "electric_scooter", "name": "754d63cfbfbe5d0b62a9531b2c5ff1b0", "is_disabled": 0, "rental_uris": {"ios": "https://dc.lft.to/lastmile_qr_scan", "android": "https://dc.lft.to/lastmile_qr_scan"}, "is_reserved": 0}, {"lon": -76.98926333333333, "bike_id": "cc9e5f86ce418ce4f2291f1f17f60968", "lat": 38.881995333333336, "fusion_lon": 0.0, "fusion_lat": 0.0, "type": "electric_scooter", "name": "cc9e5f86ce418ce4f2291f1f17f60968", "is_disabled": 0, "rental_uris": {"ios": "https://dc.lft.to/lastmile_qr_scan", "android": "https://dc.lft.to/lastmile_qr_scan"}, "is_reserved": 0}, {"lon": -77.021506, "bike_id": "40975fb392709ec5f3ae20ce9eab072b", "lat": 38.92597816666667, "fusion_lon": 0.0, "fusion_lat": 0.0, "type": "electric_scooter", "name": "40975fb392709ec5f3ae20ce9eab072b", "is_disabled": 0, "rental_uris": {"ios": "https://dc.lft.to/lastmile_qr_scan", "android": "https://dc.lft.to/lastmile_qr_scan"}, "is_reserved": 0}, {"lon": -77.05894966666666, "bike_id": "085d250d50f6b37652123f3b9dac5e3d", "lat": 38.93604033333333, "fusion_lon": 0.0, "fusion_lat": 0.0, "type": "electric_scooter", "name": "085d250d50f6b37652123f3b9dac5e3d", "is_disabled": 0, "rental_uris": {"ios": "https://dc.lft.to/lastmile_qr_scan", "android": "https://dc.lft.to/lastmile_qr_scan"}, "is_reserved": 0}, {"lon": -77.035216, "bike_id": "6e4e303269a794ff610ac94669f0ce2b", "lat": 38.90650566666667, "fusion_lon": 0.0, "fusion_lat": 0.0, "type": "electric_scooter", "name": "6e4e303269a794ff610ac94669f0ce2b", "is_disabled": 0, "rental_uris": {"ios": "https://dc.lft.to/lastmile_qr_scan", "android": "https://dc.lft.to/lastmile_qr_scan"}, "is_reserved": 0}, {"lon": -77.04313666666667, "bike_id": "aee2653fea71d86d218a730cab2a2d14", "lat": 38.92370733333333, "fusion_lon": 0.0, "fusion_lat": 0.0, "type": "electric_scooter", "name": "aee2653fea71d86d218a730cab2a2d14", "is_disabled": 0, "rental_uris": {"ios": "https://dc.lft.to/lastmile_qr_scan", "android": "https://dc.lft.to/lastmile_qr_scan"}, "is_reserved": 0}, {"lon": -76.95007066666666, "bike_id": "dceb55b8869c48abd1359cc89d8dbd2d", "lat": 38.89378683333333, "fusion_lon": 0.0, "fusion_lat": 0.0, "type": "electric_scooter", "name": "dceb55b8869c48abd1359cc89d8dbd2d", "is_disabled": 0, "rental_uris": {"ios": "https://dc.lft.to/lastmile_qr_scan", "android": "https://dc.lft.to/lastmile_qr_scan"}, "is_reserved": 0}, {"lon": -76.9732615, "bike_id": "d01a2e6143f43e4b6f1c136eef6889df", "lat": 38.91772816666667, "fusion_lon": 0.0, "fusion_lat": 0.0, "type": "electric_scooter", "name": "d01a2e6143f43e4b6f1c136eef6889df", "is_disabled": 0, "rental_uris": {"ios": "https://dc.lft.to/lastmile_qr_scan", "android": "https://dc.lft.to/lastmile_qr_scan"}, "is_reserved": 0}, {"lon": -77.00545966666667, "bike_id": "e4ce7ff4797a76aeb9403af6750866e8", "lat": 38.92973966666667, "fusion_lon": 0.0, "fusion_lat": 0.0, "type": "electric_scooter", "name": "e4ce7ff4797a76aeb9403af6750866e8", "is_disabled": 0, "rental_uris": {"ios": "https://dc.lft.to/lastmile_qr_scan", "android": "https://dc.lft.to/lastmile_qr_scan"}, "is_reserved": 0}, {"lon": -76.9869655, "bike_id": "e44a45a8bf8d65ef908debfcd2442ef3", "lat": 38.86250016666666, "fusion_lon": 0.0, "fusion_lat": 0.0, "type": "electric_scooter", "name": "e44a45a8bf8d65ef908debfcd2442ef3", "is_disabled": 0, "rental_uris": {"ios": "https://dc.lft.to/lastmile_qr_scan", "android": "https://dc.lft.to/lastmile_qr_scan"}, "is_reserved": 0}, {"lon": -77.03210733333333, "bike_id": "a51deabe7cd1f5af78cd9ff5910d2c7c", "lat": 38.884148833333334, "fusion_lon": 0.0, "fusion_lat": 0.0, "type": "electric_scooter", "name": "a51deabe7cd1f5af78cd9ff5910d2c7c", "is_disabled": 0, "rental_uris": {"ios": "https://dc.lft.to/lastmile_qr_scan", "android": "https://dc.lft.to/lastmile_qr_scan"}, "is_reserved": 0}, {"lon": -77.002144, "bike_id": "c4f056e6b016635135a56add94c176c9", "lat": 38.895416833333336, "fusion_lon": 0.0, "fusion_lat": 0.0, "type": "electric_scooter", "name": "c4f056e6b016635135a56add94c176c9", "is_disabled": 0, "rental_uris": {"ios": "https://dc.lft.to/lastmile_qr_scan", "android": "https://dc.lft.to/lastmile_qr_scan"}, "is_reserved": 0}, {"lon": -76.9373805, "bike_id": "22763877b4e5c542c583abeaf0c66dbf", "lat": 38.89001966666667, "fusion_lon": 0.0, "fusion_lat": 0.0, "type": "electric_scooter", "name": "22763877b4e5c542c583abeaf0c66dbf", "is_disabled": 0, "rental_uris": {"ios": "https://dc.lft.to/lastmile_qr_scan", "android": "https://dc.lft.to/lastmile_qr_scan"}, "is_reserved": 0}, {"lon": -77.022233, "bike_id": "d3bf41ad1af2d175cf302443b56e2a74", "lat": 38.91115116666667, "fusion_lon": 0.0, "fusion_lat": 0.0, "type": "electric_scooter", "name": "d3bf41ad1af2d175cf302443b56e2a74", "is_disabled": 0, "rental_uris": {"ios": "https://dc.lft.to/lastmile_qr_scan", "android": "https://dc.lft.to/lastmile_qr_scan"}, "is_reserved": 0}, {"lon": -77.02266266666666, "bike_id": "367a4e936e9c26ccc38a99a2769397b7", "lat": 38.93768016666667, "fusion_lon": 0.0, "fusion_lat": 0.0, "type": "electric_scooter", "name": "367a4e936e9c26ccc38a99a2769397b7", "is_disabled": 0, "rental_uris": {"ios": "https://dc.lft.to/lastmile_qr_scan", "android": "https://dc.lft.to/lastmile_qr_scan"}, "is_reserved": 0}, {"lon": -77.02574516666667, "bike_id": "d16d50b2ebd1c727042f83f2d9ff3719", "lat": 38.88738216666667, "fusion_lon": 0.0, "fusion_lat": 0.0, "type": "electric_scooter", "name": "d16d50b2ebd1c727042f83f2d9ff3719", "is_disabled": 0, "rental_uris": {"ios": "https://dc.lft.to/lastmile_qr_scan", "android": "https://dc.lft.to/lastmile_qr_scan"}, "is_reserved": 0}, {"lon": -77.02215983333333, "bike_id": "fbf0eab6f3739c19729e33677db522ba", "lat": 38.912694333333334, "fusion_lon": 0.0, "fusion_lat": 0.0, "type": "electric_scooter", "name": "fbf0eab6f3739c19729e33677db522ba", "is_disabled": 0, "rental_uris": {"ios": "https://dc.lft.to/lastmile_qr_scan", "android": "https://dc.lft.to/lastmile_qr_scan"}, "is_reserved": 0}, {"lon": -76.99560466666667, "bike_id": "c21937410e1004369f75aa391c9ae6ad", "lat": 38.90022466666667, "fusion_lon": 0.0, "fusion_lat": 0.0, "type": "electric_scooter", "name": "c21937410e1004369f75aa391c9ae6ad", "is_disabled": 0, "rental_uris": {"ios": "https://dc.lft.to/lastmile_qr_scan", "android": "https://dc.lft.to/lastmile_qr_scan"}, "is_reserved": 0}, {"lon": -77.00569133333333, "bike_id": "61d04601072000c08ba56116c93548bc", "lat": 38.874354833333335, "fusion_lon": 0.0, "fusion_lat": 0.0, "type": "electric_scooter", "name": "61d04601072000c08ba56116c93548bc", "is_disabled": 0, "rental_uris": {"ios": "https://dc.lft.to/lastmile_qr_scan", "android": "https://dc.lft.to/lastmile_qr_scan"}, "is_reserved": 0}, {"lon": -76.97603683333334, "bike_id": "18295593cb3d056296fed89038bc0b20", "lat": 38.905668666666664, "fusion_lon": 0.0, "fusion_lat": 0.0, "type": "electric_scooter", "name": "18295593cb3d056296fed89038bc0b20", "is_disabled": 0, "rental_uris": {"ios": "https://dc.lft.to/lastmile_qr_scan", "android": "https://dc.lft.to/lastmile_qr_scan"}, "is_reserved": 0}, {"lon": -76.9762055, "bike_id": "281a6753428b33a6ae94f1931a75012e", "lat": 38.926469833333336, "fusion_lon": 0.0, "fusion_lat": 0.0, "type": "electric_scooter", "name": "281a6753428b33a6ae94f1931a75012e", "is_disabled": 0, "rental_uris": {"ios": "https://dc.lft.to/lastmile_qr_scan", "android": "https://dc.lft.to/lastmile_qr_scan"}, "is_reserved": 0}, {"lon": -77.04337766666667, "bike_id": "bc076b4d4aec568c4df3dd3cf22d62e8", "lat": 38.92135566666666, "fusion_lon": 0.0, "fusion_lat": 0.0, "type": "electric_scooter", "name": "bc076b4d4aec568c4df3dd3cf22d62e8", "is_disabled": 0, "rental_uris": {"ios": "https://dc.lft.to/lastmile_qr_scan", "android": "https://dc.lft.to/lastmile_qr_scan"}, "is_reserved": 0}, {"lon": -77.00202316666666, "bike_id": "96836d121f0e0f88dfde5d2a9d4839aa", "lat": 38.9023275, "fusion_lon": 0.0, "fusion_lat": 0.0, "type": "electric_scooter", "name": "96836d121f0e0f88dfde5d2a9d4839aa", "is_disabled": 0, "rental_uris": {"ios": "https://dc.lft.to/lastmile_qr_scan", "android": "https://dc.lft.to/lastmile_qr_scan"}, "is_reserved": 0}, {"lon": -77.01869166666667, "bike_id": "7c28a29b5ba765df1cdf909495e2d515", "lat": 38.9514905, "fusion_lon": 0.0, "fusion_lat": 0.0, "type": "electric_scooter", "name": "7c28a29b5ba765df1cdf909495e2d515", "is_disabled": 0, "rental_uris": {"ios": "https://dc.lft.to/lastmile_qr_scan", "android": "https://dc.lft.to/lastmile_qr_scan"}, "is_reserved": 0}, {"lon": -77.1298485, "bike_id": "d0fd0962be8bc6597d4044df256acafc", "lat": 38.79980066666667, "fusion_lon": 0.0, "fusion_lat": 0.0, "type": "electric_bike", "name": "d0fd0962be8bc6597d4044df256acafc", "is_disabled": 0, "rental_uris": {"ios": "https://dc.lft.to/lastmile_qr_scan", "android": "https://dc.lft.to/lastmile_qr_scan"}, "is_reserved": 0}, {"lon": -77.01433533333334, "bike_id": "3c9358688aada954a55a12aa80efefc1", "lat": 38.972171, "fusion_lon": 0.0, "fusion_lat": 0.0, "type": "electric_bike", "name": "3c9358688aada954a55a12aa80efefc1", "is_disabled": 0, "rental_uris": {"ios": "https://dc.lft.to/lastmile_qr_scan", "android": "https://dc.lft.to/lastmile_qr_scan"}, "is_reserved": 0}, {"lon": -77.03883266666666, "bike_id": "988f7b1d9276f34d330b5c4c8e003d8a", "lat": 38.932536666666664, "fusion_lon": 0.0, "fusion_lat": 0.0, "type": "electric_scooter", "name": "988f7b1d9276f34d330b5c4c8e003d8a", "is_disabled": 0, "rental_uris": {"ios": "https://dc.lft.to/lastmile_qr_scan", "android": "https://dc.lft.to/lastmile_qr_scan"}, "is_reserved": 0}, {"lon": -77.03862883333333, "bike_id": "d639de7ec69c8fd271f25df916633f5e", "lat": 38.91544833333333, "fusion_lon": 0.0, "fusion_lat": 0.0, "type": "electric_scooter", "name": "d639de7ec69c8fd271f25df916633f5e", "is_disabled": 0, "rental_uris": {"ios": "https://dc.lft.to/lastmile_qr_scan", "android": "https://dc.lft.to/lastmile_qr_scan"}, "is_reserved": 0}, {"lon": -77.00684433333333, "bike_id": "5a98ea305fdd5fee0cce2a5887332154", "lat": 38.900079, "fusion_lon": 0.0, "fusion_lat": 0.0, "type": "electric_scooter", "name": "5a98ea305fdd5fee0cce2a5887332154", "is_disabled": 0, "rental_uris": {"ios": "https://dc.lft.to/lastmile_qr_scan", "android": "https://dc.lft.to/lastmile_qr_scan"}, "is_reserved": 0}, {"lon": -77.05451, "bike_id": "24a0d8418a24581477cdc6f1b1b47891", "lat": 38.855405833333336, "fusion_lon": 0.0, "fusion_lat": 0.0, "type": "electric_bike", "name": "24a0d8418a24581477cdc6f1b1b47891", "is_disabled": 0, "rental_uris": {"ios": "https://dc.lft.to/lastmile_qr_scan", "android": "https://dc.lft.to/lastmile_qr_scan"}, "is_reserved": 0}, {"lon": -77.021938, "bike_id": "1e2f2daf2ca5719df55257a28d621c99", "lat": 38.916423, "fusion_lon": 0.0, "fusion_lat": 0.0, "type": "electric_scooter", "name": "1e2f2daf2ca5719df55257a28d621c99", "is_disabled": 0, "rental_uris": {"ios": "https://dc.lft.to/lastmile_qr_scan", "android": "https://dc.lft.to/lastmile_qr_scan"}, "is_reserved": 0}, {"lon": -77.02874366666667, "bike_id": "775a09e41c515f9ce6ca63ed715cae18", "lat": 38.88477, "fusion_lon": 0.0, "fusion_lat": 0.0, "type": "electric_scooter", "name": "775a09e41c515f9ce6ca63ed715cae18", "is_disabled": 0, "rental_uris": {"ios": "https://dc.lft.to/lastmile_qr_scan", "android": "https://dc.lft.to/lastmile_qr_scan"}, "is_reserved": 0}, {"lon": -76.9833685, "bike_id": "bb4739bde535eb2b0088fc734e8afc5a", "lat": 38.895425, "fusion_lon": 0.0, "fusion_lat": 0.0, "type": "electric_scooter", "name": "bb4739bde535eb2b0088fc734e8afc5a", "is_disabled": 0, "rental_uris": {"ios": "https://dc.lft.to/lastmile_qr_scan", "android": "https://dc.lft.to/lastmile_qr_scan"}, "is_reserved": 0}, {"lon": -76.98568033333333, "bike_id": "e74aba333e5e8a8b07df64dd2b73c210", "lat": 38.9071655, "fusion_lon": 0.0, "fusion_lat": 0.0, "type": "electric_scooter", "name": "e74aba333e5e8a8b07df64dd2b73c210", "is_disabled": 0, "rental_uris": {"ios": "https://dc.lft.to/lastmile_qr_scan", "android": "https://dc.lft.to/lastmile_qr_scan"}, "is_reserved": 0}, {"lon": -77.11915216666667, "bike_id": "4d19d81de24963a96304a3dddbcf198c", "lat": 38.880916666666664, "fusion_lon": 0.0, "fusion_lat": 0.0, "type": "electric_bike", "name": "4d19d81de24963a96304a3dddbcf198c", "is_disabled": 0, "rental_uris": {"ios": "https://dc.lft.to/lastmile_qr_scan", "android": "https://dc.lft.to/lastmile_qr_scan"}, "is_reserved": 0}, {"lon": -77.04177516666667, "bike_id": "cf619892257ae53cca9b4c1d9a0f9b12", "lat": 38.916367666666666, "fusion_lon": 0.0, "fusion_lat": 0.0, "type": "electric_scooter", "name": "cf619892257ae53cca9b4c1d9a0f9b12", "is_disabled": 0, "rental_uris": {"ios": "https://dc.lft.to/lastmile_qr_scan", "android": "https://dc.lft.to/lastmile_qr_scan"}, "is_reserved": 0}, {"lon": -77.02967666666666, "bike_id": "3bb130aed2f58dbdc24cce5fc8c63f5d", "lat": 38.9127285, "fusion_lon": 0.0, "fusion_lat": 0.0, "type": "electric_scooter", "name": "3bb130aed2f58dbdc24cce5fc8c63f5d", "is_disabled": 0, "rental_uris": {"ios": "https://dc.lft.to/lastmile_qr_scan", "android": "https://dc.lft.to/lastmile_qr_scan"}, "is_reserved": 0}, {"lon": -77.01277733333333, "bike_id": "0d225701be99c17dcdbeeab9b7a70950", "lat": 38.88873133333333, "fusion_lon": 0.0, "fusion_lat": 0.0, "type": "electric_bike", "name": "0d225701be99c17dcdbeeab9b7a70950", "is_disabled": 0, "rental_uris": {"ios": "https://dc.lft.to/lastmile_qr_scan", "android": "https://dc.lft.to/lastmile_qr_scan"}, "is_reserved": 0}, {"lon": -76.98751483333334, "bike_id": "bfe1738f6aea16e047037e799bb76d2b", "lat": 38.900262166666664, "fusion_lon": 0.0, "fusion_lat": 0.0, "type": "electric_scooter", "name": "bfe1738f6aea16e047037e799bb76d2b", "is_disabled": 0, "rental_uris": {"ios": "https://dc.lft.to/lastmile_qr_scan", "android": "https://dc.lft.to/lastmile_qr_scan"}, "is_reserved": 0}, {"lon": -77.02768483333334, "bike_id": "293afff1167a1e4eb87fd02b695f9ecf", "lat": 38.923792, "fusion_lon": 0.0, "fusion_lat": 0.0, "type": "electric_scooter", "name": "293afff1167a1e4eb87fd02b695f9ecf", "is_disabled": 0, "rental_uris": {"ios": "https://dc.lft.to/lastmile_qr_scan", "android": "https://dc.lft.to/lastmile_qr_scan"}, "is_reserved": 0}, {"lon": -77.01843333333333, "bike_id": "5b44e8523758cb236a32e5cee10caf88", "lat": 38.90928616666667, "fusion_lon": 0.0, "fusion_lat": 0.0, "type": "electric_scooter", "name": "5b44e8523758cb236a32e5cee10caf88", "is_disabled": 0, "rental_uris": {"ios": "https://dc.lft.to/lastmile_qr_scan", "android": "https://dc.lft.to/lastmile_qr_scan"}, "is_reserved": 0}, {"lon": -76.99702283333333, "bike_id": "ed5e7ebd79a93ef1f159e1e0ea71b891", "lat": 38.8443235, "fusion_lon": 0.0, "fusion_lat": 0.0, "type": "electric_scooter", "name": "ed5e7ebd79a93ef1f159e1e0ea71b891", "is_disabled": 0, "rental_uris": {"ios": "https://dc.lft.to/lastmile_qr_scan", "android": "https://dc.lft.to/lastmile_qr_scan"}, "is_reserved": 0}, {"lon": -77.0251795, "bike_id": "1a4abe4b0b3e8c542eecfb118d39eff2", "lat": 38.942052, "fusion_lon": 0.0, "fusion_lat": 0.0, "type": "electric_scooter", "name": "1a4abe4b0b3e8c542eecfb118d39eff2", "is_disabled": 0, "rental_uris": {"ios": "https://dc.lft.to/lastmile_qr_scan", "android": "https://dc.lft.to/lastmile_qr_scan"}, "is_reserved": 0}, {"lon": -77.01762083333334, "bike_id": "a377b8cb9e239834327baea0e50b1c25", "lat": 38.88196166666667, "fusion_lon": 0.0, "fusion_lat": 0.0, "type": "electric_scooter", "name": "a377b8cb9e239834327baea0e50b1c25", "is_disabled": 0, "rental_uris": {"ios": "https://dc.lft.to/lastmile_qr_scan", "android": "https://dc.lft.to/lastmile_qr_scan"}, "is_reserved": 0}, {"lon": -77.0054245, "bike_id": "f814b36964256bcf09d00a86518edac3", "lat": 38.875409833333336, "fusion_lon": 0.0, "fusion_lat": 0.0, "type": "electric_scooter", "name": "f814b36964256bcf09d00a86518edac3", "is_disabled": 0, "rental_uris": {"ios": "https://dc.lft.to/lastmile_qr_scan", "android": "https://dc.lft.to/lastmile_qr_scan"}, "is_reserved": 0}, {"lon": -77.027646, "bike_id": "953c7bd67d2d6854ffebfbe79998c2cf", "lat": 38.92757666666667, "fusion_lon": 0.0, "fusion_lat": 0.0, "type": "electric_scooter", "name": "953c7bd67d2d6854ffebfbe79998c2cf", "is_disabled": 0, "rental_uris": {"ios": "https://dc.lft.to/lastmile_qr_scan", "android": "https://dc.lft.to/lastmile_qr_scan"}, "is_reserved": 0}, {"lon": -76.97947216666667, "bike_id": "cc8b82148972d766bf667a22a40378fb", "lat": 38.900122833333334, "fusion_lon": 0.0, "fusion_lat": 0.0, "type": "electric_scooter", "name": "cc8b82148972d766bf667a22a40378fb", "is_disabled": 0, "rental_uris": {"ios": "https://dc.lft.to/lastmile_qr_scan", "android": "https://dc.lft.to/lastmile_qr_scan"}, "is_reserved": 0}, {"lon": -76.97891, "bike_id": "86716e6378273dddce175ec6534de366", "lat": 38.88540233333333, "fusion_lon": 0.0, "fusion_lat": 0.0, "type": "electric_scooter", "name": "86716e6378273dddce175ec6534de366", "is_disabled": 0, "rental_uris": {"ios": "https://dc.lft.to/lastmile_qr_scan", "android": "https://dc.lft.to/lastmile_qr_scan"}, "is_reserved": 0}, {"lon": -77.002876, "bike_id": "4683b9f3c4ee0bc0b8c80c913d8e1f3f", "lat": 38.9569045, "fusion_lon": 0.0, "fusion_lat": 0.0, "type": "electric_bike", "name": "4683b9f3c4ee0bc0b8c80c913d8e1f3f", "is_disabled": 0, "rental_uris": {"ios": "https://dc.lft.to/lastmile_qr_scan", "android": "https://dc.lft.to/lastmile_qr_scan"}, "is_reserved": 0}, {"lon": -76.96586133333334, "bike_id": "e9f3747516a006f99972bc5311557a16", "lat": 38.8712815, "fusion_lon": 0.0, "fusion_lat": 0.0, "type": "electric_scooter", "name": "e9f3747516a006f99972bc5311557a16", "is_disabled": 0, "rental_uris": {"ios": "https://dc.lft.to/lastmile_qr_scan", "android": "https://dc.lft.to/lastmile_qr_scan"}, "is_reserved": 0}, {"lon": -77.12493816666667, "bike_id": "b1f085737f252e6dad73c2fa42ab5906", "lat": 38.8278465, "fusion_lon": 0.0, "fusion_lat": 0.0, "type": "electric_bike", "name": "b1f085737f252e6dad73c2fa42ab5906", "is_disabled": 0, "rental_uris": {"ios": "https://dc.lft.to/lastmile_qr_scan", "android": "https://dc.lft.to/lastmile_qr_scan"}, "is_reserved": 0}, {"lon": -77.06429566666667, "bike_id": "be94499540c90c2ab95fdb4541f694b7", "lat": 38.908905, "fusion_lon": 0.0, "fusion_lat": 0.0, "type": "electric_scooter", "name": "be94499540c90c2ab95fdb4541f694b7", "is_disabled": 0, "rental_uris": {"ios": "https://dc.lft.to/lastmile_qr_scan", "android": "https://dc.lft.to/lastmile_qr_scan"}, "is_reserved": 0}, {"lon": -77.03406966666667, "bike_id": "9f0e074b1d8e98c6c6b826f8fa72a120", "lat": 38.9602705, "fusion_lon": 0.0, "fusion_lat": 0.0, "type": "electric_bike", "name": "9f0e074b1d8e98c6c6b826f8fa72a120", "is_disabled": 0, "rental_uris": {"ios": "https://dc.lft.to/lastmile_qr_scan", "android": "https://dc.lft.to/lastmile_qr_scan"}, "is_reserved": 0}, {"lon": -76.99524883333333, "bike_id": "529d1020f478f4d8a0c3bfebae83e078", "lat": 38.90014216666667, "fusion_lon": 0.0, "fusion_lat": 0.0, "type": "electric_scooter", "name": "529d1020f478f4d8a0c3bfebae83e078", "is_disabled": 0, "rental_uris": {"ios": "https://dc.lft.to/lastmile_qr_scan", "android": "https://dc.lft.to/lastmile_qr_scan"}, "is_reserved": 0}, {"lon": -76.9951275, "bike_id": "0334362c540380423eaad59ec8759bd9", "lat": 38.877747666666664, "fusion_lon": 0.0, "fusion_lat": 0.0, "type": "electric_scooter", "name": "0334362c540380423eaad59ec8759bd9", "is_disabled": 0, "rental_uris": {"ios": "https://dc.lft.to/lastmile_qr_scan", "android": "https://dc.lft.to/lastmile_qr_scan"}, "is_reserved": 0}, {"lon": -76.99788966666667, "bike_id": "ad7ed11eb6f6e9eb92fb8eee905e543d", "lat": 38.84426783333333, "fusion_lon": 0.0, "fusion_lat": 0.0, "type": "electric_scooter", "name": "ad7ed11eb6f6e9eb92fb8eee905e543d", "is_disabled": 0, "rental_uris": {"ios": "https://dc.lft.to/lastmile_qr_scan", "android": "https://dc.lft.to/lastmile_qr_scan"}, "is_reserved": 0}, {"lon": -77.04327933333333, "bike_id": "261b0a975a120963a9630871b5ea64ec", "lat": 38.91869166666667, "fusion_lon": 0.0, "fusion_lat": 0.0, "type": "electric_scooter", "name": "261b0a975a120963a9630871b5ea64ec", "is_disabled": 0, "rental_uris": {"ios": "https://dc.lft.to/lastmile_qr_scan", "android": "https://dc.lft.to/lastmile_qr_scan"}, "is_reserved": 0}, {"lon": -77.02241083333334, "bike_id": "d7ac28596a2e84e95fa0265a675961b5", "lat": 38.90186583333333, "fusion_lon": 0.0, "fusion_lat": 0.0, "type": "electric_scooter", "name": "d7ac28596a2e84e95fa0265a675961b5", "is_disabled": 0, "rental_uris": {"ios": "https://dc.lft.to/lastmile_qr_scan", "android": "https://dc.lft.to/lastmile_qr_scan"}, "is_reserved": 0}, {"lon": -77.024379, "bike_id": "3c60f8c7561a4c9cee37973ee655e35d", "lat": 38.927537, "fusion_lon": 0.0, "fusion_lat": 0.0, "type": "electric_scooter", "name": "3c60f8c7561a4c9cee37973ee655e35d", "is_disabled": 0, "rental_uris": {"ios": "https://dc.lft.to/lastmile_qr_scan", "android": "https://dc.lft.to/lastmile_qr_scan"}, "is_reserved": 0}, {"lon": -77.03191183333334, "bike_id": "c8c04c349e856432a2e423f93ec984ca", "lat": 38.90898716666667, "fusion_lon": 0.0, "fusion_lat": 0.0, "type": "electric_scooter", "name": "c8c04c349e856432a2e423f93ec984ca", "is_disabled": 0, "rental_uris": {"ios": "https://dc.lft.to/lastmile_qr_scan", "android": "https://dc.lft.to/lastmile_qr_scan"}, "is_reserved": 0}, {"lon": -77.0433995, "bike_id": "19e155c92931f6efe2d4c459761c7262", "lat": 38.92807166666667, "fusion_lon": 0.0, "fusion_lat": 0.0, "type": "electric_scooter", "name": "19e155c92931f6efe2d4c459761c7262", "is_disabled": 0, "rental_uris": {"ios": "https://dc.lft.to/lastmile_qr_scan", "android": "https://dc.lft.to/lastmile_qr_scan"}, "is_reserved": 0}, {"lon": -77.0262415, "bike_id": "20cc368e10f4b9fbe9710bb938e6cffa", "lat": 38.91530983333333, "fusion_lon": 0.0, "fusion_lat": 0.0, "type": "electric_scooter", "name": "20cc368e10f4b9fbe9710bb938e6cffa", "is_disabled": 0, "rental_uris": {"ios": "https://dc.lft.to/lastmile_qr_scan", "android": "https://dc.lft.to/lastmile_qr_scan"}, "is_reserved": 0}, {"lon": -77.00724433333333, "bike_id": "6e2a4eff73e77cf3a28bdc9bbe5f9503", "lat": 38.95955983333333, "fusion_lon": 0.0, "fusion_lat": 0.0, "type": "electric_scooter", "name": "6e2a4eff73e77cf3a28bdc9bbe5f9503", "is_disabled": 0, "rental_uris": {"ios": "https://dc.lft.to/lastmile_qr_scan", "android": "https://dc.lft.to/lastmile_qr_scan"}, "is_reserved": 0}, {"lon": -77.0463435, "bike_id": "1f1e2c93e6393e7acb9196ec6644ca8e", "lat": 38.919047166666665, "fusion_lon": 0.0, "fusion_lat": 0.0, "type": "electric_scooter", "name": "1f1e2c93e6393e7acb9196ec6644ca8e", "is_disabled": 0, "rental_uris": {"ios": "https://dc.lft.to/lastmile_qr_scan", "android": "https://dc.lft.to/lastmile_qr_scan"}, "is_reserved": 0}, {"lon": -77.01623033333334, "bike_id": "7411d13a65cb424c55332789a0527a45", "lat": 38.9070685, "fusion_lon": 0.0, "fusion_lat": 0.0, "type": "electric_scooter", "name": "7411d13a65cb424c55332789a0527a45", "is_disabled": 0, "rental_uris": {"ios": "https://dc.lft.to/lastmile_qr_scan", "android": "https://dc.lft.to/lastmile_qr_scan"}, "is_reserved": 0}, {"lon": -76.99022333333333, "bike_id": "b01af1daa303b3f9b364c30e966c1268", "lat": 38.89411833333333, "fusion_lon": 0.0, "fusion_lat": 0.0, "type": "electric_scooter", "name": "b01af1daa303b3f9b364c30e966c1268", "is_disabled": 0, "rental_uris": {"ios": "https://dc.lft.to/lastmile_qr_scan", "android": "https://dc.lft.to/lastmile_qr_scan"}, "is_reserved": 0}, {"lon": -77.02618333333334, "bike_id": "a7c2fe05f2c6e9cca14dc4cd7831d88d", "lat": 38.905544, "fusion_lon": 0.0, "fusion_lat": 0.0, "type": "electric_scooter", "name": "a7c2fe05f2c6e9cca14dc4cd7831d88d", "is_disabled": 0, "rental_uris": {"ios": "https://dc.lft.to/lastmile_qr_scan", "android": "https://dc.lft.to/lastmile_qr_scan"}, "is_reserved": 0}, {"lon": -77.03779533333334, "bike_id": "16551d803e825d300a917fea71e50dde", "lat": 38.91672483333333, "fusion_lon": 0.0, "fusion_lat": 0.0, "type": "electric_scooter", "name": "16551d803e825d300a917fea71e50dde", "is_disabled": 0, "rental_uris": {"ios": "https://dc.lft.to/lastmile_qr_scan", "android": "https://dc.lft.to/lastmile_qr_scan"}, "is_reserved": 0}, {"lon": -77.03397366666667, "bike_id": "157877ba751c5d14f62f2acf44135bda", "lat": 38.90154866666666, "fusion_lon": 0.0, "fusion_lat": 0.0, "type": "electric_scooter", "name": "157877ba751c5d14f62f2acf44135bda", "is_disabled": 0, "rental_uris": {"ios": "https://dc.lft.to/lastmile_qr_scan", "android": "https://dc.lft.to/lastmile_qr_scan"}, "is_reserved": 0}, {"lon": -77.0416, "bike_id": "ebba188464cc65a0b28f79399c971184", "lat": 38.903585666666665, "fusion_lon": 0.0, "fusion_lat": 0.0, "type": "electric_scooter", "name": "ebba188464cc65a0b28f79399c971184", "is_disabled": 0, "rental_uris": {"ios": "https://dc.lft.to/lastmile_qr_scan", "android": "https://dc.lft.to/lastmile_qr_scan"}, "is_reserved": 0}, {"lon": -76.98890616666667, "bike_id": "540c11b6ea63ba44abd3834058313431", "lat": 38.913421666666665, "fusion_lon": 0.0, "fusion_lat": 0.0, "type": "electric_scooter", "name": "540c11b6ea63ba44abd3834058313431", "is_disabled": 0, "rental_uris": {"ios": "https://dc.lft.to/lastmile_qr_scan", "android": "https://dc.lft.to/lastmile_qr_scan"}, "is_reserved": 0}, {"lon": -77.032193, "bike_id": "27f18fc709c066cf2d605d44251da16d", "lat": 38.916946833333334, "fusion_lon": 0.0, "fusion_lat": 0.0, "type": "electric_scooter", "name": "27f18fc709c066cf2d605d44251da16d", "is_disabled": 0, "rental_uris": {"ios": "https://dc.lft.to/lastmile_qr_scan", "android": "https://dc.lft.to/lastmile_qr_scan"}, "is_reserved": 0}, {"lon": -77.06004083333333, "bike_id": "8db303d80a5c4a48a26172038007e516", "lat": 38.86251816666667, "fusion_lon": 0.0, "fusion_lat": 0.0, "type": "electric_scooter", "name": "8db303d80a5c4a48a26172038007e516", "is_disabled": 0, "rental_uris": {"ios": "https://dc.lft.to/lastmile_qr_scan", "android": "https://dc.lft.to/lastmile_qr_scan"}, "is_reserved": 0}, {"lon": -77.042719, "bike_id": "e2f15e24c42811504ecad4413fafb065", "lat": 38.92249483333333, "fusion_lon": 0.0, "fusion_lat": 0.0, "type": "electric_scooter", "name": "e2f15e24c42811504ecad4413fafb065", "is_disabled": 0, "rental_uris": {"ios": "https://dc.lft.to/lastmile_qr_scan", "android": "https://dc.lft.to/lastmile_qr_scan"}, "is_reserved": 0}, {"lon": -77.02936133333333, "bike_id": "e184d433b675a6d2d4302c6326384abe", "lat": 38.92081833333334, "fusion_lon": 0.0, "fusion_lat": 0.0, "type": "electric_scooter", "name": "e184d433b675a6d2d4302c6326384abe", "is_disabled": 0, "rental_uris": {"ios": "https://dc.lft.to/lastmile_qr_scan", "android": "https://dc.lft.to/lastmile_qr_scan"}, "is_reserved": 0}, {"lon": -77.002045, "bike_id": "b2cef481bacad3884e4f514811e73987", "lat": 38.90234183333333, "fusion_lon": 0.0, "fusion_lat": 0.0, "type": "electric_scooter", "name": "b2cef481bacad3884e4f514811e73987", "is_disabled": 0, "rental_uris": {"ios": "https://dc.lft.to/lastmile_qr_scan", "android": "https://dc.lft.to/lastmile_qr_scan"}, "is_reserved": 0}, {"lon": -77.0298605, "bike_id": "fb16ece619928896751736efe08ce301", "lat": 38.90287383333333, "fusion_lon": 0.0, "fusion_lat": 0.0, "type": "electric_scooter", "name": "fb16ece619928896751736efe08ce301", "is_disabled": 0, "rental_uris": {"ios": "https://dc.lft.to/lastmile_qr_scan", "android": "https://dc.lft.to/lastmile_qr_scan"}, "is_reserved": 0}, {"lon": -77.05235283333333, "bike_id": "0ba1695f49ca4495f9ae5726b8b86188", "lat": 38.92458366666666, "fusion_lon": 0.0, "fusion_lat": 0.0, "type": "electric_scooter", "name": "0ba1695f49ca4495f9ae5726b8b86188", "is_disabled": 0, "rental_uris": {"ios": "https://dc.lft.to/lastmile_qr_scan", "android": "https://dc.lft.to/lastmile_qr_scan"}, "is_reserved": 0}, {"lon": -77.0085225, "bike_id": "f5cb4241836e38941c9a2ee6addf19bc", "lat": 38.916193666666665, "fusion_lon": 0.0, "fusion_lat": 0.0, "type": "electric_scooter", "name": "f5cb4241836e38941c9a2ee6addf19bc", "is_disabled": 0, "rental_uris": {"ios": "https://dc.lft.to/lastmile_qr_scan", "android": "https://dc.lft.to/lastmile_qr_scan"}, "is_reserved": 0}, {"lon": -77.0204775, "bike_id": "e561272250eb0327125f8ba3fdaedd5f", "lat": 38.91552766666667, "fusion_lon": 0.0, "fusion_lat": 0.0, "type": "electric_scooter", "name": "e561272250eb0327125f8ba3fdaedd5f", "is_disabled": 0, "rental_uris": {"ios": "https://dc.lft.to/lastmile_qr_scan", "android": "https://dc.lft.to/lastmile_qr_scan"}, "is_reserved": 0}, {"lon": -77.02798616666666, "bike_id": "4fd7e69fe5551e9dc981f6b7be86f10a", "lat": 38.906150833333335, "fusion_lon": 0.0, "fusion_lat": 0.0, "type": "electric_scooter", "name": "4fd7e69fe5551e9dc981f6b7be86f10a", "is_disabled": 0, "rental_uris": {"ios": "https://dc.lft.to/lastmile_qr_scan", "android": "https://dc.lft.to/lastmile_qr_scan"}, "is_reserved": 0}, {"lon": -77.00788283333333, "bike_id": "e89519fc1c07f6575b78924a3b184a7b", "lat": 38.89668433333333, "fusion_lon": 0.0, "fusion_lat": 0.0, "type": "electric_scooter", "name": "e89519fc1c07f6575b78924a3b184a7b", "is_disabled": 0, "rental_uris": {"ios": "https://dc.lft.to/lastmile_qr_scan", "android": "https://dc.lft.to/lastmile_qr_scan"}, "is_reserved": 0}, {"lon": -76.98893133333334, "bike_id": "edf47fa70b262e2d082f0112ff251bf2", "lat": 38.913366333333336, "fusion_lon": 0.0, "fusion_lat": 0.0, "type": "electric_scooter", "name": "edf47fa70b262e2d082f0112ff251bf2", "is_disabled": 0, "rental_uris": {"ios": "https://dc.lft.to/lastmile_qr_scan", "android": "https://dc.lft.to/lastmile_qr_scan"}, "is_reserved": 0}, {"lon": -76.933959, "bike_id": "700dc1debaf7819a809df38dbefeeea4", "lat": 38.89904683333334, "fusion_lon": 0.0, "fusion_lat": 0.0, "type": "electric_scooter", "name": "700dc1debaf7819a809df38dbefeeea4", "is_disabled": 0, "rental_uris": {"ios": "https://dc.lft.to/lastmile_qr_scan", "android": "https://dc.lft.to/lastmile_qr_scan"}, "is_reserved": 0}, {"lon": -76.9940805, "bike_id": "dc12f401315d2b095698e958ee02f12f", "lat": 38.831361333333334, "fusion_lon": 0.0, "fusion_lat": 0.0, "type": "electric_bike", "name": "dc12f401315d2b095698e958ee02f12f", "is_disabled": 0, "rental_uris": {"ios": "https://dc.lft.to/lastmile_qr_scan", "android": "https://dc.lft.to/lastmile_qr_scan"}, "is_reserved": 0}, {"lon": -77.01155433333334, "bike_id": "914eda92ec9c50f583ff8fcc33c11091", "lat": 38.9139775, "fusion_lon": 0.0, "fusion_lat": 0.0, "type": "electric_scooter", "name": "914eda92ec9c50f583ff8fcc33c11091", "is_disabled": 0, "rental_uris": {"ios": "https://dc.lft.to/lastmile_qr_scan", "android": "https://dc.lft.to/lastmile_qr_scan"}, "is_reserved": 0}, {"lon": -77.03668883333333, "bike_id": "984c9da7d4d7ea17a84569a494969813", "lat": 38.917435, "fusion_lon": 0.0, "fusion_lat": 0.0, "type": "electric_scooter", "name": "984c9da7d4d7ea17a84569a494969813", "is_disabled": 0, "rental_uris": {"ios": "https://dc.lft.to/lastmile_qr_scan", "android": "https://dc.lft.to/lastmile_qr_scan"}, "is_reserved": 0}, {"lon": -77.02679683333334, "bike_id": "0fcc799bffa7ef8603bbf05d25dae9c2", "lat": 38.927826333333336, "fusion_lon": 0.0, "fusion_lat": 0.0, "type": "electric_scooter", "name": "0fcc799bffa7ef8603bbf05d25dae9c2", "is_disabled": 0, "rental_uris": {"ios": "https://dc.lft.to/lastmile_qr_scan", "android": "https://dc.lft.to/lastmile_qr_scan"}, "is_reserved": 0}, {"lon": -76.9547705, "bike_id": "56fbced375b9a71512db4271c7ae30f8", "lat": 38.884617666666664, "fusion_lon": 0.0, "fusion_lat": 0.0, "type": "electric_scooter", "name": "56fbced375b9a71512db4271c7ae30f8", "is_disabled": 0, "rental_uris": {"ios": "https://dc.lft.to/lastmile_qr_scan", "android": "https://dc.lft.to/lastmile_qr_scan"}, "is_reserved": 0}, {"lon": -77.02380516666666, "bike_id": "70134497c760c3276bc0630c5e08f626", "lat": 38.90691983333333, "fusion_lon": 0.0, "fusion_lat": 0.0, "type": "electric_scooter", "name": "70134497c760c3276bc0630c5e08f626", "is_disabled": 0, "rental_uris": {"ios": "https://dc.lft.to/lastmile_qr_scan", "android": "https://dc.lft.to/lastmile_qr_scan"}, "is_reserved": 0}, {"lon": -76.96873883333333, "bike_id": "1dff2a5c0ff2b49c42c65b74bc7b6a05", "lat": 38.95578366666667, "fusion_lon": 0.0, "fusion_lat": 0.0, "type": "electric_bike", "name": "1dff2a5c0ff2b49c42c65b74bc7b6a05", "is_disabled": 0, "rental_uris": {"ios": "https://dc.lft.to/lastmile_qr_scan", "android": "https://dc.lft.to/lastmile_qr_scan"}, "is_reserved": 0}, {"lon": -77.10096366666667, "bike_id": "126886cfc0798b68d5ac71700e943982", "lat": 38.959528, "fusion_lon": 0.0, "fusion_lat": 0.0, "type": "electric_bike", "name": "126886cfc0798b68d5ac71700e943982", "is_disabled": 0, "rental_uris": {"ios": "https://dc.lft.to/lastmile_qr_scan", "android": "https://dc.lft.to/lastmile_qr_scan"}, "is_reserved": 0}, {"lon": -76.9948635, "bike_id": "142dae3a5df57bffcd193ad35bb94ff2", "lat": 38.915700333333334, "fusion_lon": 0.0, "fusion_lat": 0.0, "type": "electric_scooter", "name": "142dae3a5df57bffcd193ad35bb94ff2", "is_disabled": 0, "rental_uris": {"ios": "https://dc.lft.to/lastmile_qr_scan", "android": "https://dc.lft.to/lastmile_qr_scan"}, "is_reserved": 0}, {"lon": -76.9859265, "bike_id": "97422dc9375cd2bc10e072ba3948bc6b", "lat": 38.9081085, "fusion_lon": 0.0, "fusion_lat": 0.0, "type": "electric_scooter", "name": "97422dc9375cd2bc10e072ba3948bc6b", "is_disabled": 0, "rental_uris": {"ios": "https://dc.lft.to/lastmile_qr_scan", "android": "https://dc.lft.to/lastmile_qr_scan"}, "is_reserved": 0}, {"lon": -76.98268683333333, "bike_id": "d3849ee6ebeef8111a67dd9413d724a4", "lat": 38.90853516666667, "fusion_lon": 0.0, "fusion_lat": 0.0, "type": "electric_scooter", "name": "d3849ee6ebeef8111a67dd9413d724a4", "is_disabled": 0, "rental_uris": {"ios": "https://dc.lft.to/lastmile_qr_scan", "android": "https://dc.lft.to/lastmile_qr_scan"}, "is_reserved": 0}, {"lon": -76.993899, "bike_id": "2db60f3b54ef7c6dc9a8d4a61b413acd", "lat": 38.923914333333336, "fusion_lon": 0.0, "fusion_lat": 0.0, "type": "electric_scooter", "name": "2db60f3b54ef7c6dc9a8d4a61b413acd", "is_disabled": 0, "rental_uris": {"ios": "https://dc.lft.to/lastmile_qr_scan", "android": "https://dc.lft.to/lastmile_qr_scan"}, "is_reserved": 0}, {"lon": -77.00377466666667, "bike_id": "647e9d184760aa27a082aaf0d4f514ff", "lat": 38.89722416666667, "fusion_lon": 0.0, "fusion_lat": 0.0, "type": "electric_scooter", "name": "647e9d184760aa27a082aaf0d4f514ff", "is_disabled": 0, "rental_uris": {"ios": "https://dc.lft.to/lastmile_qr_scan", "android": "https://dc.lft.to/lastmile_qr_scan"}, "is_reserved": 0}, {"lon": -77.02472166666666, "bike_id": "1b18868ac106c35f4577584a29f2b541", "lat": 38.9064895, "fusion_lon": 0.0, "fusion_lat": 0.0, "type": "electric_scooter", "name": "1b18868ac106c35f4577584a29f2b541", "is_disabled": 0, "rental_uris": {"ios": "https://dc.lft.to/lastmile_qr_scan", "android": "https://dc.lft.to/lastmile_qr_scan"}, "is_reserved": 0}, {"lon": -77.03747166666666, "bike_id": "0b579d5323c8e734ed5237463f24659d", "lat": 38.91681766666667, "fusion_lon": 0.0, "fusion_lat": 0.0, "type": "electric_scooter", "name": "0b579d5323c8e734ed5237463f24659d", "is_disabled": 0, "rental_uris": {"ios": "https://dc.lft.to/lastmile_qr_scan", "android": "https://dc.lft.to/lastmile_qr_scan"}, "is_reserved": 0}, {"lon": -76.98849333333334, "bike_id": "c0a6c3ef30690a78364944a910892135", "lat": 38.901216, "fusion_lon": 0.0, "fusion_lat": 0.0, "type": "electric_scooter", "name": "c0a6c3ef30690a78364944a910892135", "is_disabled": 0, "rental_uris": {"ios": "https://dc.lft.to/lastmile_qr_scan", "android": "https://dc.lft.to/lastmile_qr_scan"}, "is_reserved": 0}, {"lon": -77.00896433333334, "bike_id": "d96b3324343b02de0bd042748832be7a", "lat": 38.924856166666665, "fusion_lon": 0.0, "fusion_lat": 0.0, "type": "electric_scooter", "name": "d96b3324343b02de0bd042748832be7a", "is_disabled": 0, "rental_uris": {"ios": "https://dc.lft.to/lastmile_qr_scan", "android": "https://dc.lft.to/lastmile_qr_scan"}, "is_reserved": 0}, {"lon": -77.02298216666667, "bike_id": "6f2fce95c4353a14d7cb3f6b951ae6f7", "lat": 38.9183795, "fusion_lon": 0.0, "fusion_lat": 0.0, "type": "electric_scooter", "name": "6f2fce95c4353a14d7cb3f6b951ae6f7", "is_disabled": 0, "rental_uris": {"ios": "https://dc.lft.to/lastmile_qr_scan", "android": "https://dc.lft.to/lastmile_qr_scan"}, "is_reserved": 0}, {"lon": -77.035608, "bike_id": "5ab125242ee31038de853567bf5c44d4", "lat": 38.90478183333333, "fusion_lon": 0.0, "fusion_lat": 0.0, "type": "electric_scooter", "name": "5ab125242ee31038de853567bf5c44d4", "is_disabled": 0, "rental_uris": {"ios": "https://dc.lft.to/lastmile_qr_scan", "android": "https://dc.lft.to/lastmile_qr_scan"}, "is_reserved": 0}, {"lon": -77.17844616666666, "bike_id": "21c63f184ef1b8e6ee5af4bbb836a10a", "lat": 39.08853166666667, "fusion_lon": 0.0, "fusion_lat": 0.0, "type": "electric_bike", "name": "21c63f184ef1b8e6ee5af4bbb836a10a", "is_disabled": 0, "rental_uris": {"ios": "https://dc.lft.to/lastmile_qr_scan", "android": "https://dc.lft.to/lastmile_qr_scan"}, "is_reserved": 0}, {"lon": -77.02485083333333, "bike_id": "5d0c6189789f62e3d74a4f75f17f37d4", "lat": 38.936225666666665, "fusion_lon": 0.0, "fusion_lat": 0.0, "type": "electric_scooter", "name": "5d0c6189789f62e3d74a4f75f17f37d4", "is_disabled": 0, "rental_uris": {"ios": "https://dc.lft.to/lastmile_qr_scan", "android": "https://dc.lft.to/lastmile_qr_scan"}, "is_reserved": 0}, {"lon": -77.03283183333333, "bike_id": "7b3a8698e3b8e9eae19240ca9da38979", "lat": 38.936397, "fusion_lon": 0.0, "fusion_lat": 0.0, "type": "electric_scooter", "name": "7b3a8698e3b8e9eae19240ca9da38979", "is_disabled": 0, "rental_uris": {"ios": "https://dc.lft.to/lastmile_qr_scan", "android": "https://dc.lft.to/lastmile_qr_scan"}, "is_reserved": 0}, {"lon": -77.02385583333333, "bike_id": "05214c1295b009d4597af52b8260233d", "lat": 38.8812035, "fusion_lon": 0.0, "fusion_lat": 0.0, "type": "electric_bike", "name": "05214c1295b009d4597af52b8260233d", "is_disabled": 0, "rental_uris": {"ios": "https://dc.lft.to/lastmile_qr_scan", "android": "https://dc.lft.to/lastmile_qr_scan"}, "is_reserved": 0}, {"lon": -76.99915483333334, "bike_id": "fc61200695b99add8bb3ac64f1d04a29", "lat": 38.909094, "fusion_lon": 0.0, "fusion_lat": 0.0, "type": "electric_scooter", "name": "fc61200695b99add8bb3ac64f1d04a29", "is_disabled": 0, "rental_uris": {"ios": "https://dc.lft.to/lastmile_qr_scan", "android": "https://dc.lft.to/lastmile_qr_scan"}, "is_reserved": 0}, {"lon": -77.07862666666666, "bike_id": "64740ac29e53f21ef847682dda06ade7", "lat": 38.92461216666667, "fusion_lon": 0.0, "fusion_lat": 0.0, "type": "electric_scooter", "name": "64740ac29e53f21ef847682dda06ade7", "is_disabled": 0, "rental_uris": {"ios": "https://dc.lft.to/lastmile_qr_scan", "android": "https://dc.lft.to/lastmile_qr_scan"}, "is_reserved": 0}, {"lon": -77.03294633333333, "bike_id": "f3cd2ece0610ea77e18fffb50e0bfb17", "lat": 38.9564835, "fusion_lon": 0.0, "fusion_lat": 0.0, "type": "electric_scooter", "name": "f3cd2ece0610ea77e18fffb50e0bfb17", "is_disabled": 0, "rental_uris": {"ios": "https://dc.lft.to/lastmile_qr_scan", "android": "https://dc.lft.to/lastmile_qr_scan"}, "is_reserved": 0}, {"lon": -76.99612666666667, "bike_id": "9abae4fa44a4d02925d22c2ee10ca833", "lat": 38.8942615, "fusion_lon": 0.0, "fusion_lat": 0.0, "type": "electric_bike", "name": "9abae4fa44a4d02925d22c2ee10ca833", "is_disabled": 0, "rental_uris": {"ios": "https://dc.lft.to/lastmile_qr_scan", "android": "https://dc.lft.to/lastmile_qr_scan"}, "is_reserved": 0}, {"lon": -77.07009866666667, "bike_id": "ecc76b5e74a222d9804931b1d3db27b3", "lat": 38.958461166666666, "fusion_lon": 0.0, "fusion_lat": 0.0, "type": "electric_scooter", "name": "ecc76b5e74a222d9804931b1d3db27b3", "is_disabled": 0, "rental_uris": {"ios": "https://dc.lft.to/lastmile_qr_scan", "android": "https://dc.lft.to/lastmile_qr_scan"}, "is_reserved": 0}, {"lon": -77.08067316666667, "bike_id": "64f2584d9ac97d90f679bf26cd41ff95", "lat": 38.9631015, "fusion_lon": 0.0, "fusion_lat": 0.0, "type": "electric_bike", "name": "64f2584d9ac97d90f679bf26cd41ff95", "is_disabled": 0, "rental_uris": {"ios": "https://dc.lft.to/lastmile_qr_scan", "android": "https://dc.lft.to/lastmile_qr_scan"}, "is_reserved": 0}, {"lon": -77.005912, "bike_id": "0a4d5e987c2d83b40733b107595bee02", "lat": 38.83586183333333, "fusion_lon": 0.0, "fusion_lat": 0.0, "type": "electric_scooter", "name": "0a4d5e987c2d83b40733b107595bee02", "is_disabled": 0, "rental_uris": {"ios": "https://dc.lft.to/lastmile_qr_scan", "android": "https://dc.lft.to/lastmile_qr_scan"}, "is_reserved": 0}, {"lon": -77.02493233333334, "bike_id": "d5266241b9bfa4f959319a9875a0761b", "lat": 38.941755666666666, "fusion_lon": 0.0, "fusion_lat": 0.0, "type": "electric_scooter", "name": "d5266241b9bfa4f959319a9875a0761b", "is_disabled": 0, "rental_uris": {"ios": "https://dc.lft.to/lastmile_qr_scan", "android": "https://dc.lft.to/lastmile_qr_scan"}, "is_reserved": 0}, {"lon": -76.94899216666667, "bike_id": "4ec5195e175aac0d42526cb7a26fb3e7", "lat": 38.895396166666664, "fusion_lon": 0.0, "fusion_lat": 0.0, "type": "electric_scooter", "name": "4ec5195e175aac0d42526cb7a26fb3e7", "is_disabled": 0, "rental_uris": {"ios": "https://dc.lft.to/lastmile_qr_scan", "android": "https://dc.lft.to/lastmile_qr_scan"}, "is_reserved": 0}, {"lon": -76.98342933333333, "bike_id": "f3b785b203e60d9c350fea0016148d3a", "lat": 38.90293166666667, "fusion_lon": 0.0, "fusion_lat": 0.0, "type": "electric_scooter", "name": "f3b785b203e60d9c350fea0016148d3a", "is_disabled": 0, "rental_uris": {"ios": "https://dc.lft.to/lastmile_qr_scan", "android": "https://dc.lft.to/lastmile_qr_scan"}, "is_reserved": 0}, {"lon": -77.05271583333334, "bike_id": "b0adccd5486d6fee0dd0dcbc52d97e2b", "lat": 38.92364633333333, "fusion_lon": 0.0, "fusion_lat": 0.0, "type": "electric_scooter", "name": "b0adccd5486d6fee0dd0dcbc52d97e2b", "is_disabled": 0, "rental_uris": {"ios": "https://dc.lft.to/lastmile_qr_scan", "android": "https://dc.lft.to/lastmile_qr_scan"}, "is_reserved": 0}, {"lon": -77.04021383333334, "bike_id": "5f1273f184d1d801224559c880542f5e", "lat": 38.91323666666667, "fusion_lon": 0.0, "fusion_lat": 0.0, "type": "electric_scooter", "name": "5f1273f184d1d801224559c880542f5e", "is_disabled": 0, "rental_uris": {"ios": "https://dc.lft.to/lastmile_qr_scan", "android": "https://dc.lft.to/lastmile_qr_scan"}, "is_reserved": 0}, {"lon": -77.03944516666667, "bike_id": "c5b4533a1a14fcb8d55ba1205e40d150", "lat": 38.900914, "fusion_lon": 0.0, "fusion_lat": 0.0, "type": "electric_scooter", "name": "c5b4533a1a14fcb8d55ba1205e40d150", "is_disabled": 0, "rental_uris": {"ios": "https://dc.lft.to/lastmile_qr_scan", "android": "https://dc.lft.to/lastmile_qr_scan"}, "is_reserved": 0}, {"lon": -77.0316895, "bike_id": "5e0a190bc84b6a1dd7ef27fd004f0f87", "lat": 38.900844666666664, "fusion_lon": 0.0, "fusion_lat": 0.0, "type": "electric_scooter", "name": "5e0a190bc84b6a1dd7ef27fd004f0f87", "is_disabled": 0, "rental_uris": {"ios": "https://dc.lft.to/lastmile_qr_scan", "android": "https://dc.lft.to/lastmile_qr_scan"}, "is_reserved": 0}, {"lon": -77.04687566666666, "bike_id": "ba29dc58242360b2acb2f018ad7283b5", "lat": 38.908577666666666, "fusion_lon": 0.0, "fusion_lat": 0.0, "type": "electric_scooter", "name": "ba29dc58242360b2acb2f018ad7283b5", "is_disabled": 0, "rental_uris": {"ios": "https://dc.lft.to/lastmile_qr_scan", "android": "https://dc.lft.to/lastmile_qr_scan"}, "is_reserved": 0}, {"lon": -76.993818, "bike_id": "b290dd1247a4ae88ddf308a7e5647bb1", "lat": 38.971772666666666, "fusion_lon": 0.0, "fusion_lat": 0.0, "type": "electric_bike", "name": "b290dd1247a4ae88ddf308a7e5647bb1", "is_disabled": 0, "rental_uris": {"ios": "https://dc.lft.to/lastmile_qr_scan", "android": "https://dc.lft.to/lastmile_qr_scan"}, "is_reserved": 0}, {"lon": -76.99496633333334, "bike_id": "1b437cbc625338d6b411f09a037572e5", "lat": 38.881424, "fusion_lon": 0.0, "fusion_lat": 0.0, "type": "electric_scooter", "name": "1b437cbc625338d6b411f09a037572e5", "is_disabled": 0, "rental_uris": {"ios": "https://dc.lft.to/lastmile_qr_scan", "android": "https://dc.lft.to/lastmile_qr_scan"}, "is_reserved": 0}, {"lon": -77.02357333333333, "bike_id": "29094b6ae43d09150ed82ba62d99c088", "lat": 38.89621733333333, "fusion_lon": 0.0, "fusion_lat": 0.0, "type": "electric_scooter", "name": "29094b6ae43d09150ed82ba62d99c088", "is_disabled": 0, "rental_uris": {"ios": "https://dc.lft.to/lastmile_qr_scan", "android": "https://dc.lft.to/lastmile_qr_scan"}, "is_reserved": 0}, {"lon": -77.04653566666667, "bike_id": "b93f75cd2efaf11c9d33598f9eb2bdc7", "lat": 38.9033835, "fusion_lon": 0.0, "fusion_lat": 0.0, "type": "electric_scooter", "name": "b93f75cd2efaf11c9d33598f9eb2bdc7", "is_disabled": 0, "rental_uris": {"ios": "https://dc.lft.to/lastmile_qr_scan", "android": "https://dc.lft.to/lastmile_qr_scan"}, "is_reserved": 0}, {"lon": -77.0230595, "bike_id": "5ccf99118a88bdda1ebf00a8f9ed7f74", "lat": 38.940895, "fusion_lon": 0.0, "fusion_lat": 0.0, "type": "electric_scooter", "name": "5ccf99118a88bdda1ebf00a8f9ed7f74", "is_disabled": 0, "rental_uris": {"ios": "https://dc.lft.to/lastmile_qr_scan", "android": "https://dc.lft.to/lastmile_qr_scan"}, "is_reserved": 0}, {"lon": -77.03467733333333, "bike_id": "88b7da025774bbf061df0305bf8ea167", "lat": 38.926375166666666, "fusion_lon": 0.0, "fusion_lat": 0.0, "type": "electric_scooter", "name": "88b7da025774bbf061df0305bf8ea167", "is_disabled": 0, "rental_uris": {"ios": "https://dc.lft.to/lastmile_qr_scan", "android": "https://dc.lft.to/lastmile_qr_scan"}, "is_reserved": 0}, {"lon": -77.04930633333333, "bike_id": "ca433cec5868a84adc2b6483c2bacdb5", "lat": 39.029322666666665, "fusion_lon": 0.0, "fusion_lat": 0.0, "type": "electric_bike", "name": "ca433cec5868a84adc2b6483c2bacdb5", "is_disabled": 0, "rental_uris": {"ios": "https://dc.lft.to/lastmile_qr_scan", "android": "https://dc.lft.to/lastmile_qr_scan"}, "is_reserved": 0}, {"lon": -77.04217316666667, "bike_id": "dc74732d8608f0d489fb79dd88ef6d7c", "lat": 38.92118966666666, "fusion_lon": 0.0, "fusion_lat": 0.0, "type": "electric_scooter", "name": "dc74732d8608f0d489fb79dd88ef6d7c", "is_disabled": 0, "rental_uris": {"ios": "https://dc.lft.to/lastmile_qr_scan", "android": "https://dc.lft.to/lastmile_qr_scan"}, "is_reserved": 0}, {"lon": -77.03085466666667, "bike_id": "0ebec5521804e18c124451bda99e852e", "lat": 38.880329, "fusion_lon": 0.0, "fusion_lat": 0.0, "type": "electric_scooter", "name": "0ebec5521804e18c124451bda99e852e", "is_disabled": 0, "rental_uris": {"ios": "https://dc.lft.to/lastmile_qr_scan", "android": "https://dc.lft.to/lastmile_qr_scan"}, "is_reserved": 0}, {"lon": -77.020984, "bike_id": "d42ad0e40884f40de402a905c1a4f9e4", "lat": 38.899821, "fusion_lon": 0.0, "fusion_lat": 0.0, "type": "electric_scooter", "name": "d42ad0e40884f40de402a905c1a4f9e4", "is_disabled": 0, "rental_uris": {"ios": "https://dc.lft.to/lastmile_qr_scan", "android": "https://dc.lft.to/lastmile_qr_scan"}, "is_reserved": 0}, {"lon": -77.02602833333333, "bike_id": "de04decab35015ebdf34a347014f4a28", "lat": 38.92652066666667, "fusion_lon": 0.0, "fusion_lat": 0.0, "type": "electric_scooter", "name": "de04decab35015ebdf34a347014f4a28", "is_disabled": 0, "rental_uris": {"ios": "https://dc.lft.to/lastmile_qr_scan", "android": "https://dc.lft.to/lastmile_qr_scan"}, "is_reserved": 0}, {"lon": -77.039908, "bike_id": "9331085966ea091d2c2205cbe8ff3d85", "lat": 38.92448566666667, "fusion_lon": 0.0, "fusion_lat": 0.0, "type": "electric_scooter", "name": "9331085966ea091d2c2205cbe8ff3d85", "is_disabled": 0, "rental_uris": {"ios": "https://dc.lft.to/lastmile_qr_scan", "android": "https://dc.lft.to/lastmile_qr_scan"}, "is_reserved": 0}, {"lon": -77.044471, "bike_id": "091d31cd26bc885a7ce26ed5000123d6", "lat": 38.918781333333335, "fusion_lon": 0.0, "fusion_lat": 0.0, "type": "electric_scooter", "name": "091d31cd26bc885a7ce26ed5000123d6", "is_disabled": 0, "rental_uris": {"ios": "https://dc.lft.to/lastmile_qr_scan", "android": "https://dc.lft.to/lastmile_qr_scan"}, "is_reserved": 0}, {"lon": -77.0359505, "bike_id": "685ec9aea0ec5f1ea7a73f29722bc721", "lat": 38.93667716666667, "fusion_lon": 0.0, "fusion_lat": 0.0, "type": "electric_scooter", "name": "685ec9aea0ec5f1ea7a73f29722bc721", "is_disabled": 0, "rental_uris": {"ios": "https://dc.lft.to/lastmile_qr_scan", "android": "https://dc.lft.to/lastmile_qr_scan"}, "is_reserved": 0}, {"lon": -76.98881666666666, "bike_id": "cceb33ca937bc68ecac6454d11795433", "lat": 38.866556, "fusion_lon": 0.0, "fusion_lat": 0.0, "type": "electric_scooter", "name": "cceb33ca937bc68ecac6454d11795433", "is_disabled": 0, "rental_uris": {"ios": "https://dc.lft.to/lastmile_qr_scan", "android": "https://dc.lft.to/lastmile_qr_scan"}, "is_reserved": 0}, {"lon": -77.01114583333333, "bike_id": "ba7e2c2a344aa06f149352773311ddef", "lat": 38.900015833333335, "fusion_lon": 0.0, "fusion_lat": 0.0, "type": "electric_scooter", "name": "ba7e2c2a344aa06f149352773311ddef", "is_disabled": 0, "rental_uris": {"ios": "https://dc.lft.to/lastmile_qr_scan", "android": "https://dc.lft.to/lastmile_qr_scan"}, "is_reserved": 0}, {"lon": -77.048183, "bike_id": "49fc67c2aba96f1a21ec2790dacbd1ff", "lat": 38.91643583333333, "fusion_lon": 0.0, "fusion_lat": 0.0, "type": "electric_scooter", "name": "49fc67c2aba96f1a21ec2790dacbd1ff", "is_disabled": 0, "rental_uris": {"ios": "https://dc.lft.to/lastmile_qr_scan", "android": "https://dc.lft.to/lastmile_qr_scan"}, "is_reserved": 0}, {"lon": -77.0088895, "bike_id": "744304e98c00938ddb8437d14d386593", "lat": 38.91714433333333, "fusion_lon": 0.0, "fusion_lat": 0.0, "type": "electric_scooter", "name": "744304e98c00938ddb8437d14d386593", "is_disabled": 0, "rental_uris": {"ios": "https://dc.lft.to/lastmile_qr_scan", "android": "https://dc.lft.to/lastmile_qr_scan"}, "is_reserved": 0}, {"lon": -77.022334, "bike_id": "11189399e3780efea94c8d4eaa1c71f5", "lat": 38.9141285, "fusion_lon": 0.0, "fusion_lat": 0.0, "type": "electric_scooter", "name": "11189399e3780efea94c8d4eaa1c71f5", "is_disabled": 0, "rental_uris": {"ios": "https://dc.lft.to/lastmile_qr_scan", "android": "https://dc.lft.to/lastmile_qr_scan"}, "is_reserved": 0}, {"lon": -77.0306045, "bike_id": "89bd86173f006fd83285091c282eb4fd", "lat": 38.908207833333336, "fusion_lon": 0.0, "fusion_lat": 0.0, "type": "electric_scooter", "name": "89bd86173f006fd83285091c282eb4fd", "is_disabled": 0, "rental_uris": {"ios": "https://dc.lft.to/lastmile_qr_scan", "android": "https://dc.lft.to/lastmile_qr_scan"}, "is_reserved": 0}, {"lon": -76.99040683333334, "bike_id": "93c4273d045af4cc167815a4d93c8c64", "lat": 38.88747466666667, "fusion_lon": 0.0, "fusion_lat": 0.0, "type": "electric_scooter", "name": "93c4273d045af4cc167815a4d93c8c64", "is_disabled": 0, "rental_uris": {"ios": "https://dc.lft.to/lastmile_qr_scan", "android": "https://dc.lft.to/lastmile_qr_scan"}, "is_reserved": 0}, {"lon": -77.03410283333334, "bike_id": "af586e7d0f23c5cca08ff7dccc2ad6eb", "lat": 38.931134166666666, "fusion_lon": 0.0, "fusion_lat": 0.0, "type": "electric_scooter", "name": "af586e7d0f23c5cca08ff7dccc2ad6eb", "is_disabled": 0, "rental_uris": {"ios": "https://dc.lft.to/lastmile_qr_scan", "android": "https://dc.lft.to/lastmile_qr_scan"}, "is_reserved": 0},