{"data": {"bikes": [{"fusion_lon": 0.0, "name": "29121d909e9f42b43e11a2285f58880f", "rental_uris": {"android": "https://dc.lft.to/lastmile_qr_scan", "ios": "https://dc.lft.to/lastmile_qr_scan"}, "lat": 38.887641, "bike_id": "29121d909e9f42b43e11a2285f58880f", "is_disabled": 0, "lon": -76.99759633333333, "is_reserved": 0, "fusion_lat": 0.0, "type": "electric_scooter"}, {"fusion_lon": 0.0, "name": "5e33946d3825d94bc5e35fa183c9c524", "rental_uris": {"android": "https://dc.lft.to/lastmile_qr_scan", "ios": "https://dc.lft.to/lastmile_qr_scan"}, "lat": 38.922191166666664, "bike_id": "5e33946d3825d94bc5e35fa183c9c524", "is_disabled": 0, "lon": -77.02421033333333, "is_reserved": 0, "fusion_lat": 0.0, "type": "electric_scooter"}, {"fusion_lon": 0.0, "name": "97a349e6f04522b5270dd7080942f6af", "rental_uris": {"android": "https://dc.lft.to/lastmile_qr_scan", "ios": "https://dc.lft.to/lastmile_qr_scan"}, "lat": 38.91221216666667, "bike_id": "97a349e6f04522b5270dd7080942f6af", "is_disabled": 0, "lon": -77.03187183333333, "is_reserved": 0, "fusion_lat": 0.0, "type": "electric_scooter"}, {"fusion_lon": 0.0, "name": "91ccdaacd22cd0643e797b9f198a1824", "rental_uris": {"android": "https://dc.lft.to/lastmile_qr_scan", "ios": "https://dc.lft.to/lastmile_qr_scan"}, "lat": 38.885112666666664, "bike_id": "91ccdaacd22cd0643e797b9f198a1824", "is_disabled": 0, "lon": -77.01116216666667, "is_reserved": 0, "fusion_lat": 0.0, "type": "electric_scooter"}, {"fusion_lon": 0.0, "name": "9254e92422edb5050c50838d4b989956", "rental_uris": {"android": "https://dc.lft.to/lastmile_qr_scan", "ios": "https://dc.lft.to/lastmile_qr_scan"}, "lat": 38.89595033333333, "bike_id": "9254e92422edb5050c50838d4b989956", "is_disabled": 0, "lon": -77.04808583333333, "is_reserved": 0, "fusion_lat": 0.0, "type": "electric_scooter"}, {"fusion_lon": 0.0, "name": "ce81b4ec8b342ac0a38b77831de906a0", "rental_uris": {"android": "https://dc.lft.to/lastmile_qr_scan", "ios": "https://dc.lft.to/lastmile_qr_scan"}, "lat": 38.900297, "bike_id": "ce81b4ec8b342ac0a38b77831de906a0", "is_disabled": 0, "lon": -77.04669966666667, "is_reserved": 0, "fusion_lat": 0.0, "type": "electric_scooter"}, {"fusion_lon": 0.0, "name": "aa78c6d274d61f6d983b3ad531d6231c", "rental_uris": {"android": "https://dc.lft.to/lastmile_qr_scan", "ios": "https://dc.lft.to/lastmile_qr_scan"}, "lat": 38.92363016666667, "bike_id": "aa78c6d274d61f6d983b3ad531d6231c", "is_disabled": 0, "lon": -77.050508, "is_reserved": 0, "fusion_lat": 0.0, "type": "electric_scooter"}, {"fusion_lon": 0.0, "name": "7a7b216d4d559e8df2944abc86c32da6", "rental_uris": {"android": "https://dc.lft.to/lastmile_qr_scan", "ios": "https://dc.lft.to/lastmile_qr_scan"}, "lat": 38.89229983333333, "bike_id": "7a7b216d4d559e8df2944abc86c32da6", "is_disabled": 0, "lon": -77.04999966666666, "is_reserved": 0, "fusion_lat": 0.0, "type": "electric_scooter"}, {"fusion_lon": 0.0, "name": "a48e871ee0eedef6a37bb023ad00e36e", "rental_uris": {"android": "https://dc.lft.to/lastmile_qr_scan", "ios": "https://dc.lft.to/lastmile_qr_scan"}, "lat": 38.91647283333333, "bike_id": "a48e871ee0eedef6a37bb023ad00e36e", "is_disabled": 0, "lon": -77.03177083333334, "is_reserved": 0, "fusion_lat": 0.0, "type": "electric_scooter"}, {"fusion_lon": 0.0, "name": "cb0eca9b922ba5d33929d46bca29fc39", "rental_uris": {"android": "https://dc.lft.to/lastmile_qr_scan", "ios": "https://dc.lft.to/lastmile_qr_scan"}, "lat": 38.91010033333333, "bike_id": "cb0eca9b922ba5d33929d46bca29fc39", "is_disabled": 0, "lon": -77.0209815, "is_reserved": 0, "fusion_lat": 0.0, "type": "electric_scooter"}, {"fusion_lon": 0.0, "name": "e72968408ac7c8af2574558f3a7e3e87", "rental_uris": {"android": "https://dc.lft.to/lastmile_qr_scan", "ios": "https://dc.lft.to/lastmile_qr_scan"}, "lat": 38.922296833333334, "bike_id": "e72968408ac7c8af2574558f3a7e3e87", "is_disabled": 0, "lon": -76.97532983333333, "is_reserved": 0, "fusion_lat": 0.0, "type": "electric_scooter"}, {"fusion_lon": 0.0, "name": "2fe9d0d386d372cc5d48491353fab70c", "rental_uris": {"android": "https://dc.lft.to/lastmile_qr_scan", "ios": "https://dc.lft.to/lastmile_qr_scan"}, "lat": 38.928305333333334, "bike_id": "2fe9d0d386d372cc5d48491353fab70c", "is_disabled": 0, "lon": -77.014091, "is_reserved": 0, "fusion_lat": 0.0, "type": "electric_scooter"}, {"fusion_lon": 0.0, "name": "cb9b9d26c69b6934558cf20fe2e7c7da", "rental_uris": {"android": "https://dc.lft.to/lastmile_qr_scan", "ios": "https://dc.lft.to/lastmile_qr_scan"}, "lat": 38.912684166666665, "bike_id": "cb9b9d26c69b6934558cf20fe2e7c7da", "is_disabled": 0, "lon": -77.02209216666667, "is_reserved": 0, "fusion_lat": 0.0, "type": "electric_scooter"}, {"fusion_lon": 0.0, "name": "2a41f94b4b73ab0397588e8d794157ff", "rental_uris": {"android": "https://dc.lft.to/lastmile_qr_scan", "ios": "https://dc.lft.to/lastmile_qr_scan"}, "lat": 38.8918455, "bike_id": "2a41f94b4b73ab0397588e8d794157ff", "is_disabled": 0, "lon": -76.9359715, "is_reserved": 0, "fusion_lat": 0.0, "type": "electric_scooter"}, {"fusion_lon": 0.0, "name": "e425a8ae828eee9d4b8b38aef6214cc6", "rental_uris": {"android": "https://dc.lft.to/lastmile_qr_scan", "ios": "https://dc.lft.to/lastmile_qr_scan"}, "lat": 38.89710983333333, "bike_id": "e425a8ae828eee9d4b8b38aef6214cc6", "is_disabled": 0, "lon": -77.02773183333333, "is_reserved": 0, "fusion_lat": 0.0, "type": "electric_scooter"}, {"fusion_lon": 0.0, "name": "ec134bfa949300f0bd5f88fdd3232851", "rental_uris": {"android": "https://dc.lft.to/lastmile_qr_scan", "ios": "https://dc.lft.to/lastmile_qr_scan"}, "lat": 38.918182333333334, "bike_id": "ec134bfa949300f0bd5f88fdd3232851", "is_disabled": 0, "lon": -77.02477366666666, "is_reserved": 0, "fusion_lat": 0.0, "type": "electric_scooter"}, {"fusion_lon": 0.0, "name": "8cc70cbf90dd6ff8627709db3ae722b0", "rental_uris": {"android": "https://dc.lft.to/lastmile_qr_scan", "ios": "https://dc.lft.to/lastmile_qr_scan"}, "lat": 38.911142, "bike_id": "8cc70cbf90dd6ff8627709db3ae722b0", "is_disabled": 0, "lon": -77.03832216666666, "is_reserved": 0, "fusion_lat": 0.0, "type": "electric_scooter"}, {"fusion_lon": 0.0, "name": "721ce6ce307d258c6f6550238b6bb0ec", "rental_uris": {"android": "https://dc.lft.to/lastmile_qr_scan", "ios": "https://dc.lft.to/lastmile_qr_scan"}, "lat": 38.901778666666665, "bike_id": "721ce6ce307d258c6f6550238b6bb0ec", "is_disabled": 0, "lon": -76.98832016666667, "is_reserved": 0, "fusion_lat": 0.0, "type": "electric_scooter"}, {"fusion_lon": 0.0, "name": "316476d652c4044d4da4d2ebfa2730e0", "rental_uris": {"android": "https://dc.lft.to/lastmile_qr_scan", "ios": "https://dc.lft.to/lastmile_qr_scan"}, "lat": 38.92320483333334, "bike_id": "316476d652c4044d4da4d2ebfa2730e0", "is_disabled": 0, "lon": -77.03815066666667, "is_reserved": 0, "fusion_lat": 0.0, "type": "electric_scooter"}, {"fusion_lon": 0.0, "name": "9f402477bfa97b81af863e83fd19573d", "rental_uris": {"android": "https://dc.lft.to/lastmile_qr_scan", "ios": "https://dc.lft.to/lastmile_qr_scan"}, "lat": 38.90217283333333, "bike_id": "9f402477bfa97b81af863e83fd19573d", "is_disabled": 0, "lon": -77.023684, "is_reserved": 0, "fusion_lat": 0.0, "type": "electric_scooter"}, {"fusion_lon": 0.0, "name": "18cd86eb23f0ff1b40ac03f703d0e832", "rental_uris": {"android": "https://dc.lft.to/lastmile_qr_scan", "ios": "https://dc.lft.to/lastmile_qr_scan"}, "lat": 38.90696966666667, "bike_id": "18cd86eb23f0ff1b40ac03f703d0e832", "is_disabled": 0, "lon": -76.9870505, "is_reserved": 0, "fusion_lat": 0.0, "type": "electric_scooter"}, {"fusion_lon": 0.0, "name": "23ac455ff3c03dd0738fe14d5096ad3b", "rental_uris": {"android": "https://dc.lft.to/lastmile_qr_scan", "ios": "https://dc.lft.to/lastmile_qr_scan"}, "lat": 38.9184275, "bike_id": "23ac455ff3c03dd0738fe14d5096ad3b", "is_disabled": 0, "lon": -77.0386005, "is_reserved": 0, "fusion_lat": 0.0, "type": "electric_scooter"}, {"fusion_lon": 0.0, "name": "f8084cda2a9157dec25087bc6754b43c", "rental_uris": {"android": "https://dc.lft.to/lastmile_qr_scan", "ios": "https://dc.lft.to/lastmile_qr_scan"}, "lat": 38.805585666666666, "bike_id": "f8084cda2a9157dec25087bc6754b43c", "is_disabled": 0, "lon": -77.13228783333334, "is_reserved": 0, "fusion_lat": 0.0, "type": "electric_bike"}, {"fusion_lon": 0.0, "name": "28a9c7bdcd589614806ab540d8482976", "rental_uris": {"android": "https://dc.lft.to/lastmile_qr_scan", "ios": "https://dc.lft.to/lastmile_qr_scan"}, "lat": 38.914533166666665, "bike_id": "28a9c7bdcd589614806ab540d8482976", "is_disabled": 0, "lon": -76.97269516666667, "is_reserved": 0, "fusion_lat": 0.0, "type": "electric_scooter"}, {"fusion_lon": 0.0, "name": "60efe1ba180fe862351b56b0a5903a60", "rental_uris": {"android": "https://dc.lft.to/lastmile_qr_scan", "ios": "https://dc.lft.to/lastmile_qr_scan"}, "lat": 38.88059366666667, "bike_id": "60efe1ba180fe862351b56b0a5903a60", "is_disabled": 0, "lon": -77.025593, "is_reserved": 0, "fusion_lat": 0.0, "type": "electric_scooter"}, {"fusion_lon": 0.0, "name": "d96cda7aa8fe60675703e637a12cfad1", "rental_uris": {"android": "https://dc.lft.to/lastmile_qr_scan", "ios": "https://dc.lft.to/lastmile_qr_scan"}, "lat": 38.9097085, "bike_id": "d96cda7aa8fe60675703e637a12cfad1", "is_disabled": 0, "lon": -77.032161, "is_reserved": 0, "fusion_lat": 0.0, "type": "electric_scooter"}, {"fusion_lon": 0.0, "name": "cdde10824eee8253f119f33769029338", "rental_uris": {"android": "https://dc.lft.to/lastmile_qr_scan", "ios": "https://dc.lft.to/lastmile_qr_scan"}, "lat": 38.895463666666664, "bike_id": "cdde10824eee8253f119f33769029338", "is_disabled": 0, "lon": -76.983366, "is_reserved": 0, "fusion_lat": 0.0, "type": "electric_scooter"}, {"fusion_lon": 0.0, "name": "30c179083a13d80a3f127c350f052e8f", "rental_uris": {"android": "https://dc.lft.to/lastmile_qr_scan", "ios": "https://dc.lft.to/lastmile_qr_scan"}, "lat": 38.894669, "bike_id": "30c179083a13d80a3f127c350f052e8f", "is_disabled": 0, "lon": -76.99709666666666, "is_reserved": 0, "fusion_lat": 0.0, "type": "electric_scooter"}, {"fusion_lon": 0.0, "name": "089d042b144360e08071ed4c0cb4bac1", "rental_uris": {"android": "https://dc.lft.to/lastmile_qr_scan", "ios": "https://dc.lft.to/lastmile_qr_scan"}, "lat": 38.876927333333335, "bike_id": "089d042b144360e08071ed4c0cb4bac1", "is_disabled": 0, "lon": -76.9961365, "is_reserved": 0, "fusion_lat": 0.0, "type": "electric_scooter"}, {"fusion_lon": 0.0, "name": "575d372036a3cedd4d679440b53afce1", "rental_uris": {"android": "https://dc.lft.to/lastmile_qr_scan", "ios": "https://dc.lft.to/lastmile_qr_scan"}, "lat": 39.003788, "bike_id": "575d372036a3cedd4d679440b53afce1", "is_disabled": 0, "lon": -77.01290333333333, "is_reserved": 0, "fusion_lat": 0.0, "type": "electric_bike"}, {"fusion_lon": 0.0, "name": "92883b8e498db3697faea8d64ef3adf0", "rental_uris": {"android": "https://dc.lft.to/lastmile_qr_scan", "ios": "https://dc.lft.to/lastmile_qr_scan"}, "lat": 38.9182145, "bike_id": "92883b8e498db3697faea8d64ef3adf0", "is_disabled": 0, "lon": -77.03670883333334, "is_reserved": 0, "fusion_lat": 0.0, "type": "electric_scooter"}, {"fusion_lon": 0.0, "name": "e0f6d28f46055a040f55b59ef9de1529", "rental_uris": {"android": "https://dc.lft.to/lastmile_qr_scan", "ios": "https://dc.lft.to/lastmile_qr_scan"}, "lat": 38.91695, "bike_id": "e0f6d28f46055a040f55b59ef9de1529", "is_disabled": 0, "lon": -77.03131266666666, "is_reserved": 0, "fusion_lat": 0.0, "type": "electric_scooter"}, {"fusion_lon": 0.0, "name": "bbbe45841ffad042751f8768c0684ef4", "rental_uris": {"android": "https://dc.lft.to/lastmile_qr_scan", "ios": "https://dc.lft.to/lastmile_qr_scan"}, "lat": 38.931212, "bike_id": "bbbe45841ffad042751f8768c0684ef4", "is_disabled": 0, "lon": -77.022643, "is_reserved": 0, "fusion_lat": 0.0, "type": "electric_scooter"}, {"fusion_lon": 0.0, "name": "1af689930d5dabda18517a7a785634f1", "rental_uris": {"android": "https://dc.lft.to/lastmile_qr_scan", "ios": "https://dc.lft.to/lastmile_qr_scan"}, "lat": 38.9297225, "bike_id": "1af689930d5dabda18517a7a785634f1", "is_disabled": 0, "lon": -77.02792983333333, "is_reserved": 0, "fusion_lat": 0.0, "type": "electric_scooter"}, {"fusion_lon": 0.0, "name": "537cf82037e8cdaae4093855b700a8f4", "rental_uris": {"android": "https://dc.lft.to/lastmile_qr_scan", "ios": "https://dc.lft.to/lastmile_qr_scan"}, "lat": 38.9077165, "bike_id": "537cf82037e8cdaae4093855b700a8f4", "is_disabled": 0, "lon": -77.04537383333333, "is_reserved": 0, "fusion_lat": 0.0, "type": "electric_scooter"}, {"fusion_lon": 0.0, "name": "bfdb9e49a89322c093c6fd433d29e7ea", "rental_uris": {"android": "https://dc.lft.to/lastmile_qr_scan", "ios": "https://dc.lft.to/lastmile_qr_scan"}, "lat": 38.882311666666666, "bike_id": "bfdb9e49a89322c093c6fd433d29e7ea", "is_disabled": 0, "lon": -76.990927, "is_reserved": 0, "fusion_lat": 0.0, "type": "electric_scooter"}, {"fusion_lon": 0.0, "name": "1465ce8587d5a4de0dfc3020a4707af3", "rental_uris": {"android": "https://dc.lft.to/lastmile_qr_scan", "ios": "https://dc.lft.to/lastmile_qr_scan"}, "lat": 38.84671483333333, "bike_id": "1465ce8587d5a4de0dfc3020a4707af3", "is_disabled": 0, "lon": -77.13921216666667, "is_reserved": 0, "fusion_lat": 0.0, "type": "electric_bike"}, {"fusion_lon": 0.0, "name": "ba68c242ac4b5e8a23d6df41eddc290f", "rental_uris": {"android": "https://dc.lft.to/lastmile_qr_scan", "ios": "https://dc.lft.to/lastmile_qr_scan"}, "lat": 38.91327416666667, "bike_id": "ba68c242ac4b5e8a23d6df41eddc290f", "is_disabled": 0, "lon": -77.045382, "is_reserved": 0, "fusion_lat": 0.0, "type": "electric_scooter"}, {"fusion_lon": 0.0, "name": "e1ccd8aa8863bfbcf6f8f47cddaf0de1", "rental_uris": {"android": "https://dc.lft.to/lastmile_qr_scan", "ios": "https://dc.lft.to/lastmile_qr_scan"}, "lat": 38.930466333333335, "bike_id": "e1ccd8aa8863bfbcf6f8f47cddaf0de1", "is_disabled": 0, "lon": -76.95834566666667, "is_reserved": 0, "fusion_lat": 0.0, "type": "electric_scooter"}, {"fusion_lon": 0.0, "name": "540ff76c7817ff4f8cf26fcbf3b685c6", "rental_uris": {"android": "https://dc.lft.to/lastmile_qr_scan", "ios": "https://dc.lft.to/lastmile_qr_scan"}, "lat": 38.959572666666666, "bike_id": "540ff76c7817ff4f8cf26fcbf3b685c6", "is_disabled": 0, "lon": -77.03058333333334, "is_reserved": 0, "fusion_lat": 0.0, "type": "electric_bike"}, {"fusion_lon": 0.0, "name": "b96f959ebe25a5d813b56eabd94738f4", "rental_uris": {"android": "https://dc.lft.to/lastmile_qr_scan", "ios": "https://dc.lft.to/lastmile_qr_scan"}, "lat": 38.91675566666667, "bike_id": "b96f959ebe25a5d813b56eabd94738f4", "is_disabled": 0, "lon": -77.03227433333333, "is_reserved": 0, "fusion_lat": 0.0, "type": "electric_scooter"}, {"fusion_lon": 0.0, "name": "f09b0710dc7153280aedd4383b76f28a", "rental_uris": {"android": "https://dc.lft.to/lastmile_qr_scan", "ios": "https://dc.lft.to/lastmile_qr_scan"}, "lat": 38.92078466666667, "bike_id": "f09b0710dc7153280aedd4383b76f28a", "is_disabled": 0, "lon": -77.035623, "is_reserved": 0, "fusion_lat": 0.0, "type": "electric_scooter"}, {"fusion_lon": 0.0, "name": "f44a1fd0c711b11acb4b23e2e541c214", "rental_uris": {"android": "https://dc.lft.to/lastmile_qr_scan", "ios": "https://dc.lft.to/lastmile_qr_scan"}, "lat": 38.92342083333333, "bike_id": "f44a1fd0c711b11acb4b23e2e541c214", "is_disabled": 0, "lon": -77.04852733333334, "is_reserved": 0, "fusion_lat": 0.0, "type": "electric_scooter"}, {"fusion_lon": 0.0, "name": "7beaf8902278b262e1252b0328ac8cef", "rental_uris": {"android": "https://dc.lft.to/lastmile_qr_scan", "ios": "https://dc.lft.to/lastmile_qr_scan"}, "lat": 38.90682533333333, "bike_id": "7beaf8902278b262e1252b0328ac8cef", "is_disabled": 0, "lon": -77.02693283333333, "is_reserved": 0, "fusion_lat": 0.0, "type": "electric_scooter"}, {"fusion_lon": 0.0, "name": "e75538b7e63eabefc6e4b3ed765c9e01", "rental_uris": {"android": "https://dc.lft.to/lastmile_qr_scan", "ios": "https://dc.lft.to/lastmile_qr_scan"}, "lat": 38.90152333333333, "bike_id": "e75538b7e63eabefc6e4b3ed765c9e01", "is_disabled": 0, "lon": -76.97425383333334, "is_reserved": 0, "fusion_lat": 0.0, "type": "electric_scooter"}, {"fusion_lon": 0.0, "name": "ef8ae3b4a617ca0de533a926e5fefc22", "rental_uris": {"android": "https://dc.lft.to/lastmile_qr_scan", "ios": "https://dc.lft.to/lastmile_qr_scan"}, "lat": 38.9266965, "bike_id": "ef8ae3b4a617ca0de533a926e5fefc22", "is_disabled": 0, "lon": -77.01501333333333, "is_reserved": 0, "fusion_lat": 0.0, "type": "electric_scooter"}, {"fusion_lon": 0.0, "name": "b06bb60af92e7266ed1552a919bce4ca", "rental_uris": {"android": "https://dc.lft.to/lastmile_qr_scan", "ios": "https://dc.lft.to/lastmile_qr_scan"}, "lat": 38.915142, "bike_id": "b06bb60af92e7266ed1552a919bce4ca", "is_disabled": 0, "lon": -77.03213316666667, "is_reserved": 0, "fusion_lat": 0.0, "type": "electric_scooter"}, {"fusion_lon": 0.0, "name": "d635fcee490b830f4e9e287c037ee0fd", "rental_uris": {"android": "https://dc.lft.to/lastmile_qr_scan", "ios": "https://dc.lft.to/lastmile_qr_scan"}, "lat": 38.927656666666664, "bike_id": "d635fcee490b830f4e9e287c037ee0fd", "is_disabled": 0, "lon": -77.0311145, "is_reserved": 0, "fusion_lat": 0.0, "type": "electric_scooter"}, {"fusion_lon": 0.0, "name": "d2da2097f5938754f5760c00a57024fc", "rental_uris": {"android": "https://dc.lft.to/lastmile_qr_scan", "ios": "https://dc.lft.to/lastmile_qr_scan"}, "lat": 38.920894833333335, "bike_id": "d2da2097f5938754f5760c00a57024fc", "is_disabled": 0, "lon": -77.02303583333334, "is_reserved": 0, "fusion_lat": 0.0, "type": "electric_scooter"}, {"fusion_lon": 0.0, "name": "12c40a6bbda492bacd0e09bf49261981", "rental_uris": {"android": "https://dc.lft.to/lastmile_qr_scan", "ios": "https://dc.lft.to/lastmile_qr_scan"}, "lat": 38.91855233333333, "bike_id": "12c40a6bbda492bacd0e09bf49261981", "is_disabled": 0, "lon": -76.96091016666666, "is_reserved": 0, "fusion_lat": 0.0, "type": "electric_bike"}, {"fusion_lon": 0.0, "name": "5ca9f2fd48aa3f6aba3c4c2f772dc3bf", "rental_uris": {"android": "https://dc.lft.to/lastmile_qr_scan", "ios": "https://dc.lft.to/lastmile_qr_scan"}, "lat": 38.90111566666667, "bike_id": "5ca9f2fd48aa3f6aba3c4c2f772dc3bf", "is_disabled": 0, "lon": -77.04977566666666, "is_reserved": 0, "fusion_lat": 0.0, "type": "electric_scooter"}, {"fusion_lon": 0.0, "name": "152a55537d91f3a4cf2ac601dc20697b", "rental_uris": {"android": "https://dc.lft.to/lastmile_qr_scan", "ios": "https://dc.lft.to/lastmile_qr_scan"}, "lat": 38.90012266666667, "bike_id": "152a55537d91f3a4cf2ac601dc20697b", "is_disabled": 0, "lon": -77.04139233333333, "is_reserved": 0, "fusion_lat": 0.0, "type": "electric_scooter"}, {"fusion_lon": 0.0, "name": "86b8586ef6ead9c473fe2441315beda5", "rental_uris": {"android": "https://dc.lft.to/lastmile_qr_scan", "ios": "https://dc.lft.to/lastmile_qr_scan"}, "lat": 38.917576333333336, "bike_id": "86b8586ef6ead9c473fe2441315beda5", "is_disabled": 0, "lon": -77.02813466666667, "is_reserved": 0, "fusion_lat": 0.0, "type": "electric_scooter"}, {"fusion_lon": 0.0, "name": "576394b3a3bddc5e557674bc6c5e6b70", "rental_uris": {"android": "https://dc.lft.to/lastmile_qr_scan", "ios": "https://dc.lft.to/lastmile_qr_scan"}, "lat": 38.905826833333336, "bike_id": "576394b3a3bddc5e557674bc6c5e6b70", "is_disabled": 0, "lon": -77.04691616666666, "is_reserved": 0, "fusion_lat": 0.0, "type": "electric_scooter"}, {"fusion_lon": 0.0, "name": "22c8805505e8480fa508686951125287", "rental_uris": {"android": "https://dc.lft.to/lastmile_qr_scan", "ios": "https://dc.lft.to/lastmile_qr_scan"}, "lat": 38.89574666666667, "bike_id": "22c8805505e8480fa508686951125287", "is_disabled": 0, "lon": -77.041354, "is_reserved": 0, "fusion_lat": 0.0, "type": "electric_scooter"}, {"fusion_lon": 0.0, "name": "1d285dba2c8659a1d615d92ae2ccd085", "rental_uris": {"android": "https://dc.lft.to/lastmile_qr_scan", "ios": "https://dc.lft.to/lastmile_qr_scan"}, "lat": 38.9174075, "bike_id": "1d285dba2c8659a1d615d92ae2ccd085", "is_disabled": 0, "lon": -77.02117866666667, "is_reserved": 0, "fusion_lat": 0.0, "type": "electric_scooter"}, {"fusion_lon": 0.0, "name": "b6a04691d6432f4041927cdb9554b531", "rental_uris": {"android": "https://dc.lft.to/lastmile_qr_scan", "ios": "https://dc.lft.to/lastmile_qr_scan"}, "lat": 38.9254645, "bike_id": "b6a04691d6432f4041927cdb9554b531", "is_disabled": 0, "lon": -77.034047, "is_reserved": 0, "fusion_lat": 0.0, "type": "electric_scooter"}, {"fusion_lon": 0.0, "name": "f416f8b745f404d40df3b27bd15240cd", "rental_uris": {"android": "https://dc.lft.to/lastmile_qr_scan", "ios": "https://dc.lft.to/lastmile_qr_scan"}, "lat": 38.918676833333336, "bike_id": "f416f8b745f404d40df3b27bd15240cd", "is_disabled": 0, "lon": -77.04478933333333, "is_reserved": 0, "fusion_lat": 0.0, "type": "electric_scooter"}, {"fusion_lon": 0.0, "name": "80bd104c3db902c05ac27b5530f33b62", "rental_uris": {"android": "https://dc.lft.to/lastmile_qr_scan", "ios": "https://dc.lft.to/lastmile_qr_scan"}, "lat": 38.9206315, "bike_id": "80bd104c3db902c05ac27b5530f33b62", "is_disabled": 0, "lon": -76.99111566666667, "is_reserved": 0, "fusion_lat": 0.0, "type": "electric_bike"}, {"fusion_lon": 0.0, "name": "c49778726906cf002830d50d66a9d71d", "rental_uris": {"android": "https://dc.lft.to/lastmile_qr_scan", "ios": "https://dc.lft.to/lastmile_qr_scan"}, "lat": 38.876851, "bike_id": "c49778726906cf002830d50d66a9d71d", "is_disabled": 0, "lon": -77.00066116666666, "is_reserved": 0, "fusion_lat": 0.0, "type": "electric_scooter"}, {"fusion_lon": 0.0, "name": "4877121b1d93a997f8a7488ff8ace1f1", "rental_uris": {"android": "https://dc.lft.to/lastmile_qr_scan", "ios": "https://dc.lft.to/lastmile_qr_scan"}, "lat": 38.921715, "bike_id": "4877121b1d93a997f8a7488ff8ace1f1", "is_disabled": 0, "lon": -77.0266805, "is_reserved": 0, "fusion_lat": 0.0, "type": "electric_scooter"}, {"fusion_lon": 0.0, "name": "7ba1721d177cc152e7ca10f16936c6d2", "rental_uris": {"android": "https://dc.lft.to/lastmile_qr_scan", "ios": "https://dc.lft.to/lastmile_qr_scan"}, "lat": 38.92604133333333, "bike_id": "7ba1721d177cc152e7ca10f16936c6d2", "is_disabled": 0, "lon": -77.02154666666667, "is_reserved": 0, "fusion_lat": 0.0, "type": "electric_scooter"}, {"fusion_lon": 0.0, "name": "47ca2284fae5ce1d95270e679671b111", "rental_uris": {"android": "https://dc.lft.to/lastmile_qr_scan", "ios": "https://dc.lft.to/lastmile_qr_scan"}, "lat": 38.92093633333333, "bike_id": "47ca2284fae5ce1d95270e679671b111", "is_disabled": 0, "lon": -77.02319866666667, "is_reserved": 0, "fusion_lat": 0.0, "type": "electric_scooter"}, {"fusion_lon": 0.0, "name": "00f65331873662e3fbca0d1300112df5", "rental_uris": {"android": "https://dc.lft.to/lastmile_qr_scan", "ios": "https://dc.lft.to/lastmile_qr_scan"}, "lat": 38.957558, "bike_id": "00f65331873662e3fbca0d1300112df5", "is_disabled": 0, "lon": -77.00912983333333, "is_reserved": 0, "fusion_lat": 0.0, "type": "electric_scooter"}, {"fusion_lon": 0.0, "name": "548aa150c6dec2d9fa1ebb5d41b7f630", "rental_uris": {"android": "https://dc.lft.to/lastmile_qr_scan", "ios": "https://dc.lft.to/lastmile_qr_scan"}, "lat": 38.912514, "bike_id": "548aa150c6dec2d9fa1ebb5d41b7f630", "is_disabled": 0, "lon": -77.03199766666667, "is_reserved": 0, "fusion_lat": 0.0, "type": "electric_scooter"}, {"fusion_lon": 0.0, "name": "735fba39e9d87296d963e4de21260628", "rental_uris": {"android": "https://dc.lft.to/lastmile_qr_scan", "ios": "https://dc.lft.to/lastmile_qr_scan"}, "lat": 38.89231066666667, "bike_id": "735fba39e9d87296d963e4de21260628", "is_disabled": 0, "lon": -77.02384833333333, "is_reserved": 0, "fusion_lat": 0.0, "type": "electric_scooter"}, {"fusion_lon": 0.0, "name": "b765413e06faf13ff209d6587a085477", "rental_uris": {"android": "https://dc.lft.to/lastmile_qr_scan", "ios": "https://dc.lft.to/lastmile_qr_scan"}, "lat": 38.920602, "bike_id": "b765413e06faf13ff209d6587a085477", "is_disabled": 0, "lon": -77.02435283333334, "is_reserved": 0, "fusion_lat": 0.0, "type": "electric_scooter"}, {"fusion_lon": 0.0, "name": "ef42ae8ea987847c237b55a5ffe98e35", "rental_uris": {"android": "https://dc.lft.to/lastmile_qr_scan", "ios": "https://dc.lft.to/lastmile_qr_scan"}, "lat": 38.91754016666667, "bike_id": "ef42ae8ea987847c237b55a5ffe98e35", "is_disabled": 0, "lon": -77.02108116666666, "is_reserved": 0, "fusion_lat": 0.0, "type": "electric_scooter"}, {"fusion_lon": 0.0, "name": "bbdbea8d6ee560f39c9e8f629e93d9f2", "rental_uris": {"android": "https://dc.lft.to/lastmile_qr_scan", "ios": "https://dc.lft.to/lastmile_qr_scan"}, "lat": 38.94366183333333, "bike_id": "bbdbea8d6ee560f39c9e8f629e93d9f2", "is_disabled": 0, "lon": -77.06090816666666, "is_reserved": 0, "fusion_lat": 0.0, "type": "electric_scooter"}, {"fusion_lon": 0.0, "name": "5a5df1260c7e72ec83d8c7c36641ec85", "rental_uris": {"android": "https://dc.lft.to/lastmile_qr_scan", "ios": "https://dc.lft.to/lastmile_qr_scan"}, "lat": 38.9226705, "bike_id": "5a5df1260c7e72ec83d8c7c36641ec85", "is_disabled": 0, "lon": -77.03395683333333, "is_reserved": 0, "fusion_lat": 0.0, "type": "electric_scooter"}, {"fusion_lon": 0.0, "name": "9c2421524ceee8cbe3121f1844346d8f", "rental_uris": {"android": "https://dc.lft.to/lastmile_qr_scan", "ios": "https://dc.lft.to/lastmile_qr_scan"}, "lat": 38.9613225, "bike_id": "9c2421524ceee8cbe3121f1844346d8f", "is_disabled": 0, "lon": -77.00036116666666, "is_reserved": 0, "fusion_lat": 0.0, "type": "electric_scooter"}, {"fusion_lon": 0.0, "name": "8e008b55de4fe5eba3bb70d60ffd345b", "rental_uris": {"android": "https://dc.lft.to/lastmile_qr_scan", "ios": "https://dc.lft.to/lastmile_qr_scan"}, "lat": 38.894203833333336, "bike_id": "8e008b55de4fe5eba3bb70d60ffd345b", "is_disabled": 0, "lon": -76.99771133333333, "is_reserved": 0, "fusion_lat": 0.0, "type": "electric_scooter"}, {"fusion_lon": 0.0, "name": "b1f42c073c6d90da3a310c2ef01f528d", "rental_uris": {"android": "https://dc.lft.to/lastmile_qr_scan", "ios": "https://dc.lft.to/lastmile_qr_scan"}, "lat": 38.89224933333333, "bike_id": "b1f42c073c6d90da3a310c2ef01f528d", "is_disabled": 0, "lon": -77.043673, "is_reserved": 0, "fusion_lat": 0.0, "type": "electric_scooter"}, {"fusion_lon": 0.0, "name": "d2efd481e6f030aac7f6cadf85367de1", "rental_uris": {"android": "https://dc.lft.to/lastmile_qr_scan", "ios": "https://dc.lft.to/lastmile_qr_scan"}, "lat": 38.931113, "bike_id": "d2efd481e6f030aac7f6cadf85367de1", "is_disabled": 0, "lon": -77.03508933333333, "is_reserved": 0, "fusion_lat": 0.0, "type": "electric_scooter"}, {"fusion_lon": 0.0, "name": "13671d9161ebfbeee90c059d8d6d0199", "rental_uris": {"android": "https://dc.lft.to/lastmile_qr_scan", "ios": "https://dc.lft.to/lastmile_qr_scan"}, "lat": 38.91006866666667, "bike_id": "13671d9161ebfbeee90c059d8d6d0199", "is_disabled": 0, "lon": -77.04006833333334, "is_reserved": 0, "fusion_lat": 0.0, "type": "electric_scooter"}, {"fusion_lon": 0.0, "name": "113deb092bf134cbd1ebb251c35d1159", "rental_uris": {"android": "https://dc.lft.to/lastmile_qr_scan", "ios": "https://dc.lft.to/lastmile_qr_scan"}, "lat": 38.912622999999996, "bike_id": "113deb092bf134cbd1ebb251c35d1159", "is_disabled": 0, "lon": -77.04550383333333, "is_reserved": 0, "fusion_lat": 0.0, "type": "electric_scooter"}, {"fusion_lon": 0.0, "name": "0e0ddf41cfd8edef2cfb905d8bb3abd6", "rental_uris": {"android": "https://dc.lft.to/lastmile_qr_scan", "ios": "https://dc.lft.to/lastmile_qr_scan"}, "lat": 38.8005525, "bike_id": "0e0ddf41cfd8edef2cfb905d8bb3abd6", "is_disabled": 0, "lon": -77.12836566666667, "is_reserved": 0, "fusion_lat": 0.0, "type": "electric_bike"}, {"fusion_lon": 0.0, "name": "71f3d9a36d5cd8eb04fd980e77e47bd5", "rental_uris": {"android": "https://dc.lft.to/lastmile_qr_scan", "ios": "https://dc.lft.to/lastmile_qr_scan"}, "lat": 38.90638633333333, "bike_id": "71f3d9a36d5cd8eb04fd980e77e47bd5", "is_disabled": 0, "lon": -77.05139666666666, "is_reserved": 0, "fusion_lat": 0.0, "type": "electric_scooter"}, {"fusion_lon": 0.0, "name": "550fbffed592342d5f46089760e2fdbe", "rental_uris": {"android": "https://dc.lft.to/lastmile_qr_scan", "ios": "https://dc.lft.to/lastmile_qr_scan"}, "lat": 38.900409, "bike_id": "550fbffed592342d5f46089760e2fdbe", "is_disabled": 0, "lon": -77.00222583333333, "is_reserved": 0, "fusion_lat": 0.0, "type": "electric_scooter"}, {"fusion_lon": 0.0, "name": "4e6b3483f34b1f6cfcf6e64cdbeeb857", "rental_uris": {"android": "https://dc.lft.to/lastmile_qr_scan", "ios": "https://dc.lft.to/lastmile_qr_scan"}, "lat": 38.91493666666667, "bike_id": "4e6b3483f34b1f6cfcf6e64cdbeeb857", "is_disabled": 0, "lon": -77.04482316666666, "is_reserved": 0, "fusion_lat": 0.0, "type": "electric_scooter"}, {"fusion_lon": 0.0, "name": "3f47df46712a0e28437f456378dfb9fc", "rental_uris": {"android": "https://dc.lft.to/lastmile_qr_scan", "ios": "https://dc.lft.to/lastmile_qr_scan"}, "lat": 38.92469583333333, "bike_id": "3f47df46712a0e28437f456378dfb9fc", "is_disabled": 0, "lon": -77.02201633333334, "is_reserved": 0, "fusion_lat": 0.0, "type": "electric_scooter"}, {"fusion_lon": 0.0, "name": "a10e68a8c19352f5e7111ec084325efc", "rental_uris": {"android": "https://dc.lft.to/lastmile_qr_scan", "ios": "https://dc.lft.to/lastmile_qr_scan"}, "lat": 38.89223033333333, "bike_id": "a10e68a8c19352f5e7111ec084325efc", "is_disabled": 0, "lon": -77.04367983333333, "is_reserved": 0, "fusion_lat": 0.0, "type": "electric_scooter"}, {"fusion_lon": 0.0, "name": "51bb851ba41fe51ebaadcc96da98ecb0", "rental_uris": {"android": "https://dc.lft.to/lastmile_qr_scan", "ios": "https://dc.lft.to/lastmile_qr_scan"}, "lat": 38.924055333333335, "bike_id": "51bb851ba41fe51ebaadcc96da98ecb0", "is_disabled": 0, "lon": -77.05162033333333, "is_reserved": 0, "fusion_lat": 0.0, "type": "electric_scooter"}, {"fusion_lon": 0.0, "name": "766e87976f81c5cc045ea5ad0b9dbbca", "rental_uris": {"android": "https://dc.lft.to/lastmile_qr_scan", "ios": "https://dc.lft.to/lastmile_qr_scan"}, "lat": 38.894199, "bike_id": "766e87976f81c5cc045ea5ad0b9dbbca", "is_disabled": 0, "lon": -76.99772566666667, "is_reserved": 0, "fusion_lat": 0.0, "type": "electric_scooter"}, {"fusion_lon": 0.0, "name": "6e237675a1bf9cf90f0abf690f5a1781", "rental_uris": {"android": "https://dc.lft.to/lastmile_qr_scan", "ios": "https://dc.lft.to/lastmile_qr_scan"}, "lat": 39.0381565, "bike_id": "6e237675a1bf9cf90f0abf690f5a1781", "is_disabled": 0, "lon": -77.04223916666666, "is_reserved": 0, "fusion_lat": 0.0, "type": "electric_bike"}, {"fusion_lon": 0.0, "name": "05f572abb79b3ca00605557a132792c6", "rental_uris": {"android": "https://dc.lft.to/lastmile_qr_scan", "ios": "https://dc.lft.to/lastmile_qr_scan"}, "lat": 38.925889833333336, "bike_id": "05f572abb79b3ca00605557a132792c6", "is_disabled": 0, "lon": -77.03746216666667, "is_reserved": 0, "fusion_lat": 0.0, "type": "electric_scooter"}, {"fusion_lon": 0.0, "name": "692128c2543deff61bb2b729a3a066a2", "rental_uris": {"android": "https://dc.lft.to/lastmile_qr_scan", "ios": "https://dc.lft.to/lastmile_qr_scan"}, "lat": 38.88221, "bike_id": "692128c2543deff61bb2b729a3a066a2", "is_disabled": 0, "lon": -76.93925133333333, "is_reserved": 0, "fusion_lat": 0.0, "type": "electric_scooter"}, {"fusion_lon": 0.0, "name": "a2ed5adbbaf10ba0fd2344ff81758b86", "rental_uris": {"android": "https://dc.lft.to/lastmile_qr_scan", "ios": "https://dc.lft.to/lastmile_qr_scan"}, "lat": 38.9157665, "bike_id": "a2ed5adbbaf10ba0fd2344ff81758b86", "is_disabled": 0, "lon": -77.01228966666666, "is_reserved": 0, "fusion_lat": 0.0, "type": "electric_scooter"}, {"fusion_lon": 0.0, "name": "7e6703eb25bcd037b2608f0f1fcec56d", "rental_uris": {"android": "https://dc.lft.to/lastmile_qr_scan", "ios": "https://dc.lft.to/lastmile_qr_scan"}, "lat": 38.902392, "bike_id": "7e6703eb25bcd037b2608f0f1fcec56d", "is_disabled": 0, "lon": -76.97421466666667, "is_reserved": 0, "fusion_lat": 0.0, "type": "electric_scooter"}, {"fusion_lon": 0.0, "name": "ae94ee870bbc6fd8d67622cc0542baea", "rental_uris": {"android": "https://dc.lft.to/lastmile_qr_scan", "ios": "https://dc.lft.to/lastmile_qr_scan"}, "lat": 38.925975666666666, "bike_id": "ae94ee870bbc6fd8d67622cc0542baea", "is_disabled": 0, "lon": -77.0242855, "is_reserved": 0, "fusion_lat": 0.0, "type": "electric_bike"}, {"fusion_lon": 0.0, "name": "1fdf3c41b785fb1685c6232fbfbc47d7", "rental_uris": {"android": "https://dc.lft.to/lastmile_qr_scan", "ios": "https://dc.lft.to/lastmile_qr_scan"}, "lat": 38.923289, "bike_id": "1fdf3c41b785fb1685c6232fbfbc47d7", "is_disabled": 0, "lon": -77.0368105, "is_reserved": 0, "fusion_lat": 0.0, "type": "electric_scooter"}, {"fusion_lon": 0.0, "name": "631826ea9278428ace1b3a49c5134d42", "rental_uris": {"android": "https://dc.lft.to/lastmile_qr_scan", "ios": "https://dc.lft.to/lastmile_qr_scan"}, "lat": 38.90227616666667, "bike_id": "631826ea9278428ace1b3a49c5134d42", "is_disabled": 0, "lon": -77.044539, "is_reserved": 0, "fusion_lat": 0.0, "type": "electric_scooter"}, {"fusion_lon": 0.0, "name": "a3144707315dfeadfebd23676bbcb7f3", "rental_uris": {"android": "https://dc.lft.to/lastmile_qr_scan", "ios": "https://dc.lft.to/lastmile_qr_scan"}, "lat": 38.943020833333335, "bike_id": "a3144707315dfeadfebd23676bbcb7f3", "is_disabled": 0, "lon": -77.03456166666666, "is_reserved": 0, "fusion_lat": 0.0, "type": "electric_scooter"}, {"fusion_lon": 0.0, "name": "142291a497af894620e79eb45306b148", "rental_uris": {"android": "https://dc.lft.to/lastmile_qr_scan", "ios": "https://dc.lft.to/lastmile_qr_scan"}, "lat": 38.9165695, "bike_id": "142291a497af894620e79eb45306b148", "is_disabled": 0, "lon": -77.00921166666667, "is_reserved": 0, "fusion_lat": 0.0, "type": "electric_scooter"}, {"fusion_lon": 0.0, "name": "5fa206a4751238d87f3c4505f65d33bd", "rental_uris": {"android": "https://dc.lft.to/lastmile_qr_scan", "ios": "https://dc.lft.to/lastmile_qr_scan"}, "lat": 38.921512666666665, "bike_id": "5fa206a4751238d87f3c4505f65d33bd", "is_disabled": 0, "lon": -77.0353725, "is_reserved": 0, "fusion_lat": 0.0, "type": "electric_scooter"}, {"fusion_lon": 0.0, "name": "c67cd9cb29b5d9f9ee7832cdadaf70a3", "rental_uris": {"android": "https://dc.lft.to/lastmile_qr_scan", "ios": "https://dc.lft.to/lastmile_qr_scan"}, "lat": 38.907211833333335, "bike_id": "c67cd9cb29b5d9f9ee7832cdadaf70a3", "is_disabled": 0, "lon": -77.04081666666667, "is_reserved": 0, "fusion_lat": 0.0, "type": "electric_scooter"}, {"fusion_lon": 0.0, "name": "67d1786194cfc248e321cbf2195347a7", "rental_uris": {"android": "https://dc.lft.to/lastmile_qr_scan", "ios": "https://dc.lft.to/lastmile_qr_scan"}, "lat": 38.909486333333334, "bike_id": "67d1786194cfc248e321cbf2195347a7", "is_disabled": 0, "lon": -77.04424033333333, "is_reserved": 0, "fusion_lat": 0.0, "type": "electric_scooter"}, {"fusion_lon": 0.0, "name": "b4e6bba81cdd7548283634d32bd85eb2", "rental_uris": {"android": "https://dc.lft.to/lastmile_qr_scan", "ios": "https://dc.lft.to/lastmile_qr_scan"}, "lat": 38.911788333333334, "bike_id": "b4e6bba81cdd7548283634d32bd85eb2", "is_disabled": 0, "lon": -77.03206816666666, "is_reserved": 0, "fusion_lat": 0.0, "type": "electric_scooter"}, {"fusion_lon": 0.0, "name": "b32337b83f5191191b8e4eacfb2966ff", "rental_uris": {"android": "https://dc.lft.to/lastmile_qr_scan", "ios": "https://dc.lft.to/lastmile_qr_scan"}, "lat": 38.909719833333334, "bike_id": "b32337b83f5191191b8e4eacfb2966ff", "is_disabled": 0, "lon": -77.03217783333334, "is_reserved": 0, "fusion_lat": 0.0, "type": "electric_scooter"}, {"fusion_lon": 0.0, "name": "3b86b7451fd584903b5225b542e84e6c", "rental_uris": {"android": "https://dc.lft.to/lastmile_qr_scan", "ios": "https://dc.lft.to/lastmile_qr_scan"}, "lat": 38.89539366666666, "bike_id": "3b86b7451fd584903b5225b542e84e6c", "is_disabled": 0, "lon": -77.01117183333334, "is_reserved": 0, "fusion_lat": 0.0, "type": "electric_scooter"}, {"fusion_lon": 0.0, "name": "798ec4bc9e9c7b47f896ad84d57717ac", "rental_uris": {"android": "https://dc.lft.to/lastmile_qr_scan", "ios": "https://dc.lft.to/lastmile_qr_scan"}, "lat": 38.92091416666667, "bike_id": "798ec4bc9e9c7b47f896ad84d57717ac", "is_disabled": 0, "lon": -77.00443316666667, "is_reserved": 0, "fusion_lat": 0.0, "type": "electric_scooter"}, {"fusion_lon": 0.0, "name": "bbe9301d724fa52ce1eca628ad36c696", "rental_uris": {"android": "https://dc.lft.to/lastmile_qr_scan", "ios": "https://dc.lft.to/lastmile_qr_scan"}, "lat": 38.8946525, "bike_id": "bbe9301d724fa52ce1eca628ad36c696", "is_disabled": 0, "lon": -77.0202655, "is_reserved": 0, "fusion_lat": 0.0, "type": "electric_scooter"}, {"fusion_lon": 0.0, "name": "677fcf923c23ba4c6396f28a8ee4d632", "rental_uris": {"android": "https://dc.lft.to/lastmile_qr_scan", "ios": "https://dc.lft.to/lastmile_qr_scan"}, "lat": 38.91711183333334, "bike_id": "677fcf923c23ba4c6396f28a8ee4d632", "is_disabled": 0, "lon": -77.03471383333333, "is_reserved": 0, "fusion_lat": 0.0, "type": "electric_scooter"}, {"fusion_lon": 0.0, "name": "6db6463b400a76e636836ad545ac406f", "rental_uris": {"android": "https://dc.lft.to/lastmile_qr_scan", "ios": "https://dc.lft.to/lastmile_qr_scan"}, "lat": 38.909704166666664, "bike_id": "6db6463b400a76e636836ad545ac406f", "is_disabled": 0, "lon": -77.07337466666667, "is_reserved": 0, "fusion_lat": 0.0, "type": "electric_scooter"}, {"fusion_lon": 0.0, "name": "2e2ba18c1927871d9ea2ca165d57ef92", "rental_uris": {"android": "https://dc.lft.to/lastmile_qr_scan", "ios": "https://dc.lft.to/lastmile_qr_scan"}, "lat": 38.928978, "bike_id": "2e2ba18c1927871d9ea2ca165d57ef92", "is_disabled": 0, "lon": -77.03258916666667, "is_reserved": 0, "fusion_lat": 0.0, "type": "electric_scooter"}, {"fusion_lon": 0.0, "name": "d125ec5b1737e5c7be6cac0cdeebffa2", "rental_uris": {"android": "https://dc.lft.to/lastmile_qr_scan", "ios": "https://dc.lft.to/lastmile_qr_scan"}, "lat": 38.92259633333333, "bike_id": "d125ec5b1737e5c7be6cac0cdeebffa2", "is_disabled": 0, "lon": -77.03658083333333, "is_reserved": 0, "fusion_lat": 0.0, "type": "electric_scooter"}, {"fusion_lon": 0.0, "name": "9b9062c53dd5bef7b10d2434812e754a", "rental_uris": {"android": "https://dc.lft.to/lastmile_qr_scan", "ios": "https://dc.lft.to/lastmile_qr_scan"}, "lat": 38.930588666666665, "bike_id": "9b9062c53dd5bef7b10d2434812e754a", "is_disabled": 0, "lon": -77.02782883333333, "is_reserved": 0, "fusion_lat": 0.0, "type": "electric_scooter"}, {"fusion_lon": 0.0, "name": "dba7718e4cbd67b361493d034f54caa6", "rental_uris": {"android": "https://dc.lft.to/lastmile_qr_scan", "ios": "https://dc.lft.to/lastmile_qr_scan"}, "lat": 38.90846033333333, "bike_id": "dba7718e4cbd67b361493d034f54caa6", "is_disabled": 0, "lon": -77.04009016666667, "is_reserved": 0, "fusion_lat": 0.0, "type": "electric_scooter"}, {"fusion_lon": 0.0, "name": "e38305cf6b67ad699af3c67698abf3bc", "rental_uris": {"android": "https://dc.lft.to/lastmile_qr_scan", "ios": "https://dc.lft.to/lastmile_qr_scan"}, "lat": 38.915685833333335, "bike_id": "e38305cf6b67ad699af3c67698abf3bc", "is_disabled": 0, "lon": -77.050135, "is_reserved": 0, "fusion_lat": 0.0, "type": "electric_scooter"}, {"fusion_lon": 0.0, "name": "a0b91531fa7e5107d6441959e221d90b", "rental_uris": {"android": "https://dc.lft.to/lastmile_qr_scan", "ios": "https://dc.lft.to/lastmile_qr_scan"}, "lat": 38.90185733333333, "bike_id": "a0b91531fa7e5107d6441959e221d90b", "is_disabled": 0, "lon": -77.05906916666666, "is_reserved": 0, "fusion_lat": 0.0, "type": "electric_scooter"}, {"fusion_lon": 0.0, "name": "914160cb8e0ce57695bda4c3e8dc70c6", "rental_uris": {"android": "https://dc.lft.to/lastmile_qr_scan", "ios": "https://dc.lft.to/lastmile_qr_scan"}, "lat": 38.92436083333333, "bike_id": "914160cb8e0ce57695bda4c3e8dc70c6", "is_disabled": 0, "lon": -77.03783633333333, "is_reserved": 0, "fusion_lat": 0.0, "type": "electric_scooter"}, {"fusion_lon": 0.0, "name": "4984aa72953a896a98f176dec48b65de", "rental_uris": {"android": "https://dc.lft.to/lastmile_qr_scan", "ios": "https://dc.lft.to/lastmile_qr_scan"}, "lat": 38.9256925, "bike_id": "4984aa72953a896a98f176dec48b65de", "is_disabled": 0, "lon": -76.999594, "is_reserved": 0, "fusion_lat": 0.0, "type": "electric_scooter"}, {"fusion_lon": 0.0, "name": "11a4dcde8f9bc0fb6c630aaaac33863f", "rental_uris": {"android": "https://dc.lft.to/lastmile_qr_scan", "ios": "https://dc.lft.to/lastmile_qr_scan"}, "lat": 38.896418833333335, "bike_id": "11a4dcde8f9bc0fb6c630aaaac33863f", "is_disabled": 0, "lon": -77.03221416666666, "is_reserved": 0, "fusion_lat": 0.0, "type": "electric_scooter"}, {"fusion_lon": 0.0, "name": "25f63c306dc4845e7f98b3a4428b5985", "rental_uris": {"android": "https://dc.lft.to/lastmile_qr_scan", "ios": "https://dc.lft.to/lastmile_qr_scan"}, "lat": 38.8829905, "bike_id": "25f63c306dc4845e7f98b3a4428b5985", "is_disabled": 0, "lon": -77.02577016666666, "is_reserved": 0, "fusion_lat": 0.0, "type": "electric_scooter"}, {"fusion_lon": 0.0, "name": "136c4eb0a6968fe1bddd93c220fb63a9", "rental_uris": {"android": "https://dc.lft.to/lastmile_qr_scan", "ios": "https://dc.lft.to/lastmile_qr_scan"}, "lat": 38.9002, "bike_id": "136c4eb0a6968fe1bddd93c220fb63a9", "is_disabled": 0, "lon": -77.01205283333333, "is_reserved": 0, "fusion_lat": 0.0, "type": "electric_scooter"}, {"fusion_lon": 0.0, "name": "0d1b17cfeb256285085c083beeb2fe4d", "rental_uris": {"android": "https://dc.lft.to/lastmile_qr_scan", "ios": "https://dc.lft.to/lastmile_qr_scan"}, "lat": 38.90240516666667, "bike_id": "0d1b17cfeb256285085c083beeb2fe4d", "is_disabled": 0, "lon": -77.015154, "is_reserved": 0, "fusion_lat": 0.0, "type": "electric_scooter"}, {"fusion_lon": 0.0, "name": "bac5ae8f9fcdd7e825f67542a4961e60", "rental_uris": {"android": "https://dc.lft.to/lastmile_qr_scan", "ios": "https://dc.lft.to/lastmile_qr_scan"}, "lat": 38.862447333333336, "bike_id": "bac5ae8f9fcdd7e825f67542a4961e60", "is_disabled": 0, "lon": -76.99498183333333, "is_reserved": 0, "fusion_lat": 0.0, "type": "electric_scooter"}, {"fusion_lon": 0.0, "name": "c4e51160cbf4333f11fc3176b267a3fd", "rental_uris": {"android": "https://dc.lft.to/lastmile_qr_scan", "ios": "https://dc.lft.to/lastmile_qr_scan"}, "lat": 38.9005615, "bike_id": "c4e51160cbf4333f11fc3176b267a3fd", "is_disabled": 0, "lon": -76.98705266666667, "is_reserved": 0, "fusion_lat": 0.0, "type": "electric_scooter"}, {"fusion_lon": 0.0, "name": "0ef7041f6aae43e02867f0128e1c831b", "rental_uris": {"android": "https://dc.lft.to/lastmile_qr_scan", "ios": "https://dc.lft.to/lastmile_qr_scan"}, "lat": 38.89952733333333, "bike_id": "0ef7041f6aae43e02867f0128e1c831b", "is_disabled": 0, "lon": -77.05032116666666, "is_reserved": 0, "fusion_lat": 0.0, "type": "electric_scooter"}, {"fusion_lon": 0.0, "name": "60192f971e5847b33caac6527e77458c", "rental_uris": {"android": "https://dc.lft.to/lastmile_qr_scan", "ios": "https://dc.lft.to/lastmile_qr_scan"}, "lat": 38.906029, "bike_id": "60192f971e5847b33caac6527e77458c", "is_disabled": 0, "lon": -77.12894166666666, "is_reserved": 0, "fusion_lat": 0.0, "type": "electric_bike"}, {"fusion_lon": 0.0, "name": "f55f644a7528f509d842bc8d8861e402", "rental_uris": {"android": "https://dc.lft.to/lastmile_qr_scan", "ios": "https://dc.lft.to/lastmile_qr_scan"}, "lat": 38.92384, "bike_id": "f55f644a7528f509d842bc8d8861e402", "is_disabled": 0, "lon": -77.03050316666666, "is_reserved": 0, "fusion_lat": 0.0, "type": "electric_scooter"}, {"fusion_lon": 0.0, "name": "c9ca6204642cd98a2e90ce5592338c56", "rental_uris": {"android": "https://dc.lft.to/lastmile_qr_scan", "ios": "https://dc.lft.to/lastmile_qr_scan"}, "lat": 38.88045983333333, "bike_id": "c9ca6204642cd98a2e90ce5592338c56", "is_disabled": 0, "lon": -77.01179783333333, "is_reserved": 0, "fusion_lat": 0.0, "type": "electric_scooter"}, {"fusion_lon": 0.0, "name": "35121256c25d617642fe7a4db81c13b8", "rental_uris": {"android": "https://dc.lft.to/lastmile_qr_scan", "ios": "https://dc.lft.to/lastmile_qr_scan"}, "lat": 38.90564533333333, "bike_id": "35121256c25d617642fe7a4db81c13b8", "is_disabled": 0, "lon": -77.034837, "is_reserved": 0, "fusion_lat": 0.0, "type": "electric_scooter"}, {"fusion_lon": 0.0, "name": "fce94903ef599a13200e9ca0dd7baae8", "rental_uris": {"android": "https://dc.lft.to/lastmile_qr_scan", "ios": "https://dc.lft.to/lastmile_qr_scan"}, "lat": 38.90105416666667, "bike_id": "fce94903ef599a13200e9ca0dd7baae8", "is_disabled": 0, "lon": -77.04981316666667, "is_reserved": 0, "fusion_lat": 0.0, "type": "electric_scooter"}, {"fusion_lon": 0.0, "name": "0171a5d1fb826c04021257932e3eb83e", "rental_uris": {"android": "https://dc.lft.to/lastmile_qr_scan", "ios": "https://dc.lft.to/lastmile_qr_scan"}, "lat": 38.98989316666667, "bike_id": "0171a5d1fb826c04021257932e3eb83e", "is_disabled": 0, "lon": -77.03359716666667, "is_reserved": 0, "fusion_lat": 0.0, "type": "electric_scooter"}, {"fusion_lon": 0.0, "name": "fcd17011b7b86d73f828d0fbf4df3c62", "rental_uris": {"android": "https://dc.lft.to/lastmile_qr_scan", "ios": "https://dc.lft.to/lastmile_qr_scan"}, "lat": 38.9327805, "bike_id": "fcd17011b7b86d73f828d0fbf4df3c62", "is_disabled": 0, "lon": -77.03940366666667, "is_reserved": 0, "fusion_lat": 0.0, "type": "electric_scooter"}, {"fusion_lon": 0.0, "name": "a6ac3176faa59424933eee2a3ba84dda", "rental_uris": {"android": "https://dc.lft.to/lastmile_qr_scan", "ios": "https://dc.lft.to/lastmile_qr_scan"}, "lat": 38.92642133333333, "bike_id": "a6ac3176faa59424933eee2a3ba84dda", "is_disabled": 0, "lon": -77.02505783333334, "is_reserved": 0, "fusion_lat": 0.0, "type": "electric_scooter"}, {"fusion_lon": 0.0, "name": "3fc697adc7500c37edaf6cd2719d0ada", "rental_uris": {"android": "https://dc.lft.to/lastmile_qr_scan", "ios": "https://dc.lft.to/lastmile_qr_scan"}, "lat": 38.89822766666666, "bike_id": "3fc697adc7500c37edaf6cd2719d0ada", "is_disabled": 0, "lon": -76.99071866666667, "is_reserved": 0, "fusion_lat": 0.0, "type": "electric_bike"}, {"fusion_lon": 0.0, "name": "6a4dc8c1d04b86e99b238b71e14bad50", "rental_uris": {"android": "https://dc.lft.to/lastmile_qr_scan", "ios": "https://dc.lft.to/lastmile_qr_scan"}, "lat": 38.886023, "bike_id": "6a4dc8c1d04b86e99b238b71e14bad50", "is_disabled": 0, "lon": -77.04513283333333, "is_reserved": 0, "fusion_lat": 0.0, "type": "electric_scooter"}, {"fusion_lon": 0.0, "name": "f45e96bf463008bacf610792fc8ba57c", "rental_uris": {"android": "https://dc.lft.to/lastmile_qr_scan", "ios": "https://dc.lft.to/lastmile_qr_scan"}, "lat": 38.92365266666667, "bike_id": "f45e96bf463008bacf610792fc8ba57c", "is_disabled": 0, "lon": -77.01957083333333, "is_reserved": 0, "fusion_lat": 0.0, "type": "electric_scooter"}, {"fusion_lon": 0.0, "name": "aa955ac1798661b8c6c8a996b2b06929", "rental_uris": {"android": "https://dc.lft.to/lastmile_qr_scan", "ios": "https://dc.lft.to/lastmile_qr_scan"}, "lat": 38.923541666666665, "bike_id": "aa955ac1798661b8c6c8a996b2b06929", "is_disabled": 0, "lon": -77.05434633333333, "is_reserved": 0, "fusion_lat": 0.0, "type": "electric_scooter"}, {"fusion_lon": 0.0, "name": "9fc1c6d96f40b01a41a5871d5eac6bb5", "rental_uris": {"android": "https://dc.lft.to/lastmile_qr_scan", "ios": "https://dc.lft.to/lastmile_qr_scan"}, "lat": 38.89690683333333, "bike_id": "9fc1c6d96f40b01a41a5871d5eac6bb5", "is_disabled": 0, "lon": -77.004935, "is_reserved": 0, "fusion_lat": 0.0, "type": "electric_scooter"}, {"fusion_lon": 0.0, "name": "6e697f3b0c0affd4029eb29086a51ecc", "rental_uris": {"android": "https://dc.lft.to/lastmile_qr_scan", "ios": "https://dc.lft.to/lastmile_qr_scan"}, "lat": 38.92048583333333, "bike_id": "6e697f3b0c0affd4029eb29086a51ecc", "is_disabled": 0, "lon": -77.04185833333334, "is_reserved": 0, "fusion_lat": 0.0, "type": "electric_scooter"}, {"fusion_lon": 0.0, "name": "b4bf5d822ad1b8e9ba155db159e5f9d3", "rental_uris": {"android": "https://dc.lft.to/lastmile_qr_scan", "ios": "https://dc.lft.to/lastmile_qr_scan"}, "lat": 38.9518545, "bike_id": "b4bf5d822ad1b8e9ba155db159e5f9d3", "is_disabled": 0, "lon": -77.026144, "is_reserved": 0, "fusion_lat": 0.0, "type": "electric_scooter"}, {"fusion_lon": 0.0, "name": "ea25125d5b059dfd470a31356b436841", "rental_uris": {"android": "https://dc.lft.to/lastmile_qr_scan", "ios": "https://dc.lft.to/lastmile_qr_scan"}, "lat": 38.934936666666665, "bike_id": "ea25125d5b059dfd470a31356b436841", "is_disabled": 0, "lon": -77.04450866666667, "is_reserved": 0, "fusion_lat": 0.0, "type": "electric_scooter"}, {"fusion_lon": 0.0, "name": "4851181a100439ce6400df75a7165880", "rental_uris": {"android": "https://dc.lft.to/lastmile_qr_scan", "ios": "https://dc.lft.to/lastmile_qr_scan"}, "lat": 38.901125, "bike_id": "4851181a100439ce6400df75a7165880", "is_disabled": 0, "lon": -77.0448325, "is_reserved": 0, "fusion_lat": 0.0, "type": "electric_scooter"}, {"fusion_lon": 0.0, "name": "8a818dc60d7ffa0849b7be3c3dabd67a", "rental_uris": {"android": "https://dc.lft.to/lastmile_qr_scan", "ios": "https://dc.lft.to/lastmile_qr_scan"}, "lat": 38.862458833333335, "bike_id": "8a818dc60d7ffa0849b7be3c3dabd67a", "is_disabled": 0, "lon": -76.9949865, "is_reserved": 0, "fusion_lat": 0.0, "type": "electric_scooter"}, {"fusion_lon": 0.0, "name": "b0d9ab3a319317965873bec4f5dfde57", "rental_uris": {"android": "https://dc.lft.to/lastmile_qr_scan", "ios": "https://dc.lft.to/lastmile_qr_scan"}, "lat": 38.904718, "bike_id": "b0d9ab3a319317965873bec4f5dfde57", "is_disabled": 0, "lon": -77.04864583333334, "is_reserved": 0, "fusion_lat": 0.0, "type": "electric_scooter"}, {"fusion_lon": 0.0, "name": "3506fecbd42fe2ec2bb5cb41b3c637e3", "rental_uris": {"android": "https://dc.lft.to/lastmile_qr_scan", "ios": "https://dc.lft.to/lastmile_qr_scan"}, "lat": 38.923281333333335, "bike_id": "3506fecbd42fe2ec2bb5cb41b3c637e3", "is_disabled": 0, "lon": -77.01956916666667, "is_reserved": 0, "fusion_lat": 0.0, "type": "electric_scooter"}, {"fusion_lon": 0.0, "name": "50fe4bb4a7883a0abc4a90a19d97e809", "rental_uris": {"android": "https://dc.lft.to/lastmile_qr_scan", "ios": "https://dc.lft.to/lastmile_qr_scan"}, "lat": 38.89710866666667, "bike_id": "50fe4bb4a7883a0abc4a90a19d97e809", "is_disabled": 0, "lon": -76.99119316666666, "is_reserved": 0, "fusion_lat": 0.0, "type": "electric_scooter"}, {"fusion_lon": 0.0, "name": "94b382777733afe67bd251de0b77eb2e", "rental_uris": {"android": "https://dc.lft.to/lastmile_qr_scan", "ios": "https://dc.lft.to/lastmile_qr_scan"}, "lat": 38.92600266666667, "bike_id": "94b382777733afe67bd251de0b77eb2e", "is_disabled": 0, "lon": -77.02436083333333, "is_reserved": 0, "fusion_lat": 0.0, "type": "electric_bike"}, {"fusion_lon": 0.0, "name": "3e24629696bf9d1b7f5b5f244e6e1b52", "rental_uris": {"android": "https://dc.lft.to/lastmile_qr_scan", "ios": "https://dc.lft.to/lastmile_qr_scan"}, "lat": 38.89883066666667, "bike_id": "3e24629696bf9d1b7f5b5f244e6e1b52", "is_disabled": 0, "lon": -76.98837133333333, "is_reserved": 0, "fusion_lat": 0.0, "type": "electric_scooter"}, {"fusion_lon": 0.0, "name": "21e41b8e2da1805819c0c6f15594f950", "rental_uris": {"android": "https://dc.lft.to/lastmile_qr_scan", "ios": "https://dc.lft.to/lastmile_qr_scan"}, "lat": 38.92973033333333, "bike_id": "21e41b8e2da1805819c0c6f15594f950", "is_disabled": 0, "lon": -77.02797316666667, "is_reserved": 0, "fusion_lat": 0.0, "type": "electric_scooter"}, {"fusion_lon": 0.0, "name": "894366a921ad4c6898f2823720af6a21", "rental_uris": {"android": "https://dc.lft.to/lastmile_qr_scan", "ios": "https://dc.lft.to/lastmile_qr_scan"}, "lat": 38.924725, "bike_id": "894366a921ad4c6898f2823720af6a21", "is_disabled": 0, "lon": -77.02204116666667, "is_reserved": 0, "fusion_lat": 0.0, "type": "electric_scooter"}, {"fusion_lon": 0.0, "name": "a0b54288267738235c47b48bdb75e2f6", "rental_uris": {"android": "https://dc.lft.to/lastmile_qr_scan", "ios": "https://dc.lft.to/lastmile_qr_scan"}, "lat": 38.90880383333333, "bike_id": "a0b54288267738235c47b48bdb75e2f6", "is_disabled": 0, "lon": -77.04393366666666, "is_reserved": 0, "fusion_lat": 0.0, "type": "electric_scooter"}, {"fusion_lon": 0.0, "name": "98b277454146ee626ec615d914779046", "rental_uris": {"android": "https://dc.lft.to/lastmile_qr_scan", "ios": "https://dc.lft.to/lastmile_qr_scan"}, "lat": 38.915632, "bike_id": "98b277454146ee626ec615d914779046", "is_disabled": 0, "lon": -77.0317185, "is_reserved": 0, "fusion_lat": 0.0, "type": "electric_scooter"}, {"fusion_lon": 0.0, "name": "b5bafc2931d311b8604e24032095dc04", "rental_uris": {"android": "https://dc.lft.to/lastmile_qr_scan", "ios": "https://dc.lft.to/lastmile_qr_scan"}, "lat": 38.90142616666667, "bike_id": "b5bafc2931d311b8604e24032095dc04", "is_disabled": 0, "lon": -77.04440366666667, "is_reserved": 0, "fusion_lat": 0.0, "type": "electric_scooter"}, {"fusion_lon": 0.0, "name": "20a3af1f300be19f7ae8ad9eb9bb3c4a", "rental_uris": {"android": "https://dc.lft.to/lastmile_qr_scan", "ios": "https://dc.lft.to/lastmile_qr_scan"}, "lat": 38.907599166666664, "bike_id": "20a3af1f300be19f7ae8ad9eb9bb3c4a", "is_disabled": 0, "lon": -77.04143766666667, "is_reserved": 0, "fusion_lat": 0.0, "type": "electric_scooter"}, {"fusion_lon": 0.0, "name": "043c07c043b4f6faa072ab2c0c626ea1", "rental_uris": {"android": "https://dc.lft.to/lastmile_qr_scan", "ios": "https://dc.lft.to/lastmile_qr_scan"}, "lat": 38.94194316666667, "bike_id": "043c07c043b4f6faa072ab2c0c626ea1", "is_disabled": 0, "lon": -77.03551866666666, "is_reserved": 0, "fusion_lat": 0.0, "type": "electric_scooter"}, {"fusion_lon": 0.0, "name": "b949f8e457b8e34b57ca8dbf4736bfd4", "rental_uris": {"android": "https://dc.lft.to/lastmile_qr_scan", "ios": "https://dc.lft.to/lastmile_qr_scan"}, "lat": 38.92879816666667, "bike_id": "b949f8e457b8e34b57ca8dbf4736bfd4", "is_disabled": 0, "lon": -77.0136875, "is_reserved": 0, "fusion_lat": 0.0, "type": "electric_scooter"}, {"fusion_lon": 0.0, "name": "639f2cc59999b7b37c1a3d5634d2c4c1", "rental_uris": {"android": "https://dc.lft.to/lastmile_qr_scan", "ios": "https://dc.lft.to/lastmile_qr_scan"}, "lat": 38.91127866666667, "bike_id": "639f2cc59999b7b37c1a3d5634d2c4c1", "is_disabled": 0, "lon": -77.0219705, "is_reserved": 0, "fusion_lat": 0.0, "type": "electric_scooter"}, {"fusion_lon": 0.0, "name": "55d753c63accac708d39f7ee5f9c3385", "rental_uris": {"android": "https://dc.lft.to/lastmile_qr_scan", "ios": "https://dc.lft.to/lastmile_qr_scan"}, "lat": 38.91678983333333, "bike_id": "55d753c63accac708d39f7ee5f9c3385", "is_disabled": 0, "lon": -77.02387633333333, "is_reserved": 0, "fusion_lat": 0.0, "type": "electric_scooter"}, {"fusion_lon": 0.0, "name": "0382cc30ec30e8e1a618cdacaa59927a", "rental_uris": {"android": "https://dc.lft.to/lastmile_qr_scan", "ios": "https://dc.lft.to/lastmile_qr_scan"}, "lat": 38.89543066666667, "bike_id": "0382cc30ec30e8e1a618cdacaa59927a", "is_disabled": 0, "lon": -77.0110805, "is_reserved": 0, "fusion_lat": 0.0, "type": "electric_scooter"}, {"fusion_lon": 0.0, "name": "07182aa9cf5f0b4a61ef93eaf16e0c94", "rental_uris": {"android": "https://dc.lft.to/lastmile_qr_scan", "ios": "https://dc.lft.to/lastmile_qr_scan"}, "lat": 38.89619483333333, "bike_id": "07182aa9cf5f0b4a61ef93eaf16e0c94", "is_disabled": 0, "lon": -76.90756566666667, "is_reserved": 0, "fusion_lat": 0.0, "type": "electric_bike"}, {"fusion_lon": 0.0, "name": "e52e47c3f00f5eb124eb21646708e990", "rental_uris": {"android": "https://dc.lft.to/lastmile_qr_scan", "ios": "https://dc.lft.to/lastmile_qr_scan"}, "lat": 38.9202505, "bike_id": "e52e47c3f00f5eb124eb21646708e990", "is_disabled": 0, "lon": -77.01117216666667, "is_reserved": 0, "fusion_lat": 0.0, "type": "electric_scooter"}, {"fusion_lon": 0.0, "name": "0519e476b3742a2eac3510cc0a7be99d", "rental_uris": {"android": "https://dc.lft.to/lastmile_qr_scan", "ios": "https://dc.lft.to/lastmile_qr_scan"}, "lat": 38.900802166666665, "bike_id": "0519e476b3742a2eac3510cc0a7be99d", "is_disabled": 0, "lon": -77.04467216666667, "is_reserved": 0, "fusion_lat": 0.0, "type": "electric_scooter"}, {"fusion_lon": 0.0, "name": "3fc71ea261699fc91946dc3d3aa8638a", "rental_uris": {"android": "https://dc.lft.to/lastmile_qr_scan", "ios": "https://dc.lft.to/lastmile_qr_scan"}, "lat": 38.90029066666666, "bike_id": "3fc71ea261699fc91946dc3d3aa8638a", "is_disabled": 0, "lon": -76.99863566666667, "is_reserved": 0, "fusion_lat": 0.0, "type": "electric_scooter"}, {"fusion_lon": 0.0, "name": "dc0e5c534692fbbb2e9b94e2cd77bffc", "rental_uris": {"android": "https://dc.lft.to/lastmile_qr_scan", "ios": "https://dc.lft.to/lastmile_qr_scan"}, "lat": 38.92475983333333, "bike_id": "dc0e5c534692fbbb2e9b94e2cd77bffc", "is_disabled": 0, "lon": -77.02238866666667, "is_reserved": 0, "fusion_lat": 0.0, "type": "electric_scooter"}, {"fusion_lon": 0.0, "name": "d04f8b668402b3c6ae4974f79cefadf2", "rental_uris": {"android": "https://dc.lft.to/lastmile_qr_scan", "ios": "https://dc.lft.to/lastmile_qr_scan"}, "lat": 38.903238, "bike_id": "d04f8b668402b3c6ae4974f79cefadf2", "is_disabled": 0, "lon": -76.98155333333334, "is_reserved": 0, "fusion_lat": 0.0, "type": "electric_scooter"}, {"fusion_lon": 0.0, "name": "af3ab2327572214633e78cbeae09faa5", "rental_uris": {"android": "https://dc.lft.to/lastmile_qr_scan", "ios": "https://dc.lft.to/lastmile_qr_scan"}, "lat": 38.916906, "bike_id": "af3ab2327572214633e78cbeae09faa5", "is_disabled": 0, "lon": -77.01589783333333, "is_reserved": 0, "fusion_lat": 0.0, "type": "electric_scooter"}, {"fusion_lon": 0.0, "name": "933928d9cd20b97e470f1e93b5d1b476", "rental_uris": {"android": "https://dc.lft.to/lastmile_qr_scan", "ios": "https://dc.lft.to/lastmile_qr_scan"}, "lat": 38.9145295, "bike_id": "933928d9cd20b97e470f1e93b5d1b476", "is_disabled": 0, "lon": -77.0417915, "is_reserved": 0, "fusion_lat": 0.0, "type": "electric_scooter"}, {"fusion_lon": 0.0, "name": "99732bee302ffdf2847117b38d604e89", "rental_uris": {"android": "https://dc.lft.to/lastmile_qr_scan", "ios": "https://dc.lft.to/lastmile_qr_scan"}, "lat": 38.913366, "bike_id": "99732bee302ffdf2847117b38d604e89", "is_disabled": 0, "lon": -77.00216933333333, "is_reserved": 0, "fusion_lat": 0.0, "type": "electric_scooter"}, {"fusion_lon": 0.0, "name": "15dd10d87d5ea71e25c3594c3f6bf842", "rental_uris": {"android": "https://dc.lft.to/lastmile_qr_scan", "ios": "https://dc.lft.to/lastmile_qr_scan"}, "lat": 38.9092825, "bike_id": "15dd10d87d5ea71e25c3594c3f6bf842", "is_disabled": 0, "lon": -77.0385025, "is_reserved": 0, "fusion_lat": 0.0, "type": "electric_scooter"}, {"fusion_lon": 0.0, "name": "0ee4b7a58122716d8308dd523388e5e2", "rental_uris": {"android": "https://dc.lft.to/lastmile_qr_scan", "ios": "https://dc.lft.to/lastmile_qr_scan"}, "lat": 38.89459333333333, "bike_id": "0ee4b7a58122716d8308dd523388e5e2", "is_disabled": 0, "lon": -77.02663916666667, "is_reserved": 0, "fusion_lat": 0.0, "type": "electric_scooter"}, {"fusion_lon": 0.0, "name": "4610b1abe65a75cb330468ea4b0ce3e2", "rental_uris": {"android": "https://dc.lft.to/lastmile_qr_scan", "ios": "https://dc.lft.to/lastmile_qr_scan"}, "lat": 38.943726, "bike_id": "4610b1abe65a75cb330468ea4b0ce3e2", "is_disabled": 0, "lon": -77.06138683333333, "is_reserved": 0, "fusion_lat": 0.0, "type": "electric_scooter"}, {"fusion_lon": 0.0, "name": "a4f209d136c0850489e67048169038b6", "rental_uris": {"android": "https://dc.lft.to/lastmile_qr_scan", "ios": "https://dc.lft.to/lastmile_qr_scan"}, "lat": 38.904015333333334, "bike_id": "a4f209d136c0850489e67048169038b6", "is_disabled": 0, "lon": -76.97366366666667, "is_reserved": 0, "fusion_lat": 0.0, "type": "electric_scooter"}, {"fusion_lon": 0.0, "name": "3343abb7fcfad95e3833d5b060fa5b19", "rental_uris": {"android": "https://dc.lft.to/lastmile_qr_scan", "ios": "https://dc.lft.to/lastmile_qr_scan"}, "lat": 38.8461425, "bike_id": "3343abb7fcfad95e3833d5b060fa5b19", "is_disabled": 0, "lon": -76.96932516666666, "is_reserved": 0, "fusion_lat": 0.0, "type": "electric_bike"}, {"fusion_lon": 0.0, "name": "29900d437f83b3bdffefe415ac5afe54", "rental_uris": {"android": "https://dc.lft.to/lastmile_qr_scan", "ios": "https://dc.lft.to/lastmile_qr_scan"}, "lat": 38.901326833333336, "bike_id": "29900d437f83b3bdffefe415ac5afe54", "is_disabled": 0, "lon": -77.003225, "is_reserved": 0, "fusion_lat": 0.0, "type": "electric_scooter"}, {"fusion_lon": 0.0, "name": "1d4c48ef4771a619c653b1f9b6ef2d21", "rental_uris": {"android": "https://dc.lft.to/lastmile_qr_scan", "ios": "https://dc.lft.to/lastmile_qr_scan"}, "lat": 38.88430683333333, "bike_id": "1d4c48ef4771a619c653b1f9b6ef2d21", "is_disabled": 0, "lon": -77.0235195, "is_reserved": 0, "fusion_lat": 0.0, "type": "electric_scooter"}, {"fusion_lon": 0.0, "name": "6be929183ce10c8dc96e631ea0583448", "rental_uris": {"android": "https://dc.lft.to/lastmile_qr_scan", "ios": "https://dc.lft.to/lastmile_qr_scan"}, "lat": 38.92278266666667, "bike_id": "6be929183ce10c8dc96e631ea0583448", "is_disabled": 0, "lon": -77.04291666666667, "is_reserved": 0, "fusion_lat": 0.0, "type": "electric_scooter"}, {"fusion_lon": 0.0, "name": "00f539114714c857eafa674b5fb8e857", "rental_uris": {"android": "https://dc.lft.to/lastmile_qr_scan", "ios": "https://dc.lft.to/lastmile_qr_scan"}, "lat": 38.931086, "bike_id": "00f539114714c857eafa674b5fb8e857", "is_disabled": 0, "lon": -77.03026133333333, "is_reserved": 0, "fusion_lat": 0.0, "type": "electric_scooter"}, {"fusion_lon": 0.0, "name": "085ae82611ed37b5d864932aba46d1df", "rental_uris": {"android": "https://dc.lft.to/lastmile_qr_scan", "ios": "https://dc.lft.to/lastmile_qr_scan"}, "lat": 38.919528, "bike_id": "085ae82611ed37b5d864932aba46d1df", "is_disabled": 0, "lon": -77.013917, "is_reserved": 0, "fusion_lat": 0.0, "type": "electric_scooter"}, {"fusion_lon": 0.0, "name": "d9aba8776e096ac232ea253fc1283784", "rental_uris": {"android": "https://dc.lft.to/lastmile_qr_scan", "ios": "https://dc.lft.to/lastmile_qr_scan"}, "lat": 38.85444716666667, "bike_id": "d9aba8776e096ac232ea253fc1283784", "is_disabled": 0, "lon": -76.98607283333334, "is_reserved": 0, "fusion_lat": 0.0, "type": "electric_bike"}, {"fusion_lon": 0.0, "name": "60979ff1023fa0d5fa009c33d3b6b781", "rental_uris": {"android": "https://dc.lft.to/lastmile_qr_scan", "ios": "https://dc.lft.to/lastmile_qr_scan"}, "lat": 38.92876116666667, "bike_id": "60979ff1023fa0d5fa009c33d3b6b781", "is_disabled": 0, "lon": -77.01232116666667, "is_reserved": 0, "fusion_lat": 0.0, "type": "electric_scooter"}, {"fusion_lon": 0.0, "name": "2602a001469e8d3b54a5327ed9e753f7", "rental_uris": {"android": "https://dc.lft.to/lastmile_qr_scan", "ios": "https://dc.lft.to/lastmile_qr_scan"}, "lat": 38.920703833333334, "bike_id": "2602a001469e8d3b54a5327ed9e753f7", "is_disabled": 0, "lon": -77.02320166666667, "is_reserved": 0, "fusion_lat": 0.0, "type": "electric_scooter"}, {"fusion_lon": 0.0, "name": "b8595a7511a54c584733e7af23e113e0", "rental_uris": {"android": "https://dc.lft.to/lastmile_qr_scan", "ios": "https://dc.lft.to/lastmile_qr_scan"}, "lat": 38.99226566666667, "bike_id": "b8595a7511a54c584733e7af23e113e0", "is_disabled": 0, "lon": -77.023786, "is_reserved": 0, "fusion_lat": 0.0, "type": "electric_bike"}, {"fusion_lon": 0.0, "name": "8177523c5d75aed84951663cba881d7f", "rental_uris": {"android": "https://dc.lft.to/lastmile_qr_scan", "ios": "https://dc.lft.to/lastmile_qr_scan"}, "lat": 38.8952345, "bike_id": "8177523c5d75aed84951663cba881d7f", "is_disabled": 0, "lon": -77.0119085, "is_reserved": 0, "fusion_lat": 0.0, "type": "electric_scooter"}, {"fusion_lon": 0.0, "name": "08f58d1a0c0066c7cc2534f863ab63e3", "rental_uris": {"android": "https://dc.lft.to/lastmile_qr_scan", "ios": "https://dc.lft.to/lastmile_qr_scan"}, "lat": 38.857905833333334, "bike_id": "08f58d1a0c0066c7cc2534f863ab63e3", "is_disabled": 0, "lon": -76.9874935, "is_reserved": 0, "fusion_lat": 0.0, "type": "electric_bike"}, {"fusion_lon": 0.0, "name": "4b621aa8090fff7f323cd3484f45856d", "rental_uris": {"android": "https://dc.lft.to/lastmile_qr_scan", "ios": "https://dc.lft.to/lastmile_qr_scan"}, "lat": 38.89419183333333, "bike_id": "4b621aa8090fff7f323cd3484f45856d", "is_disabled": 0, "lon": -76.99771383333334, "is_reserved": 0, "fusion_lat": 0.0, "type": "electric_scooter"}, {"fusion_lon": 0.0, "name": "6365f1a8a2d6d5f8ac15d5079fd4c977", "rental_uris": {"android": "https://dc.lft.to/lastmile_qr_scan", "ios": "https://dc.lft.to/lastmile_qr_scan"}, "lat": 38.888782666666664, "bike_id": "6365f1a8a2d6d5f8ac15d5079fd4c977", "is_disabled": 0, "lon": -76.97729683333333, "is_reserved": 0, "fusion_lat": 0.0, "type": "electric_scooter"}, {"fusion_lon": 0.0, "name": "9eca0da57e825e27030555e5bc3006e4", "rental_uris": {"android": "https://dc.lft.to/lastmile_qr_scan", "ios": "https://dc.lft.to/lastmile_qr_scan"}, "lat": 38.961283, "bike_id": "9eca0da57e825e27030555e5bc3006e4", "is_disabled": 0, "lon": -77.03270266666667, "is_reserved": 0, "fusion_lat": 0.0, "type": "electric_bike"}, {"fusion_lon": 0.0, "name": "b4dea2235611ec5b1a63de2ddd531788", "rental_uris": {"android": "https://dc.lft.to/lastmile_qr_scan", "ios": "https://dc.lft.to/lastmile_qr_scan"}, "lat": 38.886124333333335, "bike_id": "b4dea2235611ec5b1a63de2ddd531788", "is_disabled": 0, "lon": -77.02169666666667, "is_reserved": 0, "fusion_lat": 0.0, "type": "electric_scooter"}, {"fusion_lon": 0.0, "name": "387496db30776e16dc131841a0a64cf8", "rental_uris": {"android": "https://dc.lft.to/lastmile_qr_scan", "ios": "https://dc.lft.to/lastmile_qr_scan"}, "lat": 38.905673, "bike_id": "387496db30776e16dc131841a0a64cf8", "is_disabled": 0, "lon": -77.02189216666666, "is_reserved": 0, "fusion_lat": 0.0, "type": "electric_scooter"}, {"fusion_lon": 0.0, "name": "7845d5a424272ddcf62c8470e4976ea1", "rental_uris": {"android": "https://dc.lft.to/lastmile_qr_scan", "ios": "https://dc.lft.to/lastmile_qr_scan"}, "lat": 38.9661375, "bike_id": "7845d5a424272ddcf62c8470e4976ea1", "is_disabled": 0, "lon": -77.02292483333333, "is_reserved": 0, "fusion_lat": 0.0, "type": "electric_scooter"}, {"fusion_lon": 0.0, "name": "a6b03ae9eff8cc8feec4277b9b94a877", "rental_uris": {"android": "https://dc.lft.to/lastmile_qr_scan", "ios": "https://dc.lft.to/lastmile_qr_scan"}, "lat": 38.92866983333333, "bike_id": "a6b03ae9eff8cc8feec4277b9b94a877", "is_disabled": 0, "lon": -77.0334385, "is_reserved": 0, "fusion_lat": 0.0, "type": "electric_scooter"}, {"fusion_lon": 0.0, "name": "aabf8090fe0fbd47c5e7bc1e65ec4908", "rental_uris": {"android": "https://dc.lft.to/lastmile_qr_scan", "ios": "https://dc.lft.to/lastmile_qr_scan"}, "lat": 38.871833333333335, "bike_id": "aabf8090fe0fbd47c5e7bc1e65ec4908", "is_disabled": 0, "lon": -77.01219766666667, "is_reserved": 0, "fusion_lat": 0.0, "type": "electric_scooter"}, {"fusion_lon": 0.0, "name": "7b87eb2670055601c9702199a87f3380", "rental_uris": {"android": "https://dc.lft.to/lastmile_qr_scan", "ios": "https://dc.lft.to/lastmile_qr_scan"}, "lat": 38.901634666666666, "bike_id": "7b87eb2670055601c9702199a87f3380", "is_disabled": 0, "lon": -76.976923, "is_reserved": 0, "fusion_lat": 0.0, "type": "electric_bike"}, {"fusion_lon": 0.0, "name": "55113502a99e523d70a12e489820f6c3", "rental_uris": {"android": "https://dc.lft.to/lastmile_qr_scan", "ios": "https://dc.lft.to/lastmile_qr_scan"}, "lat": 38.901781, "bike_id": "55113502a99e523d70a12e489820f6c3", "is_disabled": 0, "lon": -77.05899766666667, "is_reserved": 0, "fusion_lat": 0.0, "type": "electric_scooter"}, {"fusion_lon": 0.0, "name": "4c4b498e263dae2741c08faaff2f5900", "rental_uris": {"android": "https://dc.lft.to/lastmile_qr_scan", "ios": "https://dc.lft.to/lastmile_qr_scan"}, "lat": 38.930565333333334, "bike_id": "4c4b498e263dae2741c08faaff2f5900", "is_disabled": 0, "lon": -77.02321483333333, "is_reserved": 0, "fusion_lat": 0.0, "type": "electric_scooter"}, {"fusion_lon": 0.0, "name": "52b50e6e3e67c21e24fc9b366459c5a7", "rental_uris": {"android": "https://dc.lft.to/lastmile_qr_scan", "ios": "https://dc.lft.to/lastmile_qr_scan"}, "lat": 38.8544055, "bike_id": "52b50e6e3e67c21e24fc9b366459c5a7", "is_disabled": 0, "lon": -76.97166383333334, "is_reserved": 0, "fusion_lat": 0.0, "type": "electric_scooter"}, {"fusion_lon": 0.0, "name": "bfff6af146a5222dcb8cbd9a03c13267", "rental_uris": {"android": "https://dc.lft.to/lastmile_qr_scan", "ios": "https://dc.lft.to/lastmile_qr_scan"}, "lat": 38.87170183333333, "bike_id": "bfff6af146a5222dcb8cbd9a03c13267", "is_disabled": 0, "lon": -77.00622483333333, "is_reserved": 0, "fusion_lat": 0.0, "type": "electric_scooter"}, {"fusion_lon": 0.0, "name": "815b132b7bbdb7819d417831c7c87f7d", "rental_uris": {"android": "https://dc.lft.to/lastmile_qr_scan", "ios": "https://dc.lft.to/lastmile_qr_scan"}, "lat": 38.8965825, "bike_id": "815b132b7bbdb7819d417831c7c87f7d", "is_disabled": 0, "lon": -77.04473033333333, "is_reserved": 0, "fusion_lat": 0.0, "type": "electric_scooter"}, {"fusion_lon": 0.0, "name": "b0122919755f981f6ec11864480338b7", "rental_uris": {"android": "https://dc.lft.to/lastmile_qr_scan", "ios": "https://dc.lft.to/lastmile_qr_scan"}, "lat": 38.904219166666664, "bike_id": "b0122919755f981f6ec11864480338b7", "is_disabled": 0, "lon": -77.050044, "is_reserved": 0, "fusion_lat": 0.0, "type": "electric_scooter"}, {"fusion_lon": 0.0, "name": "dc8de201dd31e048eda2430891a1e30c", "rental_uris": {"android": "https://dc.lft.to/lastmile_qr_scan", "ios": "https://dc.lft.to/lastmile_qr_scan"}, "lat": 38.908993833333334, "bike_id": "dc8de201dd31e048eda2430891a1e30c", "is_disabled": 0, "lon": -76.9962225, "is_reserved": 0, "fusion_lat": 0.0, "type": "electric_scooter"}, {"fusion_lon": 0.0, "name": "164af18e299de113b54d41d86dfecf23", "rental_uris": {"android": "https://dc.lft.to/lastmile_qr_scan", "ios": "https://dc.lft.to/lastmile_qr_scan"}, "lat": 38.90654983333334, "bike_id": "164af18e299de113b54d41d86dfecf23", "is_disabled": 0, "lon": -77.07132483333334, "is_reserved": 0, "fusion_lat": 0.0, "type": "electric_scooter"}, {"fusion_lon": 0.0, "name": "41fb58e0243e3606bc351c08c6ddb82b", "rental_uris": {"android": "https://dc.lft.to/lastmile_qr_scan", "ios": "https://dc.lft.to/lastmile_qr_scan"}, "lat": 38.904596166666664, "bike_id": "41fb58e0243e3606bc351c08c6ddb82b", "is_disabled": 0, "lon": -77.02948583333334, "is_reserved": 0, "fusion_lat": 0.0, "type": "electric_scooter"}, {"fusion_lon": 0.0, "name": "593ed843a3ae4ce67a15a9f83ac854c3", "rental_uris": {"android": "https://dc.lft.to/lastmile_qr_scan", "ios": "https://dc.lft.to/lastmile_qr_scan"}, "lat": 38.9199935, "bike_id": "593ed843a3ae4ce67a15a9f83ac854c3", "is_disabled": 0, "lon": -76.98396983333333, "is_reserved": 0, "fusion_lat": 0.0, "type": "electric_scooter"}, {"fusion_lon": 0.0, "name": "7af5c7bfbec842ccba6264d4f2c10e3e", "rental_uris": {"android": "https://dc.lft.to/lastmile_qr_scan", "ios": "https://dc.lft.to/lastmile_qr_scan"}, "lat": 38.93336033333333, "bike_id": "7af5c7bfbec842ccba6264d4f2c10e3e", "is_disabled": 0, "lon": -77.0285125, "is_reserved": 0, "fusion_lat": 0.0, "type": "electric_scooter"}, {"fusion_lon": 0.0, "name": "bdda5c234f646b15a26e1beac03e6992", "rental_uris": {"android": "https://dc.lft.to/lastmile_qr_scan", "ios": "https://dc.lft.to/lastmile_qr_scan"}, "lat": 38.83582716666667, "bike_id": "bdda5c234f646b15a26e1beac03e6992", "is_disabled": 0, "lon": -76.9902125, "is_reserved": 0, "fusion_lat": 0.0, "type": "electric_bike"}, {"fusion_lon": 0.0, "name": "f962523cc666453accd61db8bf1ee835", "rental_uris": {"android": "https://dc.lft.to/lastmile_qr_scan", "ios": "https://dc.lft.to/lastmile_qr_scan"}, "lat": 38.93473566666667, "bike_id": "f962523cc666453accd61db8bf1ee835", "is_disabled": 0, "lon": -77.08660216666667, "is_reserved": 0, "fusion_lat": 0.0, "type": "electric_scooter"}, {"fusion_lon": 0.0, "name": "0331470127e5a1f802a7896ab8816d10", "rental_uris": {"android": "https://dc.lft.to/lastmile_qr_scan", "ios": "https://dc.lft.to/lastmile_qr_scan"}, "lat": 38.893377, "bike_id": "0331470127e5a1f802a7896ab8816d10", "is_disabled": 0, "lon": -77.04873133333334, "is_reserved": 0, "fusion_lat": 0.0, "type": "electric_scooter"}, {"fusion_lon": 0.0, "name": "0d6b8cb8c49cbc050af5ed0f32746632", "rental_uris": {"android": "https://dc.lft.to/lastmile_qr_scan", "ios": "https://dc.lft.to/lastmile_qr_scan"}, "lat": 38.898262833333334, "bike_id": "0d6b8cb8c49cbc050af5ed0f32746632", "is_disabled": 0, "lon": -76.93008833333333, "is_reserved": 0, "fusion_lat": 0.0, "type": "electric_scooter"}, {"fusion_lon": 0.0, "name": "e6e389d29ef022135c21bcf474b6b4f0", "rental_uris": {"android": "https://dc.lft.to/lastmile_qr_scan", "ios": "https://dc.lft.to/lastmile_qr_scan"}, "lat": 38.9014475, "bike_id": "e6e389d29ef022135c21bcf474b6b4f0", "is_disabled": 0, "lon": -77.0500445, "is_reserved": 0, "fusion_lat": 0.0, "type": "electric_scooter"}, {"fusion_lon": 0.0, "name": "e23df1b8a734298fd317bd4cd5765074", "rental_uris": {"android": "https://dc.lft.to/lastmile_qr_scan", "ios": "https://dc.lft.to/lastmile_qr_scan"}, "lat": 38.92612666666667, "bike_id": "e23df1b8a734298fd317bd4cd5765074", "is_disabled": 0, "lon": -77.0216095, "is_reserved": 0, "fusion_lat": 0.0, "type": "electric_scooter"}, {"fusion_lon": 0.0, "name": "d1e9801605fca93529735b8ed8293576", "rental_uris": {"android": "https://dc.lft.to/lastmile_qr_scan", "ios": "https://dc.lft.to/lastmile_qr_scan"}, "lat": 38.89615883333333, "bike_id": "d1e9801605fca93529735b8ed8293576", "is_disabled": 0, "lon": -76.994156, "is_reserved": 0, "fusion_lat": 0.0, "type": "electric_scooter"}, {"fusion_lon": 0.0, "name": "2401815cfe5a84fb66c429469c268c42", "rental_uris": {"android": "https://dc.lft.to/lastmile_qr_scan", "ios": "https://dc.lft.to/lastmile_qr_scan"}, "lat": 38.9078025, "bike_id": "2401815cfe5a84fb66c429469c268c42", "is_disabled": 0, "lon": -77.035167, "is_reserved": 0, "fusion_lat": 0.0, "type": "electric_scooter"}, {"fusion_lon": 0.0, "name": "6ca79d6aa14804082ea94cf747a3356c", "rental_uris": {"android": "https://dc.lft.to/lastmile_qr_scan", "ios": "https://dc.lft.to/lastmile_qr_scan"}, "lat": 38.89221116666667, "bike_id": "6ca79d6aa14804082ea94cf747a3356c", "is_disabled": 0, "lon": -77.01397383333334, "is_reserved": 0, "fusion_lat": 0.0, "type": "electric_scooter"}, {"fusion_lon": 0.0, "name": "da0cd6faf6e554604083b67ec34309c8", "rental_uris": {"android": "https://dc.lft.to/lastmile_qr_scan", "ios": "https://dc.lft.to/lastmile_qr_scan"}, "lat": 38.86223416666667, "bike_id": "da0cd6faf6e554604083b67ec34309c8", "is_disabled": 0, "lon": -76.99461833333334, "is_reserved": 0, "fusion_lat": 0.0, "type": "electric_scooter"}, {"fusion_lon": 0.0, "name": "cbd6ae8cc4548047b6640e6e8af1559f", "rental_uris": {"android": "https://dc.lft.to/lastmile_qr_scan", "ios": "https://dc.lft.to/lastmile_qr_scan"}, "lat": 38.89468333333333, "bike_id": "cbd6ae8cc4548047b6640e6e8af1559f", "is_disabled": 0, "lon": -77.0207835, "is_reserved": 0, "fusion_lat": 0.0, "type": "electric_scooter"}, {"fusion_lon": 0.0, "name": "6c768252a955c5eeece4b0928066080a", "rental_uris": {"android": "https://dc.lft.to/lastmile_qr_scan", "ios": "https://dc.lft.to/lastmile_qr_scan"}, "lat": 38.90439533333333, "bike_id": "6c768252a955c5eeece4b0928066080a", "is_disabled": 0, "lon": -77.02842116666666, "is_reserved": 0, "fusion_lat": 0.0, "type": "electric_scooter"}, {"fusion_lon": 0.0, "name": "21ce3ee5cc0b960290bb7aa7f6474cb2", "rental_uris": {"android": "https://dc.lft.to/lastmile_qr_scan", "ios": "https://dc.lft.to/lastmile_qr_scan"}, "lat": 38.915707166666664, "bike_id": "21ce3ee5cc0b960290bb7aa7f6474cb2", "is_disabled": 0, "lon": -77.02403416666667, "is_reserved": 0, "fusion_lat": 0.0, "type": "electric_scooter"}, {"fusion_lon": 0.0, "name": "3c824ca8eddcad0d1af8bdb030251fdd", "rental_uris": {"android": "https://dc.lft.to/lastmile_qr_scan", "ios": "https://dc.lft.to/lastmile_qr_scan"}, "lat": 38.969318333333334, "bike_id": "3c824ca8eddcad0d1af8bdb030251fdd", "is_disabled": 0, "lon": -77.027073, "is_reserved": 0, "fusion_lat": 0.0, "type": "electric_scooter"}, {"fusion_lon": 0.0, "name": "7c4a4ebbaa4dbb1a51f4eed867b5c35b", "rental_uris": {"android": "https://dc.lft.to/lastmile_qr_scan", "ios": "https://dc.lft.to/lastmile_qr_scan"}, "lat": 38.92330366666667, "bike_id": "7c4a4ebbaa4dbb1a51f4eed867b5c35b", "is_disabled": 0, "lon": -77.03778066666666, "is_reserved": 0, "fusion_lat": 0.0, "type": "electric_scooter"}, {"fusion_lon": 0.0, "name": "7706be9c826fd3756f5e1b652e1f474b", "rental_uris": {"android": "https://dc.lft.to/lastmile_qr_scan", "ios": "https://dc.lft.to/lastmile_qr_scan"}, "lat": 38.92219583333333, "bike_id": "7706be9c826fd3756f5e1b652e1f474b", "is_disabled": 0, "lon": -77.01802583333334, "is_reserved": 0, "fusion_lat": 0.0, "type": "electric_scooter"}, {"fusion_lon": 0.0, "name": "5af1c5b41476feed0de91433e3499126", "rental_uris": {"android": "https://dc.lft.to/lastmile_qr_scan", "ios": "https://dc.lft.to/lastmile_qr_scan"}, "lat": 38.926682, "bike_id": "5af1c5b41476feed0de91433e3499126", "is_disabled": 0, "lon": -77.01495116666666, "is_reserved": 0, "fusion_lat": 0.0, "type": "electric_scooter"}, {"fusion_lon": 0.0, "name": "256efad649e5247b6272ba81928f32b9", "rental_uris": {"android": "https://dc.lft.to/lastmile_qr_scan", "ios": "https://dc.lft.to/lastmile_qr_scan"}, "lat": 38.901489166666664, "bike_id": "256efad649e5247b6272ba81928f32b9", "is_disabled": 0, "lon": -77.02467433333334, "is_reserved": 0, "fusion_lat": 0.0, "type": "electric_scooter"}, {"fusion_lon": 0.0, "name": "296fffed3af792d7d5f665b2f1c6a5df", "rental_uris": {"android": "https://dc.lft.to/lastmile_qr_scan", "ios": "https://dc.lft.to/lastmile_qr_scan"}, "lat": 38.90122133333333, "bike_id": "296fffed3af792d7d5f665b2f1c6a5df", "is_disabled": 0, "lon": -77.0304505, "is_reserved": 0, "fusion_lat": 0.0, "type": "electric_scooter"}, {"fusion_lon": 0.0, "name": "f5774ab20c7bcf6886c0002415350827", "rental_uris": {"android": "https://dc.lft.to/lastmile_qr_scan", "ios": "https://dc.lft.to/lastmile_qr_scan"}, "lat": 38.957144666666665, "bike_id": "f5774ab20c7bcf6886c0002415350827", "is_disabled": 0, "lon": -77.00232916666667, "is_reserved": 0, "fusion_lat": 0.0, "type": "electric_scooter"}, {"fusion_lon": 0.0, "name": "35db5cf27e0958e70917c23752630d22", "rental_uris": {"android": "https://dc.lft.to/lastmile_qr_scan", "ios": "https://dc.lft.to/lastmile_qr_scan"}, "lat": 38.905210833333335, "bike_id": "35db5cf27e0958e70917c23752630d22", "is_disabled": 0, "lon": -77.06000183333333, "is_reserved": 0, "fusion_lat": 0.0, "type": "electric_scooter"}, {"fusion_lon": 0.0, "name": "eb2f2d667d2438fee821a3027d2b0aa6", "rental_uris": {"android": "https://dc.lft.to/lastmile_qr_scan", "ios": "https://dc.lft.to/lastmile_qr_scan"}, "lat": 38.90675533333334, "bike_id": "eb2f2d667d2438fee821a3027d2b0aa6", "is_disabled": 0, "lon": -77.02691066666667, "is_reserved": 0, "fusion_lat": 0.0, "type": "electric_scooter"}, {"fusion_lon": 0.0, "name": "aa0807a2498210c2eea94e4fe95e4df7", "rental_uris": {"android": "https://dc.lft.to/lastmile_qr_scan", "ios": "https://dc.lft.to/lastmile_qr_scan"}, "lat": 38.9237975, "bike_id": "aa0807a2498210c2eea94e4fe95e4df7", "is_disabled": 0, "lon": -77.025538, "is_reserved": 0, "fusion_lat": 0.0, "type": "electric_scooter"}, {"fusion_lon": 0.0, "name": "0b34270cc29bf9dcc561337e30824d62", "rental_uris": {"android": "https://dc.lft.to/lastmile_qr_scan", "ios": "https://dc.lft.to/lastmile_qr_scan"}, "lat": 38.94227983333333, "bike_id": "0b34270cc29bf9dcc561337e30824d62", "is_disabled": 0, "lon": -77.0144105, "is_reserved": 0, "fusion_lat": 0.0, "type": "electric_scooter"}, {"fusion_lon": 0.0, "name": "a1a3b1ee1c2f21166353215f6f9acd20", "rental_uris": {"android": "https://dc.lft.to/lastmile_qr_scan", "ios": "https://dc.lft.to/lastmile_qr_scan"}, "lat": 38.90149183333333, "bike_id": "a1a3b1ee1c2f21166353215f6f9acd20", "is_disabled": 0, "lon": -77.02196016666667, "is_reserved": 0, "fusion_lat": 0.0, "type": "electric_scooter"}, {"fusion_lon": 0.0, "name": "6d726a672272f17a71a8284020c0a3d3", "rental_uris": {"android": "https://dc.lft.to/lastmile_qr_scan", "ios": "https://dc.lft.to/lastmile_qr_scan"}, "lat": 38.90239733333333, "bike_id": "6d726a672272f17a71a8284020c0a3d3", "is_disabled": 0, "lon": -77.0020355, "is_reserved": 0, "fusion_lat": 0.0, "type": "electric_scooter"}, {"fusion_lon": 0.0, "name": "def37cca3727a1e2b11b9460d6658099", "rental_uris": {"android": "https://dc.lft.to/lastmile_qr_scan", "ios": "https://dc.lft.to/lastmile_qr_scan"}, "lat": 38.871726, "bike_id": "def37cca3727a1e2b11b9460d6658099", "is_disabled": 0, "lon": -77.00625283333333, "is_reserved": 0, "fusion_lat": 0.0, "type": "electric_scooter"}, {"fusion_lon": 0.0, "name": "565642ca579321f12760cef49d92aaf6", "rental_uris": {"android": "https://dc.lft.to/lastmile_qr_scan", "ios": "https://dc.lft.to/lastmile_qr_scan"}, "lat": 38.926837166666665, "bike_id": "565642ca579321f12760cef49d92aaf6", "is_disabled": 0, "lon": -77.01470316666666, "is_reserved": 0, "fusion_lat": 0.0, "type": "electric_scooter"}, {"fusion_lon": 0.0, "name": "7784c25ea3871961b461cb3144055ee4", "rental_uris": {"android": "https://dc.lft.to/lastmile_qr_scan", "ios": "https://dc.lft.to/lastmile_qr_scan"}, "lat": 38.905962833333334, "bike_id": "7784c25ea3871961b461cb3144055ee4", "is_disabled": 0, "lon": -77.02596333333334, "is_reserved": 0, "fusion_lat": 0.0, "type": "electric_scooter"}, {"fusion_lon": 0.0, "name": "046719b153daa10480edd316bb016afc", "rental_uris": {"android": "https://dc.lft.to/lastmile_qr_scan", "ios": "https://dc.lft.to/lastmile_qr_scan"}, "lat": 38.9237515, "bike_id": "046719b153daa10480edd316bb016afc", "is_disabled": 0, "lon": -77.03054466666667, "is_reserved": 0, "fusion_lat": 0.0, "type": "electric_scooter"}, {"fusion_lon": 0.0, "name": "acdadefd3b8df93d38da3549f635afc7", "rental_uris": {"android": "https://dc.lft.to/lastmile_qr_scan", "ios": "https://dc.lft.to/lastmile_qr_scan"}, "lat": 38.9344575, "bike_id": "acdadefd3b8df93d38da3549f635afc7", "is_disabled": 0, "lon": -77.08966416666667, "is_reserved": 0, "fusion_lat": 0.0, "type": "electric_scooter"}, {"fusion_lon": 0.0, "name": "284fa70b7ab7a8364484f026975b80fc", "rental_uris": {"android": "https://dc.lft.to/lastmile_qr_scan", "ios": "https://dc.lft.to/lastmile_qr_scan"}, "lat": 38.92823383333333, "bike_id": "284fa70b7ab7a8364484f026975b80fc", "is_disabled": 0, "lon": -77.01383, "is_reserved": 0, "fusion_lat": 0.0, "type": "electric_scooter"}, {"fusion_lon": 0.0, "name": "b6b13de33a54767d8b94d07bd9889a79", "rental_uris": {"android": "https://dc.lft.to/lastmile_qr_scan", "ios": "https://dc.lft.to/lastmile_qr_scan"}, "lat": 38.9070705, "bike_id": "b6b13de33a54767d8b94d07bd9889a79", "is_disabled": 0, "lon": -77.02393, "is_reserved": 0, "fusion_lat": 0.0, "type": "electric_scooter"}, {"fusion_lon": 0.0, "name": "bd6282078de8e6581fb7fe68cd915d28", "rental_uris": {"android": "https://dc.lft.to/lastmile_qr_scan", "ios": "https://dc.lft.to/lastmile_qr_scan"}, "lat": 38.9384105, "bike_id": "bd6282078de8e6581fb7fe68cd915d28", "is_disabled": 0, "lon": -77.024516, "is_reserved": 0, "fusion_lat": 0.0, "type": "electric_scooter"}, {"fusion_lon": 0.0, "name": "08c71296702c3c2f257c119653f61070", "rental_uris": {"android": "https://dc.lft.to/lastmile_qr_scan", "ios": "https://dc.lft.to/lastmile_qr_scan"}, "lat": 38.92262733333333, "bike_id": "08c71296702c3c2f257c119653f61070", "is_disabled": 0, "lon": -77.07334333333333, "is_reserved": 0, "fusion_lat": 0.0, "type": "electric_scooter"}, {"fusion_lon": 0.0, "name": "d417e38b444293b4c7cba5a95a615093", "rental_uris": {"android": "https://dc.lft.to/lastmile_qr_scan", "ios": "https://dc.lft.to/lastmile_qr_scan"}, "lat": 38.904603333333334, "bike_id": "d417e38b444293b4c7cba5a95a615093", "is_disabled": 0, "lon": -77.02948833333333, "is_reserved": 0, "fusion_lat": 0.0, "type": "electric_scooter"}, {"fusion_lon": 0.0, "name": "ff63df5445d2d218247bf2862bc0179f", "rental_uris": {"android": "https://dc.lft.to/lastmile_qr_scan", "ios": "https://dc.lft.to/lastmile_qr_scan"}, "lat": 38.922583, "bike_id": "ff63df5445d2d218247bf2862bc0179f", "is_disabled": 0, "lon": -77.01949783333333, "is_reserved": 0, "fusion_lat": 0.0, "type": "electric_scooter"}, {"fusion_lon": 0.0, "name": "f260aa138bad245210df57d715156320", "rental_uris": {"android": "https://dc.lft.to/lastmile_qr_scan", "ios": "https://dc.lft.to/lastmile_qr_scan"}, "lat": 38.944501333333335, "bike_id": "f260aa138bad245210df57d715156320", "is_disabled": 0, "lon": -77.02341166666666, "is_reserved": 0, "fusion_lat": 0.0, "type": "electric_scooter"}, {"fusion_lon": 0.0, "name": "6293cff9c8e353d9e3251d10b0aa065b", "rental_uris": {"android": "https://dc.lft.to/lastmile_qr_scan", "ios": "https://dc.lft.to/lastmile_qr_scan"}, "lat": 38.903482, "bike_id": "6293cff9c8e353d9e3251d10b0aa065b", "is_disabled": 0, "lon": -77.0619965, "is_reserved": 0, "fusion_lat": 0.0, "type": "electric_scooter"}, {"fusion_lon": 0.0, "name": "93f1eb759ac963aac3e746245917a9ba", "rental_uris": {"android": "https://dc.lft.to/lastmile_qr_scan", "ios": "https://dc.lft.to/lastmile_qr_scan"}, "lat": 38.90486383333333, "bike_id": "93f1eb759ac963aac3e746245917a9ba", "is_disabled": 0, "lon": -77.0485535, "is_reserved": 0, "fusion_lat": 0.0, "type": "electric_scooter"}, {"fusion_lon": 0.0, "name": "8bc2ab3597c4c3efc99ebf6bc48fb362", "rental_uris": {"android": "https://dc.lft.to/lastmile_qr_scan", "ios": "https://dc.lft.to/lastmile_qr_scan"}, "lat": 38.910183, "bike_id": "8bc2ab3597c4c3efc99ebf6bc48fb362", "is_disabled": 0, "lon": -77.038543, "is_reserved": 0, "fusion_lat": 0.0, "type": "electric_scooter"}, {"fusion_lon": 0.0, "name": "9fd82f27a2db0c390580ce995f9ba216", "rental_uris": {"android": "https://dc.lft.to/lastmile_qr_scan", "ios": "https://dc.lft.to/lastmile_qr_scan"}, "lat": 38.92796966666667, "bike_id": "9fd82f27a2db0c390580ce995f9ba216", "is_disabled": 0, "lon": -77.03694866666666, "is_reserved": 0, "fusion_lat": 0.0, "type": "electric_scooter"}, {"fusion_lon": 0.0, "name": "307bd1fe1f1eef47fdd9c839c784c39c", "rental_uris": {"android": "https://dc.lft.to/lastmile_qr_scan", "ios": "https://dc.lft.to/lastmile_qr_scan"}, "lat": 38.950638, "bike_id": "307bd1fe1f1eef47fdd9c839c784c39c", "is_disabled": 0, "lon": -77.06633166666667, "is_reserved": 0, "fusion_lat": 0.0, "type": "electric_bike"}, {"fusion_lon": 0.0, "name": "4868dca842d2f1c14cd065a2baa66494", "rental_uris": {"android": "https://dc.lft.to/lastmile_qr_scan", "ios": "https://dc.lft.to/lastmile_qr_scan"}, "lat": 38.896871833333336, "bike_id": "4868dca842d2f1c14cd065a2baa66494", "is_disabled": 0, "lon": -77.04329716666666, "is_reserved": 0, "fusion_lat": 0.0, "type": "electric_scooter"}, {"fusion_lon": 0.0, "name": "307378c00a88cfb7351905c90268a1cf", "rental_uris": {"android": "https://dc.lft.to/lastmile_qr_scan", "ios": "https://dc.lft.to/lastmile_qr_scan"}, "lat": 38.914058833333335, "bike_id": "307378c00a88cfb7351905c90268a1cf", "is_disabled": 0, "lon": -77.01842783333333, "is_reserved": 0, "fusion_lat": 0.0, "type": "electric_scooter"}, {"fusion_lon": 0.0, "name": "5416b9583055f98b53e7a5ba43054c3e", "rental_uris": {"android": "https://dc.lft.to/lastmile_qr_scan", "ios": "https://dc.lft.to/lastmile_qr_scan"}, "lat": 38.92620083333333, "bike_id": "5416b9583055f98b53e7a5ba43054c3e", "is_disabled": 0, "lon": -77.0367875, "is_reserved": 0, "fusion_lat": 0.0, "type": "electric_scooter"}, {"fusion_lon": 0.0, "name": "de91b6428c0c6dd87fd592aae1c2e762", "rental_uris": {"android": "https://dc.lft.to/lastmile_qr_scan", "ios": "https://dc.lft.to/lastmile_qr_scan"}, "lat": 38.92636983333333, "bike_id": "de91b6428c0c6dd87fd592aae1c2e762", "is_disabled": 0, "lon": -77.03713366666666, "is_reserved": 0, "fusion_lat": 0.0, "type": "electric_scooter"}, {"fusion_lon": 0.0, "name": "a70f0543912148629023522e788ff441", "rental_uris": {"android": "https://dc.lft.to/lastmile_qr_scan", "ios": "https://dc.lft.to/lastmile_qr_scan"}, "lat": 38.90356833333333, "bike_id": "a70f0543912148629023522e788ff441", "is_disabled": 0, "lon": -77.02615616666667, "is_reserved": 0, "fusion_lat": 0.0, "type": "electric_scooter"}, {"fusion_lon": 0.0, "name": "7b38d33c5398e6b780b361d441f04da2", "rental_uris": {"android": "https://dc.lft.to/lastmile_qr_scan", "ios": "https://dc.lft.to/lastmile_qr_scan"}, "lat": 38.92461933333333, "bike_id": "7b38d33c5398e6b780b361d441f04da2", "is_disabled": 0, "lon": -77.05236316666667, "is_reserved": 0, "fusion_lat": 0.0, "type": "electric_scooter"}, {"fusion_lon": 0.0, "name": "b262797b8e9ad92ff3c3e4abf1859da8", "rental_uris": {"android": "https://dc.lft.to/lastmile_qr_scan", "ios": "https://dc.lft.to/lastmile_qr_scan"}, "lat": 38.92032233333333, "bike_id": "b262797b8e9ad92ff3c3e4abf1859da8", "is_disabled": 0, "lon": -77.04811883333333, "is_reserved": 0, "fusion_lat": 0.0, "type": "electric_scooter"}, {"fusion_lon": 0.0, "name": "3f148af1d5c44e00747b3c733e2d07ff", "rental_uris": {"android": "https://dc.lft.to/lastmile_qr_scan", "ios": "https://dc.lft.to/lastmile_qr_scan"}, "lat": 38.89469833333333, "bike_id": "3f148af1d5c44e00747b3c733e2d07ff", "is_disabled": 0, "lon": -77.02117466666667, "is_reserved": 0, "fusion_lat": 0.0, "type": "electric_scooter"}, {"fusion_lon": 0.0, "name": "d21f3d38acd31342c5e343067b77f7b7", "rental_uris": {"android": "https://dc.lft.to/lastmile_qr_scan", "ios": "https://dc.lft.to/lastmile_qr_scan"}, "lat": 38.95780833333333, "bike_id": "d21f3d38acd31342c5e343067b77f7b7", "is_disabled": 0, "lon": -77.02465683333334, "is_reserved": 0, "fusion_lat": 0.0, "type": "electric_scooter"}, {"fusion_lon": 0.0, "name": "aaed47cc1672309399d0f9cdf6356044", "rental_uris": {"android": "https://dc.lft.to/lastmile_qr_scan", "ios": "https://dc.lft.to/lastmile_qr_scan"}, "lat": 38.932972, "bike_id": "aaed47cc1672309399d0f9cdf6356044", "is_disabled": 0, "lon": -77.0853005, "is_reserved": 0, "fusion_lat": 0.0, "type": "electric_scooter"}, {"fusion_lon": 0.0, "name": "7a18dedf958e84cffbd56e5950f901c2", "rental_uris": {"android": "https://dc.lft.to/lastmile_qr_scan", "ios": "https://dc.lft.to/lastmile_qr_scan"}, "lat": 38.91120466666667, "bike_id": "7a18dedf958e84cffbd56e5950f901c2", "is_disabled": 0, "lon": -77.03830733333334, "is_reserved": 0, "fusion_lat": 0.0, "type": "electric_scooter"}, {"fusion_lon": 0.0, "name": "7b42d9d56ea5a287f3a71a09025b9a96", "rental_uris": {"android": "https://dc.lft.to/lastmile_qr_scan", "ios": "https://dc.lft.to/lastmile_qr_scan"}, "lat": 38.9305885, "bike_id": "7b42d9d56ea5a287f3a71a09025b9a96", "is_disabled": 0, "lon": -77.02326183333334, "is_reserved": 0, "fusion_lat": 0.0, "type": "electric_scooter"}, {"fusion_lon": 0.0, "name": "03f9e82669b5eb4616fa273c9ab1ac35", "rental_uris": {"android": "https://dc.lft.to/lastmile_qr_scan", "ios": "https://dc.lft.to/lastmile_qr_scan"}, "lat": 38.92857133333333, "bike_id": "03f9e82669b5eb4616fa273c9ab1ac35", "is_disabled": 0, "lon": -77.054248, "is_reserved": 0, "fusion_lat": 0.0, "type": "electric_scooter"}, {"fusion_lon": 0.0, "name": "f83bb6413c30c15dea927a651cdf1f98", "rental_uris": {"android": "https://dc.lft.to/lastmile_qr_scan", "ios": "https://dc.lft.to/lastmile_qr_scan"}, "lat": 38.87864116666667, "bike_id": "f83bb6413c30c15dea927a651cdf1f98", "is_disabled": 0, "lon": -76.99158733333333, "is_reserved": 0, "fusion_lat": 0.0, "type": "electric_scooter"}, {"fusion_lon": 0.0, "name": "c5d52a965c0ea0800287368a9232dddd", "rental_uris": {"android": "https://dc.lft.to/lastmile_qr_scan", "ios": "https://dc.lft.to/lastmile_qr_scan"}, "lat": 38.9006545, "bike_id": "c5d52a965c0ea0800287368a9232dddd", "is_disabled": 0, "lon": -76.92746866666667, "is_reserved": 0, "fusion_lat": 0.0, "type": "electric_scooter"}, {"fusion_lon": 0.0, "name": "64812aa98e2871375124df08046c82bc", "rental_uris": {"android": "https://dc.lft.to/lastmile_qr_scan", "ios": "https://dc.lft.to/lastmile_qr_scan"}, "lat": 38.89945683333333, "bike_id": "64812aa98e2871375124df08046c82bc", "is_disabled": 0, "lon": -77.0479725, "is_reserved": 0, "fusion_lat": 0.0, "type": "electric_scooter"}, {"fusion_lon": 0.0, "name": "ca21c2bb898fcbfc3eaa462ca8167f2c", "rental_uris": {"android": "https://dc.lft.to/lastmile_qr_scan", "ios": "https://dc.lft.to/lastmile_qr_scan"}, "lat": 38.898855833333336, "bike_id": "ca21c2bb898fcbfc3eaa462ca8167f2c", "is_disabled": 0, "lon": -77.032827, "is_reserved": 0, "fusion_lat": 0.0, "type": "electric_scooter"}, {"fusion_lon": 0.0, "name": "c2fa0214362a7bc4de97cc47811c4cdb", "rental_uris": {"android": "https://dc.lft.to/lastmile_qr_scan", "ios": "https://dc.lft.to/lastmile_qr_scan"}, "lat": 38.961200833333336, "bike_id": "c2fa0214362a7bc4de97cc47811c4cdb", "is_disabled": 0, "lon": -77.027882, "is_reserved": 0, "fusion_lat": 0.0, "type": "electric_scooter"}, {"fusion_lon": 0.0, "name": "6c47903d535edbbfc5235c97f8f016d2", "rental_uris": {"android": "https://dc.lft.to/lastmile_qr_scan", "ios": "https://dc.lft.to/lastmile_qr_scan"}, "lat": 38.935244833333336, "bike_id": "6c47903d535edbbfc5235c97f8f016d2", "is_disabled": 0, "lon": -77.02845716666667, "is_reserved": 0, "fusion_lat": 0.0, "type": "electric_scooter"}, {"fusion_lon": 0.0, "name": "cf3a8d96f179b216c0f3e87dfcfa5cbe", "rental_uris": {"android": "https://dc.lft.to/lastmile_qr_scan", "ios": "https://dc.lft.to/lastmile_qr_scan"}, "lat": 38.89744, "bike_id": "cf3a8d96f179b216c0f3e87dfcfa5cbe", "is_disabled": 0, "lon": -77.025985, "is_reserved": 0, "fusion_lat": 0.0, "type": "electric_scooter"}, {"fusion_lon": 0.0, "name": "5485d8bd13653646165cbf0048f92728", "rental_uris": {"android": "https://dc.lft.to/lastmile_qr_scan", "ios": "https://dc.lft.to/lastmile_qr_scan"}, "lat": 38.88265666666667, "bike_id": "5485d8bd13653646165cbf0048f92728", "is_disabled": 0, "lon": -76.99199, "is_reserved": 0, "fusion_lat": 0.0, "type": "electric_scooter"}, {"fusion_lon": 0.0, "name": "92af76d880b620bdfe528efbf9e5190c", "rental_uris": {"android": "https://dc.lft.to/lastmile_qr_scan", "ios": "https://dc.lft.to/lastmile_qr_scan"}, "lat": 38.91802766666667, "bike_id": "92af76d880b620bdfe528efbf9e5190c", "is_disabled": 0, "lon": -77.03441616666667, "is_reserved": 0, "fusion_lat": 0.0, "type": "electric_scooter"}, {"fusion_lon": 0.0, "name": "551b02c55939c282e89212bbe1ee3e95", "rental_uris": {"android": "https://dc.lft.to/lastmile_qr_scan", "ios": "https://dc.lft.to/lastmile_qr_scan"}, "lat": 38.9052105, "bike_id": "551b02c55939c282e89212bbe1ee3e95", "is_disabled": 0, "lon": -77.005803, "is_reserved": 0, "fusion_lat": 0.0, "type": "electric_scooter"}, {"fusion_lon": 0.0, "name": "2320962967f92bb51e906b2d850e1464", "rental_uris": {"android": "https://dc.lft.to/lastmile_qr_scan", "ios": "https://dc.lft.to/lastmile_qr_scan"}, "lat": 38.9195015, "bike_id": "2320962967f92bb51e906b2d850e1464", "is_disabled": 0, "lon": -77.0178225, "is_reserved": 0, "fusion_lat": 0.0, "type": "electric_scooter"}, {"fusion_lon": 0.0, "name": "0ef91ac3718d3471e26190d1c637d371", "rental_uris": {"android": "https://dc.lft.to/lastmile_qr_scan", "ios": "https://dc.lft.to/lastmile_qr_scan"}, "lat": 38.92935116666666, "bike_id": "0ef91ac3718d3471e26190d1c637d371", "is_disabled": 0, "lon": -76.9957695, "is_reserved": 0, "fusion_lat": 0.0, "type": "electric_scooter"}, {"fusion_lon": 0.0, "name": "a89919fe46c42c89819f99c7b6b98bb0", "rental_uris": {"android": "https://dc.lft.to/lastmile_qr_scan", "ios": "https://dc.lft.to/lastmile_qr_scan"}, "lat": 38.8962495, "bike_id": "a89919fe46c42c89819f99c7b6b98bb0", "is_disabled": 0, "lon": -77.01172283333334, "is_reserved": 0, "fusion_lat": 0.0, "type": "electric_scooter"}, {"fusion_lon": 0.0, "name": "1bf0c8e5632a9cfb5054458d1dbe0270", "rental_uris": {"android": "https://dc.lft.to/lastmile_qr_scan", "ios": "https://dc.lft.to/lastmile_qr_scan"}, "lat": 38.87635683333333, "bike_id": "1bf0c8e5632a9cfb5054458d1dbe0270", "is_disabled": 0, "lon": -77.01658683333333, "is_reserved": 0, "fusion_lat": 0.0, "type": "electric_scooter"}, {"fusion_lon": 0.0, "name": "728f6d729a371a690709d5517c53ce58", "rental_uris": {"android": "https://dc.lft.to/lastmile_qr_scan", "ios": "https://dc.lft.to/lastmile_qr_scan"}, "lat": 38.9005135, "bike_id": "728f6d729a371a690709d5517c53ce58", "is_disabled": 0, "lon": -77.04331183333333, "is_reserved": 0, "fusion_lat": 0.0, "type": "electric_scooter"}, {"fusion_lon": 0.0, "name": "283cb25af740cd91043275993b59c217", "rental_uris": {"android": "https://dc.lft.to/lastmile_qr_scan", "ios": "https://dc.lft.to/lastmile_qr_scan"}, "lat": 38.92190566666667, "bike_id": "283cb25af740cd91043275993b59c217", "is_disabled": 0, "lon": -77.0351295, "is_reserved": 0, "fusion_lat": 0.0, "type": "electric_scooter"}, {"fusion_lon": 0.0, "name": "9d8428ee1175eccd382fa32fb9132eab", "rental_uris": {"android": "https://dc.lft.to/lastmile_qr_scan", "ios": "https://dc.lft.to/lastmile_qr_scan"}, "lat": 38.93701, "bike_id": "9d8428ee1175eccd382fa32fb9132eab", "is_disabled": 0, "lon": -77.0559955, "is_reserved": 0, "fusion_lat": 0.0, "type": "electric_scooter"}, {"fusion_lon": 0.0, "name": "bd1ed126261b6e64a737c0c6120a1b33", "rental_uris": {"android": "https://dc.lft.to/lastmile_qr_scan", "ios": "https://dc.lft.to/lastmile_qr_scan"}, "lat": 38.93843066666667, "bike_id": "bd1ed126261b6e64a737c0c6120a1b33", "is_disabled": 0, "lon": -77.02450616666667, "is_reserved": 0, "fusion_lat": 0.0, "type": "electric_scooter"}, {"fusion_lon": 0.0, "name": "df5689372248c79b1a3940e7a3917445", "rental_uris": {"android": "https://dc.lft.to/lastmile_qr_scan", "ios": "https://dc.lft.to/lastmile_qr_scan"}, "lat": 38.917253333333335, "bike_id": "df5689372248c79b1a3940e7a3917445", "is_disabled": 0, "lon": -77.02963866666667, "is_reserved": 0, "fusion_lat": 0.0, "type": "electric_scooter"}, {"fusion_lon": 0.0, "name": "1a2670e2df5594b029ffd33cd342e2f5", "rental_uris": {"android": "https://dc.lft.to/lastmile_qr_scan", "ios": "https://dc.lft.to/lastmile_qr_scan"}, "lat": 38.923394333333334, "bike_id": "1a2670e2df5594b029ffd33cd342e2f5", "is_disabled": 0, "lon": -77.054292, "is_reserved": 0, "fusion_lat": 0.0, "type": "electric_scooter"}, {"fusion_lon": 0.0, "name": "22a5b12f0241461c2b9253fef57ea488", "rental_uris": {"android": "https://dc.lft.to/lastmile_qr_scan", "ios": "https://dc.lft.to/lastmile_qr_scan"}, "lat": 38.89903616666667, "bike_id": "22a5b12f0241461c2b9253fef57ea488", "is_disabled": 0, "lon": -76.98826666666666, "is_reserved": 0, "fusion_lat": 0.0, "type": "electric_scooter"}, {"fusion_lon": 0.0, "name": "a125bf8cb11a805609018b17c37ca887", "rental_uris": {"android": "https://dc.lft.to/lastmile_qr_scan", "ios": "https://dc.lft.to/lastmile_qr_scan"}, "lat": 38.828464, "bike_id": "a125bf8cb11a805609018b17c37ca887", "is_disabled": 0, "lon": -77.05904333333334, "is_reserved": 0, "fusion_lat": 0.0, "type": "electric_bike"}, {"fusion_lon": 0.0, "name": "f2a5cf00934f9caa90b6dc7cee0ea4c9", "rental_uris": {"android": "https://dc.lft.to/lastmile_qr_scan", "ios": "https://dc.lft.to/lastmile_qr_scan"}, "lat": 38.9235965, "bike_id": "f2a5cf00934f9caa90b6dc7cee0ea4c9", "is_disabled": 0, "lon": -77.07637933333334, "is_reserved": 0, "fusion_lat": 0.0, "type": "electric_scooter"}, {"fusion_lon": 0.0, "name": "70bdb2851659e2e06eca34669268aa27", "rental_uris": {"android": "https://dc.lft.to/lastmile_qr_scan", "ios": "https://dc.lft.to/lastmile_qr_scan"}, "lat": 38.9171225, "bike_id": "70bdb2851659e2e06eca34669268aa27", "is_disabled": 0, "lon": -77.03627066666667, "is_reserved": 0, "fusion_lat": 0.0, "type": "electric_scooter"}, {"fusion_lon": 0.0, "name": "5748ed7c7461e61cc0158b3376d6a5bf", "rental_uris": {"android": "https://dc.lft.to/lastmile_qr_scan", "ios": "https://dc.lft.to/lastmile_qr_scan"}, "lat": 38.9164975, "bike_id": "5748ed7c7461e61cc0158b3376d6a5bf", "is_disabled": 0, "lon": -77.01028183333334, "is_reserved": 0, "fusion_lat": 0.0, "type": "electric_scooter"}, {"fusion_lon": 0.0, "name": "69ebb4d50f1f3795de7fe239d4877117", "rental_uris": {"android": "https://dc.lft.to/lastmile_qr_scan", "ios": "https://dc.lft.to/lastmile_qr_scan"}, "lat": 38.94503733333333, "bike_id": "69ebb4d50f1f3795de7fe239d4877117", "is_disabled": 0, "lon": -77.06398916666667, "is_reserved": 0, "fusion_lat": 0.0, "type": "electric_scooter"}, {"fusion_lon": 0.0, "name": "ff5c6f7a2afd91be896a25d321daea36", "rental_uris": {"android": "https://dc.lft.to/lastmile_qr_scan", "ios": "https://dc.lft.to/lastmile_qr_scan"}, "lat": 38.920692, "bike_id": "ff5c6f7a2afd91be896a25d321daea36", "is_disabled": 0, "lon": -77.0346155, "is_reserved": 0, "fusion_lat": 0.0, "type": "electric_scooter"}, {"fusion_lon": 0.0, "name": "ba4c8e5d418699cc75cea269a2c87e16", "rental_uris": {"android": "https://dc.lft.to/lastmile_qr_scan", "ios": "https://dc.lft.to/lastmile_qr_scan"}, "lat": 38.9182345, "bike_id": "ba4c8e5d418699cc75cea269a2c87e16", "is_disabled": 0, "lon": -77.04176916666667, "is_reserved": 0, "fusion_lat": 0.0, "type": "electric_scooter"},